{"last_updated":1756239114,"ttl":60,"version":"2.2","data":{"bikes":[{"bike_id":"18cadd98-ca5b-4518-98d8-bbb26e647823","system_id":"levelo_inurba_marseille","lat":43.21188,"lon":5.35067,"is_reserved":false,"is_disabled":false,"rental_uris":{"android":"levelo://app?vid=18cadd98-ca5b-4518-98d8-bbb26e647823","ios":"levelo://app?vid=18cadd98-ca5b-4518-98d8-bbb26e647823"},"vehicle_type_id":"4","last_reported":1756239114,"current_range_meters":2800,"station_id":"st_cvj6sg6p6f1abm77japg","pricing_plan_id":"cebpf4jnsgd1na2vs0mg"},{"bike_id":"17be5d44-425d-41a4-99fa-12acfc32e334","system_id":"levelo_inurba_marseille","lat":43.31333,"lon":5.39699,"is_reserved":false,"is_disabled":false,"rental_uris":{"android":"levelo://app?vid=17be5d44-425d-41a4-99fa-12acfc32e334","ios":"levelo://app?vid=17be5d44-425d-41a4-99fa-12acfc32e334"},"vehicle_type_id":"4","last_reported":1756239114,"current_range_meters":2800,"station_id":"ce4bgvp2rcd13ifvqcu0","pricing_plan_id":"cebpf4jnsgd1na2vs0mg"},{"bike_id":"ae6e7466-f79a-43dd-ba01-51043638613b","system_id":"levelo_inurba_marseille","lat":43.337719,"lon":5.374779,"is_reserved":false,"is_disabled":false,"rental_uris":{"android":"levelo://app?vid=ae6e7466-f79a-43dd-ba01-51043638613b","ios":"levelo://app?vid=ae6e7466-f79a-43dd-ba01-51043638613b"},"vehicle_type_id":"4","last_reported":1756239114,"current_range_meters":2800,"station_id":"","pricing_plan_id":"cebpf4jnsgd1na2vs0mg"},{"bike_id":"67b1a2d0-ef2b-4814-86e0-1bdcb2a067ca","system_id":"levelo_inurba_marseille","lat":43.30816,"lon":5.43496,"is_reserved":false,"is_disabled":false,"rental_uris":{"android":"levelo://app?vid=67b1a2d0-ef2b-4814-86e0-1bdcb2a067ca","ios":"levelo://app?vid=67b1a2d0-ef2b-4814-86e0-1bdcb2a067ca"},"vehicle_type_id":"4","last_reported":1756239114,"current_range_meters":3200,"station_id":"ce4bhph2rcd13ifvqheg","pricing_plan_id":"cebpf4jnsgd1na2vs0mg"},{"bike_id":"c510d85a-63bb-49b4-a8fa-f302e45ed395","system_id":"levelo_inurba_marseille","lat":43.25113,"lon":5.40336,"is_reserved":false,"is_disabled":false,"rental_uris":{"android":"levelo://app?vid=c510d85a-63bb-49b4-a8fa-f302e45ed395","ios":"levelo://app?vid=c510d85a-63bb-49b4-a8fa-f302e45ed395"},"vehicle_type_id":"4","last_reported":1756239114,"current_range_meters":3200,"station_id":"ce4bhlh2rcd13ifvqgig","pricing_plan_id":"cebpf4jnsgd1na2vs0mg"},{"bike_id":"799d1b85-3867-46d4-9243-41085bbe6e56","system_id":"levelo_inurba_marseille","lat":43.279992,"lon":5.416624,"is_reserved":false,"is_disabled":false,"rental_uris":{"android":"levelo://app?vid=799d1b85-3867-46d4-9243-41085bbe6e56","ios":"levelo://app?vid=799d1b85-3867-46d4-9243-41085bbe6e56"},"vehicle_type_id":"4","last_reported":1756239114,"current_range_meters":3200,"station_id":"ce4bho12rcd13ifvqh1g","pricing_plan_id":"cebpf4jnsgd1na2vs0mg"},{"bike_id":"932266f1-6d81-484b-bfc3-906276f16aea","system_id":"levelo_inurba_marseille","lat":43.33146,"lon":5.39578,"is_reserved":false,"is_disabled":false,"rental_uris":{"android":"levelo://app?vid=932266f1-6d81-484b-bfc3-906276f16aea","ios":"levelo://app?vid=932266f1-6d81-484b-bfc3-906276f16aea"},"vehicle_type_id":"4","last_reported":1756239114,"current_range_meters":3200,"station_id":"","pricing_plan_id":"cebpf4jnsgd1na2vs0mg"},{"bike_id":"0a980217-eb1c-442f-aa4e-5c09aed8aa12","system_id":"levelo_inurba_marseille","lat":43.28399,"lon":5.37512,"is_reserved":false,"is_disabled":false,"rental_uris":{"android":"levelo://app?vid=0a980217-eb1c-442f-aa4e-5c09aed8aa12","ios":"levelo://app?vid=0a980217-eb1c-442f-aa4e-5c09aed8aa12"},"vehicle_type_id":"4","last_reported":1756239114,"current_range_meters":3200,"station_id":"ce4bh412rcd13ifvqds0","pricing_plan_id":"cebpf4jnsgd1na2vs0mg"},{"bike_id":"8c0a8a62-bea8-4ffa-b376-760a95a82a35","system_id":"levelo_inurba_marseille","lat":43.29883,"lon":5.37626,"is_reserved":false,"is_disabled":false,"rental_uris":{"android":"levelo://app?vid=8c0a8a62-bea8-4ffa-b376-760a95a82a35","ios":"levelo://app?vid=8c0a8a62-bea8-4ffa-b376-760a95a82a35"},"vehicle_type_id":"4","last_reported":1756239114,"current_range_meters":3200,"station_id":"","pricing_plan_id":"cebpf4jnsgd1na2vs0mg"},{"bike_id":"0da73956-1be8-4c70-ac8c-e577e7ce508a","system_id":"levelo_inurba_marseille","lat":43.29692,"lon":5.36602,"is_reserved":false,"is_disabled":false,"rental_uris":{"android":"levelo://app?vid=0da73956-1be8-4c70-ac8c-e577e7ce508a","ios":"levelo://app?vid=0da73956-1be8-4c70-ac8c-e577e7ce508a"},"vehicle_type_id":"4","last_reported":1756239114,"current_range_meters":3600,"station_id":"ce4bgn12rcd13ifvqbt0","pricing_plan_id":"cebpf4jnsgd1na2vs0mg"},{"bike_id":"b1266262-bea2-469a-b2d5-ac3b13d3548b","system_id":"levelo_inurba_marseille","lat":43.27992,"lon":5.40011,"is_reserved":false,"is_disabled":false,"rental_uris":{"android":"levelo://app?vid=b1266262-bea2-469a-b2d5-ac3b13d3548b","ios":"levelo://app?vid=b1266262-bea2-469a-b2d5-ac3b13d3548b"},"vehicle_type_id":"4","last_reported":1756239114,"current_range_meters":3600,"station_id":"ce4bho92rcd13ifvqh4g","pricing_plan_id":"cebpf4jnsgd1na2vs0mg"},{"bike_id":"c4ccc10f-8ccd-44be-a00a-f6ebdc6ec159","system_id":"levelo_inurba_marseille","lat":43.30408,"lon":5.43441,"is_reserved":false,"is_disabled":false,"rental_uris":{"android":"levelo://app?vid=c4ccc10f-8ccd-44be-a00a-f6ebdc6ec159","ios":"levelo://app?vid=c4ccc10f-8ccd-44be-a00a-f6ebdc6ec159"},"vehicle_type_id":"4","last_reported":1756239114,"current_range_meters":4000,"station_id":"","pricing_plan_id":"cebpf4jnsgd1na2vs0mg"},{"bike_id":"fb0ecd7c-2c0f-42f1-9e73-9448c9893367","system_id":"levelo_inurba_marseille","lat":43.26478,"lon":5.37031,"is_reserved":false,"is_disabled":false,"rental_uris":{"android":"levelo://app?vid=fb0ecd7c-2c0f-42f1-9e73-9448c9893367","ios":"levelo://app?vid=fb0ecd7c-2c0f-42f1-9e73-9448c9893367"},"vehicle_type_id":"4","last_reported":1756239114,"current_range_meters":4000,"station_id":"","pricing_plan_id":"cebpf4jnsgd1na2vs0mg"},{"bike_id":"8b584971-4c8f-44b7-9f87-3237d957d6f2","system_id":"levelo_inurba_marseille","lat":43.26561,"lon":5.39004,"is_reserved":false,"is_disabled":false,"rental_uris":{"android":"levelo://app?vid=8b584971-4c8f-44b7-9f87-3237d957d6f2","ios":"levelo://app?vid=8b584971-4c8f-44b7-9f87-3237d957d6f2"},"vehicle_type_id":"4","last_reported":1756239114,"current_range_meters":4400,"station_id":"ce4bhe12rcd13ifvqf30","pricing_plan_id":"cebpf4jnsgd1na2vs0mg"},{"bike_id":"a39873e0-7323-414b-b304-0dedf58e70d5","system_id":"levelo_inurba_marseille","lat":43.28929,"lon":5.36636,"is_reserved":false,"is_disabled":false,"rental_uris":{"android":"levelo://app?vid=a39873e0-7323-414b-b304-0dedf58e70d5","ios":"levelo://app?vid=a39873e0-7323-414b-b304-0dedf58e70d5"},"vehicle_type_id":"4","last_reported":1756239114,"current_range_meters":4800,"station_id":"ce4bhap2rcd13ifvqek0","pricing_plan_id":"cebpf4jnsgd1na2vs0mg"},{"bike_id":"789cabe6-4f06-4b08-a03f-11dd5a79f027","system_id":"levelo_inurba_marseille","lat":43.30218,"lon":5.39461,"is_reserved":false,"is_disabled":false,"rental_uris":{"android":"levelo://app?vid=789cabe6-4f06-4b08-a03f-11dd5a79f027","ios":"levelo://app?vid=789cabe6-4f06-4b08-a03f-11dd5a79f027"},"vehicle_type_id":"4","last_reported":1756239114,"current_range_meters":4800,"station_id":"ce4bh0p2rcd13ifvqd70","pricing_plan_id":"cebpf4jnsgd1na2vs0mg"},{"bike_id":"69dea794-ff41-4ff0-9312-973f237cfcb2","system_id":"levelo_inurba_marseille","lat":43.21176,"lon":5.3508,"is_reserved":false,"is_disabled":false,"rental_uris":{"android":"levelo://app?vid=69dea794-ff41-4ff0-9312-973f237cfcb2","ios":"levelo://app?vid=69dea794-ff41-4ff0-9312-973f237cfcb2"},"vehicle_type_id":"4","last_reported":1756239114,"current_range_meters":4800,"station_id":"","pricing_plan_id":"cebpf4jnsgd1na2vs0mg"},{"bike_id":"c6c90f8b-b4f2-47fa-bf09-d97cd8c76dee","system_id":"levelo_inurba_marseille","lat":43.28928,"lon":5.384,"is_reserved":false,"is_disabled":false,"rental_uris":{"android":"levelo://app?vid=c6c90f8b-b4f2-47fa-bf09-d97cd8c76dee","ios":"levelo://app?vid=c6c90f8b-b4f2-47fa-bf09-d97cd8c76dee"},"vehicle_type_id":"4","last_reported":1756239114,"current_range_meters":5600,"station_id":"ce4bh612rcd13ifvqe6g","pricing_plan_id":"cebpf4jnsgd1na2vs0mg"},{"bike_id":"08168ec2-0834-4eb3-a336-427c2c3279a5","system_id":"levelo_inurba_marseille","lat":43.2175,"lon":5.346,"is_reserved":false,"is_disabled":false,"rental_uris":{"android":"levelo://app?vid=08168ec2-0834-4eb3-a336-427c2c3279a5","ios":"levelo://app?vid=08168ec2-0834-4eb3-a336-427c2c3279a5"},"vehicle_type_id":"4","last_reported":1756239114,"current_range_meters":6000,"station_id":"st_cvj6r9ubvosntc0bgbag","pricing_plan_id":"cebpf4jnsgd1na2vs0mg"},{"bike_id":"99a547c0-b38d-459e-a057-41aa33fb668f","system_id":"levelo_inurba_marseille","lat":43.27841,"lon":5.39214,"is_reserved":false,"is_disabled":false,"rental_uris":{"android":"levelo://app?vid=99a547c0-b38d-459e-a057-41aa33fb668f","ios":"levelo://app?vid=99a547c0-b38d-459e-a057-41aa33fb668f"},"vehicle_type_id":"4","last_reported":1756239114,"current_range_meters":6000,"station_id":"ce4bhjp2rcd13ifvqga0","pricing_plan_id":"cebpf4jnsgd1na2vs0mg"},{"bike_id":"51ef7880-9da5-4df4-8e41-3774b4cde58a","system_id":"levelo_inurba_marseille","lat":43.28141,"lon":5.4264,"is_reserved":false,"is_disabled":false,"rental_uris":{"android":"levelo://app?vid=51ef7880-9da5-4df4-8e41-3774b4cde58a","ios":"levelo://app?vid=51ef7880-9da5-4df4-8e41-3774b4cde58a"},"vehicle_type_id":"4","last_reported":1756239114,"current_range_meters":6000,"station_id":"ce4bhnh2rcd13ifvqgug","pricing_plan_id":"cebpf4jnsgd1na2vs0mg"},{"bike_id":"6f2de1ad-4a7f-44a3-b21b-d6a32d123162","system_id":"levelo_inurba_marseille","lat":43.29441,"lon":5.39755,"is_reserved":false,"is_disabled":false,"rental_uris":{"android":"levelo://app?vid=6f2de1ad-4a7f-44a3-b21b-d6a32d123162","ios":"levelo://app?vid=6f2de1ad-4a7f-44a3-b21b-d6a32d123162"},"vehicle_type_id":"4","last_reported":1756239114,"current_range_meters":6000,"station_id":"ce4bh3h2rcd13ifvqdo0","pricing_plan_id":"cebpf4jnsgd1na2vs0mg"},{"bike_id":"c9a1e2f5-9ea7-4dc5-af99-4282e671d3b5","system_id":"levelo_inurba_marseille","lat":43.26187,"lon":5.37467,"is_reserved":false,"is_disabled":true,"rental_uris":{"android":"levelo://app?vid=c9a1e2f5-9ea7-4dc5-af99-4282e671d3b5","ios":"levelo://app?vid=c9a1e2f5-9ea7-4dc5-af99-4282e671d3b5"},"vehicle_type_id":"4","last_reported":1756239114,"current_range_meters":6000,"station_id":"ce4bhgp2rcd13ifvqfc0","pricing_plan_id":"cebpf4jnsgd1na2vs0mg"},{"bike_id":"43a14931-dcd0-4ae0-861f-dece37fa7f4d","system_id":"levelo_inurba_marseille","lat":43.33026,"lon":5.39322,"is_reserved":false,"is_disabled":false,"rental_uris":{"android":"levelo://app?vid=43a14931-dcd0-4ae0-861f-dece37fa7f4d","ios":"levelo://app?vid=43a14931-dcd0-4ae0-861f-dece37fa7f4d"},"vehicle_type_id":"4","last_reported":1756239114,"current_range_meters":6400,"station_id":"","pricing_plan_id":"cebpf4jnsgd1na2vs0mg"},{"bike_id":"7b818e63-e4fb-4473-b335-44ef19f5bb79","system_id":"levelo_inurba_marseille","lat":43.2828,"lon":5.3506,"is_reserved":false,"is_disabled":true,"rental_uris":{"android":"levelo://app?vid=7b818e63-e4fb-4473-b335-44ef19f5bb79","ios":"levelo://app?vid=7b818e63-e4fb-4473-b335-44ef19f5bb79"},"vehicle_type_id":"4","last_reported":1756239114,"current_range_meters":6400,"station_id":"ce4bhbp2rcd13ifvqerg","pricing_plan_id":"cebpf4jnsgd1na2vs0mg"},{"bike_id":"bdf85e08-5676-48b0-8060-453cc8bae2cf","system_id":"levelo_inurba_marseille","lat":43.29173,"lon":5.35785,"is_reserved":false,"is_disabled":true,"rental_uris":{"android":"levelo://app?vid=bdf85e08-5676-48b0-8060-453cc8bae2cf","ios":"levelo://app?vid=bdf85e08-5676-48b0-8060-453cc8bae2cf"},"vehicle_type_id":"4","last_reported":1756239114,"current_range_meters":6400,"station_id":"ce4bhb12rcd13ifvqel0","pricing_plan_id":"cebpf4jnsgd1na2vs0mg"},{"bike_id":"55413a60-0b66-4816-905b-7d3e59ec2a48","system_id":"levelo_inurba_marseille","lat":43.29932,"lon":5.36547,"is_reserved":false,"is_disabled":false,"rental_uris":{"android":"levelo://app?vid=55413a60-0b66-4816-905b-7d3e59ec2a48","ios":"levelo://app?vid=55413a60-0b66-4816-905b-7d3e59ec2a48"},"vehicle_type_id":"4","last_reported":1756239114,"current_range_meters":6400,"station_id":"ce4bgm92rcd13ifvqbr0","pricing_plan_id":"cebpf4jnsgd1na2vs0mg"},{"bike_id":"4d82ff4e-7164-4783-ac81-13103caaf0ee","system_id":"levelo_inurba_marseille","lat":43.28482,"lon":5.38426,"is_reserved":false,"is_disabled":false,"rental_uris":{"android":"levelo://app?vid=4d82ff4e-7164-4783-ac81-13103caaf0ee","ios":"levelo://app?vid=4d82ff4e-7164-4783-ac81-13103caaf0ee"},"vehicle_type_id":"4","last_reported":1756239114,"current_range_meters":6400,"station_id":"ce4bh512rcd13ifvqe3g","pricing_plan_id":"cebpf4jnsgd1na2vs0mg"},{"bike_id":"1a6f8a53-6760-47e9-b35d-af5a286ffc30","system_id":"levelo_inurba_marseille","lat":43.296793,"lon":5.373756,"is_reserved":false,"is_disabled":false,"rental_uris":{"android":"levelo://app?vid=1a6f8a53-6760-47e9-b35d-af5a286ffc30","ios":"levelo://app?vid=1a6f8a53-6760-47e9-b35d-af5a286ffc30"},"vehicle_type_id":"4","last_reported":1756239114,"current_range_meters":6400,"station_id":"ce4bgqh2rcd13ifvqc5g","pricing_plan_id":"cebpf4jnsgd1na2vs0mg"},{"bike_id":"0e3b62c2-5e3b-4e49-921a-f431126864ae","system_id":"levelo_inurba_marseille","lat":43.28154,"lon":5.42651,"is_reserved":false,"is_disabled":false,"rental_uris":{"android":"levelo://app?vid=0e3b62c2-5e3b-4e49-921a-f431126864ae","ios":"levelo://app?vid=0e3b62c2-5e3b-4e49-921a-f431126864ae"},"vehicle_type_id":"4","last_reported":1756239114,"current_range_meters":6800,"station_id":"ce4bhnh2rcd13ifvqgug","pricing_plan_id":"cebpf4jnsgd1na2vs0mg"},{"bike_id":"910a2fe9-c763-44c1-8de4-85789a7f1606","system_id":"levelo_inurba_marseille","lat":43.27427,"lon":5.39399,"is_reserved":false,"is_disabled":true,"rental_uris":{"android":"levelo://app?vid=910a2fe9-c763-44c1-8de4-85789a7f1606","ios":"levelo://app?vid=910a2fe9-c763-44c1-8de4-85789a7f1606"},"vehicle_type_id":"4","last_reported":1756239114,"current_range_meters":6800,"station_id":"ce4bhdp2rcd13ifvqf20","pricing_plan_id":"cebpf4jnsgd1na2vs0mg"},{"bike_id":"f6bd5b86-eb54-487c-8a4e-3da908b177ef","system_id":"levelo_inurba_marseille","lat":43.29568,"lon":5.37527,"is_reserved":false,"is_disabled":true,"rental_uris":{"android":"levelo://app?vid=f6bd5b86-eb54-487c-8a4e-3da908b177ef","ios":"levelo://app?vid=f6bd5b86-eb54-487c-8a4e-3da908b177ef"},"vehicle_type_id":"4","last_reported":1756239114,"current_range_meters":6800,"station_id":"","pricing_plan_id":"cebpf4jnsgd1na2vs0mg"},{"bike_id":"714ee55c-8f3e-4066-8763-95b1b229b1fa","system_id":"levelo_inurba_marseille","lat":43.24169,"lon":5.36394,"is_reserved":false,"is_disabled":false,"rental_uris":{"android":"levelo://app?vid=714ee55c-8f3e-4066-8763-95b1b229b1fa","ios":"levelo://app?vid=714ee55c-8f3e-4066-8763-95b1b229b1fa"},"vehicle_type_id":"4","last_reported":1756239114,"current_range_meters":5600,"station_id":"cpo36qri1sfpv3e86is0","pricing_plan_id":"cebpf4jnsgd1na2vs0mg"},{"bike_id":"236f1a17-bd84-4b8e-977f-7df7d8cf402c","system_id":"levelo_inurba_marseille","lat":43.308051,"lon":5.435263,"is_reserved":false,"is_disabled":true,"rental_uris":{"android":"levelo://app?vid=236f1a17-bd84-4b8e-977f-7df7d8cf402c","ios":"levelo://app?vid=236f1a17-bd84-4b8e-977f-7df7d8cf402c"},"vehicle_type_id":"4","last_reported":1756239114,"current_range_meters":6800,"station_id":"ce4bhph2rcd13ifvqheg","pricing_plan_id":"cebpf4jnsgd1na2vs0mg"},{"bike_id":"9ee8529a-4dc1-4de0-b45f-819e2e2dc384","system_id":"levelo_inurba_marseille","lat":43.31704,"lon":5.37738,"is_reserved":false,"is_disabled":false,"rental_uris":{"android":"levelo://app?vid=9ee8529a-4dc1-4de0-b45f-819e2e2dc384","ios":"levelo://app?vid=9ee8529a-4dc1-4de0-b45f-819e2e2dc384"},"vehicle_type_id":"4","last_reported":1756239114,"current_range_meters":6800,"station_id":"ce4bgth2rcd13ifvqch0","pricing_plan_id":"cebpf4jnsgd1na2vs0mg"},{"bike_id":"05731da3-c6a5-45da-9e4c-b82d00381299","system_id":"levelo_inurba_marseille","lat":43.28483,"lon":5.38411,"is_reserved":false,"is_disabled":false,"rental_uris":{"android":"levelo://app?vid=05731da3-c6a5-45da-9e4c-b82d00381299","ios":"levelo://app?vid=05731da3-c6a5-45da-9e4c-b82d00381299"},"vehicle_type_id":"4","last_reported":1756239114,"current_range_meters":6800,"station_id":"ce4bh512rcd13ifvqe3g","pricing_plan_id":"cebpf4jnsgd1na2vs0mg"},{"bike_id":"03be758f-3e6d-4c72-8876-95a4359600d6","system_id":"levelo_inurba_marseille","lat":43.33765,"lon":5.37499,"is_reserved":false,"is_disabled":false,"rental_uris":{"android":"levelo://app?vid=03be758f-3e6d-4c72-8876-95a4359600d6","ios":"levelo://app?vid=03be758f-3e6d-4c72-8876-95a4359600d6"},"vehicle_type_id":"4","last_reported":1756239114,"current_range_meters":7200,"station_id":"","pricing_plan_id":"cebpf4jnsgd1na2vs0mg"},{"bike_id":"eb23a6bb-336d-4fed-92da-8bbcee54e487","system_id":"levelo_inurba_marseille","lat":43.28648,"lon":5.37601,"is_reserved":false,"is_disabled":false,"rental_uris":{"android":"levelo://app?vid=eb23a6bb-336d-4fed-92da-8bbcee54e487","ios":"levelo://app?vid=eb23a6bb-336d-4fed-92da-8bbcee54e487"},"vehicle_type_id":"4","last_reported":1756239114,"current_range_meters":7200,"station_id":"","pricing_plan_id":"cebpf4jnsgd1na2vs0mg"},{"bike_id":"81aac91e-f713-44d1-a5e7-e9b4b1cfbcf4","system_id":"levelo_inurba_marseille","lat":43.29752,"lon":5.38137,"is_reserved":false,"is_disabled":false,"rental_uris":{"android":"levelo://app?vid=81aac91e-f713-44d1-a5e7-e9b4b1cfbcf4","ios":"levelo://app?vid=81aac91e-f713-44d1-a5e7-e9b4b1cfbcf4"},"vehicle_type_id":"4","last_reported":1756239114,"current_range_meters":7200,"station_id":"","pricing_plan_id":"cebpf4jnsgd1na2vs0mg"},{"bike_id":"b80ea075-f2d6-4dfc-943a-bf14d3979902","system_id":"levelo_inurba_marseille","lat":43.29867,"lon":5.39738,"is_reserved":false,"is_disabled":false,"rental_uris":{"android":"levelo://app?vid=b80ea075-f2d6-4dfc-943a-bf14d3979902","ios":"levelo://app?vid=b80ea075-f2d6-4dfc-943a-bf14d3979902"},"vehicle_type_id":"4","last_reported":1756239114,"current_range_meters":7200,"station_id":"ce4bh0h2rcd13ifvqd50","pricing_plan_id":"cebpf4jnsgd1na2vs0mg"},{"bike_id":"098a3003-b369-4d74-b40b-8cae8a40f5ad","system_id":"levelo_inurba_marseille","lat":43.27999,"lon":5.41662,"is_reserved":false,"is_disabled":false,"rental_uris":{"android":"levelo://app?vid=098a3003-b369-4d74-b40b-8cae8a40f5ad","ios":"levelo://app?vid=098a3003-b369-4d74-b40b-8cae8a40f5ad"},"vehicle_type_id":"4","last_reported":1756239114,"current_range_meters":8400,"station_id":"ce4bho12rcd13ifvqh1g","pricing_plan_id":"cebpf4jnsgd1na2vs0mg"},{"bike_id":"396e9976-416a-49f5-bbbb-27e825638a93","system_id":"levelo_inurba_marseille","lat":43.26566,"lon":5.39013,"is_reserved":false,"is_disabled":false,"rental_uris":{"android":"levelo://app?vid=396e9976-416a-49f5-bbbb-27e825638a93","ios":"levelo://app?vid=396e9976-416a-49f5-bbbb-27e825638a93"},"vehicle_type_id":"4","last_reported":1756239114,"current_range_meters":8400,"station_id":"ce4bhe12rcd13ifvqf30","pricing_plan_id":"cebpf4jnsgd1na2vs0mg"},{"bike_id":"d0079626-a652-4117-8a66-70ca36030639","system_id":"levelo_inurba_marseille","lat":43.28351,"lon":5.38112,"is_reserved":false,"is_disabled":false,"rental_uris":{"android":"levelo://app?vid=d0079626-a652-4117-8a66-70ca36030639","ios":"levelo://app?vid=d0079626-a652-4117-8a66-70ca36030639"},"vehicle_type_id":"4","last_reported":1756239114,"current_range_meters":8400,"station_id":"ce4bh412rcd13ifvqdr0","pricing_plan_id":"cebpf4jnsgd1na2vs0mg"},{"bike_id":"24fe944d-23ba-4c73-a243-9f564dbb6f73","system_id":"levelo_inurba_marseille","lat":43.295337,"lon":5.38546,"is_reserved":false,"is_disabled":false,"rental_uris":{"android":"levelo://app?vid=24fe944d-23ba-4c73-a243-9f564dbb6f73","ios":"levelo://app?vid=24fe944d-23ba-4c73-a243-9f564dbb6f73"},"vehicle_type_id":"4","last_reported":1756239114,"current_range_meters":8400,"station_id":"ce4bgih2rcd13ifvqba0","pricing_plan_id":"cebpf4jnsgd1na2vs0mg"},{"bike_id":"e4cbe60c-d4c1-49f2-9ddc-5c6423e65043","system_id":"levelo_inurba_marseille","lat":43.309511,"lon":5.390366,"is_reserved":false,"is_disabled":false,"rental_uris":{"android":"levelo://app?vid=e4cbe60c-d4c1-49f2-9ddc-5c6423e65043","ios":"levelo://app?vid=e4cbe60c-d4c1-49f2-9ddc-5c6423e65043"},"vehicle_type_id":"4","last_reported":1756239114,"current_range_meters":8800,"station_id":"ce4bgup2rcd13ifvqco0","pricing_plan_id":"cebpf4jnsgd1na2vs0mg"},{"bike_id":"ec17f675-cacf-4054-bd93-01927acfe995","system_id":"levelo_inurba_marseille","lat":43.2954,"lon":5.38557,"is_reserved":false,"is_disabled":false,"rental_uris":{"android":"levelo://app?vid=ec17f675-cacf-4054-bd93-01927acfe995","ios":"levelo://app?vid=ec17f675-cacf-4054-bd93-01927acfe995"},"vehicle_type_id":"4","last_reported":1756239114,"current_range_meters":8800,"station_id":"ce4bgih2rcd13ifvqba0","pricing_plan_id":"cebpf4jnsgd1na2vs0mg"},{"bike_id":"766d419f-0bb2-45a4-b526-c90cf3fbee60","system_id":"levelo_inurba_marseille","lat":43.21755,"lon":5.34597,"is_reserved":false,"is_disabled":false,"rental_uris":{"android":"levelo://app?vid=766d419f-0bb2-45a4-b526-c90cf3fbee60","ios":"levelo://app?vid=766d419f-0bb2-45a4-b526-c90cf3fbee60"},"vehicle_type_id":"4","last_reported":1756239114,"current_range_meters":8800,"station_id":"st_cvj6r9ubvosntc0bgbag","pricing_plan_id":"cebpf4jnsgd1na2vs0mg"},{"bike_id":"d186cf8e-ea6a-4804-a29c-ede908b6fd16","system_id":"levelo_inurba_marseille","lat":43.28152,"lon":5.37767,"is_reserved":false,"is_disabled":false,"rental_uris":{"android":"levelo://app?vid=d186cf8e-ea6a-4804-a29c-ede908b6fd16","ios":"levelo://app?vid=d186cf8e-ea6a-4804-a29c-ede908b6fd16"},"vehicle_type_id":"4","last_reported":1756239114,"current_range_meters":9200,"station_id":"ce4bha12rcd13ifvqee0","pricing_plan_id":"cebpf4jnsgd1na2vs0mg"},{"bike_id":"9ebbca0f-8b0f-49e0-bbc0-5934ebb0e846","system_id":"levelo_inurba_marseille","lat":43.212,"lon":5.35077,"is_reserved":false,"is_disabled":false,"rental_uris":{"android":"levelo://app?vid=9ebbca0f-8b0f-49e0-bbc0-5934ebb0e846","ios":"levelo://app?vid=9ebbca0f-8b0f-49e0-bbc0-5934ebb0e846"},"vehicle_type_id":"4","last_reported":1756239114,"current_range_meters":9200,"station_id":"st_cvj6sg6p6f1abm77japg","pricing_plan_id":"cebpf4jnsgd1na2vs0mg"},{"bike_id":"f781d014-afa9-4acc-b6f7-3670b0862de3","system_id":"levelo_inurba_marseille","lat":43.21178,"lon":5.35089,"is_reserved":false,"is_disabled":false,"rental_uris":{"android":"levelo://app?vid=f781d014-afa9-4acc-b6f7-3670b0862de3","ios":"levelo://app?vid=f781d014-afa9-4acc-b6f7-3670b0862de3"},"vehicle_type_id":"4","last_reported":1756239114,"current_range_meters":9200,"station_id":"st_cvj6sg6p6f1abm77japg","pricing_plan_id":"cebpf4jnsgd1na2vs0mg"},{"bike_id":"1c7c57ae-bcbe-4478-aedb-01ce2ca56ac6","system_id":"levelo_inurba_marseille","lat":43.25859,"lon":5.39909,"is_reserved":false,"is_disabled":false,"rental_uris":{"android":"levelo://app?vid=1c7c57ae-bcbe-4478-aedb-01ce2ca56ac6","ios":"levelo://app?vid=1c7c57ae-bcbe-4478-aedb-01ce2ca56ac6"},"vehicle_type_id":"4","last_reported":1756239114,"current_range_meters":9600,"station_id":"ce4bhl92rcd13ifvqghg","pricing_plan_id":"cebpf4jnsgd1na2vs0mg"},{"bike_id":"3cf4e574-31f9-4c7b-bf5c-f4c81281fe6d","system_id":"levelo_inurba_marseille","lat":43.24662,"lon":5.38161,"is_reserved":false,"is_disabled":false,"rental_uris":{"android":"levelo://app?vid=3cf4e574-31f9-4c7b-bf5c-f4c81281fe6d","ios":"levelo://app?vid=3cf4e574-31f9-4c7b-bf5c-f4c81281fe6d"},"vehicle_type_id":"4","last_reported":1756239114,"current_range_meters":9600,"station_id":"ce4bhih2rcd13ifvqfr0","pricing_plan_id":"cebpf4jnsgd1na2vs0mg"},{"bike_id":"edc4c588-4db1-4b48-bddb-0eba1d72ba9f","system_id":"levelo_inurba_marseille","lat":43.21194,"lon":5.35074,"is_reserved":false,"is_disabled":false,"rental_uris":{"android":"levelo://app?vid=edc4c588-4db1-4b48-bddb-0eba1d72ba9f","ios":"levelo://app?vid=edc4c588-4db1-4b48-bddb-0eba1d72ba9f"},"vehicle_type_id":"4","last_reported":1756239114,"current_range_meters":9600,"station_id":"","pricing_plan_id":"cebpf4jnsgd1na2vs0mg"},{"bike_id":"fd391e27-b7b1-4dda-94f6-b3325ab122bf","system_id":"levelo_inurba_marseille","lat":43.28411,"lon":5.37525,"is_reserved":false,"is_disabled":false,"rental_uris":{"android":"levelo://app?vid=fd391e27-b7b1-4dda-94f6-b3325ab122bf","ios":"levelo://app?vid=fd391e27-b7b1-4dda-94f6-b3325ab122bf"},"vehicle_type_id":"4","last_reported":1756239114,"current_range_meters":9600,"station_id":"ce4bh412rcd13ifvqds0","pricing_plan_id":"cebpf4jnsgd1na2vs0mg"},{"bike_id":"cc5428ab-0b9b-4f31-a6bd-7d1f136e31a7","system_id":"levelo_inurba_marseille","lat":43.30886,"lon":5.39639,"is_reserved":false,"is_disabled":false,"rental_uris":{"android":"levelo://app?vid=cc5428ab-0b9b-4f31-a6bd-7d1f136e31a7","ios":"levelo://app?vid=cc5428ab-0b9b-4f31-a6bd-7d1f136e31a7"},"vehicle_type_id":"4","last_reported":1756239114,"current_range_meters":10000,"station_id":"ce4bh012rcd13ifvqcv0","pricing_plan_id":"cebpf4jnsgd1na2vs0mg"},{"bike_id":"823e7532-57c5-4b03-a32b-074696906deb","system_id":"levelo_inurba_marseille","lat":43.26228,"lon":5.40453,"is_reserved":false,"is_disabled":false,"rental_uris":{"android":"levelo://app?vid=823e7532-57c5-4b03-a32b-074696906deb","ios":"levelo://app?vid=823e7532-57c5-4b03-a32b-074696906deb"},"vehicle_type_id":"4","last_reported":1756239114,"current_range_meters":10000,"station_id":"ce4bhmh2rcd13ifvqgmg","pricing_plan_id":"cebpf4jnsgd1na2vs0mg"},{"bike_id":"70725e45-1278-4337-bab4-392de6291b76","system_id":"levelo_inurba_marseille","lat":43.27828,"lon":5.40719,"is_reserved":false,"is_disabled":false,"rental_uris":{"android":"levelo://app?vid=70725e45-1278-4337-bab4-392de6291b76","ios":"levelo://app?vid=70725e45-1278-4337-bab4-392de6291b76"},"vehicle_type_id":"4","last_reported":1756239114,"current_range_meters":10000,"station_id":"ce4bhnh2rcd13ifvqgtg","pricing_plan_id":"cebpf4jnsgd1na2vs0mg"},{"bike_id":"7b293eab-875b-4eae-9017-28b093e7c6c1","system_id":"levelo_inurba_marseille","lat":43.24658,"lon":5.38152,"is_reserved":false,"is_disabled":false,"rental_uris":{"android":"levelo://app?vid=7b293eab-875b-4eae-9017-28b093e7c6c1","ios":"levelo://app?vid=7b293eab-875b-4eae-9017-28b093e7c6c1"},"vehicle_type_id":"4","last_reported":1756239114,"current_range_meters":10800,"station_id":"ce4bhih2rcd13ifvqfr0","pricing_plan_id":"cebpf4jnsgd1na2vs0mg"},{"bike_id":"540ce205-844f-4d40-8cfb-d5d924d9065e","system_id":"levelo_inurba_marseille","lat":43.29193,"lon":5.39305,"is_reserved":false,"is_disabled":false,"rental_uris":{"android":"levelo://app?vid=540ce205-844f-4d40-8cfb-d5d924d9065e","ios":"levelo://app?vid=540ce205-844f-4d40-8cfb-d5d924d9065e"},"vehicle_type_id":"4","last_reported":1756239114,"current_range_meters":10800,"station_id":"ce4bh192rcd13ifvqdd0","pricing_plan_id":"cebpf4jnsgd1na2vs0mg"},{"bike_id":"e6179b46-81c8-4876-9a4c-537a47573db1","system_id":"levelo_inurba_marseille","lat":43.31344,"lon":5.4066,"is_reserved":false,"is_disabled":false,"rental_uris":{"android":"levelo://app?vid=e6179b46-81c8-4876-9a4c-537a47573db1","ios":"levelo://app?vid=e6179b46-81c8-4876-9a4c-537a47573db1"},"vehicle_type_id":"4","last_reported":1756239114,"current_range_meters":10800,"station_id":"","pricing_plan_id":"cebpf4jnsgd1na2vs0mg"},{"bike_id":"c7346a76-f726-4d03-8a8a-caf9ffe3343d","system_id":"levelo_inurba_marseille","lat":43.29243,"lon":5.38424,"is_reserved":false,"is_disabled":false,"rental_uris":{"android":"levelo://app?vid=c7346a76-f726-4d03-8a8a-caf9ffe3343d","ios":"levelo://app?vid=c7346a76-f726-4d03-8a8a-caf9ffe3343d"},"vehicle_type_id":"4","last_reported":1756239114,"current_range_meters":10800,"station_id":"ce4bh692rcd13ifvqea0","pricing_plan_id":"cebpf4jnsgd1na2vs0mg"},{"bike_id":"f2b808e9-5393-468e-94eb-d2a59bfffed8","system_id":"levelo_inurba_marseille","lat":43.29697,"lon":5.37697,"is_reserved":false,"is_disabled":false,"rental_uris":{"android":"levelo://app?vid=f2b808e9-5393-468e-94eb-d2a59bfffed8","ios":"levelo://app?vid=f2b808e9-5393-468e-94eb-d2a59bfffed8"},"vehicle_type_id":"4","last_reported":1756239114,"current_range_meters":10800,"station_id":"ce4bgkh2rcd13ifvqbl0","pricing_plan_id":"cebpf4jnsgd1na2vs0mg"},{"bike_id":"08274ab8-a072-4c56-bb5b-061efedbeeee","system_id":"levelo_inurba_marseille","lat":43.28148,"lon":5.42646,"is_reserved":false,"is_disabled":false,"rental_uris":{"android":"levelo://app?vid=08274ab8-a072-4c56-bb5b-061efedbeeee","ios":"levelo://app?vid=08274ab8-a072-4c56-bb5b-061efedbeeee"},"vehicle_type_id":"4","last_reported":1756239114,"current_range_meters":11200,"station_id":"ce4bhnh2rcd13ifvqgug","pricing_plan_id":"cebpf4jnsgd1na2vs0mg"},{"bike_id":"47c72c85-64e7-43b8-ada4-0f17a3d10859","system_id":"levelo_inurba_marseille","lat":43.2176,"lon":5.34597,"is_reserved":false,"is_disabled":true,"rental_uris":{"android":"levelo://app?vid=47c72c85-64e7-43b8-ada4-0f17a3d10859","ios":"levelo://app?vid=47c72c85-64e7-43b8-ada4-0f17a3d10859"},"vehicle_type_id":"4","last_reported":1756239114,"current_range_meters":10800,"station_id":"st_cvj6r9ubvosntc0bgbag","pricing_plan_id":"cebpf4jnsgd1na2vs0mg"},{"bike_id":"4f905089-9f16-4a4c-a0fc-e895ae2ed7c1","system_id":"levelo_inurba_marseille","lat":43.29242,"lon":5.38456,"is_reserved":false,"is_disabled":false,"rental_uris":{"android":"levelo://app?vid=4f905089-9f16-4a4c-a0fc-e895ae2ed7c1","ios":"levelo://app?vid=4f905089-9f16-4a4c-a0fc-e895ae2ed7c1"},"vehicle_type_id":"4","last_reported":1756239114,"current_range_meters":10800,"station_id":"ce4bh692rcd13ifvqea0","pricing_plan_id":"cebpf4jnsgd1na2vs0mg"},{"bike_id":"67f839b9-5db1-4460-8c6b-e7ce0c5602e2","system_id":"levelo_inurba_marseille","lat":43.29526,"lon":5.38529,"is_reserved":false,"is_disabled":false,"rental_uris":{"android":"levelo://app?vid=67f839b9-5db1-4460-8c6b-e7ce0c5602e2","ios":"levelo://app?vid=67f839b9-5db1-4460-8c6b-e7ce0c5602e2"},"vehicle_type_id":"4","last_reported":1756239114,"current_range_meters":10800,"station_id":"ce4bgih2rcd13ifvqba0","pricing_plan_id":"cebpf4jnsgd1na2vs0mg"},{"bike_id":"eaac1ac6-6c5d-4274-970f-7bad9d177f4b","system_id":"levelo_inurba_marseille","lat":43.33759,"lon":5.37472,"is_reserved":false,"is_disabled":false,"rental_uris":{"android":"levelo://app?vid=eaac1ac6-6c5d-4274-970f-7bad9d177f4b","ios":"levelo://app?vid=eaac1ac6-6c5d-4274-970f-7bad9d177f4b"},"vehicle_type_id":"4","last_reported":1756239114,"current_range_meters":11200,"station_id":"","pricing_plan_id":"cebpf4jnsgd1na2vs0mg"},{"bike_id":"df84dc5f-daf8-4107-9dff-789d78687a05","system_id":"levelo_inurba_marseille","lat":43.2953,"lon":5.38536,"is_reserved":false,"is_disabled":false,"rental_uris":{"android":"levelo://app?vid=df84dc5f-daf8-4107-9dff-789d78687a05","ios":"levelo://app?vid=df84dc5f-daf8-4107-9dff-789d78687a05"},"vehicle_type_id":"4","last_reported":1756239114,"current_range_meters":11200,"station_id":"ce4bgih2rcd13ifvqba0","pricing_plan_id":"cebpf4jnsgd1na2vs0mg"},{"bike_id":"f0b56d7c-0053-4c77-92cb-49196216b85c","system_id":"levelo_inurba_marseille","lat":43.30163,"lon":5.38762,"is_reserved":false,"is_disabled":false,"rental_uris":{"android":"levelo://app?vid=f0b56d7c-0053-4c77-92cb-49196216b85c","ios":"levelo://app?vid=f0b56d7c-0053-4c77-92cb-49196216b85c"},"vehicle_type_id":"4","last_reported":1756239114,"current_range_meters":11200,"station_id":"ce4bghh2rcd13ifvqb60","pricing_plan_id":"cebpf4jnsgd1na2vs0mg"},{"bike_id":"ec6705ad-1994-4f7b-8ba1-066d763e7f38","system_id":"levelo_inurba_marseille","lat":43.255809,"lon":5.382178,"is_reserved":false,"is_disabled":true,"rental_uris":{"android":"levelo://app?vid=ec6705ad-1994-4f7b-8ba1-066d763e7f38","ios":"levelo://app?vid=ec6705ad-1994-4f7b-8ba1-066d763e7f38"},"vehicle_type_id":"4","last_reported":1756239114,"current_range_meters":11200,"station_id":"ce4bhih2rcd13ifvqfs0","pricing_plan_id":"cebpf4jnsgd1na2vs0mg"},{"bike_id":"0bba2e8e-ab16-4c06-8574-7eb89b9bf0e7","system_id":"levelo_inurba_marseille","lat":43.30965,"lon":5.4014,"is_reserved":false,"is_disabled":false,"rental_uris":{"android":"levelo://app?vid=0bba2e8e-ab16-4c06-8574-7eb89b9bf0e7","ios":"levelo://app?vid=0bba2e8e-ab16-4c06-8574-7eb89b9bf0e7"},"vehicle_type_id":"4","last_reported":1756239114,"current_range_meters":11200,"station_id":"ce4bgvp2rcd13ifvqct0","pricing_plan_id":"cebpf4jnsgd1na2vs0mg"},{"bike_id":"0d502687-08ef-4491-8893-8a03d8688be8","system_id":"levelo_inurba_marseille","lat":43.296196,"lon":5.361149,"is_reserved":false,"is_disabled":false,"rental_uris":{"android":"levelo://app?vid=0d502687-08ef-4491-8893-8a03d8688be8","ios":"levelo://app?vid=0d502687-08ef-4491-8893-8a03d8688be8"},"vehicle_type_id":"4","last_reported":1756239114,"current_range_meters":11200,"station_id":"","pricing_plan_id":"cebpf4jnsgd1na2vs0mg"},{"bike_id":"a4578e98-0c0e-42ba-b4cc-92d22d1008a9","system_id":"levelo_inurba_marseille","lat":43.29013,"lon":5.38118,"is_reserved":false,"is_disabled":true,"rental_uris":{"android":"levelo://app?vid=a4578e98-0c0e-42ba-b4cc-92d22d1008a9","ios":"levelo://app?vid=a4578e98-0c0e-42ba-b4cc-92d22d1008a9"},"vehicle_type_id":"4","last_reported":1756239114,"current_range_meters":11200,"station_id":"ce4bh4p2rcd13ifvqe1g","pricing_plan_id":"cebpf4jnsgd1na2vs0mg"},{"bike_id":"a095eb8d-3617-41a3-8d70-3bb29af8216b","system_id":"levelo_inurba_marseille","lat":43.29566,"lon":5.37507,"is_reserved":false,"is_disabled":true,"rental_uris":{"android":"levelo://app?vid=a095eb8d-3617-41a3-8d70-3bb29af8216b","ios":"levelo://app?vid=a095eb8d-3617-41a3-8d70-3bb29af8216b"},"vehicle_type_id":"4","last_reported":1756239114,"current_range_meters":11200,"station_id":"ce4bgkp2rcd13ifvqbmg","pricing_plan_id":"cebpf4jnsgd1na2vs0mg"},{"bike_id":"8a00d99b-940c-4dd8-b9d9-a9e3540088dd","system_id":"levelo_inurba_marseille","lat":43.29189,"lon":5.39307,"is_reserved":false,"is_disabled":false,"rental_uris":{"android":"levelo://app?vid=8a00d99b-940c-4dd8-b9d9-a9e3540088dd","ios":"levelo://app?vid=8a00d99b-940c-4dd8-b9d9-a9e3540088dd"},"vehicle_type_id":"4","last_reported":1756239114,"current_range_meters":11600,"station_id":"ce4bh192rcd13ifvqdd0","pricing_plan_id":"cebpf4jnsgd1na2vs0mg"},{"bike_id":"05bfbee2-1e9b-4dee-b8c6-55f063b2b11b","system_id":"levelo_inurba_marseille","lat":43.2954,"lon":5.38548,"is_reserved":false,"is_disabled":false,"rental_uris":{"android":"levelo://app?vid=05bfbee2-1e9b-4dee-b8c6-55f063b2b11b","ios":"levelo://app?vid=05bfbee2-1e9b-4dee-b8c6-55f063b2b11b"},"vehicle_type_id":"4","last_reported":1756239114,"current_range_meters":11600,"station_id":"ce4bgih2rcd13ifvqba0","pricing_plan_id":"cebpf4jnsgd1na2vs0mg"},{"bike_id":"b97ae552-4500-4418-b7a9-7cdd1f8abd6a","system_id":"levelo_inurba_marseille","lat":43.295393,"lon":5.385733,"is_reserved":false,"is_disabled":false,"rental_uris":{"android":"levelo://app?vid=b97ae552-4500-4418-b7a9-7cdd1f8abd6a","ios":"levelo://app?vid=b97ae552-4500-4418-b7a9-7cdd1f8abd6a"},"vehicle_type_id":"4","last_reported":1756239114,"current_range_meters":12000,"station_id":"ce4bgih2rcd13ifvqba0","pricing_plan_id":"cebpf4jnsgd1na2vs0mg"},{"bike_id":"cfa378dc-95aa-4571-8437-b63172d17092","system_id":"levelo_inurba_marseille","lat":43.2467,"lon":5.38167,"is_reserved":false,"is_disabled":false,"rental_uris":{"android":"levelo://app?vid=cfa378dc-95aa-4571-8437-b63172d17092","ios":"levelo://app?vid=cfa378dc-95aa-4571-8437-b63172d17092"},"vehicle_type_id":"4","last_reported":1756239114,"current_range_meters":12000,"station_id":"ce4bhih2rcd13ifvqfr0","pricing_plan_id":"cebpf4jnsgd1na2vs0mg"},{"bike_id":"d09818c0-fe17-4e04-a009-8059bf91f2ab","system_id":"levelo_inurba_marseille","lat":43.29528,"lon":5.38538,"is_reserved":false,"is_disabled":false,"rental_uris":{"android":"levelo://app?vid=d09818c0-fe17-4e04-a009-8059bf91f2ab","ios":"levelo://app?vid=d09818c0-fe17-4e04-a009-8059bf91f2ab"},"vehicle_type_id":"4","last_reported":1756239114,"current_range_meters":12000,"station_id":"ce4bgih2rcd13ifvqba0","pricing_plan_id":"cebpf4jnsgd1na2vs0mg"},{"bike_id":"caddbfbf-c9c5-4574-b513-845506c99b26","system_id":"levelo_inurba_marseille","lat":43.295707,"lon":5.375105,"is_reserved":false,"is_disabled":false,"rental_uris":{"android":"levelo://app?vid=caddbfbf-c9c5-4574-b513-845506c99b26","ios":"levelo://app?vid=caddbfbf-c9c5-4574-b513-845506c99b26"},"vehicle_type_id":"4","last_reported":1756239114,"current_range_meters":11200,"station_id":"ce4bgh92rcd13ifvqb50","pricing_plan_id":"cebpf4jnsgd1na2vs0mg"},{"bike_id":"1eca41a8-998c-49a3-a499-11270895ee60","system_id":"levelo_inurba_marseille","lat":43.28353,"lon":5.38095,"is_reserved":false,"is_disabled":false,"rental_uris":{"android":"levelo://app?vid=1eca41a8-998c-49a3-a499-11270895ee60","ios":"levelo://app?vid=1eca41a8-998c-49a3-a499-11270895ee60"},"vehicle_type_id":"4","last_reported":1756239114,"current_range_meters":12000,"station_id":"ce4bh412rcd13ifvqdr0","pricing_plan_id":"cebpf4jnsgd1na2vs0mg"},{"bike_id":"51842e17-ef10-4624-a23e-c8a182427991","system_id":"levelo_inurba_marseille","lat":43.31615,"lon":5.38173,"is_reserved":false,"is_disabled":false,"rental_uris":{"android":"levelo://app?vid=51842e17-ef10-4624-a23e-c8a182427991","ios":"levelo://app?vid=51842e17-ef10-4624-a23e-c8a182427991"},"vehicle_type_id":"4","last_reported":1756239114,"current_range_meters":12000,"station_id":"","pricing_plan_id":"cebpf4jnsgd1na2vs0mg"},{"bike_id":"0df0f092-c5a6-4b58-90c4-45b86f8a9e0e","system_id":"levelo_inurba_marseille","lat":43.29853,"lon":5.36284,"is_reserved":false,"is_disabled":false,"rental_uris":{"android":"levelo://app?vid=0df0f092-c5a6-4b58-90c4-45b86f8a9e0e","ios":"levelo://app?vid=0df0f092-c5a6-4b58-90c4-45b86f8a9e0e"},"vehicle_type_id":"4","last_reported":1756239114,"current_range_meters":12000,"station_id":"ce4bgpp2rcd13ifvqc3g","pricing_plan_id":"cebpf4jnsgd1na2vs0mg"},{"bike_id":"bfcde6a8-ccc6-4d52-a2bf-66c07481b52c","system_id":"levelo_inurba_marseille","lat":43.29271,"lon":5.40136,"is_reserved":false,"is_disabled":false,"rental_uris":{"android":"levelo://app?vid=bfcde6a8-ccc6-4d52-a2bf-66c07481b52c","ios":"levelo://app?vid=bfcde6a8-ccc6-4d52-a2bf-66c07481b52c"},"vehicle_type_id":"4","last_reported":1756239114,"current_range_meters":12000,"station_id":"ce4bh312rcd13ifvqdk0","pricing_plan_id":"cebpf4jnsgd1na2vs0mg"},{"bike_id":"3a211dae-99df-433e-94a9-1e1cf23ce9f4","system_id":"levelo_inurba_marseille","lat":43.30882,"lon":5.39643,"is_reserved":false,"is_disabled":false,"rental_uris":{"android":"levelo://app?vid=3a211dae-99df-433e-94a9-1e1cf23ce9f4","ios":"levelo://app?vid=3a211dae-99df-433e-94a9-1e1cf23ce9f4"},"vehicle_type_id":"4","last_reported":1756239114,"current_range_meters":12400,"station_id":"ce4bh012rcd13ifvqcv0","pricing_plan_id":"cebpf4jnsgd1na2vs0mg"},{"bike_id":"38577197-e6ff-49a0-9ee4-591cadd5322e","system_id":"levelo_inurba_marseille","lat":43.27943,"lon":5.41055,"is_reserved":false,"is_disabled":false,"rental_uris":{"android":"levelo://app?vid=38577197-e6ff-49a0-9ee4-591cadd5322e","ios":"levelo://app?vid=38577197-e6ff-49a0-9ee4-591cadd5322e"},"vehicle_type_id":"4","last_reported":1756239114,"current_range_meters":12400,"station_id":"ce4bhnp2rcd13ifvqh0g","pricing_plan_id":"cebpf4jnsgd1na2vs0mg"},{"bike_id":"bed08b67-3423-4e8e-be17-ca66bc67bb23","system_id":"levelo_inurba_marseille","lat":43.27971,"lon":5.3875,"is_reserved":false,"is_disabled":false,"rental_uris":{"android":"levelo://app?vid=bed08b67-3423-4e8e-be17-ca66bc67bb23","ios":"levelo://app?vid=bed08b67-3423-4e8e-be17-ca66bc67bb23"},"vehicle_type_id":"4","last_reported":1756239114,"current_range_meters":12400,"station_id":"ce4bhg12rcd13ifvqf80","pricing_plan_id":"cebpf4jnsgd1na2vs0mg"},{"bike_id":"a15a1c44-718b-407d-acaa-0383628c87d7","system_id":"levelo_inurba_marseille","lat":43.3269,"lon":5.3922,"is_reserved":false,"is_disabled":false,"rental_uris":{"android":"levelo://app?vid=a15a1c44-718b-407d-acaa-0383628c87d7","ios":"levelo://app?vid=a15a1c44-718b-407d-acaa-0383628c87d7"},"vehicle_type_id":"4","last_reported":1756239114,"current_range_meters":12400,"station_id":"","pricing_plan_id":"cebpf4jnsgd1na2vs0mg"},{"bike_id":"5f9365e2-60dc-4158-a2c3-0e40911a7a32","system_id":"levelo_inurba_marseille","lat":43.33434,"lon":5.4006,"is_reserved":false,"is_disabled":false,"rental_uris":{"android":"levelo://app?vid=5f9365e2-60dc-4158-a2c3-0e40911a7a32","ios":"levelo://app?vid=5f9365e2-60dc-4158-a2c3-0e40911a7a32"},"vehicle_type_id":"4","last_reported":1756239114,"current_range_meters":12400,"station_id":"","pricing_plan_id":"cebpf4jnsgd1na2vs0mg"},{"bike_id":"673ef30a-376b-4838-a923-9d17948f03ef","system_id":"levelo_inurba_marseille","lat":43.29531,"lon":5.38539,"is_reserved":false,"is_disabled":false,"rental_uris":{"android":"levelo://app?vid=673ef30a-376b-4838-a923-9d17948f03ef","ios":"levelo://app?vid=673ef30a-376b-4838-a923-9d17948f03ef"},"vehicle_type_id":"4","last_reported":1756239114,"current_range_meters":12400,"station_id":"ce4bgih2rcd13ifvqba0","pricing_plan_id":"cebpf4jnsgd1na2vs0mg"},{"bike_id":"36560532-3512-4cb9-9a14-c2d1de40c0c4","system_id":"levelo_inurba_marseille","lat":43.29531,"lon":5.38539,"is_reserved":false,"is_disabled":false,"rental_uris":{"android":"levelo://app?vid=36560532-3512-4cb9-9a14-c2d1de40c0c4","ios":"levelo://app?vid=36560532-3512-4cb9-9a14-c2d1de40c0c4"},"vehicle_type_id":"4","last_reported":1756239114,"current_range_meters":12800,"station_id":"ce4bgih2rcd13ifvqba0","pricing_plan_id":"cebpf4jnsgd1na2vs0mg"},{"bike_id":"a3dae6ea-2338-4735-82e2-1081db86a823","system_id":"levelo_inurba_marseille","lat":43.28457,"lon":5.35889,"is_reserved":false,"is_disabled":false,"rental_uris":{"android":"levelo://app?vid=a3dae6ea-2338-4735-82e2-1081db86a823","ios":"levelo://app?vid=a3dae6ea-2338-4735-82e2-1081db86a823"},"vehicle_type_id":"4","last_reported":1756239114,"current_range_meters":12800,"station_id":"ce4bhah2rcd13ifvqei0","pricing_plan_id":"cebpf4jnsgd1na2vs0mg"},{"bike_id":"018af98c-e7d4-498d-881c-c6910234caba","system_id":"levelo_inurba_marseille","lat":43.27553,"lon":5.38431,"is_reserved":false,"is_disabled":false,"rental_uris":{"android":"levelo://app?vid=018af98c-e7d4-498d-881c-c6910234caba","ios":"levelo://app?vid=018af98c-e7d4-498d-881c-c6910234caba"},"vehicle_type_id":"4","last_reported":1756239114,"current_range_meters":12800,"station_id":"ce4bhh92rcd13ifvqfi0","pricing_plan_id":"cebpf4jnsgd1na2vs0mg"},{"bike_id":"82fdb41c-a336-478f-afa7-9244acd36d78","system_id":"levelo_inurba_marseille","lat":43.30773,"lon":5.37645,"is_reserved":false,"is_disabled":false,"rental_uris":{"android":"levelo://app?vid=82fdb41c-a336-478f-afa7-9244acd36d78","ios":"levelo://app?vid=82fdb41c-a336-478f-afa7-9244acd36d78"},"vehicle_type_id":"4","last_reported":1756239114,"current_range_meters":12800,"station_id":"ce4bgv92rcd13ifvqcq0","pricing_plan_id":"cebpf4jnsgd1na2vs0mg"},{"bike_id":"2000c816-0a2e-48a8-8e9f-a7518d5f5e1a","system_id":"levelo_inurba_marseille","lat":43.29578,"lon":5.36732,"is_reserved":false,"is_disabled":false,"rental_uris":{"android":"levelo://app?vid=2000c816-0a2e-48a8-8e9f-a7518d5f5e1a","ios":"levelo://app?vid=2000c816-0a2e-48a8-8e9f-a7518d5f5e1a"},"vehicle_type_id":"4","last_reported":1756239114,"current_range_meters":12800,"station_id":"ce4bgph2rcd13ifvqc2g","pricing_plan_id":"cebpf4jnsgd1na2vs0mg"},{"bike_id":"0e256118-fe33-4307-b7cb-16c76027513c","system_id":"levelo_inurba_marseille","lat":43.24091,"lon":5.37759,"is_reserved":false,"is_disabled":false,"rental_uris":{"android":"levelo://app?vid=0e256118-fe33-4307-b7cb-16c76027513c","ios":"levelo://app?vid=0e256118-fe33-4307-b7cb-16c76027513c"},"vehicle_type_id":"4","last_reported":1756239114,"current_range_meters":12800,"station_id":"ce4bhnp2rcd13ifvqgvg","pricing_plan_id":"cebpf4jnsgd1na2vs0mg"},{"bike_id":"0b37519e-fc90-4394-85fd-43f429410d3b","system_id":"levelo_inurba_marseille","lat":43.2925,"lon":5.38429,"is_reserved":false,"is_disabled":false,"rental_uris":{"android":"levelo://app?vid=0b37519e-fc90-4394-85fd-43f429410d3b","ios":"levelo://app?vid=0b37519e-fc90-4394-85fd-43f429410d3b"},"vehicle_type_id":"4","last_reported":1756239114,"current_range_meters":12800,"station_id":"ce4bh692rcd13ifvqea0","pricing_plan_id":"cebpf4jnsgd1na2vs0mg"},{"bike_id":"9041f4fb-fb38-43a3-b139-d8937464112e","system_id":"levelo_inurba_marseille","lat":43.29529,"lon":5.3854,"is_reserved":false,"is_disabled":false,"rental_uris":{"android":"levelo://app?vid=9041f4fb-fb38-43a3-b139-d8937464112e","ios":"levelo://app?vid=9041f4fb-fb38-43a3-b139-d8937464112e"},"vehicle_type_id":"4","last_reported":1756239114,"current_range_meters":12800,"station_id":"ce4bgih2rcd13ifvqba0","pricing_plan_id":"cebpf4jnsgd1na2vs0mg"},{"bike_id":"5ebfc32c-3ff0-440a-97ee-1c808332e074","system_id":"levelo_inurba_marseille","lat":43.25006,"lon":5.389113,"is_reserved":false,"is_disabled":false,"rental_uris":{"android":"levelo://app?vid=5ebfc32c-3ff0-440a-97ee-1c808332e074","ios":"levelo://app?vid=5ebfc32c-3ff0-440a-97ee-1c808332e074"},"vehicle_type_id":"4","last_reported":1756239114,"current_range_meters":12800,"station_id":"","pricing_plan_id":"cebpf4jnsgd1na2vs0mg"},{"bike_id":"2d018b38-51dc-4c2d-b935-970f32cf436f","system_id":"levelo_inurba_marseille","lat":43.2533,"lon":5.42177,"is_reserved":false,"is_disabled":false,"rental_uris":{"android":"levelo://app?vid=2d018b38-51dc-4c2d-b935-970f32cf436f","ios":"levelo://app?vid=2d018b38-51dc-4c2d-b935-970f32cf436f"},"vehicle_type_id":"4","last_reported":1756239114,"current_range_meters":12800,"station_id":"st_d2m65c5bi1j21697t3ng","pricing_plan_id":"cebpf4jnsgd1na2vs0mg"},{"bike_id":"52216f93-83bb-4cd4-934a-0745ffd130c3","system_id":"levelo_inurba_marseille","lat":43.29231,"lon":5.38453,"is_reserved":false,"is_disabled":false,"rental_uris":{"android":"levelo://app?vid=52216f93-83bb-4cd4-934a-0745ffd130c3","ios":"levelo://app?vid=52216f93-83bb-4cd4-934a-0745ffd130c3"},"vehicle_type_id":"4","last_reported":1756239114,"current_range_meters":12800,"station_id":"ce4bh692rcd13ifvqea0","pricing_plan_id":"cebpf4jnsgd1na2vs0mg"},{"bike_id":"4e330b1f-161c-4651-9fd6-20401a194c71","system_id":"levelo_inurba_marseille","lat":43.24035,"lon":5.37825,"is_reserved":false,"is_disabled":false,"rental_uris":{"android":"levelo://app?vid=4e330b1f-161c-4651-9fd6-20401a194c71","ios":"levelo://app?vid=4e330b1f-161c-4651-9fd6-20401a194c71"},"vehicle_type_id":"4","last_reported":1756239114,"current_range_meters":12800,"station_id":"","pricing_plan_id":"cebpf4jnsgd1na2vs0mg"},{"bike_id":"8b30ef25-cb53-4ec8-b14b-e2881cb3b9e0","system_id":"levelo_inurba_marseille","lat":43.3266,"lon":5.40996,"is_reserved":false,"is_disabled":false,"rental_uris":{"android":"levelo://app?vid=8b30ef25-cb53-4ec8-b14b-e2881cb3b9e0","ios":"levelo://app?vid=8b30ef25-cb53-4ec8-b14b-e2881cb3b9e0"},"vehicle_type_id":"4","last_reported":1756239114,"current_range_meters":12800,"station_id":"ce4bhpp2rcd13ifvqhgg","pricing_plan_id":"cebpf4jnsgd1na2vs0mg"},{"bike_id":"9566f9c3-eeee-456f-af50-d6d99e6e47a1","system_id":"levelo_inurba_marseille","lat":43.29259,"lon":5.38437,"is_reserved":false,"is_disabled":false,"rental_uris":{"android":"levelo://app?vid=9566f9c3-eeee-456f-af50-d6d99e6e47a1","ios":"levelo://app?vid=9566f9c3-eeee-456f-af50-d6d99e6e47a1"},"vehicle_type_id":"4","last_reported":1756239114,"current_range_meters":13600,"station_id":"ce4bh692rcd13ifvqea0","pricing_plan_id":"cebpf4jnsgd1na2vs0mg"},{"bike_id":"89bb2efc-5c45-48e0-b659-b8ecb63211d5","system_id":"levelo_inurba_marseille","lat":43.29778,"lon":5.39333,"is_reserved":false,"is_disabled":false,"rental_uris":{"android":"levelo://app?vid=89bb2efc-5c45-48e0-b659-b8ecb63211d5","ios":"levelo://app?vid=89bb2efc-5c45-48e0-b659-b8ecb63211d5"},"vehicle_type_id":"4","last_reported":1756239114,"current_range_meters":13600,"station_id":"chh1huq6cuj3fo74tm60","pricing_plan_id":"cebpf4jnsgd1na2vs0mg"},{"bike_id":"2858e9cf-c316-4cb6-bb49-290e2ece48ff","system_id":"levelo_inurba_marseille","lat":43.29592,"lon":5.36733,"is_reserved":false,"is_disabled":false,"rental_uris":{"android":"levelo://app?vid=2858e9cf-c316-4cb6-bb49-290e2ece48ff","ios":"levelo://app?vid=2858e9cf-c316-4cb6-bb49-290e2ece48ff"},"vehicle_type_id":"4","last_reported":1756239114,"current_range_meters":13600,"station_id":"ce4bgph2rcd13ifvqc2g","pricing_plan_id":"cebpf4jnsgd1na2vs0mg"},{"bike_id":"a9c8448e-6218-4e69-a780-11bdb66755b5","system_id":"levelo_inurba_marseille","lat":43.28403,"lon":5.37573,"is_reserved":false,"is_disabled":false,"rental_uris":{"android":"levelo://app?vid=a9c8448e-6218-4e69-a780-11bdb66755b5","ios":"levelo://app?vid=a9c8448e-6218-4e69-a780-11bdb66755b5"},"vehicle_type_id":"4","last_reported":1756239114,"current_range_meters":13600,"station_id":"","pricing_plan_id":"cebpf4jnsgd1na2vs0mg"},{"bike_id":"8ad69d7f-6d52-4611-bf92-39c173b24a99","system_id":"levelo_inurba_marseille","lat":43.29274,"lon":5.36837,"is_reserved":false,"is_disabled":false,"rental_uris":{"android":"levelo://app?vid=8ad69d7f-6d52-4611-bf92-39c173b24a99","ios":"levelo://app?vid=8ad69d7f-6d52-4611-bf92-39c173b24a99"},"vehicle_type_id":"4","last_reported":1756239114,"current_range_meters":13600,"station_id":"ce4bhbp2rcd13ifvqesg","pricing_plan_id":"cebpf4jnsgd1na2vs0mg"},{"bike_id":"b4d6c33d-a0bf-42a3-9ab7-0db80b72b559","system_id":"levelo_inurba_marseille","lat":43.28942,"lon":5.36632,"is_reserved":false,"is_disabled":true,"rental_uris":{"android":"levelo://app?vid=b4d6c33d-a0bf-42a3-9ab7-0db80b72b559","ios":"levelo://app?vid=b4d6c33d-a0bf-42a3-9ab7-0db80b72b559"},"vehicle_type_id":"4","last_reported":1756239114,"current_range_meters":13600,"station_id":"ce4bhap2rcd13ifvqek0","pricing_plan_id":"cebpf4jnsgd1na2vs0mg"},{"bike_id":"1027bb83-a668-47de-9094-84302cb909d4","system_id":"levelo_inurba_marseille","lat":43.21193,"lon":5.35073,"is_reserved":false,"is_disabled":false,"rental_uris":{"android":"levelo://app?vid=1027bb83-a668-47de-9094-84302cb909d4","ios":"levelo://app?vid=1027bb83-a668-47de-9094-84302cb909d4"},"vehicle_type_id":"4","last_reported":1756239114,"current_range_meters":13600,"station_id":"st_cvj6sg6p6f1abm77japg","pricing_plan_id":"cebpf4jnsgd1na2vs0mg"},{"bike_id":"7354d48f-9439-46df-94c7-a1c327ad0fff","system_id":"levelo_inurba_marseille","lat":43.2841,"lon":5.3754,"is_reserved":false,"is_disabled":false,"rental_uris":{"android":"levelo://app?vid=7354d48f-9439-46df-94c7-a1c327ad0fff","ios":"levelo://app?vid=7354d48f-9439-46df-94c7-a1c327ad0fff"},"vehicle_type_id":"4","last_reported":1756239114,"current_range_meters":13600,"station_id":"ce4bh412rcd13ifvqds0","pricing_plan_id":"cebpf4jnsgd1na2vs0mg"},{"bike_id":"3c1643a8-fab3-44d3-acd1-d46f421fc669","system_id":"levelo_inurba_marseille","lat":43.29025,"lon":5.38642,"is_reserved":false,"is_disabled":false,"rental_uris":{"android":"levelo://app?vid=3c1643a8-fab3-44d3-acd1-d46f421fc669","ios":"levelo://app?vid=3c1643a8-fab3-44d3-acd1-d46f421fc669"},"vehicle_type_id":"4","last_reported":1756239114,"current_range_meters":13600,"station_id":"ce4bh4p2rcd13ifvqe0g","pricing_plan_id":"cebpf4jnsgd1na2vs0mg"},{"bike_id":"e83e7b0a-c4ea-4f86-a5b0-14859eec6a87","system_id":"levelo_inurba_marseille","lat":43.29935,"lon":5.36505,"is_reserved":false,"is_disabled":false,"rental_uris":{"android":"levelo://app?vid=e83e7b0a-c4ea-4f86-a5b0-14859eec6a87","ios":"levelo://app?vid=e83e7b0a-c4ea-4f86-a5b0-14859eec6a87"},"vehicle_type_id":"4","last_reported":1756239114,"current_range_meters":13600,"station_id":"ce4bgm92rcd13ifvqbr0","pricing_plan_id":"cebpf4jnsgd1na2vs0mg"},{"bike_id":"bd70f010-5ebb-4b0d-838e-fa5bd2e24005","system_id":"levelo_inurba_marseille","lat":43.29532,"lon":5.39394,"is_reserved":false,"is_disabled":false,"rental_uris":{"android":"levelo://app?vid=bd70f010-5ebb-4b0d-838e-fa5bd2e24005","ios":"levelo://app?vid=bd70f010-5ebb-4b0d-838e-fa5bd2e24005"},"vehicle_type_id":"4","last_reported":1756239114,"current_range_meters":13600,"station_id":"ce4bh292rcd13ifvqdf0","pricing_plan_id":"cebpf4jnsgd1na2vs0mg"},{"bike_id":"27e5373b-e8b7-4f85-8890-1df30285fe3f","system_id":"levelo_inurba_marseille","lat":43.29538,"lon":5.38548,"is_reserved":false,"is_disabled":false,"rental_uris":{"android":"levelo://app?vid=27e5373b-e8b7-4f85-8890-1df30285fe3f","ios":"levelo://app?vid=27e5373b-e8b7-4f85-8890-1df30285fe3f"},"vehicle_type_id":"4","last_reported":1756239114,"current_range_meters":13600,"station_id":"ce4bgih2rcd13ifvqba0","pricing_plan_id":"cebpf4jnsgd1na2vs0mg"},{"bike_id":"73a227d6-7907-4493-af20-036c083adb9a","system_id":"levelo_inurba_marseille","lat":43.28108,"lon":5.37847,"is_reserved":false,"is_disabled":false,"rental_uris":{"android":"levelo://app?vid=73a227d6-7907-4493-af20-036c083adb9a","ios":"levelo://app?vid=73a227d6-7907-4493-af20-036c083adb9a"},"vehicle_type_id":"4","last_reported":1756239114,"current_range_meters":14000,"station_id":"ce4bha12rcd13ifvqee0","pricing_plan_id":"cebpf4jnsgd1na2vs0mg"},{"bike_id":"1d7023ef-959e-48df-b075-0a4bd90cc9ae","system_id":"levelo_inurba_marseille","lat":43.27365,"lon":5.36253,"is_reserved":false,"is_disabled":true,"rental_uris":{"android":"levelo://app?vid=1d7023ef-959e-48df-b075-0a4bd90cc9ae","ios":"levelo://app?vid=1d7023ef-959e-48df-b075-0a4bd90cc9ae"},"vehicle_type_id":"4","last_reported":1756239114,"current_range_meters":14000,"station_id":"ce4bhbh2rcd13ifvqeo0","pricing_plan_id":"cebpf4jnsgd1na2vs0mg"},{"bike_id":"040edb75-dc12-4767-9382-78245cff4e7d","system_id":"levelo_inurba_marseille","lat":43.29247,"lon":5.38439,"is_reserved":false,"is_disabled":false,"rental_uris":{"android":"levelo://app?vid=040edb75-dc12-4767-9382-78245cff4e7d","ios":"levelo://app?vid=040edb75-dc12-4767-9382-78245cff4e7d"},"vehicle_type_id":"4","last_reported":1756239114,"current_range_meters":14000,"station_id":"ce4bh692rcd13ifvqea0","pricing_plan_id":"cebpf4jnsgd1na2vs0mg"},{"bike_id":"f2135cb1-3383-46bd-90d4-d827b77a416c","system_id":"levelo_inurba_marseille","lat":43.29531,"lon":5.38535,"is_reserved":false,"is_disabled":false,"rental_uris":{"android":"levelo://app?vid=f2135cb1-3383-46bd-90d4-d827b77a416c","ios":"levelo://app?vid=f2135cb1-3383-46bd-90d4-d827b77a416c"},"vehicle_type_id":"4","last_reported":1756239114,"current_range_meters":14000,"station_id":"ce4bgih2rcd13ifvqba0","pricing_plan_id":"cebpf4jnsgd1na2vs0mg"},{"bike_id":"97ca0c55-12b3-4673-83b9-e130942385ef","system_id":"levelo_inurba_marseille","lat":43.29043,"lon":5.39969,"is_reserved":false,"is_disabled":false,"rental_uris":{"android":"levelo://app?vid=97ca0c55-12b3-4673-83b9-e130942385ef","ios":"levelo://app?vid=97ca0c55-12b3-4673-83b9-e130942385ef"},"vehicle_type_id":"4","last_reported":1756239114,"current_range_meters":14000,"station_id":"ce4bh392rcd13ifvqdm0","pricing_plan_id":"cebpf4jnsgd1na2vs0mg"},{"bike_id":"d0c5eb57-a46f-4f81-bdbb-c39cf032661b","system_id":"levelo_inurba_marseille","lat":43.31507,"lon":5.38023,"is_reserved":false,"is_disabled":false,"rental_uris":{"android":"levelo://app?vid=d0c5eb57-a46f-4f81-bdbb-c39cf032661b","ios":"levelo://app?vid=d0c5eb57-a46f-4f81-bdbb-c39cf032661b"},"vehicle_type_id":"4","last_reported":1756239114,"current_range_meters":14000,"station_id":"","pricing_plan_id":"cebpf4jnsgd1na2vs0mg"},{"bike_id":"66cbe913-3a43-4576-9c26-e827b3161caa","system_id":"levelo_inurba_marseille","lat":43.29938,"lon":5.36539,"is_reserved":false,"is_disabled":false,"rental_uris":{"android":"levelo://app?vid=66cbe913-3a43-4576-9c26-e827b3161caa","ios":"levelo://app?vid=66cbe913-3a43-4576-9c26-e827b3161caa"},"vehicle_type_id":"4","last_reported":1756239114,"current_range_meters":14000,"station_id":"ce4bgm92rcd13ifvqbr0","pricing_plan_id":"cebpf4jnsgd1na2vs0mg"},{"bike_id":"4146eec1-764f-46c4-8e9f-1ba95ae7c309","system_id":"levelo_inurba_marseille","lat":43.289382,"lon":5.366409,"is_reserved":false,"is_disabled":false,"rental_uris":{"android":"levelo://app?vid=4146eec1-764f-46c4-8e9f-1ba95ae7c309","ios":"levelo://app?vid=4146eec1-764f-46c4-8e9f-1ba95ae7c309"},"vehicle_type_id":"4","last_reported":1756239114,"current_range_meters":14000,"station_id":"ce4bhap2rcd13ifvqek0","pricing_plan_id":"cebpf4jnsgd1na2vs0mg"},{"bike_id":"db7d3d83-f39a-4469-8445-29697e69fec4","system_id":"levelo_inurba_marseille","lat":43.33016,"lon":5.39417,"is_reserved":false,"is_disabled":false,"rental_uris":{"android":"levelo://app?vid=db7d3d83-f39a-4469-8445-29697e69fec4","ios":"levelo://app?vid=db7d3d83-f39a-4469-8445-29697e69fec4"},"vehicle_type_id":"4","last_reported":1756239114,"current_range_meters":14000,"station_id":"","pricing_plan_id":"cebpf4jnsgd1na2vs0mg"},{"bike_id":"f90ce185-7614-4f61-afef-4d7c01c04036","system_id":"levelo_inurba_marseille","lat":43.29252,"lon":5.38444,"is_reserved":false,"is_disabled":false,"rental_uris":{"android":"levelo://app?vid=f90ce185-7614-4f61-afef-4d7c01c04036","ios":"levelo://app?vid=f90ce185-7614-4f61-afef-4d7c01c04036"},"vehicle_type_id":"4","last_reported":1756239114,"current_range_meters":14400,"station_id":"ce4bh692rcd13ifvqea0","pricing_plan_id":"cebpf4jnsgd1na2vs0mg"},{"bike_id":"07514529-acfc-499b-b5d5-35aad5b87bc1","system_id":"levelo_inurba_marseille","lat":43.29797,"lon":5.404,"is_reserved":false,"is_disabled":false,"rental_uris":{"android":"levelo://app?vid=07514529-acfc-499b-b5d5-35aad5b87bc1","ios":"levelo://app?vid=07514529-acfc-499b-b5d5-35aad5b87bc1"},"vehicle_type_id":"4","last_reported":1756239114,"current_range_meters":14400,"station_id":"ce4bh112rcd13ifvqd90","pricing_plan_id":"cebpf4jnsgd1na2vs0mg"},{"bike_id":"2a03de91-be91-40c5-8c77-b00d44e959fa","system_id":"levelo_inurba_marseille","lat":43.26215,"lon":5.37439,"is_reserved":false,"is_disabled":false,"rental_uris":{"android":"levelo://app?vid=2a03de91-be91-40c5-8c77-b00d44e959fa","ios":"levelo://app?vid=2a03de91-be91-40c5-8c77-b00d44e959fa"},"vehicle_type_id":"4","last_reported":1756239114,"current_range_meters":14400,"station_id":"ce4bhgp2rcd13ifvqfc0","pricing_plan_id":"cebpf4jnsgd1na2vs0mg"},{"bike_id":"f0400c37-c7f6-4929-b1ac-d92430ff6f2d","system_id":"levelo_inurba_marseille","lat":43.27593,"lon":5.39688,"is_reserved":false,"is_disabled":false,"rental_uris":{"android":"levelo://app?vid=f0400c37-c7f6-4929-b1ac-d92430ff6f2d","ios":"levelo://app?vid=f0400c37-c7f6-4929-b1ac-d92430ff6f2d"},"vehicle_type_id":"4","last_reported":1756239114,"current_range_meters":14400,"station_id":"","pricing_plan_id":"cebpf4jnsgd1na2vs0mg"},{"bike_id":"e44bc05c-e6c3-432c-9d71-fd17a85f949c","system_id":"levelo_inurba_marseille","lat":43.29189,"lon":5.3932,"is_reserved":false,"is_disabled":false,"rental_uris":{"android":"levelo://app?vid=e44bc05c-e6c3-432c-9d71-fd17a85f949c","ios":"levelo://app?vid=e44bc05c-e6c3-432c-9d71-fd17a85f949c"},"vehicle_type_id":"4","last_reported":1756239114,"current_range_meters":14400,"station_id":"ce4bh192rcd13ifvqdd0","pricing_plan_id":"cebpf4jnsgd1na2vs0mg"},{"bike_id":"35293f9d-ecc5-4090-ae0e-2e4ab9a73a16","system_id":"levelo_inurba_marseille","lat":43.32382,"lon":5.3672,"is_reserved":false,"is_disabled":false,"rental_uris":{"android":"levelo://app?vid=35293f9d-ecc5-4090-ae0e-2e4ab9a73a16","ios":"levelo://app?vid=35293f9d-ecc5-4090-ae0e-2e4ab9a73a16"},"vehicle_type_id":"4","last_reported":1756239114,"current_range_meters":14400,"station_id":"","pricing_plan_id":"cebpf4jnsgd1na2vs0mg"},{"bike_id":"63f2abed-057a-4b88-a942-7fb1eb5fe235","system_id":"levelo_inurba_marseille","lat":43.27914,"lon":5.39576,"is_reserved":false,"is_disabled":false,"rental_uris":{"android":"levelo://app?vid=63f2abed-057a-4b88-a942-7fb1eb5fe235","ios":"levelo://app?vid=63f2abed-057a-4b88-a942-7fb1eb5fe235"},"vehicle_type_id":"4","last_reported":1756239114,"current_range_meters":14400,"station_id":"ce4bhf92rcd13ifvqf40","pricing_plan_id":"cebpf4jnsgd1na2vs0mg"},{"bike_id":"22ab1208-c6f7-4b7f-b55d-758b70d286ac","system_id":"levelo_inurba_marseille","lat":43.27978,"lon":5.416608,"is_reserved":false,"is_disabled":false,"rental_uris":{"android":"levelo://app?vid=22ab1208-c6f7-4b7f-b55d-758b70d286ac","ios":"levelo://app?vid=22ab1208-c6f7-4b7f-b55d-758b70d286ac"},"vehicle_type_id":"4","last_reported":1756239114,"current_range_meters":14400,"station_id":"ce4bho12rcd13ifvqh1g","pricing_plan_id":"cebpf4jnsgd1na2vs0mg"},{"bike_id":"b11de55f-2da6-4a65-af33-9a0cf4ee29d3","system_id":"levelo_inurba_marseille","lat":43.25815,"lon":5.39439,"is_reserved":false,"is_disabled":false,"rental_uris":{"android":"levelo://app?vid=b11de55f-2da6-4a65-af33-9a0cf4ee29d3","ios":"levelo://app?vid=b11de55f-2da6-4a65-af33-9a0cf4ee29d3"},"vehicle_type_id":"4","last_reported":1756239114,"current_range_meters":14400,"station_id":"ce4bhip2rcd13ifvqft0","pricing_plan_id":"cebpf4jnsgd1na2vs0mg"},{"bike_id":"777a8c83-aed8-4881-84b6-34465956e738","system_id":"levelo_inurba_marseille","lat":43.25774,"lon":5.41022,"is_reserved":false,"is_disabled":false,"rental_uris":{"android":"levelo://app?vid=777a8c83-aed8-4881-84b6-34465956e738","ios":"levelo://app?vid=777a8c83-aed8-4881-84b6-34465956e738"},"vehicle_type_id":"4","last_reported":1756239114,"current_range_meters":14400,"station_id":"","pricing_plan_id":"cebpf4jnsgd1na2vs0mg"},{"bike_id":"af732ca8-2cea-448a-9928-59e03d12656f","system_id":"levelo_inurba_marseille","lat":43.33479,"lon":5.36007,"is_reserved":false,"is_disabled":false,"rental_uris":{"android":"levelo://app?vid=af732ca8-2cea-448a-9928-59e03d12656f","ios":"levelo://app?vid=af732ca8-2cea-448a-9928-59e03d12656f"},"vehicle_type_id":"4","last_reported":1756239114,"current_range_meters":14400,"station_id":"","pricing_plan_id":"cebpf4jnsgd1na2vs0mg"},{"bike_id":"6b9e408a-4a08-4a27-a4f0-ccb58dbcad6c","system_id":"levelo_inurba_marseille","lat":43.29793,"lon":5.39354,"is_reserved":false,"is_disabled":false,"rental_uris":{"android":"levelo://app?vid=6b9e408a-4a08-4a27-a4f0-ccb58dbcad6c","ios":"levelo://app?vid=6b9e408a-4a08-4a27-a4f0-ccb58dbcad6c"},"vehicle_type_id":"4","last_reported":1756239114,"current_range_meters":14000,"station_id":"chh1huq6cuj3fo74tm60","pricing_plan_id":"cebpf4jnsgd1na2vs0mg"},{"bike_id":"3feedd85-ba8b-4b32-9a12-b5ce11175b97","system_id":"levelo_inurba_marseille","lat":43.29364,"lon":5.37847,"is_reserved":false,"is_disabled":false,"rental_uris":{"android":"levelo://app?vid=3feedd85-ba8b-4b32-9a12-b5ce11175b97","ios":"levelo://app?vid=3feedd85-ba8b-4b32-9a12-b5ce11175b97"},"vehicle_type_id":"4","last_reported":1756239114,"current_range_meters":14400,"station_id":"ce4bgjh2rcd13ifvqbf0","pricing_plan_id":"cebpf4jnsgd1na2vs0mg"},{"bike_id":"4fa97397-fce3-4379-8e92-7b07317cecbf","system_id":"levelo_inurba_marseille","lat":43.31994,"lon":5.38146,"is_reserved":false,"is_disabled":false,"rental_uris":{"android":"levelo://app?vid=4fa97397-fce3-4379-8e92-7b07317cecbf","ios":"levelo://app?vid=4fa97397-fce3-4379-8e92-7b07317cecbf"},"vehicle_type_id":"4","last_reported":1756239114,"current_range_meters":14800,"station_id":"ce4bhr12rcd13ifvqhpg","pricing_plan_id":"cebpf4jnsgd1na2vs0mg"},{"bike_id":"5bce688b-fc81-4596-8277-b66f54be87c1","system_id":"levelo_inurba_marseille","lat":43.33768,"lon":5.37438,"is_reserved":false,"is_disabled":false,"rental_uris":{"android":"levelo://app?vid=5bce688b-fc81-4596-8277-b66f54be87c1","ios":"levelo://app?vid=5bce688b-fc81-4596-8277-b66f54be87c1"},"vehicle_type_id":"4","last_reported":1756239114,"current_range_meters":14800,"station_id":"","pricing_plan_id":"cebpf4jnsgd1na2vs0mg"},{"bike_id":"7109f5d7-0f1c-42f9-b473-fc8597c559c4","system_id":"levelo_inurba_marseille","lat":43.29965,"lon":5.37191,"is_reserved":false,"is_disabled":false,"rental_uris":{"android":"levelo://app?vid=7109f5d7-0f1c-42f9-b473-fc8597c559c4","ios":"levelo://app?vid=7109f5d7-0f1c-42f9-b473-fc8597c559c4"},"vehicle_type_id":"4","last_reported":1756239114,"current_range_meters":14800,"station_id":"ce4bgr92rcd13ifvqc7g","pricing_plan_id":"cebpf4jnsgd1na2vs0mg"},{"bike_id":"cd5f5dc3-8366-4b0c-a73e-2e0775b42f9e","system_id":"levelo_inurba_marseille","lat":43.29252,"lon":5.36859,"is_reserved":false,"is_disabled":true,"rental_uris":{"android":"levelo://app?vid=cd5f5dc3-8366-4b0c-a73e-2e0775b42f9e","ios":"levelo://app?vid=cd5f5dc3-8366-4b0c-a73e-2e0775b42f9e"},"vehicle_type_id":"4","last_reported":1756239114,"current_range_meters":14800,"station_id":"ce4bhbp2rcd13ifvqesg","pricing_plan_id":"cebpf4jnsgd1na2vs0mg"},{"bike_id":"fd569f9d-ad3a-4bfa-8f12-5a2a48953aa6","system_id":"levelo_inurba_marseille","lat":43.31085,"lon":5.42432,"is_reserved":false,"is_disabled":false,"rental_uris":{"android":"levelo://app?vid=fd569f9d-ad3a-4bfa-8f12-5a2a48953aa6","ios":"levelo://app?vid=fd569f9d-ad3a-4bfa-8f12-5a2a48953aa6"},"vehicle_type_id":"4","last_reported":1756239114,"current_range_meters":12800,"station_id":"ce4bhp92rcd13ifvqhag","pricing_plan_id":"cebpf4jnsgd1na2vs0mg"},{"bike_id":"07dc8100-d5f8-42c7-9c78-c955b24ae46a","system_id":"levelo_inurba_marseille","lat":43.2985,"lon":5.36285,"is_reserved":false,"is_disabled":false,"rental_uris":{"android":"levelo://app?vid=07dc8100-d5f8-42c7-9c78-c955b24ae46a","ios":"levelo://app?vid=07dc8100-d5f8-42c7-9c78-c955b24ae46a"},"vehicle_type_id":"4","last_reported":1756239114,"current_range_meters":14800,"station_id":"ce4bgpp2rcd13ifvqc3g","pricing_plan_id":"cebpf4jnsgd1na2vs0mg"},{"bike_id":"af744081-2681-4d1e-9525-a9843cca33d2","system_id":"levelo_inurba_marseille","lat":43.32534,"lon":5.36447,"is_reserved":false,"is_disabled":false,"rental_uris":{"android":"levelo://app?vid=af744081-2681-4d1e-9525-a9843cca33d2","ios":"levelo://app?vid=af744081-2681-4d1e-9525-a9843cca33d2"},"vehicle_type_id":"4","last_reported":1756239114,"current_range_meters":14800,"station_id":"","pricing_plan_id":"cebpf4jnsgd1na2vs0mg"},{"bike_id":"810c389a-b588-41ca-947a-100ea63879ce","system_id":"levelo_inurba_marseille","lat":43.29064,"lon":5.37147,"is_reserved":false,"is_disabled":false,"rental_uris":{"android":"levelo://app?vid=810c389a-b588-41ca-947a-100ea63879ce","ios":"levelo://app?vid=810c389a-b588-41ca-947a-100ea63879ce"},"vehicle_type_id":"4","last_reported":1756239114,"current_range_meters":14800,"station_id":"ce4bh5p2rcd13ifvqe4g","pricing_plan_id":"cebpf4jnsgd1na2vs0mg"},{"bike_id":"b0146f38-55d2-40e9-8f26-917e1087a00d","system_id":"levelo_inurba_marseille","lat":43.2958,"lon":5.36728,"is_reserved":false,"is_disabled":false,"rental_uris":{"android":"levelo://app?vid=b0146f38-55d2-40e9-8f26-917e1087a00d","ios":"levelo://app?vid=b0146f38-55d2-40e9-8f26-917e1087a00d"},"vehicle_type_id":"4","last_reported":1756239114,"current_range_meters":14800,"station_id":"ce4bgph2rcd13ifvqc2g","pricing_plan_id":"cebpf4jnsgd1na2vs0mg"},{"bike_id":"58913844-e85b-46aa-a846-7d0220bf2763","system_id":"levelo_inurba_marseille","lat":43.29234,"lon":5.38429,"is_reserved":false,"is_disabled":false,"rental_uris":{"android":"levelo://app?vid=58913844-e85b-46aa-a846-7d0220bf2763","ios":"levelo://app?vid=58913844-e85b-46aa-a846-7d0220bf2763"},"vehicle_type_id":"4","last_reported":1756239114,"current_range_meters":15200,"station_id":"ce4bh692rcd13ifvqea0","pricing_plan_id":"cebpf4jnsgd1na2vs0mg"},{"bike_id":"e6650f35-9f5d-43b3-801d-ac0604794b12","system_id":"levelo_inurba_marseille","lat":43.2927,"lon":5.38427,"is_reserved":false,"is_disabled":false,"rental_uris":{"android":"levelo://app?vid=e6650f35-9f5d-43b3-801d-ac0604794b12","ios":"levelo://app?vid=e6650f35-9f5d-43b3-801d-ac0604794b12"},"vehicle_type_id":"4","last_reported":1756239114,"current_range_meters":15200,"station_id":"ce4bh692rcd13ifvqea0","pricing_plan_id":"cebpf4jnsgd1na2vs0mg"},{"bike_id":"503cade9-51c1-4e76-b53f-3ba4bc1efb57","system_id":"levelo_inurba_marseille","lat":43.26567,"lon":5.39022,"is_reserved":false,"is_disabled":false,"rental_uris":{"android":"levelo://app?vid=503cade9-51c1-4e76-b53f-3ba4bc1efb57","ios":"levelo://app?vid=503cade9-51c1-4e76-b53f-3ba4bc1efb57"},"vehicle_type_id":"4","last_reported":1756239114,"current_range_meters":15200,"station_id":"ce4bhe12rcd13ifvqf30","pricing_plan_id":"cebpf4jnsgd1na2vs0mg"},{"bike_id":"2ddb7ec5-6e5b-4232-888b-3091e037ee4f","system_id":"levelo_inurba_marseille","lat":43.27563,"lon":5.3842,"is_reserved":false,"is_disabled":false,"rental_uris":{"android":"levelo://app?vid=2ddb7ec5-6e5b-4232-888b-3091e037ee4f","ios":"levelo://app?vid=2ddb7ec5-6e5b-4232-888b-3091e037ee4f"},"vehicle_type_id":"4","last_reported":1756239114,"current_range_meters":15200,"station_id":"ce4bhh92rcd13ifvqfi0","pricing_plan_id":"cebpf4jnsgd1na2vs0mg"},{"bike_id":"f7510f2f-eb49-474e-9c13-3a54b1123705","system_id":"levelo_inurba_marseille","lat":43.29259,"lon":5.38442,"is_reserved":false,"is_disabled":false,"rental_uris":{"android":"levelo://app?vid=f7510f2f-eb49-474e-9c13-3a54b1123705","ios":"levelo://app?vid=f7510f2f-eb49-474e-9c13-3a54b1123705"},"vehicle_type_id":"4","last_reported":1756239114,"current_range_meters":15200,"station_id":"ce4bh692rcd13ifvqea0","pricing_plan_id":"cebpf4jnsgd1na2vs0mg"},{"bike_id":"834a3fa2-f8ce-44bd-8af4-0818d3b8da3c","system_id":"levelo_inurba_marseille","lat":43.29276,"lon":5.36839,"is_reserved":false,"is_disabled":false,"rental_uris":{"android":"levelo://app?vid=834a3fa2-f8ce-44bd-8af4-0818d3b8da3c","ios":"levelo://app?vid=834a3fa2-f8ce-44bd-8af4-0818d3b8da3c"},"vehicle_type_id":"4","last_reported":1756239114,"current_range_meters":16000,"station_id":"ce4bhbp2rcd13ifvqesg","pricing_plan_id":"cebpf4jnsgd1na2vs0mg"},{"bike_id":"653381cc-dc4d-4237-bb07-d2df1f8a5613","system_id":"levelo_inurba_marseille","lat":43.2925,"lon":5.40907,"is_reserved":false,"is_disabled":false,"rental_uris":{"android":"levelo://app?vid=653381cc-dc4d-4237-bb07-d2df1f8a5613","ios":"levelo://app?vid=653381cc-dc4d-4237-bb07-d2df1f8a5613"},"vehicle_type_id":"4","last_reported":1756239114,"current_range_meters":16000,"station_id":"ce4bh192rcd13ifvqdc0","pricing_plan_id":"cebpf4jnsgd1na2vs0mg"},{"bike_id":"8ab00d96-5eed-4948-b45b-0feae8b66390","system_id":"levelo_inurba_marseille","lat":43.27831,"lon":5.39214,"is_reserved":false,"is_disabled":false,"rental_uris":{"android":"levelo://app?vid=8ab00d96-5eed-4948-b45b-0feae8b66390","ios":"levelo://app?vid=8ab00d96-5eed-4948-b45b-0feae8b66390"},"vehicle_type_id":"4","last_reported":1756239114,"current_range_meters":16000,"station_id":"ce4bhjp2rcd13ifvqga0","pricing_plan_id":"cebpf4jnsgd1na2vs0mg"},{"bike_id":"748a79d2-e0bc-4dc7-9000-39e6dd1c7e3e","system_id":"levelo_inurba_marseille","lat":43.29579,"lon":5.36726,"is_reserved":false,"is_disabled":false,"rental_uris":{"android":"levelo://app?vid=748a79d2-e0bc-4dc7-9000-39e6dd1c7e3e","ios":"levelo://app?vid=748a79d2-e0bc-4dc7-9000-39e6dd1c7e3e"},"vehicle_type_id":"4","last_reported":1756239114,"current_range_meters":16000,"station_id":"ce4bgph2rcd13ifvqc2g","pricing_plan_id":"cebpf4jnsgd1na2vs0mg"},{"bike_id":"853a16b6-2446-401b-81c3-820e1ac2b4d5","system_id":"levelo_inurba_marseille","lat":43.30254,"lon":5.40079,"is_reserved":false,"is_disabled":false,"rental_uris":{"android":"levelo://app?vid=853a16b6-2446-401b-81c3-820e1ac2b4d5","ios":"levelo://app?vid=853a16b6-2446-401b-81c3-820e1ac2b4d5"},"vehicle_type_id":"4","last_reported":1756239114,"current_range_meters":16000,"station_id":"ce4bgvh2rcd13ifvqcs0","pricing_plan_id":"cebpf4jnsgd1na2vs0mg"},{"bike_id":"7a8b59a8-7533-4853-ab23-31432a150215","system_id":"levelo_inurba_marseille","lat":43.29257,"lon":5.37639,"is_reserved":false,"is_disabled":false,"rental_uris":{"android":"levelo://app?vid=7a8b59a8-7533-4853-ab23-31432a150215","ios":"levelo://app?vid=7a8b59a8-7533-4853-ab23-31432a150215"},"vehicle_type_id":"4","last_reported":1756239114,"current_range_meters":16000,"station_id":"ce4bgi12rcd13ifvqb80","pricing_plan_id":"cebpf4jnsgd1na2vs0mg"},{"bike_id":"0aafb655-5184-4bbe-a774-d042ccbee830","system_id":"levelo_inurba_marseille","lat":43.295312,"lon":5.385489,"is_reserved":false,"is_disabled":false,"rental_uris":{"android":"levelo://app?vid=0aafb655-5184-4bbe-a774-d042ccbee830","ios":"levelo://app?vid=0aafb655-5184-4bbe-a774-d042ccbee830"},"vehicle_type_id":"4","last_reported":1756239114,"current_range_meters":16000,"station_id":"ce4bgih2rcd13ifvqba0","pricing_plan_id":"cebpf4jnsgd1na2vs0mg"},{"bike_id":"b60c1718-d2ab-4aea-9232-6bbbadba5350","system_id":"levelo_inurba_marseille","lat":43.29277,"lon":5.36832,"is_reserved":false,"is_disabled":false,"rental_uris":{"android":"levelo://app?vid=b60c1718-d2ab-4aea-9232-6bbbadba5350","ios":"levelo://app?vid=b60c1718-d2ab-4aea-9232-6bbbadba5350"},"vehicle_type_id":"4","last_reported":1756239114,"current_range_meters":16000,"station_id":"ce4bhbp2rcd13ifvqesg","pricing_plan_id":"cebpf4jnsgd1na2vs0mg"},{"bike_id":"8b2442ae-7b49-41b5-ad77-197de2fec406","system_id":"levelo_inurba_marseille","lat":43.29043,"lon":5.38677,"is_reserved":false,"is_disabled":false,"rental_uris":{"android":"levelo://app?vid=8b2442ae-7b49-41b5-ad77-197de2fec406","ios":"levelo://app?vid=8b2442ae-7b49-41b5-ad77-197de2fec406"},"vehicle_type_id":"4","last_reported":1756239114,"current_range_meters":15200,"station_id":"ce4bh4p2rcd13ifvqe0g","pricing_plan_id":"cebpf4jnsgd1na2vs0mg"},{"bike_id":"e71745a0-e1dd-46b2-b178-c77ff9f67425","system_id":"levelo_inurba_marseille","lat":43.23175,"lon":5.39987,"is_reserved":false,"is_disabled":false,"rental_uris":{"android":"levelo://app?vid=e71745a0-e1dd-46b2-b178-c77ff9f67425","ios":"levelo://app?vid=e71745a0-e1dd-46b2-b178-c77ff9f67425"},"vehicle_type_id":"4","last_reported":1756239114,"current_range_meters":16000,"station_id":"ce4bhn12rcd13ifvqgqg","pricing_plan_id":"cebpf4jnsgd1na2vs0mg"},{"bike_id":"f1cecfa5-30ef-49ea-8370-0a9730211313","system_id":"levelo_inurba_marseille","lat":43.2944,"lon":5.39743,"is_reserved":false,"is_disabled":false,"rental_uris":{"android":"levelo://app?vid=f1cecfa5-30ef-49ea-8370-0a9730211313","ios":"levelo://app?vid=f1cecfa5-30ef-49ea-8370-0a9730211313"},"vehicle_type_id":"4","last_reported":1756239114,"current_range_meters":16000,"station_id":"ce4bh3h2rcd13ifvqdo0","pricing_plan_id":"cebpf4jnsgd1na2vs0mg"},{"bike_id":"019dc019-7ba4-413d-8bdb-1a1ef89da095","system_id":"levelo_inurba_marseille","lat":43.28678,"lon":5.38665,"is_reserved":false,"is_disabled":false,"rental_uris":{"android":"levelo://app?vid=019dc019-7ba4-413d-8bdb-1a1ef89da095","ios":"levelo://app?vid=019dc019-7ba4-413d-8bdb-1a1ef89da095"},"vehicle_type_id":"4","last_reported":1756239114,"current_range_meters":16000,"station_id":"ce4bh492rcd13ifvqdug","pricing_plan_id":"cebpf4jnsgd1na2vs0mg"},{"bike_id":"444185a1-99b2-4724-a588-1f691746c053","system_id":"levelo_inurba_marseille","lat":43.27046,"lon":5.42309,"is_reserved":false,"is_disabled":false,"rental_uris":{"android":"levelo://app?vid=444185a1-99b2-4724-a588-1f691746c053","ios":"levelo://app?vid=444185a1-99b2-4724-a588-1f691746c053"},"vehicle_type_id":"4","last_reported":1756239114,"current_range_meters":16400,"station_id":"ce4bhk92rcd13ifvqgb0","pricing_plan_id":"cebpf4jnsgd1na2vs0mg"},{"bike_id":"45d7801b-4354-4e9f-9ae7-061bfcea8d64","system_id":"levelo_inurba_marseille","lat":43.31477,"lon":5.3731,"is_reserved":false,"is_disabled":false,"rental_uris":{"android":"levelo://app?vid=45d7801b-4354-4e9f-9ae7-061bfcea8d64","ios":"levelo://app?vid=45d7801b-4354-4e9f-9ae7-061bfcea8d64"},"vehicle_type_id":"4","last_reported":1756239114,"current_range_meters":16400,"station_id":"ce4bgt12rcd13ifvqcd0","pricing_plan_id":"cebpf4jnsgd1na2vs0mg"},{"bike_id":"b79f626f-4cce-45e0-9b7e-79f3f3a6033f","system_id":"levelo_inurba_marseille","lat":43.24632,"lon":5.43152,"is_reserved":false,"is_disabled":false,"rental_uris":{"android":"levelo://app?vid=b79f626f-4cce-45e0-9b7e-79f3f3a6033f","ios":"levelo://app?vid=b79f626f-4cce-45e0-9b7e-79f3f3a6033f"},"vehicle_type_id":"4","last_reported":1756239114,"current_range_meters":16400,"station_id":"st_d2m6c4gdas8pm72e190g","pricing_plan_id":"cebpf4jnsgd1na2vs0mg"},{"bike_id":"2d861d56-7b30-4f85-b50d-bdd88259302d","system_id":"levelo_inurba_marseille","lat":43.29031,"lon":5.39967,"is_reserved":false,"is_disabled":false,"rental_uris":{"android":"levelo://app?vid=2d861d56-7b30-4f85-b50d-bdd88259302d","ios":"levelo://app?vid=2d861d56-7b30-4f85-b50d-bdd88259302d"},"vehicle_type_id":"4","last_reported":1756239114,"current_range_meters":16400,"station_id":"ce4bh392rcd13ifvqdm0","pricing_plan_id":"cebpf4jnsgd1na2vs0mg"},{"bike_id":"5dc1a80a-519b-4fa5-afdc-2e25d8ba5aea","system_id":"levelo_inurba_marseille","lat":43.29023,"lon":5.38663,"is_reserved":false,"is_disabled":false,"rental_uris":{"android":"levelo://app?vid=5dc1a80a-519b-4fa5-afdc-2e25d8ba5aea","ios":"levelo://app?vid=5dc1a80a-519b-4fa5-afdc-2e25d8ba5aea"},"vehicle_type_id":"4","last_reported":1756239114,"current_range_meters":16400,"station_id":"ce4bh4p2rcd13ifvqe0g","pricing_plan_id":"cebpf4jnsgd1na2vs0mg"},{"bike_id":"fbf0e9b4-0244-4455-89e8-bb336b1646cf","system_id":"levelo_inurba_marseille","lat":43.23193,"lon":5.39991,"is_reserved":false,"is_disabled":false,"rental_uris":{"android":"levelo://app?vid=fbf0e9b4-0244-4455-89e8-bb336b1646cf","ios":"levelo://app?vid=fbf0e9b4-0244-4455-89e8-bb336b1646cf"},"vehicle_type_id":"4","last_reported":1756239114,"current_range_meters":16400,"station_id":"ce4bhn12rcd13ifvqgqg","pricing_plan_id":"cebpf4jnsgd1na2vs0mg"},{"bike_id":"7ec81c5f-b464-49c3-a4a1-201c4822e1f7","system_id":"levelo_inurba_marseille","lat":43.30226,"lon":5.40069,"is_reserved":false,"is_disabled":false,"rental_uris":{"android":"levelo://app?vid=7ec81c5f-b464-49c3-a4a1-201c4822e1f7","ios":"levelo://app?vid=7ec81c5f-b464-49c3-a4a1-201c4822e1f7"},"vehicle_type_id":"4","last_reported":1756239114,"current_range_meters":16400,"station_id":"ce4bgvh2rcd13ifvqcs0","pricing_plan_id":"cebpf4jnsgd1na2vs0mg"},{"bike_id":"8fe6e898-007b-4da0-ac19-20424bfcd1e7","system_id":"levelo_inurba_marseille","lat":43.306763,"lon":5.374739,"is_reserved":false,"is_disabled":false,"rental_uris":{"android":"levelo://app?vid=8fe6e898-007b-4da0-ac19-20424bfcd1e7","ios":"levelo://app?vid=8fe6e898-007b-4da0-ac19-20424bfcd1e7"},"vehicle_type_id":"4","last_reported":1756239114,"current_range_meters":16400,"station_id":"ce4bgv92rcd13ifvqcq0","pricing_plan_id":"cebpf4jnsgd1na2vs0mg"},{"bike_id":"25d61684-69ab-4755-b180-c15411e5353d","system_id":"levelo_inurba_marseille","lat":43.28932,"lon":5.38408,"is_reserved":false,"is_disabled":false,"rental_uris":{"android":"levelo://app?vid=25d61684-69ab-4755-b180-c15411e5353d","ios":"levelo://app?vid=25d61684-69ab-4755-b180-c15411e5353d"},"vehicle_type_id":"4","last_reported":1756239114,"current_range_meters":16400,"station_id":"ce4bh612rcd13ifvqe6g","pricing_plan_id":"cebpf4jnsgd1na2vs0mg"},{"bike_id":"80f3d5ae-2129-481d-8519-a35a40bdb90f","system_id":"levelo_inurba_marseille","lat":43.29531,"lon":5.3853,"is_reserved":false,"is_disabled":false,"rental_uris":{"android":"levelo://app?vid=80f3d5ae-2129-481d-8519-a35a40bdb90f","ios":"levelo://app?vid=80f3d5ae-2129-481d-8519-a35a40bdb90f"},"vehicle_type_id":"4","last_reported":1756239114,"current_range_meters":16400,"station_id":"ce4bgih2rcd13ifvqba0","pricing_plan_id":"cebpf4jnsgd1na2vs0mg"},{"bike_id":"0dd98239-e4f7-4ee5-a554-64b730583307","system_id":"levelo_inurba_marseille","lat":43.29971,"lon":5.37181,"is_reserved":false,"is_disabled":false,"rental_uris":{"android":"levelo://app?vid=0dd98239-e4f7-4ee5-a554-64b730583307","ios":"levelo://app?vid=0dd98239-e4f7-4ee5-a554-64b730583307"},"vehicle_type_id":"4","last_reported":1756239114,"current_range_meters":16400,"station_id":"ce4bgr92rcd13ifvqc7g","pricing_plan_id":"cebpf4jnsgd1na2vs0mg"},{"bike_id":"5f1b3fc5-f305-4b0a-89f9-fa3a7b4296b8","system_id":"levelo_inurba_marseille","lat":43.3025,"lon":5.4006,"is_reserved":false,"is_disabled":false,"rental_uris":{"android":"levelo://app?vid=5f1b3fc5-f305-4b0a-89f9-fa3a7b4296b8","ios":"levelo://app?vid=5f1b3fc5-f305-4b0a-89f9-fa3a7b4296b8"},"vehicle_type_id":"4","last_reported":1756239114,"current_range_meters":16400,"station_id":"ce4bgvh2rcd13ifvqcs0","pricing_plan_id":"cebpf4jnsgd1na2vs0mg"},{"bike_id":"d262369f-4201-4652-91ef-8adb9d2a4ede","system_id":"levelo_inurba_marseille","lat":43.24079,"lon":5.37767,"is_reserved":false,"is_disabled":false,"rental_uris":{"android":"levelo://app?vid=d262369f-4201-4652-91ef-8adb9d2a4ede","ios":"levelo://app?vid=d262369f-4201-4652-91ef-8adb9d2a4ede"},"vehicle_type_id":"4","last_reported":1756239114,"current_range_meters":16400,"station_id":"ce4bhnp2rcd13ifvqgvg","pricing_plan_id":"cebpf4jnsgd1na2vs0mg"},{"bike_id":"41b65fec-c4b7-4266-81a3-41a746a956eb","system_id":"levelo_inurba_marseille","lat":43.30306,"lon":5.40451,"is_reserved":false,"is_disabled":false,"rental_uris":{"android":"levelo://app?vid=41b65fec-c4b7-4266-81a3-41a746a956eb","ios":"levelo://app?vid=41b65fec-c4b7-4266-81a3-41a746a956eb"},"vehicle_type_id":"4","last_reported":1756239114,"current_range_meters":16800,"station_id":"ce4bh012rcd13ifvqd10","pricing_plan_id":"cebpf4jnsgd1na2vs0mg"},{"bike_id":"4edae4ca-211d-48d5-a63d-ff44a699c92b","system_id":"levelo_inurba_marseille","lat":43.25819,"lon":5.39437,"is_reserved":false,"is_disabled":false,"rental_uris":{"android":"levelo://app?vid=4edae4ca-211d-48d5-a63d-ff44a699c92b","ios":"levelo://app?vid=4edae4ca-211d-48d5-a63d-ff44a699c92b"},"vehicle_type_id":"4","last_reported":1756239114,"current_range_meters":16800,"station_id":"ce4bhip2rcd13ifvqft0","pricing_plan_id":"cebpf4jnsgd1na2vs0mg"},{"bike_id":"f3a5cd40-5bb7-43ee-b794-3db1f6a09aa3","system_id":"levelo_inurba_marseille","lat":43.31084,"lon":5.42426,"is_reserved":false,"is_disabled":false,"rental_uris":{"android":"levelo://app?vid=f3a5cd40-5bb7-43ee-b794-3db1f6a09aa3","ios":"levelo://app?vid=f3a5cd40-5bb7-43ee-b794-3db1f6a09aa3"},"vehicle_type_id":"4","last_reported":1756239114,"current_range_meters":16800,"station_id":"ce4bhp92rcd13ifvqhag","pricing_plan_id":"cebpf4jnsgd1na2vs0mg"},{"bike_id":"0306ba73-3d0f-4523-9d11-9a4554b2d8ff","system_id":"levelo_inurba_marseille","lat":43.2119,"lon":5.35096,"is_reserved":false,"is_disabled":false,"rental_uris":{"android":"levelo://app?vid=0306ba73-3d0f-4523-9d11-9a4554b2d8ff","ios":"levelo://app?vid=0306ba73-3d0f-4523-9d11-9a4554b2d8ff"},"vehicle_type_id":"4","last_reported":1756239114,"current_range_meters":16800,"station_id":"st_cvj6sg6p6f1abm77japg","pricing_plan_id":"cebpf4jnsgd1na2vs0mg"},{"bike_id":"5092e4c6-5d7d-4ea1-9c6e-7c3ba8347241","system_id":"levelo_inurba_marseille","lat":43.29516,"lon":5.38538,"is_reserved":false,"is_disabled":false,"rental_uris":{"android":"levelo://app?vid=5092e4c6-5d7d-4ea1-9c6e-7c3ba8347241","ios":"levelo://app?vid=5092e4c6-5d7d-4ea1-9c6e-7c3ba8347241"},"vehicle_type_id":"4","last_reported":1756239114,"current_range_meters":16800,"station_id":"ce4bgih2rcd13ifvqba0","pricing_plan_id":"cebpf4jnsgd1na2vs0mg"},{"bike_id":"29116dbb-5268-4bc0-8e31-01254db83fea","system_id":"levelo_inurba_marseille","lat":43.29436,"lon":5.3974,"is_reserved":false,"is_disabled":false,"rental_uris":{"android":"levelo://app?vid=29116dbb-5268-4bc0-8e31-01254db83fea","ios":"levelo://app?vid=29116dbb-5268-4bc0-8e31-01254db83fea"},"vehicle_type_id":"4","last_reported":1756239114,"current_range_meters":16800,"station_id":"ce4bh3h2rcd13ifvqdo0","pricing_plan_id":"cebpf4jnsgd1na2vs0mg"},{"bike_id":"f7213e16-6938-41df-b35d-3e745154b5b7","system_id":"levelo_inurba_marseille","lat":43.23955,"lon":5.36634,"is_reserved":false,"is_disabled":false,"rental_uris":{"android":"levelo://app?vid=f7213e16-6938-41df-b35d-3e745154b5b7","ios":"levelo://app?vid=f7213e16-6938-41df-b35d-3e745154b5b7"},"vehicle_type_id":"4","last_reported":1756239114,"current_range_meters":17200,"station_id":"ce4bhi12rcd13ifvqfp0","pricing_plan_id":"cebpf4jnsgd1na2vs0mg"},{"bike_id":"b5ae0016-67e1-4c37-91cb-4d986fbc09a4","system_id":"levelo_inurba_marseille","lat":43.24618,"lon":5.43123,"is_reserved":false,"is_disabled":false,"rental_uris":{"android":"levelo://app?vid=b5ae0016-67e1-4c37-91cb-4d986fbc09a4","ios":"levelo://app?vid=b5ae0016-67e1-4c37-91cb-4d986fbc09a4"},"vehicle_type_id":"4","last_reported":1756239114,"current_range_meters":17200,"station_id":"st_d2m6c4gdas8pm72e190g","pricing_plan_id":"cebpf4jnsgd1na2vs0mg"},{"bike_id":"931bf746-dbad-4fcd-ab1d-fa4a3b0d1923","system_id":"levelo_inurba_marseille","lat":43.26564,"lon":5.40323,"is_reserved":false,"is_disabled":false,"rental_uris":{"android":"levelo://app?vid=931bf746-dbad-4fcd-ab1d-fa4a3b0d1923","ios":"levelo://app?vid=931bf746-dbad-4fcd-ab1d-fa4a3b0d1923"},"vehicle_type_id":"4","last_reported":1756239114,"current_range_meters":17200,"station_id":"ce4bhmp2rcd13ifvqgng","pricing_plan_id":"cebpf4jnsgd1na2vs0mg"},{"bike_id":"47fa0c25-9439-4a53-8254-e0200131ba2a","system_id":"levelo_inurba_marseille","lat":43.29525,"lon":5.38524,"is_reserved":false,"is_disabled":false,"rental_uris":{"android":"levelo://app?vid=47fa0c25-9439-4a53-8254-e0200131ba2a","ios":"levelo://app?vid=47fa0c25-9439-4a53-8254-e0200131ba2a"},"vehicle_type_id":"4","last_reported":1756239114,"current_range_meters":17200,"station_id":"ce4bgih2rcd13ifvqba0","pricing_plan_id":"cebpf4jnsgd1na2vs0mg"},{"bike_id":"3408e2c3-6d71-4535-b88e-faabdfd4094f","system_id":"levelo_inurba_marseille","lat":43.29501,"lon":5.38521,"is_reserved":false,"is_disabled":false,"rental_uris":{"android":"levelo://app?vid=3408e2c3-6d71-4535-b88e-faabdfd4094f","ios":"levelo://app?vid=3408e2c3-6d71-4535-b88e-faabdfd4094f"},"vehicle_type_id":"4","last_reported":1756239114,"current_range_meters":17200,"station_id":"ce4bgih2rcd13ifvqba0","pricing_plan_id":"cebpf4jnsgd1na2vs0mg"},{"bike_id":"1dec5f96-d953-4203-b13d-0ce3f02e61a0","system_id":"levelo_inurba_marseille","lat":43.27067,"lon":5.42276,"is_reserved":false,"is_disabled":false,"rental_uris":{"android":"levelo://app?vid=1dec5f96-d953-4203-b13d-0ce3f02e61a0","ios":"levelo://app?vid=1dec5f96-d953-4203-b13d-0ce3f02e61a0"},"vehicle_type_id":"4","last_reported":1756239114,"current_range_meters":17200,"station_id":"ce4bhk92rcd13ifvqgb0","pricing_plan_id":"cebpf4jnsgd1na2vs0mg"},{"bike_id":"caa2044d-1f11-4c46-bfb0-f5e39b55e234","system_id":"levelo_inurba_marseille","lat":43.29531,"lon":5.38556,"is_reserved":false,"is_disabled":false,"rental_uris":{"android":"levelo://app?vid=caa2044d-1f11-4c46-bfb0-f5e39b55e234","ios":"levelo://app?vid=caa2044d-1f11-4c46-bfb0-f5e39b55e234"},"vehicle_type_id":"4","last_reported":1756239114,"current_range_meters":17200,"station_id":"ce4bgih2rcd13ifvqba0","pricing_plan_id":"cebpf4jnsgd1na2vs0mg"},{"bike_id":"727c8a21-04ea-4728-89a4-c9aa2dea0834","system_id":"levelo_inurba_marseille","lat":43.30135,"lon":5.39862,"is_reserved":false,"is_disabled":false,"rental_uris":{"android":"levelo://app?vid=727c8a21-04ea-4728-89a4-c9aa2dea0834","ios":"levelo://app?vid=727c8a21-04ea-4728-89a4-c9aa2dea0834"},"vehicle_type_id":"4","last_reported":1756239114,"current_range_meters":17200,"station_id":"ce4bh0h2rcd13ifvqd40","pricing_plan_id":"cebpf4jnsgd1na2vs0mg"},{"bike_id":"949d1c65-2d42-4e3a-8cc1-7497c02cc278","system_id":"levelo_inurba_marseille","lat":43.31488,"lon":5.37311,"is_reserved":false,"is_disabled":false,"rental_uris":{"android":"levelo://app?vid=949d1c65-2d42-4e3a-8cc1-7497c02cc278","ios":"levelo://app?vid=949d1c65-2d42-4e3a-8cc1-7497c02cc278"},"vehicle_type_id":"4","last_reported":1756239114,"current_range_meters":17200,"station_id":"ce4bgt12rcd13ifvqcd0","pricing_plan_id":"cebpf4jnsgd1na2vs0mg"},{"bike_id":"28af3b34-9ba3-4bb5-a21e-5bc474dbf5df","system_id":"levelo_inurba_marseille","lat":43.29233,"lon":5.38424,"is_reserved":false,"is_disabled":false,"rental_uris":{"android":"levelo://app?vid=28af3b34-9ba3-4bb5-a21e-5bc474dbf5df","ios":"levelo://app?vid=28af3b34-9ba3-4bb5-a21e-5bc474dbf5df"},"vehicle_type_id":"4","last_reported":1756239114,"current_range_meters":17200,"station_id":"ce4bh692rcd13ifvqea0","pricing_plan_id":"cebpf4jnsgd1na2vs0mg"},{"bike_id":"3dff11d5-3872-4ffe-8cce-b5631d6c6058","system_id":"levelo_inurba_marseille","lat":43.32673,"lon":5.39162,"is_reserved":false,"is_disabled":false,"rental_uris":{"android":"levelo://app?vid=3dff11d5-3872-4ffe-8cce-b5631d6c6058","ios":"levelo://app?vid=3dff11d5-3872-4ffe-8cce-b5631d6c6058"},"vehicle_type_id":"4","last_reported":1756239114,"current_range_meters":17200,"station_id":"","pricing_plan_id":"cebpf4jnsgd1na2vs0mg"},{"bike_id":"5f61e80e-4203-4ca7-8c1e-5073f374a9cf","system_id":"levelo_inurba_marseille","lat":43.30237,"lon":5.40087,"is_reserved":false,"is_disabled":false,"rental_uris":{"android":"levelo://app?vid=5f61e80e-4203-4ca7-8c1e-5073f374a9cf","ios":"levelo://app?vid=5f61e80e-4203-4ca7-8c1e-5073f374a9cf"},"vehicle_type_id":"4","last_reported":1756239114,"current_range_meters":17200,"station_id":"ce4bgvh2rcd13ifvqcs0","pricing_plan_id":"cebpf4jnsgd1na2vs0mg"},{"bike_id":"148b3563-fa76-4398-9867-f2cca510a852","system_id":"levelo_inurba_marseille","lat":43.27987,"lon":5.41661,"is_reserved":false,"is_disabled":false,"rental_uris":{"android":"levelo://app?vid=148b3563-fa76-4398-9867-f2cca510a852","ios":"levelo://app?vid=148b3563-fa76-4398-9867-f2cca510a852"},"vehicle_type_id":"4","last_reported":1756239114,"current_range_meters":17200,"station_id":"ce4bho12rcd13ifvqh1g","pricing_plan_id":"cebpf4jnsgd1na2vs0mg"},{"bike_id":"b030fff9-8850-49c1-adcc-b4d84af9b0bb","system_id":"levelo_inurba_marseille","lat":43.29525,"lon":5.39419,"is_reserved":false,"is_disabled":false,"rental_uris":{"android":"levelo://app?vid=b030fff9-8850-49c1-adcc-b4d84af9b0bb","ios":"levelo://app?vid=b030fff9-8850-49c1-adcc-b4d84af9b0bb"},"vehicle_type_id":"4","last_reported":1756239114,"current_range_meters":17200,"station_id":"ce4bh292rcd13ifvqdf0","pricing_plan_id":"cebpf4jnsgd1na2vs0mg"},{"bike_id":"4e54e4fd-bbbf-4d68-a084-2926b89872a0","system_id":"levelo_inurba_marseille","lat":43.29186,"lon":5.39313,"is_reserved":false,"is_disabled":false,"rental_uris":{"android":"levelo://app?vid=4e54e4fd-bbbf-4d68-a084-2926b89872a0","ios":"levelo://app?vid=4e54e4fd-bbbf-4d68-a084-2926b89872a0"},"vehicle_type_id":"4","last_reported":1756239114,"current_range_meters":17200,"station_id":"ce4bh192rcd13ifvqdd0","pricing_plan_id":"cebpf4jnsgd1na2vs0mg"},{"bike_id":"cb567a16-f56a-4bcd-9c16-b35cef4fac8f","system_id":"levelo_inurba_marseille","lat":43.29866,"lon":5.38908,"is_reserved":false,"is_disabled":true,"rental_uris":{"android":"levelo://app?vid=cb567a16-f56a-4bcd-9c16-b35cef4fac8f","ios":"levelo://app?vid=cb567a16-f56a-4bcd-9c16-b35cef4fac8f"},"vehicle_type_id":"4","last_reported":1756239114,"current_range_meters":17200,"station_id":"ce4bh392rcd13ifvqdl0","pricing_plan_id":"cebpf4jnsgd1na2vs0mg"},{"bike_id":"7f406092-d1b6-47d5-be49-a70353532684","system_id":"levelo_inurba_marseille","lat":43.28998,"lon":5.38125,"is_reserved":false,"is_disabled":false,"rental_uris":{"android":"levelo://app?vid=7f406092-d1b6-47d5-be49-a70353532684","ios":"levelo://app?vid=7f406092-d1b6-47d5-be49-a70353532684"},"vehicle_type_id":"4","last_reported":1756239114,"current_range_meters":17200,"station_id":"ce4bh4p2rcd13ifvqe1g","pricing_plan_id":"cebpf4jnsgd1na2vs0mg"},{"bike_id":"d97cd07a-6e47-4594-bcb7-b5e732078b70","system_id":"levelo_inurba_marseille","lat":43.29262,"lon":5.38435,"is_reserved":false,"is_disabled":false,"rental_uris":{"android":"levelo://app?vid=d97cd07a-6e47-4594-bcb7-b5e732078b70","ios":"levelo://app?vid=d97cd07a-6e47-4594-bcb7-b5e732078b70"},"vehicle_type_id":"4","last_reported":1756239114,"current_range_meters":17200,"station_id":"ce4bh692rcd13ifvqea0","pricing_plan_id":"cebpf4jnsgd1na2vs0mg"},{"bike_id":"e4b35d5a-908b-4b97-8341-4396d77099da","system_id":"levelo_inurba_marseille","lat":43.27376,"lon":5.36239,"is_reserved":false,"is_disabled":true,"rental_uris":{"android":"levelo://app?vid=e4b35d5a-908b-4b97-8341-4396d77099da","ios":"levelo://app?vid=e4b35d5a-908b-4b97-8341-4396d77099da"},"vehicle_type_id":"4","last_reported":1756239114,"current_range_meters":17200,"station_id":"ce4bhbh2rcd13ifvqeo0","pricing_plan_id":"cebpf4jnsgd1na2vs0mg"},{"bike_id":"4939d932-e9c0-473a-8b96-7264effc35c3","system_id":"levelo_inurba_marseille","lat":43.29586,"lon":5.38116,"is_reserved":false,"is_disabled":false,"rental_uris":{"android":"levelo://app?vid=4939d932-e9c0-473a-8b96-7264effc35c3","ios":"levelo://app?vid=4939d932-e9c0-473a-8b96-7264effc35c3"},"vehicle_type_id":"4","last_reported":1756239114,"current_range_meters":17600,"station_id":"ce4bgl12rcd13ifvqbo0","pricing_plan_id":"cebpf4jnsgd1na2vs0mg"},{"bike_id":"8998ab22-3877-4bb5-a09a-bc98d882eb47","system_id":"levelo_inurba_marseille","lat":43.31085,"lon":5.42433,"is_reserved":false,"is_disabled":false,"rental_uris":{"android":"levelo://app?vid=8998ab22-3877-4bb5-a09a-bc98d882eb47","ios":"levelo://app?vid=8998ab22-3877-4bb5-a09a-bc98d882eb47"},"vehicle_type_id":"4","last_reported":1756239114,"current_range_meters":17600,"station_id":"ce4bhp92rcd13ifvqhag","pricing_plan_id":"cebpf4jnsgd1na2vs0mg"},{"bike_id":"621d645e-a384-4812-aa55-40ddae44f13d","system_id":"levelo_inurba_marseille","lat":43.29251,"lon":5.38444,"is_reserved":false,"is_disabled":false,"rental_uris":{"android":"levelo://app?vid=621d645e-a384-4812-aa55-40ddae44f13d","ios":"levelo://app?vid=621d645e-a384-4812-aa55-40ddae44f13d"},"vehicle_type_id":"4","last_reported":1756239114,"current_range_meters":17600,"station_id":"ce4bh692rcd13ifvqea0","pricing_plan_id":"cebpf4jnsgd1na2vs0mg"},{"bike_id":"7e57b19f-fc86-49a6-80be-5836a12c5f6d","system_id":"levelo_inurba_marseille","lat":43.30949,"lon":5.39041,"is_reserved":false,"is_disabled":false,"rental_uris":{"android":"levelo://app?vid=7e57b19f-fc86-49a6-80be-5836a12c5f6d","ios":"levelo://app?vid=7e57b19f-fc86-49a6-80be-5836a12c5f6d"},"vehicle_type_id":"4","last_reported":1756239114,"current_range_meters":17600,"station_id":"ce4bgup2rcd13ifvqco0","pricing_plan_id":"cebpf4jnsgd1na2vs0mg"},{"bike_id":"980fcd6b-46b6-40ce-9bfd-e9c5bde5ddc7","system_id":"levelo_inurba_marseille","lat":43.24062,"lon":5.37727,"is_reserved":false,"is_disabled":false,"rental_uris":{"android":"levelo://app?vid=980fcd6b-46b6-40ce-9bfd-e9c5bde5ddc7","ios":"levelo://app?vid=980fcd6b-46b6-40ce-9bfd-e9c5bde5ddc7"},"vehicle_type_id":"4","last_reported":1756239114,"current_range_meters":17600,"station_id":"ce4bhnp2rcd13ifvqgvg","pricing_plan_id":"cebpf4jnsgd1na2vs0mg"},{"bike_id":"97cf2b1e-e8c2-4774-b4d5-3adda0cfe328","system_id":"levelo_inurba_marseille","lat":43.27497,"lon":5.42452,"is_reserved":false,"is_disabled":false,"rental_uris":{"android":"levelo://app?vid=97cf2b1e-e8c2-4774-b4d5-3adda0cfe328","ios":"levelo://app?vid=97cf2b1e-e8c2-4774-b4d5-3adda0cfe328"},"vehicle_type_id":"4","last_reported":1756239114,"current_range_meters":17600,"station_id":"ce4bhn92rcd13ifvqgrg","pricing_plan_id":"cebpf4jnsgd1na2vs0mg"},{"bike_id":"e0a51870-a925-4243-ba99-b55c4f81e611","system_id":"levelo_inurba_marseille","lat":43.29641,"lon":5.37144,"is_reserved":false,"is_disabled":false,"rental_uris":{"android":"levelo://app?vid=e0a51870-a925-4243-ba99-b55c4f81e611","ios":"levelo://app?vid=e0a51870-a925-4243-ba99-b55c4f81e611"},"vehicle_type_id":"4","last_reported":1756239114,"current_range_meters":17600,"station_id":"ce4bgnh2rcd13ifvqc0g","pricing_plan_id":"cebpf4jnsgd1na2vs0mg"},{"bike_id":"a7d9617f-f5c8-416d-8acf-0f8d2e850d2e","system_id":"levelo_inurba_marseille","lat":43.28609,"lon":5.37066,"is_reserved":false,"is_disabled":false,"rental_uris":{"android":"levelo://app?vid=a7d9617f-f5c8-416d-8acf-0f8d2e850d2e","ios":"levelo://app?vid=a7d9617f-f5c8-416d-8acf-0f8d2e850d2e"},"vehicle_type_id":"4","last_reported":1756239114,"current_range_meters":17600,"station_id":"ce4bht12rcd13ifvqi60","pricing_plan_id":"cebpf4jnsgd1na2vs0mg"},{"bike_id":"e5eabf25-4e1c-476e-b130-9f83cdcfc80c","system_id":"levelo_inurba_marseille","lat":43.29819,"lon":5.41704,"is_reserved":false,"is_disabled":false,"rental_uris":{"android":"levelo://app?vid=e5eabf25-4e1c-476e-b130-9f83cdcfc80c","ios":"levelo://app?vid=e5eabf25-4e1c-476e-b130-9f83cdcfc80c"},"vehicle_type_id":"4","last_reported":1756239114,"current_range_meters":17600,"station_id":"","pricing_plan_id":"cebpf4jnsgd1na2vs0mg"},{"bike_id":"3da830fa-bf96-4d64-a948-cb025c4ceb98","system_id":"levelo_inurba_marseille","lat":43.29504,"lon":5.38534,"is_reserved":false,"is_disabled":false,"rental_uris":{"android":"levelo://app?vid=3da830fa-bf96-4d64-a948-cb025c4ceb98","ios":"levelo://app?vid=3da830fa-bf96-4d64-a948-cb025c4ceb98"},"vehicle_type_id":"4","last_reported":1756239114,"current_range_meters":17600,"station_id":"ce4bgih2rcd13ifvqba0","pricing_plan_id":"cebpf4jnsgd1na2vs0mg"},{"bike_id":"e59bf40c-eeb0-4c6b-8f90-4fdac3f53453","system_id":"levelo_inurba_marseille","lat":43.27493,"lon":5.42446,"is_reserved":false,"is_disabled":false,"rental_uris":{"android":"levelo://app?vid=e59bf40c-eeb0-4c6b-8f90-4fdac3f53453","ios":"levelo://app?vid=e59bf40c-eeb0-4c6b-8f90-4fdac3f53453"},"vehicle_type_id":"4","last_reported":1756239114,"current_range_meters":17600,"station_id":"ce4bhn92rcd13ifvqgrg","pricing_plan_id":"cebpf4jnsgd1na2vs0mg"},{"bike_id":"115f05a5-882e-4ebd-bc16-8739ad4b153a","system_id":"levelo_inurba_marseille","lat":43.26028,"lon":5.37553,"is_reserved":false,"is_disabled":true,"rental_uris":{"android":"levelo://app?vid=115f05a5-882e-4ebd-bc16-8739ad4b153a","ios":"levelo://app?vid=115f05a5-882e-4ebd-bc16-8739ad4b153a"},"vehicle_type_id":"4","last_reported":1756239114,"current_range_meters":17600,"station_id":"ce4bhgh2rcd13ifvqfa0","pricing_plan_id":"cebpf4jnsgd1na2vs0mg"},{"bike_id":"7ad2097a-7ea1-460f-83ed-a57e958e7c46","system_id":"levelo_inurba_marseille","lat":43.29994,"lon":5.36784,"is_reserved":false,"is_disabled":false,"rental_uris":{"android":"levelo://app?vid=7ad2097a-7ea1-460f-83ed-a57e958e7c46","ios":"levelo://app?vid=7ad2097a-7ea1-460f-83ed-a57e958e7c46"},"vehicle_type_id":"4","last_reported":1756239114,"current_range_meters":17600,"station_id":"","pricing_plan_id":"cebpf4jnsgd1na2vs0mg"},{"bike_id":"cd822ebe-8d01-44f2-b9e8-1f0b3a981bae","system_id":"levelo_inurba_marseille","lat":43.28828,"lon":5.35846,"is_reserved":false,"is_disabled":true,"rental_uris":{"android":"levelo://app?vid=cd822ebe-8d01-44f2-b9e8-1f0b3a981bae","ios":"levelo://app?vid=cd822ebe-8d01-44f2-b9e8-1f0b3a981bae"},"vehicle_type_id":"4","last_reported":1756239114,"current_range_meters":17600,"station_id":"ce4bhb12rcd13ifvqem0","pricing_plan_id":"cebpf4jnsgd1na2vs0mg"},{"bike_id":"9cee6ac4-b323-4dc3-9e81-cfd228e75a7f","system_id":"levelo_inurba_marseille","lat":43.31149,"lon":5.39481,"is_reserved":false,"is_disabled":false,"rental_uris":{"android":"levelo://app?vid=9cee6ac4-b323-4dc3-9e81-cfd228e75a7f","ios":"levelo://app?vid=9cee6ac4-b323-4dc3-9e81-cfd228e75a7f"},"vehicle_type_id":"4","last_reported":1756239114,"current_range_meters":18000,"station_id":"","pricing_plan_id":"cebpf4jnsgd1na2vs0mg"},{"bike_id":"f03fd8b5-820c-4428-a47c-214be68d7e64","system_id":"levelo_inurba_marseille","lat":43.24061,"lon":5.37751,"is_reserved":false,"is_disabled":false,"rental_uris":{"android":"levelo://app?vid=f03fd8b5-820c-4428-a47c-214be68d7e64","ios":"levelo://app?vid=f03fd8b5-820c-4428-a47c-214be68d7e64"},"vehicle_type_id":"4","last_reported":1756239114,"current_range_meters":18000,"station_id":"ce4bhnp2rcd13ifvqgvg","pricing_plan_id":"cebpf4jnsgd1na2vs0mg"},{"bike_id":"685105d1-bcda-4899-9d64-d94adf158a64","system_id":"levelo_inurba_marseille","lat":43.314676,"lon":5.373608,"is_reserved":false,"is_disabled":true,"rental_uris":{"android":"levelo://app?vid=685105d1-bcda-4899-9d64-d94adf158a64","ios":"levelo://app?vid=685105d1-bcda-4899-9d64-d94adf158a64"},"vehicle_type_id":"4","last_reported":1756239114,"current_range_meters":18000,"station_id":"","pricing_plan_id":"cebpf4jnsgd1na2vs0mg"},{"bike_id":"77b7592d-8151-400b-88da-35ecd5c69c76","system_id":"levelo_inurba_marseille","lat":43.2602,"lon":5.41744,"is_reserved":false,"is_disabled":false,"rental_uris":{"android":"levelo://app?vid=77b7592d-8151-400b-88da-35ecd5c69c76","ios":"levelo://app?vid=77b7592d-8151-400b-88da-35ecd5c69c76"},"vehicle_type_id":"4","last_reported":1756239114,"current_range_meters":18000,"station_id":"","pricing_plan_id":"cebpf4jnsgd1na2vs0mg"},{"bike_id":"5626429c-d718-4578-aa97-61f040680b7f","system_id":"levelo_inurba_marseille","lat":43.29269,"lon":5.36841,"is_reserved":false,"is_disabled":false,"rental_uris":{"android":"levelo://app?vid=5626429c-d718-4578-aa97-61f040680b7f","ios":"levelo://app?vid=5626429c-d718-4578-aa97-61f040680b7f"},"vehicle_type_id":"4","last_reported":1756239114,"current_range_meters":18000,"station_id":"ce4bhbp2rcd13ifvqesg","pricing_plan_id":"cebpf4jnsgd1na2vs0mg"},