{"last_updated":1736079375,"ttl":60,"version":"2.2","data":{"bikes":[{"bike_id":"7714e982-d634-44ce-b927-7372f580f871","system_id":"levelo_inurba_marseille","lat":43.27993,"lon":5.41667,"is_reserved":false,"is_disabled":false,"rental_uris":{"android":"levelo://app?vid=7714e982-d634-44ce-b927-7372f580f871","ios":"levelo://app?vid=7714e982-d634-44ce-b927-7372f580f871"},"vehicle_type_id":"4","last_reported":1736079376,"current_range_meters":38000,"station_id":"ce4bho12rcd13ifvqh1g","pricing_plan_id":"cebpf4jnsgd1na2vs0mg"},{"bike_id":"8f29603c-5d9a-4bc6-963d-711ada2a168a","system_id":"levelo_inurba_marseille","lat":43.24633,"lon":5.39824,"is_reserved":false,"is_disabled":true,"rental_uris":{"android":"levelo://app?vid=8f29603c-5d9a-4bc6-963d-711ada2a168a","ios":"levelo://app?vid=8f29603c-5d9a-4bc6-963d-711ada2a168a"},"vehicle_type_id":"4","last_reported":1736079376,"current_range_meters":24800,"station_id":"","pricing_plan_id":"cebpf4jnsgd1na2vs0mg"},{"bike_id":"a7bf91aa-bf61-489e-8ddc-752e491e9e7b","system_id":"levelo_inurba_marseille","lat":43.29531,"lon":5.37495,"is_reserved":false,"is_disabled":false,"rental_uris":{"android":"levelo://app?vid=a7bf91aa-bf61-489e-8ddc-752e491e9e7b","ios":"levelo://app?vid=a7bf91aa-bf61-489e-8ddc-752e491e9e7b"},"vehicle_type_id":"4","last_reported":1736079376,"current_range_meters":32000,"station_id":"ce4bgh92rcd13ifvqb50","pricing_plan_id":"cebpf4jnsgd1na2vs0mg"},{"bike_id":"4517f105-c6cd-42b4-a2b8-453f0a872c81","system_id":"levelo_inurba_marseille","lat":43.24665,"lon":5.38159,"is_reserved":false,"is_disabled":false,"rental_uris":{"android":"levelo://app?vid=4517f105-c6cd-42b4-a2b8-453f0a872c81","ios":"levelo://app?vid=4517f105-c6cd-42b4-a2b8-453f0a872c81"},"vehicle_type_id":"4","last_reported":1736079376,"current_range_meters":18800,"station_id":"ce4bhih2rcd13ifvqfr0","pricing_plan_id":"cebpf4jnsgd1na2vs0mg"},{"bike_id":"853664d3-7b64-4e3e-b28f-c07456b40b06","system_id":"levelo_inurba_marseille","lat":43.29622,"lon":5.37721,"is_reserved":false,"is_disabled":false,"rental_uris":{"android":"levelo://app?vid=853664d3-7b64-4e3e-b28f-c07456b40b06","ios":"levelo://app?vid=853664d3-7b64-4e3e-b28f-c07456b40b06"},"vehicle_type_id":"4","last_reported":1736079376,"current_range_meters":24400,"station_id":"ce4bgi92rcd13ifvqb90","pricing_plan_id":"cebpf4jnsgd1na2vs0mg"},{"bike_id":"9fd6ac51-3e65-405c-9187-61441ea67dcf","system_id":"levelo_inurba_marseille","lat":43.30526,"lon":5.36533,"is_reserved":false,"is_disabled":false,"rental_uris":{"android":"levelo://app?vid=9fd6ac51-3e65-405c-9187-61441ea67dcf","ios":"levelo://app?vid=9fd6ac51-3e65-405c-9187-61441ea67dcf"},"vehicle_type_id":"4","last_reported":1736079376,"current_range_meters":9200,"station_id":"ce4bgs12rcd13ifvqcag","pricing_plan_id":"cebpf4jnsgd1na2vs0mg"},{"bike_id":"2f08c9fc-4d21-46b6-8ae3-3acb81bd9994","system_id":"levelo_inurba_marseille","lat":43.32475,"lon":5.36566,"is_reserved":false,"is_disabled":false,"rental_uris":{"android":"levelo://app?vid=2f08c9fc-4d21-46b6-8ae3-3acb81bd9994","ios":"levelo://app?vid=2f08c9fc-4d21-46b6-8ae3-3acb81bd9994"},"vehicle_type_id":"4","last_reported":1736079376,"current_range_meters":38400,"station_id":"ce4bhs12rcd13ifvqhvg","pricing_plan_id":"cebpf4jnsgd1na2vs0mg"},{"bike_id":"f9d53c10-52e1-470c-9b0e-aa8c8e99c505","system_id":"levelo_inurba_marseille","lat":43.28571,"lon":5.39489,"is_reserved":false,"is_disabled":false,"rental_uris":{"android":"levelo://app?vid=f9d53c10-52e1-470c-9b0e-aa8c8e99c505","ios":"levelo://app?vid=f9d53c10-52e1-470c-9b0e-aa8c8e99c505"},"vehicle_type_id":"4","last_reported":1736079376,"current_range_meters":38800,"station_id":"ce4bh292rcd13ifvqdg0","pricing_plan_id":"cebpf4jnsgd1na2vs0mg"},{"bike_id":"07823cc6-0cde-42aa-894a-7280284ad1be","system_id":"levelo_inurba_marseille","lat":43.3013,"lon":5.37437,"is_reserved":false,"is_disabled":false,"rental_uris":{"android":"levelo://app?vid=07823cc6-0cde-42aa-894a-7280284ad1be","ios":"levelo://app?vid=07823cc6-0cde-42aa-894a-7280284ad1be"},"vehicle_type_id":"4","last_reported":1736079376,"current_range_meters":22800,"station_id":"ce4bgs92rcd13ifvqcc0","pricing_plan_id":"cebpf4jnsgd1na2vs0mg"},{"bike_id":"3e5fec54-113c-4d87-b847-1977b09113ba","system_id":"levelo_inurba_marseille","lat":43.24803,"lon":5.37454,"is_reserved":false,"is_disabled":false,"rental_uris":{"android":"levelo://app?vid=3e5fec54-113c-4d87-b847-1977b09113ba","ios":"levelo://app?vid=3e5fec54-113c-4d87-b847-1977b09113ba"},"vehicle_type_id":"4","last_reported":1736079376,"current_range_meters":6800,"station_id":"ce4bhgh2rcd13ifvqfb0","pricing_plan_id":"cebpf4jnsgd1na2vs0mg"},{"bike_id":"e49357db-6af0-4ff3-931e-9c553eea404f","system_id":"levelo_inurba_marseille","lat":43.30953,"lon":5.39066,"is_reserved":false,"is_disabled":false,"rental_uris":{"android":"levelo://app?vid=e49357db-6af0-4ff3-931e-9c553eea404f","ios":"levelo://app?vid=e49357db-6af0-4ff3-931e-9c553eea404f"},"vehicle_type_id":"4","last_reported":1736079376,"current_range_meters":38000,"station_id":"ce4bgup2rcd13ifvqco0","pricing_plan_id":"cebpf4jnsgd1na2vs0mg"},{"bike_id":"9a84a407-456a-49bb-9552-cbd2f797a533","system_id":"levelo_inurba_marseille","lat":43.27837,"lon":5.3921,"is_reserved":false,"is_disabled":false,"rental_uris":{"android":"levelo://app?vid=9a84a407-456a-49bb-9552-cbd2f797a533","ios":"levelo://app?vid=9a84a407-456a-49bb-9552-cbd2f797a533"},"vehicle_type_id":"4","last_reported":1736079376,"current_range_meters":33600,"station_id":"ce4bhjp2rcd13ifvqga0","pricing_plan_id":"cebpf4jnsgd1na2vs0mg"},{"bike_id":"304aa64a-4e8e-488b-aff7-fb68ff39ec9c","system_id":"levelo_inurba_marseille","lat":43.27692,"lon":5.3891,"is_reserved":false,"is_disabled":false,"rental_uris":{"android":"levelo://app?vid=304aa64a-4e8e-488b-aff7-fb68ff39ec9c","ios":"levelo://app?vid=304aa64a-4e8e-488b-aff7-fb68ff39ec9c"},"vehicle_type_id":"4","last_reported":1736079376,"current_range_meters":38800,"station_id":"ce4bhi12rcd13ifvqfo0","pricing_plan_id":"cebpf4jnsgd1na2vs0mg"},{"bike_id":"bcf0bc77-feb4-4e25-93da-4721812265a5","system_id":"levelo_inurba_marseille","lat":43.29845,"lon":5.363,"is_reserved":false,"is_disabled":false,"rental_uris":{"android":"levelo://app?vid=bcf0bc77-feb4-4e25-93da-4721812265a5","ios":"levelo://app?vid=bcf0bc77-feb4-4e25-93da-4721812265a5"},"vehicle_type_id":"4","last_reported":1736079376,"current_range_meters":38800,"station_id":"ce4bgpp2rcd13ifvqc3g","pricing_plan_id":"cebpf4jnsgd1na2vs0mg"},{"bike_id":"349042be-45f8-4283-b0ca-12b3807f19b8","system_id":"levelo_inurba_marseille","lat":43.23191,"lon":5.35561,"is_reserved":false,"is_disabled":false,"rental_uris":{"android":"levelo://app?vid=349042be-45f8-4283-b0ca-12b3807f19b8","ios":"levelo://app?vid=349042be-45f8-4283-b0ca-12b3807f19b8"},"vehicle_type_id":"4","last_reported":1736079376,"current_range_meters":21600,"station_id":"ce4bhu92rcd13ifvqi70","pricing_plan_id":"cebpf4jnsgd1na2vs0mg"},{"bike_id":"aebbc45c-04c0-4c80-b6a5-56c1582fcd00","system_id":"levelo_inurba_marseille","lat":43.24376,"lon":5.37087,"is_reserved":false,"is_disabled":false,"rental_uris":{"android":"levelo://app?vid=aebbc45c-04c0-4c80-b6a5-56c1582fcd00","ios":"levelo://app?vid=aebbc45c-04c0-4c80-b6a5-56c1582fcd00"},"vehicle_type_id":"4","last_reported":1736079376,"current_range_meters":36400,"station_id":"ce4bhhh2rcd13ifvqfk0","pricing_plan_id":"cebpf4jnsgd1na2vs0mg"},{"bike_id":"465f7a66-b39f-4c7a-aa6a-9cd57919ff77","system_id":"levelo_inurba_marseille","lat":43.29204,"lon":5.3932,"is_reserved":false,"is_disabled":false,"rental_uris":{"android":"levelo://app?vid=465f7a66-b39f-4c7a-aa6a-9cd57919ff77","ios":"levelo://app?vid=465f7a66-b39f-4c7a-aa6a-9cd57919ff77"},"vehicle_type_id":"4","last_reported":1736079376,"current_range_meters":27600,"station_id":"ce4bh192rcd13ifvqdd0","pricing_plan_id":"cebpf4jnsgd1na2vs0mg"},{"bike_id":"cfa9ca20-27d4-44a2-a7d9-d2b75ed2f4ac","system_id":"levelo_inurba_marseille","lat":43.31052,"lon":5.38359,"is_reserved":false,"is_disabled":true,"rental_uris":{"android":"levelo://app?vid=cfa9ca20-27d4-44a2-a7d9-d2b75ed2f4ac","ios":"levelo://app?vid=cfa9ca20-27d4-44a2-a7d9-d2b75ed2f4ac"},"vehicle_type_id":"4","last_reported":1736079376,"current_range_meters":7200,"station_id":"ce4bgv92rcd13ifvqcr0","pricing_plan_id":"cebpf4jnsgd1na2vs0mg"},{"bike_id":"2e3020fc-739e-484f-aff1-968aa18f2ac1","system_id":"levelo_inurba_marseille","lat":43.28,"lon":5.41654,"is_reserved":false,"is_disabled":true,"rental_uris":{"android":"levelo://app?vid=2e3020fc-739e-484f-aff1-968aa18f2ac1","ios":"levelo://app?vid=2e3020fc-739e-484f-aff1-968aa18f2ac1"},"vehicle_type_id":"4","last_reported":1736079376,"current_range_meters":4800,"station_id":"ce4bho12rcd13ifvqh1g","pricing_plan_id":"cebpf4jnsgd1na2vs0mg"},{"bike_id":"00cd646a-9480-4beb-af37-6060937d458d","system_id":"levelo_inurba_marseille","lat":43.28926,"lon":5.38397,"is_reserved":false,"is_disabled":false,"rental_uris":{"android":"levelo://app?vid=00cd646a-9480-4beb-af37-6060937d458d","ios":"levelo://app?vid=00cd646a-9480-4beb-af37-6060937d458d"},"vehicle_type_id":"4","last_reported":1736079376,"current_range_meters":25200,"station_id":"ce4bgrp2rcd13ifvqc9g","pricing_plan_id":"cebpf4jnsgd1na2vs0mg"},{"bike_id":"0811ca73-7827-4cff-ba0c-24a53304a296","system_id":"levelo_inurba_marseille","lat":43.29302,"lon":5.37461,"is_reserved":false,"is_disabled":false,"rental_uris":{"android":"levelo://app?vid=0811ca73-7827-4cff-ba0c-24a53304a296","ios":"levelo://app?vid=0811ca73-7827-4cff-ba0c-24a53304a296"},"vehicle_type_id":"4","last_reported":1736079376,"current_range_meters":29600,"station_id":"ce4bgi12rcd13ifvqb70","pricing_plan_id":"cebpf4jnsgd1na2vs0mg"},{"bike_id":"a0adb3c4-caf9-464d-8f3e-6b5be1eb9699","system_id":"levelo_inurba_marseille","lat":43.25119,"lon":5.4033,"is_reserved":false,"is_disabled":false,"rental_uris":{"android":"levelo://app?vid=a0adb3c4-caf9-464d-8f3e-6b5be1eb9699","ios":"levelo://app?vid=a0adb3c4-caf9-464d-8f3e-6b5be1eb9699"},"vehicle_type_id":"4","last_reported":1736079376,"current_range_meters":39200,"station_id":"ce4bhlh2rcd13ifvqgig","pricing_plan_id":"cebpf4jnsgd1na2vs0mg"},{"bike_id":"593d8424-f565-422e-8480-e0f50e2c043e","system_id":"levelo_inurba_marseille","lat":43.28039,"lon":5.38476,"is_reserved":false,"is_disabled":true,"rental_uris":{"android":"levelo://app?vid=593d8424-f565-422e-8480-e0f50e2c043e","ios":"levelo://app?vid=593d8424-f565-422e-8480-e0f50e2c043e"},"vehicle_type_id":"4","last_reported":1736079376,"current_range_meters":34000,"station_id":"","pricing_plan_id":"cebpf4jnsgd1na2vs0mg"},{"bike_id":"a944f865-f260-4d6e-8bfb-34b22d4c0ecd","system_id":"levelo_inurba_marseille","lat":43.301975,"lon":5.366073,"is_reserved":false,"is_disabled":true,"rental_uris":{"android":"levelo://app?vid=a944f865-f260-4d6e-8bfb-34b22d4c0ecd","ios":"levelo://app?vid=a944f865-f260-4d6e-8bfb-34b22d4c0ecd"},"vehicle_type_id":"4","last_reported":1736079376,"current_range_meters":30800,"station_id":"ce4bgrh2rcd13ifvqc8g","pricing_plan_id":"cebpf4jnsgd1na2vs0mg"},{"bike_id":"8cdc1ef2-0806-4959-9c23-8b6d5fa7df18","system_id":"levelo_inurba_marseille","lat":43.32677,"lon":5.40953,"is_reserved":false,"is_disabled":false,"rental_uris":{"android":"levelo://app?vid=8cdc1ef2-0806-4959-9c23-8b6d5fa7df18","ios":"levelo://app?vid=8cdc1ef2-0806-4959-9c23-8b6d5fa7df18"},"vehicle_type_id":"4","last_reported":1736079376,"current_range_meters":38800,"station_id":"ce4bhpp2rcd13ifvqhgg","pricing_plan_id":"cebpf4jnsgd1na2vs0mg"},{"bike_id":"168f8923-6b97-4196-b130-7522c90cdd44","system_id":"levelo_inurba_marseille","lat":43.29845,"lon":5.3628,"is_reserved":false,"is_disabled":false,"rental_uris":{"android":"levelo://app?vid=168f8923-6b97-4196-b130-7522c90cdd44","ios":"levelo://app?vid=168f8923-6b97-4196-b130-7522c90cdd44"},"vehicle_type_id":"4","last_reported":1736079376,"current_range_meters":38800,"station_id":"ce4bgpp2rcd13ifvqc3g","pricing_plan_id":"cebpf4jnsgd1na2vs0mg"},{"bike_id":"4b036103-61c6-4d13-9948-58cff824fec6","system_id":"levelo_inurba_marseille","lat":43.29616,"lon":5.37735,"is_reserved":false,"is_disabled":false,"rental_uris":{"android":"levelo://app?vid=4b036103-61c6-4d13-9948-58cff824fec6","ios":"levelo://app?vid=4b036103-61c6-4d13-9948-58cff824fec6"},"vehicle_type_id":"4","last_reported":1736079376,"current_range_meters":37600,"station_id":"ce4bgi92rcd13ifvqb90","pricing_plan_id":"cebpf4jnsgd1na2vs0mg"},{"bike_id":"8882562a-2bbd-4524-982b-9998b4d9c38a","system_id":"levelo_inurba_marseille","lat":43.29688,"lon":5.37695,"is_reserved":false,"is_disabled":false,"rental_uris":{"android":"levelo://app?vid=8882562a-2bbd-4524-982b-9998b4d9c38a","ios":"levelo://app?vid=8882562a-2bbd-4524-982b-9998b4d9c38a"},"vehicle_type_id":"4","last_reported":1736079376,"current_range_meters":36800,"station_id":"ce4bgkh2rcd13ifvqbl0","pricing_plan_id":"cebpf4jnsgd1na2vs0mg"},{"bike_id":"86ed297b-c9a9-4e68-8ee7-f286e37bc7a6","system_id":"levelo_inurba_marseille","lat":43.28482,"lon":5.38422,"is_reserved":false,"is_disabled":true,"rental_uris":{"android":"levelo://app?vid=86ed297b-c9a9-4e68-8ee7-f286e37bc7a6","ios":"levelo://app?vid=86ed297b-c9a9-4e68-8ee7-f286e37bc7a6"},"vehicle_type_id":"4","last_reported":1736079376,"current_range_meters":0,"station_id":"ce4bh512rcd13ifvqe3g","pricing_plan_id":"cebpf4jnsgd1na2vs0mg"},{"bike_id":"ee94d9d7-4666-4004-aa39-6cc66c233def","system_id":"levelo_inurba_marseille","lat":43.3149,"lon":5.37315,"is_reserved":false,"is_disabled":false,"rental_uris":{"android":"levelo://app?vid=ee94d9d7-4666-4004-aa39-6cc66c233def","ios":"levelo://app?vid=ee94d9d7-4666-4004-aa39-6cc66c233def"},"vehicle_type_id":"4","last_reported":1736079376,"current_range_meters":14800,"station_id":"ce4bgt12rcd13ifvqcd0","pricing_plan_id":"cebpf4jnsgd1na2vs0mg"},{"bike_id":"11bab6b1-8f19-4376-9cab-a89cad5be186","system_id":"levelo_inurba_marseille","lat":43.32458,"lon":5.36599,"is_reserved":false,"is_disabled":false,"rental_uris":{"android":"levelo://app?vid=11bab6b1-8f19-4376-9cab-a89cad5be186","ios":"levelo://app?vid=11bab6b1-8f19-4376-9cab-a89cad5be186"},"vehicle_type_id":"4","last_reported":1736079376,"current_range_meters":34800,"station_id":"ce4bhs12rcd13ifvqhvg","pricing_plan_id":"cebpf4jnsgd1na2vs0mg"},{"bike_id":"9bd04c4d-bba3-44a3-88b7-e0bf363fe6b8","system_id":"levelo_inurba_marseille","lat":43.24679,"lon":5.38158,"is_reserved":false,"is_disabled":false,"rental_uris":{"android":"levelo://app?vid=9bd04c4d-bba3-44a3-88b7-e0bf363fe6b8","ios":"levelo://app?vid=9bd04c4d-bba3-44a3-88b7-e0bf363fe6b8"},"vehicle_type_id":"4","last_reported":1736079376,"current_range_meters":33200,"station_id":"ce4bhih2rcd13ifvqfr0","pricing_plan_id":"cebpf4jnsgd1na2vs0mg"},{"bike_id":"ab68ed21-148d-4a0e-ae51-a2dd92014de0","system_id":"levelo_inurba_marseille","lat":43.24998,"lon":5.38938,"is_reserved":false,"is_disabled":false,"rental_uris":{"android":"levelo://app?vid=ab68ed21-148d-4a0e-ae51-a2dd92014de0","ios":"levelo://app?vid=ab68ed21-148d-4a0e-ae51-a2dd92014de0"},"vehicle_type_id":"4","last_reported":1736079376,"current_range_meters":38800,"station_id":"ce4bhgp2rcd13ifvqfd0","pricing_plan_id":"cebpf4jnsgd1na2vs0mg"},{"bike_id":"f52c7654-593e-4648-8d72-c1c67a3bd0b7","system_id":"levelo_inurba_marseille","lat":43.28355,"lon":5.38109,"is_reserved":false,"is_disabled":false,"rental_uris":{"android":"levelo://app?vid=f52c7654-593e-4648-8d72-c1c67a3bd0b7","ios":"levelo://app?vid=f52c7654-593e-4648-8d72-c1c67a3bd0b7"},"vehicle_type_id":"4","last_reported":1736079376,"current_range_meters":20000,"station_id":"ce4bh412rcd13ifvqdr0","pricing_plan_id":"cebpf4jnsgd1na2vs0mg"},{"bike_id":"c023aed8-c4af-47de-bf55-7ec6cfb1c879","system_id":"levelo_inurba_marseille","lat":43.2619,"lon":5.37452,"is_reserved":false,"is_disabled":true,"rental_uris":{"android":"levelo://app?vid=c023aed8-c4af-47de-bf55-7ec6cfb1c879","ios":"levelo://app?vid=c023aed8-c4af-47de-bf55-7ec6cfb1c879"},"vehicle_type_id":"4","last_reported":1736079376,"current_range_meters":36400,"station_id":"ce4bhgp2rcd13ifvqfc0","pricing_plan_id":"cebpf4jnsgd1na2vs0mg"},{"bike_id":"66a04221-f52b-4b27-b674-9fdb4cbbfe15","system_id":"levelo_inurba_marseille","lat":43.30899,"lon":5.36858,"is_reserved":false,"is_disabled":false,"rental_uris":{"android":"levelo://app?vid=66a04221-f52b-4b27-b674-9fdb4cbbfe15","ios":"levelo://app?vid=66a04221-f52b-4b27-b674-9fdb4cbbfe15"},"vehicle_type_id":"4","last_reported":1736079376,"current_range_meters":39200,"station_id":"ce4bgn92rcd13ifvqbvg","pricing_plan_id":"cebpf4jnsgd1na2vs0mg"},{"bike_id":"4d010683-2ccf-478e-baa7-c439fbf0a201","system_id":"levelo_inurba_marseille","lat":43.25711,"lon":5.41138,"is_reserved":false,"is_disabled":false,"rental_uris":{"android":"levelo://app?vid=4d010683-2ccf-478e-baa7-c439fbf0a201","ios":"levelo://app?vid=4d010683-2ccf-478e-baa7-c439fbf0a201"},"vehicle_type_id":"4","last_reported":1736079376,"current_range_meters":37600,"station_id":"ce4bhkp2rcd13ifvqgd0","pricing_plan_id":"cebpf4jnsgd1na2vs0mg"},{"bike_id":"ad036647-e9f4-4246-953d-37ee6601db50","system_id":"levelo_inurba_marseille","lat":43.24674,"lon":5.38166,"is_reserved":false,"is_disabled":false,"rental_uris":{"android":"levelo://app?vid=ad036647-e9f4-4246-953d-37ee6601db50","ios":"levelo://app?vid=ad036647-e9f4-4246-953d-37ee6601db50"},"vehicle_type_id":"4","last_reported":1736079376,"current_range_meters":26000,"station_id":"ce4bhih2rcd13ifvqfr0","pricing_plan_id":"cebpf4jnsgd1na2vs0mg"},{"bike_id":"c3496726-b8ea-47ac-a44b-66bc69a8d7e9","system_id":"levelo_inurba_marseille","lat":43.2985,"lon":5.36267,"is_reserved":false,"is_disabled":false,"rental_uris":{"android":"levelo://app?vid=c3496726-b8ea-47ac-a44b-66bc69a8d7e9","ios":"levelo://app?vid=c3496726-b8ea-47ac-a44b-66bc69a8d7e9"},"vehicle_type_id":"4","last_reported":1736079376,"current_range_meters":33600,"station_id":"ce4bgpp2rcd13ifvqc3g","pricing_plan_id":"cebpf4jnsgd1na2vs0mg"},{"bike_id":"e23a8edf-e2ad-466c-9528-bd5f04fbfc74","system_id":"levelo_inurba_marseille","lat":43.33018,"lon":5.39038,"is_reserved":false,"is_disabled":false,"rental_uris":{"android":"levelo://app?vid=e23a8edf-e2ad-466c-9528-bd5f04fbfc74","ios":"levelo://app?vid=e23a8edf-e2ad-466c-9528-bd5f04fbfc74"},"vehicle_type_id":"4","last_reported":1736079376,"current_range_meters":34800,"station_id":"ce4bhr92rcd13ifvqhrg","pricing_plan_id":"cebpf4jnsgd1na2vs0mg"},{"bike_id":"d5b42207-8f9e-454e-85d7-a83f6e0f47f8","system_id":"levelo_inurba_marseille","lat":43.30523,"lon":5.39278,"is_reserved":false,"is_disabled":false,"rental_uris":{"android":"levelo://app?vid=d5b42207-8f9e-454e-85d7-a83f6e0f47f8","ios":"levelo://app?vid=d5b42207-8f9e-454e-85d7-a83f6e0f47f8"},"vehicle_type_id":"4","last_reported":1736079376,"current_range_meters":16800,"station_id":"","pricing_plan_id":"cebpf4jnsgd1na2vs0mg"},{"bike_id":"1b7d2371-0eba-4a43-8133-800073020b26","system_id":"levelo_inurba_marseille","lat":43.315228,"lon":5.380354,"is_reserved":false,"is_disabled":false,"rental_uris":{"android":"levelo://app?vid=1b7d2371-0eba-4a43-8133-800073020b26","ios":"levelo://app?vid=1b7d2371-0eba-4a43-8133-800073020b26"},"vehicle_type_id":"4","last_reported":1736079376,"current_range_meters":30000,"station_id":"ce4bhsp2rcd13ifvqi50","pricing_plan_id":"cebpf4jnsgd1na2vs0mg"},{"bike_id":"f0014140-97a3-45bb-aef7-9c6560d6bda8","system_id":"levelo_inurba_marseille","lat":43.27997,"lon":5.40028,"is_reserved":false,"is_disabled":false,"rental_uris":{"android":"levelo://app?vid=f0014140-97a3-45bb-aef7-9c6560d6bda8","ios":"levelo://app?vid=f0014140-97a3-45bb-aef7-9c6560d6bda8"},"vehicle_type_id":"4","last_reported":1736079376,"current_range_meters":24000,"station_id":"ce4bho92rcd13ifvqh4g","pricing_plan_id":"cebpf4jnsgd1na2vs0mg"},{"bike_id":"66d3e1ef-7727-44f9-b619-eeddb54c1fba","system_id":"levelo_inurba_marseille","lat":43.30443,"lon":5.38894,"is_reserved":false,"is_disabled":true,"rental_uris":{"android":"levelo://app?vid=66d3e1ef-7727-44f9-b619-eeddb54c1fba","ios":"levelo://app?vid=66d3e1ef-7727-44f9-b619-eeddb54c1fba"},"vehicle_type_id":"4","last_reported":1736079376,"current_range_meters":10800,"station_id":"ce4bgk12rcd13ifvqbi0","pricing_plan_id":"cebpf4jnsgd1na2vs0mg"},{"bike_id":"c2743326-a503-42ce-99be-1c6017af7bff","system_id":"levelo_inurba_marseille","lat":43.28823,"lon":5.39334,"is_reserved":false,"is_disabled":false,"rental_uris":{"android":"levelo://app?vid=c2743326-a503-42ce-99be-1c6017af7bff","ios":"levelo://app?vid=c2743326-a503-42ce-99be-1c6017af7bff"},"vehicle_type_id":"4","last_reported":1736079376,"current_range_meters":38800,"station_id":"ce4bh2p2rcd13ifvqdi0","pricing_plan_id":"cebpf4jnsgd1na2vs0mg"},{"bike_id":"9c306adb-f9f4-49e3-9fbf-f644cb3282af","system_id":"levelo_inurba_marseille","lat":43.2922,"lon":5.40975,"is_reserved":false,"is_disabled":false,"rental_uris":{"android":"levelo://app?vid=9c306adb-f9f4-49e3-9fbf-f644cb3282af","ios":"levelo://app?vid=9c306adb-f9f4-49e3-9fbf-f644cb3282af"},"vehicle_type_id":"4","last_reported":1736079376,"current_range_meters":29600,"station_id":"ce4bh192rcd13ifvqdc0","pricing_plan_id":"cebpf4jnsgd1na2vs0mg"},{"bike_id":"77a20cbd-6c32-4fbb-a181-bd137f1060b0","system_id":"levelo_inurba_marseille","lat":43.2693,"lon":5.38669,"is_reserved":false,"is_disabled":false,"rental_uris":{"android":"levelo://app?vid=77a20cbd-6c32-4fbb-a181-bd137f1060b0","ios":"levelo://app?vid=77a20cbd-6c32-4fbb-a181-bd137f1060b0"},"vehicle_type_id":"4","last_reported":1736079376,"current_range_meters":7200,"station_id":"ce4bhh92rcd13ifvqfh0","pricing_plan_id":"cebpf4jnsgd1na2vs0mg"},{"bike_id":"683c3a18-2fe8-4db2-829b-d8065bc8adc1","system_id":"levelo_inurba_marseille","lat":43.2406,"lon":5.37757,"is_reserved":false,"is_disabled":false,"rental_uris":{"android":"levelo://app?vid=683c3a18-2fe8-4db2-829b-d8065bc8adc1","ios":"levelo://app?vid=683c3a18-2fe8-4db2-829b-d8065bc8adc1"},"vehicle_type_id":"4","last_reported":1736079376,"current_range_meters":39200,"station_id":"ce4bhnp2rcd13ifvqgvg","pricing_plan_id":"cebpf4jnsgd1na2vs0mg"},{"bike_id":"9b48d9b4-5573-4732-8354-fd300e25b8cd","system_id":"levelo_inurba_marseille","lat":43.31184,"lon":5.38713,"is_reserved":false,"is_disabled":false,"rental_uris":{"android":"levelo://app?vid=9b48d9b4-5573-4732-8354-fd300e25b8cd","ios":"levelo://app?vid=9b48d9b4-5573-4732-8354-fd300e25b8cd"},"vehicle_type_id":"4","last_reported":1736079376,"current_range_meters":27600,"station_id":"ce4bgv12rcd13ifvqcp0","pricing_plan_id":"cebpf4jnsgd1na2vs0mg"},{"bike_id":"f9bb7dc2-c130-48b0-8d20-da57d3f46423","system_id":"levelo_inurba_marseille","lat":43.32657,"lon":5.40997,"is_reserved":false,"is_disabled":false,"rental_uris":{"android":"levelo://app?vid=f9bb7dc2-c130-48b0-8d20-da57d3f46423","ios":"levelo://app?vid=f9bb7dc2-c130-48b0-8d20-da57d3f46423"},"vehicle_type_id":"4","last_reported":1736079376,"current_range_meters":36400,"station_id":"ce4bhpp2rcd13ifvqhgg","pricing_plan_id":"cebpf4jnsgd1na2vs0mg"},{"bike_id":"129f4a27-3f16-458e-9683-5a51caa24518","system_id":"levelo_inurba_marseille","lat":43.24388,"lon":5.37066,"is_reserved":false,"is_disabled":false,"rental_uris":{"android":"levelo://app?vid=129f4a27-3f16-458e-9683-5a51caa24518","ios":"levelo://app?vid=129f4a27-3f16-458e-9683-5a51caa24518"},"vehicle_type_id":"4","last_reported":1736079376,"current_range_meters":21600,"station_id":"ce4bhhh2rcd13ifvqfk0","pricing_plan_id":"cebpf4jnsgd1na2vs0mg"},{"bike_id":"58524289-f85b-4db2-b506-7378d449201d","system_id":"levelo_inurba_marseille","lat":43.28648,"lon":5.35101,"is_reserved":false,"is_disabled":false,"rental_uris":{"android":"levelo://app?vid=58524289-f85b-4db2-b506-7378d449201d","ios":"levelo://app?vid=58524289-f85b-4db2-b506-7378d449201d"},"vehicle_type_id":"4","last_reported":1736079376,"current_range_meters":27600,"station_id":"ce4bhch2rcd13ifvqeug","pricing_plan_id":"cebpf4jnsgd1na2vs0mg"},{"bike_id":"8bf5141e-3146-496b-828c-aa16db841e56","system_id":"levelo_inurba_marseille","lat":43.32548,"lon":5.41447,"is_reserved":false,"is_disabled":false,"rental_uris":{"android":"levelo://app?vid=8bf5141e-3146-496b-828c-aa16db841e56","ios":"levelo://app?vid=8bf5141e-3146-496b-828c-aa16db841e56"},"vehicle_type_id":"4","last_reported":1736079376,"current_range_meters":38400,"station_id":"ce4bhq12rcd13ifvqhhg","pricing_plan_id":"cebpf4jnsgd1na2vs0mg"},{"bike_id":"2332862a-3884-4317-af82-ee9793e9b62c","system_id":"levelo_inurba_marseille","lat":43.24077,"lon":5.37752,"is_reserved":false,"is_disabled":false,"rental_uris":{"android":"levelo://app?vid=2332862a-3884-4317-af82-ee9793e9b62c","ios":"levelo://app?vid=2332862a-3884-4317-af82-ee9793e9b62c"},"vehicle_type_id":"4","last_reported":1736079376,"current_range_meters":11600,"station_id":"ce4bhnp2rcd13ifvqgvg","pricing_plan_id":"cebpf4jnsgd1na2vs0mg"},{"bike_id":"3fed1827-13aa-4afe-a0f9-8be0a428d811","system_id":"levelo_inurba_marseille","lat":43.3233,"lon":5.3892,"is_reserved":false,"is_disabled":false,"rental_uris":{"android":"levelo://app?vid=3fed1827-13aa-4afe-a0f9-8be0a428d811","ios":"levelo://app?vid=3fed1827-13aa-4afe-a0f9-8be0a428d811"},"vehicle_type_id":"4","last_reported":1736079376,"current_range_meters":38000,"station_id":"ce4bhqp2rcd13ifvqhog","pricing_plan_id":"cebpf4jnsgd1na2vs0mg"},{"bike_id":"34458856-38c8-43d3-9d9e-e015de7c0795","system_id":"levelo_inurba_marseille","lat":43.32091,"lon":5.36815,"is_reserved":false,"is_disabled":false,"rental_uris":{"android":"levelo://app?vid=34458856-38c8-43d3-9d9e-e015de7c0795","ios":"levelo://app?vid=34458856-38c8-43d3-9d9e-e015de7c0795"},"vehicle_type_id":"4","last_reported":1736079376,"current_range_meters":34000,"station_id":"ce4bhrh2rcd13ifvqhug","pricing_plan_id":"cebpf4jnsgd1na2vs0mg"},{"bike_id":"d6623fb3-7fe3-4914-8803-99fc449c9eb9","system_id":"levelo_inurba_marseille","lat":43.24822,"lon":5.37443,"is_reserved":false,"is_disabled":false,"rental_uris":{"android":"levelo://app?vid=d6623fb3-7fe3-4914-8803-99fc449c9eb9","ios":"levelo://app?vid=d6623fb3-7fe3-4914-8803-99fc449c9eb9"},"vehicle_type_id":"4","last_reported":1736079376,"current_range_meters":30000,"station_id":"ce4bhgh2rcd13ifvqfb0","pricing_plan_id":"cebpf4jnsgd1na2vs0mg"},{"bike_id":"ed5c7331-be48-4af1-a745-0b91efe806e2","system_id":"levelo_inurba_marseille","lat":43.29672,"lon":5.3731,"is_reserved":false,"is_disabled":false,"rental_uris":{"android":"levelo://app?vid=ed5c7331-be48-4af1-a745-0b91efe806e2","ios":"levelo://app?vid=ed5c7331-be48-4af1-a745-0b91efe806e2"},"vehicle_type_id":"4","last_reported":1736079376,"current_range_meters":39200,"station_id":"ce4bgk12rcd13ifvqbj0","pricing_plan_id":"cebpf4jnsgd1na2vs0mg"},{"bike_id":"9805a3be-b5f4-4955-bb12-fc71033cef4e","system_id":"levelo_inurba_marseille","lat":43.23192,"lon":5.39988,"is_reserved":false,"is_disabled":false,"rental_uris":{"android":"levelo://app?vid=9805a3be-b5f4-4955-bb12-fc71033cef4e","ios":"levelo://app?vid=9805a3be-b5f4-4955-bb12-fc71033cef4e"},"vehicle_type_id":"4","last_reported":1736079376,"current_range_meters":29600,"station_id":"ce4bhn12rcd13ifvqgqg","pricing_plan_id":"cebpf4jnsgd1na2vs0mg"},{"bike_id":"29e1c849-f967-4272-876a-68b95f11895c","system_id":"levelo_inurba_marseille","lat":43.26683,"lon":5.38277,"is_reserved":false,"is_disabled":false,"rental_uris":{"android":"levelo://app?vid=29e1c849-f967-4272-876a-68b95f11895c","ios":"levelo://app?vid=29e1c849-f967-4272-876a-68b95f11895c"},"vehicle_type_id":"4","last_reported":1736079376,"current_range_meters":37600,"station_id":"ce4bhg92rcd13ifvqf90","pricing_plan_id":"cebpf4jnsgd1na2vs0mg"},{"bike_id":"c8529c5f-726c-44b9-8f81-1b72db6f4e53","system_id":"levelo_inurba_marseille","lat":43.32363,"lon":5.38886,"is_reserved":false,"is_disabled":false,"rental_uris":{"android":"levelo://app?vid=c8529c5f-726c-44b9-8f81-1b72db6f4e53","ios":"levelo://app?vid=c8529c5f-726c-44b9-8f81-1b72db6f4e53"},"vehicle_type_id":"4","last_reported":1736079376,"current_range_meters":38000,"station_id":"ce4bhqp2rcd13ifvqhog","pricing_plan_id":"cebpf4jnsgd1na2vs0mg"},{"bike_id":"66c1f4a8-00f2-48da-ab15-4047c3fa8786","system_id":"levelo_inurba_marseille","lat":43.30882,"lon":5.39632,"is_reserved":false,"is_disabled":false,"rental_uris":{"android":"levelo://app?vid=66c1f4a8-00f2-48da-ab15-4047c3fa8786","ios":"levelo://app?vid=66c1f4a8-00f2-48da-ab15-4047c3fa8786"},"vehicle_type_id":"4","last_reported":1736079376,"current_range_meters":39200,"station_id":"ce4bh012rcd13ifvqcv0","pricing_plan_id":"cebpf4jnsgd1na2vs0mg"},{"bike_id":"9a483109-5bce-4e89-a527-a3ced035742c","system_id":"levelo_inurba_marseille","lat":43.26934,"lon":5.38662,"is_reserved":false,"is_disabled":false,"rental_uris":{"android":"levelo://app?vid=9a483109-5bce-4e89-a527-a3ced035742c","ios":"levelo://app?vid=9a483109-5bce-4e89-a527-a3ced035742c"},"vehicle_type_id":"4","last_reported":1736079376,"current_range_meters":11600,"station_id":"ce4bhh92rcd13ifvqfh0","pricing_plan_id":"cebpf4jnsgd1na2vs0mg"},{"bike_id":"6c503bd7-7bec-4e40-8157-ec408bcaad78","system_id":"levelo_inurba_marseille","lat":43.248064,"lon":5.374575,"is_reserved":false,"is_disabled":false,"rental_uris":{"android":"levelo://app?vid=6c503bd7-7bec-4e40-8157-ec408bcaad78","ios":"levelo://app?vid=6c503bd7-7bec-4e40-8157-ec408bcaad78"},"vehicle_type_id":"4","last_reported":1736079376,"current_range_meters":27200,"station_id":"ce4bhgh2rcd13ifvqfb0","pricing_plan_id":"cebpf4jnsgd1na2vs0mg"},{"bike_id":"619d6245-ee2f-4dcf-940f-599d7d2b302e","system_id":"levelo_inurba_marseille","lat":43.29837,"lon":5.36284,"is_reserved":false,"is_disabled":false,"rental_uris":{"android":"levelo://app?vid=619d6245-ee2f-4dcf-940f-599d7d2b302e","ios":"levelo://app?vid=619d6245-ee2f-4dcf-940f-599d7d2b302e"},"vehicle_type_id":"4","last_reported":1736079376,"current_range_meters":34000,"station_id":"ce4bgpp2rcd13ifvqc3g","pricing_plan_id":"cebpf4jnsgd1na2vs0mg"},{"bike_id":"7f1ce4ed-0cd0-4d23-b89e-099e0df8c108","system_id":"levelo_inurba_marseille","lat":43.25727,"lon":5.41108,"is_reserved":false,"is_disabled":false,"rental_uris":{"android":"levelo://app?vid=7f1ce4ed-0cd0-4d23-b89e-099e0df8c108","ios":"levelo://app?vid=7f1ce4ed-0cd0-4d23-b89e-099e0df8c108"},"vehicle_type_id":"4","last_reported":1736079376,"current_range_meters":38800,"station_id":"ce4bhkp2rcd13ifvqgd0","pricing_plan_id":"cebpf4jnsgd1na2vs0mg"},{"bike_id":"9db30acb-5eb1-4a75-9331-1f42fd694337","system_id":"levelo_inurba_marseille","lat":43.27898,"lon":5.396,"is_reserved":false,"is_disabled":false,"rental_uris":{"android":"levelo://app?vid=9db30acb-5eb1-4a75-9331-1f42fd694337","ios":"levelo://app?vid=9db30acb-5eb1-4a75-9331-1f42fd694337"},"vehicle_type_id":"4","last_reported":1736079376,"current_range_meters":23200,"station_id":"ce4bhf92rcd13ifvqf40","pricing_plan_id":"cebpf4jnsgd1na2vs0mg"},{"bike_id":"969c8a84-cf60-4395-8c81-a1d2e7dc81af","system_id":"levelo_inurba_marseille","lat":43.25862,"lon":5.399,"is_reserved":false,"is_disabled":false,"rental_uris":{"android":"levelo://app?vid=969c8a84-cf60-4395-8c81-a1d2e7dc81af","ios":"levelo://app?vid=969c8a84-cf60-4395-8c81-a1d2e7dc81af"},"vehicle_type_id":"4","last_reported":1736079376,"current_range_meters":16400,"station_id":"ce4bhl92rcd13ifvqghg","pricing_plan_id":"cebpf4jnsgd1na2vs0mg"},{"bike_id":"f8142e8a-f886-4c5e-b399-88d8fa1c1d32","system_id":"levelo_inurba_marseille","lat":43.24693,"lon":5.3817,"is_reserved":false,"is_disabled":false,"rental_uris":{"android":"levelo://app?vid=f8142e8a-f886-4c5e-b399-88d8fa1c1d32","ios":"levelo://app?vid=f8142e8a-f886-4c5e-b399-88d8fa1c1d32"},"vehicle_type_id":"4","last_reported":1736079376,"current_range_meters":26800,"station_id":"ce4bhih2rcd13ifvqfr0","pricing_plan_id":"cebpf4jnsgd1na2vs0mg"},{"bike_id":"9d2065c5-e801-47c6-a32c-5834d37e9dab","system_id":"levelo_inurba_marseille","lat":43.32366,"lon":5.38897,"is_reserved":false,"is_disabled":false,"rental_uris":{"android":"levelo://app?vid=9d2065c5-e801-47c6-a32c-5834d37e9dab","ios":"levelo://app?vid=9d2065c5-e801-47c6-a32c-5834d37e9dab"},"vehicle_type_id":"4","last_reported":1736079376,"current_range_meters":36000,"station_id":"ce4bhqp2rcd13ifvqhog","pricing_plan_id":"cebpf4jnsgd1na2vs0mg"},{"bike_id":"1aba21f4-1bc8-481b-8d4e-71db03f213fd","system_id":"levelo_inurba_marseille","lat":43.25131,"lon":5.40342,"is_reserved":false,"is_disabled":false,"rental_uris":{"android":"levelo://app?vid=1aba21f4-1bc8-481b-8d4e-71db03f213fd","ios":"levelo://app?vid=1aba21f4-1bc8-481b-8d4e-71db03f213fd"},"vehicle_type_id":"4","last_reported":1736079376,"current_range_meters":31200,"station_id":"ce4bhlh2rcd13ifvqgig","pricing_plan_id":"cebpf4jnsgd1na2vs0mg"},{"bike_id":"5acd51ab-33ae-465f-9994-b539f1713987","system_id":"levelo_inurba_marseille","lat":43.33725,"lon":5.39202,"is_reserved":false,"is_disabled":true,"rental_uris":{"android":"levelo://app?vid=5acd51ab-33ae-465f-9994-b539f1713987","ios":"levelo://app?vid=5acd51ab-33ae-465f-9994-b539f1713987"},"vehicle_type_id":"4","last_reported":1736079376,"current_range_meters":0,"station_id":"ce4bhr92rcd13ifvqhsg","pricing_plan_id":"cebpf4jnsgd1na2vs0mg"},{"bike_id":"f3d41f41-839d-41a5-aa6d-f2ba87ff18f0","system_id":"levelo_inurba_marseille","lat":43.24075,"lon":5.37724,"is_reserved":false,"is_disabled":true,"rental_uris":{"android":"levelo://app?vid=f3d41f41-839d-41a5-aa6d-f2ba87ff18f0","ios":"levelo://app?vid=f3d41f41-839d-41a5-aa6d-f2ba87ff18f0"},"vehicle_type_id":"4","last_reported":1736079376,"current_range_meters":0,"station_id":"","pricing_plan_id":"cebpf4jnsgd1na2vs0mg"},{"bike_id":"01d8a29e-a9ec-4e15-a343-8bdd2a47bd51","system_id":"levelo_inurba_marseille","lat":43.31993,"lon":5.38153,"is_reserved":false,"is_disabled":false,"rental_uris":{"android":"levelo://app?vid=01d8a29e-a9ec-4e15-a343-8bdd2a47bd51","ios":"levelo://app?vid=01d8a29e-a9ec-4e15-a343-8bdd2a47bd51"},"vehicle_type_id":"4","last_reported":1736079376,"current_range_meters":38800,"station_id":"ce4bhr12rcd13ifvqhpg","pricing_plan_id":"cebpf4jnsgd1na2vs0mg"},{"bike_id":"9f326815-9d5b-4c57-b098-1465cece3aff","system_id":"levelo_inurba_marseille","lat":43.28079,"lon":5.44181,"is_reserved":false,"is_disabled":false,"rental_uris":{"android":"levelo://app?vid=9f326815-9d5b-4c57-b098-1465cece3aff","ios":"levelo://app?vid=9f326815-9d5b-4c57-b098-1465cece3aff"},"vehicle_type_id":"4","last_reported":1736079376,"current_range_meters":16000,"station_id":"","pricing_plan_id":"cebpf4jnsgd1na2vs0mg"},{"bike_id":"7b78d5e2-5142-402d-a4f8-0f3037a6c533","system_id":"levelo_inurba_marseille","lat":43.269452,"lon":5.386418,"is_reserved":false,"is_disabled":true,"rental_uris":{"android":"levelo://app?vid=7b78d5e2-5142-402d-a4f8-0f3037a6c533","ios":"levelo://app?vid=7b78d5e2-5142-402d-a4f8-0f3037a6c533"},"vehicle_type_id":"4","last_reported":1736079376,"current_range_meters":38800,"station_id":"ce4bhh92rcd13ifvqfh0","pricing_plan_id":"cebpf4jnsgd1na2vs0mg"},{"bike_id":"a2f3c8c2-40cc-40c5-bc2a-9a8a1f549a5d","system_id":"levelo_inurba_marseille","lat":43.23968,"lon":5.36636,"is_reserved":false,"is_disabled":false,"rental_uris":{"android":"levelo://app?vid=a2f3c8c2-40cc-40c5-bc2a-9a8a1f549a5d","ios":"levelo://app?vid=a2f3c8c2-40cc-40c5-bc2a-9a8a1f549a5d"},"vehicle_type_id":"4","last_reported":1736079376,"current_range_meters":16800,"station_id":"ce4bhi12rcd13ifvqfp0","pricing_plan_id":"cebpf4jnsgd1na2vs0mg"},{"bike_id":"d0d21930-fe1d-478b-8251-bcf89564599d","system_id":"levelo_inurba_marseille","lat":43.295471,"lon":5.422873,"is_reserved":false,"is_disabled":false,"rental_uris":{"android":"levelo://app?vid=d0d21930-fe1d-478b-8251-bcf89564599d","ios":"levelo://app?vid=d0d21930-fe1d-478b-8251-bcf89564599d"},"vehicle_type_id":"4","last_reported":1736079376,"current_range_meters":27200,"station_id":"ce4bhph2rcd13ifvqhdg","pricing_plan_id":"cebpf4jnsgd1na2vs0mg"},{"bike_id":"0bd56123-f8b9-4d53-b166-447025313db1","system_id":"levelo_inurba_marseille","lat":43.25574,"lon":5.38246,"is_reserved":false,"is_disabled":false,"rental_uris":{"android":"levelo://app?vid=0bd56123-f8b9-4d53-b166-447025313db1","ios":"levelo://app?vid=0bd56123-f8b9-4d53-b166-447025313db1"},"vehicle_type_id":"4","last_reported":1736079376,"current_range_meters":20800,"station_id":"ce4bhih2rcd13ifvqfs0","pricing_plan_id":"cebpf4jnsgd1na2vs0mg"},{"bike_id":"337f3b6f-2cd7-4dc5-8d5f-11acfc8d9e29","system_id":"levelo_inurba_marseille","lat":43.278201,"lon":5.392052,"is_reserved":false,"is_disabled":false,"rental_uris":{"android":"levelo://app?vid=337f3b6f-2cd7-4dc5-8d5f-11acfc8d9e29","ios":"levelo://app?vid=337f3b6f-2cd7-4dc5-8d5f-11acfc8d9e29"},"vehicle_type_id":"4","last_reported":1736079376,"current_range_meters":8800,"station_id":"ce4bhjp2rcd13ifvqga0","pricing_plan_id":"cebpf4jnsgd1na2vs0mg"},{"bike_id":"8885cc99-9dfb-4215-82e7-6529814de32b","system_id":"levelo_inurba_marseille","lat":43.33019,"lon":5.39051,"is_reserved":false,"is_disabled":false,"rental_uris":{"android":"levelo://app?vid=8885cc99-9dfb-4215-82e7-6529814de32b","ios":"levelo://app?vid=8885cc99-9dfb-4215-82e7-6529814de32b"},"vehicle_type_id":"4","last_reported":1736079376,"current_range_meters":36800,"station_id":"ce4bhr92rcd13ifvqhrg","pricing_plan_id":"cebpf4jnsgd1na2vs0mg"},{"bike_id":"7d645fd6-b0b8-4c6f-a89a-4e1b6a089714","system_id":"levelo_inurba_marseille","lat":43.29605,"lon":5.38102,"is_reserved":false,"is_disabled":false,"rental_uris":{"android":"levelo://app?vid=7d645fd6-b0b8-4c6f-a89a-4e1b6a089714","ios":"levelo://app?vid=7d645fd6-b0b8-4c6f-a89a-4e1b6a089714"},"vehicle_type_id":"4","last_reported":1736079376,"current_range_meters":35200,"station_id":"ce4bgl12rcd13ifvqbo0","pricing_plan_id":"cebpf4jnsgd1na2vs0mg"},{"bike_id":"9cdd1c80-6014-4d8f-b792-71faf08dcd85","system_id":"levelo_inurba_marseille","lat":43.3049,"lon":5.36587,"is_reserved":false,"is_disabled":false,"rental_uris":{"android":"levelo://app?vid=9cdd1c80-6014-4d8f-b792-71faf08dcd85","ios":"levelo://app?vid=9cdd1c80-6014-4d8f-b792-71faf08dcd85"},"vehicle_type_id":"4","last_reported":1736079376,"current_range_meters":14800,"station_id":"","pricing_plan_id":"cebpf4jnsgd1na2vs0mg"},{"bike_id":"bc2adf72-523b-40d5-aa65-4dcb678a89d8","system_id":"levelo_inurba_marseille","lat":43.31994,"lon":5.3815,"is_reserved":false,"is_disabled":false,"rental_uris":{"android":"levelo://app?vid=bc2adf72-523b-40d5-aa65-4dcb678a89d8","ios":"levelo://app?vid=bc2adf72-523b-40d5-aa65-4dcb678a89d8"},"vehicle_type_id":"4","last_reported":1736079376,"current_range_meters":31200,"station_id":"ce4bhr12rcd13ifvqhpg","pricing_plan_id":"cebpf4jnsgd1na2vs0mg"},{"bike_id":"7af66b4e-5ed0-46b3-bd91-6c1dfdc73e15","system_id":"levelo_inurba_marseille","lat":43.29543,"lon":5.37502,"is_reserved":false,"is_disabled":false,"rental_uris":{"android":"levelo://app?vid=7af66b4e-5ed0-46b3-bd91-6c1dfdc73e15","ios":"levelo://app?vid=7af66b4e-5ed0-46b3-bd91-6c1dfdc73e15"},"vehicle_type_id":"4","last_reported":1736079376,"current_range_meters":38800,"station_id":"ce4bgkp2rcd13ifvqbmg","pricing_plan_id":"cebpf4jnsgd1na2vs0mg"},{"bike_id":"830b5d3b-cabb-4fdb-be27-c9d3d8ea9fde","system_id":"levelo_inurba_marseille","lat":43.24819,"lon":5.37479,"is_reserved":false,"is_disabled":false,"rental_uris":{"android":"levelo://app?vid=830b5d3b-cabb-4fdb-be27-c9d3d8ea9fde","ios":"levelo://app?vid=830b5d3b-cabb-4fdb-be27-c9d3d8ea9fde"},"vehicle_type_id":"4","last_reported":1736079376,"current_range_meters":37600,"station_id":"ce4bhgh2rcd13ifvqfb0","pricing_plan_id":"cebpf4jnsgd1na2vs0mg"},{"bike_id":"8785ddf2-7225-4c15-a282-1f8baeace2a7","system_id":"levelo_inurba_marseille","lat":43.2607,"lon":5.39383,"is_reserved":false,"is_disabled":false,"rental_uris":{"android":"levelo://app?vid=8785ddf2-7225-4c15-a282-1f8baeace2a7","ios":"levelo://app?vid=8785ddf2-7225-4c15-a282-1f8baeace2a7"},"vehicle_type_id":"4","last_reported":1736079376,"current_range_meters":26000,"station_id":"ce4bhh92rcd13ifvqfj0","pricing_plan_id":"cebpf4jnsgd1na2vs0mg"},{"bike_id":"baaabb63-03d7-46b0-b392-f607b1506ff3","system_id":"levelo_inurba_marseille","lat":43.32054,"lon":5.41536,"is_reserved":false,"is_disabled":false,"rental_uris":{"android":"levelo://app?vid=baaabb63-03d7-46b0-b392-f607b1506ff3","ios":"levelo://app?vid=baaabb63-03d7-46b0-b392-f607b1506ff3"},"vehicle_type_id":"4","last_reported":1736079376,"current_range_meters":24400,"station_id":"ce4bhq92rcd13ifvqhkg","pricing_plan_id":"cebpf4jnsgd1na2vs0mg"},{"bike_id":"a6f828f1-5f97-4da7-bf33-7d48a155db3e","system_id":"levelo_inurba_marseille","lat":43.27823,"lon":5.39202,"is_reserved":false,"is_disabled":false,"rental_uris":{"android":"levelo://app?vid=a6f828f1-5f97-4da7-bf33-7d48a155db3e","ios":"levelo://app?vid=a6f828f1-5f97-4da7-bf33-7d48a155db3e"},"vehicle_type_id":"4","last_reported":1736079376,"current_range_meters":23200,"station_id":"ce4bhjp2rcd13ifvqga0","pricing_plan_id":"cebpf4jnsgd1na2vs0mg"},{"bike_id":"a522c7f8-85db-4294-bcdd-44c45cbf4d5e","system_id":"levelo_inurba_marseille","lat":43.23183,"lon":5.39994,"is_reserved":false,"is_disabled":false,"rental_uris":{"android":"levelo://app?vid=a522c7f8-85db-4294-bcdd-44c45cbf4d5e","ios":"levelo://app?vid=a522c7f8-85db-4294-bcdd-44c45cbf4d5e"},"vehicle_type_id":"4","last_reported":1736079376,"current_range_meters":38000,"station_id":"ce4bhn12rcd13ifvqgqg","pricing_plan_id":"cebpf4jnsgd1na2vs0mg"},{"bike_id":"d67d3179-e51b-4b35-ab48-36f18bd62f58","system_id":"levelo_inurba_marseille","lat":43.2927,"lon":5.38433,"is_reserved":false,"is_disabled":false,"rental_uris":{"android":"levelo://app?vid=d67d3179-e51b-4b35-ab48-36f18bd62f58","ios":"levelo://app?vid=d67d3179-e51b-4b35-ab48-36f18bd62f58"},"vehicle_type_id":"4","last_reported":1736079376,"current_range_meters":32400,"station_id":"ce4bh692rcd13ifvqea0","pricing_plan_id":"cebpf4jnsgd1na2vs0mg"},{"bike_id":"e8a185b3-d63a-46a8-a06c-c198a1239fb6","system_id":"levelo_inurba_marseille","lat":43.27538,"lon":5.39657,"is_reserved":false,"is_disabled":false,"rental_uris":{"android":"levelo://app?vid=e8a185b3-d63a-46a8-a06c-c198a1239fb6","ios":"levelo://app?vid=e8a185b3-d63a-46a8-a06c-c198a1239fb6"},"vehicle_type_id":"4","last_reported":1736079376,"current_range_meters":25600,"station_id":"","pricing_plan_id":"cebpf4jnsgd1na2vs0mg"},{"bike_id":"2bb365b9-b0ab-4842-8b8c-e8de6374870a","system_id":"levelo_inurba_marseille","lat":43.24658,"lon":5.38903,"is_reserved":false,"is_disabled":false,"rental_uris":{"android":"levelo://app?vid=2bb365b9-b0ab-4842-8b8c-e8de6374870a","ios":"levelo://app?vid=2bb365b9-b0ab-4842-8b8c-e8de6374870a"},"vehicle_type_id":"4","last_reported":1736079376,"current_range_meters":38800,"station_id":"ce4bhg12rcd13ifvqf60","pricing_plan_id":"cebpf4jnsgd1na2vs0mg"},{"bike_id":"5050dd80-ba44-4ebe-91e8-da166fbb4a0d","system_id":"levelo_inurba_marseille","lat":43.29305,"lon":5.37452,"is_reserved":false,"is_disabled":false,"rental_uris":{"android":"levelo://app?vid=5050dd80-ba44-4ebe-91e8-da166fbb4a0d","ios":"levelo://app?vid=5050dd80-ba44-4ebe-91e8-da166fbb4a0d"},"vehicle_type_id":"4","last_reported":1736079376,"current_range_meters":27600,"station_id":"ce4bgi12rcd13ifvqb70","pricing_plan_id":"cebpf4jnsgd1na2vs0mg"},{"bike_id":"d394e9d3-86c4-455f-9725-52093f28a235","system_id":"levelo_inurba_marseille","lat":43.30423,"lon":5.38894,"is_reserved":false,"is_disabled":false,"rental_uris":{"android":"levelo://app?vid=d394e9d3-86c4-455f-9725-52093f28a235","ios":"levelo://app?vid=d394e9d3-86c4-455f-9725-52093f28a235"},"vehicle_type_id":"4","last_reported":1736079376,"current_range_meters":28400,"station_id":"ce4bgk12rcd13ifvqbi0","pricing_plan_id":"cebpf4jnsgd1na2vs0mg"},{"bike_id":"83e11cab-3727-47db-9578-d75f6f72542f","system_id":"levelo_inurba_marseille","lat":43.25111,"lon":5.40322,"is_reserved":false,"is_disabled":false,"rental_uris":{"android":"levelo://app?vid=83e11cab-3727-47db-9578-d75f6f72542f","ios":"levelo://app?vid=83e11cab-3727-47db-9578-d75f6f72542f"},"vehicle_type_id":"4","last_reported":1736079376,"current_range_meters":25200,"station_id":"ce4bhlh2rcd13ifvqgig","pricing_plan_id":"cebpf4jnsgd1na2vs0mg"},{"bike_id":"d49af3af-f9f9-4223-bef7-ad7508592233","system_id":"levelo_inurba_marseille","lat":43.23177,"lon":5.40009,"is_reserved":false,"is_disabled":false,"rental_uris":{"android":"levelo://app?vid=d49af3af-f9f9-4223-bef7-ad7508592233","ios":"levelo://app?vid=d49af3af-f9f9-4223-bef7-ad7508592233"},"vehicle_type_id":"4","last_reported":1736079376,"current_range_meters":30000,"station_id":"ce4bhn12rcd13ifvqgqg","pricing_plan_id":"cebpf4jnsgd1na2vs0mg"},{"bike_id":"641d8acc-50b2-4173-ab23-c70f2a11d28e","system_id":"levelo_inurba_marseille","lat":43.28159,"lon":5.4265,"is_reserved":false,"is_disabled":true,"rental_uris":{"android":"levelo://app?vid=641d8acc-50b2-4173-ab23-c70f2a11d28e","ios":"levelo://app?vid=641d8acc-50b2-4173-ab23-c70f2a11d28e"},"vehicle_type_id":"4","last_reported":1736079376,"current_range_meters":33200,"station_id":"ce4bhnh2rcd13ifvqgug","pricing_plan_id":"cebpf4jnsgd1na2vs0mg"},{"bike_id":"5e1410a8-2898-4c41-8f96-f8d8591cd1e8","system_id":"levelo_inurba_marseille","lat":43.28455,"lon":5.39203,"is_reserved":false,"is_disabled":false,"rental_uris":{"android":"levelo://app?vid=5e1410a8-2898-4c41-8f96-f8d8591cd1e8","ios":"levelo://app?vid=5e1410a8-2898-4c41-8f96-f8d8591cd1e8"},"vehicle_type_id":"4","last_reported":1736079376,"current_range_meters":37600,"station_id":"ce4bhoh2rcd13ifvqh5g","pricing_plan_id":"cebpf4jnsgd1na2vs0mg"},{"bike_id":"15e503f5-1d52-42d6-a98f-33a61fd8b554","system_id":"levelo_inurba_marseille","lat":43.284572,"lon":5.35899,"is_reserved":false,"is_disabled":true,"rental_uris":{"android":"levelo://app?vid=15e503f5-1d52-42d6-a98f-33a61fd8b554","ios":"levelo://app?vid=15e503f5-1d52-42d6-a98f-33a61fd8b554"},"vehicle_type_id":"4","last_reported":1736079376,"current_range_meters":26800,"station_id":"ce4bhah2rcd13ifvqei0","pricing_plan_id":"cebpf4jnsgd1na2vs0mg"},{"bike_id":"6a6cde56-543d-4320-b530-a8d4d4944794","system_id":"levelo_inurba_marseille","lat":43.29891,"lon":5.43664,"is_reserved":false,"is_disabled":false,"rental_uris":{"android":"levelo://app?vid=6a6cde56-543d-4320-b530-a8d4d4944794","ios":"levelo://app?vid=6a6cde56-543d-4320-b530-a8d4d4944794"},"vehicle_type_id":"4","last_reported":1736079376,"current_range_meters":28000,"station_id":"ce4bhpp2rcd13ifvqhfg","pricing_plan_id":"cebpf4jnsgd1na2vs0mg"},{"bike_id":"1c32083a-3b07-4502-8e29-beb20d8418d3","system_id":"levelo_inurba_marseille","lat":43.30329,"lon":5.36913,"is_reserved":false,"is_disabled":false,"rental_uris":{"android":"levelo://app?vid=1c32083a-3b07-4502-8e29-beb20d8418d3","ios":"levelo://app?vid=1c32083a-3b07-4502-8e29-beb20d8418d3"},"vehicle_type_id":"4","last_reported":1736079376,"current_range_meters":38800,"station_id":"ce4bgqh2rcd13ifvqc5g","pricing_plan_id":"cebpf4jnsgd1na2vs0mg"},{"bike_id":"c02b8437-04fc-4431-b65c-df50eb8211d6","system_id":"levelo_inurba_marseille","lat":43.28151,"lon":5.42646,"is_reserved":false,"is_disabled":false,"rental_uris":{"android":"levelo://app?vid=c02b8437-04fc-4431-b65c-df50eb8211d6","ios":"levelo://app?vid=c02b8437-04fc-4431-b65c-df50eb8211d6"},"vehicle_type_id":"4","last_reported":1736079376,"current_range_meters":32400,"station_id":"ce4bhnh2rcd13ifvqgug","pricing_plan_id":"cebpf4jnsgd1na2vs0mg"},{"bike_id":"bd609247-c05b-4bfd-8224-3974e4956916","system_id":"levelo_inurba_marseille","lat":43.30931,"lon":5.3684,"is_reserved":false,"is_disabled":true,"rental_uris":{"android":"levelo://app?vid=bd609247-c05b-4bfd-8224-3974e4956916","ios":"levelo://app?vid=bd609247-c05b-4bfd-8224-3974e4956916"},"vehicle_type_id":"4","last_reported":1736079376,"current_range_meters":32000,"station_id":"ce4bgn92rcd13ifvqbvg","pricing_plan_id":"cebpf4jnsgd1na2vs0mg"},{"bike_id":"d84701b0-2902-4d22-9d39-e83ce2cc37b5","system_id":"levelo_inurba_marseille","lat":43.29571,"lon":5.37518,"is_reserved":false,"is_disabled":false,"rental_uris":{"android":"levelo://app?vid=d84701b0-2902-4d22-9d39-e83ce2cc37b5","ios":"levelo://app?vid=d84701b0-2902-4d22-9d39-e83ce2cc37b5"},"vehicle_type_id":"4","last_reported":1736079376,"current_range_meters":38800,"station_id":"ce4bgh92rcd13ifvqb50","pricing_plan_id":"cebpf4jnsgd1na2vs0mg"},{"bike_id":"6a57460f-924c-4af0-b7ed-95637eee2780","system_id":"levelo_inurba_marseille","lat":43.29783,"lon":5.39361,"is_reserved":false,"is_disabled":false,"rental_uris":{"android":"levelo://app?vid=6a57460f-924c-4af0-b7ed-95637eee2780","ios":"levelo://app?vid=6a57460f-924c-4af0-b7ed-95637eee2780"},"vehicle_type_id":"4","last_reported":1736079376,"current_range_meters":38800,"station_id":"chh1huq6cuj3fo74tm60","pricing_plan_id":"cebpf4jnsgd1na2vs0mg"},{"bike_id":"bb64c557-5107-464b-bbd1-8240bb01e380","system_id":"levelo_inurba_marseille","lat":43.23193,"lon":5.35557,"is_reserved":false,"is_disabled":false,"rental_uris":{"android":"levelo://app?vid=bb64c557-5107-464b-bbd1-8240bb01e380","ios":"levelo://app?vid=bb64c557-5107-464b-bbd1-8240bb01e380"},"vehicle_type_id":"4","last_reported":1736079376,"current_range_meters":19600,"station_id":"ce4bhu92rcd13ifvqi70","pricing_plan_id":"cebpf4jnsgd1na2vs0mg"},{"bike_id":"50b46b06-9521-42f4-a35c-b326c9eae1f5","system_id":"levelo_inurba_marseille","lat":43.32348,"lon":5.38904,"is_reserved":false,"is_disabled":false,"rental_uris":{"android":"levelo://app?vid=50b46b06-9521-42f4-a35c-b326c9eae1f5","ios":"levelo://app?vid=50b46b06-9521-42f4-a35c-b326c9eae1f5"},"vehicle_type_id":"4","last_reported":1736079376,"current_range_meters":33200,"station_id":"ce4bhqp2rcd13ifvqhog","pricing_plan_id":"cebpf4jnsgd1na2vs0mg"},{"bike_id":"8d4566f5-07fe-47f4-85a6-9546b8b4eddd","system_id":"levelo_inurba_marseille","lat":43.25117,"lon":5.4033,"is_reserved":false,"is_disabled":false,"rental_uris":{"android":"levelo://app?vid=8d4566f5-07fe-47f4-85a6-9546b8b4eddd","ios":"levelo://app?vid=8d4566f5-07fe-47f4-85a6-9546b8b4eddd"},"vehicle_type_id":"4","last_reported":1736079376,"current_range_meters":38800,"station_id":"ce4bhlh2rcd13ifvqgig","pricing_plan_id":"cebpf4jnsgd1na2vs0mg"},{"bike_id":"ef22ed5c-9277-41a7-9094-412b6c7751ba","system_id":"levelo_inurba_marseille","lat":43.26228,"lon":5.37937,"is_reserved":false,"is_disabled":false,"rental_uris":{"android":"levelo://app?vid=ef22ed5c-9277-41a7-9094-412b6c7751ba","ios":"levelo://app?vid=ef22ed5c-9277-41a7-9094-412b6c7751ba"},"vehicle_type_id":"4","last_reported":1736079376,"current_range_meters":39200,"station_id":"ce4bhjp2rcd13ifvqg90","pricing_plan_id":"cebpf4jnsgd1na2vs0mg"},{"bike_id":"237eb7a7-7331-4631-9377-6cdbdc6e4e98","system_id":"levelo_inurba_marseille","lat":43.26559,"lon":5.39062,"is_reserved":false,"is_disabled":true,"rental_uris":{"android":"levelo://app?vid=237eb7a7-7331-4631-9377-6cdbdc6e4e98","ios":"levelo://app?vid=237eb7a7-7331-4631-9377-6cdbdc6e4e98"},"vehicle_type_id":"4","last_reported":1736079376,"current_range_meters":38800,"station_id":"ce4bhe12rcd13ifvqf30","pricing_plan_id":"cebpf4jnsgd1na2vs0mg"},{"bike_id":"2eb61206-32b0-422d-b056-4ac81016433f","system_id":"levelo_inurba_marseille","lat":43.30194,"lon":5.36638,"is_reserved":false,"is_disabled":false,"rental_uris":{"android":"levelo://app?vid=2eb61206-32b0-422d-b056-4ac81016433f","ios":"levelo://app?vid=2eb61206-32b0-422d-b056-4ac81016433f"},"vehicle_type_id":"4","last_reported":1736079376,"current_range_meters":18000,"station_id":"ce4bgrh2rcd13ifvqc8g","pricing_plan_id":"cebpf4jnsgd1na2vs0mg"},{"bike_id":"6cae5abc-46e5-46da-9bd4-670c41af3d1f","system_id":"levelo_inurba_marseille","lat":43.29437,"lon":5.39763,"is_reserved":false,"is_disabled":false,"rental_uris":{"android":"levelo://app?vid=6cae5abc-46e5-46da-9bd4-670c41af3d1f","ios":"levelo://app?vid=6cae5abc-46e5-46da-9bd4-670c41af3d1f"},"vehicle_type_id":"4","last_reported":1736079376,"current_range_meters":38000,"station_id":"ce4bh3h2rcd13ifvqdo0","pricing_plan_id":"cebpf4jnsgd1na2vs0mg"},{"bike_id":"983a939f-0c90-4b41-8e07-1ba37a328643","system_id":"levelo_inurba_marseille","lat":43.24168,"lon":5.36408,"is_reserved":false,"is_disabled":false,"rental_uris":{"android":"levelo://app?vid=983a939f-0c90-4b41-8e07-1ba37a328643","ios":"levelo://app?vid=983a939f-0c90-4b41-8e07-1ba37a328643"},"vehicle_type_id":"4","last_reported":1736079376,"current_range_meters":21600,"station_id":"cpo36qri1sfpv3e86is0","pricing_plan_id":"cebpf4jnsgd1na2vs0mg"},{"bike_id":"e92918ec-92c9-453f-8a2f-aeaed83ac5fd","system_id":"levelo_inurba_marseille","lat":43.24098,"lon":5.37739,"is_reserved":false,"is_disabled":false,"rental_uris":{"android":"levelo://app?vid=e92918ec-92c9-453f-8a2f-aeaed83ac5fd","ios":"levelo://app?vid=e92918ec-92c9-453f-8a2f-aeaed83ac5fd"},"vehicle_type_id":"4","last_reported":1736079376,"current_range_meters":7200,"station_id":"ce4bhnp2rcd13ifvqgvg","pricing_plan_id":"cebpf4jnsgd1na2vs0mg"},{"bike_id":"2744d3d7-1c79-4955-8dfb-cd899dddfff5","system_id":"levelo_inurba_marseille","lat":43.284291,"lon":5.391897,"is_reserved":false,"is_disabled":false,"rental_uris":{"android":"levelo://app?vid=2744d3d7-1c79-4955-8dfb-cd899dddfff5","ios":"levelo://app?vid=2744d3d7-1c79-4955-8dfb-cd899dddfff5"},"vehicle_type_id":"4","last_reported":1736079376,"current_range_meters":37600,"station_id":"ce4bhoh2rcd13ifvqh5g","pricing_plan_id":"cebpf4jnsgd1na2vs0mg"},{"bike_id":"1f95228b-2707-4808-8d35-1365263ec69f","system_id":"levelo_inurba_marseille","lat":43.29942,"lon":5.36504,"is_reserved":false,"is_disabled":false,"rental_uris":{"android":"levelo://app?vid=1f95228b-2707-4808-8d35-1365263ec69f","ios":"levelo://app?vid=1f95228b-2707-4808-8d35-1365263ec69f"},"vehicle_type_id":"4","last_reported":1736079376,"current_range_meters":22400,"station_id":"ce4bgm92rcd13ifvqbr0","pricing_plan_id":"cebpf4jnsgd1na2vs0mg"},{"bike_id":"32fac1ac-160b-43ec-a560-a05ca5d5e872","system_id":"levelo_inurba_marseille","lat":43.31899,"lon":5.40732,"is_reserved":false,"is_disabled":false,"rental_uris":{"android":"levelo://app?vid=32fac1ac-160b-43ec-a560-a05ca5d5e872","ios":"levelo://app?vid=32fac1ac-160b-43ec-a560-a05ca5d5e872"},"vehicle_type_id":"4","last_reported":1736079376,"current_range_meters":38800,"station_id":"ce4bhq12rcd13ifvqhig","pricing_plan_id":"cebpf4jnsgd1na2vs0mg"},{"bike_id":"be8ef685-e8b1-4c4a-8312-a7768d85aa72","system_id":"levelo_inurba_marseille","lat":43.23981,"lon":5.36627,"is_reserved":false,"is_disabled":false,"rental_uris":{"android":"levelo://app?vid=be8ef685-e8b1-4c4a-8312-a7768d85aa72","ios":"levelo://app?vid=be8ef685-e8b1-4c4a-8312-a7768d85aa72"},"vehicle_type_id":"4","last_reported":1736079376,"current_range_meters":31200,"station_id":"ce4bhi12rcd13ifvqfp0","pricing_plan_id":"cebpf4jnsgd1na2vs0mg"},{"bike_id":"70efc6d0-ad2e-4f02-8419-6468ef42341e","system_id":"levelo_inurba_marseille","lat":43.28439,"lon":5.3919,"is_reserved":false,"is_disabled":false,"rental_uris":{"android":"levelo://app?vid=70efc6d0-ad2e-4f02-8419-6468ef42341e","ios":"levelo://app?vid=70efc6d0-ad2e-4f02-8419-6468ef42341e"},"vehicle_type_id":"4","last_reported":1736079376,"current_range_meters":37600,"station_id":"ce4bhoh2rcd13ifvqh5g","pricing_plan_id":"cebpf4jnsgd1na2vs0mg"},{"bike_id":"d9288af1-5f8c-4fd9-8c46-d082ffb038e4","system_id":"levelo_inurba_marseille","lat":43.27176,"lon":5.40994,"is_reserved":false,"is_disabled":false,"rental_uris":{"android":"levelo://app?vid=d9288af1-5f8c-4fd9-8c46-d082ffb038e4","ios":"levelo://app?vid=d9288af1-5f8c-4fd9-8c46-d082ffb038e4"},"vehicle_type_id":"4","last_reported":1736079376,"current_range_meters":39200,"station_id":"ce4bhl12rcd13ifvqgf0","pricing_plan_id":"cebpf4jnsgd1na2vs0mg"},{"bike_id":"f041b564-487b-40f1-a490-00b83a07a028","system_id":"levelo_inurba_marseille","lat":43.30188,"lon":5.36638,"is_reserved":false,"is_disabled":false,"rental_uris":{"android":"levelo://app?vid=f041b564-487b-40f1-a490-00b83a07a028","ios":"levelo://app?vid=f041b564-487b-40f1-a490-00b83a07a028"},"vehicle_type_id":"4","last_reported":1736079376,"current_range_meters":24800,"station_id":"ce4bgrh2rcd13ifvqc8g","pricing_plan_id":"cebpf4jnsgd1na2vs0mg"},{"bike_id":"cca2f7c7-45e7-4f8a-80d9-cffca2b70c93","system_id":"levelo_inurba_marseille","lat":43.26679,"lon":5.38279,"is_reserved":false,"is_disabled":true,"rental_uris":{"android":"levelo://app?vid=cca2f7c7-45e7-4f8a-80d9-cffca2b70c93","ios":"levelo://app?vid=cca2f7c7-45e7-4f8a-80d9-cffca2b70c93"},"vehicle_type_id":"4","last_reported":1736079376,"current_range_meters":38800,"station_id":"ce4bhg92rcd13ifvqf90","pricing_plan_id":"cebpf4jnsgd1na2vs0mg"},{"bike_id":"f4da3421-c1ef-415d-bec2-78360a6a0213","system_id":"levelo_inurba_marseille","lat":43.30527,"lon":5.36505,"is_reserved":false,"is_disabled":false,"rental_uris":{"android":"levelo://app?vid=f4da3421-c1ef-415d-bec2-78360a6a0213","ios":"levelo://app?vid=f4da3421-c1ef-415d-bec2-78360a6a0213"},"vehicle_type_id":"4","last_reported":1736079376,"current_range_meters":39200,"station_id":"ce4bgs12rcd13ifvqcag","pricing_plan_id":"cebpf4jnsgd1na2vs0mg"},{"bike_id":"f96f1f6f-7093-4fdd-9e86-030a579b1ca6","system_id":"levelo_inurba_marseille","lat":43.29032,"lon":5.39985,"is_reserved":false,"is_disabled":false,"rental_uris":{"android":"levelo://app?vid=f96f1f6f-7093-4fdd-9e86-030a579b1ca6","ios":"levelo://app?vid=f96f1f6f-7093-4fdd-9e86-030a579b1ca6"},"vehicle_type_id":"4","last_reported":1736079376,"current_range_meters":38800,"station_id":"ce4bh392rcd13ifvqdm0","pricing_plan_id":"cebpf4jnsgd1na2vs0mg"},{"bike_id":"e56311a9-696b-4623-ac80-1212db344ea8","system_id":"levelo_inurba_marseille","lat":43.26796,"lon":5.40275,"is_reserved":false,"is_disabled":false,"rental_uris":{"android":"levelo://app?vid=e56311a9-696b-4623-ac80-1212db344ea8","ios":"levelo://app?vid=e56311a9-696b-4623-ac80-1212db344ea8"},"vehicle_type_id":"4","last_reported":1736079376,"current_range_meters":38800,"station_id":"ce501612rcd8frsf0b60","pricing_plan_id":"cebpf4jnsgd1na2vs0mg"},{"bike_id":"3ff99277-dba3-4e3d-ae85-126a9e6ecaf3","system_id":"levelo_inurba_marseille","lat":43.28354,"lon":5.3811,"is_reserved":false,"is_disabled":false,"rental_uris":{"android":"levelo://app?vid=3ff99277-dba3-4e3d-ae85-126a9e6ecaf3","ios":"levelo://app?vid=3ff99277-dba3-4e3d-ae85-126a9e6ecaf3"},"vehicle_type_id":"4","last_reported":1736079376,"current_range_meters":36000,"station_id":"ce4bh412rcd13ifvqdr0","pricing_plan_id":"cebpf4jnsgd1na2vs0mg"},{"bike_id":"182c8827-ad8b-4aa6-9862-5b2da55309dc","system_id":"levelo_inurba_marseille","lat":43.29212,"lon":5.36059,"is_reserved":false,"is_disabled":true,"rental_uris":{"android":"levelo://app?vid=182c8827-ad8b-4aa6-9862-5b2da55309dc","ios":"levelo://app?vid=182c8827-ad8b-4aa6-9862-5b2da55309dc"},"vehicle_type_id":"4","last_reported":1736079376,"current_range_meters":38800,"station_id":"ce4bhbh2rcd13ifvqeqg","pricing_plan_id":"cebpf4jnsgd1na2vs0mg"},{"bike_id":"b4451bbb-9a4b-4792-8dd0-0107ff9c33c9","system_id":"levelo_inurba_marseille","lat":43.30364,"lon":5.41867,"is_reserved":false,"is_disabled":false,"rental_uris":{"android":"levelo://app?vid=b4451bbb-9a4b-4792-8dd0-0107ff9c33c9","ios":"levelo://app?vid=b4451bbb-9a4b-4792-8dd0-0107ff9c33c9"},"vehicle_type_id":"4","last_reported":1736079376,"current_range_meters":38800,"station_id":"ce4bhop2rcd13ifvqh7g","pricing_plan_id":"cebpf4jnsgd1na2vs0mg"},{"bike_id":"d8b76d84-2dfc-400f-9630-9e7b0787e9cc","system_id":"levelo_inurba_marseille","lat":43.27488,"lon":5.42467,"is_reserved":false,"is_disabled":true,"rental_uris":{"android":"levelo://app?vid=d8b76d84-2dfc-400f-9630-9e7b0787e9cc","ios":"levelo://app?vid=d8b76d84-2dfc-400f-9630-9e7b0787e9cc"},"vehicle_type_id":"4","last_reported":1736079376,"current_range_meters":38800,"station_id":"ce4bhn92rcd13ifvqgrg","pricing_plan_id":"cebpf4jnsgd1na2vs0mg"},{"bike_id":"0bf6dba2-fe14-46b3-89bc-47bac354363a","system_id":"levelo_inurba_marseille","lat":43.29524,"lon":5.3751,"is_reserved":false,"is_disabled":false,"rental_uris":{"android":"levelo://app?vid=0bf6dba2-fe14-46b3-89bc-47bac354363a","ios":"levelo://app?vid=0bf6dba2-fe14-46b3-89bc-47bac354363a"},"vehicle_type_id":"4","last_reported":1736079376,"current_range_meters":31200,"station_id":"ce4bgkp2rcd13ifvqbmg","pricing_plan_id":"cebpf4jnsgd1na2vs0mg"},{"bike_id":"eaecfcca-aa89-4e9a-8d17-c5be1539665b","system_id":"levelo_inurba_marseille","lat":43.28287,"lon":5.35065,"is_reserved":false,"is_disabled":true,"rental_uris":{"android":"levelo://app?vid=eaecfcca-aa89-4e9a-8d17-c5be1539665b","ios":"levelo://app?vid=eaecfcca-aa89-4e9a-8d17-c5be1539665b"},"vehicle_type_id":"4","last_reported":1736079376,"current_range_meters":1600,"station_id":"ce4bhbp2rcd13ifvqerg","pricing_plan_id":"cebpf4jnsgd1na2vs0mg"},{"bike_id":"896797d5-e48c-435a-a4ff-c7d0b4682116","system_id":"levelo_inurba_marseille","lat":43.27801,"lon":5.4073,"is_reserved":false,"is_disabled":false,"rental_uris":{"android":"levelo://app?vid=896797d5-e48c-435a-a4ff-c7d0b4682116","ios":"levelo://app?vid=896797d5-e48c-435a-a4ff-c7d0b4682116"},"vehicle_type_id":"4","last_reported":1736079376,"current_range_meters":24000,"station_id":"ce4bhnh2rcd13ifvqgtg","pricing_plan_id":"cebpf4jnsgd1na2vs0mg"},{"bike_id":"bbf16901-1354-41cb-b2ef-aa011be26434","system_id":"levelo_inurba_marseille","lat":43.26856,"lon":5.40146,"is_reserved":false,"is_disabled":false,"rental_uris":{"android":"levelo://app?vid=bbf16901-1354-41cb-b2ef-aa011be26434","ios":"levelo://app?vid=bbf16901-1354-41cb-b2ef-aa011be26434"},"vehicle_type_id":"4","last_reported":1736079376,"current_range_meters":38800,"station_id":"ce501612rcd8frsf0b60","pricing_plan_id":"cebpf4jnsgd1na2vs0mg"},{"bike_id":"4e86006f-38d3-401d-be15-e8dd8ff28846","system_id":"levelo_inurba_marseille","lat":43.27884,"lon":5.38004,"is_reserved":false,"is_disabled":false,"rental_uris":{"android":"levelo://app?vid=4e86006f-38d3-401d-be15-e8dd8ff28846","ios":"levelo://app?vid=4e86006f-38d3-401d-be15-e8dd8ff28846"},"vehicle_type_id":"4","last_reported":1736079376,"current_range_meters":38800,"station_id":"ce4bhf92rcd13ifvqf50","pricing_plan_id":"cebpf4jnsgd1na2vs0mg"},{"bike_id":"223ffd4d-c77e-4428-badf-935f724297c0","system_id":"levelo_inurba_marseille","lat":43.23195,"lon":5.35554,"is_reserved":false,"is_disabled":false,"rental_uris":{"android":"levelo://app?vid=223ffd4d-c77e-4428-badf-935f724297c0","ios":"levelo://app?vid=223ffd4d-c77e-4428-badf-935f724297c0"},"vehicle_type_id":"4","last_reported":1736079376,"current_range_meters":4400,"station_id":"ce4bhu92rcd13ifvqi70","pricing_plan_id":"cebpf4jnsgd1na2vs0mg"},{"bike_id":"aef26b6f-9989-4cb4-a431-df8240762545","system_id":"levelo_inurba_marseille","lat":43.28482,"lon":5.38428,"is_reserved":false,"is_disabled":false,"rental_uris":{"android":"levelo://app?vid=aef26b6f-9989-4cb4-a431-df8240762545","ios":"levelo://app?vid=aef26b6f-9989-4cb4-a431-df8240762545"},"vehicle_type_id":"4","last_reported":1736079376,"current_range_meters":24800,"station_id":"ce4bh512rcd13ifvqe3g","pricing_plan_id":"cebpf4jnsgd1na2vs0mg"},{"bike_id":"65676690-892d-4cc5-bb69-74adecc9cea4","system_id":"levelo_inurba_marseille","lat":43.28366,"lon":5.38644,"is_reserved":false,"is_disabled":false,"rental_uris":{"android":"levelo://app?vid=65676690-892d-4cc5-bb69-74adecc9cea4","ios":"levelo://app?vid=65676690-892d-4cc5-bb69-74adecc9cea4"},"vehicle_type_id":"4","last_reported":1736079376,"current_range_meters":34800,"station_id":"ce4bh492rcd13ifvqdvg","pricing_plan_id":"cebpf4jnsgd1na2vs0mg"},{"bike_id":"478b79ff-b061-464f-b89b-3fa6af477f65","system_id":"levelo_inurba_marseille","lat":43.28618,"lon":5.3511,"is_reserved":false,"is_disabled":false,"rental_uris":{"android":"levelo://app?vid=478b79ff-b061-464f-b89b-3fa6af477f65","ios":"levelo://app?vid=478b79ff-b061-464f-b89b-3fa6af477f65"},"vehicle_type_id":"4","last_reported":1736079376,"current_range_meters":30400,"station_id":"ce4bhch2rcd13ifvqeug","pricing_plan_id":"cebpf4jnsgd1na2vs0mg"},{"bike_id":"24bccac7-1e4b-45e8-bc23-0feeff5509f0","system_id":"levelo_inurba_marseille","lat":43.26496,"lon":5.39555,"is_reserved":false,"is_disabled":true,"rental_uris":{"android":"levelo://app?vid=24bccac7-1e4b-45e8-bc23-0feeff5509f0","ios":"levelo://app?vid=24bccac7-1e4b-45e8-bc23-0feeff5509f0"},"vehicle_type_id":"4","last_reported":1736079376,"current_range_meters":0,"station_id":"ce4bhi12rcd13ifvqfq0","pricing_plan_id":"cebpf4jnsgd1na2vs0mg"},{"bike_id":"05ee86a3-fb54-491f-9c49-ebdfce38b2e1","system_id":"levelo_inurba_marseille","lat":43.2621,"lon":5.37933,"is_reserved":false,"is_disabled":false,"rental_uris":{"android":"levelo://app?vid=05ee86a3-fb54-491f-9c49-ebdfce38b2e1","ios":"levelo://app?vid=05ee86a3-fb54-491f-9c49-ebdfce38b2e1"},"vehicle_type_id":"4","last_reported":1736079376,"current_range_meters":38800,"station_id":"ce4bhjp2rcd13ifvqg90","pricing_plan_id":"cebpf4jnsgd1na2vs0mg"},{"bike_id":"182069f5-9311-441d-b62a-092147390eed","system_id":"levelo_inurba_marseille","lat":43.23187,"lon":5.39996,"is_reserved":false,"is_disabled":false,"rental_uris":{"android":"levelo://app?vid=182069f5-9311-441d-b62a-092147390eed","ios":"levelo://app?vid=182069f5-9311-441d-b62a-092147390eed"},"vehicle_type_id":"4","last_reported":1736079376,"current_range_meters":38800,"station_id":"ce4bhn12rcd13ifvqgqg","pricing_plan_id":"cebpf4jnsgd1na2vs0mg"},{"bike_id":"d400eb61-16e5-4772-875c-c1ea2e3b188d","system_id":"levelo_inurba_marseille","lat":43.27718,"lon":5.38904,"is_reserved":false,"is_disabled":true,"rental_uris":{"android":"levelo://app?vid=d400eb61-16e5-4772-875c-c1ea2e3b188d","ios":"levelo://app?vid=d400eb61-16e5-4772-875c-c1ea2e3b188d"},"vehicle_type_id":"4","last_reported":1736079376,"current_range_meters":800,"station_id":"ce4bhi12rcd13ifvqfo0","pricing_plan_id":"cebpf4jnsgd1na2vs0mg"},{"bike_id":"cb09a876-6570-4ef2-b224-6b3f8af875c5","system_id":"levelo_inurba_marseille","lat":43.29674,"lon":5.37297,"is_reserved":false,"is_disabled":false,"rental_uris":{"android":"levelo://app?vid=cb09a876-6570-4ef2-b224-6b3f8af875c5","ios":"levelo://app?vid=cb09a876-6570-4ef2-b224-6b3f8af875c5"},"vehicle_type_id":"4","last_reported":1736079376,"current_range_meters":39200,"station_id":"ce4bgk12rcd13ifvqbj0","pricing_plan_id":"cebpf4jnsgd1na2vs0mg"},{"bike_id":"270f72ca-6ff0-4006-b955-8701cfe72efd","system_id":"levelo_inurba_marseille","lat":43.29247,"lon":5.40172,"is_reserved":false,"is_disabled":true,"rental_uris":{"android":"levelo://app?vid=270f72ca-6ff0-4006-b955-8701cfe72efd","ios":"levelo://app?vid=270f72ca-6ff0-4006-b955-8701cfe72efd"},"vehicle_type_id":"4","last_reported":1736079376,"current_range_meters":1600,"station_id":"ce4bh312rcd13ifvqdk0","pricing_plan_id":"cebpf4jnsgd1na2vs0mg"},{"bike_id":"dec48ff9-46f1-45b2-af89-3775a7227852","system_id":"levelo_inurba_marseille","lat":43.27365,"lon":5.36253,"is_reserved":false,"is_disabled":false,"rental_uris":{"android":"levelo://app?vid=dec48ff9-46f1-45b2-af89-3775a7227852","ios":"levelo://app?vid=dec48ff9-46f1-45b2-af89-3775a7227852"},"vehicle_type_id":"4","last_reported":1736079376,"current_range_meters":38800,"station_id":"ce4bhbh2rcd13ifvqeo0","pricing_plan_id":"cebpf4jnsgd1na2vs0mg"},{"bike_id":"177c1e4d-2fcb-4b52-a3bf-88a2132c12b4","system_id":"levelo_inurba_marseille","lat":43.28686,"lon":5.37409,"is_reserved":false,"is_disabled":true,"rental_uris":{"android":"levelo://app?vid=177c1e4d-2fcb-4b52-a3bf-88a2132c12b4","ios":"levelo://app?vid=177c1e4d-2fcb-4b52-a3bf-88a2132c12b4"},"vehicle_type_id":"4","last_reported":1736079376,"current_range_meters":2800,"station_id":"ce4bh3p2rcd13ifvqdq0","pricing_plan_id":"cebpf4jnsgd1na2vs0mg"},{"bike_id":"d45d0089-5e8c-41ac-a04c-9866c8dc94cc","system_id":"levelo_inurba_marseille","lat":43.23192,"lon":5.35561,"is_reserved":false,"is_disabled":false,"rental_uris":{"android":"levelo://app?vid=d45d0089-5e8c-41ac-a04c-9866c8dc94cc","ios":"levelo://app?vid=d45d0089-5e8c-41ac-a04c-9866c8dc94cc"},"vehicle_type_id":"4","last_reported":1736079376,"current_range_meters":11600,"station_id":"ce4bhu92rcd13ifvqi70","pricing_plan_id":"cebpf4jnsgd1na2vs0mg"},{"bike_id":"20567613-c640-4bb7-bf9c-473f7d73c57b","system_id":"levelo_inurba_marseille","lat":43.28333,"lon":5.38099,"is_reserved":false,"is_disabled":false,"rental_uris":{"android":"levelo://app?vid=20567613-c640-4bb7-bf9c-473f7d73c57b","ios":"levelo://app?vid=20567613-c640-4bb7-bf9c-473f7d73c57b"},"vehicle_type_id":"4","last_reported":1736079376,"current_range_meters":33600,"station_id":"ce4bh412rcd13ifvqdr0","pricing_plan_id":"cebpf4jnsgd1na2vs0mg"},{"bike_id":"b5de95e0-8f34-41aa-a5fc-c4e76e03a994","system_id":"levelo_inurba_marseille","lat":43.28085,"lon":5.39659,"is_reserved":false,"is_disabled":true,"rental_uris":{"android":"levelo://app?vid=b5de95e0-8f34-41aa-a5fc-c4e76e03a994","ios":"levelo://app?vid=b5de95e0-8f34-41aa-a5fc-c4e76e03a994"},"vehicle_type_id":"4","last_reported":1736079376,"current_range_meters":31200,"station_id":"ce4bho12rcd13ifvqh2g","pricing_plan_id":"cebpf4jnsgd1na2vs0mg"},{"bike_id":"aa33a53e-f806-43a8-ad7e-8e2bd9644426","system_id":"levelo_inurba_marseille","lat":43.32345,"lon":5.40629,"is_reserved":false,"is_disabled":true,"rental_uris":{"android":"levelo://app?vid=aa33a53e-f806-43a8-ad7e-8e2bd9644426","ios":"levelo://app?vid=aa33a53e-f806-43a8-ad7e-8e2bd9644426"},"vehicle_type_id":"4","last_reported":1736079376,"current_range_meters":0,"station_id":"ce4bhq92rcd13ifvqhjg","pricing_plan_id":"cebpf4jnsgd1na2vs0mg"},{"bike_id":"b9dc4ae5-8ee5-4a0e-8a96-a2e835ae7769","system_id":"levelo_inurba_marseille","lat":43.24397,"lon":5.37068,"is_reserved":false,"is_disabled":false,"rental_uris":{"android":"levelo://app?vid=b9dc4ae5-8ee5-4a0e-8a96-a2e835ae7769","ios":"levelo://app?vid=b9dc4ae5-8ee5-4a0e-8a96-a2e835ae7769"},"vehicle_type_id":"4","last_reported":1736079376,"current_range_meters":12800,"station_id":"ce4bhhh2rcd13ifvqfk0","pricing_plan_id":"cebpf4jnsgd1na2vs0mg"},{"bike_id":"be19a5cb-6dd8-4bfa-80d4-2363aed27b68","system_id":"levelo_inurba_marseille","lat":43.30287,"lon":5.38506,"is_reserved":false,"is_disabled":false,"rental_uris":{"android":"levelo://app?vid=be19a5cb-6dd8-4bfa-80d4-2363aed27b68","ios":"levelo://app?vid=be19a5cb-6dd8-4bfa-80d4-2363aed27b68"},"vehicle_type_id":"4","last_reported":1736079376,"current_range_meters":32400,"station_id":"","pricing_plan_id":"cebpf4jnsgd1na2vs0mg"},{"bike_id":"7e8fd350-fb1f-4e9d-a07c-4a5122cca9a5","system_id":"levelo_inurba_marseille","lat":43.30532,"lon":5.36558,"is_reserved":false,"is_disabled":false,"rental_uris":{"android":"levelo://app?vid=7e8fd350-fb1f-4e9d-a07c-4a5122cca9a5","ios":"levelo://app?vid=7e8fd350-fb1f-4e9d-a07c-4a5122cca9a5"},"vehicle_type_id":"4","last_reported":1736079376,"current_range_meters":39200,"station_id":"ce4bgs12rcd13ifvqcag","pricing_plan_id":"cebpf4jnsgd1na2vs0mg"},{"bike_id":"45744d07-eb73-453c-b6ee-d9a256b9901b","system_id":"levelo_inurba_marseille","lat":43.3095,"lon":5.39056,"is_reserved":false,"is_disabled":true,"rental_uris":{"android":"levelo://app?vid=45744d07-eb73-453c-b6ee-d9a256b9901b","ios":"levelo://app?vid=45744d07-eb73-453c-b6ee-d9a256b9901b"},"vehicle_type_id":"4","last_reported":1736079376,"current_range_meters":14400,"station_id":"ce4bgup2rcd13ifvqco0","pricing_plan_id":"cebpf4jnsgd1na2vs0mg"},{"bike_id":"ebcbab0d-7090-4417-bb86-8fa9d2dac98f","system_id":"levelo_inurba_marseille","lat":43.29532,"lon":5.37511,"is_reserved":false,"is_disabled":false,"rental_uris":{"android":"levelo://app?vid=ebcbab0d-7090-4417-bb86-8fa9d2dac98f","ios":"levelo://app?vid=ebcbab0d-7090-4417-bb86-8fa9d2dac98f"},"vehicle_type_id":"4","last_reported":1736079376,"current_range_meters":38000,"station_id":"ce4bgkp2rcd13ifvqbmg","pricing_plan_id":"cebpf4jnsgd1na2vs0mg"},{"bike_id":"a4b49f45-757c-43f5-bd22-2dc89371c25b","system_id":"levelo_inurba_marseille","lat":43.28006,"lon":5.40014,"is_reserved":false,"is_disabled":false,"rental_uris":{"android":"levelo://app?vid=a4b49f45-757c-43f5-bd22-2dc89371c25b","ios":"levelo://app?vid=a4b49f45-757c-43f5-bd22-2dc89371c25b"},"vehicle_type_id":"4","last_reported":1736079376,"current_range_meters":20000,"station_id":"ce4bho92rcd13ifvqh4g","pricing_plan_id":"cebpf4jnsgd1na2vs0mg"},{"bike_id":"e14fc727-e110-4847-a3c5-e82ea6a6fcb8","system_id":"levelo_inurba_marseille","lat":43.289513,"lon":5.396371,"is_reserved":false,"is_disabled":true,"rental_uris":{"android":"levelo://app?vid=e14fc727-e110-4847-a3c5-e82ea6a6fcb8","ios":"levelo://app?vid=e14fc727-e110-4847-a3c5-e82ea6a6fcb8"},"vehicle_type_id":"4","last_reported":1736079376,"current_range_meters":36400,"station_id":"ce4bh3h2rcd13ifvqdn0","pricing_plan_id":"cebpf4jnsgd1na2vs0mg"},{"bike_id":"cdde791c-00c7-4d4f-abe9-f9cd2bd23184","system_id":"levelo_inurba_marseille","lat":43.29778,"lon":5.38124,"is_reserved":false,"is_disabled":false,"rental_uris":{"android":"levelo://app?vid=cdde791c-00c7-4d4f-abe9-f9cd2bd23184","ios":"levelo://app?vid=cdde791c-00c7-4d4f-abe9-f9cd2bd23184"},"vehicle_type_id":"4","last_reported":1736079376,"current_range_meters":38800,"station_id":"ce4bgip2rcd13ifvqbb0","pricing_plan_id":"cebpf4jnsgd1na2vs0mg"},{"bike_id":"049a3f86-6e26-4ed2-b216-bfc60dbb8305","system_id":"levelo_inurba_marseille","lat":43.25114,"lon":5.40321,"is_reserved":false,"is_disabled":false,"rental_uris":{"android":"levelo://app?vid=049a3f86-6e26-4ed2-b216-bfc60dbb8305","ios":"levelo://app?vid=049a3f86-6e26-4ed2-b216-bfc60dbb8305"},"vehicle_type_id":"4","last_reported":1736079376,"current_range_meters":28000,"station_id":"ce4bhlh2rcd13ifvqgig","pricing_plan_id":"cebpf4jnsgd1na2vs0mg"},{"bike_id":"ad539604-9e59-421d-a71a-49da59bdd974","system_id":"levelo_inurba_marseille","lat":43.2903,"lon":5.38633,"is_reserved":false,"is_disabled":true,"rental_uris":{"android":"levelo://app?vid=ad539604-9e59-421d-a71a-49da59bdd974","ios":"levelo://app?vid=ad539604-9e59-421d-a71a-49da59bdd974"},"vehicle_type_id":"4","last_reported":1736079376,"current_range_meters":28800,"station_id":"ce4bh4p2rcd13ifvqe0g","pricing_plan_id":"cebpf4jnsgd1na2vs0mg"},{"bike_id":"68b409ba-7a44-42dc-ae3b-6418ba6f5e03","system_id":"levelo_inurba_marseille","lat":43.29911,"lon":5.37477,"is_reserved":false,"is_disabled":false,"rental_uris":{"android":"levelo://app?vid=68b409ba-7a44-42dc-ae3b-6418ba6f5e03","ios":"levelo://app?vid=68b409ba-7a44-42dc-ae3b-6418ba6f5e03"},"vehicle_type_id":"4","last_reported":1736079376,"current_range_meters":38800,"station_id":"ce4bgjh2rcd13ifvqbg0","pricing_plan_id":"cebpf4jnsgd1na2vs0mg"},{"bike_id":"47482a76-601c-4d8d-9a9c-6565b981ebaf","system_id":"levelo_inurba_marseille","lat":43.29856,"lon":5.36299,"is_reserved":false,"is_disabled":false,"rental_uris":{"android":"levelo://app?vid=47482a76-601c-4d8d-9a9c-6565b981ebaf","ios":"levelo://app?vid=47482a76-601c-4d8d-9a9c-6565b981ebaf"},"vehicle_type_id":"4","last_reported":1736079376,"current_range_meters":22800,"station_id":"ce4bgpp2rcd13ifvqc3g","pricing_plan_id":"cebpf4jnsgd1na2vs0mg"},{"bike_id":"8a474426-cd46-4cf8-9edc-ef843a0ca02e","system_id":"levelo_inurba_marseille","lat":43.26531,"lon":5.39065,"is_reserved":false,"is_disabled":true,"rental_uris":{"android":"levelo://app?vid=8a474426-cd46-4cf8-9edc-ef843a0ca02e","ios":"levelo://app?vid=8a474426-cd46-4cf8-9edc-ef843a0ca02e"},"vehicle_type_id":"4","last_reported":1736079376,"current_range_meters":37600,"station_id":"","pricing_plan_id":"cebpf4jnsgd1na2vs0mg"},{"bike_id":"d0234cf8-3190-48a6-bab2-6c84efe1b44c","system_id":"levelo_inurba_marseille","lat":43.24806,"lon":5.37471,"is_reserved":false,"is_disabled":false,"rental_uris":{"android":"levelo://app?vid=d0234cf8-3190-48a6-bab2-6c84efe1b44c","ios":"levelo://app?vid=d0234cf8-3190-48a6-bab2-6c84efe1b44c"},"vehicle_type_id":"4","last_reported":1736079376,"current_range_meters":38400,"station_id":"ce4bhgh2rcd13ifvqfb0","pricing_plan_id":"cebpf4jnsgd1na2vs0mg"},{"bike_id":"bbf998ea-d252-4590-8711-16d78ff4b07c","system_id":"levelo_inurba_marseille","lat":43.24639,"lon":5.38897,"is_reserved":false,"is_disabled":false,"rental_uris":{"android":"levelo://app?vid=bbf998ea-d252-4590-8711-16d78ff4b07c","ios":"levelo://app?vid=bbf998ea-d252-4590-8711-16d78ff4b07c"},"vehicle_type_id":"4","last_reported":1736079376,"current_range_meters":34800,"station_id":"ce4bhg12rcd13ifvqf60","pricing_plan_id":"cebpf4jnsgd1na2vs0mg"},{"bike_id":"fc360652-cbf7-4f54-9091-081207b2fa0b","system_id":"levelo_inurba_marseille","lat":43.24409,"lon":5.37041,"is_reserved":false,"is_disabled":false,"rental_uris":{"android":"levelo://app?vid=fc360652-cbf7-4f54-9091-081207b2fa0b","ios":"levelo://app?vid=fc360652-cbf7-4f54-9091-081207b2fa0b"},"vehicle_type_id":"4","last_reported":1736079376,"current_range_meters":28400,"station_id":"ce4bhhh2rcd13ifvqfk0","pricing_plan_id":"cebpf4jnsgd1na2vs0mg"},{"bike_id":"af68d2e6-d7e3-4eb8-9cf5-37ac1985b5a3","system_id":"levelo_inurba_marseille","lat":43.23061,"lon":5.35506,"is_reserved":false,"is_disabled":false,"rental_uris":{"android":"levelo://app?vid=af68d2e6-d7e3-4eb8-9cf5-37ac1985b5a3","ios":"levelo://app?vid=af68d2e6-d7e3-4eb8-9cf5-37ac1985b5a3"},"vehicle_type_id":"4","last_reported":1736079376,"current_range_meters":17200,"station_id":"cpo3342slgdg3j2ifvpg","pricing_plan_id":"cebpf4jnsgd1na2vs0mg"},{"bike_id":"4726178b-3f6e-4a44-b94b-0e8080441e13","system_id":"levelo_inurba_marseille","lat":43.31699,"lon":5.43716,"is_reserved":false,"is_disabled":false,"rental_uris":{"android":"levelo://app?vid=4726178b-3f6e-4a44-b94b-0e8080441e13","ios":"levelo://app?vid=4726178b-3f6e-4a44-b94b-0e8080441e13"},"vehicle_type_id":"4","last_reported":1736079376,"current_range_meters":31200,"station_id":"ce4bhp92rcd13ifvqhcg","pricing_plan_id":"cebpf4jnsgd1na2vs0mg"},{"bike_id":"f5a4a49b-f269-4ec2-b80a-e579bf67a966","system_id":"levelo_inurba_marseille","lat":43.309121,"lon":5.3686,"is_reserved":false,"is_disabled":true,"rental_uris":{"android":"levelo://app?vid=f5a4a49b-f269-4ec2-b80a-e579bf67a966","ios":"levelo://app?vid=f5a4a49b-f269-4ec2-b80a-e579bf67a966"},"vehicle_type_id":"4","last_reported":1736079376,"current_range_meters":38800,"station_id":"ce4bgn92rcd13ifvqbvg","pricing_plan_id":"cebpf4jnsgd1na2vs0mg"},{"bike_id":"6f21fba1-6f8e-47c4-a476-286cca5f9cc6","system_id":"levelo_inurba_marseille","lat":43.282704,"lon":5.350628,"is_reserved":false,"is_disabled":true,"rental_uris":{"android":"levelo://app?vid=6f21fba1-6f8e-47c4-a476-286cca5f9cc6","ios":"levelo://app?vid=6f21fba1-6f8e-47c4-a476-286cca5f9cc6"},"vehicle_type_id":"4","last_reported":1736079376,"current_range_meters":0,"station_id":"ce4bhbp2rcd13ifvqerg","pricing_plan_id":"cebpf4jnsgd1na2vs0mg"},{"bike_id":"21f0e3c2-495a-43ca-b213-21dd4a411241","system_id":"levelo_inurba_marseille","lat":43.28443,"lon":5.39181,"is_reserved":false,"is_disabled":false,"rental_uris":{"android":"levelo://app?vid=21f0e3c2-495a-43ca-b213-21dd4a411241","ios":"levelo://app?vid=21f0e3c2-495a-43ca-b213-21dd4a411241"},"vehicle_type_id":"4","last_reported":1736079376,"current_range_meters":38000,"station_id":"ce4bhoh2rcd13ifvqh5g","pricing_plan_id":"cebpf4jnsgd1na2vs0mg"},{"bike_id":"e7eaf25f-df45-47d4-93df-369884d28080","system_id":"levelo_inurba_marseille","lat":43.27359,"lon":5.36271,"is_reserved":false,"is_disabled":false,"rental_uris":{"android":"levelo://app?vid=e7eaf25f-df45-47d4-93df-369884d28080","ios":"levelo://app?vid=e7eaf25f-df45-47d4-93df-369884d28080"},"vehicle_type_id":"4","last_reported":1736079376,"current_range_meters":36800,"station_id":"ce4bhbh2rcd13ifvqeo0","pricing_plan_id":"cebpf4jnsgd1na2vs0mg"},{"bike_id":"38809ded-326f-4e88-931a-d1e9ec76f027","system_id":"levelo_inurba_marseille","lat":43.28103,"lon":5.37843,"is_reserved":false,"is_disabled":false,"rental_uris":{"android":"levelo://app?vid=38809ded-326f-4e88-931a-d1e9ec76f027","ios":"levelo://app?vid=38809ded-326f-4e88-931a-d1e9ec76f027"},"vehicle_type_id":"4","last_reported":1736079376,"current_range_meters":39200,"station_id":"ce4bha12rcd13ifvqee0","pricing_plan_id":"cebpf4jnsgd1na2vs0mg"},{"bike_id":"68756992-624b-4bb3-93b4-523c5d4484b9","system_id":"levelo_inurba_marseille","lat":43.29159,"lon":5.38612,"is_reserved":false,"is_disabled":false,"rental_uris":{"android":"levelo://app?vid=68756992-624b-4bb3-93b4-523c5d4484b9","ios":"levelo://app?vid=68756992-624b-4bb3-93b4-523c5d4484b9"},"vehicle_type_id":"4","last_reported":1736079376,"current_range_meters":25600,"station_id":"","pricing_plan_id":"cebpf4jnsgd1na2vs0mg"},{"bike_id":"e541bdda-d30f-4206-86d7-38eb13e61909","system_id":"levelo_inurba_marseille","lat":43.304722,"lon":5.378991,"is_reserved":false,"is_disabled":false,"rental_uris":{"android":"levelo://app?vid=e541bdda-d30f-4206-86d7-38eb13e61909","ios":"levelo://app?vid=e541bdda-d30f-4206-86d7-38eb13e61909"},"vehicle_type_id":"4","last_reported":1736079376,"current_range_meters":19200,"station_id":"ce4bgup2rcd13ifvqcn0","pricing_plan_id":"cebpf4jnsgd1na2vs0mg"},{"bike_id":"0bcfea18-61ca-412d-bded-b63f59943884","system_id":"levelo_inurba_marseille","lat":43.28607,"lon":5.3511,"is_reserved":false,"is_disabled":true,"rental_uris":{"android":"levelo://app?vid=0bcfea18-61ca-412d-bded-b63f59943884","ios":"levelo://app?vid=0bcfea18-61ca-412d-bded-b63f59943884"},"vehicle_type_id":"4","last_reported":1736079376,"current_range_meters":38000,"station_id":"","pricing_plan_id":"cebpf4jnsgd1na2vs0mg"},{"bike_id":"cc39dd1c-d620-4b70-8667-2e82f1f64a83","system_id":"levelo_inurba_marseille","lat":43.28339,"lon":5.38119,"is_reserved":false,"is_disabled":false,"rental_uris":{"android":"levelo://app?vid=cc39dd1c-d620-4b70-8667-2e82f1f64a83","ios":"levelo://app?vid=cc39dd1c-d620-4b70-8667-2e82f1f64a83"},"vehicle_type_id":"4","last_reported":1736079376,"current_range_meters":28800,"station_id":"ce4bh412rcd13ifvqdr0","pricing_plan_id":"cebpf4jnsgd1na2vs0mg"},{"bike_id":"4d29d8ee-0808-4f38-84d5-f152acc8459a","system_id":"levelo_inurba_marseille","lat":43.29587,"lon":5.37501,"is_reserved":false,"is_disabled":true,"rental_uris":{"android":"levelo://app?vid=4d29d8ee-0808-4f38-84d5-f152acc8459a","ios":"levelo://app?vid=4d29d8ee-0808-4f38-84d5-f152acc8459a"},"vehicle_type_id":"4","last_reported":1736079376,"current_range_meters":8800,"station_id":"ce4bgh92rcd13ifvqb50","pricing_plan_id":"cebpf4jnsgd1na2vs0mg"},{"bike_id":"85cba0a3-d6ec-4723-83bf-95316674cece","system_id":"levelo_inurba_marseille","lat":43.27544,"lon":5.38437,"is_reserved":false,"is_disabled":true,"rental_uris":{"android":"levelo://app?vid=85cba0a3-d6ec-4723-83bf-95316674cece","ios":"levelo://app?vid=85cba0a3-d6ec-4723-83bf-95316674cece"},"vehicle_type_id":"4","last_reported":1736079376,"current_range_meters":1200,"station_id":"ce4bhh92rcd13ifvqfi0","pricing_plan_id":"cebpf4jnsgd1na2vs0mg"},{"bike_id":"d5355d3d-6620-4d8e-801e-d620f116c682","system_id":"levelo_inurba_marseille","lat":43.23063,"lon":5.35493,"is_reserved":false,"is_disabled":false,"rental_uris":{"android":"levelo://app?vid=d5355d3d-6620-4d8e-801e-d620f116c682","ios":"levelo://app?vid=d5355d3d-6620-4d8e-801e-d620f116c682"},"vehicle_type_id":"4","last_reported":1736079376,"current_range_meters":12400,"station_id":"cpo3342slgdg3j2ifvpg","pricing_plan_id":"cebpf4jnsgd1na2vs0mg"},{"bike_id":"eb322fa0-38c7-4498-8e9e-ec9b12e70d23","system_id":"levelo_inurba_marseille","lat":43.29936,"lon":5.36544,"is_reserved":false,"is_disabled":false,"rental_uris":{"android":"levelo://app?vid=eb322fa0-38c7-4498-8e9e-ec9b12e70d23","ios":"levelo://app?vid=eb322fa0-38c7-4498-8e9e-ec9b12e70d23"},"vehicle_type_id":"4","last_reported":1736079376,"current_range_meters":32400,"station_id":"ce4bgm92rcd13ifvqbr0","pricing_plan_id":"cebpf4jnsgd1na2vs0mg"},{"bike_id":"266d97a0-8b6a-4815-8e1e-a29e516886ab","system_id":"levelo_inurba_marseille","lat":43.32378,"lon":5.36767,"is_reserved":false,"is_disabled":false,"rental_uris":{"android":"levelo://app?vid=266d97a0-8b6a-4815-8e1e-a29e516886ab","ios":"levelo://app?vid=266d97a0-8b6a-4815-8e1e-a29e516886ab"},"vehicle_type_id":"4","last_reported":1736079376,"current_range_meters":32800,"station_id":"ce4bhsh2rcd13ifvqi2g","pricing_plan_id":"cebpf4jnsgd1na2vs0mg"},{"bike_id":"a7224998-3cd1-44ad-8892-e18e0ad97675","system_id":"levelo_inurba_marseille","lat":43.24676,"lon":5.38159,"is_reserved":false,"is_disabled":false,"rental_uris":{"android":"levelo://app?vid=a7224998-3cd1-44ad-8892-e18e0ad97675","ios":"levelo://app?vid=a7224998-3cd1-44ad-8892-e18e0ad97675"},"vehicle_type_id":"4","last_reported":1736079376,"current_range_meters":38800,"station_id":"ce4bhih2rcd13ifvqfr0","pricing_plan_id":"cebpf4jnsgd1na2vs0mg"},{"bike_id":"a489bf39-908d-42f1-8f4f-ecbdb750b638","system_id":"levelo_inurba_marseille","lat":43.28281,"lon":5.35069,"is_reserved":false,"is_disabled":false,"rental_uris":{"android":"levelo://app?vid=a489bf39-908d-42f1-8f4f-ecbdb750b638","ios":"levelo://app?vid=a489bf39-908d-42f1-8f4f-ecbdb750b638"},"vehicle_type_id":"4","last_reported":1736079376,"current_range_meters":32400,"station_id":"ce4bhbp2rcd13ifvqerg","pricing_plan_id":"cebpf4jnsgd1na2vs0mg"},{"bike_id":"44d006be-70be-45b8-b039-62d0905c3f17","system_id":"levelo_inurba_marseille","lat":43.28342,"lon":5.38112,"is_reserved":false,"is_disabled":false,"rental_uris":{"android":"levelo://app?vid=44d006be-70be-45b8-b039-62d0905c3f17","ios":"levelo://app?vid=44d006be-70be-45b8-b039-62d0905c3f17"},"vehicle_type_id":"4","last_reported":1736079376,"current_range_meters":32800,"station_id":"ce4bh412rcd13ifvqdr0","pricing_plan_id":"cebpf4jnsgd1na2vs0mg"},{"bike_id":"2937c8f0-6f06-4c7f-8240-41ad44bc55fa","system_id":"levelo_inurba_marseille","lat":43.23182,"lon":5.4,"is_reserved":false,"is_disabled":false,"rental_uris":{"android":"levelo://app?vid=2937c8f0-6f06-4c7f-8240-41ad44bc55fa","ios":"levelo://app?vid=2937c8f0-6f06-4c7f-8240-41ad44bc55fa"},"vehicle_type_id":"4","last_reported":1736079376,"current_range_meters":20000,"station_id":"ce4bhn12rcd13ifvqgqg","pricing_plan_id":"cebpf4jnsgd1na2vs0mg"},{"bike_id":"c64b2e17-ecfc-463c-a656-f757a30f1981","system_id":"levelo_inurba_marseille","lat":43.2737,"lon":5.3626,"is_reserved":false,"is_disabled":false,"rental_uris":{"android":"levelo://app?vid=c64b2e17-ecfc-463c-a656-f757a30f1981","ios":"levelo://app?vid=c64b2e17-ecfc-463c-a656-f757a30f1981"},"vehicle_type_id":"4","last_reported":1736079376,"current_range_meters":28400,"station_id":"ce4bhbh2rcd13ifvqeo0","pricing_plan_id":"cebpf4jnsgd1na2vs0mg"},{"bike_id":"e0ee4d47-9ec0-42b1-97e1-6730629e9b12","system_id":"levelo_inurba_marseille","lat":43.28147,"lon":5.42648,"is_reserved":false,"is_disabled":false,"rental_uris":{"android":"levelo://app?vid=e0ee4d47-9ec0-42b1-97e1-6730629e9b12","ios":"levelo://app?vid=e0ee4d47-9ec0-42b1-97e1-6730629e9b12"},"vehicle_type_id":"4","last_reported":1736079376,"current_range_meters":27600,"station_id":"ce4bhnh2rcd13ifvqgug","pricing_plan_id":"cebpf4jnsgd1na2vs0mg"},{"bike_id":"425f29c7-b392-4559-9c0e-5c6a7964a8de","system_id":"levelo_inurba_marseille","lat":43.31123,"lon":5.37764,"is_reserved":false,"is_disabled":false,"rental_uris":{"android":"levelo://app?vid=425f29c7-b392-4559-9c0e-5c6a7964a8de","ios":"levelo://app?vid=425f29c7-b392-4559-9c0e-5c6a7964a8de"},"vehicle_type_id":"4","last_reported":1736079376,"current_range_meters":12400,"station_id":"ce4bgt92rcd13ifvqcg0","pricing_plan_id":"cebpf4jnsgd1na2vs0mg"},{"bike_id":"f8d51e62-f6f9-432c-9067-8133b38dfab8","system_id":"levelo_inurba_marseille","lat":43.29356,"lon":5.37851,"is_reserved":false,"is_disabled":false,"rental_uris":{"android":"levelo://app?vid=f8d51e62-f6f9-432c-9067-8133b38dfab8","ios":"levelo://app?vid=f8d51e62-f6f9-432c-9067-8133b38dfab8"},"vehicle_type_id":"4","last_reported":1736079376,"current_range_meters":32000,"station_id":"ce4bgjh2rcd13ifvqbf0","pricing_plan_id":"cebpf4jnsgd1na2vs0mg"},{"bike_id":"f49298c6-b208-404d-bb0c-160ccbda2eed","system_id":"levelo_inurba_marseille","lat":43.27984,"lon":5.40007,"is_reserved":false,"is_disabled":true,"rental_uris":{"android":"levelo://app?vid=f49298c6-b208-404d-bb0c-160ccbda2eed","ios":"levelo://app?vid=f49298c6-b208-404d-bb0c-160ccbda2eed"},"vehicle_type_id":"4","last_reported":1736079376,"current_range_meters":38800,"station_id":"ce4bho92rcd13ifvqh4g","pricing_plan_id":"cebpf4jnsgd1na2vs0mg"},{"bike_id":"c211255e-2a04-4560-8043-0af78c155a35","system_id":"levelo_inurba_marseille","lat":43.27212,"lon":5.40989,"is_reserved":false,"is_disabled":false,"rental_uris":{"android":"levelo://app?vid=c211255e-2a04-4560-8043-0af78c155a35","ios":"levelo://app?vid=c211255e-2a04-4560-8043-0af78c155a35"},"vehicle_type_id":"4","last_reported":1736079376,"current_range_meters":30800,"station_id":"ce4bhl12rcd13ifvqgf0","pricing_plan_id":"cebpf4jnsgd1na2vs0mg"},{"bike_id":"d014f699-d84d-436b-b3bf-8c059d18ea89","system_id":"levelo_inurba_marseille","lat":43.22911,"lon":5.35411,"is_reserved":false,"is_disabled":false,"rental_uris":{"android":"levelo://app?vid=d014f699-d84d-436b-b3bf-8c059d18ea89","ios":"levelo://app?vid=d014f699-d84d-436b-b3bf-8c059d18ea89"},"vehicle_type_id":"4","last_reported":1736079376,"current_range_meters":17200,"station_id":"cpo3532slgdg3j2ikp40","pricing_plan_id":"cebpf4jnsgd1na2vs0mg"},{"bike_id":"063ff9d7-98a5-4202-8b41-443712d43cfa","system_id":"levelo_inurba_marseille","lat":43.28144,"lon":5.42658,"is_reserved":false,"is_disabled":false,"rental_uris":{"android":"levelo://app?vid=063ff9d7-98a5-4202-8b41-443712d43cfa","ios":"levelo://app?vid=063ff9d7-98a5-4202-8b41-443712d43cfa"},"vehicle_type_id":"4","last_reported":1736079376,"current_range_meters":31200,"station_id":"ce4bhnh2rcd13ifvqgug","pricing_plan_id":"cebpf4jnsgd1na2vs0mg"},{"bike_id":"df861f19-9b69-431a-bd0d-ebaa33f4e781","system_id":"levelo_inurba_marseille","lat":43.30886,"lon":5.39644,"is_reserved":false,"is_disabled":false,"rental_uris":{"android":"levelo://app?vid=df861f19-9b69-431a-bd0d-ebaa33f4e781","ios":"levelo://app?vid=df861f19-9b69-431a-bd0d-ebaa33f4e781"},"vehicle_type_id":"4","last_reported":1736079376,"current_range_meters":38800,"station_id":"ce4bh012rcd13ifvqcv0","pricing_plan_id":"cebpf4jnsgd1na2vs0mg"},{"bike_id":"c420422e-e5ff-46aa-9ade-56c25e82f06d","system_id":"levelo_inurba_marseille","lat":43.23181,"lon":5.35558,"is_reserved":false,"is_disabled":false,"rental_uris":{"android":"levelo://app?vid=c420422e-e5ff-46aa-9ade-56c25e82f06d","ios":"levelo://app?vid=c420422e-e5ff-46aa-9ade-56c25e82f06d"},"vehicle_type_id":"4","last_reported":1736079376,"current_range_meters":39200,"station_id":"ce4bhu92rcd13ifvqi70","pricing_plan_id":"cebpf4jnsgd1na2vs0mg"},{"bike_id":"ef72cdb4-465d-4178-b952-49906f159c48","system_id":"levelo_inurba_marseille","lat":43.28156,"lon":5.42643,"is_reserved":false,"is_disabled":false,"rental_uris":{"android":"levelo://app?vid=ef72cdb4-465d-4178-b952-49906f159c48","ios":"levelo://app?vid=ef72cdb4-465d-4178-b952-49906f159c48"},"vehicle_type_id":"4","last_reported":1736079376,"current_range_meters":10800,"station_id":"ce4bhnh2rcd13ifvqgug","pricing_plan_id":"cebpf4jnsgd1na2vs0mg"},{"bike_id":"1b54cc74-69a1-4602-b400-407dced42f0e","system_id":"levelo_inurba_marseille","lat":43.26952,"lon":5.38639,"is_reserved":false,"is_disabled":false,"rental_uris":{"android":"levelo://app?vid=1b54cc74-69a1-4602-b400-407dced42f0e","ios":"levelo://app?vid=1b54cc74-69a1-4602-b400-407dced42f0e"},"vehicle_type_id":"4","last_reported":1736079376,"current_range_meters":28000,"station_id":"ce4bhh92rcd13ifvqfh0","pricing_plan_id":"cebpf4jnsgd1na2vs0mg"},{"bike_id":"315b8631-e0a5-45c3-84f5-9463b677bd9e","system_id":"levelo_inurba_marseille","lat":43.29308,"lon":5.37452,"is_reserved":false,"is_disabled":false,"rental_uris":{"android":"levelo://app?vid=315b8631-e0a5-45c3-84f5-9463b677bd9e","ios":"levelo://app?vid=315b8631-e0a5-45c3-84f5-9463b677bd9e"},"vehicle_type_id":"4","last_reported":1736079376,"current_range_meters":27600,"station_id":"ce4bgi12rcd13ifvqb70","pricing_plan_id":"cebpf4jnsgd1na2vs0mg"},{"bike_id":"a2fd8310-05b2-4353-a822-b449cc0178c4","system_id":"levelo_inurba_marseille","lat":43.25487,"lon":5.37656,"is_reserved":false,"is_disabled":false,"rental_uris":{"android":"levelo://app?vid=a2fd8310-05b2-4353-a822-b449cc0178c4","ios":"levelo://app?vid=a2fd8310-05b2-4353-a822-b449cc0178c4"},"vehicle_type_id":"4","last_reported":1736079376,"current_range_meters":2800,"station_id":"ce4bhh12rcd13ifvqff0","pricing_plan_id":"cebpf4jnsgd1na2vs0mg"},{"bike_id":"87647873-54f0-4a6d-ba87-a4a8556efd48","system_id":"levelo_inurba_marseille","lat":43.30135,"lon":5.37425,"is_reserved":false,"is_disabled":false,"rental_uris":{"android":"levelo://app?vid=87647873-54f0-4a6d-ba87-a4a8556efd48","ios":"levelo://app?vid=87647873-54f0-4a6d-ba87-a4a8556efd48"},"vehicle_type_id":"4","last_reported":1736079376,"current_range_meters":38800,"station_id":"ce4bgs92rcd13ifvqcc0","pricing_plan_id":"cebpf4jnsgd1na2vs0mg"},{"bike_id":"91c4c3b3-92e3-4079-9ad3-246e9e3851b7","system_id":"levelo_inurba_marseille","lat":43.2716,"lon":5.40997,"is_reserved":false,"is_disabled":false,"rental_uris":{"android":"levelo://app?vid=91c4c3b3-92e3-4079-9ad3-246e9e3851b7","ios":"levelo://app?vid=91c4c3b3-92e3-4079-9ad3-246e9e3851b7"},"vehicle_type_id":"4","last_reported":1736079376,"current_range_meters":25600,"station_id":"ce4bhl12rcd13ifvqgf0","pricing_plan_id":"cebpf4jnsgd1na2vs0mg"},{"bike_id":"d9f05ca2-aa83-475a-a303-4139e1dfed22","system_id":"levelo_inurba_marseille","lat":43.31473,"lon":5.37299,"is_reserved":false,"is_disabled":false,"rental_uris":{"android":"levelo://app?vid=d9f05ca2-aa83-475a-a303-4139e1dfed22","ios":"levelo://app?vid=d9f05ca2-aa83-475a-a303-4139e1dfed22"},"vehicle_type_id":"4","last_reported":1736079376,"current_range_meters":39200,"station_id":"ce4bgt12rcd13ifvqcd0","pricing_plan_id":"cebpf4jnsgd1na2vs0mg"},{"bike_id":"e9c200db-965f-4b2c-bd5a-0dc123dcc0e0","system_id":"levelo_inurba_marseille","lat":43.24656,"lon":5.3817,"is_reserved":false,"is_disabled":false,"rental_uris":{"android":"levelo://app?vid=e9c200db-965f-4b2c-bd5a-0dc123dcc0e0","ios":"levelo://app?vid=e9c200db-965f-4b2c-bd5a-0dc123dcc0e0"},"vehicle_type_id":"4","last_reported":1736079376,"current_range_meters":18800,"station_id":"ce4bhih2rcd13ifvqfr0","pricing_plan_id":"cebpf4jnsgd1na2vs0mg"},{"bike_id":"839a873c-344d-478d-a819-16466df848ff","system_id":"levelo_inurba_marseille","lat":43.30456,"lon":5.37922,"is_reserved":false,"is_disabled":false,"rental_uris":{"android":"levelo://app?vid=839a873c-344d-478d-a819-16466df848ff","ios":"levelo://app?vid=839a873c-344d-478d-a819-16466df848ff"},"vehicle_type_id":"4","last_reported":1736079376,"current_range_meters":38800,"station_id":"ce4bgup2rcd13ifvqcn0","pricing_plan_id":"cebpf4jnsgd1na2vs0mg"},{"bike_id":"f3d77e72-0e00-4323-aa2f-62becd0e36f6","system_id":"levelo_inurba_marseille","lat":43.2292,"lon":5.35386,"is_reserved":false,"is_disabled":false,"rental_uris":{"android":"levelo://app?vid=f3d77e72-0e00-4323-aa2f-62becd0e36f6","ios":"levelo://app?vid=f3d77e72-0e00-4323-aa2f-62becd0e36f6"},"vehicle_type_id":"4","last_reported":1736079376,"current_range_meters":38800,"station_id":"cpo3532slgdg3j2ikp40","pricing_plan_id":"cebpf4jnsgd1na2vs0mg"},{"bike_id":"a194ebb4-372d-4419-8863-dd00d5f2e354","system_id":"levelo_inurba_marseille","lat":43.2693,"lon":5.38922,"is_reserved":false,"is_disabled":false,"rental_uris":{"android":"levelo://app?vid=a194ebb4-372d-4419-8863-dd00d5f2e354","ios":"levelo://app?vid=a194ebb4-372d-4419-8863-dd00d5f2e354"},"vehicle_type_id":"4","last_reported":1736079376,"current_range_meters":18000,"station_id":"ce4bhhh2rcd13ifvqfl0","pricing_plan_id":"cebpf4jnsgd1na2vs0mg"},{"bike_id":"19f22938-2a74-4353-9d5f-b442575cb4fa","system_id":"levelo_inurba_marseille","lat":43.29298,"lon":5.37446,"is_reserved":false,"is_disabled":false,"rental_uris":{"android":"levelo://app?vid=19f22938-2a74-4353-9d5f-b442575cb4fa","ios":"levelo://app?vid=19f22938-2a74-4353-9d5f-b442575cb4fa"},"vehicle_type_id":"4","last_reported":1736079376,"current_range_meters":16400,"station_id":"ce4bgi12rcd13ifvqb70","pricing_plan_id":"cebpf4jnsgd1na2vs0mg"},{"bike_id":"0c2252dc-9fb3-466a-86d2-5c1056f9f743","system_id":"levelo_inurba_marseille","lat":43.24997,"lon":5.38943,"is_reserved":false,"is_disabled":false,"rental_uris":{"android":"levelo://app?vid=0c2252dc-9fb3-466a-86d2-5c1056f9f743","ios":"levelo://app?vid=0c2252dc-9fb3-466a-86d2-5c1056f9f743"},"vehicle_type_id":"4","last_reported":1736079376,"current_range_meters":39200,"station_id":"ce4bhgp2rcd13ifvqfd0","pricing_plan_id":"cebpf4jnsgd1na2vs0mg"},{"bike_id":"70d1fae7-1346-4be5-88c1-c1dd75c31512","system_id":"levelo_inurba_marseille","lat":43.26111,"lon":5.39284,"is_reserved":false,"is_disabled":false,"rental_uris":{"android":"levelo://app?vid=70d1fae7-1346-4be5-88c1-c1dd75c31512","ios":"levelo://app?vid=70d1fae7-1346-4be5-88c1-c1dd75c31512"},"vehicle_type_id":"4","last_reported":1736079376,"current_range_meters":28800,"station_id":"ce4bhh92rcd13ifvqfj0","pricing_plan_id":"cebpf4jnsgd1na2vs0mg"},{"bike_id":"3ad4b63d-3050-40c2-8de7-90d7069746cd","system_id":"levelo_inurba_marseille","lat":43.2862,"lon":5.35098,"is_reserved":false,"is_disabled":false,"rental_uris":{"android":"levelo://app?vid=3ad4b63d-3050-40c2-8de7-90d7069746cd","ios":"levelo://app?vid=3ad4b63d-3050-40c2-8de7-90d7069746cd"},"vehicle_type_id":"4","last_reported":1736079376,"current_range_meters":28800,"station_id":"ce4bhch2rcd13ifvqeug","pricing_plan_id":"cebpf4jnsgd1na2vs0mg"},{"bike_id":"c4a48190-8d9a-463d-a570-4e46b701a6a8","system_id":"levelo_inurba_marseille","lat":43.29861,"lon":5.36271,"is_reserved":false,"is_disabled":false,"rental_uris":{"android":"levelo://app?vid=c4a48190-8d9a-463d-a570-4e46b701a6a8","ios":"levelo://app?vid=c4a48190-8d9a-463d-a570-4e46b701a6a8"},"vehicle_type_id":"4","last_reported":1736079376,"current_range_meters":35200,"station_id":"ce4bgpp2rcd13ifvqc3g","pricing_plan_id":"cebpf4jnsgd1na2vs0mg"},{"bike_id":"b875ccb3-0787-460d-b47b-bfc4f49dce51","system_id":"levelo_inurba_marseille","lat":43.29364,"lon":5.37858,"is_reserved":false,"is_disabled":false,"rental_uris":{"android":"levelo://app?vid=b875ccb3-0787-460d-b47b-bfc4f49dce51","ios":"levelo://app?vid=b875ccb3-0787-460d-b47b-bfc4f49dce51"},"vehicle_type_id":"4","last_reported":1736079376,"current_range_meters":27200,"station_id":"ce4bgjh2rcd13ifvqbf0","pricing_plan_id":"cebpf4jnsgd1na2vs0mg"},{"bike_id":"defa2d01-331b-4e90-9646-0cd5cd8b698b","system_id":"levelo_inurba_marseille","lat":43.29565,"lon":5.37529,"is_reserved":false,"is_disabled":false,"rental_uris":{"android":"levelo://app?vid=defa2d01-331b-4e90-9646-0cd5cd8b698b","ios":"levelo://app?vid=defa2d01-331b-4e90-9646-0cd5cd8b698b"},"vehicle_type_id":"4","last_reported":1736079376,"current_range_meters":17600,"station_id":"ce4bgh92rcd13ifvqb50","pricing_plan_id":"cebpf4jnsgd1na2vs0mg"},{"bike_id":"433d5c72-68e9-441f-a6a2-d8b81d912608","system_id":"levelo_inurba_marseille","lat":43.29007,"lon":5.381293,"is_reserved":false,"is_disabled":false,"rental_uris":{"android":"levelo://app?vid=433d5c72-68e9-441f-a6a2-d8b81d912608","ios":"levelo://app?vid=433d5c72-68e9-441f-a6a2-d8b81d912608"},"vehicle_type_id":"4","last_reported":1736079376,"current_range_meters":30800,"station_id":"ce4bh4p2rcd13ifvqe1g","pricing_plan_id":"cebpf4jnsgd1na2vs0mg"},{"bike_id":"f9948137-1509-403f-ba65-b013147c059e","system_id":"levelo_inurba_marseille","lat":43.25583,"lon":5.38229,"is_reserved":false,"is_disabled":false,"rental_uris":{"android":"levelo://app?vid=f9948137-1509-403f-ba65-b013147c059e","ios":"levelo://app?vid=f9948137-1509-403f-ba65-b013147c059e"},"vehicle_type_id":"4","last_reported":1736079376,"current_range_meters":38800,"station_id":"ce4bhih2rcd13ifvqfs0","pricing_plan_id":"cebpf4jnsgd1na2vs0mg"},{"bike_id":"f2ea30af-913c-4993-a5e0-4e4560d35d0e","system_id":"levelo_inurba_marseille","lat":43.24796,"lon":5.37477,"is_reserved":false,"is_disabled":false,"rental_uris":{"android":"levelo://app?vid=f2ea30af-913c-4993-a5e0-4e4560d35d0e","ios":"levelo://app?vid=f2ea30af-913c-4993-a5e0-4e4560d35d0e"},"vehicle_type_id":"4","last_reported":1736079376,"current_range_meters":7200,"station_id":"ce4bhgh2rcd13ifvqfb0","pricing_plan_id":"cebpf4jnsgd1na2vs0mg"},{"bike_id":"a2cdebfe-e598-4fbc-94b2-946883c0606f","system_id":"levelo_inurba_marseille","lat":43.281,"lon":5.37854,"is_reserved":false,"is_disabled":false,"rental_uris":{"android":"levelo://app?vid=a2cdebfe-e598-4fbc-94b2-946883c0606f","ios":"levelo://app?vid=a2cdebfe-e598-4fbc-94b2-946883c0606f"},"vehicle_type_id":"4","last_reported":1736079376,"current_range_meters":36000,"station_id":"ce4bha12rcd13ifvqee0","pricing_plan_id":"cebpf4jnsgd1na2vs0mg"},