{"last_updated":1692115682,"ttl":30,"version":"2.2","data":{"bikes":[{"bike_id":"e54ce4f7-3fa9-4adf-a365-4106b0a3b479","system_id":"levelo_inurba_marseille","lat":43.309034,"lon":5.371783,"is_reserved":false,"is_disabled":false,"rental_uris":{"android":"levelo://app?vid=e54ce4f7-3fa9-4adf-a365-4106b0a3b479","ios":"levelo://app?vid=e54ce4f7-3fa9-4adf-a365-4106b0a3b479"},"vehicle_type_id":"4","last_reported":1692115684,"current_range_meters":0,"station_id":"ce4bguh2rcd13ifvqckg","pricing_plan_id":"free"},{"bike_id":"61815e61-f3f5-4a02-9f97-8156bad92850","system_id":"levelo_inurba_marseille","lat":43.309039,"lon":5.371797,"is_reserved":false,"is_disabled":false,"rental_uris":{"android":"levelo://app?vid=61815e61-f3f5-4a02-9f97-8156bad92850","ios":"levelo://app?vid=61815e61-f3f5-4a02-9f97-8156bad92850"},"vehicle_type_id":"4","last_reported":1692115684,"current_range_meters":18000,"station_id":"ce4bguh2rcd13ifvqckg","pricing_plan_id":"free"},{"bike_id":"9fbe6e18-d192-44c2-98b5-cafb68b41aa4","system_id":"levelo_inurba_marseille","lat":43.30529,"lon":5.36526,"is_reserved":false,"is_disabled":false,"rental_uris":{"android":"levelo://app?vid=9fbe6e18-d192-44c2-98b5-cafb68b41aa4","ios":"levelo://app?vid=9fbe6e18-d192-44c2-98b5-cafb68b41aa4"},"vehicle_type_id":"4","last_reported":1692115684,"current_range_meters":29600,"station_id":"ce4bgs12rcd13ifvqcag","pricing_plan_id":"free"},{"bike_id":"3edab62c-424d-4c60-b41d-58cc7b0d7008","system_id":"levelo_inurba_marseille","lat":43.305989,"lon":5.37225,"is_reserved":false,"is_disabled":false,"rental_uris":{"android":"levelo://app?vid=3edab62c-424d-4c60-b41d-58cc7b0d7008","ios":"levelo://app?vid=3edab62c-424d-4c60-b41d-58cc7b0d7008"},"vehicle_type_id":"4","last_reported":1692115684,"current_range_meters":7600,"station_id":"ce4bgqh2rcd13ifvqc4g","pricing_plan_id":"free"},{"bike_id":"3ecce3f7-132f-4ea2-ba91-cd388487057d","system_id":"levelo_inurba_marseille","lat":43.311131,"lon":5.377651,"is_reserved":false,"is_disabled":false,"rental_uris":{"android":"levelo://app?vid=3ecce3f7-132f-4ea2-ba91-cd388487057d","ios":"levelo://app?vid=3ecce3f7-132f-4ea2-ba91-cd388487057d"},"vehicle_type_id":"4","last_reported":1692115684,"current_range_meters":18800,"station_id":"ce4bgt92rcd13ifvqcg0","pricing_plan_id":"free"},{"bike_id":"c70acee3-93d1-42da-9216-aa7f4b8f4345","system_id":"levelo_inurba_marseille","lat":43.31116,"lon":5.37775,"is_reserved":false,"is_disabled":false,"rental_uris":{"android":"levelo://app?vid=c70acee3-93d1-42da-9216-aa7f4b8f4345","ios":"levelo://app?vid=c70acee3-93d1-42da-9216-aa7f4b8f4345"},"vehicle_type_id":"4","last_reported":1692115684,"current_range_meters":8800,"station_id":"","pricing_plan_id":"free"},{"bike_id":"3c6e2d36-4b30-421b-90e6-04392e26023a","system_id":"levelo_inurba_marseille","lat":43.317075,"lon":5.377367,"is_reserved":false,"is_disabled":false,"rental_uris":{"android":"levelo://app?vid=3c6e2d36-4b30-421b-90e6-04392e26023a","ios":"levelo://app?vid=3c6e2d36-4b30-421b-90e6-04392e26023a"},"vehicle_type_id":"4","last_reported":1692115684,"current_range_meters":19600,"station_id":"ce4bgth2rcd13ifvqch0","pricing_plan_id":"free"},{"bike_id":"75f09d65-882c-4b98-9b00-7f8257d9b36e","system_id":"levelo_inurba_marseille","lat":43.317075,"lon":5.377367,"is_reserved":false,"is_disabled":false,"rental_uris":{"android":"levelo://app?vid=75f09d65-882c-4b98-9b00-7f8257d9b36e","ios":"levelo://app?vid=75f09d65-882c-4b98-9b00-7f8257d9b36e"},"vehicle_type_id":"4","last_reported":1692115684,"current_range_meters":31200,"station_id":"ce4bgth2rcd13ifvqch0","pricing_plan_id":"free"},{"bike_id":"43f190e1-7891-46ef-9651-a5eb9b517d54","system_id":"levelo_inurba_marseille","lat":43.317075,"lon":5.377367,"is_reserved":false,"is_disabled":false,"rental_uris":{"android":"levelo://app?vid=43f190e1-7891-46ef-9651-a5eb9b517d54","ios":"levelo://app?vid=43f190e1-7891-46ef-9651-a5eb9b517d54"},"vehicle_type_id":"4","last_reported":1692115684,"current_range_meters":30400,"station_id":"ce4bgth2rcd13ifvqch0","pricing_plan_id":"free"},{"bike_id":"6ac21fe5-a59e-4167-b9e7-2b97d1a836d0","system_id":"levelo_inurba_marseille","lat":43.31712,"lon":5.37744,"is_reserved":false,"is_disabled":false,"rental_uris":{"android":"levelo://app?vid=6ac21fe5-a59e-4167-b9e7-2b97d1a836d0","ios":"levelo://app?vid=6ac21fe5-a59e-4167-b9e7-2b97d1a836d0"},"vehicle_type_id":"4","last_reported":1692115684,"current_range_meters":28400,"station_id":"ce4bgth2rcd13ifvqch0","pricing_plan_id":"free"},{"bike_id":"a9b0ea9c-132a-4880-9c89-c665dde82c68","system_id":"levelo_inurba_marseille","lat":43.31714,"lon":5.37743,"is_reserved":false,"is_disabled":false,"rental_uris":{"android":"levelo://app?vid=a9b0ea9c-132a-4880-9c89-c665dde82c68","ios":"levelo://app?vid=a9b0ea9c-132a-4880-9c89-c665dde82c68"},"vehicle_type_id":"4","last_reported":1692115684,"current_range_meters":31200,"station_id":"ce4bgth2rcd13ifvqch0","pricing_plan_id":"free"},{"bike_id":"de7e422c-72cd-43c3-8ab6-3bd536fd8669","system_id":"levelo_inurba_marseille","lat":43.317075,"lon":5.377367,"is_reserved":false,"is_disabled":false,"rental_uris":{"android":"levelo://app?vid=de7e422c-72cd-43c3-8ab6-3bd536fd8669","ios":"levelo://app?vid=de7e422c-72cd-43c3-8ab6-3bd536fd8669"},"vehicle_type_id":"4","last_reported":1692115684,"current_range_meters":31200,"station_id":"ce4bgth2rcd13ifvqch0","pricing_plan_id":"free"},{"bike_id":"ccde4fab-a619-4b85-80d1-631ae22c1186","system_id":"levelo_inurba_marseille","lat":43.317075,"lon":5.377367,"is_reserved":false,"is_disabled":false,"rental_uris":{"android":"levelo://app?vid=ccde4fab-a619-4b85-80d1-631ae22c1186","ios":"levelo://app?vid=ccde4fab-a619-4b85-80d1-631ae22c1186"},"vehicle_type_id":"4","last_reported":1692115684,"current_range_meters":30400,"station_id":"ce4bgth2rcd13ifvqch0","pricing_plan_id":"free"},{"bike_id":"8bc97ee6-e6b2-4ecd-b382-ff9ee2df7dea","system_id":"levelo_inurba_marseille","lat":43.30301,"lon":5.36858,"is_reserved":false,"is_disabled":false,"rental_uris":{"android":"levelo://app?vid=8bc97ee6-e6b2-4ecd-b382-ff9ee2df7dea","ios":"levelo://app?vid=8bc97ee6-e6b2-4ecd-b382-ff9ee2df7dea"},"vehicle_type_id":"4","last_reported":1692115684,"current_range_meters":8400,"station_id":"ce4bgqh2rcd13ifvqc5g","pricing_plan_id":"free"},{"bike_id":"60102b56-7cf6-469a-a6bb-7b1157bf5c06","system_id":"levelo_inurba_marseille","lat":43.30243,"lon":5.3695,"is_reserved":false,"is_disabled":false,"rental_uris":{"android":"levelo://app?vid=60102b56-7cf6-469a-a6bb-7b1157bf5c06","ios":"levelo://app?vid=60102b56-7cf6-469a-a6bb-7b1157bf5c06"},"vehicle_type_id":"4","last_reported":1692115684,"current_range_meters":31200,"station_id":"","pricing_plan_id":"free"},{"bike_id":"78abbae6-fb70-438b-804f-1c5ad07d176a","system_id":"levelo_inurba_marseille","lat":43.31998,"lon":5.38142,"is_reserved":false,"is_disabled":false,"rental_uris":{"android":"levelo://app?vid=78abbae6-fb70-438b-804f-1c5ad07d176a","ios":"levelo://app?vid=78abbae6-fb70-438b-804f-1c5ad07d176a"},"vehicle_type_id":"4","last_reported":1692115684,"current_range_meters":7200,"station_id":"ce4bhr12rcd13ifvqhpg","pricing_plan_id":"free"},{"bike_id":"6f8ef17a-7233-480b-bf5c-0670e618535f","system_id":"levelo_inurba_marseille","lat":43.31994,"lon":5.38146,"is_reserved":false,"is_disabled":false,"rental_uris":{"android":"levelo://app?vid=6f8ef17a-7233-480b-bf5c-0670e618535f","ios":"levelo://app?vid=6f8ef17a-7233-480b-bf5c-0670e618535f"},"vehicle_type_id":"4","last_reported":1692115684,"current_range_meters":21200,"station_id":"ce4bhr12rcd13ifvqhpg","pricing_plan_id":"free"},{"bike_id":"6a62258e-28a8-4c03-b468-e7ee8977190a","system_id":"levelo_inurba_marseille","lat":43.31999,"lon":5.38144,"is_reserved":false,"is_disabled":false,"rental_uris":{"android":"levelo://app?vid=6a62258e-28a8-4c03-b468-e7ee8977190a","ios":"levelo://app?vid=6a62258e-28a8-4c03-b468-e7ee8977190a"},"vehicle_type_id":"4","last_reported":1692115684,"current_range_meters":28400,"station_id":"ce4bhr12rcd13ifvqhpg","pricing_plan_id":"free"},{"bike_id":"8257b402-9e5d-4065-83c8-88f3934663dd","system_id":"levelo_inurba_marseille","lat":43.319935,"lon":5.381699,"is_reserved":false,"is_disabled":false,"rental_uris":{"android":"levelo://app?vid=8257b402-9e5d-4065-83c8-88f3934663dd","ios":"levelo://app?vid=8257b402-9e5d-4065-83c8-88f3934663dd"},"vehicle_type_id":"4","last_reported":1692115684,"current_range_meters":14800,"station_id":"ce4bhr12rcd13ifvqhpg","pricing_plan_id":"free"},{"bike_id":"10ace6ff-ef76-4b4d-a04f-2ec52dd81c45","system_id":"levelo_inurba_marseille","lat":43.31995,"lon":5.3815,"is_reserved":false,"is_disabled":false,"rental_uris":{"android":"levelo://app?vid=10ace6ff-ef76-4b4d-a04f-2ec52dd81c45","ios":"levelo://app?vid=10ace6ff-ef76-4b4d-a04f-2ec52dd81c45"},"vehicle_type_id":"4","last_reported":1692115684,"current_range_meters":19200,"station_id":"ce4bhr12rcd13ifvqhpg","pricing_plan_id":"free"},{"bike_id":"f942aea9-b905-4405-929b-d7f7b203ebc0","system_id":"levelo_inurba_marseille","lat":43.31996,"lon":5.3815,"is_reserved":false,"is_disabled":false,"rental_uris":{"android":"levelo://app?vid=f942aea9-b905-4405-929b-d7f7b203ebc0","ios":"levelo://app?vid=f942aea9-b905-4405-929b-d7f7b203ebc0"},"vehicle_type_id":"4","last_reported":1692115684,"current_range_meters":14000,"station_id":"ce4bhr12rcd13ifvqhpg","pricing_plan_id":"free"},{"bike_id":"c17c70c2-0b4d-4d13-87b6-0d4475584bb3","system_id":"levelo_inurba_marseille","lat":43.31997,"lon":5.38162,"is_reserved":false,"is_disabled":false,"rental_uris":{"android":"levelo://app?vid=c17c70c2-0b4d-4d13-87b6-0d4475584bb3","ios":"levelo://app?vid=c17c70c2-0b4d-4d13-87b6-0d4475584bb3"},"vehicle_type_id":"4","last_reported":1692115684,"current_range_meters":9200,"station_id":"ce4bhr12rcd13ifvqhpg","pricing_plan_id":"free"},{"bike_id":"56c0f7b7-cdee-4194-872c-8f41aeef0b5c","system_id":"levelo_inurba_marseille","lat":43.313571,"lon":5.384829,"is_reserved":false,"is_disabled":false,"rental_uris":{"android":"levelo://app?vid=56c0f7b7-cdee-4194-872c-8f41aeef0b5c","ios":"levelo://app?vid=56c0f7b7-cdee-4194-872c-8f41aeef0b5c"},"vehicle_type_id":"4","last_reported":1692115684,"current_range_meters":0,"station_id":"ce4bgt92rcd13ifvqcf0","pricing_plan_id":"free"},{"bike_id":"7c7befd0-fd7a-4ce2-b556-524f26580b88","system_id":"levelo_inurba_marseille","lat":43.313571,"lon":5.384829,"is_reserved":false,"is_disabled":false,"rental_uris":{"android":"levelo://app?vid=7c7befd0-fd7a-4ce2-b556-524f26580b88","ios":"levelo://app?vid=7c7befd0-fd7a-4ce2-b556-524f26580b88"},"vehicle_type_id":"4","last_reported":1692115684,"current_range_meters":31200,"station_id":"ce4bgt92rcd13ifvqcf0","pricing_plan_id":"free"},{"bike_id":"ded8d04d-cdf2-476e-a57a-24d1bb9e25b2","system_id":"levelo_inurba_marseille","lat":43.299222,"lon":5.365554,"is_reserved":false,"is_disabled":false,"rental_uris":{"android":"levelo://app?vid=ded8d04d-cdf2-476e-a57a-24d1bb9e25b2","ios":"levelo://app?vid=ded8d04d-cdf2-476e-a57a-24d1bb9e25b2"},"vehicle_type_id":"4","last_reported":1692115684,"current_range_meters":400,"station_id":"ce4bgm92rcd13ifvqbr0","pricing_plan_id":"free"},{"bike_id":"00ccf8bf-051a-4fb6-ac83-78230223dfaa","system_id":"levelo_inurba_marseille","lat":43.299724,"lon":5.371829,"is_reserved":false,"is_disabled":false,"rental_uris":{"android":"levelo://app?vid=00ccf8bf-051a-4fb6-ac83-78230223dfaa","ios":"levelo://app?vid=00ccf8bf-051a-4fb6-ac83-78230223dfaa"},"vehicle_type_id":"4","last_reported":1692115684,"current_range_meters":400,"station_id":"ce4bgr92rcd13ifvqc7g","pricing_plan_id":"free"},{"bike_id":"2418f534-7c9d-4eb1-9bc2-346e8f020481","system_id":"levelo_inurba_marseille","lat":43.3133,"lon":5.38615,"is_reserved":false,"is_disabled":false,"rental_uris":{"android":"levelo://app?vid=2418f534-7c9d-4eb1-9bc2-346e8f020481","ios":"levelo://app?vid=2418f534-7c9d-4eb1-9bc2-346e8f020481"},"vehicle_type_id":"4","last_reported":1692115684,"current_range_meters":15600,"station_id":"","pricing_plan_id":"free"},{"bike_id":"d7d99614-be18-4ae3-9f18-48672edccad6","system_id":"levelo_inurba_marseille","lat":43.298433,"lon":5.362774,"is_reserved":false,"is_disabled":false,"rental_uris":{"android":"levelo://app?vid=d7d99614-be18-4ae3-9f18-48672edccad6","ios":"levelo://app?vid=d7d99614-be18-4ae3-9f18-48672edccad6"},"vehicle_type_id":"4","last_reported":1692115684,"current_range_meters":17200,"station_id":"ce4bgpp2rcd13ifvqc3g","pricing_plan_id":"free"},{"bike_id":"4533f966-ae48-4bd8-900f-be05aff4125e","system_id":"levelo_inurba_marseille","lat":43.298433,"lon":5.362774,"is_reserved":false,"is_disabled":false,"rental_uris":{"android":"levelo://app?vid=4533f966-ae48-4bd8-900f-be05aff4125e","ios":"levelo://app?vid=4533f966-ae48-4bd8-900f-be05aff4125e"},"vehicle_type_id":"4","last_reported":1692115684,"current_range_meters":13200,"station_id":"ce4bgpp2rcd13ifvqc3g","pricing_plan_id":"free"},{"bike_id":"eda062bf-18e8-4eb2-b69b-3806f2751df0","system_id":"levelo_inurba_marseille","lat":43.298433,"lon":5.362774,"is_reserved":false,"is_disabled":false,"rental_uris":{"android":"levelo://app?vid=eda062bf-18e8-4eb2-b69b-3806f2751df0","ios":"levelo://app?vid=eda062bf-18e8-4eb2-b69b-3806f2751df0"},"vehicle_type_id":"4","last_reported":1692115684,"current_range_meters":27600,"station_id":"ce4bgpp2rcd13ifvqc3g","pricing_plan_id":"free"},{"bike_id":"7fc6cb86-1a6f-4a2b-a401-0a395092aa24","system_id":"levelo_inurba_marseille","lat":43.29923,"lon":5.37474,"is_reserved":false,"is_disabled":false,"rental_uris":{"android":"levelo://app?vid=7fc6cb86-1a6f-4a2b-a401-0a395092aa24","ios":"levelo://app?vid=7fc6cb86-1a6f-4a2b-a401-0a395092aa24"},"vehicle_type_id":"4","last_reported":1692115684,"current_range_meters":3600,"station_id":"","pricing_plan_id":"free"},{"bike_id":"c6b539db-5b03-411d-8927-985ab9f2f17e","system_id":"levelo_inurba_marseille","lat":43.322872,"lon":5.382756,"is_reserved":false,"is_disabled":false,"rental_uris":{"android":"levelo://app?vid=c6b539db-5b03-411d-8927-985ab9f2f17e","ios":"levelo://app?vid=c6b539db-5b03-411d-8927-985ab9f2f17e"},"vehicle_type_id":"4","last_reported":1692115684,"current_range_meters":6000,"station_id":"ce4bhr12rcd13ifvqhqg","pricing_plan_id":"free"},{"bike_id":"913ad8d8-ff4a-402b-845d-993d8ad47139","system_id":"levelo_inurba_marseille","lat":43.32286,"lon":5.38255,"is_reserved":false,"is_disabled":false,"rental_uris":{"android":"levelo://app?vid=913ad8d8-ff4a-402b-845d-993d8ad47139","ios":"levelo://app?vid=913ad8d8-ff4a-402b-845d-993d8ad47139"},"vehicle_type_id":"4","last_reported":1692115684,"current_range_meters":5200,"station_id":"ce4bhr12rcd13ifvqhqg","pricing_plan_id":"free"},{"bike_id":"40d61921-eefb-499e-ac11-2e37aa404bf1","system_id":"levelo_inurba_marseille","lat":43.32285,"lon":5.38257,"is_reserved":false,"is_disabled":false,"rental_uris":{"android":"levelo://app?vid=40d61921-eefb-499e-ac11-2e37aa404bf1","ios":"levelo://app?vid=40d61921-eefb-499e-ac11-2e37aa404bf1"},"vehicle_type_id":"4","last_reported":1692115684,"current_range_meters":9600,"station_id":"ce4bhr12rcd13ifvqhqg","pricing_plan_id":"free"},{"bike_id":"be2dbf05-e75a-434c-8474-c4fc485123e4","system_id":"levelo_inurba_marseille","lat":43.32286,"lon":5.38263,"is_reserved":false,"is_disabled":false,"rental_uris":{"android":"levelo://app?vid=be2dbf05-e75a-434c-8474-c4fc485123e4","ios":"levelo://app?vid=be2dbf05-e75a-434c-8474-c4fc485123e4"},"vehicle_type_id":"4","last_reported":1692115684,"current_range_meters":10400,"station_id":"ce4bhr12rcd13ifvqhqg","pricing_plan_id":"free"},{"bike_id":"63c7f395-d84e-4403-8b6b-575626818765","system_id":"levelo_inurba_marseille","lat":43.32284,"lon":5.38267,"is_reserved":false,"is_disabled":false,"rental_uris":{"android":"levelo://app?vid=63c7f395-d84e-4403-8b6b-575626818765","ios":"levelo://app?vid=63c7f395-d84e-4403-8b6b-575626818765"},"vehicle_type_id":"4","last_reported":1692115684,"current_range_meters":21200,"station_id":"ce4bhr12rcd13ifvqhqg","pricing_plan_id":"free"},{"bike_id":"3ac0c980-67b3-4d0d-a3ee-94fb8b23a341","system_id":"levelo_inurba_marseille","lat":43.31439,"lon":5.3878,"is_reserved":false,"is_disabled":false,"rental_uris":{"android":"levelo://app?vid=3ac0c980-67b3-4d0d-a3ee-94fb8b23a341","ios":"levelo://app?vid=3ac0c980-67b3-4d0d-a3ee-94fb8b23a341"},"vehicle_type_id":"4","last_reported":1692115684,"current_range_meters":19200,"station_id":"","pricing_plan_id":"free"},{"bike_id":"1bf667cf-3514-4a07-b0cc-6779ab8ce747","system_id":"levelo_inurba_marseille","lat":43.322872,"lon":5.382756,"is_reserved":false,"is_disabled":false,"rental_uris":{"android":"levelo://app?vid=1bf667cf-3514-4a07-b0cc-6779ab8ce747","ios":"levelo://app?vid=1bf667cf-3514-4a07-b0cc-6779ab8ce747"},"vehicle_type_id":"4","last_reported":1692115684,"current_range_meters":20000,"station_id":"ce4bhr12rcd13ifvqhqg","pricing_plan_id":"free"},{"bike_id":"0920391e-69e3-4df2-b622-a24af4e50927","system_id":"levelo_inurba_marseille","lat":43.32289,"lon":5.38266,"is_reserved":false,"is_disabled":false,"rental_uris":{"android":"levelo://app?vid=0920391e-69e3-4df2-b622-a24af4e50927","ios":"levelo://app?vid=0920391e-69e3-4df2-b622-a24af4e50927"},"vehicle_type_id":"4","last_reported":1692115684,"current_range_meters":11600,"station_id":"ce4bhr12rcd13ifvqhqg","pricing_plan_id":"free"},{"bike_id":"bded37d9-fa3d-4a53-adec-d8a907c4aaf0","system_id":"levelo_inurba_marseille","lat":43.32291,"lon":5.38266,"is_reserved":false,"is_disabled":false,"rental_uris":{"android":"levelo://app?vid=bded37d9-fa3d-4a53-adec-d8a907c4aaf0","ios":"levelo://app?vid=bded37d9-fa3d-4a53-adec-d8a907c4aaf0"},"vehicle_type_id":"4","last_reported":1692115684,"current_range_meters":30000,"station_id":"ce4bhr12rcd13ifvqhqg","pricing_plan_id":"free"},{"bike_id":"1736c7ba-8528-4e9d-b0b7-74e427fcc3c4","system_id":"levelo_inurba_marseille","lat":43.32827,"lon":5.3668,"is_reserved":false,"is_disabled":false,"rental_uris":{"android":"levelo://app?vid=1736c7ba-8528-4e9d-b0b7-74e427fcc3c4","ios":"levelo://app?vid=1736c7ba-8528-4e9d-b0b7-74e427fcc3c4"},"vehicle_type_id":"4","last_reported":1692115684,"current_range_meters":14800,"station_id":"ce4bhs92rcd13ifvqi0g","pricing_plan_id":"free"},{"bike_id":"7a379839-87fc-4106-aec0-245d7b5a467b","system_id":"levelo_inurba_marseille","lat":43.328371,"lon":5.366909,"is_reserved":false,"is_disabled":false,"rental_uris":{"android":"levelo://app?vid=7a379839-87fc-4106-aec0-245d7b5a467b","ios":"levelo://app?vid=7a379839-87fc-4106-aec0-245d7b5a467b"},"vehicle_type_id":"4","last_reported":1692115684,"current_range_meters":19200,"station_id":"ce4bhs92rcd13ifvqi0g","pricing_plan_id":"free"},{"bike_id":"4ed96fad-2e51-49a2-879d-e8c05ef80263","system_id":"levelo_inurba_marseille","lat":43.328371,"lon":5.366909,"is_reserved":false,"is_disabled":false,"rental_uris":{"android":"levelo://app?vid=4ed96fad-2e51-49a2-879d-e8c05ef80263","ios":"levelo://app?vid=4ed96fad-2e51-49a2-879d-e8c05ef80263"},"vehicle_type_id":"4","last_reported":1692115684,"current_range_meters":20000,"station_id":"ce4bhs92rcd13ifvqi0g","pricing_plan_id":"free"},{"bike_id":"d2511d9c-66f0-4f3a-8e27-f68c39f7e2cf","system_id":"levelo_inurba_marseille","lat":43.328339,"lon":5.366944,"is_reserved":false,"is_disabled":false,"rental_uris":{"android":"levelo://app?vid=d2511d9c-66f0-4f3a-8e27-f68c39f7e2cf","ios":"levelo://app?vid=d2511d9c-66f0-4f3a-8e27-f68c39f7e2cf"},"vehicle_type_id":"4","last_reported":1692115684,"current_range_meters":14400,"station_id":"ce4bhs92rcd13ifvqi0g","pricing_plan_id":"free"},{"bike_id":"abb3896d-ca58-45ff-a89e-ab8eb116ac4d","system_id":"levelo_inurba_marseille","lat":43.328371,"lon":5.366909,"is_reserved":false,"is_disabled":false,"rental_uris":{"android":"levelo://app?vid=abb3896d-ca58-45ff-a89e-ab8eb116ac4d","ios":"levelo://app?vid=abb3896d-ca58-45ff-a89e-ab8eb116ac4d"},"vehicle_type_id":"4","last_reported":1692115684,"current_range_meters":17600,"station_id":"ce4bhs92rcd13ifvqi0g","pricing_plan_id":"free"},{"bike_id":"df80a436-77c5-45a5-bc80-336a70ffbd1b","system_id":"levelo_inurba_marseille","lat":43.32835,"lon":5.3668,"is_reserved":false,"is_disabled":false,"rental_uris":{"android":"levelo://app?vid=df80a436-77c5-45a5-bc80-336a70ffbd1b","ios":"levelo://app?vid=df80a436-77c5-45a5-bc80-336a70ffbd1b"},"vehicle_type_id":"4","last_reported":1692115684,"current_range_meters":20400,"station_id":"ce4bhs92rcd13ifvqi0g","pricing_plan_id":"free"},{"bike_id":"dd789220-e7b5-42c1-b9dc-dc4243148021","system_id":"levelo_inurba_marseille","lat":43.297163,"lon":5.365866,"is_reserved":false,"is_disabled":false,"rental_uris":{"android":"levelo://app?vid=dd789220-e7b5-42c1-b9dc-dc4243148021","ios":"levelo://app?vid=dd789220-e7b5-42c1-b9dc-dc4243148021"},"vehicle_type_id":"4","last_reported":1692115684,"current_range_meters":31200,"station_id":"ce4bgn12rcd13ifvqbt0","pricing_plan_id":"free"},{"bike_id":"0c16fd08-1d8d-44ab-8fd3-7ffb6e7e61a0","system_id":"levelo_inurba_marseille","lat":43.296131,"lon":5.370791,"is_reserved":false,"is_disabled":false,"rental_uris":{"android":"levelo://app?vid=0c16fd08-1d8d-44ab-8fd3-7ffb6e7e61a0","ios":"levelo://app?vid=0c16fd08-1d8d-44ab-8fd3-7ffb6e7e61a0"},"vehicle_type_id":"4","last_reported":1692115684,"current_range_meters":31200,"station_id":"ce4bgnh2rcd13ifvqc0g","pricing_plan_id":"free"},{"bike_id":"43fa6f82-fddc-49af-9bf4-97805443d243","system_id":"levelo_inurba_marseille","lat":43.296129,"lon":5.370777,"is_reserved":false,"is_disabled":false,"rental_uris":{"android":"levelo://app?vid=43fa6f82-fddc-49af-9bf4-97805443d243","ios":"levelo://app?vid=43fa6f82-fddc-49af-9bf4-97805443d243"},"vehicle_type_id":"4","last_reported":1692115684,"current_range_meters":18800,"station_id":"ce4bgnh2rcd13ifvqc0g","pricing_plan_id":"free"},{"bike_id":"88958a21-e11d-4056-a732-93b310f860e2","system_id":"levelo_inurba_marseille","lat":43.29573,"lon":5.367355,"is_reserved":false,"is_disabled":false,"rental_uris":{"android":"levelo://app?vid=88958a21-e11d-4056-a732-93b310f860e2","ios":"levelo://app?vid=88958a21-e11d-4056-a732-93b310f860e2"},"vehicle_type_id":"4","last_reported":1692115684,"current_range_meters":9200,"station_id":"ce4bgph2rcd13ifvqc2g","pricing_plan_id":"free"},{"bike_id":"49fccb06-1a40-4730-a8cf-125d52ad0371","system_id":"levelo_inurba_marseille","lat":43.296921,"lon":5.376579,"is_reserved":false,"is_disabled":false,"rental_uris":{"android":"levelo://app?vid=49fccb06-1a40-4730-a8cf-125d52ad0371","ios":"levelo://app?vid=49fccb06-1a40-4730-a8cf-125d52ad0371"},"vehicle_type_id":"4","last_reported":1692115684,"current_range_meters":20000,"station_id":"ce4bgkh2rcd13ifvqbl0","pricing_plan_id":"free"},{"bike_id":"26835be8-39d1-42eb-903d-979775c8eda2","system_id":"levelo_inurba_marseille","lat":43.309589,"lon":5.390258,"is_reserved":false,"is_disabled":false,"rental_uris":{"android":"levelo://app?vid=26835be8-39d1-42eb-903d-979775c8eda2","ios":"levelo://app?vid=26835be8-39d1-42eb-903d-979775c8eda2"},"vehicle_type_id":"4","last_reported":1692115684,"current_range_meters":12800,"station_id":"ce4bgup2rcd13ifvqco0","pricing_plan_id":"free"},{"bike_id":"a4df99ce-0488-49dd-a888-94686f562e88","system_id":"levelo_inurba_marseille","lat":43.295748,"lon":5.37522,"is_reserved":false,"is_disabled":false,"rental_uris":{"android":"levelo://app?vid=a4df99ce-0488-49dd-a888-94686f562e88","ios":"levelo://app?vid=a4df99ce-0488-49dd-a888-94686f562e88"},"vehicle_type_id":"4","last_reported":1692115684,"current_range_meters":31200,"station_id":"ce4bgh92rcd13ifvqb50","pricing_plan_id":"free"},{"bike_id":"7f44e1de-c59a-4cd8-ae69-44db8ce96f97","system_id":"levelo_inurba_marseille","lat":43.296263,"lon":5.377094,"is_reserved":false,"is_disabled":false,"rental_uris":{"android":"levelo://app?vid=7f44e1de-c59a-4cd8-ae69-44db8ce96f97","ios":"levelo://app?vid=7f44e1de-c59a-4cd8-ae69-44db8ce96f97"},"vehicle_type_id":"4","last_reported":1692115684,"current_range_meters":27200,"station_id":"ce4bgi92rcd13ifvqb90","pricing_plan_id":"free"},{"bike_id":"7dcba47a-f22c-48d1-aa6a-c9b747198d64","system_id":"levelo_inurba_marseille","lat":43.299717,"lon":5.384845,"is_reserved":false,"is_disabled":false,"rental_uris":{"android":"levelo://app?vid=7dcba47a-f22c-48d1-aa6a-c9b747198d64","ios":"levelo://app?vid=7dcba47a-f22c-48d1-aa6a-c9b747198d64"},"vehicle_type_id":"4","last_reported":1692115684,"current_range_meters":28800,"station_id":"ce4bgj92rcd13ifvqbd0","pricing_plan_id":"free"},{"bike_id":"b9ddddba-5d81-4f05-8099-c0253cd104e2","system_id":"levelo_inurba_marseille","lat":43.299717,"lon":5.384845,"is_reserved":false,"is_disabled":false,"rental_uris":{"android":"levelo://app?vid=b9ddddba-5d81-4f05-8099-c0253cd104e2","ios":"levelo://app?vid=b9ddddba-5d81-4f05-8099-c0253cd104e2"},"vehicle_type_id":"4","last_reported":1692115684,"current_range_meters":8000,"station_id":"ce4bgj92rcd13ifvqbd0","pricing_plan_id":"free"},{"bike_id":"143a2c9e-f5da-45fa-9e3b-b6194950a539","system_id":"levelo_inurba_marseille","lat":43.299724,"lon":5.384848,"is_reserved":false,"is_disabled":false,"rental_uris":{"android":"levelo://app?vid=143a2c9e-f5da-45fa-9e3b-b6194950a539","ios":"levelo://app?vid=143a2c9e-f5da-45fa-9e3b-b6194950a539"},"vehicle_type_id":"4","last_reported":1692115684,"current_range_meters":800,"station_id":"ce4bgj92rcd13ifvqbd0","pricing_plan_id":"free"},{"bike_id":"247d114d-7749-4c55-bde3-a341dbbd1415","system_id":"levelo_inurba_marseille","lat":43.32367,"lon":5.38874,"is_reserved":false,"is_disabled":false,"rental_uris":{"android":"levelo://app?vid=247d114d-7749-4c55-bde3-a341dbbd1415","ios":"levelo://app?vid=247d114d-7749-4c55-bde3-a341dbbd1415"},"vehicle_type_id":"4","last_reported":1692115684,"current_range_meters":14400,"station_id":"ce4bhqp2rcd13ifvqhog","pricing_plan_id":"free"},{"bike_id":"54e179c0-5fa9-4b15-938f-a2eb26acc70c","system_id":"levelo_inurba_marseille","lat":43.29602,"lon":5.381084,"is_reserved":false,"is_disabled":false,"rental_uris":{"android":"levelo://app?vid=54e179c0-5fa9-4b15-938f-a2eb26acc70c","ios":"levelo://app?vid=54e179c0-5fa9-4b15-938f-a2eb26acc70c"},"vehicle_type_id":"4","last_reported":1692115684,"current_range_meters":16400,"station_id":"ce4bgl12rcd13ifvqbo0","pricing_plan_id":"free"},{"bike_id":"a51dbb53-4511-4998-8c22-4c879a043f32","system_id":"levelo_inurba_marseille","lat":43.29371,"lon":5.36033,"is_reserved":false,"is_disabled":false,"rental_uris":{"android":"levelo://app?vid=a51dbb53-4511-4998-8c22-4c879a043f32","ios":"levelo://app?vid=a51dbb53-4511-4998-8c22-4c879a043f32"},"vehicle_type_id":"4","last_reported":1692115684,"current_range_meters":20000,"station_id":"","pricing_plan_id":"free"},{"bike_id":"b8b15be7-6f99-4ecc-84d7-d7a43ab70607","system_id":"levelo_inurba_marseille","lat":43.292749,"lon":5.368402,"is_reserved":false,"is_disabled":false,"rental_uris":{"android":"levelo://app?vid=b8b15be7-6f99-4ecc-84d7-d7a43ab70607","ios":"levelo://app?vid=b8b15be7-6f99-4ecc-84d7-d7a43ab70607"},"vehicle_type_id":"4","last_reported":1692115684,"current_range_meters":26000,"station_id":"ce4bhbp2rcd13ifvqesg","pricing_plan_id":"free"},{"bike_id":"31a30556-33d1-416d-b6c2-35d73d512818","system_id":"levelo_inurba_marseille","lat":43.292749,"lon":5.368398,"is_reserved":false,"is_disabled":false,"rental_uris":{"android":"levelo://app?vid=31a30556-33d1-416d-b6c2-35d73d512818","ios":"levelo://app?vid=31a30556-33d1-416d-b6c2-35d73d512818"},"vehicle_type_id":"4","last_reported":1692115684,"current_range_meters":18000,"station_id":"ce4bhbp2rcd13ifvqesg","pricing_plan_id":"free"},{"bike_id":"dbe406a0-e31d-4174-932b-0d8d584d17c2","system_id":"levelo_inurba_marseille","lat":43.292749,"lon":5.368398,"is_reserved":false,"is_disabled":false,"rental_uris":{"android":"levelo://app?vid=dbe406a0-e31d-4174-932b-0d8d584d17c2","ios":"levelo://app?vid=dbe406a0-e31d-4174-932b-0d8d584d17c2"},"vehicle_type_id":"4","last_reported":1692115684,"current_range_meters":30400,"station_id":"ce4bhbp2rcd13ifvqesg","pricing_plan_id":"free"},{"bike_id":"c090b019-0e91-4947-bedf-5edc264f3da5","system_id":"levelo_inurba_marseille","lat":43.305994,"lon":5.393687,"is_reserved":false,"is_disabled":false,"rental_uris":{"android":"levelo://app?vid=c090b019-0e91-4947-bedf-5edc264f3da5","ios":"levelo://app?vid=c090b019-0e91-4947-bedf-5edc264f3da5"},"vehicle_type_id":"4","last_reported":1692115684,"current_range_meters":4800,"station_id":"ce4bh0p2rcd13ifvqd80","pricing_plan_id":"free"},{"bike_id":"412092d6-28c0-47bb-aa0f-2f5dccd1986d","system_id":"levelo_inurba_marseille","lat":43.305994,"lon":5.393687,"is_reserved":false,"is_disabled":false,"rental_uris":{"android":"levelo://app?vid=412092d6-28c0-47bb-aa0f-2f5dccd1986d","ios":"levelo://app?vid=412092d6-28c0-47bb-aa0f-2f5dccd1986d"},"vehicle_type_id":"4","last_reported":1692115684,"current_range_meters":19200,"station_id":"ce4bh0p2rcd13ifvqd80","pricing_plan_id":"free"},{"bike_id":"4cdcbe42-42d4-4ed3-824d-15bea880f95d","system_id":"levelo_inurba_marseille","lat":43.305994,"lon":5.393687,"is_reserved":false,"is_disabled":false,"rental_uris":{"android":"levelo://app?vid=4cdcbe42-42d4-4ed3-824d-15bea880f95d","ios":"levelo://app?vid=4cdcbe42-42d4-4ed3-824d-15bea880f95d"},"vehicle_type_id":"4","last_reported":1692115684,"current_range_meters":26400,"station_id":"ce4bh0p2rcd13ifvqd80","pricing_plan_id":"free"},{"bike_id":"6f3419d7-4455-4574-b68c-4779bc23027a","system_id":"levelo_inurba_marseille","lat":43.2936,"lon":5.37835,"is_reserved":false,"is_disabled":false,"rental_uris":{"android":"levelo://app?vid=6f3419d7-4455-4574-b68c-4779bc23027a","ios":"levelo://app?vid=6f3419d7-4455-4574-b68c-4779bc23027a"},"vehicle_type_id":"4","last_reported":1692115684,"current_range_meters":10400,"station_id":"ce4bgjh2rcd13ifvqbf0","pricing_plan_id":"free"},{"bike_id":"c73d3341-4ebd-4d8b-8416-b6dd52a6c70c","system_id":"levelo_inurba_marseille","lat":43.2936,"lon":5.37835,"is_reserved":false,"is_disabled":false,"rental_uris":{"android":"levelo://app?vid=c73d3341-4ebd-4d8b-8416-b6dd52a6c70c","ios":"levelo://app?vid=c73d3341-4ebd-4d8b-8416-b6dd52a6c70c"},"vehicle_type_id":"4","last_reported":1692115684,"current_range_meters":12400,"station_id":"ce4bgjh2rcd13ifvqbf0","pricing_plan_id":"free"},{"bike_id":"0c4dc26a-a60a-43aa-836e-b6a5579db430","system_id":"levelo_inurba_marseille","lat":43.292663,"lon":5.376389,"is_reserved":false,"is_disabled":false,"rental_uris":{"android":"levelo://app?vid=0c4dc26a-a60a-43aa-836e-b6a5579db430","ios":"levelo://app?vid=0c4dc26a-a60a-43aa-836e-b6a5579db430"},"vehicle_type_id":"4","last_reported":1692115684,"current_range_meters":27600,"station_id":"ce4bgi12rcd13ifvqb80","pricing_plan_id":"free"},{"bike_id":"50acecfb-8a3c-4377-b2cd-84c3d1b225d2","system_id":"levelo_inurba_marseille","lat":43.292663,"lon":5.376389,"is_reserved":false,"is_disabled":false,"rental_uris":{"android":"levelo://app?vid=50acecfb-8a3c-4377-b2cd-84c3d1b225d2","ios":"levelo://app?vid=50acecfb-8a3c-4377-b2cd-84c3d1b225d2"},"vehicle_type_id":"4","last_reported":1692115684,"current_range_meters":31200,"station_id":"ce4bgi12rcd13ifvqb80","pricing_plan_id":"free"},{"bike_id":"c98de8b1-08ce-46ef-a476-3b22f66e9200","system_id":"levelo_inurba_marseille","lat":43.29529,"lon":5.385581,"is_reserved":false,"is_disabled":false,"rental_uris":{"android":"levelo://app?vid=c98de8b1-08ce-46ef-a476-3b22f66e9200","ios":"levelo://app?vid=c98de8b1-08ce-46ef-a476-3b22f66e9200"},"vehicle_type_id":"4","last_reported":1692115684,"current_range_meters":25600,"station_id":"ce4bgih2rcd13ifvqba0","pricing_plan_id":"free"},{"bike_id":"8009d44a-29b5-4d8b-959d-8c4fc87abf8c","system_id":"levelo_inurba_marseille","lat":43.29529,"lon":5.385581,"is_reserved":false,"is_disabled":false,"rental_uris":{"android":"levelo://app?vid=8009d44a-29b5-4d8b-959d-8c4fc87abf8c","ios":"levelo://app?vid=8009d44a-29b5-4d8b-959d-8c4fc87abf8c"},"vehicle_type_id":"4","last_reported":1692115684,"current_range_meters":9600,"station_id":"ce4bgih2rcd13ifvqba0","pricing_plan_id":"free"},{"bike_id":"709068d8-4ecd-4cf9-a812-cd1faf45cde5","system_id":"levelo_inurba_marseille","lat":43.294153,"lon":5.386305,"is_reserved":false,"is_disabled":false,"rental_uris":{"android":"levelo://app?vid=709068d8-4ecd-4cf9-a812-cd1faf45cde5","ios":"levelo://app?vid=709068d8-4ecd-4cf9-a812-cd1faf45cde5"},"vehicle_type_id":"4","last_reported":1692115684,"current_range_meters":15200,"station_id":"ce4bh2h2rcd13ifvqdh0","pricing_plan_id":"free"},{"bike_id":"7ade582f-d95f-463d-a07c-a5e1bad1989d","system_id":"levelo_inurba_marseille","lat":43.294153,"lon":5.386305,"is_reserved":false,"is_disabled":false,"rental_uris":{"android":"levelo://app?vid=7ade582f-d95f-463d-a07c-a5e1bad1989d","ios":"levelo://app?vid=7ade582f-d95f-463d-a07c-a5e1bad1989d"},"vehicle_type_id":"4","last_reported":1692115684,"current_range_meters":0,"station_id":"ce4bh2h2rcd13ifvqdh0","pricing_plan_id":"free"},{"bike_id":"79fac3ae-5db8-4de7-a2d5-5c5a5c9116f7","system_id":"levelo_inurba_marseille","lat":43.294153,"lon":5.386305,"is_reserved":false,"is_disabled":false,"rental_uris":{"android":"levelo://app?vid=79fac3ae-5db8-4de7-a2d5-5c5a5c9116f7","ios":"levelo://app?vid=79fac3ae-5db8-4de7-a2d5-5c5a5c9116f7"},"vehicle_type_id":"4","last_reported":1692115684,"current_range_meters":9200,"station_id":"ce4bh2h2rcd13ifvqdh0","pricing_plan_id":"free"},{"bike_id":"d254e111-550b-4ff3-8ccf-04874bc6646e","system_id":"levelo_inurba_marseille","lat":43.3051,"lon":5.39782,"is_reserved":false,"is_disabled":false,"rental_uris":{"android":"levelo://app?vid=d254e111-550b-4ff3-8ccf-04874bc6646e","ios":"levelo://app?vid=d254e111-550b-4ff3-8ccf-04874bc6646e"},"vehicle_type_id":"4","last_reported":1692115684,"current_range_meters":15200,"station_id":"","pricing_plan_id":"free"},{"bike_id":"028fb4aa-8c07-45e9-9bfd-7437a4e9f2a2","system_id":"levelo_inurba_marseille","lat":43.292644,"lon":5.384257,"is_reserved":false,"is_disabled":false,"rental_uris":{"android":"levelo://app?vid=028fb4aa-8c07-45e9-9bfd-7437a4e9f2a2","ios":"levelo://app?vid=028fb4aa-8c07-45e9-9bfd-7437a4e9f2a2"},"vehicle_type_id":"4","last_reported":1692115684,"current_range_meters":0,"station_id":"ce4bh692rcd13ifvqea0","pricing_plan_id":"free"},{"bike_id":"b9f5c996-3b4c-41f7-b407-dfcc43de8253","system_id":"levelo_inurba_marseille","lat":43.304274,"lon":5.397513,"is_reserved":false,"is_disabled":false,"rental_uris":{"android":"levelo://app?vid=b9f5c996-3b4c-41f7-b407-dfcc43de8253","ios":"levelo://app?vid=b9f5c996-3b4c-41f7-b407-dfcc43de8253"},"vehicle_type_id":"4","last_reported":1692115684,"current_range_meters":22800,"station_id":"ce4bh092rcd13ifvqd20","pricing_plan_id":"free"},{"bike_id":"69c23820-b8c4-4b33-a6c2-28beb4ed1d2a","system_id":"levelo_inurba_marseille","lat":43.330357,"lon":5.38912,"is_reserved":false,"is_disabled":false,"rental_uris":{"android":"levelo://app?vid=69c23820-b8c4-4b33-a6c2-28beb4ed1d2a","ios":"levelo://app?vid=69c23820-b8c4-4b33-a6c2-28beb4ed1d2a"},"vehicle_type_id":"4","last_reported":1692115684,"current_range_meters":1600,"station_id":"","pricing_plan_id":"free"},{"bike_id":"8ae0ce58-4162-4719-947c-e47cc63be26c","system_id":"levelo_inurba_marseille","lat":43.3304,"lon":5.38917,"is_reserved":false,"is_disabled":false,"rental_uris":{"android":"levelo://app?vid=8ae0ce58-4162-4719-947c-e47cc63be26c","ios":"levelo://app?vid=8ae0ce58-4162-4719-947c-e47cc63be26c"},"vehicle_type_id":"4","last_reported":1692115684,"current_range_meters":16400,"station_id":"ce4bhr92rcd13ifvqhrg","pricing_plan_id":"free"},{"bike_id":"02ced31f-1e5c-4259-bcbb-7d72045bc13c","system_id":"levelo_inurba_marseille","lat":43.33042,"lon":5.38917,"is_reserved":false,"is_disabled":false,"rental_uris":{"android":"levelo://app?vid=02ced31f-1e5c-4259-bcbb-7d72045bc13c","ios":"levelo://app?vid=02ced31f-1e5c-4259-bcbb-7d72045bc13c"},"vehicle_type_id":"4","last_reported":1692115684,"current_range_meters":30400,"station_id":"ce4bhr92rcd13ifvqhrg","pricing_plan_id":"free"},{"bike_id":"e184d9f0-8163-4a17-b3ea-e9518599abc7","system_id":"levelo_inurba_marseille","lat":43.33042,"lon":5.38917,"is_reserved":false,"is_disabled":false,"rental_uris":{"android":"levelo://app?vid=e184d9f0-8163-4a17-b3ea-e9518599abc7","ios":"levelo://app?vid=e184d9f0-8163-4a17-b3ea-e9518599abc7"},"vehicle_type_id":"4","last_reported":1692115684,"current_range_meters":30400,"station_id":"ce4bhr92rcd13ifvqhrg","pricing_plan_id":"free"},{"bike_id":"859ece1b-eaf2-4429-915d-1d151e169e7f","system_id":"levelo_inurba_marseille","lat":43.33044,"lon":5.38914,"is_reserved":false,"is_disabled":false,"rental_uris":{"android":"levelo://app?vid=859ece1b-eaf2-4429-915d-1d151e169e7f","ios":"levelo://app?vid=859ece1b-eaf2-4429-915d-1d151e169e7f"},"vehicle_type_id":"4","last_reported":1692115684,"current_range_meters":23600,"station_id":"ce4bhr92rcd13ifvqhrg","pricing_plan_id":"free"},{"bike_id":"e77b24cb-b125-4747-a456-3f996451e289","system_id":"levelo_inurba_marseille","lat":43.33044,"lon":5.38915,"is_reserved":false,"is_disabled":false,"rental_uris":{"android":"levelo://app?vid=e77b24cb-b125-4747-a456-3f996451e289","ios":"levelo://app?vid=e77b24cb-b125-4747-a456-3f996451e289"},"vehicle_type_id":"4","last_reported":1692115684,"current_range_meters":30400,"station_id":"ce4bhr92rcd13ifvqhrg","pricing_plan_id":"free"},{"bike_id":"01bb66e8-6fc1-4982-b9b2-af4dae23e37f","system_id":"levelo_inurba_marseille","lat":43.33044,"lon":5.38916,"is_reserved":false,"is_disabled":false,"rental_uris":{"android":"levelo://app?vid=01bb66e8-6fc1-4982-b9b2-af4dae23e37f","ios":"levelo://app?vid=01bb66e8-6fc1-4982-b9b2-af4dae23e37f"},"vehicle_type_id":"4","last_reported":1692115684,"current_range_meters":28400,"station_id":"ce4bhr92rcd13ifvqhrg","pricing_plan_id":"free"},{"bike_id":"96ead541-9c33-4112-927f-93c74ea92183","system_id":"levelo_inurba_marseille","lat":43.33044,"lon":5.38917,"is_reserved":false,"is_disabled":false,"rental_uris":{"android":"levelo://app?vid=96ead541-9c33-4112-927f-93c74ea92183","ios":"levelo://app?vid=96ead541-9c33-4112-927f-93c74ea92183"},"vehicle_type_id":"4","last_reported":1692115684,"current_range_meters":12400,"station_id":"ce4bhr92rcd13ifvqhrg","pricing_plan_id":"free"},{"bike_id":"569fb482-04ac-449f-b013-337617dfb7a0","system_id":"levelo_inurba_marseille","lat":43.33044,"lon":5.3892,"is_reserved":false,"is_disabled":false,"rental_uris":{"android":"levelo://app?vid=569fb482-04ac-449f-b013-337617dfb7a0","ios":"levelo://app?vid=569fb482-04ac-449f-b013-337617dfb7a0"},"vehicle_type_id":"4","last_reported":1692115684,"current_range_meters":26000,"station_id":"ce4bhr92rcd13ifvqhrg","pricing_plan_id":"free"},{"bike_id":"be005e4f-d207-40fd-bd99-241d744b2797","system_id":"levelo_inurba_marseille","lat":43.33043,"lon":5.38922,"is_reserved":false,"is_disabled":false,"rental_uris":{"android":"levelo://app?vid=be005e4f-d207-40fd-bd99-241d744b2797","ios":"levelo://app?vid=be005e4f-d207-40fd-bd99-241d744b2797"},"vehicle_type_id":"4","last_reported":1692115684,"current_range_meters":20400,"station_id":"ce4bhr92rcd13ifvqhrg","pricing_plan_id":"free"},{"bike_id":"d5578a77-3302-4d8a-ae9c-7edceb0f071e","system_id":"levelo_inurba_marseille","lat":43.33042,"lon":5.38924,"is_reserved":false,"is_disabled":false,"rental_uris":{"android":"levelo://app?vid=d5578a77-3302-4d8a-ae9c-7edceb0f071e","ios":"levelo://app?vid=d5578a77-3302-4d8a-ae9c-7edceb0f071e"},"vehicle_type_id":"4","last_reported":1692115684,"current_range_meters":30000,"station_id":"ce4bhr92rcd13ifvqhrg","pricing_plan_id":"free"},{"bike_id":"78f1a325-e5b4-4a72-bb0e-b29d3285ba24","system_id":"levelo_inurba_marseille","lat":43.290103,"lon":5.356114,"is_reserved":false,"is_disabled":false,"rental_uris":{"android":"levelo://app?vid=78f1a325-e5b4-4a72-bb0e-b29d3285ba24","ios":"levelo://app?vid=78f1a325-e5b4-4a72-bb0e-b29d3285ba24"},"vehicle_type_id":"4","last_reported":1692115684,"current_range_meters":31200,"station_id":"ce4bhb92rcd13ifvqen0","pricing_plan_id":"free"},{"bike_id":"b96bbb57-3258-4588-9024-6a26d980d6fa","system_id":"levelo_inurba_marseille","lat":43.2901,"lon":5.381269,"is_reserved":false,"is_disabled":false,"rental_uris":{"android":"levelo://app?vid=b96bbb57-3258-4588-9024-6a26d980d6fa","ios":"levelo://app?vid=b96bbb57-3258-4588-9024-6a26d980d6fa"},"vehicle_type_id":"4","last_reported":1692115684,"current_range_meters":12800,"station_id":"ce4bh4p2rcd13ifvqe1g","pricing_plan_id":"free"},{"bike_id":"f36c1d0b-464d-48b1-a398-ff7bf3e78720","system_id":"levelo_inurba_marseille","lat":43.28856,"lon":5.358371,"is_reserved":false,"is_disabled":false,"rental_uris":{"android":"levelo://app?vid=f36c1d0b-464d-48b1-a398-ff7bf3e78720","ios":"levelo://app?vid=f36c1d0b-464d-48b1-a398-ff7bf3e78720"},"vehicle_type_id":"4","last_reported":1692115684,"current_range_meters":1600,"station_id":"ce4bhb12rcd13ifvqem0","pricing_plan_id":"free"},{"bike_id":"37b0883b-38e9-4378-93f9-ef565117d614","system_id":"levelo_inurba_marseille","lat":43.312609,"lon":5.401662,"is_reserved":false,"is_disabled":false,"rental_uris":{"android":"levelo://app?vid=37b0883b-38e9-4378-93f9-ef565117d614","ios":"levelo://app?vid=37b0883b-38e9-4378-93f9-ef565117d614"},"vehicle_type_id":"4","last_reported":1692115684,"current_range_meters":26400,"station_id":"ce4bh092rcd13ifvqd30","pricing_plan_id":"free"},{"bike_id":"0f055d46-3134-4b5b-a8fc-76e82a3e4fd9","system_id":"levelo_inurba_marseille","lat":43.31277,"lon":5.40167,"is_reserved":false,"is_disabled":false,"rental_uris":{"android":"levelo://app?vid=0f055d46-3134-4b5b-a8fc-76e82a3e4fd9","ios":"levelo://app?vid=0f055d46-3134-4b5b-a8fc-76e82a3e4fd9"},"vehicle_type_id":"4","last_reported":1692115684,"current_range_meters":800,"station_id":"ce4bh092rcd13ifvqd30","pricing_plan_id":"free"},{"bike_id":"2d640c12-f9ad-426c-9fef-d9f793d0058f","system_id":"levelo_inurba_marseille","lat":43.30641,"lon":5.40093,"is_reserved":false,"is_disabled":false,"rental_uris":{"android":"levelo://app?vid=2d640c12-f9ad-426c-9fef-d9f793d0058f","ios":"levelo://app?vid=2d640c12-f9ad-426c-9fef-d9f793d0058f"},"vehicle_type_id":"4","last_reported":1692115684,"current_range_meters":22000,"station_id":"ce4bh112rcd13ifvqda0","pricing_plan_id":"free"},{"bike_id":"42962827-7663-46d4-a4e3-093f300728ec","system_id":"levelo_inurba_marseille","lat":43.286961,"lon":5.373785,"is_reserved":false,"is_disabled":false,"rental_uris":{"android":"levelo://app?vid=42962827-7663-46d4-a4e3-093f300728ec","ios":"levelo://app?vid=42962827-7663-46d4-a4e3-093f300728ec"},"vehicle_type_id":"4","last_reported":1692115684,"current_range_meters":19200,"station_id":"ce4bh3p2rcd13ifvqdq0","pricing_plan_id":"free"},{"bike_id":"c1c0789d-ae27-499a-ba9c-637054cb3dd6","system_id":"levelo_inurba_marseille","lat":43.286961,"lon":5.373785,"is_reserved":false,"is_disabled":false,"rental_uris":{"android":"levelo://app?vid=c1c0789d-ae27-499a-ba9c-637054cb3dd6","ios":"levelo://app?vid=c1c0789d-ae27-499a-ba9c-637054cb3dd6"},"vehicle_type_id":"4","last_reported":1692115684,"current_range_meters":12400,"station_id":"ce4bh3p2rcd13ifvqdq0","pricing_plan_id":"free"},{"bike_id":"75199276-b705-4ad7-b6a9-49aeaa84628a","system_id":"levelo_inurba_marseille","lat":43.286591,"lon":5.363346,"is_reserved":false,"is_disabled":false,"rental_uris":{"android":"levelo://app?vid=75199276-b705-4ad7-b6a9-49aeaa84628a","ios":"levelo://app?vid=75199276-b705-4ad7-b6a9-49aeaa84628a"},"vehicle_type_id":"4","last_reported":1692115684,"current_range_meters":31200,"station_id":"ce4bhah2rcd13ifvqej0","pricing_plan_id":"free"},{"bike_id":"f3e5d20c-ac1a-440c-bdba-f7b120ac6bd0","system_id":"levelo_inurba_marseille","lat":43.286961,"lon":5.373785,"is_reserved":false,"is_disabled":false,"rental_uris":{"android":"levelo://app?vid=f3e5d20c-ac1a-440c-bdba-f7b120ac6bd0","ios":"levelo://app?vid=f3e5d20c-ac1a-440c-bdba-f7b120ac6bd0"},"vehicle_type_id":"4","last_reported":1692115684,"current_range_meters":16000,"station_id":"ce4bh3p2rcd13ifvqdq0","pricing_plan_id":"free"},{"bike_id":"cc460bfa-eb82-4c54-8de5-40c91b33de22","system_id":"levelo_inurba_marseille","lat":43.286961,"lon":5.373785,"is_reserved":false,"is_disabled":false,"rental_uris":{"android":"levelo://app?vid=cc460bfa-eb82-4c54-8de5-40c91b33de22","ios":"levelo://app?vid=cc460bfa-eb82-4c54-8de5-40c91b33de22"},"vehicle_type_id":"4","last_reported":1692115684,"current_range_meters":10400,"station_id":"ce4bh3p2rcd13ifvqdq0","pricing_plan_id":"free"},{"bike_id":"985e87c2-fc8f-4bad-a719-89f743fd8786","system_id":"levelo_inurba_marseille","lat":43.286961,"lon":5.373785,"is_reserved":false,"is_disabled":false,"rental_uris":{"android":"levelo://app?vid=985e87c2-fc8f-4bad-a719-89f743fd8786","ios":"levelo://app?vid=985e87c2-fc8f-4bad-a719-89f743fd8786"},"vehicle_type_id":"4","last_reported":1692115684,"current_range_meters":11600,"station_id":"ce4bh3p2rcd13ifvqdq0","pricing_plan_id":"free"},{"bike_id":"b8ee739e-f26b-408f-b50e-95b38e400556","system_id":"levelo_inurba_marseille","lat":43.286961,"lon":5.373785,"is_reserved":false,"is_disabled":false,"rental_uris":{"android":"levelo://app?vid=b8ee739e-f26b-408f-b50e-95b38e400556","ios":"levelo://app?vid=b8ee739e-f26b-408f-b50e-95b38e400556"},"vehicle_type_id":"4","last_reported":1692115684,"current_range_meters":12000,"station_id":"ce4bh3p2rcd13ifvqdq0","pricing_plan_id":"free"},{"bike_id":"f35438a5-5314-466a-8045-37603481f7bb","system_id":"levelo_inurba_marseille","lat":43.302759,"lon":5.400793,"is_reserved":false,"is_disabled":false,"rental_uris":{"android":"levelo://app?vid=f35438a5-5314-466a-8045-37603481f7bb","ios":"levelo://app?vid=f35438a5-5314-466a-8045-37603481f7bb"},"vehicle_type_id":"4","last_reported":1692115684,"current_range_meters":3200,"station_id":"ce4bgvh2rcd13ifvqcs0","pricing_plan_id":"free"},{"bike_id":"e4591da9-6b54-4306-b592-fbf078a53cab","system_id":"levelo_inurba_marseille","lat":43.286039,"lon":5.370679,"is_reserved":false,"is_disabled":false,"rental_uris":{"android":"levelo://app?vid=e4591da9-6b54-4306-b592-fbf078a53cab","ios":"levelo://app?vid=e4591da9-6b54-4306-b592-fbf078a53cab"},"vehicle_type_id":"4","last_reported":1692115684,"current_range_meters":21600,"station_id":"ce4bht12rcd13ifvqi60","pricing_plan_id":"free"},{"bike_id":"fccc8891-1bc2-4013-b2a2-30682217fd44","system_id":"levelo_inurba_marseille","lat":43.302759,"lon":5.400793,"is_reserved":false,"is_disabled":false,"rental_uris":{"android":"levelo://app?vid=fccc8891-1bc2-4013-b2a2-30682217fd44","ios":"levelo://app?vid=fccc8891-1bc2-4013-b2a2-30682217fd44"},"vehicle_type_id":"4","last_reported":1692115684,"current_range_meters":24000,"station_id":"ce4bgvh2rcd13ifvqcs0","pricing_plan_id":"free"},{"bike_id":"aa915102-abf8-4cda-8093-18520ecb529a","system_id":"levelo_inurba_marseille","lat":43.286039,"lon":5.370681,"is_reserved":false,"is_disabled":false,"rental_uris":{"android":"levelo://app?vid=aa915102-abf8-4cda-8093-18520ecb529a","ios":"levelo://app?vid=aa915102-abf8-4cda-8093-18520ecb529a"},"vehicle_type_id":"4","last_reported":1692115684,"current_range_meters":24400,"station_id":"ce4bht12rcd13ifvqi60","pricing_plan_id":"free"},{"bike_id":"9795c908-8eb6-4ddf-b048-4ea06ce504be","system_id":"levelo_inurba_marseille","lat":43.31649,"lon":5.40434,"is_reserved":false,"is_disabled":false,"rental_uris":{"android":"levelo://app?vid=9795c908-8eb6-4ddf-b048-4ea06ce504be","ios":"levelo://app?vid=9795c908-8eb6-4ddf-b048-4ea06ce504be"},"vehicle_type_id":"4","last_reported":1692115684,"current_range_meters":16800,"station_id":"ce4bh012rcd13ifvqd00","pricing_plan_id":"free"},{"bike_id":"6cab3543-8b12-4cd5-b020-0bb430018ad2","system_id":"levelo_inurba_marseille","lat":43.31644,"lon":5.4044,"is_reserved":false,"is_disabled":false,"rental_uris":{"android":"levelo://app?vid=6cab3543-8b12-4cd5-b020-0bb430018ad2","ios":"levelo://app?vid=6cab3543-8b12-4cd5-b020-0bb430018ad2"},"vehicle_type_id":"4","last_reported":1692115684,"current_range_meters":1600,"station_id":"ce4bh012rcd13ifvqd00","pricing_plan_id":"free"},{"bike_id":"74220d3c-4cd6-4230-be8a-c26c4d78ecbf","system_id":"levelo_inurba_marseille","lat":43.31642,"lon":5.40441,"is_reserved":false,"is_disabled":false,"rental_uris":{"android":"levelo://app?vid=74220d3c-4cd6-4230-be8a-c26c4d78ecbf","ios":"levelo://app?vid=74220d3c-4cd6-4230-be8a-c26c4d78ecbf"},"vehicle_type_id":"4","last_reported":1692115684,"current_range_meters":19200,"station_id":"ce4bh012rcd13ifvqd00","pricing_plan_id":"free"},{"bike_id":"9ab68d9a-35a3-42e4-8553-39f000321aad","system_id":"levelo_inurba_marseille","lat":43.28618,"lon":5.35106,"is_reserved":false,"is_disabled":false,"rental_uris":{"android":"levelo://app?vid=9ab68d9a-35a3-42e4-8553-39f000321aad","ios":"levelo://app?vid=9ab68d9a-35a3-42e4-8553-39f000321aad"},"vehicle_type_id":"4","last_reported":1692115684,"current_range_meters":18400,"station_id":"ce4bhch2rcd13ifvqeug","pricing_plan_id":"free"},{"bike_id":"8ebcf07e-db88-46d9-8818-755947c907b1","system_id":"levelo_inurba_marseille","lat":43.286158,"lon":5.351041,"is_reserved":false,"is_disabled":false,"rental_uris":{"android":"levelo://app?vid=8ebcf07e-db88-46d9-8818-755947c907b1","ios":"levelo://app?vid=8ebcf07e-db88-46d9-8818-755947c907b1"},"vehicle_type_id":"4","last_reported":1692115684,"current_range_meters":8800,"station_id":"ce4bhb12rcd13ifvqel0","pricing_plan_id":"free"},{"bike_id":"89ad2d71-008b-41c1-bb9d-7b4bcdf8bcc6","system_id":"levelo_inurba_marseille","lat":43.283998,"lon":5.375062,"is_reserved":false,"is_disabled":false,"rental_uris":{"android":"levelo://app?vid=89ad2d71-008b-41c1-bb9d-7b4bcdf8bcc6","ios":"levelo://app?vid=89ad2d71-008b-41c1-bb9d-7b4bcdf8bcc6"},"vehicle_type_id":"4","last_reported":1692115684,"current_range_meters":0,"station_id":"ce4bh412rcd13ifvqds0","pricing_plan_id":"free"},{"bike_id":"cfa7173e-a138-4c62-87f8-9d0f4b2e3fd4","system_id":"levelo_inurba_marseille","lat":43.283998,"lon":5.375062,"is_reserved":false,"is_disabled":false,"rental_uris":{"android":"levelo://app?vid=cfa7173e-a138-4c62-87f8-9d0f4b2e3fd4","ios":"levelo://app?vid=cfa7173e-a138-4c62-87f8-9d0f4b2e3fd4"},"vehicle_type_id":"4","last_reported":1692115684,"current_range_meters":24400,"station_id":"ce4bh412rcd13ifvqds0","pricing_plan_id":"free"},{"bike_id":"8845740b-8527-42be-a2b0-232635ec5343","system_id":"levelo_inurba_marseille","lat":43.283998,"lon":5.375062,"is_reserved":false,"is_disabled":false,"rental_uris":{"android":"levelo://app?vid=8845740b-8527-42be-a2b0-232635ec5343","ios":"levelo://app?vid=8845740b-8527-42be-a2b0-232635ec5343"},"vehicle_type_id":"4","last_reported":1692115684,"current_range_meters":25600,"station_id":"ce4bh412rcd13ifvqds0","pricing_plan_id":"free"},{"bike_id":"50c8f803-2ceb-44ae-baef-6c0f30043e24","system_id":"levelo_inurba_marseille","lat":43.283998,"lon":5.375062,"is_reserved":false,"is_disabled":false,"rental_uris":{"android":"levelo://app?vid=50c8f803-2ceb-44ae-baef-6c0f30043e24","ios":"levelo://app?vid=50c8f803-2ceb-44ae-baef-6c0f30043e24"},"vehicle_type_id":"4","last_reported":1692115684,"current_range_meters":2000,"station_id":"ce4bh412rcd13ifvqds0","pricing_plan_id":"free"},{"bike_id":"5374294b-8fa8-49ef-89e8-706dfbe1e74d","system_id":"levelo_inurba_marseille","lat":43.284072,"lon":5.375094,"is_reserved":false,"is_disabled":false,"rental_uris":{"android":"levelo://app?vid=5374294b-8fa8-49ef-89e8-706dfbe1e74d","ios":"levelo://app?vid=5374294b-8fa8-49ef-89e8-706dfbe1e74d"},"vehicle_type_id":"4","last_reported":1692115684,"current_range_meters":5600,"station_id":"ce4bh412rcd13ifvqds0","pricing_plan_id":"free"},{"bike_id":"380da9e2-2860-4b0d-8392-5df7d01f34bd","system_id":"levelo_inurba_marseille","lat":43.28401,"lon":5.37516,"is_reserved":false,"is_disabled":false,"rental_uris":{"android":"levelo://app?vid=380da9e2-2860-4b0d-8392-5df7d01f34bd","ios":"levelo://app?vid=380da9e2-2860-4b0d-8392-5df7d01f34bd"},"vehicle_type_id":"4","last_reported":1692115684,"current_range_meters":12800,"station_id":"ce4bh412rcd13ifvqds0","pricing_plan_id":"free"},{"bike_id":"d681c7ce-d56e-4592-94d9-18b26004c632","system_id":"levelo_inurba_marseille","lat":43.286595,"lon":5.386795,"is_reserved":false,"is_disabled":false,"rental_uris":{"android":"levelo://app?vid=d681c7ce-d56e-4592-94d9-18b26004c632","ios":"levelo://app?vid=d681c7ce-d56e-4592-94d9-18b26004c632"},"vehicle_type_id":"4","last_reported":1692115684,"current_range_meters":4400,"station_id":"ce4bh492rcd13ifvqdug","pricing_plan_id":"free"},{"bike_id":"af00a5a3-ae9f-405e-b889-8af3b10e3ee3","system_id":"levelo_inurba_marseille","lat":43.31879,"lon":5.40726,"is_reserved":false,"is_disabled":false,"rental_uris":{"android":"levelo://app?vid=af00a5a3-ae9f-405e-b889-8af3b10e3ee3","ios":"levelo://app?vid=af00a5a3-ae9f-405e-b889-8af3b10e3ee3"},"vehicle_type_id":"4","last_reported":1692115684,"current_range_meters":26000,"station_id":"ce4bhq12rcd13ifvqhig","pricing_plan_id":"free"},{"bike_id":"1c4723e4-a677-4f33-9475-a6345fbf994b","system_id":"levelo_inurba_marseille","lat":43.31889,"lon":5.40726,"is_reserved":false,"is_disabled":false,"rental_uris":{"android":"levelo://app?vid=1c4723e4-a677-4f33-9475-a6345fbf994b","ios":"levelo://app?vid=1c4723e4-a677-4f33-9475-a6345fbf994b"},"vehicle_type_id":"4","last_reported":1692115684,"current_range_meters":28400,"station_id":"ce4bhq12rcd13ifvqhig","pricing_plan_id":"free"},{"bike_id":"aff48a3e-ea12-4cac-a317-0be9a9a56d14","system_id":"levelo_inurba_marseille","lat":43.319179,"lon":5.407725,"is_reserved":false,"is_disabled":false,"rental_uris":{"android":"levelo://app?vid=aff48a3e-ea12-4cac-a317-0be9a9a56d14","ios":"levelo://app?vid=aff48a3e-ea12-4cac-a317-0be9a9a56d14"},"vehicle_type_id":"4","last_reported":1692115684,"current_range_meters":26400,"station_id":"ce4bhq12rcd13ifvqhig","pricing_plan_id":"free"},{"bike_id":"16b9c1de-7cee-4c5a-9427-13a68b26ae62","system_id":"levelo_inurba_marseille","lat":43.319179,"lon":5.407725,"is_reserved":false,"is_disabled":false,"rental_uris":{"android":"levelo://app?vid=16b9c1de-7cee-4c5a-9427-13a68b26ae62","ios":"levelo://app?vid=16b9c1de-7cee-4c5a-9427-13a68b26ae62"},"vehicle_type_id":"4","last_reported":1692115684,"current_range_meters":20800,"station_id":"ce4bhq12rcd13ifvqhig","pricing_plan_id":"free"},{"bike_id":"c0e3c542-6d2f-4ad1-8a2b-1a73967d668e","system_id":"levelo_inurba_marseille","lat":43.33207,"lon":5.39864,"is_reserved":false,"is_disabled":false,"rental_uris":{"android":"levelo://app?vid=c0e3c542-6d2f-4ad1-8a2b-1a73967d668e","ios":"levelo://app?vid=c0e3c542-6d2f-4ad1-8a2b-1a73967d668e"},"vehicle_type_id":"4","last_reported":1692115684,"current_range_meters":26400,"station_id":"","pricing_plan_id":"free"},{"bike_id":"008d7d58-91c6-42e6-a25e-bcc458e65287","system_id":"levelo_inurba_marseille","lat":43.28499,"lon":5.35084,"is_reserved":false,"is_disabled":false,"rental_uris":{"android":"levelo://app?vid=008d7d58-91c6-42e6-a25e-bcc458e65287","ios":"levelo://app?vid=008d7d58-91c6-42e6-a25e-bcc458e65287"},"vehicle_type_id":"4","last_reported":1692115684,"current_range_meters":16400,"station_id":"","pricing_plan_id":"free"},{"bike_id":"9ca4073f-d795-475e-8fee-b528ec6069e2","system_id":"levelo_inurba_marseille","lat":43.33717,"lon":5.39177,"is_reserved":false,"is_disabled":false,"rental_uris":{"android":"levelo://app?vid=9ca4073f-d795-475e-8fee-b528ec6069e2","ios":"levelo://app?vid=9ca4073f-d795-475e-8fee-b528ec6069e2"},"vehicle_type_id":"4","last_reported":1692115684,"current_range_meters":29200,"station_id":"ce4bhr92rcd13ifvqhsg","pricing_plan_id":"free"},{"bike_id":"c7f55b38-f91b-41fb-a480-21b4dec7e541","system_id":"levelo_inurba_marseille","lat":43.33719,"lon":5.39174,"is_reserved":false,"is_disabled":false,"rental_uris":{"android":"levelo://app?vid=c7f55b38-f91b-41fb-a480-21b4dec7e541","ios":"levelo://app?vid=c7f55b38-f91b-41fb-a480-21b4dec7e541"},"vehicle_type_id":"4","last_reported":1692115684,"current_range_meters":24400,"station_id":"ce4bhr92rcd13ifvqhsg","pricing_plan_id":"free"},{"bike_id":"d1191578-a5a1-4fd7-ac86-032e8fdf04c0","system_id":"levelo_inurba_marseille","lat":43.3372,"lon":5.39173,"is_reserved":false,"is_disabled":false,"rental_uris":{"android":"levelo://app?vid=d1191578-a5a1-4fd7-ac86-032e8fdf04c0","ios":"levelo://app?vid=d1191578-a5a1-4fd7-ac86-032e8fdf04c0"},"vehicle_type_id":"4","last_reported":1692115684,"current_range_meters":27600,"station_id":"ce4bhr92rcd13ifvqhsg","pricing_plan_id":"free"},{"bike_id":"6ed2964b-5392-406b-b9af-45404a2ee5fa","system_id":"levelo_inurba_marseille","lat":43.33721,"lon":5.39173,"is_reserved":false,"is_disabled":false,"rental_uris":{"android":"levelo://app?vid=6ed2964b-5392-406b-b9af-45404a2ee5fa","ios":"levelo://app?vid=6ed2964b-5392-406b-b9af-45404a2ee5fa"},"vehicle_type_id":"4","last_reported":1692115684,"current_range_meters":30000,"station_id":"ce4bhr92rcd13ifvqhsg","pricing_plan_id":"free"},{"bike_id":"dd8c90b8-6a6a-4438-8a5b-2787d9e53063","system_id":"levelo_inurba_marseille","lat":43.33723,"lon":5.39174,"is_reserved":false,"is_disabled":false,"rental_uris":{"android":"levelo://app?vid=dd8c90b8-6a6a-4438-8a5b-2787d9e53063","ios":"levelo://app?vid=dd8c90b8-6a6a-4438-8a5b-2787d9e53063"},"vehicle_type_id":"4","last_reported":1692115684,"current_range_meters":29200,"station_id":"ce4bhr92rcd13ifvqhsg","pricing_plan_id":"free"},{"bike_id":"7d990ca5-f420-4945-a4a1-a0288a5b26c7","system_id":"levelo_inurba_marseille","lat":43.337168,"lon":5.391825,"is_reserved":false,"is_disabled":false,"rental_uris":{"android":"levelo://app?vid=7d990ca5-f420-4945-a4a1-a0288a5b26c7","ios":"levelo://app?vid=7d990ca5-f420-4945-a4a1-a0288a5b26c7"},"vehicle_type_id":"4","last_reported":1692115684,"current_range_meters":12400,"station_id":"ce4bhr92rcd13ifvqhsg","pricing_plan_id":"free"},{"bike_id":"f0b3e4a8-c149-42b1-9c5e-b4e2f8c56804","system_id":"levelo_inurba_marseille","lat":43.337168,"lon":5.391825,"is_reserved":false,"is_disabled":false,"rental_uris":{"android":"levelo://app?vid=f0b3e4a8-c149-42b1-9c5e-b4e2f8c56804","ios":"levelo://app?vid=f0b3e4a8-c149-42b1-9c5e-b4e2f8c56804"},"vehicle_type_id":"4","last_reported":1692115684,"current_range_meters":30800,"station_id":"ce4bhr92rcd13ifvqhsg","pricing_plan_id":"free"},{"bike_id":"5998f81c-1eca-456a-a4d5-b95c154b11b7","system_id":"levelo_inurba_marseille","lat":43.33723,"lon":5.39179,"is_reserved":false,"is_disabled":false,"rental_uris":{"android":"levelo://app?vid=5998f81c-1eca-456a-a4d5-b95c154b11b7","ios":"levelo://app?vid=5998f81c-1eca-456a-a4d5-b95c154b11b7"},"vehicle_type_id":"4","last_reported":1692115684,"current_range_meters":28800,"station_id":"ce4bhr92rcd13ifvqhsg","pricing_plan_id":"free"},{"bike_id":"50ff99fb-43af-4912-a992-826715877a21","system_id":"levelo_inurba_marseille","lat":43.337168,"lon":5.391825,"is_reserved":false,"is_disabled":false,"rental_uris":{"android":"levelo://app?vid=50ff99fb-43af-4912-a992-826715877a21","ios":"levelo://app?vid=50ff99fb-43af-4912-a992-826715877a21"},"vehicle_type_id":"4","last_reported":1692115684,"current_range_meters":18000,"station_id":"ce4bhr92rcd13ifvqhsg","pricing_plan_id":"free"},{"bike_id":"6a16d4f0-1bee-4a48-8250-841c97df9d59","system_id":"levelo_inurba_marseille","lat":43.33722,"lon":5.39186,"is_reserved":false,"is_disabled":false,"rental_uris":{"android":"levelo://app?vid=6a16d4f0-1bee-4a48-8250-841c97df9d59","ios":"levelo://app?vid=6a16d4f0-1bee-4a48-8250-841c97df9d59"},"vehicle_type_id":"4","last_reported":1692115684,"current_range_meters":28000,"station_id":"ce4bhr92rcd13ifvqhsg","pricing_plan_id":"free"},{"bike_id":"3418df2e-6699-4bed-91a2-b25e9f32f724","system_id":"levelo_inurba_marseille","lat":43.33727,"lon":5.39182,"is_reserved":false,"is_disabled":false,"rental_uris":{"android":"levelo://app?vid=3418df2e-6699-4bed-91a2-b25e9f32f724","ios":"levelo://app?vid=3418df2e-6699-4bed-91a2-b25e9f32f724"},"vehicle_type_id":"4","last_reported":1692115684,"current_range_meters":22400,"station_id":"ce4bhr92rcd13ifvqhsg","pricing_plan_id":"free"},{"bike_id":"fd912284-a51a-4ad8-b51c-1b55bd4dcaca","system_id":"levelo_inurba_marseille","lat":43.284793,"lon":5.384113,"is_reserved":false,"is_disabled":false,"rental_uris":{"android":"levelo://app?vid=fd912284-a51a-4ad8-b51c-1b55bd4dcaca","ios":"levelo://app?vid=fd912284-a51a-4ad8-b51c-1b55bd4dcaca"},"vehicle_type_id":"4","last_reported":1692115684,"current_range_meters":0,"station_id":"ce4bh512rcd13ifvqe3g","pricing_plan_id":"free"},{"bike_id":"23f5f11c-1631-4826-9b70-90ab56e6e026","system_id":"levelo_inurba_marseille","lat":43.32352,"lon":5.40635,"is_reserved":false,"is_disabled":false,"rental_uris":{"android":"levelo://app?vid=23f5f11c-1631-4826-9b70-90ab56e6e026","ios":"levelo://app?vid=23f5f11c-1631-4826-9b70-90ab56e6e026"},"vehicle_type_id":"4","last_reported":1692115684,"current_range_meters":21200,"station_id":"ce4bhq92rcd13ifvqhjg","pricing_plan_id":"free"},{"bike_id":"eefdc220-7264-47c6-96f2-436ccd506135","system_id":"levelo_inurba_marseille","lat":43.28431,"lon":5.34984,"is_reserved":false,"is_disabled":false,"rental_uris":{"android":"levelo://app?vid=eefdc220-7264-47c6-96f2-436ccd506135","ios":"levelo://app?vid=eefdc220-7264-47c6-96f2-436ccd506135"},"vehicle_type_id":"4","last_reported":1692115684,"current_range_meters":24400,"station_id":"ce4bhbh2rcd13ifvqepg","pricing_plan_id":"free"},{"bike_id":"2cae6467-b774-4756-b7c0-b4965fb34b95","system_id":"levelo_inurba_marseille","lat":43.284217,"lon":5.349697,"is_reserved":false,"is_disabled":false,"rental_uris":{"android":"levelo://app?vid=2cae6467-b774-4756-b7c0-b4965fb34b95","ios":"levelo://app?vid=2cae6467-b774-4756-b7c0-b4965fb34b95"},"vehicle_type_id":"4","last_reported":1692115684,"current_range_meters":16000,"station_id":"ce4bhbh2rcd13ifvqepg","pricing_plan_id":"free"},{"bike_id":"7ba5e1e4-3cdf-46e7-8e14-aa494fbaa5ae","system_id":"levelo_inurba_marseille","lat":43.2844,"lon":5.3494,"is_reserved":false,"is_disabled":false,"rental_uris":{"android":"levelo://app?vid=7ba5e1e4-3cdf-46e7-8e14-aa494fbaa5ae","ios":"levelo://app?vid=7ba5e1e4-3cdf-46e7-8e14-aa494fbaa5ae"},"vehicle_type_id":"4","last_reported":1692115684,"current_range_meters":9200,"station_id":"","pricing_plan_id":"free"},{"bike_id":"2e772a4f-6a18-48fa-a73e-f4e4e18430ab","system_id":"levelo_inurba_marseille","lat":43.284217,"lon":5.349697,"is_reserved":false,"is_disabled":false,"rental_uris":{"android":"levelo://app?vid=2e772a4f-6a18-48fa-a73e-f4e4e18430ab","ios":"levelo://app?vid=2e772a4f-6a18-48fa-a73e-f4e4e18430ab"},"vehicle_type_id":"4","last_reported":1692115684,"current_range_meters":4400,"station_id":"ce4bhbh2rcd13ifvqepg","pricing_plan_id":"free"},{"bike_id":"ae75b222-f9bc-4e5d-b945-736598a739d0","system_id":"levelo_inurba_marseille","lat":43.284219,"lon":5.3497,"is_reserved":false,"is_disabled":false,"rental_uris":{"android":"levelo://app?vid=ae75b222-f9bc-4e5d-b945-736598a739d0","ios":"levelo://app?vid=ae75b222-f9bc-4e5d-b945-736598a739d0"},"vehicle_type_id":"4","last_reported":1692115684,"current_range_meters":22000,"station_id":"ce4bhbh2rcd13ifvqepg","pricing_plan_id":"free"},{"bike_id":"bde34e3b-75af-40ba-a46a-f128d73d2db1","system_id":"levelo_inurba_marseille","lat":43.284219,"lon":5.3497,"is_reserved":false,"is_disabled":false,"rental_uris":{"android":"levelo://app?vid=bde34e3b-75af-40ba-a46a-f128d73d2db1","ios":"levelo://app?vid=bde34e3b-75af-40ba-a46a-f128d73d2db1"},"vehicle_type_id":"4","last_reported":1692115684,"current_range_meters":27600,"station_id":"ce4bhbh2rcd13ifvqepg","pricing_plan_id":"free"},{"bike_id":"3957e870-98a9-47e0-8f50-05c3027d58a4","system_id":"levelo_inurba_marseille","lat":43.284219,"lon":5.3497,"is_reserved":false,"is_disabled":false,"rental_uris":{"android":"levelo://app?vid=3957e870-98a9-47e0-8f50-05c3027d58a4","ios":"levelo://app?vid=3957e870-98a9-47e0-8f50-05c3027d58a4"},"vehicle_type_id":"4","last_reported":1692115684,"current_range_meters":30000,"station_id":"ce4bhbh2rcd13ifvqepg","pricing_plan_id":"free"},{"bike_id":"33c99e35-9d69-43ef-ba92-2467302f30d4","system_id":"levelo_inurba_marseille","lat":43.284219,"lon":5.3497,"is_reserved":false,"is_disabled":false,"rental_uris":{"android":"levelo://app?vid=33c99e35-9d69-43ef-ba92-2467302f30d4","ios":"levelo://app?vid=33c99e35-9d69-43ef-ba92-2467302f30d4"},"vehicle_type_id":"4","last_reported":1692115684,"current_range_meters":23200,"station_id":"ce4bhbh2rcd13ifvqepg","pricing_plan_id":"free"},{"bike_id":"c8528649-0f64-4253-8383-e4efe3fa952e","system_id":"levelo_inurba_marseille","lat":43.284219,"lon":5.3497,"is_reserved":false,"is_disabled":false,"rental_uris":{"android":"levelo://app?vid=c8528649-0f64-4253-8383-e4efe3fa952e","ios":"levelo://app?vid=c8528649-0f64-4253-8383-e4efe3fa952e"},"vehicle_type_id":"4","last_reported":1692115684,"current_range_meters":21600,"station_id":"ce4bhbh2rcd13ifvqepg","pricing_plan_id":"free"},{"bike_id":"3f84bf41-c394-40b8-9033-c642f167d784","system_id":"levelo_inurba_marseille","lat":43.284219,"lon":5.3497,"is_reserved":false,"is_disabled":false,"rental_uris":{"android":"levelo://app?vid=3f84bf41-c394-40b8-9033-c642f167d784","ios":"levelo://app?vid=3f84bf41-c394-40b8-9033-c642f167d784"},"vehicle_type_id":"4","last_reported":1692115684,"current_range_meters":23600,"station_id":"ce4bhbh2rcd13ifvqepg","pricing_plan_id":"free"},{"bike_id":"cc2336d3-5fec-4944-b0b2-a91c0a3c26f0","system_id":"levelo_inurba_marseille","lat":43.284219,"lon":5.3497,"is_reserved":false,"is_disabled":false,"rental_uris":{"android":"levelo://app?vid=cc2336d3-5fec-4944-b0b2-a91c0a3c26f0","ios":"levelo://app?vid=cc2336d3-5fec-4944-b0b2-a91c0a3c26f0"},"vehicle_type_id":"4","last_reported":1692115684,"current_range_meters":16000,"station_id":"ce4bhbh2rcd13ifvqepg","pricing_plan_id":"free"},{"bike_id":"2c1061fc-e59d-4315-9734-a667710e24e8","system_id":"levelo_inurba_marseille","lat":43.28423,"lon":5.34972,"is_reserved":false,"is_disabled":false,"rental_uris":{"android":"levelo://app?vid=2c1061fc-e59d-4315-9734-a667710e24e8","ios":"levelo://app?vid=2c1061fc-e59d-4315-9734-a667710e24e8"},"vehicle_type_id":"4","last_reported":1692115684,"current_range_meters":20000,"station_id":"ce4bhbh2rcd13ifvqepg","pricing_plan_id":"free"},{"bike_id":"deebab2c-499c-4d44-ad66-80e14cd41381","system_id":"levelo_inurba_marseille","lat":43.284219,"lon":5.3497,"is_reserved":false,"is_disabled":false,"rental_uris":{"android":"levelo://app?vid=deebab2c-499c-4d44-ad66-80e14cd41381","ios":"levelo://app?vid=deebab2c-499c-4d44-ad66-80e14cd41381"},"vehicle_type_id":"4","last_reported":1692115684,"current_range_meters":26000,"station_id":"ce4bhbh2rcd13ifvqepg","pricing_plan_id":"free"},{"bike_id":"6bc445f4-80ba-4d8a-85e6-c903b1529bc1","system_id":"levelo_inurba_marseille","lat":43.284219,"lon":5.3497,"is_reserved":false,"is_disabled":false,"rental_uris":{"android":"levelo://app?vid=6bc445f4-80ba-4d8a-85e6-c903b1529bc1","ios":"levelo://app?vid=6bc445f4-80ba-4d8a-85e6-c903b1529bc1"},"vehicle_type_id":"4","last_reported":1692115684,"current_range_meters":26400,"station_id":"ce4bhbh2rcd13ifvqepg","pricing_plan_id":"free"},{"bike_id":"ee39bcaf-ecd9-4927-9a29-fea5508d7f4a","system_id":"levelo_inurba_marseille","lat":43.284219,"lon":5.3497,"is_reserved":false,"is_disabled":false,"rental_uris":{"android":"levelo://app?vid=ee39bcaf-ecd9-4927-9a29-fea5508d7f4a","ios":"levelo://app?vid=ee39bcaf-ecd9-4927-9a29-fea5508d7f4a"},"vehicle_type_id":"4","last_reported":1692115684,"current_range_meters":21200,"station_id":"ce4bhbh2rcd13ifvqepg","pricing_plan_id":"free"},{"bike_id":"44c08510-e03a-471d-aba0-c0873c69bbbd","system_id":"levelo_inurba_marseille","lat":43.28418,"lon":5.34978,"is_reserved":false,"is_disabled":false,"rental_uris":{"android":"levelo://app?vid=44c08510-e03a-471d-aba0-c0873c69bbbd","ios":"levelo://app?vid=44c08510-e03a-471d-aba0-c0873c69bbbd"},"vehicle_type_id":"4","last_reported":1692115684,"current_range_meters":15600,"station_id":"","pricing_plan_id":"free"},{"bike_id":"4d54bdae-ca70-43e4-9b88-ae44006553d5","system_id":"levelo_inurba_marseille","lat":43.284219,"lon":5.3497,"is_reserved":false,"is_disabled":false,"rental_uris":{"android":"levelo://app?vid=4d54bdae-ca70-43e4-9b88-ae44006553d5","ios":"levelo://app?vid=4d54bdae-ca70-43e4-9b88-ae44006553d5"},"vehicle_type_id":"4","last_reported":1692115684,"current_range_meters":31600,"station_id":"ce4bhbh2rcd13ifvqepg","pricing_plan_id":"free"},{"bike_id":"b0ec2173-6a16-42e6-8e13-9c8f0de63cda","system_id":"levelo_inurba_marseille","lat":43.284217,"lon":5.349697,"is_reserved":false,"is_disabled":false,"rental_uris":{"android":"levelo://app?vid=b0ec2173-6a16-42e6-8e13-9c8f0de63cda","ios":"levelo://app?vid=b0ec2173-6a16-42e6-8e13-9c8f0de63cda"},"vehicle_type_id":"4","last_reported":1692115684,"current_range_meters":12800,"station_id":"ce4bhbh2rcd13ifvqepg","pricing_plan_id":"free"},{"bike_id":"a9f94856-bec6-483f-b2a5-f5c814be5d58","system_id":"levelo_inurba_marseille","lat":43.284219,"lon":5.3497,"is_reserved":false,"is_disabled":false,"rental_uris":{"android":"levelo://app?vid=a9f94856-bec6-483f-b2a5-f5c814be5d58","ios":"levelo://app?vid=a9f94856-bec6-483f-b2a5-f5c814be5d58"},"vehicle_type_id":"4","last_reported":1692115684,"current_range_meters":22800,"station_id":"ce4bhbh2rcd13ifvqepg","pricing_plan_id":"free"},{"bike_id":"3e4e9013-6f25-449c-907b-71d6956ae302","system_id":"levelo_inurba_marseille","lat":43.284217,"lon":5.349697,"is_reserved":false,"is_disabled":false,"rental_uris":{"android":"levelo://app?vid=3e4e9013-6f25-449c-907b-71d6956ae302","ios":"levelo://app?vid=3e4e9013-6f25-449c-907b-71d6956ae302"},"vehicle_type_id":"4","last_reported":1692115684,"current_range_meters":25600,"station_id":"ce4bhbh2rcd13ifvqepg","pricing_plan_id":"free"},{"bike_id":"a5ede986-b3ef-44cd-88ee-6cbbc65f90f9","system_id":"levelo_inurba_marseille","lat":43.284217,"lon":5.349697,"is_reserved":false,"is_disabled":false,"rental_uris":{"android":"levelo://app?vid=a5ede986-b3ef-44cd-88ee-6cbbc65f90f9","ios":"levelo://app?vid=a5ede986-b3ef-44cd-88ee-6cbbc65f90f9"},"vehicle_type_id":"4","last_reported":1692115684,"current_range_meters":0,"station_id":"ce4bhbh2rcd13ifvqepg","pricing_plan_id":"free"},{"bike_id":"605ab3c7-6cba-40a8-9c66-513515b8e61e","system_id":"levelo_inurba_marseille","lat":43.284219,"lon":5.3497,"is_reserved":false,"is_disabled":false,"rental_uris":{"android":"levelo://app?vid=605ab3c7-6cba-40a8-9c66-513515b8e61e","ios":"levelo://app?vid=605ab3c7-6cba-40a8-9c66-513515b8e61e"},"vehicle_type_id":"4","last_reported":1692115684,"current_range_meters":22800,"station_id":"ce4bhbh2rcd13ifvqepg","pricing_plan_id":"free"},{"bike_id":"427604d5-61aa-4547-9042-8adc242ddcbc","system_id":"levelo_inurba_marseille","lat":43.284219,"lon":5.3497,"is_reserved":false,"is_disabled":false,"rental_uris":{"android":"levelo://app?vid=427604d5-61aa-4547-9042-8adc242ddcbc","ios":"levelo://app?vid=427604d5-61aa-4547-9042-8adc242ddcbc"},"vehicle_type_id":"4","last_reported":1692115684,"current_range_meters":15600,"station_id":"ce4bhbh2rcd13ifvqepg","pricing_plan_id":"free"},{"bike_id":"2e041027-8817-47b0-900a-e30c24a7bedf","system_id":"levelo_inurba_marseille","lat":43.284217,"lon":5.349697,"is_reserved":false,"is_disabled":false,"rental_uris":{"android":"levelo://app?vid=2e041027-8817-47b0-900a-e30c24a7bedf","ios":"levelo://app?vid=2e041027-8817-47b0-900a-e30c24a7bedf"},"vehicle_type_id":"4","last_reported":1692115684,"current_range_meters":29600,"station_id":"ce4bhbh2rcd13ifvqepg","pricing_plan_id":"free"},{"bike_id":"b51b579e-2e51-43de-8af0-ae7e7a0fc104","system_id":"levelo_inurba_marseille","lat":43.284219,"lon":5.3497,"is_reserved":false,"is_disabled":false,"rental_uris":{"android":"levelo://app?vid=b51b579e-2e51-43de-8af0-ae7e7a0fc104","ios":"levelo://app?vid=b51b579e-2e51-43de-8af0-ae7e7a0fc104"},"vehicle_type_id":"4","last_reported":1692115684,"current_range_meters":22800,"station_id":"ce4bhbh2rcd13ifvqepg","pricing_plan_id":"free"},{"bike_id":"c7e571e9-d9c7-4e7d-885c-df3ba213020a","system_id":"levelo_inurba_marseille","lat":43.28195,"lon":5.374165,"is_reserved":false,"is_disabled":false,"rental_uris":{"android":"levelo://app?vid=c7e571e9-d9c7-4e7d-885c-df3ba213020a","ios":"levelo://app?vid=c7e571e9-d9c7-4e7d-885c-df3ba213020a"},"vehicle_type_id":"4","last_reported":1692115684,"current_range_meters":27200,"station_id":"","pricing_plan_id":"free"},{"bike_id":"5cec26ac-344f-432b-af34-450b75305b9b","system_id":"levelo_inurba_marseille","lat":43.292724,"lon":5.401131,"is_reserved":false,"is_disabled":false,"rental_uris":{"android":"levelo://app?vid=5cec26ac-344f-432b-af34-450b75305b9b","ios":"levelo://app?vid=5cec26ac-344f-432b-af34-450b75305b9b"},"vehicle_type_id":"4","last_reported":1692115684,"current_range_meters":31200,"station_id":"ce4bh312rcd13ifvqdk0","pricing_plan_id":"free"},{"bike_id":"83e4b614-ceda-4e14-881b-2d7129d9267f","system_id":"levelo_inurba_marseille","lat":43.296263,"lon":5.40601,"is_reserved":false,"is_disabled":false,"rental_uris":{"android":"levelo://app?vid=83e4b614-ceda-4e14-881b-2d7129d9267f","ios":"levelo://app?vid=83e4b614-ceda-4e14-881b-2d7129d9267f"},"vehicle_type_id":"4","last_reported":1692115684,"current_range_meters":17200,"station_id":"ce4bh0h2rcd13ifvqd60","pricing_plan_id":"free"},{"bike_id":"1d60a11e-ba09-4bfe-839e-9b7958df086a","system_id":"levelo_inurba_marseille","lat":43.28276,"lon":5.35059,"is_reserved":false,"is_disabled":false,"rental_uris":{"android":"levelo://app?vid=1d60a11e-ba09-4bfe-839e-9b7958df086a","ios":"levelo://app?vid=1d60a11e-ba09-4bfe-839e-9b7958df086a"},"vehicle_type_id":"4","last_reported":1692115684,"current_range_meters":20400,"station_id":"ce4bhbp2rcd13ifvqerg","pricing_plan_id":"free"},{"bike_id":"098ddd39-a6c7-4410-846b-0d8e4319d8c4","system_id":"levelo_inurba_marseille","lat":43.28278,"lon":5.35049,"is_reserved":false,"is_disabled":false,"rental_uris":{"android":"levelo://app?vid=098ddd39-a6c7-4410-846b-0d8e4319d8c4","ios":"levelo://app?vid=098ddd39-a6c7-4410-846b-0d8e4319d8c4"},"vehicle_type_id":"4","last_reported":1692115684,"current_range_meters":23600,"station_id":"ce4bhbp2rcd13ifvqerg","pricing_plan_id":"free"},{"bike_id":"38713ab4-7669-40ef-aa19-1fdfd5fe576a","system_id":"levelo_inurba_marseille","lat":43.28273,"lon":5.3506,"is_reserved":false,"is_disabled":false,"rental_uris":{"android":"levelo://app?vid=38713ab4-7669-40ef-aa19-1fdfd5fe576a","ios":"levelo://app?vid=38713ab4-7669-40ef-aa19-1fdfd5fe576a"},"vehicle_type_id":"4","last_reported":1692115684,"current_range_meters":24000,"station_id":"ce4bhbp2rcd13ifvqerg","pricing_plan_id":"free"},{"bike_id":"2986039d-98b8-4b96-a1da-1aec9bb0aa6d","system_id":"levelo_inurba_marseille","lat":43.28272,"lon":5.35059,"is_reserved":false,"is_disabled":false,"rental_uris":{"android":"levelo://app?vid=2986039d-98b8-4b96-a1da-1aec9bb0aa6d","ios":"levelo://app?vid=2986039d-98b8-4b96-a1da-1aec9bb0aa6d"},"vehicle_type_id":"4","last_reported":1692115684,"current_range_meters":26400,"station_id":"ce4bhbp2rcd13ifvqerg","pricing_plan_id":"free"},{"bike_id":"8d884bb1-6178-4e22-82af-0b883dcbdb3f","system_id":"levelo_inurba_marseille","lat":43.28272,"lon":5.35058,"is_reserved":false,"is_disabled":false,"rental_uris":{"android":"levelo://app?vid=8d884bb1-6178-4e22-82af-0b883dcbdb3f","ios":"levelo://app?vid=8d884bb1-6178-4e22-82af-0b883dcbdb3f"},"vehicle_type_id":"4","last_reported":1692115684,"current_range_meters":24800,"station_id":"ce4bhbp2rcd13ifvqerg","pricing_plan_id":"free"},{"bike_id":"8bd47f20-cf6e-4355-9f71-68aeae50fda9","system_id":"levelo_inurba_marseille","lat":43.28271,"lon":5.35061,"is_reserved":false,"is_disabled":false,"rental_uris":{"android":"levelo://app?vid=8bd47f20-cf6e-4355-9f71-68aeae50fda9","ios":"levelo://app?vid=8bd47f20-cf6e-4355-9f71-68aeae50fda9"},"vehicle_type_id":"4","last_reported":1692115684,"current_range_meters":8800,"station_id":"ce4bhbp2rcd13ifvqerg","pricing_plan_id":"free"},{"bike_id":"fdbf69da-b109-48b7-a820-d08be3db628b","system_id":"levelo_inurba_marseille","lat":43.28268,"lon":5.3507,"is_reserved":false,"is_disabled":false,"rental_uris":{"android":"levelo://app?vid=fdbf69da-b109-48b7-a820-d08be3db628b","ios":"levelo://app?vid=fdbf69da-b109-48b7-a820-d08be3db628b"},"vehicle_type_id":"4","last_reported":1692115684,"current_range_meters":21200,"station_id":"ce4bhbp2rcd13ifvqerg","pricing_plan_id":"free"},{"bike_id":"e96b4e01-a034-439f-bac8-95d6142d8d3a","system_id":"levelo_inurba_marseille","lat":43.28266,"lon":5.35076,"is_reserved":false,"is_disabled":false,"rental_uris":{"android":"levelo://app?vid=e96b4e01-a034-439f-bac8-95d6142d8d3a","ios":"levelo://app?vid=e96b4e01-a034-439f-bac8-95d6142d8d3a"},"vehicle_type_id":"4","last_reported":1692115684,"current_range_meters":21200,"station_id":"ce4bhbp2rcd13ifvqerg","pricing_plan_id":"free"},{"bike_id":"196f1ffd-ff3d-4c80-9106-31d7acf337e3","system_id":"levelo_inurba_marseille","lat":43.282744,"lon":5.350533,"is_reserved":false,"is_disabled":false,"rental_uris":{"android":"levelo://app?vid=196f1ffd-ff3d-4c80-9106-31d7acf337e3","ios":"levelo://app?vid=196f1ffd-ff3d-4c80-9106-31d7acf337e3"},"vehicle_type_id":"4","last_reported":1692115684,"current_range_meters":15200,"station_id":"ce4bhbp2rcd13ifvqerg","pricing_plan_id":"free"},{"bike_id":"403ccd2a-768f-4413-a555-ed1bfa4e77da","system_id":"levelo_inurba_marseille","lat":43.2827,"lon":5.35059,"is_reserved":false,"is_disabled":false,"rental_uris":{"android":"levelo://app?vid=403ccd2a-768f-4413-a555-ed1bfa4e77da","ios":"levelo://app?vid=403ccd2a-768f-4413-a555-ed1bfa4e77da"},"vehicle_type_id":"4","last_reported":1692115684,"current_range_meters":31200,"station_id":"ce4bhbp2rcd13ifvqerg","pricing_plan_id":"free"},{"bike_id":"dba9b45c-1672-417d-8c21-a33e06fbad17","system_id":"levelo_inurba_marseille","lat":43.28271,"lon":5.35055,"is_reserved":false,"is_disabled":false,"rental_uris":{"android":"levelo://app?vid=dba9b45c-1672-417d-8c21-a33e06fbad17","ios":"levelo://app?vid=dba9b45c-1672-417d-8c21-a33e06fbad17"},"vehicle_type_id":"4","last_reported":1692115684,"current_range_meters":24800,"station_id":"ce4bhbp2rcd13ifvqerg","pricing_plan_id":"free"},{"bike_id":"88b850eb-bc6e-496d-8fbd-8b1d6e32ceae","system_id":"levelo_inurba_marseille","lat":43.28272,"lon":5.3505,"is_reserved":false,"is_disabled":false,"rental_uris":{"android":"levelo://app?vid=88b850eb-bc6e-496d-8fbd-8b1d6e32ceae","ios":"levelo://app?vid=88b850eb-bc6e-496d-8fbd-8b1d6e32ceae"},"vehicle_type_id":"4","last_reported":1692115684,"current_range_meters":18000,"station_id":"ce4bhbp2rcd13ifvqerg","pricing_plan_id":"free"},{"bike_id":"9e6f56e6-772e-45df-acc3-b042179a9458","system_id":"levelo_inurba_marseille","lat":43.280461,"lon":5.369125,"is_reserved":false,"is_disabled":false,"rental_uris":{"android":"levelo://app?vid=9e6f56e6-772e-45df-acc3-b042179a9458","ios":"levelo://app?vid=9e6f56e6-772e-45df-acc3-b042179a9458"},"vehicle_type_id":"4","last_reported":1692115684,"current_range_meters":15200,"station_id":"","pricing_plan_id":"free"},{"bike_id":"4485c9fe-663b-4210-917b-e3355f1ec44c","system_id":"levelo_inurba_marseille","lat":43.28266,"lon":5.35064,"is_reserved":false,"is_disabled":false,"rental_uris":{"android":"levelo://app?vid=4485c9fe-663b-4210-917b-e3355f1ec44c","ios":"levelo://app?vid=4485c9fe-663b-4210-917b-e3355f1ec44c"},"vehicle_type_id":"4","last_reported":1692115684,"current_range_meters":24400,"station_id":"ce4bhbp2rcd13ifvqerg","pricing_plan_id":"free"},{"bike_id":"88940920-727e-47f8-bee6-24feedff1167","system_id":"levelo_inurba_marseille","lat":43.28269,"lon":5.35052,"is_reserved":false,"is_disabled":false,"rental_uris":{"android":"levelo://app?vid=88940920-727e-47f8-bee6-24feedff1167","ios":"levelo://app?vid=88940920-727e-47f8-bee6-24feedff1167"},"vehicle_type_id":"4","last_reported":1692115684,"current_range_meters":30400,"station_id":"ce4bhbp2rcd13ifvqerg","pricing_plan_id":"free"},{"bike_id":"150dfb09-8803-4bc4-b356-d5702ee1ba09","system_id":"levelo_inurba_marseille","lat":43.2827,"lon":5.35047,"is_reserved":false,"is_disabled":false,"rental_uris":{"android":"levelo://app?vid=150dfb09-8803-4bc4-b356-d5702ee1ba09","ios":"levelo://app?vid=150dfb09-8803-4bc4-b356-d5702ee1ba09"},"vehicle_type_id":"4","last_reported":1692115684,"current_range_meters":25200,"station_id":"ce4bhbp2rcd13ifvqerg","pricing_plan_id":"free"},{"bike_id":"1b62ec57-adcb-4d78-a995-a8cb361c4531","system_id":"levelo_inurba_marseille","lat":43.280382,"lon":5.369291,"is_reserved":false,"is_disabled":false,"rental_uris":{"android":"levelo://app?vid=1b62ec57-adcb-4d78-a995-a8cb361c4531","ios":"levelo://app?vid=1b62ec57-adcb-4d78-a995-a8cb361c4531"},"vehicle_type_id":"4","last_reported":1692115684,"current_range_meters":25600,"station_id":"ce4bha12rcd13ifvqef0","pricing_plan_id":"free"},{"bike_id":"d367f331-2ed0-4852-9d76-9702dce02e82","system_id":"levelo_inurba_marseille","lat":43.28264,"lon":5.35064,"is_reserved":false,"is_disabled":false,"rental_uris":{"android":"levelo://app?vid=d367f331-2ed0-4852-9d76-9702dce02e82","ios":"levelo://app?vid=d367f331-2ed0-4852-9d76-9702dce02e82"},"vehicle_type_id":"4","last_reported":1692115684,"current_range_meters":14400,"station_id":"ce4bhbp2rcd13ifvqerg","pricing_plan_id":"free"},{"bike_id":"919981dd-d65d-4392-8f90-a790c92b0f13","system_id":"levelo_inurba_marseille","lat":43.282744,"lon":5.350533,"is_reserved":false,"is_disabled":false,"rental_uris":{"android":"levelo://app?vid=919981dd-d65d-4392-8f90-a790c92b0f13","ios":"levelo://app?vid=919981dd-d65d-4392-8f90-a790c92b0f13"},"vehicle_type_id":"4","last_reported":1692115684,"current_range_meters":13200,"station_id":"ce4bhbp2rcd13ifvqerg","pricing_plan_id":"free"},{"bike_id":"e228e044-6572-4dde-b840-84d907d19fbe","system_id":"levelo_inurba_marseille","lat":43.28268,"lon":5.35049,"is_reserved":false,"is_disabled":false,"rental_uris":{"android":"levelo://app?vid=e228e044-6572-4dde-b840-84d907d19fbe","ios":"levelo://app?vid=e228e044-6572-4dde-b840-84d907d19fbe"},"vehicle_type_id":"4","last_reported":1692115684,"current_range_meters":28800,"station_id":"ce4bhbp2rcd13ifvqerg","pricing_plan_id":"free"},{"bike_id":"ef7feec2-d4dd-4a04-a3f8-407cc88cb817","system_id":"levelo_inurba_marseille","lat":43.28268,"lon":5.35049,"is_reserved":false,"is_disabled":false,"rental_uris":{"android":"levelo://app?vid=ef7feec2-d4dd-4a04-a3f8-407cc88cb817","ios":"levelo://app?vid=ef7feec2-d4dd-4a04-a3f8-407cc88cb817"},"vehicle_type_id":"4","last_reported":1692115684,"current_range_meters":30000,"station_id":"ce4bhbp2rcd13ifvqerg","pricing_plan_id":"free"},{"bike_id":"f04527c9-0c43-45e5-9c45-6ee6ef074591","system_id":"levelo_inurba_marseille","lat":43.28039,"lon":5.369297,"is_reserved":false,"is_disabled":false,"rental_uris":{"android":"levelo://app?vid=f04527c9-0c43-45e5-9c45-6ee6ef074591","ios":"levelo://app?vid=f04527c9-0c43-45e5-9c45-6ee6ef074591"},"vehicle_type_id":"4","last_reported":1692115684,"current_range_meters":13600,"station_id":"ce4bha12rcd13ifvqef0","pricing_plan_id":"free"},{"bike_id":"a358a6af-c6e2-44c0-96c3-316035199677","system_id":"levelo_inurba_marseille","lat":43.2826,"lon":5.35066,"is_reserved":false,"is_disabled":false,"rental_uris":{"android":"levelo://app?vid=a358a6af-c6e2-44c0-96c3-316035199677","ios":"levelo://app?vid=a358a6af-c6e2-44c0-96c3-316035199677"},"vehicle_type_id":"4","last_reported":1692115684,"current_range_meters":12400,"station_id":"ce4bhbp2rcd13ifvqerg","pricing_plan_id":"free"},{"bike_id":"d182c4c4-6d75-472d-9429-5751e5c05a74","system_id":"levelo_inurba_marseille","lat":43.28039,"lon":5.369297,"is_reserved":false,"is_disabled":false,"rental_uris":{"android":"levelo://app?vid=d182c4c4-6d75-472d-9429-5751e5c05a74","ios":"levelo://app?vid=d182c4c4-6d75-472d-9429-5751e5c05a74"},"vehicle_type_id":"4","last_reported":1692115684,"current_range_meters":30000,"station_id":"ce4bha12rcd13ifvqef0","pricing_plan_id":"free"},{"bike_id":"ae1e9854-b745-4f87-900b-5db403e835f9","system_id":"levelo_inurba_marseille","lat":43.2826,"lon":5.35058,"is_reserved":false,"is_disabled":false,"rental_uris":{"android":"levelo://app?vid=ae1e9854-b745-4f87-900b-5db403e835f9","ios":"levelo://app?vid=ae1e9854-b745-4f87-900b-5db403e835f9"},"vehicle_type_id":"4","last_reported":1692115684,"current_range_meters":20000,"station_id":"ce4bhbp2rcd13ifvqerg","pricing_plan_id":"free"},{"bike_id":"28503c72-20ca-4360-b3c8-aef5bf4407b6","system_id":"levelo_inurba_marseille","lat":43.280382,"lon":5.369291,"is_reserved":false,"is_disabled":false,"rental_uris":{"android":"levelo://app?vid=28503c72-20ca-4360-b3c8-aef5bf4407b6","ios":"levelo://app?vid=28503c72-20ca-4360-b3c8-aef5bf4407b6"},"vehicle_type_id":"4","last_reported":1692115684,"current_range_meters":22800,"station_id":"ce4bha12rcd13ifvqef0","pricing_plan_id":"free"},{"bike_id":"724422c2-8788-4e9f-a59c-4dccaf9e8b32","system_id":"levelo_inurba_marseille","lat":43.28025,"lon":5.36936,"is_reserved":false,"is_disabled":false,"rental_uris":{"android":"levelo://app?vid=724422c2-8788-4e9f-a59c-4dccaf9e8b32","ios":"levelo://app?vid=724422c2-8788-4e9f-a59c-4dccaf9e8b32"},"vehicle_type_id":"4","last_reported":1692115684,"current_range_meters":18800,"station_id":"ce4bha12rcd13ifvqef0","pricing_plan_id":"free"},{"bike_id":"eb8e4c4f-5fc5-4007-ab2b-231fad0dc17c","system_id":"levelo_inurba_marseille","lat":43.29041,"lon":5.399634,"is_reserved":false,"is_disabled":false,"rental_uris":{"android":"levelo://app?vid=eb8e4c4f-5fc5-4007-ab2b-231fad0dc17c","ios":"levelo://app?vid=eb8e4c4f-5fc5-4007-ab2b-231fad0dc17c"},"vehicle_type_id":"4","last_reported":1692115684,"current_range_meters":31200,"station_id":"ce4bh392rcd13ifvqdm0","pricing_plan_id":"free"},{"bike_id":"17e3f888-469b-4987-a388-db33b411e581","system_id":"levelo_inurba_marseille","lat":43.296263,"lon":5.40601,"is_reserved":false,"is_disabled":false,"rental_uris":{"android":"levelo://app?vid=17e3f888-469b-4987-a388-db33b411e581","ios":"levelo://app?vid=17e3f888-469b-4987-a388-db33b411e581"},"vehicle_type_id":"4","last_reported":1692115684,"current_range_meters":3600,"station_id":"ce4bh0h2rcd13ifvqd60","pricing_plan_id":"free"},{"bike_id":"4a4254f1-de87-45f7-b676-cb940aad5c2f","system_id":"levelo_inurba_marseille","lat":43.296263,"lon":5.40601,"is_reserved":false,"is_disabled":false,"rental_uris":{"android":"levelo://app?vid=4a4254f1-de87-45f7-b676-cb940aad5c2f","ios":"levelo://app?vid=4a4254f1-de87-45f7-b676-cb940aad5c2f"},"vehicle_type_id":"4","last_reported":1692115684,"current_range_meters":27200,"station_id":"ce4bh0h2rcd13ifvqd60","pricing_plan_id":"free"},{"bike_id":"a0f258ed-ced3-412c-a3a0-592502c28464","system_id":"levelo_inurba_marseille","lat":43.32661,"lon":5.40929,"is_reserved":false,"is_disabled":false,"rental_uris":{"android":"levelo://app?vid=a0f258ed-ced3-412c-a3a0-592502c28464","ios":"levelo://app?vid=a0f258ed-ced3-412c-a3a0-592502c28464"},"vehicle_type_id":"4","last_reported":1692115684,"current_range_meters":3600,"station_id":"","pricing_plan_id":"free"},{"bike_id":"505c2761-5d5b-4ee0-b401-bef5be874259","system_id":"levelo_inurba_marseille","lat":43.28573,"lon":5.394992,"is_reserved":false,"is_disabled":false,"rental_uris":{"android":"levelo://app?vid=505c2761-5d5b-4ee0-b401-bef5be874259","ios":"levelo://app?vid=505c2761-5d5b-4ee0-b401-bef5be874259"},"vehicle_type_id":"4","last_reported":1692115684,"current_range_meters":24000,"station_id":"ce4bh292rcd13ifvqdg0","pricing_plan_id":"free"},{"bike_id":"e3b0480d-c41b-4bc0-a688-886c1429a426","system_id":"levelo_inurba_marseille","lat":43.285742,"lon":5.395004,"is_reserved":false,"is_disabled":false,"rental_uris":{"android":"levelo://app?vid=e3b0480d-c41b-4bc0-a688-886c1429a426","ios":"levelo://app?vid=e3b0480d-c41b-4bc0-a688-886c1429a426"},"vehicle_type_id":"4","last_reported":1692115684,"current_range_meters":16400,"station_id":"ce4bh292rcd13ifvqdg0","pricing_plan_id":"free"},{"bike_id":"738d5aa5-659a-4edf-9ae9-f3f148a17f92","system_id":"levelo_inurba_marseille","lat":43.32656,"lon":5.40957,"is_reserved":false,"is_disabled":false,"rental_uris":{"android":"levelo://app?vid=738d5aa5-659a-4edf-9ae9-f3f148a17f92","ios":"levelo://app?vid=738d5aa5-659a-4edf-9ae9-f3f148a17f92"},"vehicle_type_id":"4","last_reported":1692115684,"current_range_meters":8800,"station_id":"ce4bhpp2rcd13ifvqhgg","pricing_plan_id":"free"},{"bike_id":"d8bd8d06-7bc7-4858-bf30-4917bd5eca3b","system_id":"levelo_inurba_marseille","lat":43.3266,"lon":5.4098,"is_reserved":false,"is_disabled":false,"rental_uris":{"android":"levelo://app?vid=d8bd8d06-7bc7-4858-bf30-4917bd5eca3b","ios":"levelo://app?vid=d8bd8d06-7bc7-4858-bf30-4917bd5eca3b"},"vehicle_type_id":"4","last_reported":1692115684,"current_range_meters":10400,"station_id":"ce4bhpp2rcd13ifvqhgg","pricing_plan_id":"free"},{"bike_id":"ecbdf4e6-1b74-46dd-a935-e5c671c84600","system_id":"levelo_inurba_marseille","lat":43.279742,"lon":5.38744,"is_reserved":false,"is_disabled":false,"rental_uris":{"android":"levelo://app?vid=ecbdf4e6-1b74-46dd-a935-e5c671c84600","ios":"levelo://app?vid=ecbdf4e6-1b74-46dd-a935-e5c671c84600"},"vehicle_type_id":"4","last_reported":1692115684,"current_range_meters":30800,"station_id":"ce4bhg12rcd13ifvqf80","pricing_plan_id":"free"},{"bike_id":"22289566-f880-4cd3-8b0e-00df8552ce10","system_id":"levelo_inurba_marseille","lat":43.32058,"lon":5.41535,"is_reserved":false,"is_disabled":false,"rental_uris":{"android":"levelo://app?vid=22289566-f880-4cd3-8b0e-00df8552ce10","ios":"levelo://app?vid=22289566-f880-4cd3-8b0e-00df8552ce10"},"vehicle_type_id":"4","last_reported":1692115684,"current_range_meters":24400,"station_id":"ce4bhq92rcd13ifvqhkg","pricing_plan_id":"free"},{"bike_id":"97237657-74dc-4e8a-9df5-57824dcf1fe1","system_id":"levelo_inurba_marseille","lat":43.32051,"lon":5.41538,"is_reserved":false,"is_disabled":false,"rental_uris":{"android":"levelo://app?vid=97237657-74dc-4e8a-9df5-57824dcf1fe1","ios":"levelo://app?vid=97237657-74dc-4e8a-9df5-57824dcf1fe1"},"vehicle_type_id":"4","last_reported":1692115684,"current_range_meters":31200,"station_id":"ce4bhq92rcd13ifvqhkg","pricing_plan_id":"free"},{"bike_id":"07d88e35-b401-49d9-85ea-e82bada07aa1","system_id":"levelo_inurba_marseille","lat":43.320045,"lon":5.415048,"is_reserved":false,"is_disabled":false,"rental_uris":{"android":"levelo://app?vid=07d88e35-b401-49d9-85ea-e82bada07aa1","ios":"levelo://app?vid=07d88e35-b401-49d9-85ea-e82bada07aa1"},"vehicle_type_id":"4","last_reported":1692115684,"current_range_meters":10400,"station_id":"ce4bhq92rcd13ifvqhkg","pricing_plan_id":"free"},{"bike_id":"1eac2151-bae7-41de-bfcf-4d9f1e05021a","system_id":"levelo_inurba_marseille","lat":43.32053,"lon":5.4154,"is_reserved":false,"is_disabled":false,"rental_uris":{"android":"levelo://app?vid=1eac2151-bae7-41de-bfcf-4d9f1e05021a","ios":"levelo://app?vid=1eac2151-bae7-41de-bfcf-4d9f1e05021a"},"vehicle_type_id":"4","last_reported":1692115684,"current_range_meters":29200,"station_id":"ce4bhq92rcd13ifvqhkg","pricing_plan_id":"free"},{"bike_id":"b34a18a3-7c3f-48db-8f4d-ae0a2366dc10","system_id":"levelo_inurba_marseille","lat":43.32051,"lon":5.41546,"is_reserved":false,"is_disabled":false,"rental_uris":{"android":"levelo://app?vid=b34a18a3-7c3f-48db-8f4d-ae0a2366dc10","ios":"levelo://app?vid=b34a18a3-7c3f-48db-8f4d-ae0a2366dc10"},"vehicle_type_id":"4","last_reported":1692115684,"current_range_meters":400,"station_id":"ce4bhq92rcd13ifvqhkg","pricing_plan_id":"free"},{"bike_id":"469077bc-55d4-4352-84c9-671af1c384d7","system_id":"levelo_inurba_marseille","lat":43.320045,"lon":5.415046,"is_reserved":false,"is_disabled":false,"rental_uris":{"android":"levelo://app?vid=469077bc-55d4-4352-84c9-671af1c384d7","ios":"levelo://app?vid=469077bc-55d4-4352-84c9-671af1c384d7"},"vehicle_type_id":"4","last_reported":1692115684,"current_range_meters":22400,"station_id":"ce4bhq92rcd13ifvqhkg","pricing_plan_id":"free"},{"bike_id":"c78a3f4b-75f6-4fa5-8de7-b36d9df9b2c1","system_id":"levelo_inurba_marseille","lat":43.279742,"lon":5.38744,"is_reserved":false,"is_disabled":false,"rental_uris":{"android":"levelo://app?vid=c78a3f4b-75f6-4fa5-8de7-b36d9df9b2c1","ios":"levelo://app?vid=c78a3f4b-75f6-4fa5-8de7-b36d9df9b2c1"},"vehicle_type_id":"4","last_reported":1692115684,"current_range_meters":21600,"station_id":"ce4bhg12rcd13ifvqf80","pricing_plan_id":"free"},{"bike_id":"b45afeb2-c4cd-4f9d-af22-ac701d2f4bec","system_id":"levelo_inurba_marseille","lat":43.27968,"lon":5.38739,"is_reserved":false,"is_disabled":false,"rental_uris":{"android":"levelo://app?vid=b45afeb2-c4cd-4f9d-af22-ac701d2f4bec","ios":"levelo://app?vid=b45afeb2-c4cd-4f9d-af22-ac701d2f4bec"},"vehicle_type_id":"4","last_reported":1692115684,"current_range_meters":18400,"station_id":"","pricing_plan_id":"free"},{"bike_id":"76848e3c-c05a-49bb-8302-17f9cbd65382","system_id":"levelo_inurba_marseille","lat":43.320045,"lon":5.415046,"is_reserved":false,"is_disabled":false,"rental_uris":{"android":"levelo://app?vid=76848e3c-c05a-49bb-8302-17f9cbd65382","ios":"levelo://app?vid=76848e3c-c05a-49bb-8302-17f9cbd65382"},"vehicle_type_id":"4","last_reported":1692115684,"current_range_meters":31200,"station_id":"ce4bhq92rcd13ifvqhkg","pricing_plan_id":"free"},{"bike_id":"c327718a-8fe6-4791-a349-aba0f8f94e82","system_id":"levelo_inurba_marseille","lat":43.279742,"lon":5.38744,"is_reserved":false,"is_disabled":false,"rental_uris":{"android":"levelo://app?vid=c327718a-8fe6-4791-a349-aba0f8f94e82","ios":"levelo://app?vid=c327718a-8fe6-4791-a349-aba0f8f94e82"},"vehicle_type_id":"4","last_reported":1692115684,"current_range_meters":26800,"station_id":"ce4bhg12rcd13ifvqf80","pricing_plan_id":"free"},{"bike_id":"f4f4607f-a550-4c60-a2ef-0e49364c5d6e","system_id":"levelo_inurba_marseille","lat":43.292569,"lon":5.409107,"is_reserved":false,"is_disabled":false,"rental_uris":{"android":"levelo://app?vid=f4f4607f-a550-4c60-a2ef-0e49364c5d6e","ios":"levelo://app?vid=f4f4607f-a550-4c60-a2ef-0e49364c5d6e"},"vehicle_type_id":"4","last_reported":1692115684,"current_range_meters":12400,"station_id":"ce4bh192rcd13ifvqdc0","pricing_plan_id":"free"},{"bike_id":"34c3a0b8-08ec-42fe-b08f-c34e150ffa56","system_id":"levelo_inurba_marseille","lat":43.325233,"lon":5.414318,"is_reserved":false,"is_disabled":false,"rental_uris":{"android":"levelo://app?vid=34c3a0b8-08ec-42fe-b08f-c34e150ffa56","ios":"levelo://app?vid=34c3a0b8-08ec-42fe-b08f-c34e150ffa56"},"vehicle_type_id":"4","last_reported":1692115684,"current_range_meters":31200,"station_id":"ce4bhq12rcd13ifvqhhg","pricing_plan_id":"free"},{"bike_id":"386ed8e3-b71e-4f68-86af-202c5b76503e","system_id":"levelo_inurba_marseille","lat":43.27619,"lon":5.36109,"is_reserved":false,"is_disabled":false,"rental_uris":{"android":"levelo://app?vid=386ed8e3-b71e-4f68-86af-202c5b76503e","ios":"levelo://app?vid=386ed8e3-b71e-4f68-86af-202c5b76503e"},"vehicle_type_id":"4","last_reported":1692115684,"current_range_meters":9600,"station_id":"ce4bgj92rcd13ifvqbe0","pricing_plan_id":"free"},{"bike_id":"ac86532b-9ac0-46eb-856f-4bbe20f9a4e3","system_id":"levelo_inurba_marseille","lat":43.325233,"lon":5.414318,"is_reserved":false,"is_disabled":false,"rental_uris":{"android":"levelo://app?vid=ac86532b-9ac0-46eb-856f-4bbe20f9a4e3","ios":"levelo://app?vid=ac86532b-9ac0-46eb-856f-4bbe20f9a4e3"},"vehicle_type_id":"4","last_reported":1692115684,"current_range_meters":31200,"station_id":"ce4bhq12rcd13ifvqhhg","pricing_plan_id":"free"},{"bike_id":"159c9f51-529b-4273-b96a-26362a188716","system_id":"levelo_inurba_marseille","lat":43.280784,"lon":5.396622,"is_reserved":false,"is_disabled":false,"rental_uris":{"android":"levelo://app?vid=159c9f51-529b-4273-b96a-26362a188716","ios":"levelo://app?vid=159c9f51-529b-4273-b96a-26362a188716"},"vehicle_type_id":"4","last_reported":1692115684,"current_range_meters":16000,"station_id":"ce4bho12rcd13ifvqh2g","pricing_plan_id":"free"},{"bike_id":"243a3b99-9887-4b74-be5e-732fdc17470a","system_id":"levelo_inurba_marseille","lat":43.303837,"lon":5.418724,"is_reserved":false,"is_disabled":false,"rental_uris":{"android":"levelo://app?vid=243a3b99-9887-4b74-be5e-732fdc17470a","ios":"levelo://app?vid=243a3b99-9887-4b74-be5e-732fdc17470a"},"vehicle_type_id":"4","last_reported":1692115684,"current_range_meters":25600,"station_id":"ce4bhop2rcd13ifvqh7g","pricing_plan_id":"free"},{"bike_id":"9d4f04bb-f505-439d-99fb-74b42e4de74f","system_id":"levelo_inurba_marseille","lat":43.303837,"lon":5.418724,"is_reserved":false,"is_disabled":false,"rental_uris":{"android":"levelo://app?vid=9d4f04bb-f505-439d-99fb-74b42e4de74f","ios":"levelo://app?vid=9d4f04bb-f505-439d-99fb-74b42e4de74f"},"vehicle_type_id":"4","last_reported":1692115684,"current_range_meters":25200,"station_id":"ce4bhop2rcd13ifvqh7g","pricing_plan_id":"free"},{"bike_id":"bfa1b2a9-2838-479c-9a90-cf379ba16cfb","system_id":"levelo_inurba_marseille","lat":43.278399,"lon":5.392139,"is_reserved":false,"is_disabled":false,"rental_uris":{"android":"levelo://app?vid=bfa1b2a9-2838-479c-9a90-cf379ba16cfb","ios":"levelo://app?vid=bfa1b2a9-2838-479c-9a90-cf379ba16cfb"},"vehicle_type_id":"4","last_reported":1692115684,"current_range_meters":27200,"station_id":"ce4bhjp2rcd13ifvqga0","pricing_plan_id":"free"},{"bike_id":"0993fbac-b909-4e0d-92ec-78e471b0d079","system_id":"levelo_inurba_marseille","lat":43.275625,"lon":5.384392,"is_reserved":false,"is_disabled":false,"rental_uris":{"android":"levelo://app?vid=0993fbac-b909-4e0d-92ec-78e471b0d079","ios":"levelo://app?vid=0993fbac-b909-4e0d-92ec-78e471b0d079"},"vehicle_type_id":"4","last_reported":1692115684,"current_range_meters":28400,"station_id":"ce4bhh92rcd13ifvqfi0","pricing_plan_id":"free"},{"bike_id":"30c84de5-f127-4fce-9e89-f1cd2e157570","system_id":"levelo_inurba_marseille","lat":43.273613,"lon":5.362705,"is_reserved":false,"is_disabled":false,"rental_uris":{"android":"levelo://app?vid=30c84de5-f127-4fce-9e89-f1cd2e157570","ios":"levelo://app?vid=30c84de5-f127-4fce-9e89-f1cd2e157570"},"vehicle_type_id":"4","last_reported":1692115684,"current_range_meters":14000,"station_id":"ce4bhbh2rcd13ifvqeo0","pricing_plan_id":"free"},{"bike_id":"cbbcd6a9-19f0-4891-a77f-f5df7690e179","system_id":"levelo_inurba_marseille","lat":43.273609,"lon":5.362708,"is_reserved":false,"is_disabled":false,"rental_uris":{"android":"levelo://app?vid=cbbcd6a9-19f0-4891-a77f-f5df7690e179","ios":"levelo://app?vid=cbbcd6a9-19f0-4891-a77f-f5df7690e179"},"vehicle_type_id":"4","last_reported":1692115684,"current_range_meters":20800,"station_id":"ce4bhbh2rcd13ifvqeo0","pricing_plan_id":"free"},{"bike_id":"2c002134-e4d2-41d1-b436-28e8e2ea24ca","system_id":"levelo_inurba_marseille","lat":43.276769,"lon":5.388787,"is_reserved":false,"is_disabled":false,"rental_uris":{"android":"levelo://app?vid=2c002134-e4d2-41d1-b436-28e8e2ea24ca","ios":"levelo://app?vid=2c002134-e4d2-41d1-b436-28e8e2ea24ca"},"vehicle_type_id":"4","last_reported":1692115684,"current_range_meters":30800,"station_id":"ce4bhi12rcd13ifvqfo0","pricing_plan_id":"free"},{"bike_id":"708cb3d6-3fe8-41bd-a9cd-40d68d3be175","system_id":"levelo_inurba_marseille","lat":43.317121,"lon":5.423936,"is_reserved":false,"is_disabled":false,"rental_uris":{"android":"levelo://app?vid=708cb3d6-3fe8-41bd-a9cd-40d68d3be175","ios":"levelo://app?vid=708cb3d6-3fe8-41bd-a9cd-40d68d3be175"},"vehicle_type_id":"4","last_reported":1692115684,"current_range_meters":26800,"station_id":"ce4bhp92rcd13ifvqhbg","pricing_plan_id":"free"},{"bike_id":"515e0396-ea5b-4781-85b1-4e70fdf6470c","system_id":"levelo_inurba_marseille","lat":43.310785,"lon":5.424305,"is_reserved":false,"is_disabled":false,"rental_uris":{"android":"levelo://app?vid=515e0396-ea5b-4781-85b1-4e70fdf6470c","ios":"levelo://app?vid=515e0396-ea5b-4781-85b1-4e70fdf6470c"},"vehicle_type_id":"4","last_reported":1692115684,"current_range_meters":31200,"station_id":"ce4bhp92rcd13ifvqhag","pricing_plan_id":"free"},{"bike_id":"f29761c8-e9ab-4bb7-83a7-875d7e018736","system_id":"levelo_inurba_marseille","lat":43.317121,"lon":5.423936,"is_reserved":false,"is_disabled":false,"rental_uris":{"android":"levelo://app?vid=f29761c8-e9ab-4bb7-83a7-875d7e018736","ios":"levelo://app?vid=f29761c8-e9ab-4bb7-83a7-875d7e018736"},"vehicle_type_id":"4","last_reported":1692115684,"current_range_meters":29200,"station_id":"ce4bhp92rcd13ifvqhbg","pricing_plan_id":"free"},{"bike_id":"57d9c5b2-ac56-453a-bcb5-0312cf05fc40","system_id":"levelo_inurba_marseille","lat":43.310785,"lon":5.424305,"is_reserved":false,"is_disabled":false,"rental_uris":{"android":"levelo://app?vid=57d9c5b2-ac56-453a-bcb5-0312cf05fc40","ios":"levelo://app?vid=57d9c5b2-ac56-453a-bcb5-0312cf05fc40"},"vehicle_type_id":"4","last_reported":1692115684,"current_range_meters":31200,"station_id":"ce4bhp92rcd13ifvqhag","pricing_plan_id":"free"},