{"last_updated":1745935820,"ttl":60,"version":"2.2","data":{"bikes":[{"bike_id":"0d42d741-2505-42aa-b79a-41df572094e2","system_id":"levelo_inurba_marseille","lat":43.27626,"lon":5.39315,"is_reserved":false,"is_disabled":true,"rental_uris":{"android":"levelo://app?vid=0d42d741-2505-42aa-b79a-41df572094e2","ios":"levelo://app?vid=0d42d741-2505-42aa-b79a-41df572094e2"},"vehicle_type_id":"4","last_reported":1745935820,"current_range_meters":0,"station_id":"","pricing_plan_id":"cebpf4jnsgd1na2vs0mg"},{"bike_id":"b156cb3a-a131-4c8b-b3b5-13ae6db8151f","system_id":"levelo_inurba_marseille","lat":43.268754,"lon":5.381718,"is_reserved":false,"is_disabled":true,"rental_uris":{"android":"levelo://app?vid=b156cb3a-a131-4c8b-b3b5-13ae6db8151f","ios":"levelo://app?vid=b156cb3a-a131-4c8b-b3b5-13ae6db8151f"},"vehicle_type_id":"4","last_reported":1745935820,"current_range_meters":0,"station_id":"","pricing_plan_id":"cebpf4jnsgd1na2vs0mg"},{"bike_id":"8f515858-71d6-4b47-b989-20758303e199","system_id":"levelo_inurba_marseille","lat":43.268,"lon":5.42638,"is_reserved":false,"is_disabled":true,"rental_uris":{"android":"levelo://app?vid=8f515858-71d6-4b47-b989-20758303e199","ios":"levelo://app?vid=8f515858-71d6-4b47-b989-20758303e199"},"vehicle_type_id":"4","last_reported":1745935820,"current_range_meters":0,"station_id":"","pricing_plan_id":"cebpf4jnsgd1na2vs0mg"},{"bike_id":"74677f28-3596-4c5b-98de-ba4120a70f9d","system_id":"levelo_inurba_marseille","lat":43.25628,"lon":5.41197,"is_reserved":false,"is_disabled":true,"rental_uris":{"android":"levelo://app?vid=74677f28-3596-4c5b-98de-ba4120a70f9d","ios":"levelo://app?vid=74677f28-3596-4c5b-98de-ba4120a70f9d"},"vehicle_type_id":"4","last_reported":1745935820,"current_range_meters":0,"station_id":"","pricing_plan_id":"cebpf4jnsgd1na2vs0mg"},{"bike_id":"9e2ed24c-a8e8-4759-b396-7d820551a1cd","system_id":"levelo_inurba_marseille","lat":43.26712,"lon":5.4022,"is_reserved":false,"is_disabled":true,"rental_uris":{"android":"levelo://app?vid=9e2ed24c-a8e8-4759-b396-7d820551a1cd","ios":"levelo://app?vid=9e2ed24c-a8e8-4759-b396-7d820551a1cd"},"vehicle_type_id":"4","last_reported":1745935820,"current_range_meters":0,"station_id":"","pricing_plan_id":"cebpf4jnsgd1na2vs0mg"},{"bike_id":"705db5aa-feb0-4862-923d-cfb22bced0d3","system_id":"levelo_inurba_marseille","lat":43.21493,"lon":5.34836,"is_reserved":false,"is_disabled":true,"rental_uris":{"android":"levelo://app?vid=705db5aa-feb0-4862-923d-cfb22bced0d3","ios":"levelo://app?vid=705db5aa-feb0-4862-923d-cfb22bced0d3"},"vehicle_type_id":"4","last_reported":1745935820,"current_range_meters":0,"station_id":"","pricing_plan_id":"cebpf4jnsgd1na2vs0mg"},{"bike_id":"531e9a82-3316-4efe-8ac2-723cf06af81f","system_id":"levelo_inurba_marseille","lat":43.31493,"lon":5.37306,"is_reserved":false,"is_disabled":true,"rental_uris":{"android":"levelo://app?vid=531e9a82-3316-4efe-8ac2-723cf06af81f","ios":"levelo://app?vid=531e9a82-3316-4efe-8ac2-723cf06af81f"},"vehicle_type_id":"4","last_reported":1745935820,"current_range_meters":0,"station_id":"ce4bgt12rcd13ifvqcd0","pricing_plan_id":"cebpf4jnsgd1na2vs0mg"},{"bike_id":"12a527fd-4bab-406c-ac1c-7753d55253d1","system_id":"levelo_inurba_marseille","lat":43.29277,"lon":5.40115,"is_reserved":false,"is_disabled":true,"rental_uris":{"android":"levelo://app?vid=12a527fd-4bab-406c-ac1c-7753d55253d1","ios":"levelo://app?vid=12a527fd-4bab-406c-ac1c-7753d55253d1"},"vehicle_type_id":"4","last_reported":1745935820,"current_range_meters":0,"station_id":"ce4bh312rcd13ifvqdk0","pricing_plan_id":"cebpf4jnsgd1na2vs0mg"},{"bike_id":"77466938-5672-42a0-987d-4f733e70ecfb","system_id":"levelo_inurba_marseille","lat":43.28689,"lon":5.38664,"is_reserved":false,"is_disabled":true,"rental_uris":{"android":"levelo://app?vid=77466938-5672-42a0-987d-4f733e70ecfb","ios":"levelo://app?vid=77466938-5672-42a0-987d-4f733e70ecfb"},"vehicle_type_id":"4","last_reported":1745935820,"current_range_meters":0,"station_id":"ce4bh492rcd13ifvqdug","pricing_plan_id":"cebpf4jnsgd1na2vs0mg"},{"bike_id":"5c634152-8612-498f-bc6f-93b4d5da1eff","system_id":"levelo_inurba_marseille","lat":43.28042,"lon":5.36949,"is_reserved":false,"is_disabled":true,"rental_uris":{"android":"levelo://app?vid=5c634152-8612-498f-bc6f-93b4d5da1eff","ios":"levelo://app?vid=5c634152-8612-498f-bc6f-93b4d5da1eff"},"vehicle_type_id":"4","last_reported":1745935820,"current_range_meters":0,"station_id":"ce4bha12rcd13ifvqef0","pricing_plan_id":"cebpf4jnsgd1na2vs0mg"},{"bike_id":"a6c57035-a53d-4dc0-8e22-0d2af098a9b8","system_id":"levelo_inurba_marseille","lat":43.292799,"lon":5.368679,"is_reserved":false,"is_disabled":true,"rental_uris":{"android":"levelo://app?vid=a6c57035-a53d-4dc0-8e22-0d2af098a9b8","ios":"levelo://app?vid=a6c57035-a53d-4dc0-8e22-0d2af098a9b8"},"vehicle_type_id":"4","last_reported":1745935820,"current_range_meters":0,"station_id":"ce4bhbp2rcd13ifvqesg","pricing_plan_id":"cebpf4jnsgd1na2vs0mg"},{"bike_id":"05ddab7b-932d-4dd2-b6cc-bf77931afc0c","system_id":"levelo_inurba_marseille","lat":43.25584,"lon":5.3823,"is_reserved":false,"is_disabled":false,"rental_uris":{"android":"levelo://app?vid=05ddab7b-932d-4dd2-b6cc-bf77931afc0c","ios":"levelo://app?vid=05ddab7b-932d-4dd2-b6cc-bf77931afc0c"},"vehicle_type_id":"4","last_reported":1745935820,"current_range_meters":0,"station_id":"ce4bhih2rcd13ifvqfs0","pricing_plan_id":"cebpf4jnsgd1na2vs0mg"},{"bike_id":"b1040775-cdbd-4461-a120-155006f740eb","system_id":"levelo_inurba_marseille","lat":43.21195,"lon":5.35071,"is_reserved":false,"is_disabled":true,"rental_uris":{"android":"levelo://app?vid=b1040775-cdbd-4461-a120-155006f740eb","ios":"levelo://app?vid=b1040775-cdbd-4461-a120-155006f740eb"},"vehicle_type_id":"4","last_reported":1745935820,"current_range_meters":0,"station_id":"st_cvj6sg6p6f1abm77japg","pricing_plan_id":"cebpf4jnsgd1na2vs0mg"},{"bike_id":"2f06a072-bc6b-4067-a65a-93c068d77fd4","system_id":"levelo_inurba_marseille","lat":43.21195,"lon":5.35072,"is_reserved":false,"is_disabled":true,"rental_uris":{"android":"levelo://app?vid=2f06a072-bc6b-4067-a65a-93c068d77fd4","ios":"levelo://app?vid=2f06a072-bc6b-4067-a65a-93c068d77fd4"},"vehicle_type_id":"4","last_reported":1745935820,"current_range_meters":0,"station_id":"st_cvj6sg6p6f1abm77japg","pricing_plan_id":"cebpf4jnsgd1na2vs0mg"},{"bike_id":"08f5032d-11cf-441a-846b-f89c7edee71f","system_id":"levelo_inurba_marseille","lat":43.23155,"lon":5.43706,"is_reserved":false,"is_disabled":true,"rental_uris":{"android":"levelo://app?vid=08f5032d-11cf-441a-846b-f89c7edee71f","ios":"levelo://app?vid=08f5032d-11cf-441a-846b-f89c7edee71f"},"vehicle_type_id":"4","last_reported":1745935820,"current_range_meters":400,"station_id":"","pricing_plan_id":"cebpf4jnsgd1na2vs0mg"},{"bike_id":"39446ec0-8d41-4f5e-81fa-b41656d7db3d","system_id":"levelo_inurba_marseille","lat":43.30555,"lon":5.36711,"is_reserved":false,"is_disabled":true,"rental_uris":{"android":"levelo://app?vid=39446ec0-8d41-4f5e-81fa-b41656d7db3d","ios":"levelo://app?vid=39446ec0-8d41-4f5e-81fa-b41656d7db3d"},"vehicle_type_id":"4","last_reported":1745935820,"current_range_meters":400,"station_id":"ce4bgrp2rcd13ifvqc9g","pricing_plan_id":"cebpf4jnsgd1na2vs0mg"},{"bike_id":"3b03a03c-22a0-47dd-81a3-5055cc647b5b","system_id":"levelo_inurba_marseille","lat":43.310738,"lon":5.383378,"is_reserved":false,"is_disabled":true,"rental_uris":{"android":"levelo://app?vid=3b03a03c-22a0-47dd-81a3-5055cc647b5b","ios":"levelo://app?vid=3b03a03c-22a0-47dd-81a3-5055cc647b5b"},"vehicle_type_id":"4","last_reported":1745935820,"current_range_meters":400,"station_id":"ce4bgv92rcd13ifvqcr0","pricing_plan_id":"cebpf4jnsgd1na2vs0mg"},{"bike_id":"276f71e7-e39f-4248-ba82-21879086eea1","system_id":"levelo_inurba_marseille","lat":43.26215,"lon":5.37439,"is_reserved":false,"is_disabled":true,"rental_uris":{"android":"levelo://app?vid=276f71e7-e39f-4248-ba82-21879086eea1","ios":"levelo://app?vid=276f71e7-e39f-4248-ba82-21879086eea1"},"vehicle_type_id":"4","last_reported":1745935820,"current_range_meters":400,"station_id":"ce4bhgp2rcd13ifvqfc0","pricing_plan_id":"cebpf4jnsgd1na2vs0mg"},{"bike_id":"ee5601fb-d6fa-4743-9c3b-03d912aa7ad2","system_id":"levelo_inurba_marseille","lat":43.296208,"lon":5.377136,"is_reserved":false,"is_disabled":false,"rental_uris":{"android":"levelo://app?vid=ee5601fb-d6fa-4743-9c3b-03d912aa7ad2","ios":"levelo://app?vid=ee5601fb-d6fa-4743-9c3b-03d912aa7ad2"},"vehicle_type_id":"4","last_reported":1745935820,"current_range_meters":1200,"station_id":"ce4bgi92rcd13ifvqb90","pricing_plan_id":"cebpf4jnsgd1na2vs0mg"},{"bike_id":"1a8e24ed-fdcd-4177-83b3-e30011b43e15","system_id":"levelo_inurba_marseille","lat":43.28361,"lon":5.38098,"is_reserved":false,"is_disabled":true,"rental_uris":{"android":"levelo://app?vid=1a8e24ed-fdcd-4177-83b3-e30011b43e15","ios":"levelo://app?vid=1a8e24ed-fdcd-4177-83b3-e30011b43e15"},"vehicle_type_id":"4","last_reported":1745935820,"current_range_meters":1200,"station_id":"ce4bh412rcd13ifvqdr0","pricing_plan_id":"cebpf4jnsgd1na2vs0mg"},{"bike_id":"eae2f192-c2ec-4fe6-8324-e810008cd9bf","system_id":"levelo_inurba_marseille","lat":43.29013,"lon":5.35615,"is_reserved":false,"is_disabled":true,"rental_uris":{"android":"levelo://app?vid=eae2f192-c2ec-4fe6-8324-e810008cd9bf","ios":"levelo://app?vid=eae2f192-c2ec-4fe6-8324-e810008cd9bf"},"vehicle_type_id":"4","last_reported":1745935820,"current_range_meters":1200,"station_id":"ce4bhb92rcd13ifvqen0","pricing_plan_id":"cebpf4jnsgd1na2vs0mg"},{"bike_id":"fa0ee41b-66fa-470a-baac-1d346716dde1","system_id":"levelo_inurba_marseille","lat":43.29377,"lon":5.3783,"is_reserved":false,"is_disabled":true,"rental_uris":{"android":"levelo://app?vid=fa0ee41b-66fa-470a-baac-1d346716dde1","ios":"levelo://app?vid=fa0ee41b-66fa-470a-baac-1d346716dde1"},"vehicle_type_id":"4","last_reported":1745935820,"current_range_meters":1600,"station_id":"ce4bgjh2rcd13ifvqbf0","pricing_plan_id":"cebpf4jnsgd1na2vs0mg"},{"bike_id":"9b75a710-10d3-477a-8e90-7531135b0547","system_id":"levelo_inurba_marseille","lat":43.289121,"lon":5.36648,"is_reserved":false,"is_disabled":true,"rental_uris":{"android":"levelo://app?vid=9b75a710-10d3-477a-8e90-7531135b0547","ios":"levelo://app?vid=9b75a710-10d3-477a-8e90-7531135b0547"},"vehicle_type_id":"4","last_reported":1745935820,"current_range_meters":1600,"station_id":"ce4bha12rcd13ifvqef0","pricing_plan_id":"cebpf4jnsgd1na2vs0mg"},{"bike_id":"d16ceb85-dacc-4864-baa9-5e10aedcfdec","system_id":"levelo_inurba_marseille","lat":43.2656,"lon":5.37295,"is_reserved":false,"is_disabled":true,"rental_uris":{"android":"levelo://app?vid=d16ceb85-dacc-4864-baa9-5e10aedcfdec","ios":"levelo://app?vid=d16ceb85-dacc-4864-baa9-5e10aedcfdec"},"vehicle_type_id":"4","last_reported":1745935820,"current_range_meters":1600,"station_id":"ce4bhg12rcd13ifvqf70","pricing_plan_id":"cebpf4jnsgd1na2vs0mg"},{"bike_id":"6b7b02c4-94f0-4ad2-9cde-846a408b4a7e","system_id":"levelo_inurba_marseille","lat":43.26964,"lon":5.38651,"is_reserved":false,"is_disabled":true,"rental_uris":{"android":"levelo://app?vid=6b7b02c4-94f0-4ad2-9cde-846a408b4a7e","ios":"levelo://app?vid=6b7b02c4-94f0-4ad2-9cde-846a408b4a7e"},"vehicle_type_id":"4","last_reported":1745935820,"current_range_meters":1600,"station_id":"ce4bhh92rcd13ifvqfh0","pricing_plan_id":"cebpf4jnsgd1na2vs0mg"},{"bike_id":"853260e8-24d5-4f25-adbc-bb937e85dd33","system_id":"levelo_inurba_marseille","lat":43.30787,"lon":5.43513,"is_reserved":false,"is_disabled":true,"rental_uris":{"android":"levelo://app?vid=853260e8-24d5-4f25-adbc-bb937e85dd33","ios":"levelo://app?vid=853260e8-24d5-4f25-adbc-bb937e85dd33"},"vehicle_type_id":"4","last_reported":1745935820,"current_range_meters":2000,"station_id":"ce4bhph2rcd13ifvqheg","pricing_plan_id":"cebpf4jnsgd1na2vs0mg"},{"bike_id":"9ac69337-fc00-4cac-a57d-2a03060bd50f","system_id":"levelo_inurba_marseille","lat":43.32125,"lon":5.36794,"is_reserved":false,"is_disabled":true,"rental_uris":{"android":"levelo://app?vid=9ac69337-fc00-4cac-a57d-2a03060bd50f","ios":"levelo://app?vid=9ac69337-fc00-4cac-a57d-2a03060bd50f"},"vehicle_type_id":"4","last_reported":1745935820,"current_range_meters":2000,"station_id":"ce4bhrh2rcd13ifvqhug","pricing_plan_id":"cebpf4jnsgd1na2vs0mg"},{"bike_id":"a4c8a335-745b-4d95-97e0-7bac3cb18549","system_id":"levelo_inurba_marseille","lat":43.2805,"lon":5.39729,"is_reserved":false,"is_disabled":false,"rental_uris":{"android":"levelo://app?vid=a4c8a335-745b-4d95-97e0-7bac3cb18549","ios":"levelo://app?vid=a4c8a335-745b-4d95-97e0-7bac3cb18549"},"vehicle_type_id":"4","last_reported":1745935820,"current_range_meters":3200,"station_id":"","pricing_plan_id":"cebpf4jnsgd1na2vs0mg"},{"bike_id":"f3f7c35c-8a06-400c-aaef-ea56064f50c8","system_id":"levelo_inurba_marseille","lat":43.25819,"lon":5.39438,"is_reserved":false,"is_disabled":false,"rental_uris":{"android":"levelo://app?vid=f3f7c35c-8a06-400c-aaef-ea56064f50c8","ios":"levelo://app?vid=f3f7c35c-8a06-400c-aaef-ea56064f50c8"},"vehicle_type_id":"4","last_reported":1745935820,"current_range_meters":3200,"station_id":"ce4bhip2rcd13ifvqft0","pricing_plan_id":"cebpf4jnsgd1na2vs0mg"},{"bike_id":"e0d941d2-02b4-42a0-a9cf-f270bd1b41d8","system_id":"levelo_inurba_marseille","lat":43.26051,"lon":5.37551,"is_reserved":false,"is_disabled":false,"rental_uris":{"android":"levelo://app?vid=e0d941d2-02b4-42a0-a9cf-f270bd1b41d8","ios":"levelo://app?vid=e0d941d2-02b4-42a0-a9cf-f270bd1b41d8"},"vehicle_type_id":"4","last_reported":1745935820,"current_range_meters":3600,"station_id":"ce4bhgh2rcd13ifvqfa0","pricing_plan_id":"cebpf4jnsgd1na2vs0mg"},{"bike_id":"4da256f5-79e3-4563-a360-0f7ec31acf08","system_id":"levelo_inurba_marseille","lat":43.2777,"lon":5.355714,"is_reserved":false,"is_disabled":false,"rental_uris":{"android":"levelo://app?vid=4da256f5-79e3-4563-a360-0f7ec31acf08","ios":"levelo://app?vid=4da256f5-79e3-4563-a360-0f7ec31acf08"},"vehicle_type_id":"4","last_reported":1745935820,"current_range_meters":4000,"station_id":"ce4bhah2rcd13ifvqei0","pricing_plan_id":"cebpf4jnsgd1na2vs0mg"},{"bike_id":"86ab0af3-b351-49ab-bbe5-c9a7ac141512","system_id":"levelo_inurba_marseille","lat":43.32544,"lon":5.41457,"is_reserved":false,"is_disabled":false,"rental_uris":{"android":"levelo://app?vid=86ab0af3-b351-49ab-bbe5-c9a7ac141512","ios":"levelo://app?vid=86ab0af3-b351-49ab-bbe5-c9a7ac141512"},"vehicle_type_id":"4","last_reported":1745935820,"current_range_meters":4000,"station_id":"ce4bhq12rcd13ifvqhhg","pricing_plan_id":"cebpf4jnsgd1na2vs0mg"},{"bike_id":"b46bdf48-0306-49fa-afca-52347f4d9b72","system_id":"levelo_inurba_marseille","lat":43.31759,"lon":5.39015,"is_reserved":false,"is_disabled":false,"rental_uris":{"android":"levelo://app?vid=b46bdf48-0306-49fa-afca-52347f4d9b72","ios":"levelo://app?vid=b46bdf48-0306-49fa-afca-52347f4d9b72"},"vehicle_type_id":"4","last_reported":1745935820,"current_range_meters":4000,"station_id":"ce4bhqp2rcd13ifvqhng","pricing_plan_id":"cebpf4jnsgd1na2vs0mg"},{"bike_id":"669de8df-47b7-471d-ab94-96a6d55f8a1b","system_id":"levelo_inurba_marseille","lat":43.26501,"lon":5.39537,"is_reserved":false,"is_disabled":false,"rental_uris":{"android":"levelo://app?vid=669de8df-47b7-471d-ab94-96a6d55f8a1b","ios":"levelo://app?vid=669de8df-47b7-471d-ab94-96a6d55f8a1b"},"vehicle_type_id":"4","last_reported":1745935820,"current_range_meters":4400,"station_id":"ce4bhi12rcd13ifvqfq0","pricing_plan_id":"cebpf4jnsgd1na2vs0mg"},{"bike_id":"26deac1f-c435-40bc-9469-9ae0b266bb77","system_id":"levelo_inurba_marseille","lat":43.30198,"lon":5.3847,"is_reserved":false,"is_disabled":false,"rental_uris":{"android":"levelo://app?vid=26deac1f-c435-40bc-9469-9ae0b266bb77","ios":"levelo://app?vid=26deac1f-c435-40bc-9469-9ae0b266bb77"},"vehicle_type_id":"4","last_reported":1745935820,"current_range_meters":4800,"station_id":"","pricing_plan_id":"cebpf4jnsgd1na2vs0mg"},{"bike_id":"2607154a-de4a-49c9-b88f-070219f583c6","system_id":"levelo_inurba_marseille","lat":43.2738,"lon":5.36241,"is_reserved":false,"is_disabled":false,"rental_uris":{"android":"levelo://app?vid=2607154a-de4a-49c9-b88f-070219f583c6","ios":"levelo://app?vid=2607154a-de4a-49c9-b88f-070219f583c6"},"vehicle_type_id":"4","last_reported":1745935820,"current_range_meters":4800,"station_id":"ce4bhbh2rcd13ifvqeo0","pricing_plan_id":"cebpf4jnsgd1na2vs0mg"},{"bike_id":"5a9e7384-c6f3-46e3-afd4-07e76d42b9a1","system_id":"levelo_inurba_marseille","lat":43.27621,"lon":5.36104,"is_reserved":false,"is_disabled":false,"rental_uris":{"android":"levelo://app?vid=5a9e7384-c6f3-46e3-afd4-07e76d42b9a1","ios":"levelo://app?vid=5a9e7384-c6f3-46e3-afd4-07e76d42b9a1"},"vehicle_type_id":"4","last_reported":1745935820,"current_range_meters":5600,"station_id":"ce4bgj92rcd13ifvqbe0","pricing_plan_id":"cebpf4jnsgd1na2vs0mg"},{"bike_id":"ada76a0d-a18c-4682-b6ad-0105f5731f0e","system_id":"levelo_inurba_marseille","lat":43.23968,"lon":5.36628,"is_reserved":false,"is_disabled":false,"rental_uris":{"android":"levelo://app?vid=ada76a0d-a18c-4682-b6ad-0105f5731f0e","ios":"levelo://app?vid=ada76a0d-a18c-4682-b6ad-0105f5731f0e"},"vehicle_type_id":"4","last_reported":1745935820,"current_range_meters":5600,"station_id":"ce4bhi12rcd13ifvqfp0","pricing_plan_id":"cebpf4jnsgd1na2vs0mg"},{"bike_id":"e90eb66f-dfd6-4fb5-836e-4b76617ea6c9","system_id":"levelo_inurba_marseille","lat":43.2706,"lon":5.40255,"is_reserved":false,"is_disabled":false,"rental_uris":{"android":"levelo://app?vid=e90eb66f-dfd6-4fb5-836e-4b76617ea6c9","ios":"levelo://app?vid=e90eb66f-dfd6-4fb5-836e-4b76617ea6c9"},"vehicle_type_id":"4","last_reported":1745935820,"current_range_meters":5600,"station_id":"ce4bhk92rcd13ifvqgc0","pricing_plan_id":"cebpf4jnsgd1na2vs0mg"},{"bike_id":"907ceb28-62e0-41f2-850a-2b41e29b992b","system_id":"levelo_inurba_marseille","lat":43.28155,"lon":5.42645,"is_reserved":false,"is_disabled":false,"rental_uris":{"android":"levelo://app?vid=907ceb28-62e0-41f2-850a-2b41e29b992b","ios":"levelo://app?vid=907ceb28-62e0-41f2-850a-2b41e29b992b"},"vehicle_type_id":"4","last_reported":1745935820,"current_range_meters":5600,"station_id":"ce4bhnh2rcd13ifvqgug","pricing_plan_id":"cebpf4jnsgd1na2vs0mg"},{"bike_id":"3ac287ba-ecb9-464d-b967-5e9d83e6aec1","system_id":"levelo_inurba_marseille","lat":43.337503,"lon":5.391975,"is_reserved":false,"is_disabled":false,"rental_uris":{"android":"levelo://app?vid=3ac287ba-ecb9-464d-b967-5e9d83e6aec1","ios":"levelo://app?vid=3ac287ba-ecb9-464d-b967-5e9d83e6aec1"},"vehicle_type_id":"4","last_reported":1745935820,"current_range_meters":5600,"station_id":"ce4bhr92rcd13ifvqhsg","pricing_plan_id":"cebpf4jnsgd1na2vs0mg"},{"bike_id":"d12fcf82-aef5-42b3-b209-53a89f4c0b21","system_id":"levelo_inurba_marseille","lat":43.275701,"lon":5.38427,"is_reserved":false,"is_disabled":false,"rental_uris":{"android":"levelo://app?vid=d12fcf82-aef5-42b3-b209-53a89f4c0b21","ios":"levelo://app?vid=d12fcf82-aef5-42b3-b209-53a89f4c0b21"},"vehicle_type_id":"4","last_reported":1745935820,"current_range_meters":6000,"station_id":"","pricing_plan_id":"cebpf4jnsgd1na2vs0mg"},{"bike_id":"a927ad15-b129-4085-9072-8cc54f2c8cf2","system_id":"levelo_inurba_marseille","lat":43.32109,"lon":5.36792,"is_reserved":false,"is_disabled":false,"rental_uris":{"android":"levelo://app?vid=a927ad15-b129-4085-9072-8cc54f2c8cf2","ios":"levelo://app?vid=a927ad15-b129-4085-9072-8cc54f2c8cf2"},"vehicle_type_id":"4","last_reported":1745935820,"current_range_meters":6000,"station_id":"","pricing_plan_id":"cebpf4jnsgd1na2vs0mg"},{"bike_id":"bf05d069-2ec5-4246-9d82-6d6f716d8264","system_id":"levelo_inurba_marseille","lat":43.24175,"lon":5.36393,"is_reserved":false,"is_disabled":false,"rental_uris":{"android":"levelo://app?vid=bf05d069-2ec5-4246-9d82-6d6f716d8264","ios":"levelo://app?vid=bf05d069-2ec5-4246-9d82-6d6f716d8264"},"vehicle_type_id":"4","last_reported":1745935820,"current_range_meters":6000,"station_id":"cpo36qri1sfpv3e86is0","pricing_plan_id":"cebpf4jnsgd1na2vs0mg"},{"bike_id":"af4f0c69-e62d-4155-b1d1-a67b45271ae1","system_id":"levelo_inurba_marseille","lat":43.2476,"lon":5.41204,"is_reserved":false,"is_disabled":false,"rental_uris":{"android":"levelo://app?vid=af4f0c69-e62d-4155-b1d1-a67b45271ae1","ios":"levelo://app?vid=af4f0c69-e62d-4155-b1d1-a67b45271ae1"},"vehicle_type_id":"4","last_reported":1745935820,"current_range_meters":6400,"station_id":"","pricing_plan_id":"cebpf4jnsgd1na2vs0mg"},{"bike_id":"be945701-666f-4d3f-aab6-b65a28faca19","system_id":"levelo_inurba_marseille","lat":43.28676,"lon":5.38659,"is_reserved":false,"is_disabled":false,"rental_uris":{"android":"levelo://app?vid=be945701-666f-4d3f-aab6-b65a28faca19","ios":"levelo://app?vid=be945701-666f-4d3f-aab6-b65a28faca19"},"vehicle_type_id":"4","last_reported":1745935820,"current_range_meters":6400,"station_id":"ce4bh492rcd13ifvqdug","pricing_plan_id":"cebpf4jnsgd1na2vs0mg"},{"bike_id":"4e0aff3a-7e24-4626-b6fe-1c4d6af5283f","system_id":"levelo_inurba_marseille","lat":43.264228,"lon":5.392169,"is_reserved":false,"is_disabled":false,"rental_uris":{"android":"levelo://app?vid=4e0aff3a-7e24-4626-b6fe-1c4d6af5283f","ios":"levelo://app?vid=4e0aff3a-7e24-4626-b6fe-1c4d6af5283f"},"vehicle_type_id":"4","last_reported":1745935820,"current_range_meters":6400,"station_id":"ce4bhhp2rcd13ifvqfm0","pricing_plan_id":"cebpf4jnsgd1na2vs0mg"},{"bike_id":"59d961d2-5d45-482e-88e0-8b876fd9d3d9","system_id":"levelo_inurba_marseille","lat":43.24548,"lon":5.39526,"is_reserved":false,"is_disabled":false,"rental_uris":{"android":"levelo://app?vid=59d961d2-5d45-482e-88e0-8b876fd9d3d9","ios":"levelo://app?vid=59d961d2-5d45-482e-88e0-8b876fd9d3d9"},"vehicle_type_id":"4","last_reported":1745935820,"current_range_meters":6400,"station_id":"ce4bhlp2rcd13ifvqgjg","pricing_plan_id":"cebpf4jnsgd1na2vs0mg"},{"bike_id":"82b55767-8199-4042-8766-bd72a340438a","system_id":"levelo_inurba_marseille","lat":43.231408,"lon":5.436925,"is_reserved":false,"is_disabled":false,"rental_uris":{"android":"levelo://app?vid=82b55767-8199-4042-8766-bd72a340438a","ios":"levelo://app?vid=82b55767-8199-4042-8766-bd72a340438a"},"vehicle_type_id":"4","last_reported":1745935820,"current_range_meters":6400,"station_id":"ce4bhmp2rcd13ifvqgog","pricing_plan_id":"cebpf4jnsgd1na2vs0mg"},{"bike_id":"385e9c98-69db-4cd1-b082-7e5d6269ba9f","system_id":"levelo_inurba_marseille","lat":43.32543,"lon":5.41446,"is_reserved":false,"is_disabled":false,"rental_uris":{"android":"levelo://app?vid=385e9c98-69db-4cd1-b082-7e5d6269ba9f","ios":"levelo://app?vid=385e9c98-69db-4cd1-b082-7e5d6269ba9f"},"vehicle_type_id":"4","last_reported":1745935820,"current_range_meters":6400,"station_id":"ce4bhq12rcd13ifvqhhg","pricing_plan_id":"cebpf4jnsgd1na2vs0mg"},{"bike_id":"6fca341c-57b4-4e23-83e0-cf3d90f4c3f1","system_id":"levelo_inurba_marseille","lat":43.31167,"lon":5.3871,"is_reserved":false,"is_disabled":false,"rental_uris":{"android":"levelo://app?vid=6fca341c-57b4-4e23-83e0-cf3d90f4c3f1","ios":"levelo://app?vid=6fca341c-57b4-4e23-83e0-cf3d90f4c3f1"},"vehicle_type_id":"4","last_reported":1745935820,"current_range_meters":6800,"station_id":"ce4bgv12rcd13ifvqcp0","pricing_plan_id":"cebpf4jnsgd1na2vs0mg"},{"bike_id":"06b9d8a1-cc18-4fda-a6e1-9f15898d47fe","system_id":"levelo_inurba_marseille","lat":43.24145,"lon":5.37743,"is_reserved":false,"is_disabled":false,"rental_uris":{"android":"levelo://app?vid=06b9d8a1-cc18-4fda-a6e1-9f15898d47fe","ios":"levelo://app?vid=06b9d8a1-cc18-4fda-a6e1-9f15898d47fe"},"vehicle_type_id":"4","last_reported":1745935820,"current_range_meters":6800,"station_id":"ce4bhnp2rcd13ifvqgvg","pricing_plan_id":"cebpf4jnsgd1na2vs0mg"},{"bike_id":"cb1dc66d-8b96-4e97-800a-cb5ce368c0f9","system_id":"levelo_inurba_marseille","lat":43.29538,"lon":5.38545,"is_reserved":false,"is_disabled":false,"rental_uris":{"android":"levelo://app?vid=cb1dc66d-8b96-4e97-800a-cb5ce368c0f9","ios":"levelo://app?vid=cb1dc66d-8b96-4e97-800a-cb5ce368c0f9"},"vehicle_type_id":"4","last_reported":1745935820,"current_range_meters":7200,"station_id":"ce4bgih2rcd13ifvqba0","pricing_plan_id":"cebpf4jnsgd1na2vs0mg"},{"bike_id":"61af6f91-3739-4924-8729-c0adbdf191a5","system_id":"levelo_inurba_marseille","lat":43.27501,"lon":5.42449,"is_reserved":false,"is_disabled":false,"rental_uris":{"android":"levelo://app?vid=61af6f91-3739-4924-8729-c0adbdf191a5","ios":"levelo://app?vid=61af6f91-3739-4924-8729-c0adbdf191a5"},"vehicle_type_id":"4","last_reported":1745935820,"current_range_meters":8000,"station_id":"ce4bhn92rcd13ifvqgrg","pricing_plan_id":"cebpf4jnsgd1na2vs0mg"},{"bike_id":"c20b5e08-e290-4bd3-b132-f4b9af8b483a","system_id":"levelo_inurba_marseille","lat":43.27985,"lon":5.41651,"is_reserved":false,"is_disabled":false,"rental_uris":{"android":"levelo://app?vid=c20b5e08-e290-4bd3-b132-f4b9af8b483a","ios":"levelo://app?vid=c20b5e08-e290-4bd3-b132-f4b9af8b483a"},"vehicle_type_id":"4","last_reported":1745935820,"current_range_meters":8000,"station_id":"ce4bho12rcd13ifvqh1g","pricing_plan_id":"cebpf4jnsgd1na2vs0mg"},{"bike_id":"11beab31-c7c5-4dd2-a927-f48a7ff7bce4","system_id":"levelo_inurba_marseille","lat":43.32486,"lon":5.3656,"is_reserved":false,"is_disabled":false,"rental_uris":{"android":"levelo://app?vid=11beab31-c7c5-4dd2-a927-f48a7ff7bce4","ios":"levelo://app?vid=11beab31-c7c5-4dd2-a927-f48a7ff7bce4"},"vehicle_type_id":"4","last_reported":1745935820,"current_range_meters":8000,"station_id":"ce4bhs12rcd13ifvqhvg","pricing_plan_id":"cebpf4jnsgd1na2vs0mg"},{"bike_id":"e5b4b90d-e268-4de2-98f4-f6d0513f8801","system_id":"levelo_inurba_marseille","lat":43.2655,"lon":5.42199,"is_reserved":false,"is_disabled":false,"rental_uris":{"android":"levelo://app?vid=e5b4b90d-e268-4de2-98f4-f6d0513f8801","ios":"levelo://app?vid=e5b4b90d-e268-4de2-98f4-f6d0513f8801"},"vehicle_type_id":"4","last_reported":1745935820,"current_range_meters":8400,"station_id":"","pricing_plan_id":"cebpf4jnsgd1na2vs0mg"},{"bike_id":"a1ad0b11-fe5c-47fe-adf9-07fef8e45298","system_id":"levelo_inurba_marseille","lat":43.27617,"lon":5.361185,"is_reserved":false,"is_disabled":false,"rental_uris":{"android":"levelo://app?vid=a1ad0b11-fe5c-47fe-adf9-07fef8e45298","ios":"levelo://app?vid=a1ad0b11-fe5c-47fe-adf9-07fef8e45298"},"vehicle_type_id":"4","last_reported":1745935820,"current_range_meters":8400,"station_id":"ce4bgj92rcd13ifvqbe0","pricing_plan_id":"cebpf4jnsgd1na2vs0mg"},{"bike_id":"758149be-651f-452c-b039-60f6ed7d7b5b","system_id":"levelo_inurba_marseille","lat":43.30299,"lon":5.39207,"is_reserved":false,"is_disabled":false,"rental_uris":{"android":"levelo://app?vid=758149be-651f-452c-b039-60f6ed7d7b5b","ios":"levelo://app?vid=758149be-651f-452c-b039-60f6ed7d7b5b"},"vehicle_type_id":"4","last_reported":1745935820,"current_range_meters":8400,"station_id":"ce4bgkh2rcd13ifvqbk0","pricing_plan_id":"cebpf4jnsgd1na2vs0mg"},{"bike_id":"634a435c-024c-461d-96f9-c5956a4939ee","system_id":"levelo_inurba_marseille","lat":43.292204,"lon":5.359826,"is_reserved":false,"is_disabled":false,"rental_uris":{"android":"levelo://app?vid=634a435c-024c-461d-96f9-c5956a4939ee","ios":"levelo://app?vid=634a435c-024c-461d-96f9-c5956a4939ee"},"vehicle_type_id":"4","last_reported":1745935820,"current_range_meters":8400,"station_id":"ce4bhbh2rcd13ifvqeqg","pricing_plan_id":"cebpf4jnsgd1na2vs0mg"},{"bike_id":"24a323cb-bd72-4eb3-87a2-cf5d52cb2b3e","system_id":"levelo_inurba_marseille","lat":43.274963,"lon":5.424503,"is_reserved":false,"is_disabled":false,"rental_uris":{"android":"levelo://app?vid=24a323cb-bd72-4eb3-87a2-cf5d52cb2b3e","ios":"levelo://app?vid=24a323cb-bd72-4eb3-87a2-cf5d52cb2b3e"},"vehicle_type_id":"4","last_reported":1745935820,"current_range_meters":8400,"station_id":"ce4bhn92rcd13ifvqgrg","pricing_plan_id":"cebpf4jnsgd1na2vs0mg"},{"bike_id":"fcf0d43d-5012-42d4-be6d-615652dfd01d","system_id":"levelo_inurba_marseille","lat":43.326595,"lon":5.40988,"is_reserved":false,"is_disabled":false,"rental_uris":{"android":"levelo://app?vid=fcf0d43d-5012-42d4-be6d-615652dfd01d","ios":"levelo://app?vid=fcf0d43d-5012-42d4-be6d-615652dfd01d"},"vehicle_type_id":"4","last_reported":1745935820,"current_range_meters":8400,"station_id":"ce4bhpp2rcd13ifvqhgg","pricing_plan_id":"cebpf4jnsgd1na2vs0mg"},{"bike_id":"f06c2110-6c9b-41e6-a5ca-a74207204e85","system_id":"levelo_inurba_marseille","lat":43.312436,"lon":5.368652,"is_reserved":false,"is_disabled":false,"rental_uris":{"android":"levelo://app?vid=f06c2110-6c9b-41e6-a5ca-a74207204e85","ios":"levelo://app?vid=f06c2110-6c9b-41e6-a5ca-a74207204e85"},"vehicle_type_id":"4","last_reported":1745935820,"current_range_meters":8800,"station_id":"ce4bgl92rcd13ifvqbq0","pricing_plan_id":"cebpf4jnsgd1na2vs0mg"},{"bike_id":"0a7fd8c3-0d57-46f8-9b08-29257ef58b3c","system_id":"levelo_inurba_marseille","lat":43.295249,"lon":5.390402,"is_reserved":false,"is_disabled":false,"rental_uris":{"android":"levelo://app?vid=0a7fd8c3-0d57-46f8-9b08-29257ef58b3c","ios":"levelo://app?vid=0a7fd8c3-0d57-46f8-9b08-29257ef58b3c"},"vehicle_type_id":"4","last_reported":1745935820,"current_range_meters":8800,"station_id":"ce4bh3p2rcd13ifvqdp0","pricing_plan_id":"cebpf4jnsgd1na2vs0mg"},{"bike_id":"fb5727ad-39f0-4937-a791-f8b78661aee6","system_id":"levelo_inurba_marseille","lat":43.28931,"lon":5.38408,"is_reserved":false,"is_disabled":false,"rental_uris":{"android":"levelo://app?vid=fb5727ad-39f0-4937-a791-f8b78661aee6","ios":"levelo://app?vid=fb5727ad-39f0-4937-a791-f8b78661aee6"},"vehicle_type_id":"4","last_reported":1745935820,"current_range_meters":8800,"station_id":"ce4bh612rcd13ifvqe6g","pricing_plan_id":"cebpf4jnsgd1na2vs0mg"},{"bike_id":"1e2125e8-1ef7-4c96-ae95-711f7965b412","system_id":"levelo_inurba_marseille","lat":43.28617,"lon":5.351,"is_reserved":false,"is_disabled":false,"rental_uris":{"android":"levelo://app?vid=1e2125e8-1ef7-4c96-ae95-711f7965b412","ios":"levelo://app?vid=1e2125e8-1ef7-4c96-ae95-711f7965b412"},"vehicle_type_id":"4","last_reported":1745935820,"current_range_meters":8800,"station_id":"ce4bhch2rcd13ifvqeug","pricing_plan_id":"cebpf4jnsgd1na2vs0mg"},{"bike_id":"0833bfec-1ded-4a3a-9f88-6d22fd7ee2a6","system_id":"levelo_inurba_marseille","lat":43.26948,"lon":5.38622,"is_reserved":false,"is_disabled":false,"rental_uris":{"android":"levelo://app?vid=0833bfec-1ded-4a3a-9f88-6d22fd7ee2a6","ios":"levelo://app?vid=0833bfec-1ded-4a3a-9f88-6d22fd7ee2a6"},"vehicle_type_id":"4","last_reported":1745935820,"current_range_meters":8800,"station_id":"ce4bhh92rcd13ifvqfh0","pricing_plan_id":"cebpf4jnsgd1na2vs0mg"},{"bike_id":"9830ffbf-8059-40c0-8be0-b226b6661fe2","system_id":"levelo_inurba_marseille","lat":43.26216,"lon":5.37436,"is_reserved":false,"is_disabled":false,"rental_uris":{"android":"levelo://app?vid=9830ffbf-8059-40c0-8be0-b226b6661fe2","ios":"levelo://app?vid=9830ffbf-8059-40c0-8be0-b226b6661fe2"},"vehicle_type_id":"4","last_reported":1745935820,"current_range_meters":9200,"station_id":"ce4bhgp2rcd13ifvqfc0","pricing_plan_id":"cebpf4jnsgd1na2vs0mg"},{"bike_id":"bbc6db95-fdbb-42e6-b5e6-c1386151e009","system_id":"levelo_inurba_marseille","lat":43.2606,"lon":5.39403,"is_reserved":false,"is_disabled":false,"rental_uris":{"android":"levelo://app?vid=bbc6db95-fdbb-42e6-b5e6-c1386151e009","ios":"levelo://app?vid=bbc6db95-fdbb-42e6-b5e6-c1386151e009"},"vehicle_type_id":"4","last_reported":1745935820,"current_range_meters":9200,"station_id":"ce4bhh92rcd13ifvqfj0","pricing_plan_id":"cebpf4jnsgd1na2vs0mg"},{"bike_id":"931764a9-6475-4417-ab7e-f9ab889d3ea6","system_id":"levelo_inurba_marseille","lat":43.24179,"lon":5.36396,"is_reserved":false,"is_disabled":false,"rental_uris":{"android":"levelo://app?vid=931764a9-6475-4417-ab7e-f9ab889d3ea6","ios":"levelo://app?vid=931764a9-6475-4417-ab7e-f9ab889d3ea6"},"vehicle_type_id":"4","last_reported":1745935820,"current_range_meters":9200,"station_id":"cpo36qri1sfpv3e86is0","pricing_plan_id":"cebpf4jnsgd1na2vs0mg"},{"bike_id":"1367437e-3427-49cd-af4f-2c03f145392a","system_id":"levelo_inurba_marseille","lat":43.27413,"lon":5.36227,"is_reserved":false,"is_disabled":false,"rental_uris":{"android":"levelo://app?vid=1367437e-3427-49cd-af4f-2c03f145392a","ios":"levelo://app?vid=1367437e-3427-49cd-af4f-2c03f145392a"},"vehicle_type_id":"4","last_reported":1745935820,"current_range_meters":9600,"station_id":"","pricing_plan_id":"cebpf4jnsgd1na2vs0mg"},{"bike_id":"4678e93b-5bb0-415b-8570-904108fa19cd","system_id":"levelo_inurba_marseille","lat":43.29937,"lon":5.36553,"is_reserved":false,"is_disabled":false,"rental_uris":{"android":"levelo://app?vid=4678e93b-5bb0-415b-8570-904108fa19cd","ios":"levelo://app?vid=4678e93b-5bb0-415b-8570-904108fa19cd"},"vehicle_type_id":"4","last_reported":1745935820,"current_range_meters":9600,"station_id":"ce4bgm92rcd13ifvqbr0","pricing_plan_id":"cebpf4jnsgd1na2vs0mg"},{"bike_id":"8e1767fb-0588-473b-9b1a-887853c93c04","system_id":"levelo_inurba_marseille","lat":43.26555,"lon":5.37283,"is_reserved":false,"is_disabled":false,"rental_uris":{"android":"levelo://app?vid=8e1767fb-0588-473b-9b1a-887853c93c04","ios":"levelo://app?vid=8e1767fb-0588-473b-9b1a-887853c93c04"},"vehicle_type_id":"4","last_reported":1745935820,"current_range_meters":9600,"station_id":"ce4bhg12rcd13ifvqf70","pricing_plan_id":"cebpf4jnsgd1na2vs0mg"},{"bike_id":"3c7d880e-8eb0-4c00-a992-3a84aae2e9d0","system_id":"levelo_inurba_marseille","lat":43.242057,"lon":5.366975,"is_reserved":false,"is_disabled":false,"rental_uris":{"android":"levelo://app?vid=3c7d880e-8eb0-4c00-a992-3a84aae2e9d0","ios":"levelo://app?vid=3c7d880e-8eb0-4c00-a992-3a84aae2e9d0"},"vehicle_type_id":"4","last_reported":1745935820,"current_range_meters":9600,"station_id":"ce4bhh12rcd13ifvqff0","pricing_plan_id":"cebpf4jnsgd1na2vs0mg"},{"bike_id":"d400a9ce-7b2d-4329-b5e1-496895e3e322","system_id":"levelo_inurba_marseille","lat":43.260619,"lon":5.393991,"is_reserved":false,"is_disabled":false,"rental_uris":{"android":"levelo://app?vid=d400a9ce-7b2d-4329-b5e1-496895e3e322","ios":"levelo://app?vid=d400a9ce-7b2d-4329-b5e1-496895e3e322"},"vehicle_type_id":"4","last_reported":1745935820,"current_range_meters":9600,"station_id":"ce4bhh92rcd13ifvqfj0","pricing_plan_id":"cebpf4jnsgd1na2vs0mg"},{"bike_id":"2127af3a-d2b9-4459-95a3-71a7f9979326","system_id":"levelo_inurba_marseille","lat":43.24074,"lon":5.37759,"is_reserved":false,"is_disabled":false,"rental_uris":{"android":"levelo://app?vid=2127af3a-d2b9-4459-95a3-71a7f9979326","ios":"levelo://app?vid=2127af3a-d2b9-4459-95a3-71a7f9979326"},"vehicle_type_id":"4","last_reported":1745935820,"current_range_meters":9600,"station_id":"ce4bhnp2rcd13ifvqgvg","pricing_plan_id":"cebpf4jnsgd1na2vs0mg"},{"bike_id":"221baf4d-c602-4577-a05a-e2579ad3dcd8","system_id":"levelo_inurba_marseille","lat":43.30916,"lon":5.36861,"is_reserved":false,"is_disabled":false,"rental_uris":{"android":"levelo://app?vid=221baf4d-c602-4577-a05a-e2579ad3dcd8","ios":"levelo://app?vid=221baf4d-c602-4577-a05a-e2579ad3dcd8"},"vehicle_type_id":"4","last_reported":1745935820,"current_range_meters":10000,"station_id":"ce4bgn92rcd13ifvqbvg","pricing_plan_id":"cebpf4jnsgd1na2vs0mg"},{"bike_id":"a7dbd383-c264-40e7-a268-9dbd153f19b8","system_id":"levelo_inurba_marseille","lat":43.30542,"lon":5.36554,"is_reserved":false,"is_disabled":false,"rental_uris":{"android":"levelo://app?vid=a7dbd383-c264-40e7-a268-9dbd153f19b8","ios":"levelo://app?vid=a7dbd383-c264-40e7-a268-9dbd153f19b8"},"vehicle_type_id":"4","last_reported":1745935820,"current_range_meters":10000,"station_id":"ce4bgs12rcd13ifvqcag","pricing_plan_id":"cebpf4jnsgd1na2vs0mg"},{"bike_id":"d11ce831-34d5-4855-8a3b-2d8ef5271680","system_id":"levelo_inurba_marseille","lat":43.31081,"lon":5.38346,"is_reserved":false,"is_disabled":false,"rental_uris":{"android":"levelo://app?vid=d11ce831-34d5-4855-8a3b-2d8ef5271680","ios":"levelo://app?vid=d11ce831-34d5-4855-8a3b-2d8ef5271680"},"vehicle_type_id":"4","last_reported":1745935820,"current_range_meters":10000,"station_id":"ce4bgv92rcd13ifvqcr0","pricing_plan_id":"cebpf4jnsgd1na2vs0mg"},{"bike_id":"452821e3-d38a-409f-8470-daccec808ce2","system_id":"levelo_inurba_marseille","lat":43.287,"lon":5.37386,"is_reserved":false,"is_disabled":false,"rental_uris":{"android":"levelo://app?vid=452821e3-d38a-409f-8470-daccec808ce2","ios":"levelo://app?vid=452821e3-d38a-409f-8470-daccec808ce2"},"vehicle_type_id":"4","last_reported":1745935820,"current_range_meters":10000,"station_id":"ce4bh3p2rcd13ifvqdq0","pricing_plan_id":"cebpf4jnsgd1na2vs0mg"},{"bike_id":"36609c8f-1883-467c-9698-c5700ae0aab2","system_id":"levelo_inurba_marseille","lat":43.27374,"lon":5.36256,"is_reserved":false,"is_disabled":false,"rental_uris":{"android":"levelo://app?vid=36609c8f-1883-467c-9698-c5700ae0aab2","ios":"levelo://app?vid=36609c8f-1883-467c-9698-c5700ae0aab2"},"vehicle_type_id":"4","last_reported":1745935820,"current_range_meters":10000,"station_id":"ce4bhbh2rcd13ifvqeo0","pricing_plan_id":"cebpf4jnsgd1na2vs0mg"},{"bike_id":"15e21529-6419-422f-8ae8-a321bdc6c0f5","system_id":"levelo_inurba_marseille","lat":43.26217,"lon":5.37443,"is_reserved":false,"is_disabled":false,"rental_uris":{"android":"levelo://app?vid=15e21529-6419-422f-8ae8-a321bdc6c0f5","ios":"levelo://app?vid=15e21529-6419-422f-8ae8-a321bdc6c0f5"},"vehicle_type_id":"4","last_reported":1745935820,"current_range_meters":10000,"station_id":"ce4bhgp2rcd13ifvqfc0","pricing_plan_id":"cebpf4jnsgd1na2vs0mg"},{"bike_id":"ceb37113-1b00-400d-844a-d0af513811c9","system_id":"levelo_inurba_marseille","lat":43.23159,"lon":5.43708,"is_reserved":false,"is_disabled":false,"rental_uris":{"android":"levelo://app?vid=ceb37113-1b00-400d-844a-d0af513811c9","ios":"levelo://app?vid=ceb37113-1b00-400d-844a-d0af513811c9"},"vehicle_type_id":"4","last_reported":1745935820,"current_range_meters":10000,"station_id":"ce4bhmp2rcd13ifvqgog","pricing_plan_id":"cebpf4jnsgd1na2vs0mg"},{"bike_id":"91556398-11b7-4447-b768-241d68aae888","system_id":"levelo_inurba_marseille","lat":43.32048,"lon":5.41537,"is_reserved":false,"is_disabled":false,"rental_uris":{"android":"levelo://app?vid=91556398-11b7-4447-b768-241d68aae888","ios":"levelo://app?vid=91556398-11b7-4447-b768-241d68aae888"},"vehicle_type_id":"4","last_reported":1745935820,"current_range_meters":10000,"station_id":"ce4bhq92rcd13ifvqhkg","pricing_plan_id":"cebpf4jnsgd1na2vs0mg"},{"bike_id":"b24d099b-c213-4d0e-8bed-0a6b1553f715","system_id":"levelo_inurba_marseille","lat":43.3249,"lon":5.36554,"is_reserved":false,"is_disabled":false,"rental_uris":{"android":"levelo://app?vid=b24d099b-c213-4d0e-8bed-0a6b1553f715","ios":"levelo://app?vid=b24d099b-c213-4d0e-8bed-0a6b1553f715"},"vehicle_type_id":"4","last_reported":1745935820,"current_range_meters":10000,"station_id":"ce4bhs12rcd13ifvqhvg","pricing_plan_id":"cebpf4jnsgd1na2vs0mg"},{"bike_id":"28894e81-ede6-4351-84e3-e6b48081a345","system_id":"levelo_inurba_marseille","lat":43.33465,"lon":5.400537,"is_reserved":false,"is_disabled":false,"rental_uris":{"android":"levelo://app?vid=28894e81-ede6-4351-84e3-e6b48081a345","ios":"levelo://app?vid=28894e81-ede6-4351-84e3-e6b48081a345"},"vehicle_type_id":"4","last_reported":1745935820,"current_range_meters":10800,"station_id":"","pricing_plan_id":"cebpf4jnsgd1na2vs0mg"},{"bike_id":"f3f72ad1-0e11-4330-a060-998c15e152a9","system_id":"levelo_inurba_marseille","lat":43.27817,"lon":5.40707,"is_reserved":false,"is_disabled":false,"rental_uris":{"android":"levelo://app?vid=f3f72ad1-0e11-4330-a060-998c15e152a9","ios":"levelo://app?vid=f3f72ad1-0e11-4330-a060-998c15e152a9"},"vehicle_type_id":"4","last_reported":1745935820,"current_range_meters":10800,"station_id":"ce4bhnh2rcd13ifvqgtg","pricing_plan_id":"cebpf4jnsgd1na2vs0mg"},{"bike_id":"b4df43af-d789-4d31-b874-2fb7b7365bb7","system_id":"levelo_inurba_marseille","lat":43.30802,"lon":5.43516,"is_reserved":false,"is_disabled":false,"rental_uris":{"android":"levelo://app?vid=b4df43af-d789-4d31-b874-2fb7b7365bb7","ios":"levelo://app?vid=b4df43af-d789-4d31-b874-2fb7b7365bb7"},"vehicle_type_id":"4","last_reported":1745935820,"current_range_meters":10800,"station_id":"ce4bhph2rcd13ifvqheg","pricing_plan_id":"cebpf4jnsgd1na2vs0mg"},{"bike_id":"b13f9913-27dd-4197-ba83-0d6b671b36d4","system_id":"levelo_inurba_marseille","lat":43.32491,"lon":5.36564,"is_reserved":false,"is_disabled":false,"rental_uris":{"android":"levelo://app?vid=b13f9913-27dd-4197-ba83-0d6b671b36d4","ios":"levelo://app?vid=b13f9913-27dd-4197-ba83-0d6b671b36d4"},"vehicle_type_id":"4","last_reported":1745935820,"current_range_meters":10800,"station_id":"ce4bhs12rcd13ifvqhvg","pricing_plan_id":"cebpf4jnsgd1na2vs0mg"},{"bike_id":"875f31b7-2cfd-4402-b0cd-e9f3d40ae58b","system_id":"levelo_inurba_marseille","lat":43.26033,"lon":5.37547,"is_reserved":false,"is_disabled":false,"rental_uris":{"android":"levelo://app?vid=875f31b7-2cfd-4402-b0cd-e9f3d40ae58b","ios":"levelo://app?vid=875f31b7-2cfd-4402-b0cd-e9f3d40ae58b"},"vehicle_type_id":"4","last_reported":1745935820,"current_range_meters":11200,"station_id":"ce4bhgh2rcd13ifvqfa0","pricing_plan_id":"cebpf4jnsgd1na2vs0mg"},{"bike_id":"4bed7454-68f1-4ae2-8a0e-37691f7ee3a3","system_id":"levelo_inurba_marseille","lat":43.30542,"lon":5.38432,"is_reserved":false,"is_disabled":false,"rental_uris":{"android":"levelo://app?vid=4bed7454-68f1-4ae2-8a0e-37691f7ee3a3","ios":"levelo://app?vid=4bed7454-68f1-4ae2-8a0e-37691f7ee3a3"},"vehicle_type_id":"4","last_reported":1745935820,"current_range_meters":11600,"station_id":"ce4bgg92rcd13ifvqb30","pricing_plan_id":"cebpf4jnsgd1na2vs0mg"},{"bike_id":"308a0858-7782-4816-8962-95080a2043e4","system_id":"levelo_inurba_marseille","lat":43.284072,"lon":5.375114,"is_reserved":false,"is_disabled":false,"rental_uris":{"android":"levelo://app?vid=308a0858-7782-4816-8962-95080a2043e4","ios":"levelo://app?vid=308a0858-7782-4816-8962-95080a2043e4"},"vehicle_type_id":"4","last_reported":1745935820,"current_range_meters":11600,"station_id":"ce4bh412rcd13ifvqds0","pricing_plan_id":"cebpf4jnsgd1na2vs0mg"},{"bike_id":"87a19a6e-d0ac-4176-a4a4-13c7da37e477","system_id":"levelo_inurba_marseille","lat":43.28717,"lon":5.3793,"is_reserved":false,"is_disabled":false,"rental_uris":{"android":"levelo://app?vid=87a19a6e-d0ac-4176-a4a4-13c7da37e477","ios":"levelo://app?vid=87a19a6e-d0ac-4176-a4a4-13c7da37e477"},"vehicle_type_id":"4","last_reported":1745935820,"current_range_meters":11600,"station_id":"ce4bh9p2rcd13ifvqec0","pricing_plan_id":"cebpf4jnsgd1na2vs0mg"},{"bike_id":"47c8e995-1286-4459-ac31-bcb1455ace8e","system_id":"levelo_inurba_marseille","lat":43.23146,"lon":5.43704,"is_reserved":false,"is_disabled":false,"rental_uris":{"android":"levelo://app?vid=47c8e995-1286-4459-ac31-bcb1455ace8e","ios":"levelo://app?vid=47c8e995-1286-4459-ac31-bcb1455ace8e"},"vehicle_type_id":"4","last_reported":1745935820,"current_range_meters":11600,"station_id":"ce4bhmp2rcd13ifvqgog","pricing_plan_id":"cebpf4jnsgd1na2vs0mg"},{"bike_id":"a4e908cc-ce4b-4ed0-9d8d-022b2dd7de70","system_id":"levelo_inurba_marseille","lat":43.22934,"lon":5.35386,"is_reserved":false,"is_disabled":false,"rental_uris":{"android":"levelo://app?vid=a4e908cc-ce4b-4ed0-9d8d-022b2dd7de70","ios":"levelo://app?vid=a4e908cc-ce4b-4ed0-9d8d-022b2dd7de70"},"vehicle_type_id":"4","last_reported":1745935820,"current_range_meters":11600,"station_id":"cpo3532slgdg3j2ikp40","pricing_plan_id":"cebpf4jnsgd1na2vs0mg"},{"bike_id":"d5d5aca6-f06b-45b6-b88e-ea4d9696a691","system_id":"levelo_inurba_marseille","lat":43.28105,"lon":5.37826,"is_reserved":false,"is_disabled":false,"rental_uris":{"android":"levelo://app?vid=d5d5aca6-f06b-45b6-b88e-ea4d9696a691","ios":"levelo://app?vid=d5d5aca6-f06b-45b6-b88e-ea4d9696a691"},"vehicle_type_id":"4","last_reported":1745935820,"current_range_meters":12000,"station_id":"ce4bha12rcd13ifvqee0","pricing_plan_id":"cebpf4jnsgd1na2vs0mg"},{"bike_id":"4b49f04b-a54a-444f-a078-a07b0278c3dc","system_id":"levelo_inurba_marseille","lat":43.28271,"lon":5.35076,"is_reserved":false,"is_disabled":false,"rental_uris":{"android":"levelo://app?vid=4b49f04b-a54a-444f-a078-a07b0278c3dc","ios":"levelo://app?vid=4b49f04b-a54a-444f-a078-a07b0278c3dc"},"vehicle_type_id":"4","last_reported":1745935820,"current_range_meters":12000,"station_id":"ce4bhbp2rcd13ifvqerg","pricing_plan_id":"cebpf4jnsgd1na2vs0mg"},{"bike_id":"340527a2-0f35-4a44-8a0b-05d17dfe443d","system_id":"levelo_inurba_marseille","lat":43.30779,"lon":5.36814,"is_reserved":false,"is_disabled":false,"rental_uris":{"android":"levelo://app?vid=340527a2-0f35-4a44-8a0b-05d17dfe443d","ios":"levelo://app?vid=340527a2-0f35-4a44-8a0b-05d17dfe443d"},"vehicle_type_id":"4","last_reported":1745935820,"current_range_meters":12400,"station_id":"","pricing_plan_id":"cebpf4jnsgd1na2vs0mg"},{"bike_id":"3143d293-7ae0-4ad4-ac9f-056ea6f9e961","system_id":"levelo_inurba_marseille","lat":43.29934,"lon":5.36526,"is_reserved":false,"is_disabled":false,"rental_uris":{"android":"levelo://app?vid=3143d293-7ae0-4ad4-ac9f-056ea6f9e961","ios":"levelo://app?vid=3143d293-7ae0-4ad4-ac9f-056ea6f9e961"},"vehicle_type_id":"4","last_reported":1745935820,"current_range_meters":12400,"station_id":"ce4bgm92rcd13ifvqbr0","pricing_plan_id":"cebpf4jnsgd1na2vs0mg"},{"bike_id":"456e5613-211b-4854-8c60-467489bd6170","system_id":"levelo_inurba_marseille","lat":43.28717,"lon":5.39972,"is_reserved":false,"is_disabled":false,"rental_uris":{"android":"levelo://app?vid=456e5613-211b-4854-8c60-467489bd6170","ios":"levelo://app?vid=456e5613-211b-4854-8c60-467489bd6170"},"vehicle_type_id":"4","last_reported":1745935820,"current_range_meters":12400,"station_id":"ce4bho92rcd13ifvqh3g","pricing_plan_id":"cebpf4jnsgd1na2vs0mg"},{"bike_id":"b4c6cca8-2e10-4fc8-a0ad-ad89366af1a1","system_id":"levelo_inurba_marseille","lat":43.23071,"lon":5.35498,"is_reserved":false,"is_disabled":false,"rental_uris":{"android":"levelo://app?vid=b4c6cca8-2e10-4fc8-a0ad-ad89366af1a1","ios":"levelo://app?vid=b4c6cca8-2e10-4fc8-a0ad-ad89366af1a1"},"vehicle_type_id":"4","last_reported":1745935820,"current_range_meters":12400,"station_id":"cpo3342slgdg3j2ifvpg","pricing_plan_id":"cebpf4jnsgd1na2vs0mg"},{"bike_id":"b5ee769b-a725-4066-8d41-502bf2756f3a","system_id":"levelo_inurba_marseille","lat":43.26063,"lon":5.39401,"is_reserved":false,"is_disabled":false,"rental_uris":{"android":"levelo://app?vid=b5ee769b-a725-4066-8d41-502bf2756f3a","ios":"levelo://app?vid=b5ee769b-a725-4066-8d41-502bf2756f3a"},"vehicle_type_id":"4","last_reported":1745935820,"current_range_meters":12800,"station_id":"ce4bhh92rcd13ifvqfj0","pricing_plan_id":"cebpf4jnsgd1na2vs0mg"},{"bike_id":"6a004e24-127b-4c82-843e-13f74352509a","system_id":"levelo_inurba_marseille","lat":43.23151,"lon":5.43686,"is_reserved":false,"is_disabled":false,"rental_uris":{"android":"levelo://app?vid=6a004e24-127b-4c82-843e-13f74352509a","ios":"levelo://app?vid=6a004e24-127b-4c82-843e-13f74352509a"},"vehicle_type_id":"4","last_reported":1745935820,"current_range_meters":12800,"station_id":"ce4bhmp2rcd13ifvqgog","pricing_plan_id":"cebpf4jnsgd1na2vs0mg"},{"bike_id":"4411c18e-2f26-4e56-8519-7d7eab5dcf83","system_id":"levelo_inurba_marseille","lat":43.28072,"lon":5.39646,"is_reserved":false,"is_disabled":false,"rental_uris":{"android":"levelo://app?vid=4411c18e-2f26-4e56-8519-7d7eab5dcf83","ios":"levelo://app?vid=4411c18e-2f26-4e56-8519-7d7eab5dcf83"},"vehicle_type_id":"4","last_reported":1745935820,"current_range_meters":12800,"station_id":"ce4bho12rcd13ifvqh2g","pricing_plan_id":"cebpf4jnsgd1na2vs0mg"},{"bike_id":"489415b8-9254-45c1-b00c-e7554d56755c","system_id":"levelo_inurba_marseille","lat":43.24523,"lon":5.41245,"is_reserved":false,"is_disabled":false,"rental_uris":{"android":"levelo://app?vid=489415b8-9254-45c1-b00c-e7554d56755c","ios":"levelo://app?vid=489415b8-9254-45c1-b00c-e7554d56755c"},"vehicle_type_id":"4","last_reported":1745935820,"current_range_meters":13600,"station_id":"","pricing_plan_id":"cebpf4jnsgd1na2vs0mg"},{"bike_id":"28f92b9c-697e-4bae-9797-81b97add4487","system_id":"levelo_inurba_marseille","lat":43.30641,"lon":5.40092,"is_reserved":false,"is_disabled":false,"rental_uris":{"android":"levelo://app?vid=28f92b9c-697e-4bae-9797-81b97add4487","ios":"levelo://app?vid=28f92b9c-697e-4bae-9797-81b97add4487"},"vehicle_type_id":"4","last_reported":1745935820,"current_range_meters":13600,"station_id":"ce4bh112rcd13ifvqda0","pricing_plan_id":"cebpf4jnsgd1na2vs0mg"},{"bike_id":"53354a16-cb44-4575-8bec-0e84713acd01","system_id":"levelo_inurba_marseille","lat":43.28112,"lon":5.37854,"is_reserved":false,"is_disabled":false,"rental_uris":{"android":"levelo://app?vid=53354a16-cb44-4575-8bec-0e84713acd01","ios":"levelo://app?vid=53354a16-cb44-4575-8bec-0e84713acd01"},"vehicle_type_id":"4","last_reported":1745935820,"current_range_meters":13600,"station_id":"ce4bha12rcd13ifvqee0","pricing_plan_id":"cebpf4jnsgd1na2vs0mg"},{"bike_id":"e5711ee9-e199-4461-8d23-c80e63dc9537","system_id":"levelo_inurba_marseille","lat":43.323639,"lon":5.406337,"is_reserved":false,"is_disabled":false,"rental_uris":{"android":"levelo://app?vid=e5711ee9-e199-4461-8d23-c80e63dc9537","ios":"levelo://app?vid=e5711ee9-e199-4461-8d23-c80e63dc9537"},"vehicle_type_id":"4","last_reported":1745935820,"current_range_meters":14000,"station_id":"","pricing_plan_id":"cebpf4jnsgd1na2vs0mg"},{"bike_id":"d70165cf-3cd8-4cfb-96f6-0979c167afd8","system_id":"levelo_inurba_marseille","lat":43.29924,"lon":5.36547,"is_reserved":false,"is_disabled":false,"rental_uris":{"android":"levelo://app?vid=d70165cf-3cd8-4cfb-96f6-0979c167afd8","ios":"levelo://app?vid=d70165cf-3cd8-4cfb-96f6-0979c167afd8"},"vehicle_type_id":"4","last_reported":1745935820,"current_range_meters":14000,"station_id":"ce4bgm92rcd13ifvqbr0","pricing_plan_id":"cebpf4jnsgd1na2vs0mg"},{"bike_id":"eb332ed5-7750-4d0e-a18f-2b46a121739c","system_id":"levelo_inurba_marseille","lat":43.28272,"lon":5.35064,"is_reserved":false,"is_disabled":false,"rental_uris":{"android":"levelo://app?vid=eb332ed5-7750-4d0e-a18f-2b46a121739c","ios":"levelo://app?vid=eb332ed5-7750-4d0e-a18f-2b46a121739c"},"vehicle_type_id":"4","last_reported":1745935820,"current_range_meters":14000,"station_id":"ce4bhbp2rcd13ifvqerg","pricing_plan_id":"cebpf4jnsgd1na2vs0mg"},{"bike_id":"e27c9434-7cad-426a-accf-7de8131c5123","system_id":"levelo_inurba_marseille","lat":43.286163,"lon":5.351019,"is_reserved":false,"is_disabled":false,"rental_uris":{"android":"levelo://app?vid=e27c9434-7cad-426a-accf-7de8131c5123","ios":"levelo://app?vid=e27c9434-7cad-426a-accf-7de8131c5123"},"vehicle_type_id":"4","last_reported":1745935820,"current_range_meters":14000,"station_id":"ce4bhch2rcd13ifvqeug","pricing_plan_id":"cebpf4jnsgd1na2vs0mg"},{"bike_id":"2d303286-1748-405f-b5c7-c9d6c2ec111c","system_id":"levelo_inurba_marseille","lat":43.243886,"lon":5.370464,"is_reserved":false,"is_disabled":false,"rental_uris":{"android":"levelo://app?vid=2d303286-1748-405f-b5c7-c9d6c2ec111c","ios":"levelo://app?vid=2d303286-1748-405f-b5c7-c9d6c2ec111c"},"vehicle_type_id":"4","last_reported":1745935820,"current_range_meters":14000,"station_id":"ce4bhhh2rcd13ifvqfk0","pricing_plan_id":"cebpf4jnsgd1na2vs0mg"},{"bike_id":"071a671b-fb53-468b-ba8f-96ef79b57233","system_id":"levelo_inurba_marseille","lat":43.3235,"lon":5.36756,"is_reserved":false,"is_disabled":false,"rental_uris":{"android":"levelo://app?vid=071a671b-fb53-468b-ba8f-96ef79b57233","ios":"levelo://app?vid=071a671b-fb53-468b-ba8f-96ef79b57233"},"vehicle_type_id":"4","last_reported":1745935820,"current_range_meters":14000,"station_id":"ce4bhsh2rcd13ifvqi2g","pricing_plan_id":"cebpf4jnsgd1na2vs0mg"},{"bike_id":"2dda8435-527b-4737-b155-6c7c07d8783d","system_id":"levelo_inurba_marseille","lat":43.30211,"lon":5.36626,"is_reserved":false,"is_disabled":false,"rental_uris":{"android":"levelo://app?vid=2dda8435-527b-4737-b155-6c7c07d8783d","ios":"levelo://app?vid=2dda8435-527b-4737-b155-6c7c07d8783d"},"vehicle_type_id":"4","last_reported":1745935820,"current_range_meters":14400,"station_id":"ce4bgrh2rcd13ifvqc8g","pricing_plan_id":"cebpf4jnsgd1na2vs0mg"},{"bike_id":"d7ba12ad-04b3-45b6-8161-c189882ed5df","system_id":"levelo_inurba_marseille","lat":43.29634,"lon":5.40588,"is_reserved":false,"is_disabled":false,"rental_uris":{"android":"levelo://app?vid=d7ba12ad-04b3-45b6-8161-c189882ed5df","ios":"levelo://app?vid=d7ba12ad-04b3-45b6-8161-c189882ed5df"},"vehicle_type_id":"4","last_reported":1745935820,"current_range_meters":14400,"station_id":"ce4bh0h2rcd13ifvqd60","pricing_plan_id":"cebpf4jnsgd1na2vs0mg"},{"bike_id":"5b69ebdf-e55e-40e1-93b7-04c10b716507","system_id":"levelo_inurba_marseille","lat":43.24389,"lon":5.37056,"is_reserved":false,"is_disabled":false,"rental_uris":{"android":"levelo://app?vid=5b69ebdf-e55e-40e1-93b7-04c10b716507","ios":"levelo://app?vid=5b69ebdf-e55e-40e1-93b7-04c10b716507"},"vehicle_type_id":"4","last_reported":1745935820,"current_range_meters":14400,"station_id":"ce4bhhh2rcd13ifvqfk0","pricing_plan_id":"cebpf4jnsgd1na2vs0mg"},{"bike_id":"5d6afca0-253b-4bd2-ab08-2b662491dbb1","system_id":"levelo_inurba_marseille","lat":43.27178,"lon":5.40991,"is_reserved":false,"is_disabled":false,"rental_uris":{"android":"levelo://app?vid=5d6afca0-253b-4bd2-ab08-2b662491dbb1","ios":"levelo://app?vid=5d6afca0-253b-4bd2-ab08-2b662491dbb1"},"vehicle_type_id":"4","last_reported":1745935820,"current_range_meters":14400,"station_id":"ce4bhl12rcd13ifvqgf0","pricing_plan_id":"cebpf4jnsgd1na2vs0mg"},{"bike_id":"47a56e13-9770-41cc-a11c-3a1ccaa8d13d","system_id":"levelo_inurba_marseille","lat":43.305481,"lon":5.372712,"is_reserved":false,"is_disabled":false,"rental_uris":{"android":"levelo://app?vid=47a56e13-9770-41cc-a11c-3a1ccaa8d13d","ios":"levelo://app?vid=47a56e13-9770-41cc-a11c-3a1ccaa8d13d"},"vehicle_type_id":"4","last_reported":1745935820,"current_range_meters":14800,"station_id":"ce4bgqh2rcd13ifvqc4g","pricing_plan_id":"cebpf4jnsgd1na2vs0mg"},{"bike_id":"95b4d851-ddc7-4547-a6fa-62c1c3d8becf","system_id":"levelo_inurba_marseille","lat":43.30601,"lon":5.37231,"is_reserved":false,"is_disabled":false,"rental_uris":{"android":"levelo://app?vid=95b4d851-ddc7-4547-a6fa-62c1c3d8becf","ios":"levelo://app?vid=95b4d851-ddc7-4547-a6fa-62c1c3d8becf"},"vehicle_type_id":"4","last_reported":1745935820,"current_range_meters":14800,"station_id":"ce4bgqh2rcd13ifvqc4g","pricing_plan_id":"cebpf4jnsgd1na2vs0mg"},{"bike_id":"5622801f-b58a-45eb-b7a4-43b082c1beaf","system_id":"levelo_inurba_marseille","lat":43.28103,"lon":5.37849,"is_reserved":false,"is_disabled":false,"rental_uris":{"android":"levelo://app?vid=5622801f-b58a-45eb-b7a4-43b082c1beaf","ios":"levelo://app?vid=5622801f-b58a-45eb-b7a4-43b082c1beaf"},"vehicle_type_id":"4","last_reported":1745935820,"current_range_meters":14800,"station_id":"ce4bha12rcd13ifvqee0","pricing_plan_id":"cebpf4jnsgd1na2vs0mg"},{"bike_id":"ddf42e2f-5ba3-456f-b6b9-71a4fb220f7c","system_id":"levelo_inurba_marseille","lat":43.217517,"lon":5.346039,"is_reserved":false,"is_disabled":false,"rental_uris":{"android":"levelo://app?vid=ddf42e2f-5ba3-456f-b6b9-71a4fb220f7c","ios":"levelo://app?vid=ddf42e2f-5ba3-456f-b6b9-71a4fb220f7c"},"vehicle_type_id":"4","last_reported":1745935820,"current_range_meters":15200,"station_id":"","pricing_plan_id":"cebpf4jnsgd1na2vs0mg"},{"bike_id":"1cb3da76-f497-49e4-a8a6-5a0629444d60","system_id":"levelo_inurba_marseille","lat":43.299496,"lon":5.367146,"is_reserved":false,"is_disabled":false,"rental_uris":{"android":"levelo://app?vid=1cb3da76-f497-49e4-a8a6-5a0629444d60","ios":"levelo://app?vid=1cb3da76-f497-49e4-a8a6-5a0629444d60"},"vehicle_type_id":"4","last_reported":1745935820,"current_range_meters":15200,"station_id":"","pricing_plan_id":"cebpf4jnsgd1na2vs0mg"},{"bike_id":"acb987e1-64fe-46f5-898a-e0a889967a2d","system_id":"levelo_inurba_marseille","lat":43.284241,"lon":5.349894,"is_reserved":false,"is_disabled":false,"rental_uris":{"android":"levelo://app?vid=acb987e1-64fe-46f5-898a-e0a889967a2d","ios":"levelo://app?vid=acb987e1-64fe-46f5-898a-e0a889967a2d"},"vehicle_type_id":"4","last_reported":1745935820,"current_range_meters":15200,"station_id":"ce4bhbh2rcd13ifvqepg","pricing_plan_id":"cebpf4jnsgd1na2vs0mg"},{"bike_id":"aded9c91-29f0-4b8b-82de-7869644499ba","system_id":"levelo_inurba_marseille","lat":43.28261,"lon":5.35039,"is_reserved":false,"is_disabled":false,"rental_uris":{"android":"levelo://app?vid=aded9c91-29f0-4b8b-82de-7869644499ba","ios":"levelo://app?vid=aded9c91-29f0-4b8b-82de-7869644499ba"},"vehicle_type_id":"4","last_reported":1745935820,"current_range_meters":15200,"station_id":"ce4bhbp2rcd13ifvqerg","pricing_plan_id":"cebpf4jnsgd1na2vs0mg"},{"bike_id":"a591ff51-2642-4ba7-a8d2-609142b680c7","system_id":"levelo_inurba_marseille","lat":43.26501,"lon":5.39548,"is_reserved":false,"is_disabled":false,"rental_uris":{"android":"levelo://app?vid=a591ff51-2642-4ba7-a8d2-609142b680c7","ios":"levelo://app?vid=a591ff51-2642-4ba7-a8d2-609142b680c7"},"vehicle_type_id":"4","last_reported":1745935820,"current_range_meters":15200,"station_id":"ce4bhi12rcd13ifvqfq0","pricing_plan_id":"cebpf4jnsgd1na2vs0mg"},{"bike_id":"125fcf7a-ed10-4c16-ba1d-541c86c5ecb9","system_id":"levelo_inurba_marseille","lat":43.24551,"lon":5.39526,"is_reserved":false,"is_disabled":false,"rental_uris":{"android":"levelo://app?vid=125fcf7a-ed10-4c16-ba1d-541c86c5ecb9","ios":"levelo://app?vid=125fcf7a-ed10-4c16-ba1d-541c86c5ecb9"},"vehicle_type_id":"4","last_reported":1745935820,"current_range_meters":15200,"station_id":"ce4bhlp2rcd13ifvqgjg","pricing_plan_id":"cebpf4jnsgd1na2vs0mg"},{"bike_id":"7f1b0d35-cc7d-4845-915d-5fcdae2d1219","system_id":"levelo_inurba_marseille","lat":43.30887,"lon":5.39659,"is_reserved":false,"is_disabled":false,"rental_uris":{"android":"levelo://app?vid=7f1b0d35-cc7d-4845-915d-5fcdae2d1219","ios":"levelo://app?vid=7f1b0d35-cc7d-4845-915d-5fcdae2d1219"},"vehicle_type_id":"4","last_reported":1745935820,"current_range_meters":16000,"station_id":"ce4bh012rcd13ifvqcv0","pricing_plan_id":"cebpf4jnsgd1na2vs0mg"},{"bike_id":"d669cb91-aec5-42f7-ab66-a1eb60fa9404","system_id":"levelo_inurba_marseille","lat":43.28275,"lon":5.35069,"is_reserved":false,"is_disabled":false,"rental_uris":{"android":"levelo://app?vid=d669cb91-aec5-42f7-ab66-a1eb60fa9404","ios":"levelo://app?vid=d669cb91-aec5-42f7-ab66-a1eb60fa9404"},"vehicle_type_id":"4","last_reported":1745935820,"current_range_meters":16000,"station_id":"ce4bhbp2rcd13ifvqerg","pricing_plan_id":"cebpf4jnsgd1na2vs0mg"},{"bike_id":"a37c9f7c-b8c6-4e17-8970-3d31f9e9fb94","system_id":"levelo_inurba_marseille","lat":43.28158,"lon":5.42645,"is_reserved":false,"is_disabled":false,"rental_uris":{"android":"levelo://app?vid=a37c9f7c-b8c6-4e17-8970-3d31f9e9fb94","ios":"levelo://app?vid=a37c9f7c-b8c6-4e17-8970-3d31f9e9fb94"},"vehicle_type_id":"4","last_reported":1745935820,"current_range_meters":16000,"station_id":"ce4bhnh2rcd13ifvqgug","pricing_plan_id":"cebpf4jnsgd1na2vs0mg"},{"bike_id":"22c2edad-5827-4db2-9baf-92d83a801ba8","system_id":"levelo_inurba_marseille","lat":43.29557,"lon":5.42283,"is_reserved":false,"is_disabled":false,"rental_uris":{"android":"levelo://app?vid=22c2edad-5827-4db2-9baf-92d83a801ba8","ios":"levelo://app?vid=22c2edad-5827-4db2-9baf-92d83a801ba8"},"vehicle_type_id":"4","last_reported":1745935820,"current_range_meters":16000,"station_id":"ce4bhph2rcd13ifvqhdg","pricing_plan_id":"cebpf4jnsgd1na2vs0mg"},{"bike_id":"91419b51-a87b-438c-9e3a-9cc8bd0db318","system_id":"levelo_inurba_marseille","lat":43.32117,"lon":5.36755,"is_reserved":false,"is_disabled":false,"rental_uris":{"android":"levelo://app?vid=91419b51-a87b-438c-9e3a-9cc8bd0db318","ios":"levelo://app?vid=91419b51-a87b-438c-9e3a-9cc8bd0db318"},"vehicle_type_id":"4","last_reported":1745935820,"current_range_meters":16000,"station_id":"ce4bhrh2rcd13ifvqhug","pricing_plan_id":"cebpf4jnsgd1na2vs0mg"},{"bike_id":"6ee3670a-c0ab-4af8-b925-c763c37bc0f4","system_id":"levelo_inurba_marseille","lat":43.28601,"lon":5.37062,"is_reserved":false,"is_disabled":false,"rental_uris":{"android":"levelo://app?vid=6ee3670a-c0ab-4af8-b925-c763c37bc0f4","ios":"levelo://app?vid=6ee3670a-c0ab-4af8-b925-c763c37bc0f4"},"vehicle_type_id":"4","last_reported":1745935820,"current_range_meters":16000,"station_id":"ce4bht12rcd13ifvqi60","pricing_plan_id":"cebpf4jnsgd1na2vs0mg"},{"bike_id":"fe8960e1-228f-4306-bc25-b57b60a713c0","system_id":"levelo_inurba_marseille","lat":43.21772,"lon":5.34597,"is_reserved":false,"is_disabled":false,"rental_uris":{"android":"levelo://app?vid=fe8960e1-228f-4306-bc25-b57b60a713c0","ios":"levelo://app?vid=fe8960e1-228f-4306-bc25-b57b60a713c0"},"vehicle_type_id":"4","last_reported":1745935820,"current_range_meters":16000,"station_id":"st_cvj6r9ubvosntc0bgbag","pricing_plan_id":"cebpf4jnsgd1na2vs0mg"},{"bike_id":"4f40ca65-75d2-4c4f-9530-51104fee7e2e","system_id":"levelo_inurba_marseille","lat":43.30309,"lon":5.36883,"is_reserved":false,"is_disabled":false,"rental_uris":{"android":"levelo://app?vid=4f40ca65-75d2-4c4f-9530-51104fee7e2e","ios":"levelo://app?vid=4f40ca65-75d2-4c4f-9530-51104fee7e2e"},"vehicle_type_id":"4","last_reported":1745935820,"current_range_meters":16400,"station_id":"ce4bgqh2rcd13ifvqc5g","pricing_plan_id":"cebpf4jnsgd1na2vs0mg"},{"bike_id":"5c337fed-4336-470c-b29b-b12bcaddc771","system_id":"levelo_inurba_marseille","lat":43.265546,"lon":5.372849,"is_reserved":false,"is_disabled":false,"rental_uris":{"android":"levelo://app?vid=5c337fed-4336-470c-b29b-b12bcaddc771","ios":"levelo://app?vid=5c337fed-4336-470c-b29b-b12bcaddc771"},"vehicle_type_id":"4","last_reported":1745935820,"current_range_meters":16400,"station_id":"ce4bhbh2rcd13ifvqeo0","pricing_plan_id":"cebpf4jnsgd1na2vs0mg"},{"bike_id":"8b2130fb-72fc-47a5-bbb9-2d6367d4cd46","system_id":"levelo_inurba_marseille","lat":43.29602,"lon":5.38089,"is_reserved":false,"is_disabled":false,"rental_uris":{"android":"levelo://app?vid=8b2130fb-72fc-47a5-bbb9-2d6367d4cd46","ios":"levelo://app?vid=8b2130fb-72fc-47a5-bbb9-2d6367d4cd46"},"vehicle_type_id":"4","last_reported":1745935820,"current_range_meters":16800,"station_id":"ce4bgl12rcd13ifvqbo0","pricing_plan_id":"cebpf4jnsgd1na2vs0mg"},{"bike_id":"4958d449-c7d8-4d41-b08d-ff11ddaaee41","system_id":"levelo_inurba_marseille","lat":43.28269,"lon":5.35071,"is_reserved":false,"is_disabled":false,"rental_uris":{"android":"levelo://app?vid=4958d449-c7d8-4d41-b08d-ff11ddaaee41","ios":"levelo://app?vid=4958d449-c7d8-4d41-b08d-ff11ddaaee41"},"vehicle_type_id":"4","last_reported":1745935820,"current_range_meters":16800,"station_id":"ce4bhbp2rcd13ifvqerg","pricing_plan_id":"cebpf4jnsgd1na2vs0mg"},{"bike_id":"aef1c3bf-8dff-48ee-b84a-82fa7c88dc17","system_id":"levelo_inurba_marseille","lat":43.28273,"lon":5.35078,"is_reserved":false,"is_disabled":false,"rental_uris":{"android":"levelo://app?vid=aef1c3bf-8dff-48ee-b84a-82fa7c88dc17","ios":"levelo://app?vid=aef1c3bf-8dff-48ee-b84a-82fa7c88dc17"},"vehicle_type_id":"4","last_reported":1745935820,"current_range_meters":16800,"station_id":"ce4bhbp2rcd13ifvqerg","pricing_plan_id":"cebpf4jnsgd1na2vs0mg"},{"bike_id":"5640d235-8239-4a10-b9db-8ec1c38db12a","system_id":"levelo_inurba_marseille","lat":43.25502,"lon":5.37662,"is_reserved":false,"is_disabled":false,"rental_uris":{"android":"levelo://app?vid=5640d235-8239-4a10-b9db-8ec1c38db12a","ios":"levelo://app?vid=5640d235-8239-4a10-b9db-8ec1c38db12a"},"vehicle_type_id":"4","last_reported":1745935820,"current_range_meters":16800,"station_id":"ce4bhh12rcd13ifvqff0","pricing_plan_id":"cebpf4jnsgd1na2vs0mg"},{"bike_id":"1ff7221b-8e1e-4dce-9e57-4aed861ca4b9","system_id":"levelo_inurba_marseille","lat":43.33726,"lon":5.39187,"is_reserved":false,"is_disabled":false,"rental_uris":{"android":"levelo://app?vid=1ff7221b-8e1e-4dce-9e57-4aed861ca4b9","ios":"levelo://app?vid=1ff7221b-8e1e-4dce-9e57-4aed861ca4b9"},"vehicle_type_id":"4","last_reported":1745935820,"current_range_meters":16800,"station_id":"ce4bhr92rcd13ifvqhsg","pricing_plan_id":"cebpf4jnsgd1na2vs0mg"},{"bike_id":"ff9544f8-a77b-4ec0-a7f9-836bf4062251","system_id":"levelo_inurba_marseille","lat":43.304705,"lon":5.384958,"is_reserved":false,"is_disabled":false,"rental_uris":{"android":"levelo://app?vid=ff9544f8-a77b-4ec0-a7f9-836bf4062251","ios":"levelo://app?vid=ff9544f8-a77b-4ec0-a7f9-836bf4062251"},"vehicle_type_id":"4","last_reported":1745935820,"current_range_meters":17200,"station_id":"ce4bghh2rcd13ifvqb60","pricing_plan_id":"cebpf4jnsgd1na2vs0mg"},{"bike_id":"666ed8a1-21fa-4ef1-a269-1f75e7858b2e","system_id":"levelo_inurba_marseille","lat":43.27622,"lon":5.361,"is_reserved":false,"is_disabled":false,"rental_uris":{"android":"levelo://app?vid=666ed8a1-21fa-4ef1-a269-1f75e7858b2e","ios":"levelo://app?vid=666ed8a1-21fa-4ef1-a269-1f75e7858b2e"},"vehicle_type_id":"4","last_reported":1745935820,"current_range_meters":17200,"station_id":"ce4bgj92rcd13ifvqbe0","pricing_plan_id":"cebpf4jnsgd1na2vs0mg"},{"bike_id":"fa17c489-b32a-4920-8338-5d39025f0be6","system_id":"levelo_inurba_marseille","lat":43.305299,"lon":5.399029,"is_reserved":false,"is_disabled":false,"rental_uris":{"android":"levelo://app?vid=fa17c489-b32a-4920-8338-5d39025f0be6","ios":"levelo://app?vid=fa17c489-b32a-4920-8338-5d39025f0be6"},"vehicle_type_id":"4","last_reported":1745935820,"current_range_meters":17200,"station_id":"ce4bh092rcd13ifvqd20","pricing_plan_id":"cebpf4jnsgd1na2vs0mg"},{"bike_id":"dee04607-f3fb-46ac-861b-4a8b9e886430","system_id":"levelo_inurba_marseille","lat":43.28283,"lon":5.35083,"is_reserved":false,"is_disabled":false,"rental_uris":{"android":"levelo://app?vid=dee04607-f3fb-46ac-861b-4a8b9e886430","ios":"levelo://app?vid=dee04607-f3fb-46ac-861b-4a8b9e886430"},"vehicle_type_id":"4","last_reported":1745935820,"current_range_meters":17200,"station_id":"ce4bhbp2rcd13ifvqerg","pricing_plan_id":"cebpf4jnsgd1na2vs0mg"},{"bike_id":"4d16ccc8-ca1a-41cd-a528-cec906aeed0e","system_id":"levelo_inurba_marseille","lat":43.28617,"lon":5.35098,"is_reserved":false,"is_disabled":false,"rental_uris":{"android":"levelo://app?vid=4d16ccc8-ca1a-41cd-a528-cec906aeed0e","ios":"levelo://app?vid=4d16ccc8-ca1a-41cd-a528-cec906aeed0e"},"vehicle_type_id":"4","last_reported":1745935820,"current_range_meters":17200,"station_id":"ce4bhch2rcd13ifvqeug","pricing_plan_id":"cebpf4jnsgd1na2vs0mg"},{"bike_id":"8c8beedd-eb46-42ee-b55e-79ccc0fb6281","system_id":"levelo_inurba_marseille","lat":43.24391,"lon":5.37055,"is_reserved":false,"is_disabled":false,"rental_uris":{"android":"levelo://app?vid=8c8beedd-eb46-42ee-b55e-79ccc0fb6281","ios":"levelo://app?vid=8c8beedd-eb46-42ee-b55e-79ccc0fb6281"},"vehicle_type_id":"4","last_reported":1745935820,"current_range_meters":17200,"station_id":"ce4bhhh2rcd13ifvqfk0","pricing_plan_id":"cebpf4jnsgd1na2vs0mg"},{"bike_id":"bf31f3ab-91de-42fd-a4ff-c62208f61393","system_id":"levelo_inurba_marseille","lat":43.32105,"lon":5.36795,"is_reserved":false,"is_disabled":false,"rental_uris":{"android":"levelo://app?vid=bf31f3ab-91de-42fd-a4ff-c62208f61393","ios":"levelo://app?vid=bf31f3ab-91de-42fd-a4ff-c62208f61393"},"vehicle_type_id":"4","last_reported":1745935820,"current_range_meters":17200,"station_id":"ce4bhrh2rcd13ifvqhug","pricing_plan_id":"cebpf4jnsgd1na2vs0mg"},{"bike_id":"ee58d2d0-2375-47cc-8dde-0456162a3bd0","system_id":"levelo_inurba_marseille","lat":43.22929,"lon":5.35371,"is_reserved":false,"is_disabled":false,"rental_uris":{"android":"levelo://app?vid=ee58d2d0-2375-47cc-8dde-0456162a3bd0","ios":"levelo://app?vid=ee58d2d0-2375-47cc-8dde-0456162a3bd0"},"vehicle_type_id":"4","last_reported":1745935820,"current_range_meters":17200,"station_id":"cpo3532slgdg3j2ikp40","pricing_plan_id":"cebpf4jnsgd1na2vs0mg"},{"bike_id":"e5e92a64-e709-4b1a-a9b1-cbffe85789ca","system_id":"levelo_inurba_marseille","lat":43.25537,"lon":5.38132,"is_reserved":false,"is_disabled":false,"rental_uris":{"android":"levelo://app?vid=e5e92a64-e709-4b1a-a9b1-cbffe85789ca","ios":"levelo://app?vid=e5e92a64-e709-4b1a-a9b1-cbffe85789ca"},"vehicle_type_id":"4","last_reported":1745935820,"current_range_meters":17600,"station_id":"","pricing_plan_id":"cebpf4jnsgd1na2vs0mg"},{"bike_id":"9f34a774-aaea-4e08-8d13-cc6a96aeb4c4","system_id":"levelo_inurba_marseille","lat":43.28418,"lon":5.37513,"is_reserved":false,"is_disabled":false,"rental_uris":{"android":"levelo://app?vid=9f34a774-aaea-4e08-8d13-cc6a96aeb4c4","ios":"levelo://app?vid=9f34a774-aaea-4e08-8d13-cc6a96aeb4c4"},"vehicle_type_id":"4","last_reported":1745935820,"current_range_meters":17600,"station_id":"ce4bh412rcd13ifvqds0","pricing_plan_id":"cebpf4jnsgd1na2vs0mg"},{"bike_id":"22e68cd3-34a8-49e4-8e1b-ea907ab02bbd","system_id":"levelo_inurba_marseille","lat":43.28268,"lon":5.35075,"is_reserved":false,"is_disabled":false,"rental_uris":{"android":"levelo://app?vid=22e68cd3-34a8-49e4-8e1b-ea907ab02bbd","ios":"levelo://app?vid=22e68cd3-34a8-49e4-8e1b-ea907ab02bbd"},"vehicle_type_id":"4","last_reported":1745935820,"current_range_meters":17600,"station_id":"ce4bhbp2rcd13ifvqerg","pricing_plan_id":"cebpf4jnsgd1na2vs0mg"},{"bike_id":"4c044175-8493-46f7-a233-190d95a68755","system_id":"levelo_inurba_marseille","lat":43.27071,"lon":5.40248,"is_reserved":false,"is_disabled":false,"rental_uris":{"android":"levelo://app?vid=4c044175-8493-46f7-a233-190d95a68755","ios":"levelo://app?vid=4c044175-8493-46f7-a233-190d95a68755"},"vehicle_type_id":"4","last_reported":1745935820,"current_range_meters":17600,"station_id":"ce4bhk92rcd13ifvqgc0","pricing_plan_id":"cebpf4jnsgd1na2vs0mg"},{"bike_id":"2c6f1f82-dc88-47ee-9a6f-16a19dbe2d36","system_id":"levelo_inurba_marseille","lat":43.27819,"lon":5.4072,"is_reserved":false,"is_disabled":false,"rental_uris":{"android":"levelo://app?vid=2c6f1f82-dc88-47ee-9a6f-16a19dbe2d36","ios":"levelo://app?vid=2c6f1f82-dc88-47ee-9a6f-16a19dbe2d36"},"vehicle_type_id":"4","last_reported":1745935820,"current_range_meters":17600,"station_id":"ce4bhnh2rcd13ifvqgtg","pricing_plan_id":"cebpf4jnsgd1na2vs0mg"},{"bike_id":"94db54fc-a757-4f7b-9280-a9841f36af6d","system_id":"levelo_inurba_marseille","lat":43.31759,"lon":5.39017,"is_reserved":false,"is_disabled":false,"rental_uris":{"android":"levelo://app?vid=94db54fc-a757-4f7b-9280-a9841f36af6d","ios":"levelo://app?vid=94db54fc-a757-4f7b-9280-a9841f36af6d"},"vehicle_type_id":"4","last_reported":1745935820,"current_range_meters":17600,"station_id":"ce4bhqp2rcd13ifvqhng","pricing_plan_id":"cebpf4jnsgd1na2vs0mg"},{"bike_id":"ae41d282-745e-44cb-8d84-7c61590099f8","system_id":"levelo_inurba_marseille","lat":43.32368,"lon":5.388898,"is_reserved":false,"is_disabled":false,"rental_uris":{"android":"levelo://app?vid=ae41d282-745e-44cb-8d84-7c61590099f8","ios":"levelo://app?vid=ae41d282-745e-44cb-8d84-7c61590099f8"},"vehicle_type_id":"4","last_reported":1745935820,"current_range_meters":17600,"station_id":"ce4bhqp2rcd13ifvqhog","pricing_plan_id":"cebpf4jnsgd1na2vs0mg"},{"bike_id":"ce2710b2-8aee-43d8-8ef3-2843f2527c66","system_id":"levelo_inurba_marseille","lat":43.24167,"lon":5.36404,"is_reserved":false,"is_disabled":false,"rental_uris":{"android":"levelo://app?vid=ce2710b2-8aee-43d8-8ef3-2843f2527c66","ios":"levelo://app?vid=ce2710b2-8aee-43d8-8ef3-2843f2527c66"},"vehicle_type_id":"4","last_reported":1745935820,"current_range_meters":17600,"station_id":"cpo36qri1sfpv3e86is0","pricing_plan_id":"cebpf4jnsgd1na2vs0mg"},{"bike_id":"6a169abf-1300-4de6-9df8-f0c244509f77","system_id":"levelo_inurba_marseille","lat":43.21749,"lon":5.34607,"is_reserved":false,"is_disabled":false,"rental_uris":{"android":"levelo://app?vid=6a169abf-1300-4de6-9df8-f0c244509f77","ios":"levelo://app?vid=6a169abf-1300-4de6-9df8-f0c244509f77"},"vehicle_type_id":"4","last_reported":1745935820,"current_range_meters":18000,"station_id":"","pricing_plan_id":"cebpf4jnsgd1na2vs0mg"},{"bike_id":"66efd9e2-9a98-4be9-b757-4ba32d4d079b","system_id":"levelo_inurba_marseille","lat":43.30437,"lon":5.38887,"is_reserved":false,"is_disabled":false,"rental_uris":{"android":"levelo://app?vid=66efd9e2-9a98-4be9-b757-4ba32d4d079b","ios":"levelo://app?vid=66efd9e2-9a98-4be9-b757-4ba32d4d079b"},"vehicle_type_id":"4","last_reported":1745935820,"current_range_meters":18000,"station_id":"ce4bgk12rcd13ifvqbi0","pricing_plan_id":"cebpf4jnsgd1na2vs0mg"},{"bike_id":"942e1be8-0b4c-4b58-97b4-0482c4bdb7e4","system_id":"levelo_inurba_marseille","lat":43.3094,"lon":5.36947,"is_reserved":false,"is_disabled":false,"rental_uris":{"android":"levelo://app?vid=942e1be8-0b4c-4b58-97b4-0482c4bdb7e4","ios":"levelo://app?vid=942e1be8-0b4c-4b58-97b4-0482c4bdb7e4"},"vehicle_type_id":"4","last_reported":1745935820,"current_range_meters":18000,"station_id":"ce4bgn92rcd13ifvqbvg","pricing_plan_id":"cebpf4jnsgd1na2vs0mg"},{"bike_id":"35cbc678-c9c0-4b31-9346-02899af1d733","system_id":"levelo_inurba_marseille","lat":43.28037,"lon":5.36936,"is_reserved":false,"is_disabled":false,"rental_uris":{"android":"levelo://app?vid=35cbc678-c9c0-4b31-9346-02899af1d733","ios":"levelo://app?vid=35cbc678-c9c0-4b31-9346-02899af1d733"},"vehicle_type_id":"4","last_reported":1745935820,"current_range_meters":18000,"station_id":"ce4bha12rcd13ifvqef0","pricing_plan_id":"cebpf4jnsgd1na2vs0mg"},{"bike_id":"455dfde0-ee00-4454-8173-fd4da0f209e8","system_id":"levelo_inurba_marseille","lat":43.27366,"lon":5.36233,"is_reserved":false,"is_disabled":false,"rental_uris":{"android":"levelo://app?vid=455dfde0-ee00-4454-8173-fd4da0f209e8","ios":"levelo://app?vid=455dfde0-ee00-4454-8173-fd4da0f209e8"},"vehicle_type_id":"4","last_reported":1745935820,"current_range_meters":18000,"station_id":"ce4bhbh2rcd13ifvqeo0","pricing_plan_id":"cebpf4jnsgd1na2vs0mg"},{"bike_id":"58505bbd-07de-4b77-afe6-6ed045b4c50b","system_id":"levelo_inurba_marseille","lat":43.28269,"lon":5.35066,"is_reserved":false,"is_disabled":false,"rental_uris":{"android":"levelo://app?vid=58505bbd-07de-4b77-afe6-6ed045b4c50b","ios":"levelo://app?vid=58505bbd-07de-4b77-afe6-6ed045b4c50b"},"vehicle_type_id":"4","last_reported":1745935820,"current_range_meters":18000,"station_id":"ce4bhbp2rcd13ifvqerg","pricing_plan_id":"cebpf4jnsgd1na2vs0mg"},{"bike_id":"4ea69884-a3bb-4872-9fa9-f0770c3eb6b6","system_id":"levelo_inurba_marseille","lat":43.24097,"lon":5.37768,"is_reserved":false,"is_disabled":false,"rental_uris":{"android":"levelo://app?vid=4ea69884-a3bb-4872-9fa9-f0770c3eb6b6","ios":"levelo://app?vid=4ea69884-a3bb-4872-9fa9-f0770c3eb6b6"},"vehicle_type_id":"4","last_reported":1745935820,"current_range_meters":18000,"station_id":"ce4bhnp2rcd13ifvqgvg","pricing_plan_id":"cebpf4jnsgd1na2vs0mg"},{"bike_id":"b26e7b5c-af25-4c00-b11c-8a4c55475620","system_id":"levelo_inurba_marseille","lat":43.30791,"lon":5.38164,"is_reserved":false,"is_disabled":false,"rental_uris":{"android":"levelo://app?vid=b26e7b5c-af25-4c00-b11c-8a4c55475620","ios":"levelo://app?vid=b26e7b5c-af25-4c00-b11c-8a4c55475620"},"vehicle_type_id":"4","last_reported":1745935820,"current_range_meters":18800,"station_id":"ce4bgt12rcd13ifvqce0","pricing_plan_id":"cebpf4jnsgd1na2vs0mg"},{"bike_id":"45863e3c-c555-49a1-9842-43ecd03180d1","system_id":"levelo_inurba_marseille","lat":43.26044,"lon":5.37551,"is_reserved":false,"is_disabled":false,"rental_uris":{"android":"levelo://app?vid=45863e3c-c555-49a1-9842-43ecd03180d1","ios":"levelo://app?vid=45863e3c-c555-49a1-9842-43ecd03180d1"},"vehicle_type_id":"4","last_reported":1745935820,"current_range_meters":18800,"station_id":"ce4bhgh2rcd13ifvqfa0","pricing_plan_id":"cebpf4jnsgd1na2vs0mg"},{"bike_id":"207e84ee-ca9f-4c74-af9a-39822e601e91","system_id":"levelo_inurba_marseille","lat":43.30377,"lon":5.42491,"is_reserved":false,"is_disabled":false,"rental_uris":{"android":"levelo://app?vid=207e84ee-ca9f-4c74-af9a-39822e601e91","ios":"levelo://app?vid=207e84ee-ca9f-4c74-af9a-39822e601e91"},"vehicle_type_id":"4","last_reported":1745935820,"current_range_meters":18800,"station_id":"ce4bhoh2rcd13ifvqh6g","pricing_plan_id":"cebpf4jnsgd1na2vs0mg"},{"bike_id":"4678f98c-9605-485e-9f52-d38650b7e3f9","system_id":"levelo_inurba_marseille","lat":43.324753,"lon":5.365624,"is_reserved":false,"is_disabled":false,"rental_uris":{"android":"levelo://app?vid=4678f98c-9605-485e-9f52-d38650b7e3f9","ios":"levelo://app?vid=4678f98c-9605-485e-9f52-d38650b7e3f9"},"vehicle_type_id":"4","last_reported":1745935820,"current_range_meters":18800,"station_id":"ce4bhs12rcd13ifvqhvg","pricing_plan_id":"cebpf4jnsgd1na2vs0mg"},{"bike_id":"fce2c520-92d3-4d18-810b-8d643fc15a1a","system_id":"levelo_inurba_marseille","lat":43.230637,"lon":5.354896,"is_reserved":false,"is_disabled":false,"rental_uris":{"android":"levelo://app?vid=fce2c520-92d3-4d18-810b-8d643fc15a1a","ios":"levelo://app?vid=fce2c520-92d3-4d18-810b-8d643fc15a1a"},"vehicle_type_id":"4","last_reported":1745935820,"current_range_meters":18800,"station_id":"cpo3342slgdg3j2ifvpg","pricing_plan_id":"cebpf4jnsgd1na2vs0mg"},{"bike_id":"025deab2-0dc7-48b4-b8c0-85e7723a6fce","system_id":"levelo_inurba_marseille","lat":43.21197,"lon":5.350742,"is_reserved":false,"is_disabled":false,"rental_uris":{"android":"levelo://app?vid=025deab2-0dc7-48b4-b8c0-85e7723a6fce","ios":"levelo://app?vid=025deab2-0dc7-48b4-b8c0-85e7723a6fce"},"vehicle_type_id":"4","last_reported":1745935820,"current_range_meters":18800,"station_id":"st_cvj6sg6p6f1abm77japg","pricing_plan_id":"cebpf4jnsgd1na2vs0mg"},{"bike_id":"86c2979e-8cf6-48ed-bdb1-835ff11e3adc","system_id":"levelo_inurba_marseille","lat":43.25385,"lon":5.41839,"is_reserved":false,"is_disabled":false,"rental_uris":{"android":"levelo://app?vid=86c2979e-8cf6-48ed-bdb1-835ff11e3adc","ios":"levelo://app?vid=86c2979e-8cf6-48ed-bdb1-835ff11e3adc"},"vehicle_type_id":"4","last_reported":1745935820,"current_range_meters":19200,"station_id":"","pricing_plan_id":"cebpf4jnsgd1na2vs0mg"},{"bike_id":"404f8bb0-e61e-473d-84e3-ad9a44a44b05","system_id":"levelo_inurba_marseille","lat":43.28423,"lon":5.34991,"is_reserved":false,"is_disabled":false,"rental_uris":{"android":"levelo://app?vid=404f8bb0-e61e-473d-84e3-ad9a44a44b05","ios":"levelo://app?vid=404f8bb0-e61e-473d-84e3-ad9a44a44b05"},"vehicle_type_id":"4","last_reported":1745935820,"current_range_meters":19200,"station_id":"ce4bhbh2rcd13ifvqepg","pricing_plan_id":"cebpf4jnsgd1na2vs0mg"},{"bike_id":"57564f16-660e-417a-bc1e-44566c48c1b1","system_id":"levelo_inurba_marseille","lat":43.26033,"lon":5.37547,"is_reserved":false,"is_disabled":false,"rental_uris":{"android":"levelo://app?vid=57564f16-660e-417a-bc1e-44566c48c1b1","ios":"levelo://app?vid=57564f16-660e-417a-bc1e-44566c48c1b1"},"vehicle_type_id":"4","last_reported":1745935820,"current_range_meters":19200,"station_id":"ce4bhgh2rcd13ifvqfa0","pricing_plan_id":"cebpf4jnsgd1na2vs0mg"},{"bike_id":"d790bba5-0573-4c47-8999-23421e069bf8","system_id":"levelo_inurba_marseille","lat":43.23971,"lon":5.36632,"is_reserved":false,"is_disabled":false,"rental_uris":{"android":"levelo://app?vid=d790bba5-0573-4c47-8999-23421e069bf8","ios":"levelo://app?vid=d790bba5-0573-4c47-8999-23421e069bf8"},"vehicle_type_id":"4","last_reported":1745935820,"current_range_meters":19200,"station_id":"ce4bhi12rcd13ifvqfp0","pricing_plan_id":"cebpf4jnsgd1na2vs0mg"},{"bike_id":"637f17b1-a980-4bc5-993d-9a9de04fb5bf","system_id":"levelo_inurba_marseille","lat":43.31485,"lon":5.36836,"is_reserved":false,"is_disabled":false,"rental_uris":{"android":"levelo://app?vid=637f17b1-a980-4bc5-993d-9a9de04fb5bf","ios":"levelo://app?vid=637f17b1-a980-4bc5-993d-9a9de04fb5bf"},"vehicle_type_id":"4","last_reported":1745935820,"current_range_meters":19600,"station_id":"","pricing_plan_id":"cebpf4jnsgd1na2vs0mg"},{"bike_id":"413870a0-84a9-4857-aee6-fde271b5d85e","system_id":"levelo_inurba_marseille","lat":43.30684,"lon":5.36828,"is_reserved":false,"is_disabled":false,"rental_uris":{"android":"levelo://app?vid=413870a0-84a9-4857-aee6-fde271b5d85e","ios":"levelo://app?vid=413870a0-84a9-4857-aee6-fde271b5d85e"},"vehicle_type_id":"4","last_reported":1745935820,"current_range_meters":19600,"station_id":"","pricing_plan_id":"cebpf4jnsgd1na2vs0mg"},{"bike_id":"a6d0ce6a-843f-4729-9a07-a84d24e9d12a","system_id":"levelo_inurba_marseille","lat":43.24175,"lon":5.36383,"is_reserved":false,"is_disabled":false,"rental_uris":{"android":"levelo://app?vid=a6d0ce6a-843f-4729-9a07-a84d24e9d12a","ios":"levelo://app?vid=a6d0ce6a-843f-4729-9a07-a84d24e9d12a"},"vehicle_type_id":"4","last_reported":1745935820,"current_range_meters":19600,"station_id":"cpo36qri1sfpv3e86is0","pricing_plan_id":"cebpf4jnsgd1na2vs0mg"},{"bike_id":"4974ee8a-8937-46e6-aada-e77179cb74ac","system_id":"levelo_inurba_marseille","lat":43.21202,"lon":5.35107,"is_reserved":false,"is_disabled":false,"rental_uris":{"android":"levelo://app?vid=4974ee8a-8937-46e6-aada-e77179cb74ac","ios":"levelo://app?vid=4974ee8a-8937-46e6-aada-e77179cb74ac"},"vehicle_type_id":"4","last_reported":1745935820,"current_range_meters":19600,"station_id":"st_cvj6sg6p6f1abm77japg","pricing_plan_id":"cebpf4jnsgd1na2vs0mg"},{"bike_id":"a33a99f1-2499-4466-8a20-94e1db48d19e","system_id":"levelo_inurba_marseille","lat":43.28426,"lon":5.34995,"is_reserved":false,"is_disabled":false,"rental_uris":{"android":"levelo://app?vid=a33a99f1-2499-4466-8a20-94e1db48d19e","ios":"levelo://app?vid=a33a99f1-2499-4466-8a20-94e1db48d19e"},"vehicle_type_id":"4","last_reported":1745935820,"current_range_meters":20000,"station_id":"ce4bhbh2rcd13ifvqepg","pricing_plan_id":"cebpf4jnsgd1na2vs0mg"},{"bike_id":"da238281-dc76-4013-9cbc-c9dbb2795121","system_id":"levelo_inurba_marseille","lat":43.28262,"lon":5.35066,"is_reserved":false,"is_disabled":false,"rental_uris":{"android":"levelo://app?vid=da238281-dc76-4013-9cbc-c9dbb2795121","ios":"levelo://app?vid=da238281-dc76-4013-9cbc-c9dbb2795121"},"vehicle_type_id":"4","last_reported":1745935820,"current_range_meters":20000,"station_id":"ce4bhbp2rcd13ifvqerg","pricing_plan_id":"cebpf4jnsgd1na2vs0mg"},{"bike_id":"640f7fb9-9965-475b-ba42-ecda13e001b0","system_id":"levelo_inurba_marseille","lat":43.26028,"lon":5.37553,"is_reserved":false,"is_disabled":false,"rental_uris":{"android":"levelo://app?vid=640f7fb9-9965-475b-ba42-ecda13e001b0","ios":"levelo://app?vid=640f7fb9-9965-475b-ba42-ecda13e001b0"},"vehicle_type_id":"4","last_reported":1745935820,"current_range_meters":20000,"station_id":"ce4bhgh2rcd13ifvqfa0","pricing_plan_id":"cebpf4jnsgd1na2vs0mg"},{"bike_id":"2ffcb5dc-6039-4018-8890-4d281a5d40f1","system_id":"levelo_inurba_marseille","lat":43.23153,"lon":5.43706,"is_reserved":false,"is_disabled":false,"rental_uris":{"android":"levelo://app?vid=2ffcb5dc-6039-4018-8890-4d281a5d40f1","ios":"levelo://app?vid=2ffcb5dc-6039-4018-8890-4d281a5d40f1"},"vehicle_type_id":"4","last_reported":1745935820,"current_range_meters":20000,"station_id":"ce4bhmp2rcd13ifvqgog","pricing_plan_id":"cebpf4jnsgd1na2vs0mg"},{"bike_id":"3413c80e-d72d-45c6-9c9a-bf8390897c32","system_id":"levelo_inurba_marseille","lat":43.27621,"lon":5.36103,"is_reserved":false,"is_disabled":false,"rental_uris":{"android":"levelo://app?vid=3413c80e-d72d-45c6-9c9a-bf8390897c32","ios":"levelo://app?vid=3413c80e-d72d-45c6-9c9a-bf8390897c32"},"vehicle_type_id":"4","last_reported":1745935820,"current_range_meters":20400,"station_id":"ce4bgj92rcd13ifvqbe0","pricing_plan_id":"cebpf4jnsgd1na2vs0mg"},{"bike_id":"9f68c4e1-c1b3-47b0-9e0b-405e71891a0d","system_id":"levelo_inurba_marseille","lat":43.26563,"lon":5.39016,"is_reserved":false,"is_disabled":false,"rental_uris":{"android":"levelo://app?vid=9f68c4e1-c1b3-47b0-9e0b-405e71891a0d","ios":"levelo://app?vid=9f68c4e1-c1b3-47b0-9e0b-405e71891a0d"},"vehicle_type_id":"4","last_reported":1745935820,"current_range_meters":20400,"station_id":"ce4bhe12rcd13ifvqf30","pricing_plan_id":"cebpf4jnsgd1na2vs0mg"},{"bike_id":"38a5a22d-9811-4d50-a706-fc42be78732b","system_id":"levelo_inurba_marseille","lat":43.25009,"lon":5.38928,"is_reserved":false,"is_disabled":false,"rental_uris":{"android":"levelo://app?vid=38a5a22d-9811-4d50-a706-fc42be78732b","ios":"levelo://app?vid=38a5a22d-9811-4d50-a706-fc42be78732b"},"vehicle_type_id":"4","last_reported":1745935820,"current_range_meters":20400,"station_id":"ce4bhgp2rcd13ifvqfd0","pricing_plan_id":"cebpf4jnsgd1na2vs0mg"},{"bike_id":"c6353a11-4b68-4799-aa85-8f416fee2763","system_id":"levelo_inurba_marseille","lat":43.27206,"lon":5.39186,"is_reserved":false,"is_disabled":false,"rental_uris":{"android":"levelo://app?vid=c6353a11-4b68-4799-aa85-8f416fee2763","ios":"levelo://app?vid=c6353a11-4b68-4799-aa85-8f416fee2763"},"vehicle_type_id":"4","last_reported":1745935820,"current_range_meters":20400,"station_id":"ce4bhhp2rcd13ifvqfm0","pricing_plan_id":"cebpf4jnsgd1na2vs0mg"},{"bike_id":"8663b10c-1e24-428c-bec4-66fabeba84de","system_id":"levelo_inurba_marseille","lat":43.28356,"lon":5.35011,"is_reserved":false,"is_disabled":false,"rental_uris":{"android":"levelo://app?vid=8663b10c-1e24-428c-bec4-66fabeba84de","ios":"levelo://app?vid=8663b10c-1e24-428c-bec4-66fabeba84de"},"vehicle_type_id":"4","last_reported":1745935820,"current_range_meters":20800,"station_id":"","pricing_plan_id":"cebpf4jnsgd1na2vs0mg"},{"bike_id":"a2014c96-8e27-4f59-8d23-cbf7a79607c2","system_id":"levelo_inurba_marseille","lat":43.3032,"lon":5.36892,"is_reserved":false,"is_disabled":false,"rental_uris":{"android":"levelo://app?vid=a2014c96-8e27-4f59-8d23-cbf7a79607c2","ios":"levelo://app?vid=a2014c96-8e27-4f59-8d23-cbf7a79607c2"},"vehicle_type_id":"4","last_reported":1745935820,"current_range_meters":20800,"station_id":"ce4bgqh2rcd13ifvqc5g","pricing_plan_id":"cebpf4jnsgd1na2vs0mg"},{"bike_id":"cc5790ac-ace5-4d15-a9a4-8fbcb3a6da4e","system_id":"levelo_inurba_marseille","lat":43.28714,"lon":5.37397,"is_reserved":false,"is_disabled":false,"rental_uris":{"android":"levelo://app?vid=cc5790ac-ace5-4d15-a9a4-8fbcb3a6da4e","ios":"levelo://app?vid=cc5790ac-ace5-4d15-a9a4-8fbcb3a6da4e"},"vehicle_type_id":"4","last_reported":1745935820,"current_range_meters":20800,"station_id":"ce4bh3p2rcd13ifvqdq0","pricing_plan_id":"cebpf4jnsgd1na2vs0mg"},{"bike_id":"0426c00b-a21e-4de9-88ba-840da8ed8fde","system_id":"levelo_inurba_marseille","lat":43.28276,"lon":5.35075,"is_reserved":false,"is_disabled":false,"rental_uris":{"android":"levelo://app?vid=0426c00b-a21e-4de9-88ba-840da8ed8fde","ios":"levelo://app?vid=0426c00b-a21e-4de9-88ba-840da8ed8fde"},"vehicle_type_id":"4","last_reported":1745935820,"current_range_meters":20800,"station_id":"ce4bhbp2rcd13ifvqerg","pricing_plan_id":"cebpf4jnsgd1na2vs0mg"},{"bike_id":"39089e5b-adfa-4663-816f-59cf0daa187e","system_id":"levelo_inurba_marseille","lat":43.28263,"lon":5.35059,"is_reserved":false,"is_disabled":false,"rental_uris":{"android":"levelo://app?vid=39089e5b-adfa-4663-816f-59cf0daa187e","ios":"levelo://app?vid=39089e5b-adfa-4663-816f-59cf0daa187e"},"vehicle_type_id":"4","last_reported":1745935820,"current_range_meters":20800,"station_id":"ce4bhbp2rcd13ifvqerg","pricing_plan_id":"cebpf4jnsgd1na2vs0mg"},{"bike_id":"2372f7c6-1089-4c13-bafe-c3d7862aadcc","system_id":"levelo_inurba_marseille","lat":43.31706,"lon":5.43704,"is_reserved":false,"is_disabled":false,"rental_uris":{"android":"levelo://app?vid=2372f7c6-1089-4c13-bafe-c3d7862aadcc","ios":"levelo://app?vid=2372f7c6-1089-4c13-bafe-c3d7862aadcc"},"vehicle_type_id":"4","last_reported":1745935820,"current_range_meters":20800,"station_id":"ce4bhp92rcd13ifvqhcg","pricing_plan_id":"cebpf4jnsgd1na2vs0mg"},{"bike_id":"e612035f-2878-4bec-9959-6bbcd4614a2f","system_id":"levelo_inurba_marseille","lat":43.32514,"lon":5.36545,"is_reserved":false,"is_disabled":false,"rental_uris":{"android":"levelo://app?vid=e612035f-2878-4bec-9959-6bbcd4614a2f","ios":"levelo://app?vid=e612035f-2878-4bec-9959-6bbcd4614a2f"},"vehicle_type_id":"4","last_reported":1745935820,"current_range_meters":20800,"station_id":"ce4bhs12rcd13ifvqhvg","pricing_plan_id":"cebpf4jnsgd1na2vs0mg"},{"bike_id":"9bfe6821-b569-461d-b21b-20646d93475e","system_id":"levelo_inurba_marseille","lat":43.32492,"lon":5.36568,"is_reserved":false,"is_disabled":false,"rental_uris":{"android":"levelo://app?vid=9bfe6821-b569-461d-b21b-20646d93475e","ios":"levelo://app?vid=9bfe6821-b569-461d-b21b-20646d93475e"},"vehicle_type_id":"4","last_reported":1745935820,"current_range_meters":20800,"station_id":"ce4bhs12rcd13ifvqhvg","pricing_plan_id":"cebpf4jnsgd1na2vs0mg"},{"bike_id":"7940bc1b-eaa7-4f49-a435-46dc9391f6a1","system_id":"levelo_inurba_marseille","lat":43.21199,"lon":5.35073,"is_reserved":false,"is_disabled":false,"rental_uris":{"android":"levelo://app?vid=7940bc1b-eaa7-4f49-a435-46dc9391f6a1","ios":"levelo://app?vid=7940bc1b-eaa7-4f49-a435-46dc9391f6a1"},"vehicle_type_id":"4","last_reported":1745935820,"current_range_meters":20800,"station_id":"st_cvj6sg6p6f1abm77japg","pricing_plan_id":"cebpf4jnsgd1na2vs0mg"},{"bike_id":"280077b0-7d9a-4cbe-b963-9a586e0e3faa","system_id":"levelo_inurba_marseille","lat":43.29959,"lon":5.37152,"is_reserved":false,"is_disabled":false,"rental_uris":{"android":"levelo://app?vid=280077b0-7d9a-4cbe-b963-9a586e0e3faa","ios":"levelo://app?vid=280077b0-7d9a-4cbe-b963-9a586e0e3faa"},"vehicle_type_id":"4","last_reported":1745935820,"current_range_meters":21600,"station_id":"ce4bgr92rcd13ifvqc7g","pricing_plan_id":"cebpf4jnsgd1na2vs0mg"},{"bike_id":"4da19102-67dc-48ef-aa16-db87eae6f7f6","system_id":"levelo_inurba_marseille","lat":43.28361,"lon":5.38628,"is_reserved":false,"is_disabled":false,"rental_uris":{"android":"levelo://app?vid=4da19102-67dc-48ef-aa16-db87eae6f7f6","ios":"levelo://app?vid=4da19102-67dc-48ef-aa16-db87eae6f7f6"},"vehicle_type_id":"4","last_reported":1745935820,"current_range_meters":21600,"station_id":"ce4bh492rcd13ifvqdvg","pricing_plan_id":"cebpf4jnsgd1na2vs0mg"},{"bike_id":"837641b1-b2cf-4663-9d6e-c9c218bc8965","system_id":"levelo_inurba_marseille","lat":43.2811,"lon":5.37842,"is_reserved":false,"is_disabled":false,"rental_uris":{"android":"levelo://app?vid=837641b1-b2cf-4663-9d6e-c9c218bc8965","ios":"levelo://app?vid=837641b1-b2cf-4663-9d6e-c9c218bc8965"},"vehicle_type_id":"4","last_reported":1745935820,"current_range_meters":21600,"station_id":"ce4bha12rcd13ifvqee0","pricing_plan_id":"cebpf4jnsgd1na2vs0mg"},{"bike_id":"9a54061f-2f5d-4e1c-b6e0-585a8426148f","system_id":"levelo_inurba_marseille","lat":43.28161,"lon":5.42646,"is_reserved":false,"is_disabled":false,"rental_uris":{"android":"levelo://app?vid=9a54061f-2f5d-4e1c-b6e0-585a8426148f","ios":"levelo://app?vid=9a54061f-2f5d-4e1c-b6e0-585a8426148f"},"vehicle_type_id":"4","last_reported":1745935820,"current_range_meters":21600,"station_id":"ce4bhnh2rcd13ifvqgug","pricing_plan_id":"cebpf4jnsgd1na2vs0mg"},{"bike_id":"cb5dca69-ab39-4309-81f4-4b0f6d88f1cb","system_id":"levelo_inurba_marseille","lat":43.29796,"lon":5.38112,"is_reserved":false,"is_disabled":false,"rental_uris":{"android":"levelo://app?vid=cb5dca69-ab39-4309-81f4-4b0f6d88f1cb","ios":"levelo://app?vid=cb5dca69-ab39-4309-81f4-4b0f6d88f1cb"},"vehicle_type_id":"4","last_reported":1745935820,"current_range_meters":22000,"station_id":"ce4bgip2rcd13ifvqbb0","pricing_plan_id":"cebpf4jnsgd1na2vs0mg"},{"bike_id":"a9284417-37e9-490d-bd61-db48f4469a46","system_id":"levelo_inurba_marseille","lat":43.26786,"lon":5.39416,"is_reserved":false,"is_disabled":false,"rental_uris":{"android":"levelo://app?vid=a9284417-37e9-490d-bd61-db48f4469a46","ios":"levelo://app?vid=a9284417-37e9-490d-bd61-db48f4469a46"},"vehicle_type_id":"4","last_reported":1745935820,"current_range_meters":22000,"station_id":"ce4bhh12rcd13ifvqfg0","pricing_plan_id":"cebpf4jnsgd1na2vs0mg"},{"bike_id":"c4f33951-98ee-4479-8f35-cbf2b9640150","system_id":"levelo_inurba_marseille","lat":43.25578,"lon":5.38224,"is_reserved":false,"is_disabled":false,"rental_uris":{"android":"levelo://app?vid=c4f33951-98ee-4479-8f35-cbf2b9640150","ios":"levelo://app?vid=c4f33951-98ee-4479-8f35-cbf2b9640150"},"vehicle_type_id":"4","last_reported":1745935820,"current_range_meters":22000,"station_id":"ce4bhih2rcd13ifvqfs0","pricing_plan_id":"cebpf4jnsgd1na2vs0mg"},{"bike_id":"c7ac3f4d-99da-4672-86a5-a20a296c8918","system_id":"levelo_inurba_marseille","lat":43.24185,"lon":5.39727,"is_reserved":false,"is_disabled":false,"rental_uris":{"android":"levelo://app?vid=c7ac3f4d-99da-4672-86a5-a20a296c8918","ios":"levelo://app?vid=c7ac3f4d-99da-4672-86a5-a20a296c8918"},"vehicle_type_id":"4","last_reported":1745935820,"current_range_meters":22000,"station_id":"ce4bhn12rcd13ifvqgpg","pricing_plan_id":"cebpf4jnsgd1na2vs0mg"},{"bike_id":"de293344-9f8d-4191-bd27-1f2e15db911c","system_id":"levelo_inurba_marseille","lat":43.28726,"lon":5.37937,"is_reserved":false,"is_disabled":false,"rental_uris":{"android":"levelo://app?vid=de293344-9f8d-4191-bd27-1f2e15db911c","ios":"levelo://app?vid=de293344-9f8d-4191-bd27-1f2e15db911c"},"vehicle_type_id":"4","last_reported":1745935820,"current_range_meters":22400,"station_id":"ce4bh9p2rcd13ifvqec0","pricing_plan_id":"cebpf4jnsgd1na2vs0mg"},{"bike_id":"cdcf7480-a7be-4e92-a9b2-d8d2ba50c500","system_id":"levelo_inurba_marseille","lat":43.26219,"lon":5.37437,"is_reserved":false,"is_disabled":false,"rental_uris":{"android":"levelo://app?vid=cdcf7480-a7be-4e92-a9b2-d8d2ba50c500","ios":"levelo://app?vid=cdcf7480-a7be-4e92-a9b2-d8d2ba50c500"},"vehicle_type_id":"4","last_reported":1745935820,"current_range_meters":22400,"station_id":"ce4bhgp2rcd13ifvqfc0","pricing_plan_id":"cebpf4jnsgd1na2vs0mg"},{"bike_id":"2ed0b263-7580-4e2a-8eae-bd00fb2f859b","system_id":"levelo_inurba_marseille","lat":43.26783,"lon":5.3941,"is_reserved":false,"is_disabled":false,"rental_uris":{"android":"levelo://app?vid=2ed0b263-7580-4e2a-8eae-bd00fb2f859b","ios":"levelo://app?vid=2ed0b263-7580-4e2a-8eae-bd00fb2f859b"},"vehicle_type_id":"4","last_reported":1745935820,"current_range_meters":22400,"station_id":"ce4bhh12rcd13ifvqfg0","pricing_plan_id":"cebpf4jnsgd1na2vs0mg"},{"bike_id":"24afd34c-6aa8-473e-b177-17cbb207e405","system_id":"levelo_inurba_marseille","lat":43.278095,"lon":5.407175,"is_reserved":false,"is_disabled":false,"rental_uris":{"android":"levelo://app?vid=24afd34c-6aa8-473e-b177-17cbb207e405","ios":"levelo://app?vid=24afd34c-6aa8-473e-b177-17cbb207e405"},"vehicle_type_id":"4","last_reported":1745935820,"current_range_meters":22400,"station_id":"ce4bhnh2rcd13ifvqgtg","pricing_plan_id":"cebpf4jnsgd1na2vs0mg"},{"bike_id":"21960771-092d-4796-8bcb-e87b49d27143","system_id":"levelo_inurba_marseille","lat":43.31757,"lon":5.39012,"is_reserved":false,"is_disabled":false,"rental_uris":{"android":"levelo://app?vid=21960771-092d-4796-8bcb-e87b49d27143","ios":"levelo://app?vid=21960771-092d-4796-8bcb-e87b49d27143"},"vehicle_type_id":"4","last_reported":1745935820,"current_range_meters":22400,"station_id":"ce4bhqp2rcd13ifvqhng","pricing_plan_id":"cebpf4jnsgd1na2vs0mg"},{"bike_id":"9a6d1a0d-0520-4c44-b0a9-74ddbe754418","system_id":"levelo_inurba_marseille","lat":43.26288,"lon":5.40455,"is_reserved":false,"is_disabled":false,"rental_uris":{"android":"levelo://app?vid=9a6d1a0d-0520-4c44-b0a9-74ddbe754418","ios":"levelo://app?vid=9a6d1a0d-0520-4c44-b0a9-74ddbe754418"},"vehicle_type_id":"4","last_reported":1745935820,"current_range_meters":22800,"station_id":"","pricing_plan_id":"cebpf4jnsgd1na2vs0mg"},{"bike_id":"45ad4e97-b4c7-41d6-a88d-ab173f432588","system_id":"levelo_inurba_marseille","lat":43.27568,"lon":5.36052,"is_reserved":false,"is_disabled":false,"rental_uris":{"android":"levelo://app?vid=45ad4e97-b4c7-41d6-a88d-ab173f432588","ios":"levelo://app?vid=45ad4e97-b4c7-41d6-a88d-ab173f432588"},"vehicle_type_id":"4","last_reported":1745935820,"current_range_meters":22800,"station_id":"ce4bgj92rcd13ifvqbe0","pricing_plan_id":"cebpf4jnsgd1na2vs0mg"},{"bike_id":"d842c20f-c7e7-4e67-bbc2-7f8fab3d956d","system_id":"levelo_inurba_marseille","lat":43.30879,"lon":5.39656,"is_reserved":false,"is_disabled":false,"rental_uris":{"android":"levelo://app?vid=d842c20f-c7e7-4e67-bbc2-7f8fab3d956d","ios":"levelo://app?vid=d842c20f-c7e7-4e67-bbc2-7f8fab3d956d"},"vehicle_type_id":"4","last_reported":1745935820,"current_range_meters":22800,"station_id":"ce4bh012rcd13ifvqcv0","pricing_plan_id":"cebpf4jnsgd1na2vs0mg"},{"bike_id":"fd716de9-7ee1-457e-a7e7-fe85d8622a5b","system_id":"levelo_inurba_marseille","lat":43.28265,"lon":5.35067,"is_reserved":false,"is_disabled":false,"rental_uris":{"android":"levelo://app?vid=fd716de9-7ee1-457e-a7e7-fe85d8622a5b","ios":"levelo://app?vid=fd716de9-7ee1-457e-a7e7-fe85d8622a5b"},"vehicle_type_id":"4","last_reported":1745935820,"current_range_meters":22800,"station_id":"ce4bhbp2rcd13ifvqerg","pricing_plan_id":"cebpf4jnsgd1na2vs0mg"},{"bike_id":"27231c7f-363e-4e1b-adea-1951e751bc86","system_id":"levelo_inurba_marseille","lat":43.25018,"lon":5.38935,"is_reserved":false,"is_disabled":false,"rental_uris":{"android":"levelo://app?vid=27231c7f-363e-4e1b-adea-1951e751bc86","ios":"levelo://app?vid=27231c7f-363e-4e1b-adea-1951e751bc86"},"vehicle_type_id":"4","last_reported":1745935820,"current_range_meters":22800,"station_id":"ce4bhgp2rcd13ifvqfd0","pricing_plan_id":"cebpf4jnsgd1na2vs0mg"},{"bike_id":"26e3d542-a9ea-4373-8c07-54f12db05232","system_id":"levelo_inurba_marseille","lat":43.25069,"lon":5.39525,"is_reserved":false,"is_disabled":false,"rental_uris":{"android":"levelo://app?vid=26e3d542-a9ea-4373-8c07-54f12db05232","ios":"levelo://app?vid=26e3d542-a9ea-4373-8c07-54f12db05232"},"vehicle_type_id":"4","last_reported":1745935820,"current_range_meters":22800,"station_id":"ce4bhm12rcd13ifvqgkg","pricing_plan_id":"cebpf4jnsgd1na2vs0mg"},{"bike_id":"499c6d04-4f20-43c4-9ff2-3f4af15e0b40","system_id":"levelo_inurba_marseille","lat":43.341455,"lon":5.40897,"is_reserved":false,"is_disabled":false,"rental_uris":{"android":"levelo://app?vid=499c6d04-4f20-43c4-9ff2-3f4af15e0b40","ios":"levelo://app?vid=499c6d04-4f20-43c4-9ff2-3f4af15e0b40"},"vehicle_type_id":"4","last_reported":1745935820,"current_range_meters":22800,"station_id":"ce4bhqh2rcd13ifvqhlg","pricing_plan_id":"cebpf4jnsgd1na2vs0mg"},{"bike_id":"83f8b8a4-8078-4812-a805-adb02a1a7de6","system_id":"levelo_inurba_marseille","lat":43.32479,"lon":5.36562,"is_reserved":false,"is_disabled":false,"rental_uris":{"android":"levelo://app?vid=83f8b8a4-8078-4812-a805-adb02a1a7de6","ios":"levelo://app?vid=83f8b8a4-8078-4812-a805-adb02a1a7de6"},"vehicle_type_id":"4","last_reported":1745935820,"current_range_meters":22800,"station_id":"ce4bhs12rcd13ifvqhvg","pricing_plan_id":"cebpf4jnsgd1na2vs0mg"},{"bike_id":"4bf6b69b-e08a-490c-9b07-d13072b37d89","system_id":"levelo_inurba_marseille","lat":43.24167,"lon":5.36411,"is_reserved":false,"is_disabled":false,"rental_uris":{"android":"levelo://app?vid=4bf6b69b-e08a-490c-9b07-d13072b37d89","ios":"levelo://app?vid=4bf6b69b-e08a-490c-9b07-d13072b37d89"},"vehicle_type_id":"4","last_reported":1745935820,"current_range_meters":22800,"station_id":"cpo36qri1sfpv3e86is0","pricing_plan_id":"cebpf4jnsgd1na2vs0mg"},{"bike_id":"759eb48b-b951-4aaf-a183-5392024d1245","system_id":"levelo_inurba_marseille","lat":43.27613,"lon":5.36109,"is_reserved":false,"is_disabled":false,"rental_uris":{"android":"levelo://app?vid=759eb48b-b951-4aaf-a183-5392024d1245","ios":"levelo://app?vid=759eb48b-b951-4aaf-a183-5392024d1245"},"vehicle_type_id":"4","last_reported":1745935820,"current_range_meters":23200,"station_id":"ce4bgj92rcd13ifvqbe0","pricing_plan_id":"cebpf4jnsgd1na2vs0mg"},{"bike_id":"e6860fce-1be5-436a-b057-30cee069413c","system_id":"levelo_inurba_marseille","lat":43.2963,"lon":5.40595,"is_reserved":false,"is_disabled":false,"rental_uris":{"android":"levelo://app?vid=e6860fce-1be5-436a-b057-30cee069413c","ios":"levelo://app?vid=e6860fce-1be5-436a-b057-30cee069413c"},"vehicle_type_id":"4","last_reported":1745935820,"current_range_meters":23200,"station_id":"ce4bh0h2rcd13ifvqd60","pricing_plan_id":"cebpf4jnsgd1na2vs0mg"},{"bike_id":"2f417bf1-7a41-4556-9744-dcfdb7e46877","system_id":"levelo_inurba_marseille","lat":43.27381,"lon":5.3624,"is_reserved":false,"is_disabled":false,"rental_uris":{"android":"levelo://app?vid=2f417bf1-7a41-4556-9744-dcfdb7e46877","ios":"levelo://app?vid=2f417bf1-7a41-4556-9744-dcfdb7e46877"},"vehicle_type_id":"4","last_reported":1745935820,"current_range_meters":23200,"station_id":"ce4bhbh2rcd13ifvqeo0","pricing_plan_id":"cebpf4jnsgd1na2vs0mg"},{"bike_id":"c33eb9f3-dff4-4285-aed8-8085b9868846","system_id":"levelo_inurba_marseille","lat":43.28409,"lon":5.349825,"is_reserved":false,"is_disabled":false,"rental_uris":{"android":"levelo://app?vid=c33eb9f3-dff4-4285-aed8-8085b9868846","ios":"levelo://app?vid=c33eb9f3-dff4-4285-aed8-8085b9868846"},"vehicle_type_id":"4","last_reported":1745935820,"current_range_meters":23200,"station_id":"ce4bhbh2rcd13ifvqepg","pricing_plan_id":"cebpf4jnsgd1na2vs0mg"},