{"last_updated":1777228585,"ttl":60,"version":"2.2","data":{"bikes":[{"bike_id":"92b54f15-9f6e-4452-bb2f-8338f0748952","system_id":"levelo_inurba_marseille","lat":43.30946,"lon":5.39039,"is_reserved":false,"is_disabled":false,"rental_uris":{"android":"levelo://app?vid=92b54f15-9f6e-4452-bb2f-8338f0748952","ios":"levelo://app?vid=92b54f15-9f6e-4452-bb2f-8338f0748952"},"vehicle_type_id":"4","last_reported":1777228586,"current_range_meters":2800,"station_id":"ce4bgup2rcd13ifvqco0","pricing_plan_id":"cebpf4jnsgd1na2vs0mg"},{"bike_id":"e069709a-2258-4c30-8190-5151f1692784","system_id":"levelo_inurba_marseille","lat":43.27335,"lon":5.39069,"is_reserved":false,"is_disabled":false,"rental_uris":{"android":"levelo://app?vid=e069709a-2258-4c30-8190-5151f1692784","ios":"levelo://app?vid=e069709a-2258-4c30-8190-5151f1692784"},"vehicle_type_id":"4","last_reported":1777228586,"current_range_meters":2800,"station_id":"ce4bhgp2rcd13ifvqfe0","pricing_plan_id":"cebpf4jnsgd1na2vs0mg"},{"bike_id":"d98e803b-63ff-4aed-8550-0d90ae1d9ab9","system_id":"levelo_inurba_marseille","lat":43.23966,"lon":5.36623,"is_reserved":false,"is_disabled":false,"rental_uris":{"android":"levelo://app?vid=d98e803b-63ff-4aed-8550-0d90ae1d9ab9","ios":"levelo://app?vid=d98e803b-63ff-4aed-8550-0d90ae1d9ab9"},"vehicle_type_id":"4","last_reported":1777228586,"current_range_meters":2800,"station_id":"ce4bhi12rcd13ifvqfp0","pricing_plan_id":"cebpf4jnsgd1na2vs0mg"},{"bike_id":"799d5333-0521-44f5-a2b7-6b74a3c6ddbc","system_id":"levelo_inurba_marseille","lat":43.26861,"lon":5.40258,"is_reserved":false,"is_disabled":false,"rental_uris":{"android":"levelo://app?vid=799d5333-0521-44f5-a2b7-6b74a3c6ddbc","ios":"levelo://app?vid=799d5333-0521-44f5-a2b7-6b74a3c6ddbc"},"vehicle_type_id":"4","last_reported":1777228586,"current_range_meters":2800,"station_id":"","pricing_plan_id":"cebpf4jnsgd1na2vs0mg"},{"bike_id":"9c81f767-6673-4594-8497-57ea4c55879f","system_id":"levelo_inurba_marseille","lat":43.31034,"lon":5.37136,"is_reserved":false,"is_disabled":false,"rental_uris":{"android":"levelo://app?vid=9c81f767-6673-4594-8497-57ea4c55879f","ios":"levelo://app?vid=9c81f767-6673-4594-8497-57ea4c55879f"},"vehicle_type_id":"4","last_reported":1777228586,"current_range_meters":2800,"station_id":"st_d4kl2rp97mjs73e7tdfg","pricing_plan_id":"cebpf4jnsgd1na2vs0mg"},{"bike_id":"2cf24fbf-c3e0-425a-91b5-21f2d9a5b934","system_id":"levelo_inurba_marseille","lat":43.30091,"lon":5.4009,"is_reserved":false,"is_disabled":false,"rental_uris":{"android":"levelo://app?vid=2cf24fbf-c3e0-425a-91b5-21f2d9a5b934","ios":"levelo://app?vid=2cf24fbf-c3e0-425a-91b5-21f2d9a5b934"},"vehicle_type_id":"4","last_reported":1777228586,"current_range_meters":2800,"station_id":"","pricing_plan_id":"cebpf4jnsgd1na2vs0mg"},{"bike_id":"2004158d-75b9-46bc-9c05-2b4a99b2eac0","system_id":"levelo_inurba_marseille","lat":43.27209,"lon":5.39177,"is_reserved":false,"is_disabled":false,"rental_uris":{"android":"levelo://app?vid=2004158d-75b9-46bc-9c05-2b4a99b2eac0","ios":"levelo://app?vid=2004158d-75b9-46bc-9c05-2b4a99b2eac0"},"vehicle_type_id":"4","last_reported":1777228586,"current_range_meters":2800,"station_id":"ce4bhhp2rcd13ifvqfm0","pricing_plan_id":"cebpf4jnsgd1na2vs0mg"},{"bike_id":"40d69b45-a292-4d7d-b8e6-837b8b5a9d0c","system_id":"levelo_inurba_marseille","lat":43.28472,"lon":5.48379,"is_reserved":false,"is_disabled":false,"rental_uris":{"android":"levelo://app?vid=40d69b45-a292-4d7d-b8e6-837b8b5a9d0c","ios":"levelo://app?vid=40d69b45-a292-4d7d-b8e6-837b8b5a9d0c"},"vehicle_type_id":"4","last_reported":1777228586,"current_range_meters":2800,"station_id":"","pricing_plan_id":"cebpf4jnsgd1na2vs0mg"},{"bike_id":"a0be2e2c-8c5b-496c-bda4-de7791af22a6","system_id":"levelo_inurba_marseille","lat":43.27842,"lon":5.39187,"is_reserved":false,"is_disabled":true,"rental_uris":{"android":"levelo://app?vid=a0be2e2c-8c5b-496c-bda4-de7791af22a6","ios":"levelo://app?vid=a0be2e2c-8c5b-496c-bda4-de7791af22a6"},"vehicle_type_id":"4","last_reported":1777228586,"current_range_meters":2800,"station_id":"ce4bhjp2rcd13ifvqga0","pricing_plan_id":"cebpf4jnsgd1na2vs0mg"},{"bike_id":"541dbded-315f-4ca8-ac49-47fcb4294bb7","system_id":"levelo_inurba_marseille","lat":43.3389,"lon":5.37263,"is_reserved":false,"is_disabled":false,"rental_uris":{"android":"levelo://app?vid=541dbded-315f-4ca8-ac49-47fcb4294bb7","ios":"levelo://app?vid=541dbded-315f-4ca8-ac49-47fcb4294bb7"},"vehicle_type_id":"4","last_reported":1777228586,"current_range_meters":2800,"station_id":"st_d46tts09ee8s73dlu43g","pricing_plan_id":"cebpf4jnsgd1na2vs0mg"},{"bike_id":"d69ab212-ffb8-4a8b-90ee-17b557a02c96","system_id":"levelo_inurba_marseille","lat":43.29049,"lon":5.3717,"is_reserved":false,"is_disabled":false,"rental_uris":{"android":"levelo://app?vid=d69ab212-ffb8-4a8b-90ee-17b557a02c96","ios":"levelo://app?vid=d69ab212-ffb8-4a8b-90ee-17b557a02c96"},"vehicle_type_id":"4","last_reported":1777228586,"current_range_meters":2800,"station_id":"ce4bh5p2rcd13ifvqe4g","pricing_plan_id":"cebpf4jnsgd1na2vs0mg"},{"bike_id":"f0c14ca6-bc8c-44bb-81be-4bc5e4d56571","system_id":"levelo_inurba_marseille","lat":43.28606,"lon":5.37053,"is_reserved":false,"is_disabled":false,"rental_uris":{"android":"levelo://app?vid=f0c14ca6-bc8c-44bb-81be-4bc5e4d56571","ios":"levelo://app?vid=f0c14ca6-bc8c-44bb-81be-4bc5e4d56571"},"vehicle_type_id":"4","last_reported":1777228586,"current_range_meters":2800,"station_id":"ce4bht12rcd13ifvqi60","pricing_plan_id":"cebpf4jnsgd1na2vs0mg"},{"bike_id":"aea4f500-1de8-4e2b-a3cd-ed18d88ec802","system_id":"levelo_inurba_marseille","lat":43.27547,"lon":5.38428,"is_reserved":false,"is_disabled":false,"rental_uris":{"android":"levelo://app?vid=aea4f500-1de8-4e2b-a3cd-ed18d88ec802","ios":"levelo://app?vid=aea4f500-1de8-4e2b-a3cd-ed18d88ec802"},"vehicle_type_id":"4","last_reported":1777228586,"current_range_meters":3200,"station_id":"ce4bhh92rcd13ifvqfi0","pricing_plan_id":"cebpf4jnsgd1na2vs0mg"},{"bike_id":"e1bbc46b-f875-4685-b5a6-d8629b9dc52c","system_id":"levelo_inurba_marseille","lat":43.24387,"lon":5.37059,"is_reserved":false,"is_disabled":false,"rental_uris":{"android":"levelo://app?vid=e1bbc46b-f875-4685-b5a6-d8629b9dc52c","ios":"levelo://app?vid=e1bbc46b-f875-4685-b5a6-d8629b9dc52c"},"vehicle_type_id":"4","last_reported":1777228586,"current_range_meters":3200,"station_id":"ce4bhhh2rcd13ifvqfk0","pricing_plan_id":"cebpf4jnsgd1na2vs0mg"},{"bike_id":"a43ddb26-553e-441f-85e0-4f5ef02c396f","system_id":"levelo_inurba_marseille","lat":43.27307,"lon":5.39135,"is_reserved":false,"is_disabled":false,"rental_uris":{"android":"levelo://app?vid=a43ddb26-553e-441f-85e0-4f5ef02c396f","ios":"levelo://app?vid=a43ddb26-553e-441f-85e0-4f5ef02c396f"},"vehicle_type_id":"4","last_reported":1777228586,"current_range_meters":3200,"station_id":"","pricing_plan_id":"cebpf4jnsgd1na2vs0mg"},{"bike_id":"2b51c914-b2ad-45b3-bcc5-ffa6e3c39426","system_id":"levelo_inurba_marseille","lat":43.2606,"lon":5.39407,"is_reserved":false,"is_disabled":false,"rental_uris":{"android":"levelo://app?vid=2b51c914-b2ad-45b3-bcc5-ffa6e3c39426","ios":"levelo://app?vid=2b51c914-b2ad-45b3-bcc5-ffa6e3c39426"},"vehicle_type_id":"4","last_reported":1777228586,"current_range_meters":3200,"station_id":"ce4bhh92rcd13ifvqfj0","pricing_plan_id":"cebpf4jnsgd1na2vs0mg"},{"bike_id":"17fe3f56-b486-40dd-ac6a-710ede14c97d","system_id":"levelo_inurba_marseille","lat":43.314869,"lon":5.373029,"is_reserved":false,"is_disabled":false,"rental_uris":{"android":"levelo://app?vid=17fe3f56-b486-40dd-ac6a-710ede14c97d","ios":"levelo://app?vid=17fe3f56-b486-40dd-ac6a-710ede14c97d"},"vehicle_type_id":"4","last_reported":1777228586,"current_range_meters":3200,"station_id":"","pricing_plan_id":"cebpf4jnsgd1na2vs0mg"},{"bike_id":"5e40c06c-0e69-4db2-93d9-80490828d2b2","system_id":"levelo_inurba_marseille","lat":43.26488,"lon":5.39565,"is_reserved":false,"is_disabled":false,"rental_uris":{"android":"levelo://app?vid=5e40c06c-0e69-4db2-93d9-80490828d2b2","ios":"levelo://app?vid=5e40c06c-0e69-4db2-93d9-80490828d2b2"},"vehicle_type_id":"4","last_reported":1777228586,"current_range_meters":3200,"station_id":"ce4bhi12rcd13ifvqfq0","pricing_plan_id":"cebpf4jnsgd1na2vs0mg"},{"bike_id":"43d3cf1b-5036-4627-96c8-389834bd0a15","system_id":"levelo_inurba_marseille","lat":43.24633,"lon":5.388789,"is_reserved":false,"is_disabled":false,"rental_uris":{"android":"levelo://app?vid=43d3cf1b-5036-4627-96c8-389834bd0a15","ios":"levelo://app?vid=43d3cf1b-5036-4627-96c8-389834bd0a15"},"vehicle_type_id":"4","last_reported":1777228586,"current_range_meters":3200,"station_id":"ce4bhg12rcd13ifvqf60","pricing_plan_id":"cebpf4jnsgd1na2vs0mg"},{"bike_id":"90fac789-06e9-4c33-94b9-e82543e03c21","system_id":"levelo_inurba_marseille","lat":43.22572,"lon":5.41622,"is_reserved":false,"is_disabled":true,"rental_uris":{"android":"levelo://app?vid=90fac789-06e9-4c33-94b9-e82543e03c21","ios":"levelo://app?vid=90fac789-06e9-4c33-94b9-e82543e03c21"},"vehicle_type_id":"4","last_reported":1777228586,"current_range_meters":3200,"station_id":"st_d2o4gvlbi1j2169b742g","pricing_plan_id":"cebpf4jnsgd1na2vs0mg"},{"bike_id":"bad48dc1-4db0-4546-97aa-7fd93fa46591","system_id":"levelo_inurba_marseille","lat":43.299124,"lon":5.381511,"is_reserved":false,"is_disabled":false,"rental_uris":{"android":"levelo://app?vid=bad48dc1-4db0-4546-97aa-7fd93fa46591","ios":"levelo://app?vid=bad48dc1-4db0-4546-97aa-7fd93fa46591"},"vehicle_type_id":"4","last_reported":1777228586,"current_range_meters":3200,"station_id":"ce4bgj12rcd13ifvqbc0","pricing_plan_id":"cebpf4jnsgd1na2vs0mg"},{"bike_id":"899778b6-8798-4236-be5d-8afb8505853a","system_id":"levelo_inurba_marseille","lat":43.21747,"lon":5.34602,"is_reserved":false,"is_disabled":false,"rental_uris":{"android":"levelo://app?vid=899778b6-8798-4236-be5d-8afb8505853a","ios":"levelo://app?vid=899778b6-8798-4236-be5d-8afb8505853a"},"vehicle_type_id":"4","last_reported":1777228586,"current_range_meters":3200,"station_id":"st_cvj6r9ubvosntc0bgbag","pricing_plan_id":"cebpf4jnsgd1na2vs0mg"},{"bike_id":"0cd2fd7c-6402-466e-aa1b-fa186d7a7ed3","system_id":"levelo_inurba_marseille","lat":43.33194,"lon":5.37792,"is_reserved":false,"is_disabled":false,"rental_uris":{"android":"levelo://app?vid=0cd2fd7c-6402-466e-aa1b-fa186d7a7ed3","ios":"levelo://app?vid=0cd2fd7c-6402-466e-aa1b-fa186d7a7ed3"},"vehicle_type_id":"4","last_reported":1777228586,"current_range_meters":3600,"station_id":"","pricing_plan_id":"cebpf4jnsgd1na2vs0mg"},{"bike_id":"2140ad40-7ff7-4a13-b855-1703f91f35eb","system_id":"levelo_inurba_marseille","lat":43.26192,"lon":5.37462,"is_reserved":false,"is_disabled":false,"rental_uris":{"android":"levelo://app?vid=2140ad40-7ff7-4a13-b855-1703f91f35eb","ios":"levelo://app?vid=2140ad40-7ff7-4a13-b855-1703f91f35eb"},"vehicle_type_id":"4","last_reported":1777228586,"current_range_meters":3600,"station_id":"ce4bhgp2rcd13ifvqfc0","pricing_plan_id":"cebpf4jnsgd1na2vs0mg"},{"bike_id":"afba83de-cb7e-4bef-be8c-cd4a644bfbc2","system_id":"levelo_inurba_marseille","lat":43.27637,"lon":5.38924,"is_reserved":false,"is_disabled":false,"rental_uris":{"android":"levelo://app?vid=afba83de-cb7e-4bef-be8c-cd4a644bfbc2","ios":"levelo://app?vid=afba83de-cb7e-4bef-be8c-cd4a644bfbc2"},"vehicle_type_id":"4","last_reported":1777228586,"current_range_meters":3600,"station_id":"","pricing_plan_id":"cebpf4jnsgd1na2vs0mg"},{"bike_id":"a03ce919-3949-4c06-bbb8-c0f13ba943b2","system_id":"levelo_inurba_marseille","lat":43.25519,"lon":5.3766,"is_reserved":false,"is_disabled":true,"rental_uris":{"android":"levelo://app?vid=a03ce919-3949-4c06-bbb8-c0f13ba943b2","ios":"levelo://app?vid=a03ce919-3949-4c06-bbb8-c0f13ba943b2"},"vehicle_type_id":"4","last_reported":1777228586,"current_range_meters":3600,"station_id":"ce4bhh12rcd13ifvqff0","pricing_plan_id":"cebpf4jnsgd1na2vs0mg"},{"bike_id":"bd950070-fb00-4c4e-acc7-8f790364ae81","system_id":"levelo_inurba_marseille","lat":43.31046,"lon":5.37166,"is_reserved":false,"is_disabled":false,"rental_uris":{"android":"levelo://app?vid=bd950070-fb00-4c4e-acc7-8f790364ae81","ios":"levelo://app?vid=bd950070-fb00-4c4e-acc7-8f790364ae81"},"vehicle_type_id":"4","last_reported":1777228586,"current_range_meters":3600,"station_id":"st_d4kl2rp97mjs73e7tdfg","pricing_plan_id":"cebpf4jnsgd1na2vs0mg"},{"bike_id":"fc0df99b-79b3-4e4f-99b2-9389c3239b54","system_id":"levelo_inurba_marseille","lat":43.25578,"lon":5.38228,"is_reserved":false,"is_disabled":false,"rental_uris":{"android":"levelo://app?vid=fc0df99b-79b3-4e4f-99b2-9389c3239b54","ios":"levelo://app?vid=fc0df99b-79b3-4e4f-99b2-9389c3239b54"},"vehicle_type_id":"4","last_reported":1777228586,"current_range_meters":3600,"station_id":"ce4bhih2rcd13ifvqfs0","pricing_plan_id":"cebpf4jnsgd1na2vs0mg"},{"bike_id":"95a1d25f-99b4-4049-b383-981e3658f451","system_id":"levelo_inurba_marseille","lat":43.28931,"lon":5.36673,"is_reserved":false,"is_disabled":false,"rental_uris":{"android":"levelo://app?vid=95a1d25f-99b4-4049-b383-981e3658f451","ios":"levelo://app?vid=95a1d25f-99b4-4049-b383-981e3658f451"},"vehicle_type_id":"4","last_reported":1777228586,"current_range_meters":3600,"station_id":"ce4bhap2rcd13ifvqek0","pricing_plan_id":"cebpf4jnsgd1na2vs0mg"},{"bike_id":"f631aef1-a3ba-462f-9e39-12c533e2b397","system_id":"levelo_inurba_marseille","lat":43.30874,"lon":5.37192,"is_reserved":false,"is_disabled":false,"rental_uris":{"android":"levelo://app?vid=f631aef1-a3ba-462f-9e39-12c533e2b397","ios":"levelo://app?vid=f631aef1-a3ba-462f-9e39-12c533e2b397"},"vehicle_type_id":"4","last_reported":1777228586,"current_range_meters":3600,"station_id":"ce4bguh2rcd13ifvqckg","pricing_plan_id":"cebpf4jnsgd1na2vs0mg"},{"bike_id":"99673b6e-e48f-4312-8947-fbe3461f0a80","system_id":"levelo_inurba_marseille","lat":43.27807,"lon":5.39211,"is_reserved":false,"is_disabled":false,"rental_uris":{"android":"levelo://app?vid=99673b6e-e48f-4312-8947-fbe3461f0a80","ios":"levelo://app?vid=99673b6e-e48f-4312-8947-fbe3461f0a80"},"vehicle_type_id":"4","last_reported":1777228586,"current_range_meters":3600,"station_id":"ce4bhjp2rcd13ifvqga0","pricing_plan_id":"cebpf4jnsgd1na2vs0mg"},{"bike_id":"c0661da5-a714-44ad-9f95-64c0be7aaf64","system_id":"levelo_inurba_marseille","lat":43.27971,"lon":5.41036,"is_reserved":false,"is_disabled":false,"rental_uris":{"android":"levelo://app?vid=c0661da5-a714-44ad-9f95-64c0be7aaf64","ios":"levelo://app?vid=c0661da5-a714-44ad-9f95-64c0be7aaf64"},"vehicle_type_id":"4","last_reported":1777228586,"current_range_meters":3600,"station_id":"ce4bhnp2rcd13ifvqh0g","pricing_plan_id":"cebpf4jnsgd1na2vs0mg"},{"bike_id":"0f126928-5121-4469-a9c9-6740d8de1e82","system_id":"levelo_inurba_marseille","lat":43.24417,"lon":5.37432,"is_reserved":false,"is_disabled":false,"rental_uris":{"android":"levelo://app?vid=0f126928-5121-4469-a9c9-6740d8de1e82","ios":"levelo://app?vid=0f126928-5121-4469-a9c9-6740d8de1e82"},"vehicle_type_id":"4","last_reported":1777228586,"current_range_meters":3600,"station_id":"","pricing_plan_id":"cebpf4jnsgd1na2vs0mg"},{"bike_id":"43e51afa-0171-4a80-a007-f3bf7402b3e5","system_id":"levelo_inurba_marseille","lat":43.31682,"lon":5.40465,"is_reserved":false,"is_disabled":false,"rental_uris":{"android":"levelo://app?vid=43e51afa-0171-4a80-a007-f3bf7402b3e5","ios":"levelo://app?vid=43e51afa-0171-4a80-a007-f3bf7402b3e5"},"vehicle_type_id":"4","last_reported":1777228586,"current_range_meters":3600,"station_id":"ce4bh012rcd13ifvqd00","pricing_plan_id":"cebpf4jnsgd1na2vs0mg"},{"bike_id":"2c303326-965e-48a3-9bb1-84880257c2ef","system_id":"levelo_inurba_marseille","lat":43.28349,"lon":5.38112,"is_reserved":false,"is_disabled":false,"rental_uris":{"android":"levelo://app?vid=2c303326-965e-48a3-9bb1-84880257c2ef","ios":"levelo://app?vid=2c303326-965e-48a3-9bb1-84880257c2ef"},"vehicle_type_id":"4","last_reported":1777228586,"current_range_meters":3600,"station_id":"ce4bh412rcd13ifvqdr0","pricing_plan_id":"cebpf4jnsgd1na2vs0mg"},{"bike_id":"a1fa8530-65b9-4008-96f3-a6831b1af9e3","system_id":"levelo_inurba_marseille","lat":43.33535,"lon":5.37448,"is_reserved":false,"is_disabled":true,"rental_uris":{"android":"levelo://app?vid=a1fa8530-65b9-4008-96f3-a6831b1af9e3","ios":"levelo://app?vid=a1fa8530-65b9-4008-96f3-a6831b1af9e3"},"vehicle_type_id":"4","last_reported":1777228586,"current_range_meters":3600,"station_id":"st_d46tts09ee8s73dlu43g","pricing_plan_id":"cebpf4jnsgd1na2vs0mg"},{"bike_id":"ce7e4456-60f9-4d36-b2d2-6d31e5606560","system_id":"levelo_inurba_marseille","lat":43.27803,"lon":5.40735,"is_reserved":false,"is_disabled":false,"rental_uris":{"android":"levelo://app?vid=ce7e4456-60f9-4d36-b2d2-6d31e5606560","ios":"levelo://app?vid=ce7e4456-60f9-4d36-b2d2-6d31e5606560"},"vehicle_type_id":"4","last_reported":1777228586,"current_range_meters":3600,"station_id":"ce4bhnh2rcd13ifvqgtg","pricing_plan_id":"cebpf4jnsgd1na2vs0mg"},{"bike_id":"413e4623-e4a6-44c0-8fe0-f06c3e224af8","system_id":"levelo_inurba_marseille","lat":43.31892,"lon":5.36804,"is_reserved":false,"is_disabled":false,"rental_uris":{"android":"levelo://app?vid=413e4623-e4a6-44c0-8fe0-f06c3e224af8","ios":"levelo://app?vid=413e4623-e4a6-44c0-8fe0-f06c3e224af8"},"vehicle_type_id":"4","last_reported":1777228586,"current_range_meters":4000,"station_id":"st_d6o2h0d0559c73evc1b0","pricing_plan_id":"cebpf4jnsgd1na2vs0mg"},{"bike_id":"649230d9-f10f-44f4-bd82-c81a4b7f9801","system_id":"levelo_inurba_marseille","lat":43.27439,"lon":5.39406,"is_reserved":false,"is_disabled":false,"rental_uris":{"android":"levelo://app?vid=649230d9-f10f-44f4-bd82-c81a4b7f9801","ios":"levelo://app?vid=649230d9-f10f-44f4-bd82-c81a4b7f9801"},"vehicle_type_id":"4","last_reported":1777228586,"current_range_meters":4000,"station_id":"ce4bhdp2rcd13ifvqf20","pricing_plan_id":"cebpf4jnsgd1na2vs0mg"},{"bike_id":"c0126e79-e455-4033-aa6f-9cd2537e8b04","system_id":"levelo_inurba_marseille","lat":43.28695,"lon":5.46693,"is_reserved":false,"is_disabled":false,"rental_uris":{"android":"levelo://app?vid=c0126e79-e455-4033-aa6f-9cd2537e8b04","ios":"levelo://app?vid=c0126e79-e455-4033-aa6f-9cd2537e8b04"},"vehicle_type_id":"4","last_reported":1777228586,"current_range_meters":4000,"station_id":"st_d6tc3vkotcvc738tfjhg","pricing_plan_id":"cebpf4jnsgd1na2vs0mg"},{"bike_id":"e7760414-c99e-4edb-8d77-254918982c51","system_id":"levelo_inurba_marseille","lat":43.280813,"lon":5.396654,"is_reserved":false,"is_disabled":false,"rental_uris":{"android":"levelo://app?vid=e7760414-c99e-4edb-8d77-254918982c51","ios":"levelo://app?vid=e7760414-c99e-4edb-8d77-254918982c51"},"vehicle_type_id":"4","last_reported":1777228586,"current_range_meters":4000,"station_id":"ce4bho12rcd13ifvqh2g","pricing_plan_id":"cebpf4jnsgd1na2vs0mg"},{"bike_id":"ace34436-51fe-4536-a1f6-cfa009f56977","system_id":"levelo_inurba_marseille","lat":43.33545,"lon":5.37463,"is_reserved":false,"is_disabled":false,"rental_uris":{"android":"levelo://app?vid=ace34436-51fe-4536-a1f6-cfa009f56977","ios":"levelo://app?vid=ace34436-51fe-4536-a1f6-cfa009f56977"},"vehicle_type_id":"4","last_reported":1777228586,"current_range_meters":4000,"station_id":"st_d46tts09ee8s73dlu43g","pricing_plan_id":"cebpf4jnsgd1na2vs0mg"},{"bike_id":"e9caee44-b787-4c36-a632-4bd6c1ec7cfa","system_id":"levelo_inurba_marseille","lat":43.28498,"lon":5.48424,"is_reserved":false,"is_disabled":false,"rental_uris":{"android":"levelo://app?vid=e9caee44-b787-4c36-a632-4bd6c1ec7cfa","ios":"levelo://app?vid=e9caee44-b787-4c36-a632-4bd6c1ec7cfa"},"vehicle_type_id":"4","last_reported":1777228586,"current_range_meters":4000,"station_id":"st_d3svhcjqgbts73a3dn0g","pricing_plan_id":"cebpf4jnsgd1na2vs0mg"},{"bike_id":"b465b832-41ca-4c8a-b678-132228b145ba","system_id":"levelo_inurba_marseille","lat":43.30423,"lon":5.39736,"is_reserved":false,"is_disabled":true,"rental_uris":{"android":"levelo://app?vid=b465b832-41ca-4c8a-b678-132228b145ba","ios":"levelo://app?vid=b465b832-41ca-4c8a-b678-132228b145ba"},"vehicle_type_id":"4","last_reported":1777228586,"current_range_meters":4000,"station_id":"ce4bh092rcd13ifvqd20","pricing_plan_id":"cebpf4jnsgd1na2vs0mg"},{"bike_id":"e79bde01-2f2e-4687-9114-2908a926683e","system_id":"levelo_inurba_marseille","lat":43.33546,"lon":5.37463,"is_reserved":false,"is_disabled":false,"rental_uris":{"android":"levelo://app?vid=e79bde01-2f2e-4687-9114-2908a926683e","ios":"levelo://app?vid=e79bde01-2f2e-4687-9114-2908a926683e"},"vehicle_type_id":"4","last_reported":1777228586,"current_range_meters":4000,"station_id":"st_d46tts09ee8s73dlu43g","pricing_plan_id":"cebpf4jnsgd1na2vs0mg"},{"bike_id":"870e0d9e-4850-46bf-826b-bb575c104c95","system_id":"levelo_inurba_marseille","lat":43.24632,"lon":5.43154,"is_reserved":false,"is_disabled":false,"rental_uris":{"android":"levelo://app?vid=870e0d9e-4850-46bf-826b-bb575c104c95","ios":"levelo://app?vid=870e0d9e-4850-46bf-826b-bb575c104c95"},"vehicle_type_id":"4","last_reported":1777228586,"current_range_meters":4000,"station_id":"st_d2m6c4gdas8pm72e190g","pricing_plan_id":"cebpf4jnsgd1na2vs0mg"},{"bike_id":"ac823e26-a77b-4f17-90e8-d57793a94717","system_id":"levelo_inurba_marseille","lat":43.29275,"lon":5.38434,"is_reserved":false,"is_disabled":false,"rental_uris":{"android":"levelo://app?vid=ac823e26-a77b-4f17-90e8-d57793a94717","ios":"levelo://app?vid=ac823e26-a77b-4f17-90e8-d57793a94717"},"vehicle_type_id":"4","last_reported":1777228586,"current_range_meters":4000,"station_id":"ce4bh692rcd13ifvqea0","pricing_plan_id":"cebpf4jnsgd1na2vs0mg"},{"bike_id":"1da2baca-f032-434b-b126-e868f0eb633f","system_id":"levelo_inurba_marseille","lat":43.30136,"lon":5.39864,"is_reserved":false,"is_disabled":false,"rental_uris":{"android":"levelo://app?vid=1da2baca-f032-434b-b126-e868f0eb633f","ios":"levelo://app?vid=1da2baca-f032-434b-b126-e868f0eb633f"},"vehicle_type_id":"4","last_reported":1777228586,"current_range_meters":4000,"station_id":"ce4bh0h2rcd13ifvqd40","pricing_plan_id":"cebpf4jnsgd1na2vs0mg"},{"bike_id":"05a33fd5-e436-4ad0-a907-865e546c41d5","system_id":"levelo_inurba_marseille","lat":43.22554,"lon":5.41613,"is_reserved":false,"is_disabled":true,"rental_uris":{"android":"levelo://app?vid=05a33fd5-e436-4ad0-a907-865e546c41d5","ios":"levelo://app?vid=05a33fd5-e436-4ad0-a907-865e546c41d5"},"vehicle_type_id":"4","last_reported":1777228586,"current_range_meters":4000,"station_id":"","pricing_plan_id":"cebpf4jnsgd1na2vs0mg"},{"bike_id":"14f18819-5f8e-493d-8122-9d96b019cf5b","system_id":"levelo_inurba_marseille","lat":43.31345,"lon":5.41614,"is_reserved":false,"is_disabled":false,"rental_uris":{"android":"levelo://app?vid=14f18819-5f8e-493d-8122-9d96b019cf5b","ios":"levelo://app?vid=14f18819-5f8e-493d-8122-9d96b019cf5b"},"vehicle_type_id":"4","last_reported":1777228586,"current_range_meters":4000,"station_id":"","pricing_plan_id":"cebpf4jnsgd1na2vs0mg"},{"bike_id":"b93d307e-6b48-4c68-b2cb-b25f77149e82","system_id":"levelo_inurba_marseille","lat":43.28861,"lon":5.42517,"is_reserved":false,"is_disabled":false,"rental_uris":{"android":"levelo://app?vid=b93d307e-6b48-4c68-b2cb-b25f77149e82","ios":"levelo://app?vid=b93d307e-6b48-4c68-b2cb-b25f77149e82"},"vehicle_type_id":"4","last_reported":1777228586,"current_range_meters":4000,"station_id":"st_d3b462108ojc7389ooeg","pricing_plan_id":"cebpf4jnsgd1na2vs0mg"},{"bike_id":"6161ede7-aa25-46de-a043-cdaf0b87397b","system_id":"levelo_inurba_marseille","lat":43.28787,"lon":5.38597,"is_reserved":false,"is_disabled":false,"rental_uris":{"android":"levelo://app?vid=6161ede7-aa25-46de-a043-cdaf0b87397b","ios":"levelo://app?vid=6161ede7-aa25-46de-a043-cdaf0b87397b"},"vehicle_type_id":"4","last_reported":1777228586,"current_range_meters":4000,"station_id":"","pricing_plan_id":"cebpf4jnsgd1na2vs0mg"},{"bike_id":"3d1d5d11-fb4d-479a-83b1-44f2b7e88b31","system_id":"levelo_inurba_marseille","lat":43.28474,"lon":5.3841,"is_reserved":false,"is_disabled":false,"rental_uris":{"android":"levelo://app?vid=3d1d5d11-fb4d-479a-83b1-44f2b7e88b31","ios":"levelo://app?vid=3d1d5d11-fb4d-479a-83b1-44f2b7e88b31"},"vehicle_type_id":"4","last_reported":1777228586,"current_range_meters":4000,"station_id":"ce4bh512rcd13ifvqe3g","pricing_plan_id":"cebpf4jnsgd1na2vs0mg"},{"bike_id":"da3a7746-820e-4e1a-87de-50e2e8af7092","system_id":"levelo_inurba_marseille","lat":43.28594,"lon":5.37062,"is_reserved":false,"is_disabled":false,"rental_uris":{"android":"levelo://app?vid=da3a7746-820e-4e1a-87de-50e2e8af7092","ios":"levelo://app?vid=da3a7746-820e-4e1a-87de-50e2e8af7092"},"vehicle_type_id":"4","last_reported":1777228586,"current_range_meters":4000,"station_id":"ce4bht12rcd13ifvqi60","pricing_plan_id":"cebpf4jnsgd1na2vs0mg"},{"bike_id":"7e8df140-9d69-4bc7-8286-a5492415ebc3","system_id":"levelo_inurba_marseille","lat":43.31171,"lon":5.38704,"is_reserved":false,"is_disabled":false,"rental_uris":{"android":"levelo://app?vid=7e8df140-9d69-4bc7-8286-a5492415ebc3","ios":"levelo://app?vid=7e8df140-9d69-4bc7-8286-a5492415ebc3"},"vehicle_type_id":"4","last_reported":1777228586,"current_range_meters":4400,"station_id":"ce4bgv12rcd13ifvqcp0","pricing_plan_id":"cebpf4jnsgd1na2vs0mg"},{"bike_id":"5e6ba6f0-4cdc-4815-a6c1-aa6d5a98a3a5","system_id":"levelo_inurba_marseille","lat":43.29036,"lon":5.3864,"is_reserved":false,"is_disabled":false,"rental_uris":{"android":"levelo://app?vid=5e6ba6f0-4cdc-4815-a6c1-aa6d5a98a3a5","ios":"levelo://app?vid=5e6ba6f0-4cdc-4815-a6c1-aa6d5a98a3a5"},"vehicle_type_id":"4","last_reported":1777228586,"current_range_meters":4400,"station_id":"ce4bh4p2rcd13ifvqe0g","pricing_plan_id":"cebpf4jnsgd1na2vs0mg"},{"bike_id":"70578acc-b935-4f77-be23-bcde1db99b26","system_id":"levelo_inurba_marseille","lat":43.29794,"lon":5.38155,"is_reserved":false,"is_disabled":false,"rental_uris":{"android":"levelo://app?vid=70578acc-b935-4f77-be23-bcde1db99b26","ios":"levelo://app?vid=70578acc-b935-4f77-be23-bcde1db99b26"},"vehicle_type_id":"4","last_reported":1777228586,"current_range_meters":4400,"station_id":"ce4bgip2rcd13ifvqbb0","pricing_plan_id":"cebpf4jnsgd1na2vs0mg"},{"bike_id":"8a885835-e31d-408b-90f7-4ea42e668384","system_id":"levelo_inurba_marseille","lat":43.24808,"lon":5.37455,"is_reserved":false,"is_disabled":false,"rental_uris":{"android":"levelo://app?vid=8a885835-e31d-408b-90f7-4ea42e668384","ios":"levelo://app?vid=8a885835-e31d-408b-90f7-4ea42e668384"},"vehicle_type_id":"4","last_reported":1777228586,"current_range_meters":4400,"station_id":"ce4bhgh2rcd13ifvqfb0","pricing_plan_id":"cebpf4jnsgd1na2vs0mg"},{"bike_id":"fea5a28c-0167-4a62-9062-e629ed9b3e8f","system_id":"levelo_inurba_marseille","lat":43.2847,"lon":5.48398,"is_reserved":false,"is_disabled":false,"rental_uris":{"android":"levelo://app?vid=fea5a28c-0167-4a62-9062-e629ed9b3e8f","ios":"levelo://app?vid=fea5a28c-0167-4a62-9062-e629ed9b3e8f"},"vehicle_type_id":"4","last_reported":1777228586,"current_range_meters":4400,"station_id":"st_d3svhcjqgbts73a3dn0g","pricing_plan_id":"cebpf4jnsgd1na2vs0mg"},{"bike_id":"ed2c95d5-7a19-465f-bfc9-1b8379a50807","system_id":"levelo_inurba_marseille","lat":43.27055,"lon":5.40253,"is_reserved":false,"is_disabled":false,"rental_uris":{"android":"levelo://app?vid=ed2c95d5-7a19-465f-bfc9-1b8379a50807","ios":"levelo://app?vid=ed2c95d5-7a19-465f-bfc9-1b8379a50807"},"vehicle_type_id":"4","last_reported":1777228586,"current_range_meters":4400,"station_id":"ce4bhk92rcd13ifvqgc0","pricing_plan_id":"cebpf4jnsgd1na2vs0mg"},{"bike_id":"3a1dde76-eca1-4259-a733-fe668960caa8","system_id":"levelo_inurba_marseille","lat":43.24441,"lon":5.39086,"is_reserved":false,"is_disabled":false,"rental_uris":{"android":"levelo://app?vid=3a1dde76-eca1-4259-a733-fe668960caa8","ios":"levelo://app?vid=3a1dde76-eca1-4259-a733-fe668960caa8"},"vehicle_type_id":"4","last_reported":1777228586,"current_range_meters":4400,"station_id":"","pricing_plan_id":"cebpf4jnsgd1na2vs0mg"},{"bike_id":"64993a9f-8c1e-4ff5-9012-883f4090c8f0","system_id":"levelo_inurba_marseille","lat":43.264899,"lon":5.395455,"is_reserved":false,"is_disabled":false,"rental_uris":{"android":"levelo://app?vid=64993a9f-8c1e-4ff5-9012-883f4090c8f0","ios":"levelo://app?vid=64993a9f-8c1e-4ff5-9012-883f4090c8f0"},"vehicle_type_id":"4","last_reported":1777228586,"current_range_meters":4400,"station_id":"ce4bhi12rcd13ifvqfq0","pricing_plan_id":"cebpf4jnsgd1na2vs0mg"},{"bike_id":"6f398d06-722e-4fc2-a679-b9043ac16460","system_id":"levelo_inurba_marseille","lat":43.27946,"lon":5.41034,"is_reserved":false,"is_disabled":false,"rental_uris":{"android":"levelo://app?vid=6f398d06-722e-4fc2-a679-b9043ac16460","ios":"levelo://app?vid=6f398d06-722e-4fc2-a679-b9043ac16460"},"vehicle_type_id":"4","last_reported":1777228586,"current_range_meters":4400,"station_id":"ce4bhnp2rcd13ifvqh0g","pricing_plan_id":"cebpf4jnsgd1na2vs0mg"},{"bike_id":"1ccfe6f4-e5d4-4b33-812d-52bd4f628f2d","system_id":"levelo_inurba_marseille","lat":43.24799,"lon":5.37461,"is_reserved":false,"is_disabled":false,"rental_uris":{"android":"levelo://app?vid=1ccfe6f4-e5d4-4b33-812d-52bd4f628f2d","ios":"levelo://app?vid=1ccfe6f4-e5d4-4b33-812d-52bd4f628f2d"},"vehicle_type_id":"4","last_reported":1777228586,"current_range_meters":4400,"station_id":"ce4bhgh2rcd13ifvqfb0","pricing_plan_id":"cebpf4jnsgd1na2vs0mg"},{"bike_id":"833d7be3-421b-4c5f-bc44-1a51dc01aed7","system_id":"levelo_inurba_marseille","lat":43.29664,"lon":5.37297,"is_reserved":false,"is_disabled":true,"rental_uris":{"android":"levelo://app?vid=833d7be3-421b-4c5f-bc44-1a51dc01aed7","ios":"levelo://app?vid=833d7be3-421b-4c5f-bc44-1a51dc01aed7"},"vehicle_type_id":"4","last_reported":1777228586,"current_range_meters":4400,"station_id":"ce4bgk12rcd13ifvqbj0","pricing_plan_id":"cebpf4jnsgd1na2vs0mg"},{"bike_id":"4b4f8a14-28a7-473c-ab80-dc541b302711","system_id":"levelo_inurba_marseille","lat":43.27336,"lon":5.39004,"is_reserved":false,"is_disabled":false,"rental_uris":{"android":"levelo://app?vid=4b4f8a14-28a7-473c-ab80-dc541b302711","ios":"levelo://app?vid=4b4f8a14-28a7-473c-ab80-dc541b302711"},"vehicle_type_id":"4","last_reported":1777228586,"current_range_meters":4400,"station_id":"","pricing_plan_id":"cebpf4jnsgd1na2vs0mg"},{"bike_id":"d9913dbb-4dff-4544-8f9f-31189a1466e7","system_id":"levelo_inurba_marseille","lat":43.27068,"lon":5.42283,"is_reserved":false,"is_disabled":false,"rental_uris":{"android":"levelo://app?vid=d9913dbb-4dff-4544-8f9f-31189a1466e7","ios":"levelo://app?vid=d9913dbb-4dff-4544-8f9f-31189a1466e7"},"vehicle_type_id":"4","last_reported":1777228586,"current_range_meters":4400,"station_id":"ce4bhk92rcd13ifvqgb0","pricing_plan_id":"cebpf4jnsgd1na2vs0mg"},{"bike_id":"27cd71a7-0940-4415-a67f-21597fbf1cd9","system_id":"levelo_inurba_marseille","lat":43.34484,"lon":5.37824,"is_reserved":false,"is_disabled":false,"rental_uris":{"android":"levelo://app?vid=27cd71a7-0940-4415-a67f-21597fbf1cd9","ios":"levelo://app?vid=27cd71a7-0940-4415-a67f-21597fbf1cd9"},"vehicle_type_id":"4","last_reported":1777228586,"current_range_meters":4800,"station_id":"","pricing_plan_id":"cebpf4jnsgd1na2vs0mg"},{"bike_id":"a741ff1a-484b-4d8a-9c06-c4887c117baa","system_id":"levelo_inurba_marseille","lat":43.22502,"lon":5.34832,"is_reserved":false,"is_disabled":false,"rental_uris":{"android":"levelo://app?vid=a741ff1a-484b-4d8a-9c06-c4887c117baa","ios":"levelo://app?vid=a741ff1a-484b-4d8a-9c06-c4887c117baa"},"vehicle_type_id":"4","last_reported":1777228586,"current_range_meters":4800,"station_id":"st_cvj5dfep6f1abm77gieg","pricing_plan_id":"cebpf4jnsgd1na2vs0mg"},{"bike_id":"190ee308-5edd-4b36-98aa-943fb0bd7d24","system_id":"levelo_inurba_marseille","lat":43.298096,"lon":5.380895,"is_reserved":false,"is_disabled":false,"rental_uris":{"android":"levelo://app?vid=190ee308-5edd-4b36-98aa-943fb0bd7d24","ios":"levelo://app?vid=190ee308-5edd-4b36-98aa-943fb0bd7d24"},"vehicle_type_id":"4","last_reported":1777228586,"current_range_meters":4800,"station_id":"ce4bgip2rcd13ifvqbb0","pricing_plan_id":"cebpf4jnsgd1na2vs0mg"},{"bike_id":"26d26955-b302-4311-88a8-057f7b19117a","system_id":"levelo_inurba_marseille","lat":43.29652,"lon":5.36063,"is_reserved":false,"is_disabled":false,"rental_uris":{"android":"levelo://app?vid=26d26955-b302-4311-88a8-057f7b19117a","ios":"levelo://app?vid=26d26955-b302-4311-88a8-057f7b19117a"},"vehicle_type_id":"4","last_reported":1777228586,"current_range_meters":4800,"station_id":"","pricing_plan_id":"cebpf4jnsgd1na2vs0mg"},{"bike_id":"e6eb54a0-e476-46e9-bb41-7b0c9916cfdb","system_id":"levelo_inurba_marseille","lat":43.2408,"lon":5.37746,"is_reserved":false,"is_disabled":false,"rental_uris":{"android":"levelo://app?vid=e6eb54a0-e476-46e9-bb41-7b0c9916cfdb","ios":"levelo://app?vid=e6eb54a0-e476-46e9-bb41-7b0c9916cfdb"},"vehicle_type_id":"4","last_reported":1777228586,"current_range_meters":4800,"station_id":"ce4bhnp2rcd13ifvqgvg","pricing_plan_id":"cebpf4jnsgd1na2vs0mg"},{"bike_id":"149148b8-a9d7-4a2f-af8f-79caef5c80f4","system_id":"levelo_inurba_marseille","lat":43.24551,"lon":5.39518,"is_reserved":false,"is_disabled":false,"rental_uris":{"android":"levelo://app?vid=149148b8-a9d7-4a2f-af8f-79caef5c80f4","ios":"levelo://app?vid=149148b8-a9d7-4a2f-af8f-79caef5c80f4"},"vehicle_type_id":"4","last_reported":1777228586,"current_range_meters":4800,"station_id":"ce4bhlp2rcd13ifvqgjg","pricing_plan_id":"cebpf4jnsgd1na2vs0mg"},{"bike_id":"724d0869-017c-4e7e-9911-705be0df09b1","system_id":"levelo_inurba_marseille","lat":43.31445,"lon":5.37387,"is_reserved":false,"is_disabled":false,"rental_uris":{"android":"levelo://app?vid=724d0869-017c-4e7e-9911-705be0df09b1","ios":"levelo://app?vid=724d0869-017c-4e7e-9911-705be0df09b1"},"vehicle_type_id":"4","last_reported":1777228586,"current_range_meters":4800,"station_id":"","pricing_plan_id":"cebpf4jnsgd1na2vs0mg"},{"bike_id":"237b1cc3-bd61-4d4b-988d-ffeec82480b9","system_id":"levelo_inurba_marseille","lat":43.27218,"lon":5.3916,"is_reserved":false,"is_disabled":false,"rental_uris":{"android":"levelo://app?vid=237b1cc3-bd61-4d4b-988d-ffeec82480b9","ios":"levelo://app?vid=237b1cc3-bd61-4d4b-988d-ffeec82480b9"},"vehicle_type_id":"4","last_reported":1777228586,"current_range_meters":4800,"station_id":"ce4bhhp2rcd13ifvqfm0","pricing_plan_id":"cebpf4jnsgd1na2vs0mg"},{"bike_id":"1ee0792d-de8a-4968-8e20-1d21db8d5000","system_id":"levelo_inurba_marseille","lat":43.27333,"lon":5.39068,"is_reserved":false,"is_disabled":false,"rental_uris":{"android":"levelo://app?vid=1ee0792d-de8a-4968-8e20-1d21db8d5000","ios":"levelo://app?vid=1ee0792d-de8a-4968-8e20-1d21db8d5000"},"vehicle_type_id":"4","last_reported":1777228586,"current_range_meters":4800,"station_id":"ce4bhgp2rcd13ifvqfe0","pricing_plan_id":"cebpf4jnsgd1na2vs0mg"},{"bike_id":"e1892244-cebb-4a81-857c-58fcdc37537e","system_id":"levelo_inurba_marseille","lat":43.26804,"lon":5.4026,"is_reserved":false,"is_disabled":false,"rental_uris":{"android":"levelo://app?vid=e1892244-cebb-4a81-857c-58fcdc37537e","ios":"levelo://app?vid=e1892244-cebb-4a81-857c-58fcdc37537e"},"vehicle_type_id":"4","last_reported":1777228586,"current_range_meters":4800,"station_id":"ce501612rcd8frsf0b60","pricing_plan_id":"cebpf4jnsgd1na2vs0mg"},{"bike_id":"8050b833-adef-43e8-8f24-94a8d1b4458b","system_id":"levelo_inurba_marseille","lat":43.27492,"lon":5.42448,"is_reserved":false,"is_disabled":true,"rental_uris":{"android":"levelo://app?vid=8050b833-adef-43e8-8f24-94a8d1b4458b","ios":"levelo://app?vid=8050b833-adef-43e8-8f24-94a8d1b4458b"},"vehicle_type_id":"4","last_reported":1777228586,"current_range_meters":4800,"station_id":"ce4bhn92rcd13ifvqgrg","pricing_plan_id":"cebpf4jnsgd1na2vs0mg"},{"bike_id":"f33c6c9d-346a-4c73-9b31-f3ca6fe92254","system_id":"levelo_inurba_marseille","lat":43.29602,"lon":5.3772,"is_reserved":false,"is_disabled":true,"rental_uris":{"android":"levelo://app?vid=f33c6c9d-346a-4c73-9b31-f3ca6fe92254","ios":"levelo://app?vid=f33c6c9d-346a-4c73-9b31-f3ca6fe92254"},"vehicle_type_id":"4","last_reported":1777228586,"current_range_meters":4800,"station_id":"ce4bgi92rcd13ifvqb90","pricing_plan_id":"cebpf4jnsgd1na2vs0mg"},{"bike_id":"e458cf0a-2d99-4a7e-863f-1966634292f9","system_id":"levelo_inurba_marseille","lat":43.30327,"lon":5.38923,"is_reserved":false,"is_disabled":false,"rental_uris":{"android":"levelo://app?vid=e458cf0a-2d99-4a7e-863f-1966634292f9","ios":"levelo://app?vid=e458cf0a-2d99-4a7e-863f-1966634292f9"},"vehicle_type_id":"4","last_reported":1777228586,"current_range_meters":4800,"station_id":"","pricing_plan_id":"cebpf4jnsgd1na2vs0mg"},{"bike_id":"5367fafd-42a5-4c52-bd35-5d85953af91c","system_id":"levelo_inurba_marseille","lat":43.30816,"lon":5.374,"is_reserved":false,"is_disabled":true,"rental_uris":{"android":"levelo://app?vid=5367fafd-42a5-4c52-bd35-5d85953af91c","ios":"levelo://app?vid=5367fafd-42a5-4c52-bd35-5d85953af91c"},"vehicle_type_id":"4","last_reported":1777228586,"current_range_meters":5600,"station_id":"","pricing_plan_id":"cebpf4jnsgd1na2vs0mg"},{"bike_id":"9a7c39d8-ef30-4694-b180-b6fe0a089530","system_id":"levelo_inurba_marseille","lat":43.30128,"lon":5.43107,"is_reserved":false,"is_disabled":false,"rental_uris":{"android":"levelo://app?vid=9a7c39d8-ef30-4694-b180-b6fe0a089530","ios":"levelo://app?vid=9a7c39d8-ef30-4694-b180-b6fe0a089530"},"vehicle_type_id":"4","last_reported":1777228586,"current_range_meters":5600,"station_id":"st_d3js3co5814s73ftftug","pricing_plan_id":"cebpf4jnsgd1na2vs0mg"},{"bike_id":"9762113e-a054-458e-a16d-f34215941270","system_id":"levelo_inurba_marseille","lat":43.29221,"lon":5.36079,"is_reserved":false,"is_disabled":true,"rental_uris":{"android":"levelo://app?vid=9762113e-a054-458e-a16d-f34215941270","ios":"levelo://app?vid=9762113e-a054-458e-a16d-f34215941270"},"vehicle_type_id":"4","last_reported":1777228586,"current_range_meters":5600,"station_id":"ce4bhbh2rcd13ifvqeqg","pricing_plan_id":"cebpf4jnsgd1na2vs0mg"},{"bike_id":"72337c7c-15fe-4d9d-a055-b6365e7a1881","system_id":"levelo_inurba_marseille","lat":43.24935,"lon":5.40482,"is_reserved":false,"is_disabled":false,"rental_uris":{"android":"levelo://app?vid=72337c7c-15fe-4d9d-a055-b6365e7a1881","ios":"levelo://app?vid=72337c7c-15fe-4d9d-a055-b6365e7a1881"},"vehicle_type_id":"4","last_reported":1777228586,"current_range_meters":5600,"station_id":"st_d2ngiaodas8pm72gd1h0","pricing_plan_id":"cebpf4jnsgd1na2vs0mg"},{"bike_id":"0eeda63c-b32b-4918-a3c2-72bd9b51aef7","system_id":"levelo_inurba_marseille","lat":43.30879,"lon":5.3963,"is_reserved":false,"is_disabled":false,"rental_uris":{"android":"levelo://app?vid=0eeda63c-b32b-4918-a3c2-72bd9b51aef7","ios":"levelo://app?vid=0eeda63c-b32b-4918-a3c2-72bd9b51aef7"},"vehicle_type_id":"4","last_reported":1777228586,"current_range_meters":5600,"station_id":"ce4bh012rcd13ifvqcv0","pricing_plan_id":"cebpf4jnsgd1na2vs0mg"},{"bike_id":"5687bcf3-d7dc-457c-91e4-c37491638fcd","system_id":"levelo_inurba_marseille","lat":43.2416,"lon":5.36401,"is_reserved":false,"is_disabled":false,"rental_uris":{"android":"levelo://app?vid=5687bcf3-d7dc-457c-91e4-c37491638fcd","ios":"levelo://app?vid=5687bcf3-d7dc-457c-91e4-c37491638fcd"},"vehicle_type_id":"4","last_reported":1777228586,"current_range_meters":5600,"station_id":"cpo36qri1sfpv3e86is0","pricing_plan_id":"cebpf4jnsgd1na2vs0mg"},{"bike_id":"2732d384-73b3-4e71-8aef-9fc53fa974c1","system_id":"levelo_inurba_marseille","lat":43.27206,"lon":5.39194,"is_reserved":false,"is_disabled":false,"rental_uris":{"android":"levelo://app?vid=2732d384-73b3-4e71-8aef-9fc53fa974c1","ios":"levelo://app?vid=2732d384-73b3-4e71-8aef-9fc53fa974c1"},"vehicle_type_id":"4","last_reported":1777228586,"current_range_meters":5600,"station_id":"ce4bhhp2rcd13ifvqfm0","pricing_plan_id":"cebpf4jnsgd1na2vs0mg"},{"bike_id":"085eefc3-42b6-4e5f-8fa3-5e096f60ac23","system_id":"levelo_inurba_marseille","lat":43.22035,"lon":5.34201,"is_reserved":false,"is_disabled":true,"rental_uris":{"android":"levelo://app?vid=085eefc3-42b6-4e5f-8fa3-5e096f60ac23","ios":"levelo://app?vid=085eefc3-42b6-4e5f-8fa3-5e096f60ac23"},"vehicle_type_id":"4","last_reported":1777228586,"current_range_meters":5600,"station_id":"","pricing_plan_id":"cebpf4jnsgd1na2vs0mg"},{"bike_id":"adfeb2f2-21a5-4adf-a92e-a60a7bb66934","system_id":"levelo_inurba_marseille","lat":43.28994,"lon":5.35616,"is_reserved":false,"is_disabled":true,"rental_uris":{"android":"levelo://app?vid=adfeb2f2-21a5-4adf-a92e-a60a7bb66934","ios":"levelo://app?vid=adfeb2f2-21a5-4adf-a92e-a60a7bb66934"},"vehicle_type_id":"4","last_reported":1777228586,"current_range_meters":5600,"station_id":"ce4bhb92rcd13ifvqen0","pricing_plan_id":"cebpf4jnsgd1na2vs0mg"},{"bike_id":"e6e0181d-d51b-42d7-93b1-7e8f4d00629c","system_id":"levelo_inurba_marseille","lat":43.29813,"lon":5.42022,"is_reserved":false,"is_disabled":true,"rental_uris":{"android":"levelo://app?vid=e6e0181d-d51b-42d7-93b1-7e8f4d00629c","ios":"levelo://app?vid=e6e0181d-d51b-42d7-93b1-7e8f4d00629c"},"vehicle_type_id":"4","last_reported":1777228586,"current_range_meters":5600,"station_id":"","pricing_plan_id":"cebpf4jnsgd1na2vs0mg"},{"bike_id":"66b00284-949a-4c64-bc24-572a6469182b","system_id":"levelo_inurba_marseille","lat":43.26503,"lon":5.39533,"is_reserved":false,"is_disabled":false,"rental_uris":{"android":"levelo://app?vid=66b00284-949a-4c64-bc24-572a6469182b","ios":"levelo://app?vid=66b00284-949a-4c64-bc24-572a6469182b"},"vehicle_type_id":"4","last_reported":1777228586,"current_range_meters":5600,"station_id":"ce4bhi12rcd13ifvqfq0","pricing_plan_id":"cebpf4jnsgd1na2vs0mg"},{"bike_id":"10438bd8-d775-4916-ade5-76c224d1b136","system_id":"levelo_inurba_marseille","lat":43.30655,"lon":5.43634,"is_reserved":false,"is_disabled":false,"rental_uris":{"android":"levelo://app?vid=10438bd8-d775-4916-ade5-76c224d1b136","ios":"levelo://app?vid=10438bd8-d775-4916-ade5-76c224d1b136"},"vehicle_type_id":"4","last_reported":1777228586,"current_range_meters":5600,"station_id":"","pricing_plan_id":"cebpf4jnsgd1na2vs0mg"},{"bike_id":"575d5ae6-552e-4298-b475-f41c61e094f0","system_id":"levelo_inurba_marseille","lat":43.23191,"lon":5.39973,"is_reserved":false,"is_disabled":false,"rental_uris":{"android":"levelo://app?vid=575d5ae6-552e-4298-b475-f41c61e094f0","ios":"levelo://app?vid=575d5ae6-552e-4298-b475-f41c61e094f0"},"vehicle_type_id":"4","last_reported":1777228586,"current_range_meters":5600,"station_id":"ce4bhn12rcd13ifvqgqg","pricing_plan_id":"cebpf4jnsgd1na2vs0mg"},{"bike_id":"0d08ccd4-d1be-4e11-9617-33f216c98068","system_id":"levelo_inurba_marseille","lat":43.2849,"lon":5.38554,"is_reserved":false,"is_disabled":false,"rental_uris":{"android":"levelo://app?vid=0d08ccd4-d1be-4e11-9617-33f216c98068","ios":"levelo://app?vid=0d08ccd4-d1be-4e11-9617-33f216c98068"},"vehicle_type_id":"4","last_reported":1777228586,"current_range_meters":5600,"station_id":"ce4bh8p2rcd13ifvqeb0","pricing_plan_id":"cebpf4jnsgd1na2vs0mg"},{"bike_id":"d11d1630-7193-4a16-904f-224f12dc3d85","system_id":"levelo_inurba_marseille","lat":43.278051,"lon":5.395418,"is_reserved":false,"is_disabled":false,"rental_uris":{"android":"levelo://app?vid=d11d1630-7193-4a16-904f-224f12dc3d85","ios":"levelo://app?vid=d11d1630-7193-4a16-904f-224f12dc3d85"},"vehicle_type_id":"4","last_reported":1777228586,"current_range_meters":5600,"station_id":"ce4bhoh2rcd13ifvqh5g","pricing_plan_id":"cebpf4jnsgd1na2vs0mg"},{"bike_id":"81ff01df-4229-4da0-b0eb-f1f78970376c","system_id":"levelo_inurba_marseille","lat":43.27049,"lon":5.40257,"is_reserved":false,"is_disabled":false,"rental_uris":{"android":"levelo://app?vid=81ff01df-4229-4da0-b0eb-f1f78970376c","ios":"levelo://app?vid=81ff01df-4229-4da0-b0eb-f1f78970376c"},"vehicle_type_id":"4","last_reported":1777228586,"current_range_meters":5600,"station_id":"ce4bhk92rcd13ifvqgc0","pricing_plan_id":"cebpf4jnsgd1na2vs0mg"},{"bike_id":"609bdf4a-3601-4570-b4fa-c37eacc0db38","system_id":"levelo_inurba_marseille","lat":43.27176,"lon":5.41011,"is_reserved":false,"is_disabled":false,"rental_uris":{"android":"levelo://app?vid=609bdf4a-3601-4570-b4fa-c37eacc0db38","ios":"levelo://app?vid=609bdf4a-3601-4570-b4fa-c37eacc0db38"},"vehicle_type_id":"4","last_reported":1777228586,"current_range_meters":5600,"station_id":"ce4bhl12rcd13ifvqgf0","pricing_plan_id":"cebpf4jnsgd1na2vs0mg"},{"bike_id":"014eaced-62b6-4dd3-825a-2a0684975999","system_id":"levelo_inurba_marseille","lat":43.30584,"lon":5.39364,"is_reserved":false,"is_disabled":false,"rental_uris":{"android":"levelo://app?vid=014eaced-62b6-4dd3-825a-2a0684975999","ios":"levelo://app?vid=014eaced-62b6-4dd3-825a-2a0684975999"},"vehicle_type_id":"4","last_reported":1777228586,"current_range_meters":5600,"station_id":"ce4bh0p2rcd13ifvqd80","pricing_plan_id":"cebpf4jnsgd1na2vs0mg"},{"bike_id":"3fab6a56-2173-4184-96bc-76f1869cd2eb","system_id":"levelo_inurba_marseille","lat":43.29373,"lon":5.37843,"is_reserved":false,"is_disabled":false,"rental_uris":{"android":"levelo://app?vid=3fab6a56-2173-4184-96bc-76f1869cd2eb","ios":"levelo://app?vid=3fab6a56-2173-4184-96bc-76f1869cd2eb"},"vehicle_type_id":"4","last_reported":1777228586,"current_range_meters":6000,"station_id":"ce4bgjh2rcd13ifvqbf0","pricing_plan_id":"cebpf4jnsgd1na2vs0mg"},{"bike_id":"757fdfcb-45d7-4c45-8e18-f9ab346e8260","system_id":"levelo_inurba_marseille","lat":43.24693,"lon":5.39836,"is_reserved":false,"is_disabled":false,"rental_uris":{"android":"levelo://app?vid=757fdfcb-45d7-4c45-8e18-f9ab346e8260","ios":"levelo://app?vid=757fdfcb-45d7-4c45-8e18-f9ab346e8260"},"vehicle_type_id":"4","last_reported":1777228586,"current_range_meters":6000,"station_id":"","pricing_plan_id":"cebpf4jnsgd1na2vs0mg"},{"bike_id":"0bb1c18b-48a1-4e5e-8ea2-7aa557ac1079","system_id":"levelo_inurba_marseille","lat":43.29538,"lon":5.38539,"is_reserved":false,"is_disabled":false,"rental_uris":{"android":"levelo://app?vid=0bb1c18b-48a1-4e5e-8ea2-7aa557ac1079","ios":"levelo://app?vid=0bb1c18b-48a1-4e5e-8ea2-7aa557ac1079"},"vehicle_type_id":"4","last_reported":1777228586,"current_range_meters":6000,"station_id":"ce4bgih2rcd13ifvqba0","pricing_plan_id":"cebpf4jnsgd1na2vs0mg"},{"bike_id":"8072cacb-a3e8-46da-82ae-1b43a1fd8ce5","system_id":"levelo_inurba_marseille","lat":43.27809,"lon":5.40696,"is_reserved":false,"is_disabled":false,"rental_uris":{"android":"levelo://app?vid=8072cacb-a3e8-46da-82ae-1b43a1fd8ce5","ios":"levelo://app?vid=8072cacb-a3e8-46da-82ae-1b43a1fd8ce5"},"vehicle_type_id":"4","last_reported":1777228586,"current_range_meters":6000,"station_id":"ce4bhnh2rcd13ifvqgtg","pricing_plan_id":"cebpf4jnsgd1na2vs0mg"},{"bike_id":"6cf3a600-b22f-4888-b1ea-a099526102d1","system_id":"levelo_inurba_marseille","lat":43.24657,"lon":5.38156,"is_reserved":false,"is_disabled":false,"rental_uris":{"android":"levelo://app?vid=6cf3a600-b22f-4888-b1ea-a099526102d1","ios":"levelo://app?vid=6cf3a600-b22f-4888-b1ea-a099526102d1"},"vehicle_type_id":"4","last_reported":1777228586,"current_range_meters":6000,"station_id":"ce4bhih2rcd13ifvqfr0","pricing_plan_id":"cebpf4jnsgd1na2vs0mg"},{"bike_id":"6b60b3c8-da35-492c-9411-418199a97ad7","system_id":"levelo_inurba_marseille","lat":43.28458,"lon":5.48385,"is_reserved":false,"is_disabled":false,"rental_uris":{"android":"levelo://app?vid=6b60b3c8-da35-492c-9411-418199a97ad7","ios":"levelo://app?vid=6b60b3c8-da35-492c-9411-418199a97ad7"},"vehicle_type_id":"4","last_reported":1777228586,"current_range_meters":6000,"station_id":"","pricing_plan_id":"cebpf4jnsgd1na2vs0mg"},{"bike_id":"1e67e315-97e4-435c-8aae-b2c305f4e3b2","system_id":"levelo_inurba_marseille","lat":43.26572,"lon":5.39007,"is_reserved":false,"is_disabled":false,"rental_uris":{"android":"levelo://app?vid=1e67e315-97e4-435c-8aae-b2c305f4e3b2","ios":"levelo://app?vid=1e67e315-97e4-435c-8aae-b2c305f4e3b2"},"vehicle_type_id":"4","last_reported":1777228586,"current_range_meters":6000,"station_id":"ce4bhe12rcd13ifvqf30","pricing_plan_id":"cebpf4jnsgd1na2vs0mg"},{"bike_id":"39c6c4d6-7555-4b53-ad56-337ccc229a3f","system_id":"levelo_inurba_marseille","lat":43.30727,"lon":5.42441,"is_reserved":false,"is_disabled":false,"rental_uris":{"android":"levelo://app?vid=39c6c4d6-7555-4b53-ad56-337ccc229a3f","ios":"levelo://app?vid=39c6c4d6-7555-4b53-ad56-337ccc229a3f"},"vehicle_type_id":"4","last_reported":1777228586,"current_range_meters":6000,"station_id":"st_cvj6ca6bvosntc0bfgr0","pricing_plan_id":"cebpf4jnsgd1na2vs0mg"},{"bike_id":"e005198e-4e32-4e98-ade1-015e3f596d9d","system_id":"levelo_inurba_marseille","lat":43.29216,"lon":5.36037,"is_reserved":false,"is_disabled":true,"rental_uris":{"android":"levelo://app?vid=e005198e-4e32-4e98-ade1-015e3f596d9d","ios":"levelo://app?vid=e005198e-4e32-4e98-ade1-015e3f596d9d"},"vehicle_type_id":"4","last_reported":1777228586,"current_range_meters":6000,"station_id":"ce4bhbh2rcd13ifvqeqg","pricing_plan_id":"cebpf4jnsgd1na2vs0mg"},{"bike_id":"fda983b3-301e-40f3-bb07-e5c67ab620e4","system_id":"levelo_inurba_marseille","lat":43.25079,"lon":5.40462,"is_reserved":false,"is_disabled":false,"rental_uris":{"android":"levelo://app?vid=fda983b3-301e-40f3-bb07-e5c67ab620e4","ios":"levelo://app?vid=fda983b3-301e-40f3-bb07-e5c67ab620e4"},"vehicle_type_id":"4","last_reported":1777228586,"current_range_meters":6000,"station_id":"","pricing_plan_id":"cebpf4jnsgd1na2vs0mg"},{"bike_id":"d8d853b3-ccf8-4137-b2ef-8f67e3c6667e","system_id":"levelo_inurba_marseille","lat":43.29003,"lon":5.3561,"is_reserved":false,"is_disabled":false,"rental_uris":{"android":"levelo://app?vid=d8d853b3-ccf8-4137-b2ef-8f67e3c6667e","ios":"levelo://app?vid=d8d853b3-ccf8-4137-b2ef-8f67e3c6667e"},"vehicle_type_id":"4","last_reported":1777228586,"current_range_meters":6000,"station_id":"ce4bhb92rcd13ifvqen0","pricing_plan_id":"cebpf4jnsgd1na2vs0mg"},{"bike_id":"8eb18393-d44d-45dd-adde-540bcefa2e27","system_id":"levelo_inurba_marseille","lat":43.29194,"lon":5.35793,"is_reserved":false,"is_disabled":false,"rental_uris":{"android":"levelo://app?vid=8eb18393-d44d-45dd-adde-540bcefa2e27","ios":"levelo://app?vid=8eb18393-d44d-45dd-adde-540bcefa2e27"},"vehicle_type_id":"4","last_reported":1777228586,"current_range_meters":6000,"station_id":"ce4bhb12rcd13ifvqel0","pricing_plan_id":"cebpf4jnsgd1na2vs0mg"},{"bike_id":"4b32f071-0100-42f3-86a6-75183edbe4cf","system_id":"levelo_inurba_marseille","lat":43.26923,"lon":5.40255,"is_reserved":false,"is_disabled":false,"rental_uris":{"android":"levelo://app?vid=4b32f071-0100-42f3-86a6-75183edbe4cf","ios":"levelo://app?vid=4b32f071-0100-42f3-86a6-75183edbe4cf"},"vehicle_type_id":"4","last_reported":1777228586,"current_range_meters":6000,"station_id":"cjm6bp8fraef2m0cb0m0","pricing_plan_id":"cebpf4jnsgd1na2vs0mg"},{"bike_id":"d054276e-6372-4793-ae37-6281dafb78f8","system_id":"levelo_inurba_marseille","lat":43.3376,"lon":5.37435,"is_reserved":false,"is_disabled":false,"rental_uris":{"android":"levelo://app?vid=d054276e-6372-4793-ae37-6281dafb78f8","ios":"levelo://app?vid=d054276e-6372-4793-ae37-6281dafb78f8"},"vehicle_type_id":"4","last_reported":1777228586,"current_range_meters":6000,"station_id":"","pricing_plan_id":"cebpf4jnsgd1na2vs0mg"},{"bike_id":"a04ab4c7-ba98-45c6-b83e-a919e77931f8","system_id":"levelo_inurba_marseille","lat":43.24669,"lon":5.38149,"is_reserved":false,"is_disabled":false,"rental_uris":{"android":"levelo://app?vid=a04ab4c7-ba98-45c6-b83e-a919e77931f8","ios":"levelo://app?vid=a04ab4c7-ba98-45c6-b83e-a919e77931f8"},"vehicle_type_id":"4","last_reported":1777228586,"current_range_meters":6000,"station_id":"ce4bhih2rcd13ifvqfr0","pricing_plan_id":"cebpf4jnsgd1na2vs0mg"},{"bike_id":"7cb9a66a-b80a-4473-913f-46ebc94724e5","system_id":"levelo_inurba_marseille","lat":43.28851,"lon":5.35831,"is_reserved":false,"is_disabled":false,"rental_uris":{"android":"levelo://app?vid=7cb9a66a-b80a-4473-913f-46ebc94724e5","ios":"levelo://app?vid=7cb9a66a-b80a-4473-913f-46ebc94724e5"},"vehicle_type_id":"4","last_reported":1777228586,"current_range_meters":6000,"station_id":"ce4bhb12rcd13ifvqem0","pricing_plan_id":"cebpf4jnsgd1na2vs0mg"},{"bike_id":"5fdff1d7-b2d7-4e39-ad7f-00ed09411d1d","system_id":"levelo_inurba_marseille","lat":43.28479,"lon":5.48382,"is_reserved":false,"is_disabled":false,"rental_uris":{"android":"levelo://app?vid=5fdff1d7-b2d7-4e39-ad7f-00ed09411d1d","ios":"levelo://app?vid=5fdff1d7-b2d7-4e39-ad7f-00ed09411d1d"},"vehicle_type_id":"4","last_reported":1777228586,"current_range_meters":6400,"station_id":"st_d3svhcjqgbts73a3dn0g","pricing_plan_id":"cebpf4jnsgd1na2vs0mg"},{"bike_id":"47be216e-98eb-430d-8e29-9078f3bbe9d8","system_id":"levelo_inurba_marseille","lat":43.27208,"lon":5.3918,"is_reserved":false,"is_disabled":false,"rental_uris":{"android":"levelo://app?vid=47be216e-98eb-430d-8e29-9078f3bbe9d8","ios":"levelo://app?vid=47be216e-98eb-430d-8e29-9078f3bbe9d8"},"vehicle_type_id":"4","last_reported":1777228586,"current_range_meters":6400,"station_id":"ce4bhhp2rcd13ifvqfm0","pricing_plan_id":"cebpf4jnsgd1na2vs0mg"},{"bike_id":"cca7f69c-b52c-4ab4-a550-bce4482b5936","system_id":"levelo_inurba_marseille","lat":43.27208,"lon":5.39193,"is_reserved":false,"is_disabled":false,"rental_uris":{"android":"levelo://app?vid=cca7f69c-b52c-4ab4-a550-bce4482b5936","ios":"levelo://app?vid=cca7f69c-b52c-4ab4-a550-bce4482b5936"},"vehicle_type_id":"4","last_reported":1777228586,"current_range_meters":6400,"station_id":"ce4bhhp2rcd13ifvqfm0","pricing_plan_id":"cebpf4jnsgd1na2vs0mg"},{"bike_id":"1fa7c290-baf4-43ed-aa99-7181dabef99e","system_id":"levelo_inurba_marseille","lat":43.33542,"lon":5.37446,"is_reserved":false,"is_disabled":false,"rental_uris":{"android":"levelo://app?vid=1fa7c290-baf4-43ed-aa99-7181dabef99e","ios":"levelo://app?vid=1fa7c290-baf4-43ed-aa99-7181dabef99e"},"vehicle_type_id":"4","last_reported":1777228586,"current_range_meters":6400,"station_id":"st_d46tts09ee8s73dlu43g","pricing_plan_id":"cebpf4jnsgd1na2vs0mg"},{"bike_id":"bfcc0be9-c3ed-4be9-9d60-e73b6e63f2c6","system_id":"levelo_inurba_marseille","lat":43.27211,"lon":5.39196,"is_reserved":false,"is_disabled":false,"rental_uris":{"android":"levelo://app?vid=bfcc0be9-c3ed-4be9-9d60-e73b6e63f2c6","ios":"levelo://app?vid=bfcc0be9-c3ed-4be9-9d60-e73b6e63f2c6"},"vehicle_type_id":"4","last_reported":1777228586,"current_range_meters":6400,"station_id":"ce4bhhp2rcd13ifvqfm0","pricing_plan_id":"cebpf4jnsgd1na2vs0mg"},{"bike_id":"be3dbaca-317c-43ef-8335-8f03df566046","system_id":"levelo_inurba_marseille","lat":43.28473,"lon":5.48403,"is_reserved":false,"is_disabled":true,"rental_uris":{"android":"levelo://app?vid=be3dbaca-317c-43ef-8335-8f03df566046","ios":"levelo://app?vid=be3dbaca-317c-43ef-8335-8f03df566046"},"vehicle_type_id":"4","last_reported":1777228586,"current_range_meters":6400,"station_id":"st_d3svhcjqgbts73a3dn0g","pricing_plan_id":"cebpf4jnsgd1na2vs0mg"},{"bike_id":"f54ccc15-12bb-43a9-bcae-01eb62b17984","system_id":"levelo_inurba_marseille","lat":43.24813,"lon":5.37455,"is_reserved":false,"is_disabled":false,"rental_uris":{"android":"levelo://app?vid=f54ccc15-12bb-43a9-bcae-01eb62b17984","ios":"levelo://app?vid=f54ccc15-12bb-43a9-bcae-01eb62b17984"},"vehicle_type_id":"4","last_reported":1777228586,"current_range_meters":6400,"station_id":"ce4bhgh2rcd13ifvqfb0","pricing_plan_id":"cebpf4jnsgd1na2vs0mg"},{"bike_id":"4f0afdcb-c407-47bc-8d34-61dbe93fa031","system_id":"levelo_inurba_marseille","lat":43.27064,"lon":5.40255,"is_reserved":false,"is_disabled":false,"rental_uris":{"android":"levelo://app?vid=4f0afdcb-c407-47bc-8d34-61dbe93fa031","ios":"levelo://app?vid=4f0afdcb-c407-47bc-8d34-61dbe93fa031"},"vehicle_type_id":"4","last_reported":1777228586,"current_range_meters":6400,"station_id":"ce4bhk92rcd13ifvqgc0","pricing_plan_id":"cebpf4jnsgd1na2vs0mg"},{"bike_id":"0d21cd39-b415-4b0c-a758-483df1ee6bd4","system_id":"levelo_inurba_marseille","lat":43.29292,"lon":5.3841,"is_reserved":false,"is_disabled":false,"rental_uris":{"android":"levelo://app?vid=0d21cd39-b415-4b0c-a758-483df1ee6bd4","ios":"levelo://app?vid=0d21cd39-b415-4b0c-a758-483df1ee6bd4"},"vehicle_type_id":"4","last_reported":1777228586,"current_range_meters":6400,"station_id":"ce4bh692rcd13ifvqea0","pricing_plan_id":"cebpf4jnsgd1na2vs0mg"},{"bike_id":"8f2c7d49-3743-49aa-b44c-55bd34fc4914","system_id":"levelo_inurba_marseille","lat":43.2721,"lon":5.39179,"is_reserved":false,"is_disabled":false,"rental_uris":{"android":"levelo://app?vid=8f2c7d49-3743-49aa-b44c-55bd34fc4914","ios":"levelo://app?vid=8f2c7d49-3743-49aa-b44c-55bd34fc4914"},"vehicle_type_id":"4","last_reported":1777228586,"current_range_meters":6400,"station_id":"ce4bhhp2rcd13ifvqfm0","pricing_plan_id":"cebpf4jnsgd1na2vs0mg"},{"bike_id":"0bba0381-6f31-4bcb-a371-7437780e58eb","system_id":"levelo_inurba_marseille","lat":43.26806,"lon":5.4027,"is_reserved":false,"is_disabled":false,"rental_uris":{"android":"levelo://app?vid=0bba0381-6f31-4bcb-a371-7437780e58eb","ios":"levelo://app?vid=0bba0381-6f31-4bcb-a371-7437780e58eb"},"vehicle_type_id":"4","last_reported":1777228586,"current_range_meters":6400,"station_id":"ce501612rcd8frsf0b60","pricing_plan_id":"cebpf4jnsgd1na2vs0mg"},{"bike_id":"b7166d00-058e-4f8a-ac08-8d7664362d9a","system_id":"levelo_inurba_marseille","lat":43.26547,"lon":5.37295,"is_reserved":false,"is_disabled":true,"rental_uris":{"android":"levelo://app?vid=b7166d00-058e-4f8a-ac08-8d7664362d9a","ios":"levelo://app?vid=b7166d00-058e-4f8a-ac08-8d7664362d9a"},"vehicle_type_id":"4","last_reported":1777228586,"current_range_meters":6400,"station_id":"ce4bhg12rcd13ifvqf70","pricing_plan_id":"cebpf4jnsgd1na2vs0mg"},{"bike_id":"76e100a0-77f6-48f6-b3d7-3eb9a98d4d51","system_id":"levelo_inurba_marseille","lat":43.291983,"lon":5.393242,"is_reserved":false,"is_disabled":false,"rental_uris":{"android":"levelo://app?vid=76e100a0-77f6-48f6-b3d7-3eb9a98d4d51","ios":"levelo://app?vid=76e100a0-77f6-48f6-b3d7-3eb9a98d4d51"},"vehicle_type_id":"4","last_reported":1777228586,"current_range_meters":6400,"station_id":"ce4bh192rcd13ifvqdd0","pricing_plan_id":"cebpf4jnsgd1na2vs0mg"},{"bike_id":"b3855136-b865-4ce8-81d3-7e3b5d26cce9","system_id":"levelo_inurba_marseille","lat":43.29973,"lon":5.4132,"is_reserved":false,"is_disabled":false,"rental_uris":{"android":"levelo://app?vid=b3855136-b865-4ce8-81d3-7e3b5d26cce9","ios":"levelo://app?vid=b3855136-b865-4ce8-81d3-7e3b5d26cce9"},"vehicle_type_id":"4","last_reported":1777228586,"current_range_meters":6400,"station_id":"ce4bhp12rcd13ifvqh9g","pricing_plan_id":"cebpf4jnsgd1na2vs0mg"},{"bike_id":"def3dd25-d3fe-4403-8c5c-5a385c3cc225","system_id":"levelo_inurba_marseille","lat":43.2794,"lon":5.4105,"is_reserved":false,"is_disabled":false,"rental_uris":{"android":"levelo://app?vid=def3dd25-d3fe-4403-8c5c-5a385c3cc225","ios":"levelo://app?vid=def3dd25-d3fe-4403-8c5c-5a385c3cc225"},"vehicle_type_id":"4","last_reported":1777228586,"current_range_meters":6400,"station_id":"ce4bhnp2rcd13ifvqh0g","pricing_plan_id":"cebpf4jnsgd1na2vs0mg"},{"bike_id":"3d10e103-a0fc-426b-8d1f-1e274ab613f1","system_id":"levelo_inurba_marseille","lat":43.27669,"lon":5.38902,"is_reserved":false,"is_disabled":false,"rental_uris":{"android":"levelo://app?vid=3d10e103-a0fc-426b-8d1f-1e274ab613f1","ios":"levelo://app?vid=3d10e103-a0fc-426b-8d1f-1e274ab613f1"},"vehicle_type_id":"4","last_reported":1777228586,"current_range_meters":6400,"station_id":"ce4bhi12rcd13ifvqfo0","pricing_plan_id":"cebpf4jnsgd1na2vs0mg"},{"bike_id":"6cd61416-dc97-4a30-89cd-d3e20ec9e3b5","system_id":"levelo_inurba_marseille","lat":43.28709,"lon":5.37965,"is_reserved":false,"is_disabled":false,"rental_uris":{"android":"levelo://app?vid=6cd61416-dc97-4a30-89cd-d3e20ec9e3b5","ios":"levelo://app?vid=6cd61416-dc97-4a30-89cd-d3e20ec9e3b5"},"vehicle_type_id":"4","last_reported":1777228586,"current_range_meters":6800,"station_id":"ce4bh9p2rcd13ifvqec0","pricing_plan_id":"cebpf4jnsgd1na2vs0mg"},{"bike_id":"494fd0fc-3b39-4504-a26b-321afbf22977","system_id":"levelo_inurba_marseille","lat":43.23825,"lon":5.38593,"is_reserved":false,"is_disabled":false,"rental_uris":{"android":"levelo://app?vid=494fd0fc-3b39-4504-a26b-321afbf22977","ios":"levelo://app?vid=494fd0fc-3b39-4504-a26b-321afbf22977"},"vehicle_type_id":"4","last_reported":1777228586,"current_range_meters":6800,"station_id":"","pricing_plan_id":"cebpf4jnsgd1na2vs0mg"},{"bike_id":"eaacdb91-1c5b-4303-af36-dd942656ca09","system_id":"levelo_inurba_marseille","lat":43.2582,"lon":5.39432,"is_reserved":false,"is_disabled":false,"rental_uris":{"android":"levelo://app?vid=eaacdb91-1c5b-4303-af36-dd942656ca09","ios":"levelo://app?vid=eaacdb91-1c5b-4303-af36-dd942656ca09"},"vehicle_type_id":"4","last_reported":1777228586,"current_range_meters":6800,"station_id":"ce4bhip2rcd13ifvqft0","pricing_plan_id":"cebpf4jnsgd1na2vs0mg"},{"bike_id":"7676472d-a9d6-476d-9d73-a2b43a0e573c","system_id":"levelo_inurba_marseille","lat":43.27056,"lon":5.40252,"is_reserved":false,"is_disabled":false,"rental_uris":{"android":"levelo://app?vid=7676472d-a9d6-476d-9d73-a2b43a0e573c","ios":"levelo://app?vid=7676472d-a9d6-476d-9d73-a2b43a0e573c"},"vehicle_type_id":"4","last_reported":1777228586,"current_range_meters":6800,"station_id":"ce4bhk92rcd13ifvqgc0","pricing_plan_id":"cebpf4jnsgd1na2vs0mg"},{"bike_id":"8e2981d0-7056-481f-8585-5b3ecb4b783a","system_id":"levelo_inurba_marseille","lat":43.21757,"lon":5.34601,"is_reserved":false,"is_disabled":false,"rental_uris":{"android":"levelo://app?vid=8e2981d0-7056-481f-8585-5b3ecb4b783a","ios":"levelo://app?vid=8e2981d0-7056-481f-8585-5b3ecb4b783a"},"vehicle_type_id":"4","last_reported":1777228586,"current_range_meters":6800,"station_id":"st_cvj6r9ubvosntc0bgbag","pricing_plan_id":"cebpf4jnsgd1na2vs0mg"},{"bike_id":"c0a4868f-c526-458a-91c9-e3ad620fe2b3","system_id":"levelo_inurba_marseille","lat":43.26942,"lon":5.40249,"is_reserved":false,"is_disabled":false,"rental_uris":{"android":"levelo://app?vid=c0a4868f-c526-458a-91c9-e3ad620fe2b3","ios":"levelo://app?vid=c0a4868f-c526-458a-91c9-e3ad620fe2b3"},"vehicle_type_id":"4","last_reported":1777228586,"current_range_meters":6800,"station_id":"cjm6bp8fraef2m0cb0m0","pricing_plan_id":"cebpf4jnsgd1na2vs0mg"},{"bike_id":"fb350924-3b39-4197-a891-8208914eef37","system_id":"levelo_inurba_marseille","lat":43.24818,"lon":5.3744,"is_reserved":false,"is_disabled":false,"rental_uris":{"android":"levelo://app?vid=fb350924-3b39-4197-a891-8208914eef37","ios":"levelo://app?vid=fb350924-3b39-4197-a891-8208914eef37"},"vehicle_type_id":"4","last_reported":1777228586,"current_range_meters":6800,"station_id":"ce4bhgh2rcd13ifvqfb0","pricing_plan_id":"cebpf4jnsgd1na2vs0mg"},{"bike_id":"5c63a3a7-16b2-4ef9-bea3-2e7ad948ae2e","system_id":"levelo_inurba_marseille","lat":43.29198,"lon":5.39338,"is_reserved":false,"is_disabled":false,"rental_uris":{"android":"levelo://app?vid=5c63a3a7-16b2-4ef9-bea3-2e7ad948ae2e","ios":"levelo://app?vid=5c63a3a7-16b2-4ef9-bea3-2e7ad948ae2e"},"vehicle_type_id":"4","last_reported":1777228586,"current_range_meters":6800,"station_id":"ce4bh192rcd13ifvqdd0","pricing_plan_id":"cebpf4jnsgd1na2vs0mg"},{"bike_id":"79356ca7-2f4b-4e24-8276-c6cfdb960e80","system_id":"levelo_inurba_marseille","lat":43.29267,"lon":5.38435,"is_reserved":false,"is_disabled":false,"rental_uris":{"android":"levelo://app?vid=79356ca7-2f4b-4e24-8276-c6cfdb960e80","ios":"levelo://app?vid=79356ca7-2f4b-4e24-8276-c6cfdb960e80"},"vehicle_type_id":"4","last_reported":1777228586,"current_range_meters":6800,"station_id":"ce4bh692rcd13ifvqea0","pricing_plan_id":"cebpf4jnsgd1na2vs0mg"},{"bike_id":"26a62a61-8e4f-40f3-95ea-efd724fad07c","system_id":"levelo_inurba_marseille","lat":43.26948,"lon":5.40263,"is_reserved":false,"is_disabled":false,"rental_uris":{"android":"levelo://app?vid=26a62a61-8e4f-40f3-95ea-efd724fad07c","ios":"levelo://app?vid=26a62a61-8e4f-40f3-95ea-efd724fad07c"},"vehicle_type_id":"4","last_reported":1777228586,"current_range_meters":6800,"station_id":"cjm6bp8fraef2m0cb0m0","pricing_plan_id":"cebpf4jnsgd1na2vs0mg"},{"bike_id":"cea31a32-5e3a-46c4-9d32-5011edfbb303","system_id":"levelo_inurba_marseille","lat":43.337444,"lon":5.374475,"is_reserved":false,"is_disabled":true,"rental_uris":{"android":"levelo://app?vid=cea31a32-5e3a-46c4-9d32-5011edfbb303","ios":"levelo://app?vid=cea31a32-5e3a-46c4-9d32-5011edfbb303"},"vehicle_type_id":"4","last_reported":1777228586,"current_range_meters":7200,"station_id":"","pricing_plan_id":"cebpf4jnsgd1na2vs0mg"},{"bike_id":"4b43a537-0025-4181-b3f0-3f1fa031f295","system_id":"levelo_inurba_marseille","lat":43.24374,"lon":5.37074,"is_reserved":false,"is_disabled":false,"rental_uris":{"android":"levelo://app?vid=4b43a537-0025-4181-b3f0-3f1fa031f295","ios":"levelo://app?vid=4b43a537-0025-4181-b3f0-3f1fa031f295"},"vehicle_type_id":"4","last_reported":1777228586,"current_range_meters":7200,"station_id":"ce4bhhh2rcd13ifvqfk0","pricing_plan_id":"cebpf4jnsgd1na2vs0mg"},{"bike_id":"cbbe7a27-c2ca-4f4a-bd52-4be8bcdcc40d","system_id":"levelo_inurba_marseille","lat":43.24167,"lon":5.364,"is_reserved":false,"is_disabled":false,"rental_uris":{"android":"levelo://app?vid=cbbe7a27-c2ca-4f4a-bd52-4be8bcdcc40d","ios":"levelo://app?vid=cbbe7a27-c2ca-4f4a-bd52-4be8bcdcc40d"},"vehicle_type_id":"4","last_reported":1777228586,"current_range_meters":7200,"station_id":"cpo36qri1sfpv3e86is0","pricing_plan_id":"cebpf4jnsgd1na2vs0mg"},{"bike_id":"d84dad1f-3355-427c-a81e-a3f872caa973","system_id":"levelo_inurba_marseille","lat":43.28705,"lon":5.46682,"is_reserved":false,"is_disabled":false,"rental_uris":{"android":"levelo://app?vid=d84dad1f-3355-427c-a81e-a3f872caa973","ios":"levelo://app?vid=d84dad1f-3355-427c-a81e-a3f872caa973"},"vehicle_type_id":"4","last_reported":1777228586,"current_range_meters":7200,"station_id":"st_d6tc3vkotcvc738tfjhg","pricing_plan_id":"cebpf4jnsgd1na2vs0mg"},{"bike_id":"e71479ac-2c75-4920-9d3c-08826be0b2df","system_id":"levelo_inurba_marseille","lat":43.28861,"lon":5.42517,"is_reserved":false,"is_disabled":false,"rental_uris":{"android":"levelo://app?vid=e71479ac-2c75-4920-9d3c-08826be0b2df","ios":"levelo://app?vid=e71479ac-2c75-4920-9d3c-08826be0b2df"},"vehicle_type_id":"4","last_reported":1777228586,"current_range_meters":7200,"station_id":"st_d3b462108ojc7389ooeg","pricing_plan_id":"cebpf4jnsgd1na2vs0mg"},{"bike_id":"274b41c4-8b16-47b0-9c85-d9e012646b67","system_id":"levelo_inurba_marseille","lat":43.22924,"lon":5.35388,"is_reserved":false,"is_disabled":true,"rental_uris":{"android":"levelo://app?vid=274b41c4-8b16-47b0-9c85-d9e012646b67","ios":"levelo://app?vid=274b41c4-8b16-47b0-9c85-d9e012646b67"},"vehicle_type_id":"4","last_reported":1777228586,"current_range_meters":7200,"station_id":"cpo3532slgdg3j2ikp40","pricing_plan_id":"cebpf4jnsgd1na2vs0mg"},{"bike_id":"5c180de8-9c17-4b87-a3cf-6c2cc4bfc770","system_id":"levelo_inurba_marseille","lat":43.28403,"lon":5.37535,"is_reserved":false,"is_disabled":false,"rental_uris":{"android":"levelo://app?vid=5c180de8-9c17-4b87-a3cf-6c2cc4bfc770","ios":"levelo://app?vid=5c180de8-9c17-4b87-a3cf-6c2cc4bfc770"},"vehicle_type_id":"4","last_reported":1777228586,"current_range_meters":7200,"station_id":"ce4bh412rcd13ifvqds0","pricing_plan_id":"cebpf4jnsgd1na2vs0mg"},{"bike_id":"86f3ae69-36df-4923-b66a-d63c3866a431","system_id":"levelo_inurba_marseille","lat":43.27212,"lon":5.39175,"is_reserved":false,"is_disabled":false,"rental_uris":{"android":"levelo://app?vid=86f3ae69-36df-4923-b66a-d63c3866a431","ios":"levelo://app?vid=86f3ae69-36df-4923-b66a-d63c3866a431"},"vehicle_type_id":"4","last_reported":1777228586,"current_range_meters":7200,"station_id":"ce4bhhp2rcd13ifvqfm0","pricing_plan_id":"cebpf4jnsgd1na2vs0mg"},{"bike_id":"6c03a756-6268-4631-a1f0-4d7b6ab3b005","system_id":"levelo_inurba_marseille","lat":43.26032,"lon":5.39407,"is_reserved":false,"is_disabled":false,"rental_uris":{"android":"levelo://app?vid=6c03a756-6268-4631-a1f0-4d7b6ab3b005","ios":"levelo://app?vid=6c03a756-6268-4631-a1f0-4d7b6ab3b005"},"vehicle_type_id":"4","last_reported":1777228586,"current_range_meters":7200,"station_id":"ce4bhh92rcd13ifvqfj0","pricing_plan_id":"cebpf4jnsgd1na2vs0mg"},{"bike_id":"e840a571-96ca-4cbb-93d1-e65620535541","system_id":"levelo_inurba_marseille","lat":43.2791,"lon":5.38024,"is_reserved":false,"is_disabled":false,"rental_uris":{"android":"levelo://app?vid=e840a571-96ca-4cbb-93d1-e65620535541","ios":"levelo://app?vid=e840a571-96ca-4cbb-93d1-e65620535541"},"vehicle_type_id":"4","last_reported":1777228586,"current_range_meters":7200,"station_id":"ce4bhf92rcd13ifvqf50","pricing_plan_id":"cebpf4jnsgd1na2vs0mg"},{"bike_id":"68f9c0d6-1611-40a6-8b31-d595f220d707","system_id":"levelo_inurba_marseille","lat":43.29523,"lon":5.38553,"is_reserved":false,"is_disabled":false,"rental_uris":{"android":"levelo://app?vid=68f9c0d6-1611-40a6-8b31-d595f220d707","ios":"levelo://app?vid=68f9c0d6-1611-40a6-8b31-d595f220d707"},"vehicle_type_id":"4","last_reported":1777228586,"current_range_meters":7200,"station_id":"ce4bgih2rcd13ifvqba0","pricing_plan_id":"cebpf4jnsgd1na2vs0mg"},{"bike_id":"d1063a8e-a667-4f9b-9166-4b2ea1244e5f","system_id":"levelo_inurba_marseille","lat":43.24805,"lon":5.37471,"is_reserved":false,"is_disabled":false,"rental_uris":{"android":"levelo://app?vid=d1063a8e-a667-4f9b-9166-4b2ea1244e5f","ios":"levelo://app?vid=d1063a8e-a667-4f9b-9166-4b2ea1244e5f"},"vehicle_type_id":"4","last_reported":1777228586,"current_range_meters":7200,"station_id":"ce4bhgh2rcd13ifvqfb0","pricing_plan_id":"cebpf4jnsgd1na2vs0mg"},{"bike_id":"a5d1c5f8-e551-41de-b7f3-a52119a1050b","system_id":"levelo_inurba_marseille","lat":43.27811,"lon":5.37452,"is_reserved":false,"is_disabled":false,"rental_uris":{"android":"levelo://app?vid=a5d1c5f8-e551-41de-b7f3-a52119a1050b","ios":"levelo://app?vid=a5d1c5f8-e551-41de-b7f3-a52119a1050b"},"vehicle_type_id":"4","last_reported":1777228586,"current_range_meters":7200,"station_id":"","pricing_plan_id":"cebpf4jnsgd1na2vs0mg"},{"bike_id":"aba10a28-ab99-42e6-9591-93c565de2b38","system_id":"levelo_inurba_marseille","lat":43.31285,"lon":5.40156,"is_reserved":false,"is_disabled":false,"rental_uris":{"android":"levelo://app?vid=aba10a28-ab99-42e6-9591-93c565de2b38","ios":"levelo://app?vid=aba10a28-ab99-42e6-9591-93c565de2b38"},"vehicle_type_id":"4","last_reported":1777228586,"current_range_meters":7200,"station_id":"ce4bh092rcd13ifvqd30","pricing_plan_id":"cebpf4jnsgd1na2vs0mg"},{"bike_id":"c6941364-0b3e-415d-827c-e48038694e60","system_id":"levelo_inurba_marseille","lat":43.30773,"lon":5.43514,"is_reserved":false,"is_disabled":false,"rental_uris":{"android":"levelo://app?vid=c6941364-0b3e-415d-827c-e48038694e60","ios":"levelo://app?vid=c6941364-0b3e-415d-827c-e48038694e60"},"vehicle_type_id":"4","last_reported":1777228586,"current_range_meters":7200,"station_id":"","pricing_plan_id":"cebpf4jnsgd1na2vs0mg"},{"bike_id":"020db429-7c6a-4786-a59b-3eb7a60f4963","system_id":"levelo_inurba_marseille","lat":43.23182,"lon":5.35586,"is_reserved":false,"is_disabled":false,"rental_uris":{"android":"levelo://app?vid=020db429-7c6a-4786-a59b-3eb7a60f4963","ios":"levelo://app?vid=020db429-7c6a-4786-a59b-3eb7a60f4963"},"vehicle_type_id":"4","last_reported":1777228586,"current_range_meters":7200,"station_id":"ce4bhu92rcd13ifvqi70","pricing_plan_id":"cebpf4jnsgd1na2vs0mg"},{"bike_id":"a9c9b59e-f5f3-4944-a037-c39e77a79245","system_id":"levelo_inurba_marseille","lat":43.27805,"lon":5.40723,"is_reserved":false,"is_disabled":false,"rental_uris":{"android":"levelo://app?vid=a9c9b59e-f5f3-4944-a037-c39e77a79245","ios":"levelo://app?vid=a9c9b59e-f5f3-4944-a037-c39e77a79245"},"vehicle_type_id":"4","last_reported":1777228586,"current_range_meters":7200,"station_id":"ce4bhnh2rcd13ifvqgtg","pricing_plan_id":"cebpf4jnsgd1na2vs0mg"},{"bike_id":"966ea3ca-3bc0-45fd-954d-e41f2d3d9c33","system_id":"levelo_inurba_marseille","lat":43.30329,"lon":5.40439,"is_reserved":false,"is_disabled":false,"rental_uris":{"android":"levelo://app?vid=966ea3ca-3bc0-45fd-954d-e41f2d3d9c33","ios":"levelo://app?vid=966ea3ca-3bc0-45fd-954d-e41f2d3d9c33"},"vehicle_type_id":"4","last_reported":1777228586,"current_range_meters":7200,"station_id":"ce4bh012rcd13ifvqd10","pricing_plan_id":"cebpf4jnsgd1na2vs0mg"},{"bike_id":"d66ee898-4db4-4ab1-b381-7922e6c7a4fe","system_id":"levelo_inurba_marseille","lat":43.28471,"lon":5.3587,"is_reserved":false,"is_disabled":false,"rental_uris":{"android":"levelo://app?vid=d66ee898-4db4-4ab1-b381-7922e6c7a4fe","ios":"levelo://app?vid=d66ee898-4db4-4ab1-b381-7922e6c7a4fe"},"vehicle_type_id":"4","last_reported":1777228586,"current_range_meters":7200,"station_id":"ce4bhah2rcd13ifvqei0","pricing_plan_id":"cebpf4jnsgd1na2vs0mg"},{"bike_id":"f7716b3d-5dc6-4c1f-94ea-dd8b69d23a22","system_id":"levelo_inurba_marseille","lat":43.27456,"lon":5.43538,"is_reserved":false,"is_disabled":false,"rental_uris":{"android":"levelo://app?vid=f7716b3d-5dc6-4c1f-94ea-dd8b69d23a22","ios":"levelo://app?vid=f7716b3d-5dc6-4c1f-94ea-dd8b69d23a22"},"vehicle_type_id":"4","last_reported":1777228586,"current_range_meters":7200,"station_id":"","pricing_plan_id":"cebpf4jnsgd1na2vs0mg"},{"bike_id":"df75676a-7c3f-4d29-80c0-260795f2c62d","system_id":"levelo_inurba_marseille","lat":43.27969,"lon":5.40791,"is_reserved":false,"is_disabled":false,"rental_uris":{"android":"levelo://app?vid=df75676a-7c3f-4d29-80c0-260795f2c62d","ios":"levelo://app?vid=df75676a-7c3f-4d29-80c0-260795f2c62d"},"vehicle_type_id":"4","last_reported":1777228586,"current_range_meters":8000,"station_id":"","pricing_plan_id":"cebpf4jnsgd1na2vs0mg"},{"bike_id":"10469253-b173-4145-92d2-201d7a14c54a","system_id":"levelo_inurba_marseille","lat":43.31474,"lon":5.37309,"is_reserved":false,"is_disabled":false,"rental_uris":{"android":"levelo://app?vid=10469253-b173-4145-92d2-201d7a14c54a","ios":"levelo://app?vid=10469253-b173-4145-92d2-201d7a14c54a"},"vehicle_type_id":"4","last_reported":1777228586,"current_range_meters":8000,"station_id":"ce4bgt12rcd13ifvqcd0","pricing_plan_id":"cebpf4jnsgd1na2vs0mg"},{"bike_id":"693187c9-d1ac-48bb-84c2-bbb24a6f4520","system_id":"levelo_inurba_marseille","lat":43.24661,"lon":5.38161,"is_reserved":false,"is_disabled":false,"rental_uris":{"android":"levelo://app?vid=693187c9-d1ac-48bb-84c2-bbb24a6f4520","ios":"levelo://app?vid=693187c9-d1ac-48bb-84c2-bbb24a6f4520"},"vehicle_type_id":"4","last_reported":1777228586,"current_range_meters":8000,"station_id":"ce4bhih2rcd13ifvqfr0","pricing_plan_id":"cebpf4jnsgd1na2vs0mg"},{"bike_id":"7917a9d5-4ac9-40bd-8834-5d3047c76c9d","system_id":"levelo_inurba_marseille","lat":43.32497,"lon":5.40755,"is_reserved":false,"is_disabled":false,"rental_uris":{"android":"levelo://app?vid=7917a9d5-4ac9-40bd-8834-5d3047c76c9d","ios":"levelo://app?vid=7917a9d5-4ac9-40bd-8834-5d3047c76c9d"},"vehicle_type_id":"4","last_reported":1777228586,"current_range_meters":8000,"station_id":"","pricing_plan_id":"cebpf4jnsgd1na2vs0mg"},{"bike_id":"2c7eb658-56be-4bb0-a636-8bca8812996a","system_id":"levelo_inurba_marseille","lat":43.30801,"lon":5.38151,"is_reserved":false,"is_disabled":false,"rental_uris":{"android":"levelo://app?vid=2c7eb658-56be-4bb0-a636-8bca8812996a","ios":"levelo://app?vid=2c7eb658-56be-4bb0-a636-8bca8812996a"},"vehicle_type_id":"4","last_reported":1777228586,"current_range_meters":8000,"station_id":"ce4bgt12rcd13ifvqce0","pricing_plan_id":"cebpf4jnsgd1na2vs0mg"},{"bike_id":"867e4efb-03e8-466f-a027-d873140a375d","system_id":"levelo_inurba_marseille","lat":43.24809,"lon":5.37448,"is_reserved":false,"is_disabled":false,"rental_uris":{"android":"levelo://app?vid=867e4efb-03e8-466f-a027-d873140a375d","ios":"levelo://app?vid=867e4efb-03e8-466f-a027-d873140a375d"},"vehicle_type_id":"4","last_reported":1777228586,"current_range_meters":8000,"station_id":"ce4bhgh2rcd13ifvqfb0","pricing_plan_id":"cebpf4jnsgd1na2vs0mg"},{"bike_id":"50fcb081-4b05-4355-adf3-07f022c0399c","system_id":"levelo_inurba_marseille","lat":43.30993,"lon":5.37913,"is_reserved":false,"is_disabled":false,"rental_uris":{"android":"levelo://app?vid=50fcb081-4b05-4355-adf3-07f022c0399c","ios":"levelo://app?vid=50fcb081-4b05-4355-adf3-07f022c0399c"},"vehicle_type_id":"4","last_reported":1777228586,"current_range_meters":8000,"station_id":"","pricing_plan_id":"cebpf4jnsgd1na2vs0mg"},{"bike_id":"6fefe45f-2e4d-4ce5-a9fc-a6bb1d77c1d3","system_id":"levelo_inurba_marseille","lat":43.28628,"lon":5.35081,"is_reserved":false,"is_disabled":false,"rental_uris":{"android":"levelo://app?vid=6fefe45f-2e4d-4ce5-a9fc-a6bb1d77c1d3","ios":"levelo://app?vid=6fefe45f-2e4d-4ce5-a9fc-a6bb1d77c1d3"},"vehicle_type_id":"4","last_reported":1777228586,"current_range_meters":8000,"station_id":"ce4bhch2rcd13ifvqeug","pricing_plan_id":"cebpf4jnsgd1na2vs0mg"},{"bike_id":"5354cf07-79ed-432a-b193-14addfafc2f9","system_id":"levelo_inurba_marseille","lat":43.24383,"lon":5.37037,"is_reserved":false,"is_disabled":false,"rental_uris":{"android":"levelo://app?vid=5354cf07-79ed-432a-b193-14addfafc2f9","ios":"levelo://app?vid=5354cf07-79ed-432a-b193-14addfafc2f9"},"vehicle_type_id":"4","last_reported":1777228586,"current_range_meters":8400,"station_id":"ce4bhhh2rcd13ifvqfk0","pricing_plan_id":"cebpf4jnsgd1na2vs0mg"},{"bike_id":"14b14885-8c32-4f55-a33f-c8c11b7f494d","system_id":"levelo_inurba_marseille","lat":43.29948,"lon":5.36561,"is_reserved":false,"is_disabled":false,"rental_uris":{"android":"levelo://app?vid=14b14885-8c32-4f55-a33f-c8c11b7f494d","ios":"levelo://app?vid=14b14885-8c32-4f55-a33f-c8c11b7f494d"},"vehicle_type_id":"4","last_reported":1777228586,"current_range_meters":8400,"station_id":"ce4bgm92rcd13ifvqbr0","pricing_plan_id":"cebpf4jnsgd1na2vs0mg"},{"bike_id":"5676b1df-3102-49f0-94ea-6bd037dc90c9","system_id":"levelo_inurba_marseille","lat":43.31109,"lon":5.38026,"is_reserved":false,"is_disabled":false,"rental_uris":{"android":"levelo://app?vid=5676b1df-3102-49f0-94ea-6bd037dc90c9","ios":"levelo://app?vid=5676b1df-3102-49f0-94ea-6bd037dc90c9"},"vehicle_type_id":"4","last_reported":1777228586,"current_range_meters":8400,"station_id":"","pricing_plan_id":"cebpf4jnsgd1na2vs0mg"},{"bike_id":"62ad1c8b-e25a-42d1-84b5-ecb60eb3c49b","system_id":"levelo_inurba_marseille","lat":43.29519,"lon":5.39019,"is_reserved":false,"is_disabled":false,"rental_uris":{"android":"levelo://app?vid=62ad1c8b-e25a-42d1-84b5-ecb60eb3c49b","ios":"levelo://app?vid=62ad1c8b-e25a-42d1-84b5-ecb60eb3c49b"},"vehicle_type_id":"4","last_reported":1777228586,"current_range_meters":8400,"station_id":"ce4bh3p2rcd13ifvqdp0","pricing_plan_id":"cebpf4jnsgd1na2vs0mg"},{"bike_id":"17f5223a-84d1-46d9-b55d-6a7e95a08bd7","system_id":"levelo_inurba_marseille","lat":43.24807,"lon":5.3746,"is_reserved":false,"is_disabled":false,"rental_uris":{"android":"levelo://app?vid=17f5223a-84d1-46d9-b55d-6a7e95a08bd7","ios":"levelo://app?vid=17f5223a-84d1-46d9-b55d-6a7e95a08bd7"},"vehicle_type_id":"4","last_reported":1777228586,"current_range_meters":8400,"station_id":"ce4bhgh2rcd13ifvqfb0","pricing_plan_id":"cebpf4jnsgd1na2vs0mg"},{"bike_id":"9cb6b50a-70f5-4298-9d89-0424cd34f280","system_id":"levelo_inurba_marseille","lat":43.29689,"lon":5.3729,"is_reserved":false,"is_disabled":false,"rental_uris":{"android":"levelo://app?vid=9cb6b50a-70f5-4298-9d89-0424cd34f280","ios":"levelo://app?vid=9cb6b50a-70f5-4298-9d89-0424cd34f280"},"vehicle_type_id":"4","last_reported":1777228586,"current_range_meters":8400,"station_id":"ce4bgk12rcd13ifvqbj0","pricing_plan_id":"cebpf4jnsgd1na2vs0mg"},{"bike_id":"0abb523f-836b-47ec-90b1-3359b1b477f0","system_id":"levelo_inurba_marseille","lat":43.28207,"lon":5.39045,"is_reserved":false,"is_disabled":false,"rental_uris":{"android":"levelo://app?vid=0abb523f-836b-47ec-90b1-3359b1b477f0","ios":"levelo://app?vid=0abb523f-836b-47ec-90b1-3359b1b477f0"},"vehicle_type_id":"4","last_reported":1777228586,"current_range_meters":8400,"station_id":"ce4bhn92rcd13ifvqgsg","pricing_plan_id":"cebpf4jnsgd1na2vs0mg"},{"bike_id":"c11d1808-32dc-4683-bc6f-c818ed8e14de","system_id":"levelo_inurba_marseille","lat":43.27494,"lon":5.42448,"is_reserved":false,"is_disabled":true,"rental_uris":{"android":"levelo://app?vid=c11d1808-32dc-4683-bc6f-c818ed8e14de","ios":"levelo://app?vid=c11d1808-32dc-4683-bc6f-c818ed8e14de"},"vehicle_type_id":"4","last_reported":1777228586,"current_range_meters":8400,"station_id":"ce4bhn92rcd13ifvqgrg","pricing_plan_id":"cebpf4jnsgd1na2vs0mg"},{"bike_id":"a9335f62-4c73-44b2-8914-e3f52e6941ca","system_id":"levelo_inurba_marseille","lat":43.32088,"lon":5.36765,"is_reserved":false,"is_disabled":false,"rental_uris":{"android":"levelo://app?vid=a9335f62-4c73-44b2-8914-e3f52e6941ca","ios":"levelo://app?vid=a9335f62-4c73-44b2-8914-e3f52e6941ca"},"vehicle_type_id":"4","last_reported":1777228586,"current_range_meters":8400,"station_id":"ce4bhrh2rcd13ifvqhug","pricing_plan_id":"cebpf4jnsgd1na2vs0mg"},{"bike_id":"b21748b2-fb24-4ee6-8e6a-c7c61264faec","system_id":"levelo_inurba_marseille","lat":43.2741,"lon":5.42219,"is_reserved":false,"is_disabled":false,"rental_uris":{"android":"levelo://app?vid=b21748b2-fb24-4ee6-8e6a-c7c61264faec","ios":"levelo://app?vid=b21748b2-fb24-4ee6-8e6a-c7c61264faec"},"vehicle_type_id":"4","last_reported":1777228586,"current_range_meters":8400,"station_id":"","pricing_plan_id":"cebpf4jnsgd1na2vs0mg"},{"bike_id":"1f13452b-ac27-48ca-bbd2-1255b0865067","system_id":"levelo_inurba_marseille","lat":43.27827,"lon":5.37943,"is_reserved":false,"is_disabled":false,"rental_uris":{"android":"levelo://app?vid=1f13452b-ac27-48ca-bbd2-1255b0865067","ios":"levelo://app?vid=1f13452b-ac27-48ca-bbd2-1255b0865067"},"vehicle_type_id":"4","last_reported":1777228586,"current_range_meters":8400,"station_id":"","pricing_plan_id":"cebpf4jnsgd1na2vs0mg"},{"bike_id":"ed50bd1e-73df-4913-b070-8849116a1699","system_id":"levelo_inurba_marseille","lat":43.2705,"lon":5.40254,"is_reserved":false,"is_disabled":false,"rental_uris":{"android":"levelo://app?vid=ed50bd1e-73df-4913-b070-8849116a1699","ios":"levelo://app?vid=ed50bd1e-73df-4913-b070-8849116a1699"},"vehicle_type_id":"4","last_reported":1777228586,"current_range_meters":8400,"station_id":"ce4bhk92rcd13ifvqgc0","pricing_plan_id":"cebpf4jnsgd1na2vs0mg"},{"bike_id":"93378c7e-8a33-4e07-ab2a-fc9cc927fe7a","system_id":"levelo_inurba_marseille","lat":43.28857,"lon":5.3933,"is_reserved":false,"is_disabled":true,"rental_uris":{"android":"levelo://app?vid=93378c7e-8a33-4e07-ab2a-fc9cc927fe7a","ios":"levelo://app?vid=93378c7e-8a33-4e07-ab2a-fc9cc927fe7a"},"vehicle_type_id":"4","last_reported":1777228586,"current_range_meters":8400,"station_id":"ce4bh2p2rcd13ifvqdi0","pricing_plan_id":"cebpf4jnsgd1na2vs0mg"},{"bike_id":"45ad3698-f963-49f1-aa17-0b5d4c726722","system_id":"levelo_inurba_marseille","lat":43.28706,"lon":5.37383,"is_reserved":false,"is_disabled":false,"rental_uris":{"android":"levelo://app?vid=45ad3698-f963-49f1-aa17-0b5d4c726722","ios":"levelo://app?vid=45ad3698-f963-49f1-aa17-0b5d4c726722"},"vehicle_type_id":"4","last_reported":1777228586,"current_range_meters":8400,"station_id":"ce4bh3p2rcd13ifvqdq0","pricing_plan_id":"cebpf4jnsgd1na2vs0mg"},{"bike_id":"cadfa63b-4f9a-4fdd-9cfc-eea769369763","system_id":"levelo_inurba_marseille","lat":43.27331,"lon":5.39081,"is_reserved":false,"is_disabled":false,"rental_uris":{"android":"levelo://app?vid=cadfa63b-4f9a-4fdd-9cfc-eea769369763","ios":"levelo://app?vid=cadfa63b-4f9a-4fdd-9cfc-eea769369763"},"vehicle_type_id":"4","last_reported":1777228586,"current_range_meters":8400,"station_id":"ce4bhgp2rcd13ifvqfe0","pricing_plan_id":"cebpf4jnsgd1na2vs0mg"},{"bike_id":"93b5e1b7-f284-427d-9005-f9bbcfa3b3b9","system_id":"levelo_inurba_marseille","lat":43.30302,"lon":5.39211,"is_reserved":false,"is_disabled":false,"rental_uris":{"android":"levelo://app?vid=93b5e1b7-f284-427d-9005-f9bbcfa3b3b9","ios":"levelo://app?vid=93b5e1b7-f284-427d-9005-f9bbcfa3b3b9"},"vehicle_type_id":"4","last_reported":1777228586,"current_range_meters":8400,"station_id":"ce4bgkh2rcd13ifvqbk0","pricing_plan_id":"cebpf4jnsgd1na2vs0mg"},{"bike_id":"ab4dc57e-2c8f-4931-8578-a657de2b4d9b","system_id":"levelo_inurba_marseille","lat":43.28224,"lon":5.39061,"is_reserved":false,"is_disabled":false,"rental_uris":{"android":"levelo://app?vid=ab4dc57e-2c8f-4931-8578-a657de2b4d9b","ios":"levelo://app?vid=ab4dc57e-2c8f-4931-8578-a657de2b4d9b"},"vehicle_type_id":"4","last_reported":1777228586,"current_range_meters":8400,"station_id":"ce4bhn92rcd13ifvqgsg","pricing_plan_id":"cebpf4jnsgd1na2vs0mg"},{"bike_id":"e623dd24-d846-491e-b229-24474aeef43c","system_id":"levelo_inurba_marseille","lat":43.271113,"lon":5.403241,"is_reserved":false,"is_disabled":false,"rental_uris":{"android":"levelo://app?vid=e623dd24-d846-491e-b229-24474aeef43c","ios":"levelo://app?vid=e623dd24-d846-491e-b229-24474aeef43c"},"vehicle_type_id":"4","last_reported":1777228586,"current_range_meters":8400,"station_id":"ce4bhk92rcd13ifvqgc0","pricing_plan_id":"cebpf4jnsgd1na2vs0mg"},{"bike_id":"6fab8256-fd92-4502-a683-8e857c80f247","system_id":"levelo_inurba_marseille","lat":43.27491,"lon":5.42446,"is_reserved":false,"is_disabled":false,"rental_uris":{"android":"levelo://app?vid=6fab8256-fd92-4502-a683-8e857c80f247","ios":"levelo://app?vid=6fab8256-fd92-4502-a683-8e857c80f247"},"vehicle_type_id":"4","last_reported":1777228586,"current_range_meters":8400,"station_id":"ce4bhn92rcd13ifvqgrg","pricing_plan_id":"cebpf4jnsgd1na2vs0mg"},{"bike_id":"2e734499-6f00-499b-90dc-b3f3e3caf0ee","system_id":"levelo_inurba_marseille","lat":43.28926,"lon":5.38416,"is_reserved":false,"is_disabled":true,"rental_uris":{"android":"levelo://app?vid=2e734499-6f00-499b-90dc-b3f3e3caf0ee","ios":"levelo://app?vid=2e734499-6f00-499b-90dc-b3f3e3caf0ee"},"vehicle_type_id":"4","last_reported":1777228586,"current_range_meters":8400,"station_id":"ce4bh612rcd13ifvqe6g","pricing_plan_id":"cebpf4jnsgd1na2vs0mg"},{"bike_id":"b0d1542f-ae83-401a-9325-7ee9c286dcea","system_id":"levelo_inurba_marseille","lat":43.29532,"lon":5.38549,"is_reserved":false,"is_disabled":false,"rental_uris":{"android":"levelo://app?vid=b0d1542f-ae83-401a-9325-7ee9c286dcea","ios":"levelo://app?vid=b0d1542f-ae83-401a-9325-7ee9c286dcea"},"vehicle_type_id":"4","last_reported":1777228586,"current_range_meters":8400,"station_id":"ce4bgih2rcd13ifvqba0","pricing_plan_id":"cebpf4jnsgd1na2vs0mg"},{"bike_id":"a62bb2ae-386e-4df3-bc27-8323a5f6a5b8","system_id":"levelo_inurba_marseille","lat":43.28467,"lon":5.35873,"is_reserved":false,"is_disabled":false,"rental_uris":{"android":"levelo://app?vid=a62bb2ae-386e-4df3-bc27-8323a5f6a5b8","ios":"levelo://app?vid=a62bb2ae-386e-4df3-bc27-8323a5f6a5b8"},"vehicle_type_id":"4","last_reported":1777228586,"current_range_meters":8400,"station_id":"ce4bhah2rcd13ifvqei0","pricing_plan_id":"cebpf4jnsgd1na2vs0mg"},{"bike_id":"0ac6fe75-176f-47ca-97df-dc3691075e50","system_id":"levelo_inurba_marseille","lat":43.24805,"lon":5.37464,"is_reserved":false,"is_disabled":false,"rental_uris":{"android":"levelo://app?vid=0ac6fe75-176f-47ca-97df-dc3691075e50","ios":"levelo://app?vid=0ac6fe75-176f-47ca-97df-dc3691075e50"},"vehicle_type_id":"4","last_reported":1777228586,"current_range_meters":8400,"station_id":"ce4bhgh2rcd13ifvqfb0","pricing_plan_id":"cebpf4jnsgd1na2vs0mg"},{"bike_id":"87e1b3e7-199e-4640-b442-2f3f89ce5db1","system_id":"levelo_inurba_marseille","lat":43.24809,"lon":5.37456,"is_reserved":false,"is_disabled":false,"rental_uris":{"android":"levelo://app?vid=87e1b3e7-199e-4640-b442-2f3f89ce5db1","ios":"levelo://app?vid=87e1b3e7-199e-4640-b442-2f3f89ce5db1"},"vehicle_type_id":"4","last_reported":1777228586,"current_range_meters":8800,"station_id":"ce4bhgh2rcd13ifvqfb0","pricing_plan_id":"cebpf4jnsgd1na2vs0mg"},{"bike_id":"c5e4557e-a579-4ba0-b540-76be6c2c51d2","system_id":"levelo_inurba_marseille","lat":43.26935,"lon":5.40273,"is_reserved":false,"is_disabled":true,"rental_uris":{"android":"levelo://app?vid=c5e4557e-a579-4ba0-b540-76be6c2c51d2","ios":"levelo://app?vid=c5e4557e-a579-4ba0-b540-76be6c2c51d2"},"vehicle_type_id":"4","last_reported":1777228586,"current_range_meters":8800,"station_id":"cjm6bp8fraef2m0cb0m0","pricing_plan_id":"cebpf4jnsgd1na2vs0mg"},{"bike_id":"32d8062d-b01e-46bc-92b9-65d5fbd8fc06","system_id":"levelo_inurba_marseille","lat":43.23956,"lon":5.36611,"is_reserved":false,"is_disabled":false,"rental_uris":{"android":"levelo://app?vid=32d8062d-b01e-46bc-92b9-65d5fbd8fc06","ios":"levelo://app?vid=32d8062d-b01e-46bc-92b9-65d5fbd8fc06"},"vehicle_type_id":"4","last_reported":1777228586,"current_range_meters":8800,"station_id":"ce4bhi12rcd13ifvqfp0","pricing_plan_id":"cebpf4jnsgd1na2vs0mg"},{"bike_id":"1fb0d201-1f56-4523-b307-08a30b23c19f","system_id":"levelo_inurba_marseille","lat":43.26796,"lon":5.40255,"is_reserved":false,"is_disabled":false,"rental_uris":{"android":"levelo://app?vid=1fb0d201-1f56-4523-b307-08a30b23c19f","ios":"levelo://app?vid=1fb0d201-1f56-4523-b307-08a30b23c19f"},"vehicle_type_id":"4","last_reported":1777228586,"current_range_meters":8800,"station_id":"ce501612rcd8frsf0b60","pricing_plan_id":"cebpf4jnsgd1na2vs0mg"},{"bike_id":"2881562f-5e49-4315-80bf-dc8fd103d061","system_id":"levelo_inurba_marseille","lat":43.21195,"lon":5.35066,"is_reserved":false,"is_disabled":false,"rental_uris":{"android":"levelo://app?vid=2881562f-5e49-4315-80bf-dc8fd103d061","ios":"levelo://app?vid=2881562f-5e49-4315-80bf-dc8fd103d061"},"vehicle_type_id":"4","last_reported":1777228586,"current_range_meters":8800,"station_id":"st_cvj6sg6p6f1abm77japg","pricing_plan_id":"cebpf4jnsgd1na2vs0mg"},{"bike_id":"1dbbb389-5931-4d64-b29b-02449b2d67dc","system_id":"levelo_inurba_marseille","lat":43.24465,"lon":5.42544,"is_reserved":false,"is_disabled":false,"rental_uris":{"android":"levelo://app?vid=1dbbb389-5931-4d64-b29b-02449b2d67dc","ios":"levelo://app?vid=1dbbb389-5931-4d64-b29b-02449b2d67dc"},"vehicle_type_id":"4","last_reported":1777228586,"current_range_meters":8800,"station_id":"st_d4a3vfp97mjs738cd8kg","pricing_plan_id":"cebpf4jnsgd1na2vs0mg"},{"bike_id":"a17a356a-6340-4eae-b4d5-d59f3247dda3","system_id":"levelo_inurba_marseille","lat":43.25976,"lon":5.39239,"is_reserved":false,"is_disabled":false,"rental_uris":{"android":"levelo://app?vid=a17a356a-6340-4eae-b4d5-d59f3247dda3","ios":"levelo://app?vid=a17a356a-6340-4eae-b4d5-d59f3247dda3"},"vehicle_type_id":"4","last_reported":1777228586,"current_range_meters":8800,"station_id":"","pricing_plan_id":"cebpf4jnsgd1na2vs0mg"},{"bike_id":"3ef59291-4a20-4def-9a1d-d46bb2f5a32e","system_id":"levelo_inurba_marseille","lat":43.27211,"lon":5.39169,"is_reserved":false,"is_disabled":false,"rental_uris":{"android":"levelo://app?vid=3ef59291-4a20-4def-9a1d-d46bb2f5a32e","ios":"levelo://app?vid=3ef59291-4a20-4def-9a1d-d46bb2f5a32e"},"vehicle_type_id":"4","last_reported":1777228586,"current_range_meters":8800,"station_id":"ce4bhhp2rcd13ifvqfm0","pricing_plan_id":"cebpf4jnsgd1na2vs0mg"},{"bike_id":"6b5b9e45-67f3-4a64-a294-ead66e30dbef","system_id":"levelo_inurba_marseille","lat":43.24681,"lon":5.38169,"is_reserved":false,"is_disabled":false,"rental_uris":{"android":"levelo://app?vid=6b5b9e45-67f3-4a64-a294-ead66e30dbef","ios":"levelo://app?vid=6b5b9e45-67f3-4a64-a294-ead66e30dbef"},"vehicle_type_id":"4","last_reported":1777228586,"current_range_meters":8800,"station_id":"ce4bhih2rcd13ifvqfr0","pricing_plan_id":"cebpf4jnsgd1na2vs0mg"},{"bike_id":"11effbb2-3489-4e85-aec9-0e018fcdcc03","system_id":"levelo_inurba_marseille","lat":43.23197,"lon":5.35552,"is_reserved":false,"is_disabled":false,"rental_uris":{"android":"levelo://app?vid=11effbb2-3489-4e85-aec9-0e018fcdcc03","ios":"levelo://app?vid=11effbb2-3489-4e85-aec9-0e018fcdcc03"},"vehicle_type_id":"4","last_reported":1777228586,"current_range_meters":8800,"station_id":"ce4bhu92rcd13ifvqi70","pricing_plan_id":"cebpf4jnsgd1na2vs0mg"},{"bike_id":"0a0295d5-401a-407e-8d35-a7733c294380","system_id":"levelo_inurba_marseille","lat":43.29612,"lon":5.37716,"is_reserved":false,"is_disabled":false,"rental_uris":{"android":"levelo://app?vid=0a0295d5-401a-407e-8d35-a7733c294380","ios":"levelo://app?vid=0a0295d5-401a-407e-8d35-a7733c294380"},"vehicle_type_id":"4","last_reported":1777228586,"current_range_meters":8800,"station_id":"ce4bgi92rcd13ifvqb90","pricing_plan_id":"cebpf4jnsgd1na2vs0mg"},{"bike_id":"2725b0c0-a653-43ae-bc24-ce0141576499","system_id":"levelo_inurba_marseille","lat":43.30106,"lon":5.43122,"is_reserved":false,"is_disabled":false,"rental_uris":{"android":"levelo://app?vid=2725b0c0-a653-43ae-bc24-ce0141576499","ios":"levelo://app?vid=2725b0c0-a653-43ae-bc24-ce0141576499"},"vehicle_type_id":"4","last_reported":1777228586,"current_range_meters":8800,"station_id":"st_d3js3co5814s73ftftug","pricing_plan_id":"cebpf4jnsgd1na2vs0mg"},{"bike_id":"2bd3c802-b867-4b04-8100-a72cfaef4ab3","system_id":"levelo_inurba_marseille","lat":43.30298,"lon":5.39205,"is_reserved":false,"is_disabled":false,"rental_uris":{"android":"levelo://app?vid=2bd3c802-b867-4b04-8100-a72cfaef4ab3","ios":"levelo://app?vid=2bd3c802-b867-4b04-8100-a72cfaef4ab3"},"vehicle_type_id":"4","last_reported":1777228586,"current_range_meters":8800,"station_id":"ce4bgkh2rcd13ifvqbk0","pricing_plan_id":"cebpf4jnsgd1na2vs0mg"},{"bike_id":"ec26a35a-8831-4ae7-8210-08cdd9bc6de1","system_id":"levelo_inurba_marseille","lat":43.26917,"lon":5.40267,"is_reserved":false,"is_disabled":false,"rental_uris":{"android":"levelo://app?vid=ec26a35a-8831-4ae7-8210-08cdd9bc6de1","ios":"levelo://app?vid=ec26a35a-8831-4ae7-8210-08cdd9bc6de1"},"vehicle_type_id":"4","last_reported":1777228586,"current_range_meters":8800,"station_id":"cjm6bp8fraef2m0cb0m0","pricing_plan_id":"cebpf4jnsgd1na2vs0mg"},{"bike_id":"dcae5f54-9616-4375-a1d2-6e95ba4412ae","system_id":"levelo_inurba_marseille","lat":43.30114,"lon":5.39898,"is_reserved":false,"is_disabled":false,"rental_uris":{"android":"levelo://app?vid=dcae5f54-9616-4375-a1d2-6e95ba4412ae","ios":"levelo://app?vid=dcae5f54-9616-4375-a1d2-6e95ba4412ae"},"vehicle_type_id":"4","last_reported":1777228586,"current_range_meters":8800,"station_id":"ce4bh0h2rcd13ifvqd40","pricing_plan_id":"cebpf4jnsgd1na2vs0mg"},{"bike_id":"4fd39799-4ec0-453d-b9cf-72cb2a751a56","system_id":"levelo_inurba_marseille","lat":43.265645,"lon":5.403416,"is_reserved":false,"is_disabled":false,"rental_uris":{"android":"levelo://app?vid=4fd39799-4ec0-453d-b9cf-72cb2a751a56","ios":"levelo://app?vid=4fd39799-4ec0-453d-b9cf-72cb2a751a56"},"vehicle_type_id":"4","last_reported":1777228586,"current_range_meters":8800,"station_id":"ce4bhmp2rcd13ifvqgng","pricing_plan_id":"cebpf4jnsgd1na2vs0mg"},{"bike_id":"89361049-3250-43c7-bc2b-1605a651a9a7","system_id":"levelo_inurba_marseille","lat":43.29269,"lon":5.36011,"is_reserved":false,"is_disabled":false,"rental_uris":{"android":"levelo://app?vid=89361049-3250-43c7-bc2b-1605a651a9a7","ios":"levelo://app?vid=89361049-3250-43c7-bc2b-1605a651a9a7"},"vehicle_type_id":"4","last_reported":1777228586,"current_range_meters":8800,"station_id":"","pricing_plan_id":"cebpf4jnsgd1na2vs0mg"},{"bike_id":"e4946e49-98b0-4f2d-be30-0b4bdb9bcf3b","system_id":"levelo_inurba_marseille","lat":43.27209,"lon":5.39168,"is_reserved":false,"is_disabled":false,"rental_uris":{"android":"levelo://app?vid=e4946e49-98b0-4f2d-be30-0b4bdb9bcf3b","ios":"levelo://app?vid=e4946e49-98b0-4f2d-be30-0b4bdb9bcf3b"},"vehicle_type_id":"4","last_reported":1777228586,"current_range_meters":8800,"station_id":"ce4bhhp2rcd13ifvqfm0","pricing_plan_id":"cebpf4jnsgd1na2vs0mg"},{"bike_id":"fd583349-9e7d-4e5b-8155-1da1a7a44b99","system_id":"levelo_inurba_marseille","lat":43.27951,"lon":5.41052,"is_reserved":false,"is_disabled":false,"rental_uris":{"android":"levelo://app?vid=fd583349-9e7d-4e5b-8155-1da1a7a44b99","ios":"levelo://app?vid=fd583349-9e7d-4e5b-8155-1da1a7a44b99"},"vehicle_type_id":"4","last_reported":1777228586,"current_range_meters":8800,"station_id":"ce4bhnp2rcd13ifvqh0g","pricing_plan_id":"cebpf4jnsgd1na2vs0mg"},{"bike_id":"778fed07-6d1a-4419-8399-5fee9af0e8a1","system_id":"levelo_inurba_marseille","lat":43.31161,"lon":5.38725,"is_reserved":false,"is_disabled":false,"rental_uris":{"android":"levelo://app?vid=778fed07-6d1a-4419-8399-5fee9af0e8a1","ios":"levelo://app?vid=778fed07-6d1a-4419-8399-5fee9af0e8a1"},"vehicle_type_id":"4","last_reported":1777228586,"current_range_meters":8800,"station_id":"ce4bgv12rcd13ifvqcp0","pricing_plan_id":"cebpf4jnsgd1na2vs0mg"},{"bike_id":"4b49ab9b-eeca-4117-b1e9-4b53277a58b0","system_id":"levelo_inurba_marseille","lat":43.23203,"lon":5.35557,"is_reserved":false,"is_disabled":true,"rental_uris":{"android":"levelo://app?vid=4b49ab9b-eeca-4117-b1e9-4b53277a58b0","ios":"levelo://app?vid=4b49ab9b-eeca-4117-b1e9-4b53277a58b0"},"vehicle_type_id":"4","last_reported":1777228586,"current_range_meters":8800,"station_id":"ce4bhu92rcd13ifvqi70","pricing_plan_id":"cebpf4jnsgd1na2vs0mg"},{"bike_id":"ad5a2778-bacd-4c8a-99c6-a2913adad4f0","system_id":"levelo_inurba_marseille","lat":43.28468,"lon":5.35878,"is_reserved":false,"is_disabled":false,"rental_uris":{"android":"levelo://app?vid=ad5a2778-bacd-4c8a-99c6-a2913adad4f0","ios":"levelo://app?vid=ad5a2778-bacd-4c8a-99c6-a2913adad4f0"},"vehicle_type_id":"4","last_reported":1777228586,"current_range_meters":8800,"station_id":"ce4bhah2rcd13ifvqei0","pricing_plan_id":"cebpf4jnsgd1na2vs0mg"},{"bike_id":"1beb6fe0-dfbd-4c7e-9567-68613a8cfe03","system_id":"levelo_inurba_marseille","lat":43.28001,"lon":5.40013,"is_reserved":false,"is_disabled":false,"rental_uris":{"android":"levelo://app?vid=1beb6fe0-dfbd-4c7e-9567-68613a8cfe03","ios":"levelo://app?vid=1beb6fe0-dfbd-4c7e-9567-68613a8cfe03"},"vehicle_type_id":"4","last_reported":1777228586,"current_range_meters":8800,"station_id":"ce4bho92rcd13ifvqh4g","pricing_plan_id":"cebpf4jnsgd1na2vs0mg"},{"bike_id":"c2c987df-4f2d-4d97-b42c-47ba06d7f3a8","system_id":"levelo_inurba_marseille","lat":43.27206,"lon":5.39181,"is_reserved":false,"is_disabled":false,"rental_uris":{"android":"levelo://app?vid=c2c987df-4f2d-4d97-b42c-47ba06d7f3a8","ios":"levelo://app?vid=c2c987df-4f2d-4d97-b42c-47ba06d7f3a8"},"vehicle_type_id":"4","last_reported":1777228586,"current_range_meters":8800,"station_id":"ce4bhhp2rcd13ifvqfm0","pricing_plan_id":"cebpf4jnsgd1na2vs0mg"},{"bike_id":"2768b254-100f-4f21-93b4-59c9565aaf35","system_id":"levelo_inurba_marseille","lat":43.30175,"lon":5.39166,"is_reserved":false,"is_disabled":false,"rental_uris":{"android":"levelo://app?vid=2768b254-100f-4f21-93b4-59c9565aaf35","ios":"levelo://app?vid=2768b254-100f-4f21-93b4-59c9565aaf35"},"vehicle_type_id":"4","last_reported":1777228586,"current_range_meters":8800,"station_id":"","pricing_plan_id":"cebpf4jnsgd1na2vs0mg"},{"bike_id":"66f95a73-b8ac-4c58-b065-c87f47c3d13f","system_id":"levelo_inurba_marseille","lat":43.27834,"lon":5.39207,"is_reserved":false,"is_disabled":false,"rental_uris":{"android":"levelo://app?vid=66f95a73-b8ac-4c58-b065-c87f47c3d13f","ios":"levelo://app?vid=66f95a73-b8ac-4c58-b065-c87f47c3d13f"},"vehicle_type_id":"4","last_reported":1777228586,"current_range_meters":8800,"station_id":"ce4bhjp2rcd13ifvqga0","pricing_plan_id":"cebpf4jnsgd1na2vs0mg"},{"bike_id":"37609b3a-6bf3-408d-87fa-e62bec43221e","system_id":"levelo_inurba_marseille","lat":43.28851,"lon":5.39319,"is_reserved":false,"is_disabled":false,"rental_uris":{"android":"levelo://app?vid=37609b3a-6bf3-408d-87fa-e62bec43221e","ios":"levelo://app?vid=37609b3a-6bf3-408d-87fa-e62bec43221e"},"vehicle_type_id":"4","last_reported":1777228586,"current_range_meters":8800,"station_id":"ce4bh2p2rcd13ifvqdi0","pricing_plan_id":"cebpf4jnsgd1na2vs0mg"},{"bike_id":"7cb8622d-dfd6-42fd-acdd-5e347bbafa0a","system_id":"levelo_inurba_marseille","lat":43.27207,"lon":5.39169,"is_reserved":false,"is_disabled":false,"rental_uris":{"android":"levelo://app?vid=7cb8622d-dfd6-42fd-acdd-5e347bbafa0a","ios":"levelo://app?vid=7cb8622d-dfd6-42fd-acdd-5e347bbafa0a"},"vehicle_type_id":"4","last_reported":1777228586,"current_range_meters":8800,"station_id":"ce4bhhp2rcd13ifvqfm0","pricing_plan_id":"cebpf4jnsgd1na2vs0mg"},{"bike_id":"5b5126ef-4e2e-462e-a5f8-a3703f5a77be","system_id":"levelo_inurba_marseille","lat":43.27204,"lon":5.392,"is_reserved":false,"is_disabled":false,"rental_uris":{"android":"levelo://app?vid=5b5126ef-4e2e-462e-a5f8-a3703f5a77be","ios":"levelo://app?vid=5b5126ef-4e2e-462e-a5f8-a3703f5a77be"},"vehicle_type_id":"4","last_reported":1777228586,"current_range_meters":8800,"station_id":"ce4bhhp2rcd13ifvqfm0","pricing_plan_id":"cebpf4jnsgd1na2vs0mg"},{"bike_id":"58bc3e60-f18b-427c-b5e0-e156e759d6db","system_id":"levelo_inurba_marseille","lat":43.31346,"lon":5.36754,"is_reserved":false,"is_disabled":false,"rental_uris":{"android":"levelo://app?vid=58bc3e60-f18b-427c-b5e0-e156e759d6db","ios":"levelo://app?vid=58bc3e60-f18b-427c-b5e0-e156e759d6db"},