{"last_updated":1745338347,"ttl":60,"version":"2.2","data":{"bikes":[{"bike_id":"6529e4d2-1271-4f78-9eb3-3c71c1dd9c65","system_id":"levelo_inurba_marseille","lat":43.3116,"lon":5.38725,"is_reserved":false,"is_disabled":false,"rental_uris":{"android":"levelo://app?vid=6529e4d2-1271-4f78-9eb3-3c71c1dd9c65","ios":"levelo://app?vid=6529e4d2-1271-4f78-9eb3-3c71c1dd9c65"},"vehicle_type_id":"4","last_reported":1745338347,"current_range_meters":2800,"station_id":"ce4bgv12rcd13ifvqcp0","pricing_plan_id":"cebpf4jnsgd1na2vs0mg"},{"bike_id":"3b16de68-4eec-414d-858b-b17a9d21321a","system_id":"levelo_inurba_marseille","lat":43.29528,"lon":5.38538,"is_reserved":false,"is_disabled":false,"rental_uris":{"android":"levelo://app?vid=3b16de68-4eec-414d-858b-b17a9d21321a","ios":"levelo://app?vid=3b16de68-4eec-414d-858b-b17a9d21321a"},"vehicle_type_id":"4","last_reported":1745338347,"current_range_meters":2800,"station_id":"ce4bgih2rcd13ifvqba0","pricing_plan_id":"cebpf4jnsgd1na2vs0mg"},{"bike_id":"0e6d3021-7950-4821-b624-53f7a9e34041","system_id":"levelo_inurba_marseille","lat":43.31166,"lon":5.38715,"is_reserved":false,"is_disabled":false,"rental_uris":{"android":"levelo://app?vid=0e6d3021-7950-4821-b624-53f7a9e34041","ios":"levelo://app?vid=0e6d3021-7950-4821-b624-53f7a9e34041"},"vehicle_type_id":"4","last_reported":1745338347,"current_range_meters":2000,"station_id":"ce4bgv12rcd13ifvqcp0","pricing_plan_id":"cebpf4jnsgd1na2vs0mg"},{"bike_id":"209832d7-6167-43d4-ba13-887e4d1d7ead","system_id":"levelo_inurba_marseille","lat":43.29708,"lon":5.36608,"is_reserved":false,"is_disabled":false,"rental_uris":{"android":"levelo://app?vid=209832d7-6167-43d4-ba13-887e4d1d7ead","ios":"levelo://app?vid=209832d7-6167-43d4-ba13-887e4d1d7ead"},"vehicle_type_id":"4","last_reported":1745338347,"current_range_meters":2800,"station_id":"ce4bgn12rcd13ifvqbt0","pricing_plan_id":"cebpf4jnsgd1na2vs0mg"},{"bike_id":"2c5c818a-e981-4f44-9447-85415f20c07a","system_id":"levelo_inurba_marseille","lat":43.2893,"lon":5.38405,"is_reserved":false,"is_disabled":false,"rental_uris":{"android":"levelo://app?vid=2c5c818a-e981-4f44-9447-85415f20c07a","ios":"levelo://app?vid=2c5c818a-e981-4f44-9447-85415f20c07a"},"vehicle_type_id":"4","last_reported":1745338347,"current_range_meters":3200,"station_id":"ce4bh612rcd13ifvqe6g","pricing_plan_id":"cebpf4jnsgd1na2vs0mg"},{"bike_id":"d807ac27-0711-48f2-84a9-9777cd78a442","system_id":"levelo_inurba_marseille","lat":43.28401,"lon":5.3751,"is_reserved":false,"is_disabled":false,"rental_uris":{"android":"levelo://app?vid=d807ac27-0711-48f2-84a9-9777cd78a442","ios":"levelo://app?vid=d807ac27-0711-48f2-84a9-9777cd78a442"},"vehicle_type_id":"4","last_reported":1745338347,"current_range_meters":3200,"station_id":"ce4bh412rcd13ifvqds0","pricing_plan_id":"cebpf4jnsgd1na2vs0mg"},{"bike_id":"9f6feccd-dbb8-4a47-8e80-e6801f3503c3","system_id":"levelo_inurba_marseille","lat":43.28153,"lon":5.42648,"is_reserved":false,"is_disabled":false,"rental_uris":{"android":"levelo://app?vid=9f6feccd-dbb8-4a47-8e80-e6801f3503c3","ios":"levelo://app?vid=9f6feccd-dbb8-4a47-8e80-e6801f3503c3"},"vehicle_type_id":"4","last_reported":1745338347,"current_range_meters":3200,"station_id":"ce4bhnh2rcd13ifvqgug","pricing_plan_id":"cebpf4jnsgd1na2vs0mg"},{"bike_id":"acd41dd3-1a75-4843-9cde-36b1f55acd65","system_id":"levelo_inurba_marseille","lat":43.24656,"lon":5.38896,"is_reserved":false,"is_disabled":false,"rental_uris":{"android":"levelo://app?vid=acd41dd3-1a75-4843-9cde-36b1f55acd65","ios":"levelo://app?vid=acd41dd3-1a75-4843-9cde-36b1f55acd65"},"vehicle_type_id":"4","last_reported":1745338347,"current_range_meters":3200,"station_id":"ce4bhg12rcd13ifvqf60","pricing_plan_id":"cebpf4jnsgd1na2vs0mg"},{"bike_id":"08adba7b-eac3-4cfc-9923-2ccf0cc4ffef","system_id":"levelo_inurba_marseille","lat":43.24561,"lon":5.41289,"is_reserved":false,"is_disabled":false,"rental_uris":{"android":"levelo://app?vid=08adba7b-eac3-4cfc-9923-2ccf0cc4ffef","ios":"levelo://app?vid=08adba7b-eac3-4cfc-9923-2ccf0cc4ffef"},"vehicle_type_id":"4","last_reported":1745338347,"current_range_meters":3600,"station_id":"","pricing_plan_id":"cebpf4jnsgd1na2vs0mg"},{"bike_id":"c712a562-aa83-4b6a-a7b0-67fb4d6a7319","system_id":"levelo_inurba_marseille","lat":43.21201,"lon":5.35063,"is_reserved":false,"is_disabled":false,"rental_uris":{"android":"levelo://app?vid=c712a562-aa83-4b6a-a7b0-67fb4d6a7319","ios":"levelo://app?vid=c712a562-aa83-4b6a-a7b0-67fb4d6a7319"},"vehicle_type_id":"4","last_reported":1745338347,"current_range_meters":3600,"station_id":"st_cvj6sg6p6f1abm77japg","pricing_plan_id":"cebpf4jnsgd1na2vs0mg"},{"bike_id":"fba0d16c-0982-4c1a-ab2c-ce21ee419b48","system_id":"levelo_inurba_marseille","lat":43.285563,"lon":5.387033,"is_reserved":false,"is_disabled":false,"rental_uris":{"android":"levelo://app?vid=fba0d16c-0982-4c1a-ab2c-ce21ee419b48","ios":"levelo://app?vid=fba0d16c-0982-4c1a-ab2c-ce21ee419b48"},"vehicle_type_id":"4","last_reported":1745338347,"current_range_meters":4000,"station_id":"","pricing_plan_id":"cebpf4jnsgd1na2vs0mg"},{"bike_id":"4669cec0-45b4-4e7a-b650-df0417bb55ec","system_id":"levelo_inurba_marseille","lat":43.26226,"lon":5.40443,"is_reserved":false,"is_disabled":false,"rental_uris":{"android":"levelo://app?vid=4669cec0-45b4-4e7a-b650-df0417bb55ec","ios":"levelo://app?vid=4669cec0-45b4-4e7a-b650-df0417bb55ec"},"vehicle_type_id":"4","last_reported":1745338347,"current_range_meters":4000,"station_id":"ce4bhmh2rcd13ifvqgmg","pricing_plan_id":"cebpf4jnsgd1na2vs0mg"},{"bike_id":"33b717fd-4f5a-4fae-88ab-e3523f233bd7","system_id":"levelo_inurba_marseille","lat":43.30299,"lon":5.39211,"is_reserved":false,"is_disabled":false,"rental_uris":{"android":"levelo://app?vid=33b717fd-4f5a-4fae-88ab-e3523f233bd7","ios":"levelo://app?vid=33b717fd-4f5a-4fae-88ab-e3523f233bd7"},"vehicle_type_id":"4","last_reported":1745338347,"current_range_meters":4000,"station_id":"ce4bgkh2rcd13ifvqbk0","pricing_plan_id":"cebpf4jnsgd1na2vs0mg"},{"bike_id":"f7989a2c-2524-43ab-8d43-1425bf765192","system_id":"levelo_inurba_marseille","lat":43.26529,"lon":5.39538,"is_reserved":false,"is_disabled":false,"rental_uris":{"android":"levelo://app?vid=f7989a2c-2524-43ab-8d43-1425bf765192","ios":"levelo://app?vid=f7989a2c-2524-43ab-8d43-1425bf765192"},"vehicle_type_id":"4","last_reported":1745338347,"current_range_meters":4000,"station_id":"ce4bhi12rcd13ifvqfq0","pricing_plan_id":"cebpf4jnsgd1na2vs0mg"},{"bike_id":"0ef23631-dbd2-4c68-adc1-77243fd0c5dd","system_id":"levelo_inurba_marseille","lat":43.292757,"lon":5.385293,"is_reserved":false,"is_disabled":false,"rental_uris":{"android":"levelo://app?vid=0ef23631-dbd2-4c68-adc1-77243fd0c5dd","ios":"levelo://app?vid=0ef23631-dbd2-4c68-adc1-77243fd0c5dd"},"vehicle_type_id":"4","last_reported":1745338347,"current_range_meters":4000,"station_id":"","pricing_plan_id":"cebpf4jnsgd1na2vs0mg"},{"bike_id":"2e6df2f0-be76-418e-be9b-84987ca50899","system_id":"levelo_inurba_marseille","lat":43.286085,"lon":5.384724,"is_reserved":false,"is_disabled":false,"rental_uris":{"android":"levelo://app?vid=2e6df2f0-be76-418e-be9b-84987ca50899","ios":"levelo://app?vid=2e6df2f0-be76-418e-be9b-84987ca50899"},"vehicle_type_id":"4","last_reported":1745338347,"current_range_meters":4400,"station_id":"ce4bh492rcd13ifvqdug","pricing_plan_id":"cebpf4jnsgd1na2vs0mg"},{"bike_id":"1aecf763-d676-4b4b-94c3-29922c3fbfbf","system_id":"levelo_inurba_marseille","lat":43.28156,"lon":5.42644,"is_reserved":false,"is_disabled":false,"rental_uris":{"android":"levelo://app?vid=1aecf763-d676-4b4b-94c3-29922c3fbfbf","ios":"levelo://app?vid=1aecf763-d676-4b4b-94c3-29922c3fbfbf"},"vehicle_type_id":"4","last_reported":1745338347,"current_range_meters":4400,"station_id":"ce4bhnh2rcd13ifvqgug","pricing_plan_id":"cebpf4jnsgd1na2vs0mg"},{"bike_id":"db01c163-be66-4013-b592-d4233b240566","system_id":"levelo_inurba_marseille","lat":43.31328,"lon":5.39691,"is_reserved":false,"is_disabled":false,"rental_uris":{"android":"levelo://app?vid=db01c163-be66-4013-b592-d4233b240566","ios":"levelo://app?vid=db01c163-be66-4013-b592-d4233b240566"},"vehicle_type_id":"4","last_reported":1745338347,"current_range_meters":4000,"station_id":"ce4bgvp2rcd13ifvqcu0","pricing_plan_id":"cebpf4jnsgd1na2vs0mg"},{"bike_id":"cb33acc2-5eea-45c0-9b15-8f533d6ae3df","system_id":"levelo_inurba_marseille","lat":43.28545,"lon":5.38742,"is_reserved":false,"is_disabled":false,"rental_uris":{"android":"levelo://app?vid=cb33acc2-5eea-45c0-9b15-8f533d6ae3df","ios":"levelo://app?vid=cb33acc2-5eea-45c0-9b15-8f533d6ae3df"},"vehicle_type_id":"4","last_reported":1745338347,"current_range_meters":4400,"station_id":"","pricing_plan_id":"cebpf4jnsgd1na2vs0mg"},{"bike_id":"66dd1aaf-3d1a-44da-a06e-fbfbbbf20856","system_id":"levelo_inurba_marseille","lat":43.29686,"lon":5.37297,"is_reserved":false,"is_disabled":false,"rental_uris":{"android":"levelo://app?vid=66dd1aaf-3d1a-44da-a06e-fbfbbbf20856","ios":"levelo://app?vid=66dd1aaf-3d1a-44da-a06e-fbfbbbf20856"},"vehicle_type_id":"4","last_reported":1745338347,"current_range_meters":4400,"station_id":"ce4bgk12rcd13ifvqbj0","pricing_plan_id":"cebpf4jnsgd1na2vs0mg"},{"bike_id":"b7c8c71a-3595-4599-b9de-5087ecb58664","system_id":"levelo_inurba_marseille","lat":43.29581,"lon":5.36744,"is_reserved":false,"is_disabled":false,"rental_uris":{"android":"levelo://app?vid=b7c8c71a-3595-4599-b9de-5087ecb58664","ios":"levelo://app?vid=b7c8c71a-3595-4599-b9de-5087ecb58664"},"vehicle_type_id":"4","last_reported":1745338347,"current_range_meters":4400,"station_id":"ce4bgph2rcd13ifvqc2g","pricing_plan_id":"cebpf4jnsgd1na2vs0mg"},{"bike_id":"d5dbc1fe-638a-4679-bb13-a2a286d2b589","system_id":"levelo_inurba_marseille","lat":43.29522,"lon":5.3904,"is_reserved":false,"is_disabled":false,"rental_uris":{"android":"levelo://app?vid=d5dbc1fe-638a-4679-bb13-a2a286d2b589","ios":"levelo://app?vid=d5dbc1fe-638a-4679-bb13-a2a286d2b589"},"vehicle_type_id":"4","last_reported":1745338347,"current_range_meters":4800,"station_id":"ce4bh3p2rcd13ifvqdp0","pricing_plan_id":"cebpf4jnsgd1na2vs0mg"},{"bike_id":"39b7ee85-9cbf-4904-a10a-75042515f95d","system_id":"levelo_inurba_marseille","lat":43.36259,"lon":5.34746,"is_reserved":false,"is_disabled":false,"rental_uris":{"android":"levelo://app?vid=39b7ee85-9cbf-4904-a10a-75042515f95d","ios":"levelo://app?vid=39b7ee85-9cbf-4904-a10a-75042515f95d"},"vehicle_type_id":"4","last_reported":1745338347,"current_range_meters":4800,"station_id":"","pricing_plan_id":"cebpf4jnsgd1na2vs0mg"},{"bike_id":"e5ead0c3-5a64-41ce-abef-5d13dfd386d9","system_id":"levelo_inurba_marseille","lat":43.29879,"lon":5.38898,"is_reserved":false,"is_disabled":false,"rental_uris":{"android":"levelo://app?vid=e5ead0c3-5a64-41ce-abef-5d13dfd386d9","ios":"levelo://app?vid=e5ead0c3-5a64-41ce-abef-5d13dfd386d9"},"vehicle_type_id":"4","last_reported":1745338347,"current_range_meters":4400,"station_id":"ce4bh392rcd13ifvqdl0","pricing_plan_id":"cebpf4jnsgd1na2vs0mg"},{"bike_id":"33a3d86a-eee2-488d-9995-931aa7a24f13","system_id":"levelo_inurba_marseille","lat":43.2844,"lon":5.39182,"is_reserved":false,"is_disabled":false,"rental_uris":{"android":"levelo://app?vid=33a3d86a-eee2-488d-9995-931aa7a24f13","ios":"levelo://app?vid=33a3d86a-eee2-488d-9995-931aa7a24f13"},"vehicle_type_id":"4","last_reported":1745338347,"current_range_meters":4800,"station_id":"ce4bhoh2rcd13ifvqh5g","pricing_plan_id":"cebpf4jnsgd1na2vs0mg"},{"bike_id":"418a5a3a-70c4-4605-b5f8-1056f91002b4","system_id":"levelo_inurba_marseille","lat":43.30432,"lon":5.39742,"is_reserved":false,"is_disabled":false,"rental_uris":{"android":"levelo://app?vid=418a5a3a-70c4-4605-b5f8-1056f91002b4","ios":"levelo://app?vid=418a5a3a-70c4-4605-b5f8-1056f91002b4"},"vehicle_type_id":"4","last_reported":1745338347,"current_range_meters":4800,"station_id":"ce4bh092rcd13ifvqd20","pricing_plan_id":"cebpf4jnsgd1na2vs0mg"},{"bike_id":"9397a6bb-7010-489e-bda6-146bdeb4d6d1","system_id":"levelo_inurba_marseille","lat":43.281,"lon":5.37842,"is_reserved":false,"is_disabled":false,"rental_uris":{"android":"levelo://app?vid=9397a6bb-7010-489e-bda6-146bdeb4d6d1","ios":"levelo://app?vid=9397a6bb-7010-489e-bda6-146bdeb4d6d1"},"vehicle_type_id":"4","last_reported":1745338347,"current_range_meters":5600,"station_id":"ce4bha12rcd13ifvqee0","pricing_plan_id":"cebpf4jnsgd1na2vs0mg"},{"bike_id":"f63dda79-2eb2-491d-90d8-76ea5f92b932","system_id":"levelo_inurba_marseille","lat":43.28277,"lon":5.35083,"is_reserved":false,"is_disabled":false,"rental_uris":{"android":"levelo://app?vid=f63dda79-2eb2-491d-90d8-76ea5f92b932","ios":"levelo://app?vid=f63dda79-2eb2-491d-90d8-76ea5f92b932"},"vehicle_type_id":"4","last_reported":1745338347,"current_range_meters":5600,"station_id":"ce4bhbp2rcd13ifvqerg","pricing_plan_id":"cebpf4jnsgd1na2vs0mg"},{"bike_id":"1b647b22-1f02-4a34-8f99-8db5ae63f9bc","system_id":"levelo_inurba_marseille","lat":43.28153,"lon":5.42644,"is_reserved":false,"is_disabled":false,"rental_uris":{"android":"levelo://app?vid=1b647b22-1f02-4a34-8f99-8db5ae63f9bc","ios":"levelo://app?vid=1b647b22-1f02-4a34-8f99-8db5ae63f9bc"},"vehicle_type_id":"4","last_reported":1745338347,"current_range_meters":5600,"station_id":"ce4bhnh2rcd13ifvqgug","pricing_plan_id":"cebpf4jnsgd1na2vs0mg"},{"bike_id":"412c8200-3791-4688-8a64-2b8c184c5f37","system_id":"levelo_inurba_marseille","lat":43.24628,"lon":5.38899,"is_reserved":false,"is_disabled":false,"rental_uris":{"android":"levelo://app?vid=412c8200-3791-4688-8a64-2b8c184c5f37","ios":"levelo://app?vid=412c8200-3791-4688-8a64-2b8c184c5f37"},"vehicle_type_id":"4","last_reported":1745338347,"current_range_meters":5600,"station_id":"ce4bhg12rcd13ifvqf60","pricing_plan_id":"cebpf4jnsgd1na2vs0mg"},{"bike_id":"adadcfd5-6a71-41cb-9da3-007dc11086ee","system_id":"levelo_inurba_marseille","lat":43.30261,"lon":5.37779,"is_reserved":false,"is_disabled":false,"rental_uris":{"android":"levelo://app?vid=adadcfd5-6a71-41cb-9da3-007dc11086ee","ios":"levelo://app?vid=adadcfd5-6a71-41cb-9da3-007dc11086ee"},"vehicle_type_id":"4","last_reported":1745338347,"current_range_meters":5600,"station_id":"ce4bguh2rcd13ifvqcj0","pricing_plan_id":"cebpf4jnsgd1na2vs0mg"},{"bike_id":"bee77201-f98d-44e5-9e9c-8ab2cd84f845","system_id":"levelo_inurba_marseille","lat":43.30096,"lon":5.39078,"is_reserved":false,"is_disabled":false,"rental_uris":{"android":"levelo://app?vid=bee77201-f98d-44e5-9e9c-8ab2cd84f845","ios":"levelo://app?vid=bee77201-f98d-44e5-9e9c-8ab2cd84f845"},"vehicle_type_id":"4","last_reported":1745338347,"current_range_meters":6400,"station_id":"ce4bh192rcd13ifvqdb0","pricing_plan_id":"cebpf4jnsgd1na2vs0mg"},{"bike_id":"0d1964e3-cfd3-4892-a2a4-41ca9cc7cf7a","system_id":"levelo_inurba_marseille","lat":43.27555,"lon":5.38417,"is_reserved":false,"is_disabled":false,"rental_uris":{"android":"levelo://app?vid=0d1964e3-cfd3-4892-a2a4-41ca9cc7cf7a","ios":"levelo://app?vid=0d1964e3-cfd3-4892-a2a4-41ca9cc7cf7a"},"vehicle_type_id":"4","last_reported":1745338347,"current_range_meters":6400,"station_id":"ce4bhh92rcd13ifvqfi0","pricing_plan_id":"cebpf4jnsgd1na2vs0mg"},{"bike_id":"608fb35a-03bb-40b2-b451-8201330c8b99","system_id":"levelo_inurba_marseille","lat":43.289465,"lon":5.363917,"is_reserved":false,"is_disabled":false,"rental_uris":{"android":"levelo://app?vid=608fb35a-03bb-40b2-b451-8201330c8b99","ios":"levelo://app?vid=608fb35a-03bb-40b2-b451-8201330c8b99"},"vehicle_type_id":"4","last_reported":1745338347,"current_range_meters":6400,"station_id":"ce4bhc92rcd13ifvqetg","pricing_plan_id":"cebpf4jnsgd1na2vs0mg"},{"bike_id":"4c0a38e1-5dda-436d-8a43-f3521cd051d3","system_id":"levelo_inurba_marseille","lat":43.29536,"lon":5.38551,"is_reserved":false,"is_disabled":true,"rental_uris":{"android":"levelo://app?vid=4c0a38e1-5dda-436d-8a43-f3521cd051d3","ios":"levelo://app?vid=4c0a38e1-5dda-436d-8a43-f3521cd051d3"},"vehicle_type_id":"4","last_reported":1745338347,"current_range_meters":6800,"station_id":"ce4bgih2rcd13ifvqba0","pricing_plan_id":"cebpf4jnsgd1na2vs0mg"},{"bike_id":"bd3c1754-f5f3-4d87-8dc7-96dd2b03d4d2","system_id":"levelo_inurba_marseille","lat":43.33431,"lon":5.40068,"is_reserved":false,"is_disabled":false,"rental_uris":{"android":"levelo://app?vid=bd3c1754-f5f3-4d87-8dc7-96dd2b03d4d2","ios":"levelo://app?vid=bd3c1754-f5f3-4d87-8dc7-96dd2b03d4d2"},"vehicle_type_id":"4","last_reported":1745338347,"current_range_meters":6800,"station_id":"","pricing_plan_id":"cebpf4jnsgd1na2vs0mg"},{"bike_id":"80349d4c-4a0e-48a3-a927-7fee52468c5c","system_id":"levelo_inurba_marseille","lat":43.323604,"lon":5.367393,"is_reserved":false,"is_disabled":false,"rental_uris":{"android":"levelo://app?vid=80349d4c-4a0e-48a3-a927-7fee52468c5c","ios":"levelo://app?vid=80349d4c-4a0e-48a3-a927-7fee52468c5c"},"vehicle_type_id":"4","last_reported":1745338347,"current_range_meters":7200,"station_id":"ce4bhsh2rcd13ifvqi2g","pricing_plan_id":"cebpf4jnsgd1na2vs0mg"},{"bike_id":"2cb845ab-801d-4678-a555-a3f9d8c9746e","system_id":"levelo_inurba_marseille","lat":43.29305,"lon":5.37172,"is_reserved":false,"is_disabled":true,"rental_uris":{"android":"levelo://app?vid=2cb845ab-801d-4678-a555-a3f9d8c9746e","ios":"levelo://app?vid=2cb845ab-801d-4678-a555-a3f9d8c9746e"},"vehicle_type_id":"4","last_reported":1745338347,"current_range_meters":7200,"station_id":"ce4bgh92rcd13ifvqb40","pricing_plan_id":"cebpf4jnsgd1na2vs0mg"},{"bike_id":"eac9469c-addf-41d3-ba0a-c7df1fe74a61","system_id":"levelo_inurba_marseille","lat":43.292554,"lon":5.408949,"is_reserved":false,"is_disabled":false,"rental_uris":{"android":"levelo://app?vid=eac9469c-addf-41d3-ba0a-c7df1fe74a61","ios":"levelo://app?vid=eac9469c-addf-41d3-ba0a-c7df1fe74a61"},"vehicle_type_id":"4","last_reported":1745338347,"current_range_meters":7200,"station_id":"ce4bh192rcd13ifvqdc0","pricing_plan_id":"cebpf4jnsgd1na2vs0mg"},{"bike_id":"7a7c43b1-2fd8-4454-86a6-8a379f5047b3","system_id":"levelo_inurba_marseille","lat":43.261964,"lon":5.379306,"is_reserved":false,"is_disabled":false,"rental_uris":{"android":"levelo://app?vid=7a7c43b1-2fd8-4454-86a6-8a379f5047b3","ios":"levelo://app?vid=7a7c43b1-2fd8-4454-86a6-8a379f5047b3"},"vehicle_type_id":"4","last_reported":1745338347,"current_range_meters":8000,"station_id":"ce4bhjp2rcd13ifvqg90","pricing_plan_id":"cebpf4jnsgd1na2vs0mg"},{"bike_id":"1c755526-7610-4241-9257-348acde561d3","system_id":"levelo_inurba_marseille","lat":43.24845,"lon":5.38227,"is_reserved":false,"is_disabled":false,"rental_uris":{"android":"levelo://app?vid=1c755526-7610-4241-9257-348acde561d3","ios":"levelo://app?vid=1c755526-7610-4241-9257-348acde561d3"},"vehicle_type_id":"4","last_reported":1745338347,"current_range_meters":8000,"station_id":"","pricing_plan_id":"cebpf4jnsgd1na2vs0mg"},{"bike_id":"476a9fe5-6154-4202-b562-28b0995b6b4c","system_id":"levelo_inurba_marseille","lat":43.23176,"lon":5.39992,"is_reserved":false,"is_disabled":false,"rental_uris":{"android":"levelo://app?vid=476a9fe5-6154-4202-b562-28b0995b6b4c","ios":"levelo://app?vid=476a9fe5-6154-4202-b562-28b0995b6b4c"},"vehicle_type_id":"4","last_reported":1745338347,"current_range_meters":8000,"station_id":"ce4bhn12rcd13ifvqgqg","pricing_plan_id":"cebpf4jnsgd1na2vs0mg"},{"bike_id":"216dc4ec-75d2-4123-83e3-043ce419578d","system_id":"levelo_inurba_marseille","lat":43.29708,"lon":5.36611,"is_reserved":false,"is_disabled":false,"rental_uris":{"android":"levelo://app?vid=216dc4ec-75d2-4123-83e3-043ce419578d","ios":"levelo://app?vid=216dc4ec-75d2-4123-83e3-043ce419578d"},"vehicle_type_id":"4","last_reported":1745338347,"current_range_meters":8000,"station_id":"ce4bgn12rcd13ifvqbt0","pricing_plan_id":"cebpf4jnsgd1na2vs0mg"},{"bike_id":"ea243515-c1a1-4d7b-b38f-fbe7e5ae5d05","system_id":"levelo_inurba_marseille","lat":43.25102,"lon":5.39533,"is_reserved":false,"is_disabled":false,"rental_uris":{"android":"levelo://app?vid=ea243515-c1a1-4d7b-b38f-fbe7e5ae5d05","ios":"levelo://app?vid=ea243515-c1a1-4d7b-b38f-fbe7e5ae5d05"},"vehicle_type_id":"4","last_reported":1745338347,"current_range_meters":8000,"station_id":"ce4bhm12rcd13ifvqgkg","pricing_plan_id":"cebpf4jnsgd1na2vs0mg"},{"bike_id":"927ebabc-1cd7-4390-b5bd-5646fe25ec01","system_id":"levelo_inurba_marseille","lat":43.29998,"lon":5.37236,"is_reserved":false,"is_disabled":false,"rental_uris":{"android":"levelo://app?vid=927ebabc-1cd7-4390-b5bd-5646fe25ec01","ios":"levelo://app?vid=927ebabc-1cd7-4390-b5bd-5646fe25ec01"},"vehicle_type_id":"4","last_reported":1745338347,"current_range_meters":8000,"station_id":"","pricing_plan_id":"cebpf4jnsgd1na2vs0mg"},{"bike_id":"0d7f938e-484c-46c3-9f21-efdc6e6a1193","system_id":"levelo_inurba_marseille","lat":43.29007,"lon":5.35607,"is_reserved":false,"is_disabled":false,"rental_uris":{"android":"levelo://app?vid=0d7f938e-484c-46c3-9f21-efdc6e6a1193","ios":"levelo://app?vid=0d7f938e-484c-46c3-9f21-efdc6e6a1193"},"vehicle_type_id":"4","last_reported":1745338347,"current_range_meters":8000,"station_id":"ce4bhb92rcd13ifvqen0","pricing_plan_id":"cebpf4jnsgd1na2vs0mg"},{"bike_id":"d42da8b3-5312-4608-a60b-fef54c0c16d1","system_id":"levelo_inurba_marseille","lat":43.28092,"lon":5.39642,"is_reserved":false,"is_disabled":false,"rental_uris":{"android":"levelo://app?vid=d42da8b3-5312-4608-a60b-fef54c0c16d1","ios":"levelo://app?vid=d42da8b3-5312-4608-a60b-fef54c0c16d1"},"vehicle_type_id":"4","last_reported":1745338347,"current_range_meters":8400,"station_id":"ce4bho12rcd13ifvqh2g","pricing_plan_id":"cebpf4jnsgd1na2vs0mg"},{"bike_id":"2e41b8dc-7a4e-405e-a3ec-46df7821c989","system_id":"levelo_inurba_marseille","lat":43.300485,"lon":5.386991,"is_reserved":false,"is_disabled":false,"rental_uris":{"android":"levelo://app?vid=2e41b8dc-7a4e-405e-a3ec-46df7821c989","ios":"levelo://app?vid=2e41b8dc-7a4e-405e-a3ec-46df7821c989"},"vehicle_type_id":"4","last_reported":1745338347,"current_range_meters":8000,"station_id":"ce4bh092rcd13ifvqd20","pricing_plan_id":"cebpf4jnsgd1na2vs0mg"},{"bike_id":"7c805479-0039-444e-982f-ce5594b67883","system_id":"levelo_inurba_marseille","lat":43.30563,"lon":5.36528,"is_reserved":false,"is_disabled":false,"rental_uris":{"android":"levelo://app?vid=7c805479-0039-444e-982f-ce5594b67883","ios":"levelo://app?vid=7c805479-0039-444e-982f-ce5594b67883"},"vehicle_type_id":"4","last_reported":1745338347,"current_range_meters":8400,"station_id":"ce4bgs12rcd13ifvqcag","pricing_plan_id":"cebpf4jnsgd1na2vs0mg"},{"bike_id":"5bbf78c3-9ff4-43fd-addb-7db8c52f9edd","system_id":"levelo_inurba_marseille","lat":43.32352,"lon":5.38892,"is_reserved":false,"is_disabled":false,"rental_uris":{"android":"levelo://app?vid=5bbf78c3-9ff4-43fd-addb-7db8c52f9edd","ios":"levelo://app?vid=5bbf78c3-9ff4-43fd-addb-7db8c52f9edd"},"vehicle_type_id":"4","last_reported":1745338347,"current_range_meters":8800,"station_id":"ce4bhqp2rcd13ifvqhog","pricing_plan_id":"cebpf4jnsgd1na2vs0mg"},{"bike_id":"c184383f-8e9e-4a1d-91b3-af6699495c22","system_id":"levelo_inurba_marseille","lat":43.28349,"lon":5.38089,"is_reserved":false,"is_disabled":false,"rental_uris":{"android":"levelo://app?vid=c184383f-8e9e-4a1d-91b3-af6699495c22","ios":"levelo://app?vid=c184383f-8e9e-4a1d-91b3-af6699495c22"},"vehicle_type_id":"4","last_reported":1745338347,"current_range_meters":8800,"station_id":"ce4bh412rcd13ifvqdr0","pricing_plan_id":"cebpf4jnsgd1na2vs0mg"},{"bike_id":"b54783e3-c9c9-4e23-9622-184e2fa41bba","system_id":"levelo_inurba_marseille","lat":43.27996,"lon":5.40018,"is_reserved":false,"is_disabled":false,"rental_uris":{"android":"levelo://app?vid=b54783e3-c9c9-4e23-9622-184e2fa41bba","ios":"levelo://app?vid=b54783e3-c9c9-4e23-9622-184e2fa41bba"},"vehicle_type_id":"4","last_reported":1745338347,"current_range_meters":8400,"station_id":"ce4bho92rcd13ifvqh4g","pricing_plan_id":"cebpf4jnsgd1na2vs0mg"},{"bike_id":"0c4f3a23-db89-4d37-8701-07680bcca57f","system_id":"levelo_inurba_marseille","lat":43.29007,"lon":5.35618,"is_reserved":false,"is_disabled":false,"rental_uris":{"android":"levelo://app?vid=0c4f3a23-db89-4d37-8701-07680bcca57f","ios":"levelo://app?vid=0c4f3a23-db89-4d37-8701-07680bcca57f"},"vehicle_type_id":"4","last_reported":1745338347,"current_range_meters":9600,"station_id":"ce4bhb92rcd13ifvqen0","pricing_plan_id":"cebpf4jnsgd1na2vs0mg"},{"bike_id":"ac1ec7c6-b2d7-41a8-8c96-76782ee3f8be","system_id":"levelo_inurba_marseille","lat":43.27813,"lon":5.40706,"is_reserved":false,"is_disabled":false,"rental_uris":{"android":"levelo://app?vid=ac1ec7c6-b2d7-41a8-8c96-76782ee3f8be","ios":"levelo://app?vid=ac1ec7c6-b2d7-41a8-8c96-76782ee3f8be"},"vehicle_type_id":"4","last_reported":1745338347,"current_range_meters":9200,"station_id":"ce4bhnh2rcd13ifvqgtg","pricing_plan_id":"cebpf4jnsgd1na2vs0mg"},{"bike_id":"01b6f428-5a7f-497c-88c9-469abaac8770","system_id":"levelo_inurba_marseille","lat":43.29713,"lon":5.37694,"is_reserved":false,"is_disabled":false,"rental_uris":{"android":"levelo://app?vid=01b6f428-5a7f-497c-88c9-469abaac8770","ios":"levelo://app?vid=01b6f428-5a7f-497c-88c9-469abaac8770"},"vehicle_type_id":"4","last_reported":1745338347,"current_range_meters":9200,"station_id":"ce4bgkh2rcd13ifvqbl0","pricing_plan_id":"cebpf4jnsgd1na2vs0mg"},{"bike_id":"2a0f0642-8b79-49ac-8b15-eb80bc3519a2","system_id":"levelo_inurba_marseille","lat":43.28201,"lon":5.35114,"is_reserved":false,"is_disabled":false,"rental_uris":{"android":"levelo://app?vid=2a0f0642-8b79-49ac-8b15-eb80bc3519a2","ios":"levelo://app?vid=2a0f0642-8b79-49ac-8b15-eb80bc3519a2"},"vehicle_type_id":"4","last_reported":1745338347,"current_range_meters":9200,"station_id":"","pricing_plan_id":"cebpf4jnsgd1na2vs0mg"},{"bike_id":"63279e74-e5fa-49d5-ae6d-caa40190cb65","system_id":"levelo_inurba_marseille","lat":43.29979,"lon":5.38496,"is_reserved":false,"is_disabled":false,"rental_uris":{"android":"levelo://app?vid=63279e74-e5fa-49d5-ae6d-caa40190cb65","ios":"levelo://app?vid=63279e74-e5fa-49d5-ae6d-caa40190cb65"},"vehicle_type_id":"4","last_reported":1745338347,"current_range_meters":9600,"station_id":"ce4bgj92rcd13ifvqbd0","pricing_plan_id":"cebpf4jnsgd1na2vs0mg"},{"bike_id":"de7c37b5-cf50-4e04-924a-81b5fea8c0db","system_id":"levelo_inurba_marseille","lat":43.322911,"lon":5.382676,"is_reserved":false,"is_disabled":false,"rental_uris":{"android":"levelo://app?vid=de7c37b5-cf50-4e04-924a-81b5fea8c0db","ios":"levelo://app?vid=de7c37b5-cf50-4e04-924a-81b5fea8c0db"},"vehicle_type_id":"4","last_reported":1745338347,"current_range_meters":9200,"station_id":"ce4bhr12rcd13ifvqhqg","pricing_plan_id":"cebpf4jnsgd1na2vs0mg"},{"bike_id":"490c08c8-759c-4f98-9188-e7baa50fc715","system_id":"levelo_inurba_marseille","lat":43.2621,"lon":5.37439,"is_reserved":false,"is_disabled":false,"rental_uris":{"android":"levelo://app?vid=490c08c8-759c-4f98-9188-e7baa50fc715","ios":"levelo://app?vid=490c08c8-759c-4f98-9188-e7baa50fc715"},"vehicle_type_id":"4","last_reported":1745338347,"current_range_meters":9600,"station_id":"ce4bhgp2rcd13ifvqfc0","pricing_plan_id":"cebpf4jnsgd1na2vs0mg"},{"bike_id":"1aabe5c9-09ca-44d1-bb3a-8c93e9abfee7","system_id":"levelo_inurba_marseille","lat":43.323514,"lon":5.367539,"is_reserved":false,"is_disabled":false,"rental_uris":{"android":"levelo://app?vid=1aabe5c9-09ca-44d1-bb3a-8c93e9abfee7","ios":"levelo://app?vid=1aabe5c9-09ca-44d1-bb3a-8c93e9abfee7"},"vehicle_type_id":"4","last_reported":1745338347,"current_range_meters":9600,"station_id":"ce4bhsh2rcd13ifvqi2g","pricing_plan_id":"cebpf4jnsgd1na2vs0mg"},{"bike_id":"626fe38c-40f1-44c3-9d57-0912e6b530dc","system_id":"levelo_inurba_marseille","lat":43.27835,"lon":5.39208,"is_reserved":false,"is_disabled":false,"rental_uris":{"android":"levelo://app?vid=626fe38c-40f1-44c3-9d57-0912e6b530dc","ios":"levelo://app?vid=626fe38c-40f1-44c3-9d57-0912e6b530dc"},"vehicle_type_id":"4","last_reported":1745338347,"current_range_meters":9200,"station_id":"ce4bhjp2rcd13ifvqga0","pricing_plan_id":"cebpf4jnsgd1na2vs0mg"},{"bike_id":"31337fe8-cb42-4062-87c7-95786bc0a6ad","system_id":"levelo_inurba_marseille","lat":43.32293,"lon":5.38268,"is_reserved":false,"is_disabled":false,"rental_uris":{"android":"levelo://app?vid=31337fe8-cb42-4062-87c7-95786bc0a6ad","ios":"levelo://app?vid=31337fe8-cb42-4062-87c7-95786bc0a6ad"},"vehicle_type_id":"4","last_reported":1745338347,"current_range_meters":9200,"station_id":"ce4bhr12rcd13ifvqhqg","pricing_plan_id":"cebpf4jnsgd1na2vs0mg"},{"bike_id":"2dc4e79a-33a8-48b0-bf03-f6328f1dc1f6","system_id":"levelo_inurba_marseille","lat":43.32367,"lon":5.38887,"is_reserved":false,"is_disabled":true,"rental_uris":{"android":"levelo://app?vid=2dc4e79a-33a8-48b0-bf03-f6328f1dc1f6","ios":"levelo://app?vid=2dc4e79a-33a8-48b0-bf03-f6328f1dc1f6"},"vehicle_type_id":"4","last_reported":1745338347,"current_range_meters":9600,"station_id":"ce4bhqp2rcd13ifvqhog","pricing_plan_id":"cebpf4jnsgd1na2vs0mg"},{"bike_id":"d8d27387-fb66-4c0a-90dc-eef7a69dc87d","system_id":"levelo_inurba_marseille","lat":43.2119,"lon":5.35071,"is_reserved":false,"is_disabled":false,"rental_uris":{"android":"levelo://app?vid=d8d27387-fb66-4c0a-90dc-eef7a69dc87d","ios":"levelo://app?vid=d8d27387-fb66-4c0a-90dc-eef7a69dc87d"},"vehicle_type_id":"4","last_reported":1745338347,"current_range_meters":9600,"station_id":"ce4bgh92rcd13ifvqb40","pricing_plan_id":"cebpf4jnsgd1na2vs0mg"},{"bike_id":"121f56a2-69a6-48c6-a029-298abaa93457","system_id":"levelo_inurba_marseille","lat":43.29517,"lon":5.39397,"is_reserved":false,"is_disabled":false,"rental_uris":{"android":"levelo://app?vid=121f56a2-69a6-48c6-a029-298abaa93457","ios":"levelo://app?vid=121f56a2-69a6-48c6-a029-298abaa93457"},"vehicle_type_id":"4","last_reported":1745338347,"current_range_meters":12800,"station_id":"ce4bh292rcd13ifvqdf0","pricing_plan_id":"cebpf4jnsgd1na2vs0mg"},{"bike_id":"3bb2305c-cb28-479e-ad84-39f9845eaf2a","system_id":"levelo_inurba_marseille","lat":43.27056,"lon":5.40259,"is_reserved":false,"is_disabled":false,"rental_uris":{"android":"levelo://app?vid=3bb2305c-cb28-479e-ad84-39f9845eaf2a","ios":"levelo://app?vid=3bb2305c-cb28-479e-ad84-39f9845eaf2a"},"vehicle_type_id":"4","last_reported":1745338347,"current_range_meters":10800,"station_id":"ce4bhk92rcd13ifvqgc0","pricing_plan_id":"cebpf4jnsgd1na2vs0mg"},{"bike_id":"1450f02b-fc06-49f0-878f-097e394d10ae","system_id":"levelo_inurba_marseille","lat":43.25505,"lon":5.37647,"is_reserved":false,"is_disabled":false,"rental_uris":{"android":"levelo://app?vid=1450f02b-fc06-49f0-878f-097e394d10ae","ios":"levelo://app?vid=1450f02b-fc06-49f0-878f-097e394d10ae"},"vehicle_type_id":"4","last_reported":1745338347,"current_range_meters":10000,"station_id":"ce4bhh12rcd13ifvqff0","pricing_plan_id":"cebpf4jnsgd1na2vs0mg"},{"bike_id":"ceb357e2-3d79-417a-a943-1f72aa6d4eba","system_id":"levelo_inurba_marseille","lat":43.32289,"lon":5.38258,"is_reserved":false,"is_disabled":false,"rental_uris":{"android":"levelo://app?vid=ceb357e2-3d79-417a-a943-1f72aa6d4eba","ios":"levelo://app?vid=ceb357e2-3d79-417a-a943-1f72aa6d4eba"},"vehicle_type_id":"4","last_reported":1745338347,"current_range_meters":10800,"station_id":"ce4bhr12rcd13ifvqhqg","pricing_plan_id":"cebpf4jnsgd1na2vs0mg"},{"bike_id":"84324bab-36cb-46f9-9fad-52f460a11656","system_id":"levelo_inurba_marseille","lat":43.29702,"lon":5.37701,"is_reserved":false,"is_disabled":false,"rental_uris":{"android":"levelo://app?vid=84324bab-36cb-46f9-9fad-52f460a11656","ios":"levelo://app?vid=84324bab-36cb-46f9-9fad-52f460a11656"},"vehicle_type_id":"4","last_reported":1745338347,"current_range_meters":10800,"station_id":"ce4bgkh2rcd13ifvqbl0","pricing_plan_id":"cebpf4jnsgd1na2vs0mg"},{"bike_id":"fdbe37f2-f1a0-4f1e-8075-75d1d2f2df84","system_id":"levelo_inurba_marseille","lat":43.29298,"lon":5.3746,"is_reserved":false,"is_disabled":false,"rental_uris":{"android":"levelo://app?vid=fdbe37f2-f1a0-4f1e-8075-75d1d2f2df84","ios":"levelo://app?vid=fdbe37f2-f1a0-4f1e-8075-75d1d2f2df84"},"vehicle_type_id":"4","last_reported":1745338347,"current_range_meters":11200,"station_id":"ce4bgi12rcd13ifvqb70","pricing_plan_id":"cebpf4jnsgd1na2vs0mg"},{"bike_id":"8c0d14bb-4242-4f4f-8a62-e312c5b2bf57","system_id":"levelo_inurba_marseille","lat":43.29418,"lon":5.38622,"is_reserved":false,"is_disabled":false,"rental_uris":{"android":"levelo://app?vid=8c0d14bb-4242-4f4f-8a62-e312c5b2bf57","ios":"levelo://app?vid=8c0d14bb-4242-4f4f-8a62-e312c5b2bf57"},"vehicle_type_id":"4","last_reported":1745338347,"current_range_meters":11200,"station_id":"ce4bh2h2rcd13ifvqdh0","pricing_plan_id":"cebpf4jnsgd1na2vs0mg"},{"bike_id":"2c65eb79-b2b9-4586-8a26-6c2f57ac2d96","system_id":"levelo_inurba_marseille","lat":43.287597,"lon":5.386943,"is_reserved":false,"is_disabled":false,"rental_uris":{"android":"levelo://app?vid=2c65eb79-b2b9-4586-8a26-6c2f57ac2d96","ios":"levelo://app?vid=2c65eb79-b2b9-4586-8a26-6c2f57ac2d96"},"vehicle_type_id":"4","last_reported":1745338347,"current_range_meters":11200,"station_id":"ce4bh492rcd13ifvqdug","pricing_plan_id":"cebpf4jnsgd1na2vs0mg"},{"bike_id":"47768a28-4fff-4fc1-b4c4-b5ec8d452deb","system_id":"levelo_inurba_marseille","lat":43.29578,"lon":5.3811,"is_reserved":false,"is_disabled":true,"rental_uris":{"android":"levelo://app?vid=47768a28-4fff-4fc1-b4c4-b5ec8d452deb","ios":"levelo://app?vid=47768a28-4fff-4fc1-b4c4-b5ec8d452deb"},"vehicle_type_id":"4","last_reported":1745338347,"current_range_meters":11600,"station_id":"ce4bgl12rcd13ifvqbo0","pricing_plan_id":"cebpf4jnsgd1na2vs0mg"},{"bike_id":"d4f9c5d7-5d23-4d8b-91c5-8dde73fd30db","system_id":"levelo_inurba_marseille","lat":43.29895,"lon":5.43664,"is_reserved":false,"is_disabled":false,"rental_uris":{"android":"levelo://app?vid=d4f9c5d7-5d23-4d8b-91c5-8dde73fd30db","ios":"levelo://app?vid=d4f9c5d7-5d23-4d8b-91c5-8dde73fd30db"},"vehicle_type_id":"4","last_reported":1745338347,"current_range_meters":11200,"station_id":"ce4bhpp2rcd13ifvqhfg","pricing_plan_id":"cebpf4jnsgd1na2vs0mg"},{"bike_id":"1b1fc3e0-4e62-41ec-9fdc-2bd999230a27","system_id":"levelo_inurba_marseille","lat":43.272284,"lon":5.401104,"is_reserved":false,"is_disabled":false,"rental_uris":{"android":"levelo://app?vid=1b1fc3e0-4e62-41ec-9fdc-2bd999230a27","ios":"levelo://app?vid=1b1fc3e0-4e62-41ec-9fdc-2bd999230a27"},"vehicle_type_id":"4","last_reported":1745338347,"current_range_meters":12000,"station_id":"ce4bhl12rcd13ifvqgf0","pricing_plan_id":"cebpf4jnsgd1na2vs0mg"},{"bike_id":"610b213e-54af-4c71-837d-55963e77a1b0","system_id":"levelo_inurba_marseille","lat":43.28444,"lon":5.39189,"is_reserved":false,"is_disabled":false,"rental_uris":{"android":"levelo://app?vid=610b213e-54af-4c71-837d-55963e77a1b0","ios":"levelo://app?vid=610b213e-54af-4c71-837d-55963e77a1b0"},"vehicle_type_id":"4","last_reported":1745338347,"current_range_meters":12000,"station_id":"ce4bhoh2rcd13ifvqh5g","pricing_plan_id":"cebpf4jnsgd1na2vs0mg"},{"bike_id":"f1300840-291d-4ece-a09c-172514b0678c","system_id":"levelo_inurba_marseille","lat":43.294393,"lon":5.397645,"is_reserved":false,"is_disabled":true,"rental_uris":{"android":"levelo://app?vid=f1300840-291d-4ece-a09c-172514b0678c","ios":"levelo://app?vid=f1300840-291d-4ece-a09c-172514b0678c"},"vehicle_type_id":"4","last_reported":1745338347,"current_range_meters":12000,"station_id":"ce4bh3h2rcd13ifvqdo0","pricing_plan_id":"cebpf4jnsgd1na2vs0mg"},{"bike_id":"80da3141-7c3b-46b6-aeb9-5227550bdb34","system_id":"levelo_inurba_marseille","lat":43.29528,"lon":5.38543,"is_reserved":false,"is_disabled":false,"rental_uris":{"android":"levelo://app?vid=80da3141-7c3b-46b6-aeb9-5227550bdb34","ios":"levelo://app?vid=80da3141-7c3b-46b6-aeb9-5227550bdb34"},"vehicle_type_id":"4","last_reported":1745338347,"current_range_meters":12000,"station_id":"ce4bgih2rcd13ifvqba0","pricing_plan_id":"cebpf4jnsgd1na2vs0mg"},{"bike_id":"b3008252-e965-4f86-bb03-84283638916e","system_id":"levelo_inurba_marseille","lat":43.2826,"lon":5.35058,"is_reserved":false,"is_disabled":false,"rental_uris":{"android":"levelo://app?vid=b3008252-e965-4f86-bb03-84283638916e","ios":"levelo://app?vid=b3008252-e965-4f86-bb03-84283638916e"},"vehicle_type_id":"4","last_reported":1745338347,"current_range_meters":12000,"station_id":"ce4bhbp2rcd13ifvqerg","pricing_plan_id":"cebpf4jnsgd1na2vs0mg"},{"bike_id":"ecd9c509-3120-4166-8927-f60518d66aaa","system_id":"levelo_inurba_marseille","lat":43.29506,"lon":5.39391,"is_reserved":false,"is_disabled":true,"rental_uris":{"android":"levelo://app?vid=ecd9c509-3120-4166-8927-f60518d66aaa","ios":"levelo://app?vid=ecd9c509-3120-4166-8927-f60518d66aaa"},"vehicle_type_id":"4","last_reported":1745338347,"current_range_meters":12000,"station_id":"ce4bh292rcd13ifvqdf0","pricing_plan_id":"cebpf4jnsgd1na2vs0mg"},{"bike_id":"2ec52292-f495-4e5c-b68a-d6e04363b70a","system_id":"levelo_inurba_marseille","lat":43.30353,"lon":5.41875,"is_reserved":false,"is_disabled":false,"rental_uris":{"android":"levelo://app?vid=2ec52292-f495-4e5c-b68a-d6e04363b70a","ios":"levelo://app?vid=2ec52292-f495-4e5c-b68a-d6e04363b70a"},"vehicle_type_id":"4","last_reported":1745338347,"current_range_meters":12000,"station_id":"ce4bhop2rcd13ifvqh7g","pricing_plan_id":"cebpf4jnsgd1na2vs0mg"},{"bike_id":"b716ac6f-454c-4d5c-8300-80f2cc6bedc0","system_id":"levelo_inurba_marseille","lat":43.23192,"lon":5.35553,"is_reserved":false,"is_disabled":false,"rental_uris":{"android":"levelo://app?vid=b716ac6f-454c-4d5c-8300-80f2cc6bedc0","ios":"levelo://app?vid=b716ac6f-454c-4d5c-8300-80f2cc6bedc0"},"vehicle_type_id":"4","last_reported":1745338347,"current_range_meters":11600,"station_id":"ce4bhu92rcd13ifvqi70","pricing_plan_id":"cebpf4jnsgd1na2vs0mg"},{"bike_id":"41cd4d50-3bdd-4fa7-b5d1-d715f5a540e6","system_id":"levelo_inurba_marseille","lat":43.32371,"lon":5.36795,"is_reserved":false,"is_disabled":false,"rental_uris":{"android":"levelo://app?vid=41cd4d50-3bdd-4fa7-b5d1-d715f5a540e6","ios":"levelo://app?vid=41cd4d50-3bdd-4fa7-b5d1-d715f5a540e6"},"vehicle_type_id":"4","last_reported":1745338347,"current_range_meters":12000,"station_id":"ce4bhsh2rcd13ifvqi2g","pricing_plan_id":"cebpf4jnsgd1na2vs0mg"},{"bike_id":"a756bae3-49c1-4d6c-89e8-fcb7b0e7d2e2","system_id":"levelo_inurba_marseille","lat":43.290383,"lon":5.359179,"is_reserved":false,"is_disabled":true,"rental_uris":{"android":"levelo://app?vid=a756bae3-49c1-4d6c-89e8-fcb7b0e7d2e2","ios":"levelo://app?vid=a756bae3-49c1-4d6c-89e8-fcb7b0e7d2e2"},"vehicle_type_id":"4","last_reported":1745338347,"current_range_meters":12400,"station_id":"ce4bha92rcd13ifvqeg0","pricing_plan_id":"cebpf4jnsgd1na2vs0mg"},{"bike_id":"f486c5f7-d21e-490f-a089-3de573a1ea47","system_id":"levelo_inurba_marseille","lat":43.27568,"lon":5.38422,"is_reserved":false,"is_disabled":false,"rental_uris":{"android":"levelo://app?vid=f486c5f7-d21e-490f-a089-3de573a1ea47","ios":"levelo://app?vid=f486c5f7-d21e-490f-a089-3de573a1ea47"},"vehicle_type_id":"4","last_reported":1745338347,"current_range_meters":12400,"station_id":"ce4bhh92rcd13ifvqfi0","pricing_plan_id":"cebpf4jnsgd1na2vs0mg"},{"bike_id":"f462c3cf-a1f2-40b4-9ef3-016452d75cec","system_id":"levelo_inurba_marseille","lat":43.23057,"lon":5.35492,"is_reserved":false,"is_disabled":false,"rental_uris":{"android":"levelo://app?vid=f462c3cf-a1f2-40b4-9ef3-016452d75cec","ios":"levelo://app?vid=f462c3cf-a1f2-40b4-9ef3-016452d75cec"},"vehicle_type_id":"4","last_reported":1745338347,"current_range_meters":12800,"station_id":"cpo3342slgdg3j2ifvpg","pricing_plan_id":"cebpf4jnsgd1na2vs0mg"},{"bike_id":"d5fa6a7e-ae6f-48cd-8dc8-6ec1473fc099","system_id":"levelo_inurba_marseille","lat":43.313653,"lon":5.367189,"is_reserved":false,"is_disabled":true,"rental_uris":{"android":"levelo://app?vid=d5fa6a7e-ae6f-48cd-8dc8-6ec1473fc099","ios":"levelo://app?vid=d5fa6a7e-ae6f-48cd-8dc8-6ec1473fc099"},"vehicle_type_id":"4","last_reported":1745338347,"current_range_meters":12800,"station_id":"ce4bgr92rcd13ifvqc6g","pricing_plan_id":"cebpf4jnsgd1na2vs0mg"},{"bike_id":"4be2acd4-5340-47f7-966b-f02af72a2d26","system_id":"levelo_inurba_marseille","lat":43.30427,"lon":5.39749,"is_reserved":false,"is_disabled":false,"rental_uris":{"android":"levelo://app?vid=4be2acd4-5340-47f7-966b-f02af72a2d26","ios":"levelo://app?vid=4be2acd4-5340-47f7-966b-f02af72a2d26"},"vehicle_type_id":"4","last_reported":1745338347,"current_range_meters":13600,"station_id":"ce4bh092rcd13ifvqd20","pricing_plan_id":"cebpf4jnsgd1na2vs0mg"},{"bike_id":"35a5344f-f339-4140-af73-3fe96bc9752a","system_id":"levelo_inurba_marseille","lat":43.27559,"lon":5.38414,"is_reserved":false,"is_disabled":false,"rental_uris":{"android":"levelo://app?vid=35a5344f-f339-4140-af73-3fe96bc9752a","ios":"levelo://app?vid=35a5344f-f339-4140-af73-3fe96bc9752a"},"vehicle_type_id":"4","last_reported":1745338347,"current_range_meters":12800,"station_id":"ce4bhh92rcd13ifvqfi0","pricing_plan_id":"cebpf4jnsgd1na2vs0mg"},{"bike_id":"e6030e6b-a2d3-4bd0-b24b-09ae7269b3b9","system_id":"levelo_inurba_marseille","lat":43.29523,"lon":5.39382,"is_reserved":false,"is_disabled":false,"rental_uris":{"android":"levelo://app?vid=e6030e6b-a2d3-4bd0-b24b-09ae7269b3b9","ios":"levelo://app?vid=e6030e6b-a2d3-4bd0-b24b-09ae7269b3b9"},"vehicle_type_id":"4","last_reported":1745338347,"current_range_meters":13600,"station_id":"ce4bh292rcd13ifvqdf0","pricing_plan_id":"cebpf4jnsgd1na2vs0mg"},{"bike_id":"e9e21459-0141-43a3-9f99-2d720b6a2b30","system_id":"levelo_inurba_marseille","lat":43.28642,"lon":5.35076,"is_reserved":false,"is_disabled":false,"rental_uris":{"android":"levelo://app?vid=e9e21459-0141-43a3-9f99-2d720b6a2b30","ios":"levelo://app?vid=e9e21459-0141-43a3-9f99-2d720b6a2b30"},"vehicle_type_id":"4","last_reported":1745338347,"current_range_meters":13600,"station_id":"ce4bhch2rcd13ifvqeug","pricing_plan_id":"cebpf4jnsgd1na2vs0mg"},{"bike_id":"a9e1173d-9b0f-4931-90eb-48e236c2cc5d","system_id":"levelo_inurba_marseille","lat":43.26975,"lon":5.39781,"is_reserved":false,"is_disabled":false,"rental_uris":{"android":"levelo://app?vid=a9e1173d-9b0f-4931-90eb-48e236c2cc5d","ios":"levelo://app?vid=a9e1173d-9b0f-4931-90eb-48e236c2cc5d"},"vehicle_type_id":"4","last_reported":1745338347,"current_range_meters":13600,"station_id":"","pricing_plan_id":"cebpf4jnsgd1na2vs0mg"},{"bike_id":"79a1d6a6-83d2-4c42-b733-83fbfb5cc9f0","system_id":"levelo_inurba_marseille","lat":43.30139,"lon":5.39856,"is_reserved":false,"is_disabled":false,"rental_uris":{"android":"levelo://app?vid=79a1d6a6-83d2-4c42-b733-83fbfb5cc9f0","ios":"levelo://app?vid=79a1d6a6-83d2-4c42-b733-83fbfb5cc9f0"},"vehicle_type_id":"4","last_reported":1745338347,"current_range_meters":14000,"station_id":"ce4bh0h2rcd13ifvqd40","pricing_plan_id":"cebpf4jnsgd1na2vs0mg"},{"bike_id":"1b28cfb8-7569-4032-83bd-86eba8d5de98","system_id":"levelo_inurba_marseille","lat":43.2781,"lon":5.40712,"is_reserved":false,"is_disabled":false,"rental_uris":{"android":"levelo://app?vid=1b28cfb8-7569-4032-83bd-86eba8d5de98","ios":"levelo://app?vid=1b28cfb8-7569-4032-83bd-86eba8d5de98"},"vehicle_type_id":"4","last_reported":1745338347,"current_range_meters":12800,"station_id":"ce4bhnh2rcd13ifvqgtg","pricing_plan_id":"cebpf4jnsgd1na2vs0mg"},{"bike_id":"f515b97f-aa24-46d7-a3e9-82f1efa73dce","system_id":"levelo_inurba_marseille","lat":43.27376,"lon":5.36249,"is_reserved":false,"is_disabled":false,"rental_uris":{"android":"levelo://app?vid=f515b97f-aa24-46d7-a3e9-82f1efa73dce","ios":"levelo://app?vid=f515b97f-aa24-46d7-a3e9-82f1efa73dce"},"vehicle_type_id":"4","last_reported":1745338347,"current_range_meters":14000,"station_id":"ce4bhbh2rcd13ifvqeo0","pricing_plan_id":"cebpf4jnsgd1na2vs0mg"},{"bike_id":"a619e870-9f0e-4762-87d2-91c6df144eb5","system_id":"levelo_inurba_marseille","lat":43.29873,"lon":5.39732,"is_reserved":false,"is_disabled":false,"rental_uris":{"android":"levelo://app?vid=a619e870-9f0e-4762-87d2-91c6df144eb5","ios":"levelo://app?vid=a619e870-9f0e-4762-87d2-91c6df144eb5"},"vehicle_type_id":"4","last_reported":1745338347,"current_range_meters":14000,"station_id":"ce4bh0h2rcd13ifvqd50","pricing_plan_id":"cebpf4jnsgd1na2vs0mg"},{"bike_id":"f1d90cf0-7573-47ce-a1cf-7563cd597df0","system_id":"levelo_inurba_marseille","lat":43.28158,"lon":5.42644,"is_reserved":false,"is_disabled":false,"rental_uris":{"android":"levelo://app?vid=f1d90cf0-7573-47ce-a1cf-7563cd597df0","ios":"levelo://app?vid=f1d90cf0-7573-47ce-a1cf-7563cd597df0"},"vehicle_type_id":"4","last_reported":1745338347,"current_range_meters":14000,"station_id":"ce4bhnh2rcd13ifvqgug","pricing_plan_id":"cebpf4jnsgd1na2vs0mg"},{"bike_id":"46b4fe35-f673-4d9b-9cb6-0c775755a614","system_id":"levelo_inurba_marseille","lat":43.27942,"lon":5.41041,"is_reserved":false,"is_disabled":false,"rental_uris":{"android":"levelo://app?vid=46b4fe35-f673-4d9b-9cb6-0c775755a614","ios":"levelo://app?vid=46b4fe35-f673-4d9b-9cb6-0c775755a614"},"vehicle_type_id":"4","last_reported":1745338347,"current_range_meters":14000,"station_id":"ce4bhnp2rcd13ifvqh0g","pricing_plan_id":"cebpf4jnsgd1na2vs0mg"},{"bike_id":"59803105-cbbe-4a14-bc03-c805c6842cb9","system_id":"levelo_inurba_marseille","lat":43.27183,"lon":5.38964,"is_reserved":false,"is_disabled":false,"rental_uris":{"android":"levelo://app?vid=59803105-cbbe-4a14-bc03-c805c6842cb9","ios":"levelo://app?vid=59803105-cbbe-4a14-bc03-c805c6842cb9"},"vehicle_type_id":"4","last_reported":1745338347,"current_range_meters":14000,"station_id":"","pricing_plan_id":"cebpf4jnsgd1na2vs0mg"},{"bike_id":"afc1a72d-f3cd-4039-8f8e-8907957e6ee0","system_id":"levelo_inurba_marseille","lat":43.284136,"lon":5.375088,"is_reserved":false,"is_disabled":false,"rental_uris":{"android":"levelo://app?vid=afc1a72d-f3cd-4039-8f8e-8907957e6ee0","ios":"levelo://app?vid=afc1a72d-f3cd-4039-8f8e-8907957e6ee0"},"vehicle_type_id":"4","last_reported":1745338347,"current_range_meters":14400,"station_id":"ce4bh412rcd13ifvqds0","pricing_plan_id":"cebpf4jnsgd1na2vs0mg"},{"bike_id":"e23d737e-d621-46ea-9753-bbce22a06b47","system_id":"levelo_inurba_marseille","lat":43.27924,"lon":5.39572,"is_reserved":false,"is_disabled":false,"rental_uris":{"android":"levelo://app?vid=e23d737e-d621-46ea-9753-bbce22a06b47","ios":"levelo://app?vid=e23d737e-d621-46ea-9753-bbce22a06b47"},"vehicle_type_id":"4","last_reported":1745338347,"current_range_meters":14400,"station_id":"ce4bhf92rcd13ifvqf40","pricing_plan_id":"cebpf4jnsgd1na2vs0mg"},{"bike_id":"5dccae89-d845-4b42-adf6-249abbf4c7ee","system_id":"levelo_inurba_marseille","lat":43.29005,"lon":5.35604,"is_reserved":false,"is_disabled":false,"rental_uris":{"android":"levelo://app?vid=5dccae89-d845-4b42-adf6-249abbf4c7ee","ios":"levelo://app?vid=5dccae89-d845-4b42-adf6-249abbf4c7ee"},"vehicle_type_id":"4","last_reported":1745338347,"current_range_meters":14400,"station_id":"ce4bhb92rcd13ifvqen0","pricing_plan_id":"cebpf4jnsgd1na2vs0mg"},{"bike_id":"e5a6d393-3ba2-4314-a0a9-7e78f739f7c7","system_id":"levelo_inurba_marseille","lat":43.2901,"lon":5.35609,"is_reserved":false,"is_disabled":false,"rental_uris":{"android":"levelo://app?vid=e5a6d393-3ba2-4314-a0a9-7e78f739f7c7","ios":"levelo://app?vid=e5a6d393-3ba2-4314-a0a9-7e78f739f7c7"},"vehicle_type_id":"4","last_reported":1745338347,"current_range_meters":14400,"station_id":"ce4bhb92rcd13ifvqen0","pricing_plan_id":"cebpf4jnsgd1na2vs0mg"},{"bike_id":"8e20898e-f4a5-4e7c-b50a-4ab43a31e9df","system_id":"levelo_inurba_marseille","lat":43.29415,"lon":5.38632,"is_reserved":false,"is_disabled":false,"rental_uris":{"android":"levelo://app?vid=8e20898e-f4a5-4e7c-b50a-4ab43a31e9df","ios":"levelo://app?vid=8e20898e-f4a5-4e7c-b50a-4ab43a31e9df"},"vehicle_type_id":"4","last_reported":1745338347,"current_range_meters":14800,"station_id":"ce4bh2h2rcd13ifvqdh0","pricing_plan_id":"cebpf4jnsgd1na2vs0mg"},{"bike_id":"4f3a6ae7-9686-433c-b061-0b2d333f972a","system_id":"levelo_inurba_marseille","lat":43.27908,"lon":5.38001,"is_reserved":false,"is_disabled":false,"rental_uris":{"android":"levelo://app?vid=4f3a6ae7-9686-433c-b061-0b2d333f972a","ios":"levelo://app?vid=4f3a6ae7-9686-433c-b061-0b2d333f972a"},"vehicle_type_id":"4","last_reported":1745338347,"current_range_meters":14800,"station_id":"ce4bhf92rcd13ifvqf50","pricing_plan_id":"cebpf4jnsgd1na2vs0mg"},{"bike_id":"83030036-5291-4278-ab22-37d8aaf4b4bb","system_id":"levelo_inurba_marseille","lat":43.26567,"lon":5.39021,"is_reserved":false,"is_disabled":false,"rental_uris":{"android":"levelo://app?vid=83030036-5291-4278-ab22-37d8aaf4b4bb","ios":"levelo://app?vid=83030036-5291-4278-ab22-37d8aaf4b4bb"},"vehicle_type_id":"4","last_reported":1745338347,"current_range_meters":14800,"station_id":"ce4bhe12rcd13ifvqf30","pricing_plan_id":"cebpf4jnsgd1na2vs0mg"},{"bike_id":"3dc03cb9-1f0c-463f-9511-ad2e16b774a4","system_id":"levelo_inurba_marseille","lat":43.28079,"lon":5.396553,"is_reserved":false,"is_disabled":false,"rental_uris":{"android":"levelo://app?vid=3dc03cb9-1f0c-463f-9511-ad2e16b774a4","ios":"levelo://app?vid=3dc03cb9-1f0c-463f-9511-ad2e16b774a4"},"vehicle_type_id":"4","last_reported":1745338347,"current_range_meters":15200,"station_id":"ce4bho12rcd13ifvqh2g","pricing_plan_id":"cebpf4jnsgd1na2vs0mg"},{"bike_id":"48939965-4329-495f-a3f1-b5cf562d2ecf","system_id":"levelo_inurba_marseille","lat":43.3067,"lon":5.40084,"is_reserved":false,"is_disabled":true,"rental_uris":{"android":"levelo://app?vid=48939965-4329-495f-a3f1-b5cf562d2ecf","ios":"levelo://app?vid=48939965-4329-495f-a3f1-b5cf562d2ecf"},"vehicle_type_id":"4","last_reported":1745338347,"current_range_meters":15200,"station_id":"ce4bh112rcd13ifvqda0","pricing_plan_id":"cebpf4jnsgd1na2vs0mg"},{"bike_id":"bfae20da-3f72-4ccb-98fb-8aabd3108edc","system_id":"levelo_inurba_marseille","lat":43.32495,"lon":5.3647,"is_reserved":false,"is_disabled":false,"rental_uris":{"android":"levelo://app?vid=bfae20da-3f72-4ccb-98fb-8aabd3108edc","ios":"levelo://app?vid=bfae20da-3f72-4ccb-98fb-8aabd3108edc"},"vehicle_type_id":"4","last_reported":1745338347,"current_range_meters":16000,"station_id":"","pricing_plan_id":"cebpf4jnsgd1na2vs0mg"},{"bike_id":"3e837998-2b8e-468b-8252-8f96bd54b5ae","system_id":"levelo_inurba_marseille","lat":43.32655,"lon":5.41,"is_reserved":false,"is_disabled":false,"rental_uris":{"android":"levelo://app?vid=3e837998-2b8e-468b-8252-8f96bd54b5ae","ios":"levelo://app?vid=3e837998-2b8e-468b-8252-8f96bd54b5ae"},"vehicle_type_id":"4","last_reported":1745338347,"current_range_meters":15200,"station_id":"ce4bhpp2rcd13ifvqhgg","pricing_plan_id":"cebpf4jnsgd1na2vs0mg"},{"bike_id":"db4fe902-0126-4edd-abf2-5bcd0b11114b","system_id":"levelo_inurba_marseille","lat":43.29417,"lon":5.38629,"is_reserved":false,"is_disabled":false,"rental_uris":{"android":"levelo://app?vid=db4fe902-0126-4edd-abf2-5bcd0b11114b","ios":"levelo://app?vid=db4fe902-0126-4edd-abf2-5bcd0b11114b"},"vehicle_type_id":"4","last_reported":1745338347,"current_range_meters":16400,"station_id":"ce4bh2h2rcd13ifvqdh0","pricing_plan_id":"cebpf4jnsgd1na2vs0mg"},{"bike_id":"e27fb795-e41f-4bd9-ba83-f15f09d54cbf","system_id":"levelo_inurba_marseille","lat":43.303272,"lon":5.404333,"is_reserved":false,"is_disabled":false,"rental_uris":{"android":"levelo://app?vid=e27fb795-e41f-4bd9-ba83-f15f09d54cbf","ios":"levelo://app?vid=e27fb795-e41f-4bd9-ba83-f15f09d54cbf"},"vehicle_type_id":"4","last_reported":1745338347,"current_range_meters":16400,"station_id":"ce4bh012rcd13ifvqd10","pricing_plan_id":"cebpf4jnsgd1na2vs0mg"},{"bike_id":"abd226a8-d003-4133-b9d2-b7c952b7ead1","system_id":"levelo_inurba_marseille","lat":43.230589,"lon":5.354955,"is_reserved":false,"is_disabled":false,"rental_uris":{"android":"levelo://app?vid=abd226a8-d003-4133-b9d2-b7c952b7ead1","ios":"levelo://app?vid=abd226a8-d003-4133-b9d2-b7c952b7ead1"},"vehicle_type_id":"4","last_reported":1745338347,"current_range_meters":16800,"station_id":"cpo3342slgdg3j2ifvpg","pricing_plan_id":"cebpf4jnsgd1na2vs0mg"},{"bike_id":"ba518ec4-3df9-4ef1-bcdc-0e3e123be9a6","system_id":"levelo_inurba_marseille","lat":43.2957,"lon":5.39984,"is_reserved":false,"is_disabled":false,"rental_uris":{"android":"levelo://app?vid=ba518ec4-3df9-4ef1-bcdc-0e3e123be9a6","ios":"levelo://app?vid=ba518ec4-3df9-4ef1-bcdc-0e3e123be9a6"},"vehicle_type_id":"4","last_reported":1745338347,"current_range_meters":16800,"station_id":"ce4bh312rcd13ifvqdj0","pricing_plan_id":"cebpf4jnsgd1na2vs0mg"},{"bike_id":"0c901516-c9ed-4dc2-8976-29be9e1a03d9","system_id":"levelo_inurba_marseille","lat":43.30427,"lon":5.3888,"is_reserved":false,"is_disabled":false,"rental_uris":{"android":"levelo://app?vid=0c901516-c9ed-4dc2-8976-29be9e1a03d9","ios":"levelo://app?vid=0c901516-c9ed-4dc2-8976-29be9e1a03d9"},"vehicle_type_id":"4","last_reported":1745338347,"current_range_meters":16800,"station_id":"ce4bgk12rcd13ifvqbi0","pricing_plan_id":"cebpf4jnsgd1na2vs0mg"},{"bike_id":"f65f1409-d2ad-45ac-b497-ac4e35a45374","system_id":"levelo_inurba_marseille","lat":43.285664,"lon":5.395051,"is_reserved":false,"is_disabled":false,"rental_uris":{"android":"levelo://app?vid=f65f1409-d2ad-45ac-b497-ac4e35a45374","ios":"levelo://app?vid=f65f1409-d2ad-45ac-b497-ac4e35a45374"},"vehicle_type_id":"4","last_reported":1745338347,"current_range_meters":16800,"station_id":"ce4bh292rcd13ifvqdg0","pricing_plan_id":"cebpf4jnsgd1na2vs0mg"},{"bike_id":"4058f62d-ca8f-492f-8fca-74ec3189f044","system_id":"levelo_inurba_marseille","lat":43.29857,"lon":5.39768,"is_reserved":false,"is_disabled":false,"rental_uris":{"android":"levelo://app?vid=4058f62d-ca8f-492f-8fca-74ec3189f044","ios":"levelo://app?vid=4058f62d-ca8f-492f-8fca-74ec3189f044"},"vehicle_type_id":"4","last_reported":1745338347,"current_range_meters":17200,"station_id":"ce4bh0h2rcd13ifvqd50","pricing_plan_id":"cebpf4jnsgd1na2vs0mg"},{"bike_id":"80827eb1-9264-4bd8-965b-baf9e480f7c8","system_id":"levelo_inurba_marseille","lat":43.26211,"lon":5.3744,"is_reserved":false,"is_disabled":true,"rental_uris":{"android":"levelo://app?vid=80827eb1-9264-4bd8-965b-baf9e480f7c8","ios":"levelo://app?vid=80827eb1-9264-4bd8-965b-baf9e480f7c8"},"vehicle_type_id":"4","last_reported":1745338347,"current_range_meters":17200,"station_id":"ce4bhgp2rcd13ifvqfc0","pricing_plan_id":"cebpf4jnsgd1na2vs0mg"},{"bike_id":"d318535d-6c1b-43f6-bc32-a5f831fd9331","system_id":"levelo_inurba_marseille","lat":43.3046,"lon":5.37901,"is_reserved":false,"is_disabled":false,"rental_uris":{"android":"levelo://app?vid=d318535d-6c1b-43f6-bc32-a5f831fd9331","ios":"levelo://app?vid=d318535d-6c1b-43f6-bc32-a5f831fd9331"},"vehicle_type_id":"4","last_reported":1745338347,"current_range_meters":17200,"station_id":"ce4bgup2rcd13ifvqcn0","pricing_plan_id":"cebpf4jnsgd1na2vs0mg"},{"bike_id":"af0c6dcc-5797-49b1-9cb9-8e18bda3c83c","system_id":"levelo_inurba_marseille","lat":43.30166,"lon":5.39805,"is_reserved":false,"is_disabled":false,"rental_uris":{"android":"levelo://app?vid=af0c6dcc-5797-49b1-9cb9-8e18bda3c83c","ios":"levelo://app?vid=af0c6dcc-5797-49b1-9cb9-8e18bda3c83c"},"vehicle_type_id":"4","last_reported":1745338347,"current_range_meters":17200,"station_id":"ce4bh0h2rcd13ifvqd40","pricing_plan_id":"cebpf4jnsgd1na2vs0mg"},{"bike_id":"7ea00184-892d-45b7-ab0e-25ce2dff41b1","system_id":"levelo_inurba_marseille","lat":43.2903,"lon":5.38638,"is_reserved":false,"is_disabled":false,"rental_uris":{"android":"levelo://app?vid=7ea00184-892d-45b7-ab0e-25ce2dff41b1","ios":"levelo://app?vid=7ea00184-892d-45b7-ab0e-25ce2dff41b1"},"vehicle_type_id":"4","last_reported":1745338347,"current_range_meters":16800,"station_id":"ce4bh4p2rcd13ifvqe0g","pricing_plan_id":"cebpf4jnsgd1na2vs0mg"},{"bike_id":"1b903b38-38de-4714-9a2c-59836acfa168","system_id":"levelo_inurba_marseille","lat":43.3171,"lon":5.43698,"is_reserved":false,"is_disabled":true,"rental_uris":{"android":"levelo://app?vid=1b903b38-38de-4714-9a2c-59836acfa168","ios":"levelo://app?vid=1b903b38-38de-4714-9a2c-59836acfa168"},"vehicle_type_id":"4","last_reported":1745338347,"current_range_meters":17200,"station_id":"ce4bhp92rcd13ifvqhcg","pricing_plan_id":"cebpf4jnsgd1na2vs0mg"},{"bike_id":"fee40862-d151-4f0b-8bc1-988c5f30e2f6","system_id":"levelo_inurba_marseille","lat":43.312714,"lon":5.401702,"is_reserved":false,"is_disabled":false,"rental_uris":{"android":"levelo://app?vid=fee40862-d151-4f0b-8bc1-988c5f30e2f6","ios":"levelo://app?vid=fee40862-d151-4f0b-8bc1-988c5f30e2f6"},"vehicle_type_id":"4","last_reported":1745338347,"current_range_meters":17600,"station_id":"ce4bh092rcd13ifvqd30","pricing_plan_id":"cebpf4jnsgd1na2vs0mg"},{"bike_id":"9f1e349e-7f44-420f-95ec-c319dae210f6","system_id":"levelo_inurba_marseille","lat":43.292113,"lon":5.383859,"is_reserved":false,"is_disabled":true,"rental_uris":{"android":"levelo://app?vid=9f1e349e-7f44-420f-95ec-c319dae210f6","ios":"levelo://app?vid=9f1e349e-7f44-420f-95ec-c319dae210f6"},"vehicle_type_id":"4","last_reported":1745338347,"current_range_meters":17600,"station_id":"","pricing_plan_id":"cebpf4jnsgd1na2vs0mg"},{"bike_id":"d962937d-a2c0-4f7f-9d5f-d2025eec3422","system_id":"levelo_inurba_marseille","lat":43.25396,"lon":5.41847,"is_reserved":false,"is_disabled":false,"rental_uris":{"android":"levelo://app?vid=d962937d-a2c0-4f7f-9d5f-d2025eec3422","ios":"levelo://app?vid=d962937d-a2c0-4f7f-9d5f-d2025eec3422"},"vehicle_type_id":"4","last_reported":1745338347,"current_range_meters":17600,"station_id":"","pricing_plan_id":"cebpf4jnsgd1na2vs0mg"},{"bike_id":"5b94ea54-20c4-4d7c-a801-63e423b7ca07","system_id":"levelo_inurba_marseille","lat":43.28154,"lon":5.42638,"is_reserved":false,"is_disabled":false,"rental_uris":{"android":"levelo://app?vid=5b94ea54-20c4-4d7c-a801-63e423b7ca07","ios":"levelo://app?vid=5b94ea54-20c4-4d7c-a801-63e423b7ca07"},"vehicle_type_id":"4","last_reported":1745338347,"current_range_meters":17600,"station_id":"ce4bhnh2rcd13ifvqgug","pricing_plan_id":"cebpf4jnsgd1na2vs0mg"},{"bike_id":"d20e929c-75aa-460a-a593-efd1da3a752a","system_id":"levelo_inurba_marseille","lat":43.280765,"lon":5.396522,"is_reserved":false,"is_disabled":false,"rental_uris":{"android":"levelo://app?vid=d20e929c-75aa-460a-a593-efd1da3a752a","ios":"levelo://app?vid=d20e929c-75aa-460a-a593-efd1da3a752a"},"vehicle_type_id":"4","last_reported":1745338347,"current_range_meters":17600,"station_id":"ce4bho12rcd13ifvqh2g","pricing_plan_id":"cebpf4jnsgd1na2vs0mg"},{"bike_id":"3635d0ae-bf27-483a-8e98-202a1ac5a167","system_id":"levelo_inurba_marseille","lat":43.29093,"lon":5.38126,"is_reserved":false,"is_disabled":false,"rental_uris":{"android":"levelo://app?vid=3635d0ae-bf27-483a-8e98-202a1ac5a167","ios":"levelo://app?vid=3635d0ae-bf27-483a-8e98-202a1ac5a167"},"vehicle_type_id":"4","last_reported":1745338347,"current_range_meters":17200,"station_id":"ce4bh512rcd13ifvqe2g","pricing_plan_id":"cebpf4jnsgd1na2vs0mg"},{"bike_id":"143366c5-0112-448a-9e8a-04f0120e0834","system_id":"levelo_inurba_marseille","lat":43.31677,"lon":5.404579,"is_reserved":false,"is_disabled":false,"rental_uris":{"android":"levelo://app?vid=143366c5-0112-448a-9e8a-04f0120e0834","ios":"levelo://app?vid=143366c5-0112-448a-9e8a-04f0120e0834"},"vehicle_type_id":"4","last_reported":1745338347,"current_range_meters":18000,"station_id":"ce4bgt92rcd13ifvqcg0","pricing_plan_id":"cebpf4jnsgd1na2vs0mg"},{"bike_id":"97a0a962-5811-4c16-9a48-4437ade22c3b","system_id":"levelo_inurba_marseille","lat":43.28452,"lon":5.39201,"is_reserved":false,"is_disabled":false,"rental_uris":{"android":"levelo://app?vid=97a0a962-5811-4c16-9a48-4437ade22c3b","ios":"levelo://app?vid=97a0a962-5811-4c16-9a48-4437ade22c3b"},"vehicle_type_id":"4","last_reported":1745338347,"current_range_meters":18000,"station_id":"ce4bhoh2rcd13ifvqh5g","pricing_plan_id":"cebpf4jnsgd1na2vs0mg"},{"bike_id":"2958702b-6f60-4c23-88d4-37649b2b931b","system_id":"levelo_inurba_marseille","lat":43.29882,"lon":5.39751,"is_reserved":false,"is_disabled":false,"rental_uris":{"android":"levelo://app?vid=2958702b-6f60-4c23-88d4-37649b2b931b","ios":"levelo://app?vid=2958702b-6f60-4c23-88d4-37649b2b931b"},"vehicle_type_id":"4","last_reported":1745338347,"current_range_meters":18000,"station_id":"ce4bh0h2rcd13ifvqd50","pricing_plan_id":"cebpf4jnsgd1na2vs0mg"},{"bike_id":"2b1b0ee9-01b2-4105-9a1a-e46cfc992a6b","system_id":"levelo_inurba_marseille","lat":43.29251,"lon":5.38434,"is_reserved":false,"is_disabled":false,"rental_uris":{"android":"levelo://app?vid=2b1b0ee9-01b2-4105-9a1a-e46cfc992a6b","ios":"levelo://app?vid=2b1b0ee9-01b2-4105-9a1a-e46cfc992a6b"},"vehicle_type_id":"4","last_reported":1745338347,"current_range_meters":18000,"station_id":"ce4bh692rcd13ifvqea0","pricing_plan_id":"cebpf4jnsgd1na2vs0mg"},{"bike_id":"0902d775-109f-4326-869b-a04889228cd2","system_id":"levelo_inurba_marseille","lat":43.26569,"lon":5.39013,"is_reserved":false,"is_disabled":false,"rental_uris":{"android":"levelo://app?vid=0902d775-109f-4326-869b-a04889228cd2","ios":"levelo://app?vid=0902d775-109f-4326-869b-a04889228cd2"},"vehicle_type_id":"4","last_reported":1745338347,"current_range_meters":18000,"station_id":"ce4bhe12rcd13ifvqf30","pricing_plan_id":"cebpf4jnsgd1na2vs0mg"},{"bike_id":"84cc6382-570a-48e1-95cf-2056bb88a115","system_id":"levelo_inurba_marseille","lat":43.327585,"lon":5.392098,"is_reserved":false,"is_disabled":false,"rental_uris":{"android":"levelo://app?vid=84cc6382-570a-48e1-95cf-2056bb88a115","ios":"levelo://app?vid=84cc6382-570a-48e1-95cf-2056bb88a115"},"vehicle_type_id":"4","last_reported":1745338347,"current_range_meters":18000,"station_id":"","pricing_plan_id":"cebpf4jnsgd1na2vs0mg"},{"bike_id":"a1835b16-9e05-4b53-baf5-10eeb04320bb","system_id":"levelo_inurba_marseille","lat":43.28693,"lon":5.37406,"is_reserved":false,"is_disabled":true,"rental_uris":{"android":"levelo://app?vid=a1835b16-9e05-4b53-baf5-10eeb04320bb","ios":"levelo://app?vid=a1835b16-9e05-4b53-baf5-10eeb04320bb"},"vehicle_type_id":"4","last_reported":1745338347,"current_range_meters":18800,"station_id":"ce4bh3p2rcd13ifvqdq0","pricing_plan_id":"cebpf4jnsgd1na2vs0mg"},{"bike_id":"c4b91016-9d5c-40db-9331-7cbb88f248f3","system_id":"levelo_inurba_marseille","lat":43.28853,"lon":5.39316,"is_reserved":false,"is_disabled":false,"rental_uris":{"android":"levelo://app?vid=c4b91016-9d5c-40db-9331-7cbb88f248f3","ios":"levelo://app?vid=c4b91016-9d5c-40db-9331-7cbb88f248f3"},"vehicle_type_id":"4","last_reported":1745338347,"current_range_meters":18800,"station_id":"ce4bh2p2rcd13ifvqdi0","pricing_plan_id":"cebpf4jnsgd1na2vs0mg"},{"bike_id":"c2abeb24-ab4e-4c06-bcf7-b55ba328069f","system_id":"levelo_inurba_marseille","lat":43.3132,"lon":5.39708,"is_reserved":false,"is_disabled":false,"rental_uris":{"android":"levelo://app?vid=c2abeb24-ab4e-4c06-bcf7-b55ba328069f","ios":"levelo://app?vid=c2abeb24-ab4e-4c06-bcf7-b55ba328069f"},"vehicle_type_id":"4","last_reported":1745338347,"current_range_meters":18800,"station_id":"ce4bgvp2rcd13ifvqcu0","pricing_plan_id":"cebpf4jnsgd1na2vs0mg"},{"bike_id":"7c2f3fe2-a69d-42e6-8624-8a00afda932b","system_id":"levelo_inurba_marseille","lat":43.30312,"lon":5.40462,"is_reserved":false,"is_disabled":false,"rental_uris":{"android":"levelo://app?vid=7c2f3fe2-a69d-42e6-8624-8a00afda932b","ios":"levelo://app?vid=7c2f3fe2-a69d-42e6-8624-8a00afda932b"},"vehicle_type_id":"4","last_reported":1745338347,"current_range_meters":19200,"station_id":"ce4bh012rcd13ifvqd10","pricing_plan_id":"cebpf4jnsgd1na2vs0mg"},{"bike_id":"6510f097-1a48-450c-96dd-f72578eda1e1","system_id":"levelo_inurba_marseille","lat":43.24797,"lon":5.37468,"is_reserved":false,"is_disabled":false,"rental_uris":{"android":"levelo://app?vid=6510f097-1a48-450c-96dd-f72578eda1e1","ios":"levelo://app?vid=6510f097-1a48-450c-96dd-f72578eda1e1"},"vehicle_type_id":"4","last_reported":1745338347,"current_range_meters":18800,"station_id":"ce4bhgh2rcd13ifvqfb0","pricing_plan_id":"cebpf4jnsgd1na2vs0mg"},{"bike_id":"7b2dc864-a4e9-468c-9cee-f3075a20977d","system_id":"levelo_inurba_marseille","lat":43.31465,"lon":5.37375,"is_reserved":false,"is_disabled":false,"rental_uris":{"android":"levelo://app?vid=7b2dc864-a4e9-468c-9cee-f3075a20977d","ios":"levelo://app?vid=7b2dc864-a4e9-468c-9cee-f3075a20977d"},"vehicle_type_id":"4","last_reported":1745338347,"current_range_meters":19200,"station_id":"","pricing_plan_id":"cebpf4jnsgd1na2vs0mg"},{"bike_id":"0529d891-2d9b-4d93-af79-27336fdd5c7e","system_id":"levelo_inurba_marseille","lat":43.28028,"lon":5.3695,"is_reserved":false,"is_disabled":false,"rental_uris":{"android":"levelo://app?vid=0529d891-2d9b-4d93-af79-27336fdd5c7e","ios":"levelo://app?vid=0529d891-2d9b-4d93-af79-27336fdd5c7e"},"vehicle_type_id":"4","last_reported":1745338347,"current_range_meters":19200,"station_id":"ce4bha12rcd13ifvqef0","pricing_plan_id":"cebpf4jnsgd1na2vs0mg"},{"bike_id":"4121b74a-9379-4913-a4f9-7ec19fb67b40","system_id":"levelo_inurba_marseille","lat":43.31173,"lon":5.38711,"is_reserved":false,"is_disabled":false,"rental_uris":{"android":"levelo://app?vid=4121b74a-9379-4913-a4f9-7ec19fb67b40","ios":"levelo://app?vid=4121b74a-9379-4913-a4f9-7ec19fb67b40"},"vehicle_type_id":"4","last_reported":1745338347,"current_range_meters":18800,"station_id":"ce4bgv12rcd13ifvqcp0","pricing_plan_id":"cebpf4jnsgd1na2vs0mg"},{"bike_id":"dc0a47a3-e95c-4b5c-91ea-602c9dce4fa5","system_id":"levelo_inurba_marseille","lat":43.23191,"lon":5.39979,"is_reserved":false,"is_disabled":false,"rental_uris":{"android":"levelo://app?vid=dc0a47a3-e95c-4b5c-91ea-602c9dce4fa5","ios":"levelo://app?vid=dc0a47a3-e95c-4b5c-91ea-602c9dce4fa5"},"vehicle_type_id":"4","last_reported":1745338347,"current_range_meters":18800,"station_id":"ce4bhn12rcd13ifvqgqg","pricing_plan_id":"cebpf4jnsgd1na2vs0mg"},{"bike_id":"f11d9d29-444e-4f45-8bdb-6a2f55ca79f8","system_id":"levelo_inurba_marseille","lat":43.27917,"lon":5.39594,"is_reserved":false,"is_disabled":false,"rental_uris":{"android":"levelo://app?vid=f11d9d29-444e-4f45-8bdb-6a2f55ca79f8","ios":"levelo://app?vid=f11d9d29-444e-4f45-8bdb-6a2f55ca79f8"},"vehicle_type_id":"4","last_reported":1745338347,"current_range_meters":19200,"station_id":"ce4bhf92rcd13ifvqf40","pricing_plan_id":"cebpf4jnsgd1na2vs0mg"},{"bike_id":"80e875a0-ca7a-4e99-b4a7-9d4b91b0dd4b","system_id":"levelo_inurba_marseille","lat":43.282621,"lon":5.350725,"is_reserved":false,"is_disabled":false,"rental_uris":{"android":"levelo://app?vid=80e875a0-ca7a-4e99-b4a7-9d4b91b0dd4b","ios":"levelo://app?vid=80e875a0-ca7a-4e99-b4a7-9d4b91b0dd4b"},"vehicle_type_id":"4","last_reported":1745338347,"current_range_meters":18800,"station_id":"ce4bgjp2rcd13ifvqbh0","pricing_plan_id":"cebpf4jnsgd1na2vs0mg"},{"bike_id":"9ba456f2-a087-45bb-a396-be77b6e33b03","system_id":"levelo_inurba_marseille","lat":43.29727,"lon":5.37715,"is_reserved":false,"is_disabled":false,"rental_uris":{"android":"levelo://app?vid=9ba456f2-a087-45bb-a396-be77b6e33b03","ios":"levelo://app?vid=9ba456f2-a087-45bb-a396-be77b6e33b03"},"vehicle_type_id":"4","last_reported":1745338347,"current_range_meters":18800,"station_id":"ce4bgkh2rcd13ifvqbl0","pricing_plan_id":"cebpf4jnsgd1na2vs0mg"},{"bike_id":"7d0732b3-4a39-4151-a5c6-d7640d514b26","system_id":"levelo_inurba_marseille","lat":43.28844,"lon":5.39316,"is_reserved":false,"is_disabled":false,"rental_uris":{"android":"levelo://app?vid=7d0732b3-4a39-4151-a5c6-d7640d514b26","ios":"levelo://app?vid=7d0732b3-4a39-4151-a5c6-d7640d514b26"},"vehicle_type_id":"4","last_reported":1745338347,"current_range_meters":19200,"station_id":"ce4bh2p2rcd13ifvqdi0","pricing_plan_id":"cebpf4jnsgd1na2vs0mg"},{"bike_id":"b2df73f5-a095-40e7-ac9f-0e75104017ba","system_id":"levelo_inurba_marseille","lat":43.30435,"lon":5.39744,"is_reserved":false,"is_disabled":false,"rental_uris":{"android":"levelo://app?vid=b2df73f5-a095-40e7-ac9f-0e75104017ba","ios":"levelo://app?vid=b2df73f5-a095-40e7-ac9f-0e75104017ba"},"vehicle_type_id":"4","last_reported":1745338347,"current_range_meters":19200,"station_id":"ce4bh092rcd13ifvqd20","pricing_plan_id":"cebpf4jnsgd1na2vs0mg"},{"bike_id":"a24962a5-f455-4c13-91da-db4f79c4f155","system_id":"levelo_inurba_marseille","lat":43.29524,"lon":5.3905,"is_reserved":false,"is_disabled":false,"rental_uris":{"android":"levelo://app?vid=a24962a5-f455-4c13-91da-db4f79c4f155","ios":"levelo://app?vid=a24962a5-f455-4c13-91da-db4f79c4f155"},"vehicle_type_id":"4","last_reported":1745338347,"current_range_meters":19200,"station_id":"ce4bh3p2rcd13ifvqdp0","pricing_plan_id":"cebpf4jnsgd1na2vs0mg"},{"bike_id":"b5d609bf-0c9b-49e3-9426-ce02cb8383b8","system_id":"levelo_inurba_marseille","lat":43.34153,"lon":5.40909,"is_reserved":false,"is_disabled":true,"rental_uris":{"android":"levelo://app?vid=b5d609bf-0c9b-49e3-9426-ce02cb8383b8","ios":"levelo://app?vid=b5d609bf-0c9b-49e3-9426-ce02cb8383b8"},"vehicle_type_id":"4","last_reported":1745338347,"current_range_meters":19600,"station_id":"ce4bhqh2rcd13ifvqhlg","pricing_plan_id":"cebpf4jnsgd1na2vs0mg"},{"bike_id":"02285b2f-72e0-42d0-97bb-1ef1af0b16f8","system_id":"levelo_inurba_marseille","lat":43.26931,"lon":5.38924,"is_reserved":false,"is_disabled":false,"rental_uris":{"android":"levelo://app?vid=02285b2f-72e0-42d0-97bb-1ef1af0b16f8","ios":"levelo://app?vid=02285b2f-72e0-42d0-97bb-1ef1af0b16f8"},"vehicle_type_id":"4","last_reported":1745338347,"current_range_meters":19600,"station_id":"ce4bhhh2rcd13ifvqfl0","pricing_plan_id":"cebpf4jnsgd1na2vs0mg"},{"bike_id":"683d69bb-0d6f-4dad-8dc0-62c5fc9c4a97","system_id":"levelo_inurba_marseille","lat":43.29435,"lon":5.39734,"is_reserved":false,"is_disabled":false,"rental_uris":{"android":"levelo://app?vid=683d69bb-0d6f-4dad-8dc0-62c5fc9c4a97","ios":"levelo://app?vid=683d69bb-0d6f-4dad-8dc0-62c5fc9c4a97"},"vehicle_type_id":"4","last_reported":1745338347,"current_range_meters":19200,"station_id":"ce4bh3h2rcd13ifvqdo0","pricing_plan_id":"cebpf4jnsgd1na2vs0mg"},{"bike_id":"24ad0ca0-574b-4890-8c84-f81366582e98","system_id":"levelo_inurba_marseille","lat":43.3093,"lon":5.40143,"is_reserved":false,"is_disabled":false,"rental_uris":{"android":"levelo://app?vid=24ad0ca0-574b-4890-8c84-f81366582e98","ios":"levelo://app?vid=24ad0ca0-574b-4890-8c84-f81366582e98"},"vehicle_type_id":"4","last_reported":1745338347,"current_range_meters":19600,"station_id":"ce4bgvp2rcd13ifvqct0","pricing_plan_id":"cebpf4jnsgd1na2vs0mg"},{"bike_id":"46374c49-3adc-4c5a-8966-e00f056c0d57","system_id":"levelo_inurba_marseille","lat":43.27846,"lon":5.35442,"is_reserved":false,"is_disabled":false,"rental_uris":{"android":"levelo://app?vid=46374c49-3adc-4c5a-8966-e00f056c0d57","ios":"levelo://app?vid=46374c49-3adc-4c5a-8966-e00f056c0d57"},"vehicle_type_id":"4","last_reported":1745338347,"current_range_meters":20000,"station_id":"","pricing_plan_id":"cebpf4jnsgd1na2vs0mg"},{"bike_id":"2c69cede-a2a5-42fd-96f7-b1eff349b7c3","system_id":"levelo_inurba_marseille","lat":43.3014,"lon":5.39863,"is_reserved":false,"is_disabled":false,"rental_uris":{"android":"levelo://app?vid=2c69cede-a2a5-42fd-96f7-b1eff349b7c3","ios":"levelo://app?vid=2c69cede-a2a5-42fd-96f7-b1eff349b7c3"},"vehicle_type_id":"4","last_reported":1745338347,"current_range_meters":20000,"station_id":"ce4bh0h2rcd13ifvqd40","pricing_plan_id":"cebpf4jnsgd1na2vs0mg"},{"bike_id":"dbd75b23-b39c-4971-9b77-cd10a158585a","system_id":"levelo_inurba_marseille","lat":43.29306,"lon":5.37183,"is_reserved":false,"is_disabled":false,"rental_uris":{"android":"levelo://app?vid=dbd75b23-b39c-4971-9b77-cd10a158585a","ios":"levelo://app?vid=dbd75b23-b39c-4971-9b77-cd10a158585a"},"vehicle_type_id":"4","last_reported":1745338347,"current_range_meters":20000,"station_id":"ce4bgh92rcd13ifvqb40","pricing_plan_id":"cebpf4jnsgd1na2vs0mg"},{"bike_id":"f98bcad6-534d-4647-9654-acf13ee2a765","system_id":"levelo_inurba_marseille","lat":43.29643,"lon":5.37451,"is_reserved":false,"is_disabled":false,"rental_uris":{"android":"levelo://app?vid=f98bcad6-534d-4647-9654-acf13ee2a765","ios":"levelo://app?vid=f98bcad6-534d-4647-9654-acf13ee2a765"},"vehicle_type_id":"4","last_reported":1745338347,"current_range_meters":20400,"station_id":"","pricing_plan_id":"cebpf4jnsgd1na2vs0mg"},{"bike_id":"057ecee1-8707-4c50-b9f5-50ccc6147b4e","system_id":"levelo_inurba_marseille","lat":43.32363,"lon":5.38901,"is_reserved":false,"is_disabled":false,"rental_uris":{"android":"levelo://app?vid=057ecee1-8707-4c50-b9f5-50ccc6147b4e","ios":"levelo://app?vid=057ecee1-8707-4c50-b9f5-50ccc6147b4e"},"vehicle_type_id":"4","last_reported":1745338347,"current_range_meters":20000,"station_id":"ce4bhqp2rcd13ifvqhog","pricing_plan_id":"cebpf4jnsgd1na2vs0mg"},{"bike_id":"9d57b4d9-bc23-4985-9c6e-7e75718c67d1","system_id":"levelo_inurba_marseille","lat":43.28855,"lon":5.39326,"is_reserved":false,"is_disabled":false,"rental_uris":{"android":"levelo://app?vid=9d57b4d9-bc23-4985-9c6e-7e75718c67d1","ios":"levelo://app?vid=9d57b4d9-bc23-4985-9c6e-7e75718c67d1"},"vehicle_type_id":"4","last_reported":1745338347,"current_range_meters":20000,"station_id":"ce4bh2p2rcd13ifvqdi0","pricing_plan_id":"cebpf4jnsgd1na2vs0mg"},{"bike_id":"1eba1014-9356-407a-ae62-418877a7d655","system_id":"levelo_inurba_marseille","lat":43.31265,"lon":5.40172,"is_reserved":false,"is_disabled":false,"rental_uris":{"android":"levelo://app?vid=1eba1014-9356-407a-ae62-418877a7d655","ios":"levelo://app?vid=1eba1014-9356-407a-ae62-418877a7d655"},"vehicle_type_id":"4","last_reported":1745338347,"current_range_meters":20400,"station_id":"ce4bh092rcd13ifvqd30","pricing_plan_id":"cebpf4jnsgd1na2vs0mg"},{"bike_id":"00ca5159-a020-47f7-ac37-65092f5d1646","system_id":"levelo_inurba_marseille","lat":43.2871,"lon":5.37368,"is_reserved":false,"is_disabled":false,"rental_uris":{"android":"levelo://app?vid=00ca5159-a020-47f7-ac37-65092f5d1646","ios":"levelo://app?vid=00ca5159-a020-47f7-ac37-65092f5d1646"},"vehicle_type_id":"4","last_reported":1745338347,"current_range_meters":20400,"station_id":"ce4bh3p2rcd13ifvqdq0","pricing_plan_id":"cebpf4jnsgd1na2vs0mg"},{"bike_id":"63a25c8d-718e-4b4f-a842-98f7e01be976","system_id":"levelo_inurba_marseille","lat":43.30614,"lon":5.37236,"is_reserved":false,"is_disabled":false,"rental_uris":{"android":"levelo://app?vid=63a25c8d-718e-4b4f-a842-98f7e01be976","ios":"levelo://app?vid=63a25c8d-718e-4b4f-a842-98f7e01be976"},"vehicle_type_id":"4","last_reported":1745338347,"current_range_meters":20400,"station_id":"ce4bgqh2rcd13ifvqc4g","pricing_plan_id":"cebpf4jnsgd1na2vs0mg"},{"bike_id":"5db108ee-62ee-469f-ba40-5696020f2242","system_id":"levelo_inurba_marseille","lat":43.23961,"lon":5.36626,"is_reserved":false,"is_disabled":false,"rental_uris":{"android":"levelo://app?vid=5db108ee-62ee-469f-ba40-5696020f2242","ios":"levelo://app?vid=5db108ee-62ee-469f-ba40-5696020f2242"},"vehicle_type_id":"4","last_reported":1745338347,"current_range_meters":20400,"station_id":"ce4bhi12rcd13ifvqfp0","pricing_plan_id":"cebpf4jnsgd1na2vs0mg"},{"bike_id":"22f8275c-67c7-462e-919a-fa69cc36ddb7","system_id":"levelo_inurba_marseille","lat":43.30354,"lon":5.41876,"is_reserved":false,"is_disabled":false,"rental_uris":{"android":"levelo://app?vid=22f8275c-67c7-462e-919a-fa69cc36ddb7","ios":"levelo://app?vid=22f8275c-67c7-462e-919a-fa69cc36ddb7"},"vehicle_type_id":"4","last_reported":1745338347,"current_range_meters":20400,"station_id":"ce4bhop2rcd13ifvqh7g","pricing_plan_id":"cebpf4jnsgd1na2vs0mg"},{"bike_id":"26e8885b-795d-4570-bbc8-92128f083f98","system_id":"levelo_inurba_marseille","lat":43.28617,"lon":5.35107,"is_reserved":false,"is_disabled":false,"rental_uris":{"android":"levelo://app?vid=26e8885b-795d-4570-bbc8-92128f083f98","ios":"levelo://app?vid=26e8885b-795d-4570-bbc8-92128f083f98"},"vehicle_type_id":"4","last_reported":1745338347,"current_range_meters":20800,"station_id":"ce4bhch2rcd13ifvqeug","pricing_plan_id":"cebpf4jnsgd1na2vs0mg"},{"bike_id":"d42e2182-8d5f-4ef0-b9c9-2df5595af639","system_id":"levelo_inurba_marseille","lat":43.28973,"lon":5.36337,"is_reserved":false,"is_disabled":false,"rental_uris":{"android":"levelo://app?vid=d42e2182-8d5f-4ef0-b9c9-2df5595af639","ios":"levelo://app?vid=d42e2182-8d5f-4ef0-b9c9-2df5595af639"},"vehicle_type_id":"4","last_reported":1745338347,"current_range_meters":20800,"station_id":"ce4bhc92rcd13ifvqetg","pricing_plan_id":"cebpf4jnsgd1na2vs0mg"},{"bike_id":"a7e9c03d-403b-47cc-b777-715831a09ed4","system_id":"levelo_inurba_marseille","lat":43.28457,"lon":5.35892,"is_reserved":false,"is_disabled":false,"rental_uris":{"android":"levelo://app?vid=a7e9c03d-403b-47cc-b777-715831a09ed4","ios":"levelo://app?vid=a7e9c03d-403b-47cc-b777-715831a09ed4"},"vehicle_type_id":"4","last_reported":1745338347,"current_range_meters":20800,"station_id":"ce4bhah2rcd13ifvqei0","pricing_plan_id":"cebpf4jnsgd1na2vs0mg"},{"bike_id":"6621aba9-34af-42b8-a6bb-29d0168b1c54","system_id":"levelo_inurba_marseille","lat":43.3041,"lon":5.41292,"is_reserved":false,"is_disabled":false,"rental_uris":{"android":"levelo://app?vid=6621aba9-34af-42b8-a6bb-29d0168b1c54","ios":"levelo://app?vid=6621aba9-34af-42b8-a6bb-29d0168b1c54"},"vehicle_type_id":"4","last_reported":1745338347,"current_range_meters":20800,"station_id":"ce4bhop2rcd13ifvqh8g","pricing_plan_id":"cebpf4jnsgd1na2vs0mg"},{"bike_id":"25591650-a494-4d8a-9db1-4f31db76974a","system_id":"levelo_inurba_marseille","lat":43.30347,"lon":5.41891,"is_reserved":false,"is_disabled":false,"rental_uris":{"android":"levelo://app?vid=25591650-a494-4d8a-9db1-4f31db76974a","ios":"levelo://app?vid=25591650-a494-4d8a-9db1-4f31db76974a"},"vehicle_type_id":"4","last_reported":1745338347,"current_range_meters":20800,"station_id":"ce4bhop2rcd13ifvqh7g","pricing_plan_id":"cebpf4jnsgd1na2vs0mg"},{"bike_id":"4a49a464-eb52-4639-a6b1-e0c7cc246130","system_id":"levelo_inurba_marseille","lat":43.30128,"lon":5.39868,"is_reserved":false,"is_disabled":false,"rental_uris":{"android":"levelo://app?vid=4a49a464-eb52-4639-a6b1-e0c7cc246130","ios":"levelo://app?vid=4a49a464-eb52-4639-a6b1-e0c7cc246130"},"vehicle_type_id":"4","last_reported":1745338347,"current_range_meters":20800,"station_id":"ce4bh0h2rcd13ifvqd40","pricing_plan_id":"cebpf4jnsgd1na2vs0mg"},{"bike_id":"a35dbb8f-c76a-497e-b031-0335958da119","system_id":"levelo_inurba_marseille","lat":43.292694,"lon":5.384595,"is_reserved":false,"is_disabled":false,"rental_uris":{"android":"levelo://app?vid=a35dbb8f-c76a-497e-b031-0335958da119","ios":"levelo://app?vid=a35dbb8f-c76a-497e-b031-0335958da119"},"vehicle_type_id":"4","last_reported":1745338347,"current_range_meters":20800,"station_id":"ce4bgrp2rcd13ifvqc9g","pricing_plan_id":"cebpf4jnsgd1na2vs0mg"},{"bike_id":"5ce3078d-284d-4765-b103-c8e5d83f6b9b","system_id":"levelo_inurba_marseille","lat":43.28704,"lon":5.37376,"is_reserved":false,"is_disabled":false,"rental_uris":{"android":"levelo://app?vid=5ce3078d-284d-4765-b103-c8e5d83f6b9b","ios":"levelo://app?vid=5ce3078d-284d-4765-b103-c8e5d83f6b9b"},"vehicle_type_id":"4","last_reported":1745338347,"current_range_meters":21600,"station_id":"ce4bh3p2rcd13ifvqdq0","pricing_plan_id":"cebpf4jnsgd1na2vs0mg"},{"bike_id":"e3dbb390-f150-4ae6-ad51-c1210a90a527","system_id":"levelo_inurba_marseille","lat":43.326556,"lon":5.41004,"is_reserved":false,"is_disabled":false,"rental_uris":{"android":"levelo://app?vid=e3dbb390-f150-4ae6-ad51-c1210a90a527","ios":"levelo://app?vid=e3dbb390-f150-4ae6-ad51-c1210a90a527"},"vehicle_type_id":"4","last_reported":1745338347,"current_range_meters":21600,"station_id":"ce4bhpp2rcd13ifvqhgg","pricing_plan_id":"cebpf4jnsgd1na2vs0mg"},{"bike_id":"a61e6d40-2989-4632-9b05-2c91314e3813","system_id":"levelo_inurba_marseille","lat":43.29003,"lon":5.35606,"is_reserved":false,"is_disabled":false,"rental_uris":{"android":"levelo://app?vid=a61e6d40-2989-4632-9b05-2c91314e3813","ios":"levelo://app?vid=a61e6d40-2989-4632-9b05-2c91314e3813"},"vehicle_type_id":"4","last_reported":1745338347,"current_range_meters":20800,"station_id":"ce4bhb92rcd13ifvqen0","pricing_plan_id":"cebpf4jnsgd1na2vs0mg"},{"bike_id":"bc66d193-313d-40e4-a320-b341a0bba194","system_id":"levelo_inurba_marseille","lat":43.24667,"lon":5.38163,"is_reserved":false,"is_disabled":false,"rental_uris":{"android":"levelo://app?vid=bc66d193-313d-40e4-a320-b341a0bba194","ios":"levelo://app?vid=bc66d193-313d-40e4-a320-b341a0bba194"},"vehicle_type_id":"4","last_reported":1745338347,"current_range_meters":21600,"station_id":"ce4bhih2rcd13ifvqfr0","pricing_plan_id":"cebpf4jnsgd1na2vs0mg"},{"bike_id":"8e88b116-4269-4cf8-af3b-7fc7bacec497","system_id":"levelo_inurba_marseille","lat":43.28919,"lon":5.38392,"is_reserved":false,"is_disabled":false,"rental_uris":{"android":"levelo://app?vid=8e88b116-4269-4cf8-af3b-7fc7bacec497","ios":"levelo://app?vid=8e88b116-4269-4cf8-af3b-7fc7bacec497"},"vehicle_type_id":"4","last_reported":1745338347,"current_range_meters":21600,"station_id":"","pricing_plan_id":"cebpf4jnsgd1na2vs0mg"},{"bike_id":"3693bfd8-0600-4878-a268-43ddf321a775","system_id":"levelo_inurba_marseille","lat":43.292786,"lon":5.368394,"is_reserved":false,"is_disabled":false,"rental_uris":{"android":"levelo://app?vid=3693bfd8-0600-4878-a268-43ddf321a775","ios":"levelo://app?vid=3693bfd8-0600-4878-a268-43ddf321a775"},"vehicle_type_id":"4","last_reported":1745338347,"current_range_meters":21600,"station_id":"ce4bhbp2rcd13ifvqesg","pricing_plan_id":"cebpf4jnsgd1na2vs0mg"},{"bike_id":"2cd35bb3-f0e9-414f-b226-4923242f161c","system_id":"levelo_inurba_marseille","lat":43.28076,"lon":5.39593,"is_reserved":false,"is_disabled":false,"rental_uris":{"android":"levelo://app?vid=2cd35bb3-f0e9-414f-b226-4923242f161c","ios":"levelo://app?vid=2cd35bb3-f0e9-414f-b226-4923242f161c"},"vehicle_type_id":"4","last_reported":1745338347,"current_range_meters":21600,"station_id":"ce4bho12rcd13ifvqh2g","pricing_plan_id":"cebpf4jnsgd1na2vs0mg"},{"bike_id":"817d4e4e-7975-4537-b616-c0d73aadc874","system_id":"levelo_inurba_marseille","lat":43.30122,"lon":5.39873,"is_reserved":false,"is_disabled":false,"rental_uris":{"android":"levelo://app?vid=817d4e4e-7975-4537-b616-c0d73aadc874","ios":"levelo://app?vid=817d4e4e-7975-4537-b616-c0d73aadc874"},"vehicle_type_id":"4","last_reported":1745338347,"current_range_meters":21600,"station_id":"ce4bh0h2rcd13ifvqd40","pricing_plan_id":"cebpf4jnsgd1na2vs0mg"},{"bike_id":"b244cdd7-891e-41d3-bbdf-d6e3de24d190","system_id":"levelo_inurba_marseille","lat":43.29199,"lon":5.35805,"is_reserved":false,"is_disabled":true,"rental_uris":{"android":"levelo://app?vid=b244cdd7-891e-41d3-bbdf-d6e3de24d190","ios":"levelo://app?vid=b244cdd7-891e-41d3-bbdf-d6e3de24d190"},"vehicle_type_id":"4","last_reported":1745338347,"current_range_meters":22000,"station_id":"ce4bhb12rcd13ifvqel0","pricing_plan_id":"cebpf4jnsgd1na2vs0mg"},{"bike_id":"667e5b45-1a2a-41c4-bb05-a5e14adf5550","system_id":"levelo_inurba_marseille","lat":43.321167,"lon":5.367739,"is_reserved":false,"is_disabled":false,"rental_uris":{"android":"levelo://app?vid=667e5b45-1a2a-41c4-bb05-a5e14adf5550","ios":"levelo://app?vid=667e5b45-1a2a-41c4-bb05-a5e14adf5550"},"vehicle_type_id":"4","last_reported":1745338347,"current_range_meters":22000,"station_id":"ce4bhrh2rcd13ifvqhug","pricing_plan_id":"cebpf4jnsgd1na2vs0mg"},{"bike_id":"c9634beb-8f84-485e-b6a2-e643e8dfdfda","system_id":"levelo_inurba_marseille","lat":43.25725,"lon":5.41109,"is_reserved":false,"is_disabled":false,"rental_uris":{"android":"levelo://app?vid=c9634beb-8f84-485e-b6a2-e643e8dfdfda","ios":"levelo://app?vid=c9634beb-8f84-485e-b6a2-e643e8dfdfda"},"vehicle_type_id":"4","last_reported":1745338347,"current_range_meters":21600,"station_id":"ce4bhkp2rcd13ifvqgd0","pricing_plan_id":"cebpf4jnsgd1na2vs0mg"},{"bike_id":"0cd30ce1-cb1b-4b74-95e0-c3d2018f5ca3","system_id":"levelo_inurba_marseille","lat":43.28612,"lon":5.35103,"is_reserved":false,"is_disabled":false,"rental_uris":{"android":"levelo://app?vid=0cd30ce1-cb1b-4b74-95e0-c3d2018f5ca3","ios":"levelo://app?vid=0cd30ce1-cb1b-4b74-95e0-c3d2018f5ca3"},"vehicle_type_id":"4","last_reported":1745338347,"current_range_meters":22000,"station_id":"ce4bhch2rcd13ifvqeug","pricing_plan_id":"cebpf4jnsgd1na2vs0mg"},{"bike_id":"101ffc57-f6c8-4e37-892e-48024c004d76","system_id":"levelo_inurba_marseille","lat":43.27435,"lon":5.39416,"is_reserved":false,"is_disabled":false,"rental_uris":{"android":"levelo://app?vid=101ffc57-f6c8-4e37-892e-48024c004d76","ios":"levelo://app?vid=101ffc57-f6c8-4e37-892e-48024c004d76"},"vehicle_type_id":"4","last_reported":1745338347,"current_range_meters":22400,"station_id":"ce4bhdp2rcd13ifvqf20","pricing_plan_id":"cebpf4jnsgd1na2vs0mg"},{"bike_id":"65e01d98-7f6c-4891-88d3-3dfbb5d03b2a","system_id":"levelo_inurba_marseille","lat":43.28696,"lon":5.37399,"is_reserved":false,"is_disabled":false,"rental_uris":{"android":"levelo://app?vid=65e01d98-7f6c-4891-88d3-3dfbb5d03b2a","ios":"levelo://app?vid=65e01d98-7f6c-4891-88d3-3dfbb5d03b2a"},"vehicle_type_id":"4","last_reported":1745338347,"current_range_meters":22400,"station_id":"ce4bh3p2rcd13ifvqdq0","pricing_plan_id":"cebpf4jnsgd1na2vs0mg"},{"bike_id":"8103da9a-9a23-496c-8be0-db1eede7e0d4","system_id":"levelo_inurba_marseille","lat":43.301483,"lon":5.380908,"is_reserved":false,"is_disabled":false,"rental_uris":{"android":"levelo://app?vid=8103da9a-9a23-496c-8be0-db1eede7e0d4","ios":"levelo://app?vid=8103da9a-9a23-496c-8be0-db1eede7e0d4"},"vehicle_type_id":"4","last_reported":1745338347,"current_range_meters":22000,"station_id":"ce4bgjp2rcd13ifvqbh0","pricing_plan_id":"cebpf4jnsgd1na2vs0mg"},{"bike_id":"15e50ded-8f71-4839-b3f6-7f3a375c87bd","system_id":"levelo_inurba_marseille","lat":43.307827,"lon":5.396165,"is_reserved":false,"is_disabled":false,"rental_uris":{"android":"levelo://app?vid=15e50ded-8f71-4839-b3f6-7f3a375c87bd","ios":"levelo://app?vid=15e50ded-8f71-4839-b3f6-7f3a375c87bd"},"vehicle_type_id":"4","last_reported":1745338347,"current_range_meters":22400,"station_id":"ce4bh012rcd13ifvqcv0","pricing_plan_id":"cebpf4jnsgd1na2vs0mg"},{"bike_id":"7f1e8292-d27e-4258-9424-4c9af9c2b01f","system_id":"levelo_inurba_marseille","lat":43.258648,"lon":5.39896,"is_reserved":false,"is_disabled":false,"rental_uris":{"android":"levelo://app?vid=7f1e8292-d27e-4258-9424-4c9af9c2b01f","ios":"levelo://app?vid=7f1e8292-d27e-4258-9424-4c9af9c2b01f"},"vehicle_type_id":"4","last_reported":1745338347,"current_range_meters":22400,"station_id":"ce4bhi12rcd13ifvqfp0","pricing_plan_id":"cebpf4jnsgd1na2vs0mg"},{"bike_id":"e9b6f449-ecd7-4e8e-984a-1a7ddce3a47f","system_id":"levelo_inurba_marseille","lat":43.28855,"lon":5.39319,"is_reserved":false,"is_disabled":false,"rental_uris":{"android":"levelo://app?vid=e9b6f449-ecd7-4e8e-984a-1a7ddce3a47f","ios":"levelo://app?vid=e9b6f449-ecd7-4e8e-984a-1a7ddce3a47f"},"vehicle_type_id":"4","last_reported":1745338347,"current_range_meters":22400,"station_id":"ce4bh2p2rcd13ifvqdi0","pricing_plan_id":"cebpf4jnsgd1na2vs0mg"},{"bike_id":"ee1ad6cd-246c-45d2-82fb-26a4a2eb8cde","system_id":"levelo_inurba_marseille","lat":43.25496,"lon":5.37645,"is_reserved":false,"is_disabled":false,"rental_uris":{"android":"levelo://app?vid=ee1ad6cd-246c-45d2-82fb-26a4a2eb8cde","ios":"levelo://app?vid=ee1ad6cd-246c-45d2-82fb-26a4a2eb8cde"},"vehicle_type_id":"4","last_reported":1745338347,"current_range_meters":22400,"station_id":"ce4bhh12rcd13ifvqff0","pricing_plan_id":"cebpf4jnsgd1na2vs0mg"},{"bike_id":"d40dc277-486b-4703-a9c1-cc44744501bf","system_id":"levelo_inurba_marseille","lat":43.29246,"lon":5.4092,"is_reserved":false,"is_disabled":false,"rental_uris":{"android":"levelo://app?vid=d40dc277-486b-4703-a9c1-cc44744501bf","ios":"levelo://app?vid=d40dc277-486b-4703-a9c1-cc44744501bf"},"vehicle_type_id":"4","last_reported":1745338347,"current_range_meters":22400,"station_id":"ce4bh192rcd13ifvqdc0","pricing_plan_id":"cebpf4jnsgd1na2vs0mg"},{"bike_id":"8e3e1e8f-39e4-4539-9cbc-bd1b3ade33a0","system_id":"levelo_inurba_marseille","lat":43.30244,"lon":5.40059,"is_reserved":false,"is_disabled":false,"rental_uris":{"android":"levelo://app?vid=8e3e1e8f-39e4-4539-9cbc-bd1b3ade33a0","ios":"levelo://app?vid=8e3e1e8f-39e4-4539-9cbc-bd1b3ade33a0"},"vehicle_type_id":"4","last_reported":1745338347,"current_range_meters":22400,"station_id":"ce4bgvh2rcd13ifvqcs0","pricing_plan_id":"cebpf4jnsgd1na2vs0mg"},{"bike_id":"603c2ff0-3c81-4c24-9114-3aae3b9d51c5","system_id":"levelo_inurba_marseille","lat":43.28083,"lon":5.39647,"is_reserved":false,"is_disabled":false,"rental_uris":{"android":"levelo://app?vid=603c2ff0-3c81-4c24-9114-3aae3b9d51c5","ios":"levelo://app?vid=603c2ff0-3c81-4c24-9114-3aae3b9d51c5"},"vehicle_type_id":"4","last_reported":1745338347,"current_range_meters":22800,"station_id":"ce4bho12rcd13ifvqh2g","pricing_plan_id":"cebpf4jnsgd1na2vs0mg"},{"bike_id":"92e79c38-9898-491c-92c1-7ab7152c6481","system_id":"levelo_inurba_marseille","lat":43.28842,"lon":5.39313,"is_reserved":false,"is_disabled":false,"rental_uris":{"android":"levelo://app?vid=92e79c38-9898-491c-92c1-7ab7152c6481","ios":"levelo://app?vid=92e79c38-9898-491c-92c1-7ab7152c6481"},"vehicle_type_id":"4","last_reported":1745338347,"current_range_meters":22400,"station_id":"ce4bh2p2rcd13ifvqdi0","pricing_plan_id":"cebpf4jnsgd1na2vs0mg"},{"bike_id":"8fce26a0-14be-42b6-a39e-dc6747a5a30d","system_id":"levelo_inurba_marseille","lat":43.29873,"lon":5.39734,"is_reserved":false,"is_disabled":false,"rental_uris":{"android":"levelo://app?vid=8fce26a0-14be-42b6-a39e-dc6747a5a30d","ios":"levelo://app?vid=8fce26a0-14be-42b6-a39e-dc6747a5a30d"},"vehicle_type_id":"4","last_reported":1745338347,"current_range_meters":22400,"station_id":"ce4bh0h2rcd13ifvqd50","pricing_plan_id":"cebpf4jnsgd1na2vs0mg"},{"bike_id":"5e1f1669-1ce3-454e-9548-f4ced4952fa7","system_id":"levelo_inurba_marseille","lat":43.31521,"lon":5.38057,"is_reserved":false,"is_disabled":false,"rental_uris":{"android":"levelo://app?vid=5e1f1669-1ce3-454e-9548-f4ced4952fa7","ios":"levelo://app?vid=5e1f1669-1ce3-454e-9548-f4ced4952fa7"},"vehicle_type_id":"4","last_reported":1745338347,"current_range_meters":22800,"station_id":"ce4bhsp2rcd13ifvqi50","pricing_plan_id":"cebpf4jnsgd1na2vs0mg"},{"bike_id":"fd3d08bb-4cd6-43d9-8dcc-f777fb6dd476","system_id":"levelo_inurba_marseille","lat":43.293,"lon":5.37462,"is_reserved":false,"is_disabled":false,"rental_uris":{"android":"levelo://app?vid=fd3d08bb-4cd6-43d9-8dcc-f777fb6dd476","ios":"levelo://app?vid=fd3d08bb-4cd6-43d9-8dcc-f777fb6dd476"},"vehicle_type_id":"4","last_reported":1745338347,"current_range_meters":22800,"station_id":"ce4bgi12rcd13ifvqb70","pricing_plan_id":"cebpf4jnsgd1na2vs0mg"},{"bike_id":"019a5a9a-ac10-464a-980a-01bc39d7012e","system_id":"levelo_inurba_marseille","lat":43.31667,"lon":5.37786,"is_reserved":false,"is_disabled":true,"rental_uris":{"android":"levelo://app?vid=019a5a9a-ac10-464a-980a-01bc39d7012e","ios":"levelo://app?vid=019a5a9a-ac10-464a-980a-01bc39d7012e"},"vehicle_type_id":"4","last_reported":1745338347,"current_range_meters":22800,"station_id":"","pricing_plan_id":"cebpf4jnsgd1na2vs0mg"},{"bike_id":"5dace698-b8a8-498d-a9d3-85c7c7577f5b","system_id":"levelo_inurba_marseille","lat":43.28613,"lon":5.35101,"is_reserved":false,"is_disabled":false,"rental_uris":{"android":"levelo://app?vid=5dace698-b8a8-498d-a9d3-85c7c7577f5b","ios":"levelo://app?vid=5dace698-b8a8-498d-a9d3-85c7c7577f5b"},"vehicle_type_id":"4","last_reported":1745338347,"current_range_meters":22800,"station_id":"ce4bhch2rcd13ifvqeug","pricing_plan_id":"cebpf4jnsgd1na2vs0mg"},{"bike_id":"6da27505-89be-4a96-88ac-febbb1b1d1e6","system_id":"levelo_inurba_marseille","lat":43.27386,"lon":5.36255,"is_reserved":false,"is_disabled":false,"rental_uris":{"android":"levelo://app?vid=6da27505-89be-4a96-88ac-febbb1b1d1e6","ios":"levelo://app?vid=6da27505-89be-4a96-88ac-febbb1b1d1e6"},"vehicle_type_id":"4","last_reported":1745338347,"current_range_meters":22800,"station_id":"ce4bhbh2rcd13ifvqeo0","pricing_plan_id":"cebpf4jnsgd1na2vs0mg"},{"bike_id":"45430676-4864-40c2-b577-1da710f1628f","system_id":"levelo_inurba_marseille","lat":43.32287,"lon":5.3825,"is_reserved":false,"is_disabled":false,"rental_uris":{"android":"levelo://app?vid=45430676-4864-40c2-b577-1da710f1628f","ios":"levelo://app?vid=45430676-4864-40c2-b577-1da710f1628f"},"vehicle_type_id":"4","last_reported":1745338347,"current_range_meters":22400,"station_id":"ce4bhr12rcd13ifvqhqg","pricing_plan_id":"cebpf4jnsgd1na2vs0mg"},{"bike_id":"4720be4e-f219-4cff-aa94-9b2f4581e3a8","system_id":"levelo_inurba_marseille","lat":43.29525,"lon":5.38539,"is_reserved":false,"is_disabled":false,"rental_uris":{"android":"levelo://app?vid=4720be4e-f219-4cff-aa94-9b2f4581e3a8","ios":"levelo://app?vid=4720be4e-f219-4cff-aa94-9b2f4581e3a8"},"vehicle_type_id":"4","last_reported":1745338347,"current_range_meters":22800,"station_id":"ce4bgih2rcd13ifvqba0","pricing_plan_id":"cebpf4jnsgd1na2vs0mg"},{"bike_id":"da472c72-3f5b-4695-8f70-3fa9d1df9be5","system_id":"levelo_inurba_marseille","lat":43.28713,"lon":5.36097,"is_reserved":false,"is_disabled":false,"rental_uris":{"android":"levelo://app?vid=da472c72-3f5b-4695-8f70-3fa9d1df9be5","ios":"levelo://app?vid=da472c72-3f5b-4695-8f70-3fa9d1df9be5"},"vehicle_type_id":"4","last_reported":1745338347,"current_range_meters":22800,"station_id":"cki0cbj6b192h4jlfktg","pricing_plan_id":"cebpf4jnsgd1na2vs0mg"},{"bike_id":"c4774073-57e6-4575-9bef-6aac0b56eea5","system_id":"levelo_inurba_marseille","lat":43.27943,"lon":5.41051,"is_reserved":false,"is_disabled":false,"rental_uris":{"android":"levelo://app?vid=c4774073-57e6-4575-9bef-6aac0b56eea5","ios":"levelo://app?vid=c4774073-57e6-4575-9bef-6aac0b56eea5"},"vehicle_type_id":"4","last_reported":1745338347,"current_range_meters":22800,"station_id":"ce4bhnp2rcd13ifvqh0g","pricing_plan_id":"cebpf4jnsgd1na2vs0mg"},{"bike_id":"8ebe2af7-875b-44e1-abc4-943ad4d92633","system_id":"levelo_inurba_marseille","lat":43.29418,"lon":5.38627,"is_reserved":false,"is_disabled":false,"rental_uris":{"android":"levelo://app?vid=8ebe2af7-875b-44e1-abc4-943ad4d92633","ios":"levelo://app?vid=8ebe2af7-875b-44e1-abc4-943ad4d92633"},"vehicle_type_id":"4","last_reported":1745338347,"current_range_meters":23200,"station_id":"ce4bh2h2rcd13ifvqdh0","pricing_plan_id":"cebpf4jnsgd1na2vs0mg"},{"bike_id":"3e8f0127-96fd-4fdd-97f2-be6e836f9523","system_id":"levelo_inurba_marseille","lat":43.33777,"lon":5.37424,"is_reserved":false,"is_disabled":false,"rental_uris":{"android":"levelo://app?vid=3e8f0127-96fd-4fdd-97f2-be6e836f9523","ios":"levelo://app?vid=3e8f0127-96fd-4fdd-97f2-be6e836f9523"},"vehicle_type_id":"4","last_reported":1745338347,"current_range_meters":23200,"station_id":"","pricing_plan_id":"cebpf4jnsgd1na2vs0mg"},{"bike_id":"f00a6d85-09dd-4899-9120-0f88bd8394e9","system_id":"levelo_inurba_marseille","lat":43.27815,"lon":5.40709,"is_reserved":false,"is_disabled":false,"rental_uris":{"android":"levelo://app?vid=f00a6d85-09dd-4899-9120-0f88bd8394e9","ios":"levelo://app?vid=f00a6d85-09dd-4899-9120-0f88bd8394e9"},"vehicle_type_id":"4","last_reported":1745338347,"current_range_meters":24000,"station_id":"ce4bhnh2rcd13ifvqgtg","pricing_plan_id":"cebpf4jnsgd1na2vs0mg"},{"bike_id":"ff155303-fbb7-444d-9985-5f3aec77d70f","system_id":"levelo_inurba_marseille","lat":43.29975,"lon":5.38498,"is_reserved":false,"is_disabled":false,"rental_uris":{"android":"levelo://app?vid=ff155303-fbb7-444d-9985-5f3aec77d70f","ios":"levelo://app?vid=ff155303-fbb7-444d-9985-5f3aec77d70f"},"vehicle_type_id":"4","last_reported":1745338347,"current_range_meters":24000,"station_id":"ce4bgj92rcd13ifvqbd0","pricing_plan_id":"cebpf4jnsgd1na2vs0mg"},{"bike_id":"285777b6-4de3-468d-b44c-9228254ab9d8","system_id":"levelo_inurba_marseille","lat":43.29872,"lon":5.39727,"is_reserved":false,"is_disabled":false,"rental_uris":{"android":"levelo://app?vid=285777b6-4de3-468d-b44c-9228254ab9d8","ios":"levelo://app?vid=285777b6-4de3-468d-b44c-9228254ab9d8"},"vehicle_type_id":"4","last_reported":1745338347,"current_range_meters":24000,"station_id":"ce4bh0h2rcd13ifvqd50","pricing_plan_id":"cebpf4jnsgd1na2vs0mg"},{"bike_id":"9b8d5ecc-1bf5-45e9-a078-46bc5fda96dc","system_id":"levelo_inurba_marseille","lat":43.28622,"lon":5.35099,"is_reserved":false,"is_disabled":false,"rental_uris":{"android":"levelo://app?vid=9b8d5ecc-1bf5-45e9-a078-46bc5fda96dc","ios":"levelo://app?vid=9b8d5ecc-1bf5-45e9-a078-46bc5fda96dc"},"vehicle_type_id":"4","last_reported":1745338347,"current_range_meters":24000,"station_id":"ce4bhch2rcd13ifvqeug","pricing_plan_id":"cebpf4jnsgd1na2vs0mg"},{"bike_id":"cd97f59d-c81d-43a4-b876-70d8e0002c09","system_id":"levelo_inurba_marseille","lat":43.31756,"lon":5.39015,"is_reserved":false,"is_disabled":false,"rental_uris":{"android":"levelo://app?vid=cd97f59d-c81d-43a4-b876-70d8e0002c09","ios":"levelo://app?vid=cd97f59d-c81d-43a4-b876-70d8e0002c09"},"vehicle_type_id":"4","last_reported":1745338347,"current_range_meters":23200,"station_id":"ce4bhqp2rcd13ifvqhng","pricing_plan_id":"cebpf4jnsgd1na2vs0mg"},{"bike_id":"2211fa06-a70d-4d57-81af-91fc07708543","system_id":"levelo_inurba_marseille","lat":43.30428,"lon":5.38886,"is_reserved":false,"is_disabled":false,"rental_uris":{"android":"levelo://app?vid=2211fa06-a70d-4d57-81af-91fc07708543","ios":"levelo://app?vid=2211fa06-a70d-4d57-81af-91fc07708543"},"vehicle_type_id":"4","last_reported":1745338347,"current_range_meters":24000,"station_id":"ce4bgk12rcd13ifvqbi0","pricing_plan_id":"cebpf4jnsgd1na2vs0mg"},{"bike_id":"e8abd739-2476-4f65-8210-f7309aecb71d","system_id":"levelo_inurba_marseille","lat":43.28426,"lon":5.34986,"is_reserved":false,"is_disabled":false,"rental_uris":{"android":"levelo://app?vid=e8abd739-2476-4f65-8210-f7309aecb71d","ios":"levelo://app?vid=e8abd739-2476-4f65-8210-f7309aecb71d"},"vehicle_type_id":"4","last_reported":1745338347,"current_range_meters":24400,"station_id":"ce4bhbh2rcd13ifvqepg","pricing_plan_id":"cebpf4jnsgd1na2vs0mg"},{"bike_id":"eddf388e-8873-45ba-ad33-881fd27c608c","system_id":"levelo_inurba_marseille","lat":43.29305,"lon":5.37446,"is_reserved":false,"is_disabled":true,"rental_uris":{"android":"levelo://app?vid=eddf388e-8873-45ba-ad33-881fd27c608c","ios":"levelo://app?vid=eddf388e-8873-45ba-ad33-881fd27c608c"},"vehicle_type_id":"4","last_reported":1745338347,"current_range_meters":24000,"station_id":"ce4bgi12rcd13ifvqb70","pricing_plan_id":"cebpf4jnsgd1na2vs0mg"},{"bike_id":"35314b12-05c0-4ac1-b929-55389be58ece","system_id":"levelo_inurba_marseille","lat":43.301505,"lon":5.39863,"is_reserved":false,"is_disabled":false,"rental_uris":{"android":"levelo://app?vid=35314b12-05c0-4ac1-b929-55389be58ece","ios":"levelo://app?vid=35314b12-05c0-4ac1-b929-55389be58ece"},"vehicle_type_id":"4","last_reported":1745338347,"current_range_meters":24000,"station_id":"ce4bh0h2rcd13ifvqd40","pricing_plan_id":"cebpf4jnsgd1na2vs0mg"},{"bike_id":"94f52051-8f34-4809-afac-d4fd9866be05","system_id":"levelo_inurba_marseille","lat":43.230596,"lon":5.354913,"is_reserved":false,"is_disabled":false,"rental_uris":{"android":"levelo://app?vid=94f52051-8f34-4809-afac-d4fd9866be05","ios":"levelo://app?vid=94f52051-8f34-4809-afac-d4fd9866be05"},"vehicle_type_id":"4","last_reported":1745338347,"current_range_meters":24000,"station_id":"cpo3342slgdg3j2ifvpg","pricing_plan_id":"cebpf4jnsgd1na2vs0mg"},{"bike_id":"9a80c24d-8598-4d47-8d6c-31a4ddc27095","system_id":"levelo_inurba_marseille","lat":43.28941,"lon":5.3664,"is_reserved":false,"is_disabled":false,"rental_uris":{"android":"levelo://app?vid=9a80c24d-8598-4d47-8d6c-31a4ddc27095","ios":"levelo://app?vid=9a80c24d-8598-4d47-8d6c-31a4ddc27095"},"vehicle_type_id":"4","last_reported":1745338347,"current_range_meters":24000,"station_id":"ce4bhap2rcd13ifvqek0","pricing_plan_id":"cebpf4jnsgd1na2vs0mg"},{"bike_id":"7a38cd50-7a93-4627-806c-1a69d66aceb3","system_id":"levelo_inurba_marseille","lat":43.30809,"lon":5.43519,"is_reserved":false,"is_disabled":false,"rental_uris":{"android":"levelo://app?vid=7a38cd50-7a93-4627-806c-1a69d66aceb3","ios":"levelo://app?vid=7a38cd50-7a93-4627-806c-1a69d66aceb3"},"vehicle_type_id":"4","last_reported":1745338347,"current_range_meters":24000,"station_id":"ce4bhph2rcd13ifvqheg","pricing_plan_id":"cebpf4jnsgd1na2vs0mg"},{"bike_id":"41c57517-8535-48d1-b18b-71c5f9608ef2","system_id":"levelo_inurba_marseille","lat":43.28252,"lon":5.35067,"is_reserved":false,"is_disabled":false,"rental_uris":{"android":"levelo://app?vid=41c57517-8535-48d1-b18b-71c5f9608ef2","ios":"levelo://app?vid=41c57517-8535-48d1-b18b-71c5f9608ef2"},"vehicle_type_id":"4","last_reported":1745338347,"current_range_meters":24400,"station_id":"ce4bhbp2rcd13ifvqerg","pricing_plan_id":"cebpf4jnsgd1na2vs0mg"},{"bike_id":"9c36a25d-91e6-4b02-b6b6-ff47e91ed9c7","system_id":"levelo_inurba_marseille","lat":43.29535,"lon":5.39028,"is_reserved":false,"is_disabled":false,"rental_uris":{"android":"levelo://app?vid=9c36a25d-91e6-4b02-b6b6-ff47e91ed9c7","ios":"levelo://app?vid=9c36a25d-91e6-4b02-b6b6-ff47e91ed9c7"},