{"last_updated":1773486909,"ttl":60,"version":"2.2","data":{"bikes":[{"bike_id":"0ad92778-0405-4162-92fa-faf21d3b3fbb","system_id":"levelo_inurba_marseille","lat":43.30135,"lon":5.38776,"is_reserved":false,"is_disabled":false,"rental_uris":{"android":"levelo://app?vid=0ad92778-0405-4162-92fa-faf21d3b3fbb","ios":"levelo://app?vid=0ad92778-0405-4162-92fa-faf21d3b3fbb"},"vehicle_type_id":"4","last_reported":1773486910,"current_range_meters":38400,"station_id":"ce4bghh2rcd13ifvqb60","pricing_plan_id":"cebpf4jnsgd1na2vs0mg"},{"bike_id":"84258842-b27c-44d2-a3e3-a8ab065af084","system_id":"levelo_inurba_marseille","lat":43.26051,"lon":5.39395,"is_reserved":false,"is_disabled":false,"rental_uris":{"android":"levelo://app?vid=84258842-b27c-44d2-a3e3-a8ab065af084","ios":"levelo://app?vid=84258842-b27c-44d2-a3e3-a8ab065af084"},"vehicle_type_id":"4","last_reported":1773486910,"current_range_meters":34000,"station_id":"ce4bhh92rcd13ifvqfj0","pricing_plan_id":"cebpf4jnsgd1na2vs0mg"},{"bike_id":"4ee1719e-9828-41ad-ab0e-ac501a6f8dcb","system_id":"levelo_inurba_marseille","lat":43.26056,"lon":5.39393,"is_reserved":false,"is_disabled":false,"rental_uris":{"android":"levelo://app?vid=4ee1719e-9828-41ad-ab0e-ac501a6f8dcb","ios":"levelo://app?vid=4ee1719e-9828-41ad-ab0e-ac501a6f8dcb"},"vehicle_type_id":"4","last_reported":1773486910,"current_range_meters":10000,"station_id":"ce4bhh92rcd13ifvqfj0","pricing_plan_id":"cebpf4jnsgd1na2vs0mg"},{"bike_id":"e4c6d513-0f75-4d36-ab87-e09b44465632","system_id":"levelo_inurba_marseille","lat":43.27387,"lon":5.36251,"is_reserved":false,"is_disabled":true,"rental_uris":{"android":"levelo://app?vid=e4c6d513-0f75-4d36-ab87-e09b44465632","ios":"levelo://app?vid=e4c6d513-0f75-4d36-ab87-e09b44465632"},"vehicle_type_id":"4","last_reported":1773486910,"current_range_meters":37600,"station_id":"ce4bhbh2rcd13ifvqeo0","pricing_plan_id":"cebpf4jnsgd1na2vs0mg"},{"bike_id":"bd44b7bc-3e21-46e9-81a4-586b10fb6a84","system_id":"levelo_inurba_marseille","lat":43.30299,"lon":5.39198,"is_reserved":false,"is_disabled":false,"rental_uris":{"android":"levelo://app?vid=bd44b7bc-3e21-46e9-81a4-586b10fb6a84","ios":"levelo://app?vid=bd44b7bc-3e21-46e9-81a4-586b10fb6a84"},"vehicle_type_id":"4","last_reported":1773486910,"current_range_meters":9600,"station_id":"ce4bgkh2rcd13ifvqbk0","pricing_plan_id":"cebpf4jnsgd1na2vs0mg"},{"bike_id":"addf4762-4ab8-4cd5-a6de-709ba1abc210","system_id":"levelo_inurba_marseille","lat":43.30893,"lon":5.3718,"is_reserved":false,"is_disabled":false,"rental_uris":{"android":"levelo://app?vid=addf4762-4ab8-4cd5-a6de-709ba1abc210","ios":"levelo://app?vid=addf4762-4ab8-4cd5-a6de-709ba1abc210"},"vehicle_type_id":"4","last_reported":1773486910,"current_range_meters":18800,"station_id":"ce4bguh2rcd13ifvqckg","pricing_plan_id":"cebpf4jnsgd1na2vs0mg"},{"bike_id":"dfd0a0f6-5285-4bd7-80a4-14fead877d67","system_id":"levelo_inurba_marseille","lat":43.25096,"lon":5.39521,"is_reserved":false,"is_disabled":false,"rental_uris":{"android":"levelo://app?vid=dfd0a0f6-5285-4bd7-80a4-14fead877d67","ios":"levelo://app?vid=dfd0a0f6-5285-4bd7-80a4-14fead877d67"},"vehicle_type_id":"4","last_reported":1773486910,"current_range_meters":33200,"station_id":"ce4bhm12rcd13ifvqgkg","pricing_plan_id":"cebpf4jnsgd1na2vs0mg"},{"bike_id":"3c819320-e731-4e14-8153-6b1e36227622","system_id":"levelo_inurba_marseille","lat":43.31279,"lon":5.40144,"is_reserved":false,"is_disabled":false,"rental_uris":{"android":"levelo://app?vid=3c819320-e731-4e14-8153-6b1e36227622","ios":"levelo://app?vid=3c819320-e731-4e14-8153-6b1e36227622"},"vehicle_type_id":"4","last_reported":1773486910,"current_range_meters":9600,"station_id":"ce4bh092rcd13ifvqd30","pricing_plan_id":"cebpf4jnsgd1na2vs0mg"},{"bike_id":"18f35d94-7133-4b4b-a629-0bec9d48af36","system_id":"levelo_inurba_marseille","lat":43.28482,"lon":5.48387,"is_reserved":false,"is_disabled":false,"rental_uris":{"android":"levelo://app?vid=18f35d94-7133-4b4b-a629-0bec9d48af36","ios":"levelo://app?vid=18f35d94-7133-4b4b-a629-0bec9d48af36"},"vehicle_type_id":"4","last_reported":1773486910,"current_range_meters":25600,"station_id":"","pricing_plan_id":"cebpf4jnsgd1na2vs0mg"},{"bike_id":"058a40ef-aca0-46a1-b31e-3c5dc3514929","system_id":"levelo_inurba_marseille","lat":43.28428,"lon":5.34984,"is_reserved":false,"is_disabled":false,"rental_uris":{"android":"levelo://app?vid=058a40ef-aca0-46a1-b31e-3c5dc3514929","ios":"levelo://app?vid=058a40ef-aca0-46a1-b31e-3c5dc3514929"},"vehicle_type_id":"4","last_reported":1773486910,"current_range_meters":36400,"station_id":"ce4bhbh2rcd13ifvqepg","pricing_plan_id":"cebpf4jnsgd1na2vs0mg"},{"bike_id":"41cb7e86-279c-46aa-999e-3f3d964547db","system_id":"levelo_inurba_marseille","lat":43.31336,"lon":5.39696,"is_reserved":false,"is_disabled":false,"rental_uris":{"android":"levelo://app?vid=41cb7e86-279c-46aa-999e-3f3d964547db","ios":"levelo://app?vid=41cb7e86-279c-46aa-999e-3f3d964547db"},"vehicle_type_id":"4","last_reported":1773486910,"current_range_meters":39200,"station_id":"ce4bgvp2rcd13ifvqcu0","pricing_plan_id":"cebpf4jnsgd1na2vs0mg"},{"bike_id":"7db92065-fd6e-4014-982f-daf9b3e1e88d","system_id":"levelo_inurba_marseille","lat":43.25833,"lon":5.39384,"is_reserved":false,"is_disabled":false,"rental_uris":{"android":"levelo://app?vid=7db92065-fd6e-4014-982f-daf9b3e1e88d","ios":"levelo://app?vid=7db92065-fd6e-4014-982f-daf9b3e1e88d"},"vehicle_type_id":"4","last_reported":1773486910,"current_range_meters":15200,"station_id":"ce4bhip2rcd13ifvqft0","pricing_plan_id":"cebpf4jnsgd1na2vs0mg"},{"bike_id":"429b67a9-4f99-48a6-a90c-b2a9f05a5aa6","system_id":"levelo_inurba_marseille","lat":43.28487,"lon":5.38411,"is_reserved":false,"is_disabled":false,"rental_uris":{"android":"levelo://app?vid=429b67a9-4f99-48a6-a90c-b2a9f05a5aa6","ios":"levelo://app?vid=429b67a9-4f99-48a6-a90c-b2a9f05a5aa6"},"vehicle_type_id":"4","last_reported":1773486910,"current_range_meters":38000,"station_id":"ce4bh512rcd13ifvqe3g","pricing_plan_id":"cebpf4jnsgd1na2vs0mg"},{"bike_id":"2160cf90-c2ed-4bac-8d60-36bbdf94fd16","system_id":"levelo_inurba_marseille","lat":43.31482,"lon":5.37299,"is_reserved":false,"is_disabled":false,"rental_uris":{"android":"levelo://app?vid=2160cf90-c2ed-4bac-8d60-36bbdf94fd16","ios":"levelo://app?vid=2160cf90-c2ed-4bac-8d60-36bbdf94fd16"},"vehicle_type_id":"4","last_reported":1773486910,"current_range_meters":36400,"station_id":"ce4bgt12rcd13ifvqcd0","pricing_plan_id":"cebpf4jnsgd1na2vs0mg"},{"bike_id":"5258de39-439b-493a-87fc-a20176758cba","system_id":"levelo_inurba_marseille","lat":43.337572,"lon":5.37448,"is_reserved":false,"is_disabled":false,"rental_uris":{"android":"levelo://app?vid=5258de39-439b-493a-87fc-a20176758cba","ios":"levelo://app?vid=5258de39-439b-493a-87fc-a20176758cba"},"vehicle_type_id":"4","last_reported":1773486910,"current_range_meters":38800,"station_id":"","pricing_plan_id":"cebpf4jnsgd1na2vs0mg"},{"bike_id":"4a6e962b-de22-4ab6-993c-2385ed69dadf","system_id":"levelo_inurba_marseille","lat":43.2656,"lon":5.37291,"is_reserved":false,"is_disabled":false,"rental_uris":{"android":"levelo://app?vid=4a6e962b-de22-4ab6-993c-2385ed69dadf","ios":"levelo://app?vid=4a6e962b-de22-4ab6-993c-2385ed69dadf"},"vehicle_type_id":"4","last_reported":1773486910,"current_range_meters":39200,"station_id":"ce4bhg12rcd13ifvqf70","pricing_plan_id":"cebpf4jnsgd1na2vs0mg"},{"bike_id":"85cd8cb8-1572-4483-8d2e-ca06fd40ed7c","system_id":"levelo_inurba_marseille","lat":43.32286,"lon":5.38263,"is_reserved":false,"is_disabled":false,"rental_uris":{"android":"levelo://app?vid=85cd8cb8-1572-4483-8d2e-ca06fd40ed7c","ios":"levelo://app?vid=85cd8cb8-1572-4483-8d2e-ca06fd40ed7c"},"vehicle_type_id":"4","last_reported":1773486910,"current_range_meters":38400,"station_id":"ce4bhr12rcd13ifvqhqg","pricing_plan_id":"cebpf4jnsgd1na2vs0mg"},{"bike_id":"f6e49c04-f978-4fb2-a3e3-552faa5f1f27","system_id":"levelo_inurba_marseille","lat":43.31489,"lon":5.37342,"is_reserved":false,"is_disabled":false,"rental_uris":{"android":"levelo://app?vid=f6e49c04-f978-4fb2-a3e3-552faa5f1f27","ios":"levelo://app?vid=f6e49c04-f978-4fb2-a3e3-552faa5f1f27"},"vehicle_type_id":"4","last_reported":1773486910,"current_range_meters":30800,"station_id":"ce4bgt12rcd13ifvqcd0","pricing_plan_id":"cebpf4jnsgd1na2vs0mg"},{"bike_id":"1aed14f1-e52d-4e6e-b29b-cd4b82bd2364","system_id":"levelo_inurba_marseille","lat":43.26686,"lon":5.38244,"is_reserved":false,"is_disabled":false,"rental_uris":{"android":"levelo://app?vid=1aed14f1-e52d-4e6e-b29b-cd4b82bd2364","ios":"levelo://app?vid=1aed14f1-e52d-4e6e-b29b-cd4b82bd2364"},"vehicle_type_id":"4","last_reported":1773486910,"current_range_meters":38000,"station_id":"ce4bhg92rcd13ifvqf90","pricing_plan_id":"cebpf4jnsgd1na2vs0mg"},{"bike_id":"1c63ee0c-ff6f-42e1-a853-8ec9f0d7e6d1","system_id":"levelo_inurba_marseille","lat":43.30424,"lon":5.38899,"is_reserved":false,"is_disabled":false,"rental_uris":{"android":"levelo://app?vid=1c63ee0c-ff6f-42e1-a853-8ec9f0d7e6d1","ios":"levelo://app?vid=1c63ee0c-ff6f-42e1-a853-8ec9f0d7e6d1"},"vehicle_type_id":"4","last_reported":1773486910,"current_range_meters":29600,"station_id":"ce4bgk12rcd13ifvqbi0","pricing_plan_id":"cebpf4jnsgd1na2vs0mg"},{"bike_id":"20227760-d1e8-4bc6-adbe-87d2220534b5","system_id":"levelo_inurba_marseille","lat":43.28494,"lon":5.38597,"is_reserved":false,"is_disabled":false,"rental_uris":{"android":"levelo://app?vid=20227760-d1e8-4bc6-adbe-87d2220534b5","ios":"levelo://app?vid=20227760-d1e8-4bc6-adbe-87d2220534b5"},"vehicle_type_id":"4","last_reported":1773486910,"current_range_meters":16000,"station_id":"ce4bh8p2rcd13ifvqeb0","pricing_plan_id":"cebpf4jnsgd1na2vs0mg"},{"bike_id":"4c63f1d9-9451-4786-a088-d6aef0011e7e","system_id":"levelo_inurba_marseille","lat":43.29261,"lon":5.36847,"is_reserved":false,"is_disabled":false,"rental_uris":{"android":"levelo://app?vid=4c63f1d9-9451-4786-a088-d6aef0011e7e","ios":"levelo://app?vid=4c63f1d9-9451-4786-a088-d6aef0011e7e"},"vehicle_type_id":"4","last_reported":1773486910,"current_range_meters":24800,"station_id":"ce4bhbp2rcd13ifvqesg","pricing_plan_id":"cebpf4jnsgd1na2vs0mg"},{"bike_id":"1220bcdb-26db-402f-8363-6c434ccf2130","system_id":"levelo_inurba_marseille","lat":43.29856,"lon":5.3974,"is_reserved":false,"is_disabled":false,"rental_uris":{"android":"levelo://app?vid=1220bcdb-26db-402f-8363-6c434ccf2130","ios":"levelo://app?vid=1220bcdb-26db-402f-8363-6c434ccf2130"},"vehicle_type_id":"4","last_reported":1773486910,"current_range_meters":27200,"station_id":"ce4bh0h2rcd13ifvqd50","pricing_plan_id":"cebpf4jnsgd1na2vs0mg"},{"bike_id":"480a954f-db3c-4cd5-acb5-179ba9006c67","system_id":"levelo_inurba_marseille","lat":43.28543,"lon":5.44098,"is_reserved":false,"is_disabled":false,"rental_uris":{"android":"levelo://app?vid=480a954f-db3c-4cd5-acb5-179ba9006c67","ios":"levelo://app?vid=480a954f-db3c-4cd5-acb5-179ba9006c67"},"vehicle_type_id":"4","last_reported":1773486910,"current_range_meters":29600,"station_id":"st_d3j3df2ikq2c7380ej80","pricing_plan_id":"cebpf4jnsgd1na2vs0mg"},{"bike_id":"719f14e6-0b0b-47de-a198-d0325eeb6b12","system_id":"levelo_inurba_marseille","lat":43.28433,"lon":5.35915,"is_reserved":false,"is_disabled":false,"rental_uris":{"android":"levelo://app?vid=719f14e6-0b0b-47de-a198-d0325eeb6b12","ios":"levelo://app?vid=719f14e6-0b0b-47de-a198-d0325eeb6b12"},"vehicle_type_id":"4","last_reported":1773486910,"current_range_meters":28400,"station_id":"ce4bhah2rcd13ifvqei0","pricing_plan_id":"cebpf4jnsgd1na2vs0mg"},{"bike_id":"071351a7-eea7-4a49-8d71-a9ecadb9cf45","system_id":"levelo_inurba_marseille","lat":43.29273,"lon":5.40124,"is_reserved":false,"is_disabled":false,"rental_uris":{"android":"levelo://app?vid=071351a7-eea7-4a49-8d71-a9ecadb9cf45","ios":"levelo://app?vid=071351a7-eea7-4a49-8d71-a9ecadb9cf45"},"vehicle_type_id":"4","last_reported":1773486910,"current_range_meters":29600,"station_id":"ce4bh312rcd13ifvqdk0","pricing_plan_id":"cebpf4jnsgd1na2vs0mg"},{"bike_id":"0cc2ecee-72da-418b-8bb3-40f2a9c7fc8c","system_id":"levelo_inurba_marseille","lat":43.29978,"lon":5.41312,"is_reserved":false,"is_disabled":false,"rental_uris":{"android":"levelo://app?vid=0cc2ecee-72da-418b-8bb3-40f2a9c7fc8c","ios":"levelo://app?vid=0cc2ecee-72da-418b-8bb3-40f2a9c7fc8c"},"vehicle_type_id":"4","last_reported":1773486910,"current_range_meters":38800,"station_id":"ce4bhp12rcd13ifvqh9g","pricing_plan_id":"cebpf4jnsgd1na2vs0mg"},{"bike_id":"591726e2-1ee0-414a-babf-c40a853c2ca5","system_id":"levelo_inurba_marseille","lat":43.28002,"lon":5.4001,"is_reserved":false,"is_disabled":false,"rental_uris":{"android":"levelo://app?vid=591726e2-1ee0-414a-babf-c40a853c2ca5","ios":"levelo://app?vid=591726e2-1ee0-414a-babf-c40a853c2ca5"},"vehicle_type_id":"4","last_reported":1773486910,"current_range_meters":40000,"station_id":"ce4bho92rcd13ifvqh4g","pricing_plan_id":"cebpf4jnsgd1na2vs0mg"},{"bike_id":"51b86b15-2eae-415d-8b7b-4e7e9d8ae97a","system_id":"levelo_inurba_marseille","lat":43.29006,"lon":5.35615,"is_reserved":false,"is_disabled":false,"rental_uris":{"android":"levelo://app?vid=51b86b15-2eae-415d-8b7b-4e7e9d8ae97a","ios":"levelo://app?vid=51b86b15-2eae-415d-8b7b-4e7e9d8ae97a"},"vehicle_type_id":"4","last_reported":1773486910,"current_range_meters":40000,"station_id":"ce4bhb92rcd13ifvqen0","pricing_plan_id":"cebpf4jnsgd1na2vs0mg"},{"bike_id":"b308e7af-e586-420b-b9a4-425c9b9ae1c7","system_id":"levelo_inurba_marseille","lat":43.30576,"lon":5.3663,"is_reserved":false,"is_disabled":false,"rental_uris":{"android":"levelo://app?vid=b308e7af-e586-420b-b9a4-425c9b9ae1c7","ios":"levelo://app?vid=b308e7af-e586-420b-b9a4-425c9b9ae1c7"},"vehicle_type_id":"4","last_reported":1773486910,"current_range_meters":38000,"station_id":"","pricing_plan_id":"cebpf4jnsgd1na2vs0mg"},{"bike_id":"39e5dfee-f031-4742-ad5f-b826fb519621","system_id":"levelo_inurba_marseille","lat":43.29048,"lon":5.39992,"is_reserved":false,"is_disabled":false,"rental_uris":{"android":"levelo://app?vid=39e5dfee-f031-4742-ad5f-b826fb519621","ios":"levelo://app?vid=39e5dfee-f031-4742-ad5f-b826fb519621"},"vehicle_type_id":"4","last_reported":1773486910,"current_range_meters":38000,"station_id":"ce4bh392rcd13ifvqdm0","pricing_plan_id":"cebpf4jnsgd1na2vs0mg"},{"bike_id":"106b5c17-3a4d-41d5-888b-1edf1f351e6e","system_id":"levelo_inurba_marseille","lat":43.25822,"lon":5.39435,"is_reserved":false,"is_disabled":false,"rental_uris":{"android":"levelo://app?vid=106b5c17-3a4d-41d5-888b-1edf1f351e6e","ios":"levelo://app?vid=106b5c17-3a4d-41d5-888b-1edf1f351e6e"},"vehicle_type_id":"4","last_reported":1773486910,"current_range_meters":38400,"station_id":"ce4bhip2rcd13ifvqft0","pricing_plan_id":"cebpf4jnsgd1na2vs0mg"},{"bike_id":"ced05e86-2551-48cf-8692-7f3559e5deac","system_id":"levelo_inurba_marseille","lat":43.29496,"lon":5.43297,"is_reserved":false,"is_disabled":false,"rental_uris":{"android":"levelo://app?vid=ced05e86-2551-48cf-8692-7f3559e5deac","ios":"levelo://app?vid=ced05e86-2551-48cf-8692-7f3559e5deac"},"vehicle_type_id":"4","last_reported":1773486910,"current_range_meters":9200,"station_id":"st_d3j5ugp08ojc73fj9d10","pricing_plan_id":"cebpf4jnsgd1na2vs0mg"},{"bike_id":"9000aacf-7d45-4f1f-a2a3-e83d7e88d199","system_id":"levelo_inurba_marseille","lat":43.26948,"lon":5.38632,"is_reserved":false,"is_disabled":false,"rental_uris":{"android":"levelo://app?vid=9000aacf-7d45-4f1f-a2a3-e83d7e88d199","ios":"levelo://app?vid=9000aacf-7d45-4f1f-a2a3-e83d7e88d199"},"vehicle_type_id":"4","last_reported":1773486910,"current_range_meters":39200,"station_id":"ce4bhh92rcd13ifvqfh0","pricing_plan_id":"cebpf4jnsgd1na2vs0mg"},{"bike_id":"f0d33cb0-ca86-44f5-bab8-698feff9bbb2","system_id":"levelo_inurba_marseille","lat":43.31276,"lon":5.40162,"is_reserved":false,"is_disabled":false,"rental_uris":{"android":"levelo://app?vid=f0d33cb0-ca86-44f5-bab8-698feff9bbb2","ios":"levelo://app?vid=f0d33cb0-ca86-44f5-bab8-698feff9bbb2"},"vehicle_type_id":"4","last_reported":1773486910,"current_range_meters":38400,"station_id":"ce4bh092rcd13ifvqd30","pricing_plan_id":"cebpf4jnsgd1na2vs0mg"},{"bike_id":"e5725ce8-50a2-40ca-b011-9888ac1cf133","system_id":"levelo_inurba_marseille","lat":43.27373,"lon":5.36255,"is_reserved":false,"is_disabled":false,"rental_uris":{"android":"levelo://app?vid=e5725ce8-50a2-40ca-b011-9888ac1cf133","ios":"levelo://app?vid=e5725ce8-50a2-40ca-b011-9888ac1cf133"},"vehicle_type_id":"4","last_reported":1773486910,"current_range_meters":38800,"station_id":"ce4bhbh2rcd13ifvqeo0","pricing_plan_id":"cebpf4jnsgd1na2vs0mg"},{"bike_id":"41ae287c-9cc1-430a-84ca-70506bc523b6","system_id":"levelo_inurba_marseille","lat":43.22562,"lon":5.41636,"is_reserved":false,"is_disabled":false,"rental_uris":{"android":"levelo://app?vid=41ae287c-9cc1-430a-84ca-70506bc523b6","ios":"levelo://app?vid=41ae287c-9cc1-430a-84ca-70506bc523b6"},"vehicle_type_id":"4","last_reported":1773486910,"current_range_meters":38000,"station_id":"st_d2o4gvlbi1j2169b742g","pricing_plan_id":"cebpf4jnsgd1na2vs0mg"},{"bike_id":"fe8dfa27-62f0-46d6-ba43-c3127399aaa0","system_id":"levelo_inurba_marseille","lat":43.29647,"lon":5.42125,"is_reserved":false,"is_disabled":false,"rental_uris":{"android":"levelo://app?vid=fe8dfa27-62f0-46d6-ba43-c3127399aaa0","ios":"levelo://app?vid=fe8dfa27-62f0-46d6-ba43-c3127399aaa0"},"vehicle_type_id":"4","last_reported":1773486910,"current_range_meters":26800,"station_id":"","pricing_plan_id":"cebpf4jnsgd1na2vs0mg"},{"bike_id":"5c0630ed-bd2b-4642-b36b-ddb6b84186db","system_id":"levelo_inurba_marseille","lat":43.30743,"lon":5.42455,"is_reserved":false,"is_disabled":false,"rental_uris":{"android":"levelo://app?vid=5c0630ed-bd2b-4642-b36b-ddb6b84186db","ios":"levelo://app?vid=5c0630ed-bd2b-4642-b36b-ddb6b84186db"},"vehicle_type_id":"4","last_reported":1773486910,"current_range_meters":26000,"station_id":"st_cvj6ca6bvosntc0bfgr0","pricing_plan_id":"cebpf4jnsgd1na2vs0mg"},{"bike_id":"139228ac-6fb0-412e-bb04-6aeede04229f","system_id":"levelo_inurba_marseille","lat":43.28929,"lon":5.36635,"is_reserved":false,"is_disabled":false,"rental_uris":{"android":"levelo://app?vid=139228ac-6fb0-412e-bb04-6aeede04229f","ios":"levelo://app?vid=139228ac-6fb0-412e-bb04-6aeede04229f"},"vehicle_type_id":"4","last_reported":1773486910,"current_range_meters":39200,"station_id":"ce4bhap2rcd13ifvqek0","pricing_plan_id":"cebpf4jnsgd1na2vs0mg"},{"bike_id":"38e5107a-fdc2-431b-892a-488d0107acb0","system_id":"levelo_inurba_marseille","lat":43.30596,"lon":5.37222,"is_reserved":false,"is_disabled":false,"rental_uris":{"android":"levelo://app?vid=38e5107a-fdc2-431b-892a-488d0107acb0","ios":"levelo://app?vid=38e5107a-fdc2-431b-892a-488d0107acb0"},"vehicle_type_id":"4","last_reported":1773486910,"current_range_meters":32800,"station_id":"ce4bgqh2rcd13ifvqc4g","pricing_plan_id":"cebpf4jnsgd1na2vs0mg"},{"bike_id":"6826a664-6617-453f-b7a7-e7ebe4081c7e","system_id":"levelo_inurba_marseille","lat":43.26786,"lon":5.39422,"is_reserved":false,"is_disabled":false,"rental_uris":{"android":"levelo://app?vid=6826a664-6617-453f-b7a7-e7ebe4081c7e","ios":"levelo://app?vid=6826a664-6617-453f-b7a7-e7ebe4081c7e"},"vehicle_type_id":"4","last_reported":1773486910,"current_range_meters":28000,"station_id":"ce4bhh12rcd13ifvqfg0","pricing_plan_id":"cebpf4jnsgd1na2vs0mg"},{"bike_id":"bbd01454-2423-4218-8a6f-60bf3a414075","system_id":"levelo_inurba_marseille","lat":43.28705,"lon":5.37408,"is_reserved":false,"is_disabled":false,"rental_uris":{"android":"levelo://app?vid=bbd01454-2423-4218-8a6f-60bf3a414075","ios":"levelo://app?vid=bbd01454-2423-4218-8a6f-60bf3a414075"},"vehicle_type_id":"4","last_reported":1773486910,"current_range_meters":4000,"station_id":"ce4bh3p2rcd13ifvqdq0","pricing_plan_id":"cebpf4jnsgd1na2vs0mg"},{"bike_id":"73197bb0-2ebf-4f60-8f55-08ca45a1ab01","system_id":"levelo_inurba_marseille","lat":43.30152,"lon":5.38095,"is_reserved":false,"is_disabled":false,"rental_uris":{"android":"levelo://app?vid=73197bb0-2ebf-4f60-8f55-08ca45a1ab01","ios":"levelo://app?vid=73197bb0-2ebf-4f60-8f55-08ca45a1ab01"},"vehicle_type_id":"4","last_reported":1773486910,"current_range_meters":18000,"station_id":"ce4bgjp2rcd13ifvqbh0","pricing_plan_id":"cebpf4jnsgd1na2vs0mg"},{"bike_id":"1fa66c7c-5bbe-4c72-8397-ac5bb2c15dc7","system_id":"levelo_inurba_marseille","lat":43.32314,"lon":5.38897,"is_reserved":false,"is_disabled":false,"rental_uris":{"android":"levelo://app?vid=1fa66c7c-5bbe-4c72-8397-ac5bb2c15dc7","ios":"levelo://app?vid=1fa66c7c-5bbe-4c72-8397-ac5bb2c15dc7"},"vehicle_type_id":"4","last_reported":1773486910,"current_range_meters":39200,"station_id":"ce4bhqp2rcd13ifvqhog","pricing_plan_id":"cebpf4jnsgd1na2vs0mg"},{"bike_id":"562c1aff-953c-41e6-bd2a-cd6894b90706","system_id":"levelo_inurba_marseille","lat":43.28475,"lon":5.38417,"is_reserved":false,"is_disabled":false,"rental_uris":{"android":"levelo://app?vid=562c1aff-953c-41e6-bd2a-cd6894b90706","ios":"levelo://app?vid=562c1aff-953c-41e6-bd2a-cd6894b90706"},"vehicle_type_id":"4","last_reported":1773486910,"current_range_meters":7200,"station_id":"ce4bh512rcd13ifvqe3g","pricing_plan_id":"cebpf4jnsgd1na2vs0mg"},{"bike_id":"210de9b4-3033-4c95-a839-e4b62a601c40","system_id":"levelo_inurba_marseille","lat":43.27785,"lon":5.40812,"is_reserved":false,"is_disabled":false,"rental_uris":{"android":"levelo://app?vid=210de9b4-3033-4c95-a839-e4b62a601c40","ios":"levelo://app?vid=210de9b4-3033-4c95-a839-e4b62a601c40"},"vehicle_type_id":"4","last_reported":1773486910,"current_range_meters":7200,"station_id":"","pricing_plan_id":"cebpf4jnsgd1na2vs0mg"},{"bike_id":"aed4118b-a0e3-4071-9098-af6c6a632706","system_id":"levelo_inurba_marseille","lat":43.30127,"lon":5.4312,"is_reserved":false,"is_disabled":false,"rental_uris":{"android":"levelo://app?vid=aed4118b-a0e3-4071-9098-af6c6a632706","ios":"levelo://app?vid=aed4118b-a0e3-4071-9098-af6c6a632706"},"vehicle_type_id":"4","last_reported":1773486910,"current_range_meters":11200,"station_id":"st_d3js3co5814s73ftftug","pricing_plan_id":"cebpf4jnsgd1na2vs0mg"},{"bike_id":"ee97d76b-d430-4b45-b3b0-dd8a973c7e77","system_id":"levelo_inurba_marseille","lat":43.2397,"lon":5.36637,"is_reserved":false,"is_disabled":false,"rental_uris":{"android":"levelo://app?vid=ee97d76b-d430-4b45-b3b0-dd8a973c7e77","ios":"levelo://app?vid=ee97d76b-d430-4b45-b3b0-dd8a973c7e77"},"vehicle_type_id":"4","last_reported":1773486910,"current_range_meters":17600,"station_id":"ce4bhi12rcd13ifvqfp0","pricing_plan_id":"cebpf4jnsgd1na2vs0mg"},{"bike_id":"3af7df18-3735-4378-872e-321d771d6193","system_id":"levelo_inurba_marseille","lat":43.30263,"lon":5.4008,"is_reserved":false,"is_disabled":false,"rental_uris":{"android":"levelo://app?vid=3af7df18-3735-4378-872e-321d771d6193","ios":"levelo://app?vid=3af7df18-3735-4378-872e-321d771d6193"},"vehicle_type_id":"4","last_reported":1773486910,"current_range_meters":39200,"station_id":"ce4bgvh2rcd13ifvqcs0","pricing_plan_id":"cebpf4jnsgd1na2vs0mg"},{"bike_id":"d614b50d-6540-48cb-b405-eb6da0677b33","system_id":"levelo_inurba_marseille","lat":43.30246,"lon":5.39997,"is_reserved":false,"is_disabled":false,"rental_uris":{"android":"levelo://app?vid=d614b50d-6540-48cb-b405-eb6da0677b33","ios":"levelo://app?vid=d614b50d-6540-48cb-b405-eb6da0677b33"},"vehicle_type_id":"4","last_reported":1773486910,"current_range_meters":38400,"station_id":"ce4bgvh2rcd13ifvqcs0","pricing_plan_id":"cebpf4jnsgd1na2vs0mg"},{"bike_id":"a32106be-375b-4a35-92db-7951151fd382","system_id":"levelo_inurba_marseille","lat":43.29619,"lon":5.37111,"is_reserved":false,"is_disabled":false,"rental_uris":{"android":"levelo://app?vid=a32106be-375b-4a35-92db-7951151fd382","ios":"levelo://app?vid=a32106be-375b-4a35-92db-7951151fd382"},"vehicle_type_id":"4","last_reported":1773486910,"current_range_meters":27200,"station_id":"ce4bgnh2rcd13ifvqc0g","pricing_plan_id":"cebpf4jnsgd1na2vs0mg"},{"bike_id":"4df7e7ca-300c-4a1d-90c2-02378e843707","system_id":"levelo_inurba_marseille","lat":43.31284,"lon":5.40177,"is_reserved":false,"is_disabled":false,"rental_uris":{"android":"levelo://app?vid=4df7e7ca-300c-4a1d-90c2-02378e843707","ios":"levelo://app?vid=4df7e7ca-300c-4a1d-90c2-02378e843707"},"vehicle_type_id":"4","last_reported":1773486910,"current_range_meters":39200,"station_id":"ce4bh092rcd13ifvqd30","pricing_plan_id":"cebpf4jnsgd1na2vs0mg"},{"bike_id":"114e304d-e20d-4f8a-9525-1a164e809dee","system_id":"levelo_inurba_marseille","lat":43.2396,"lon":5.36634,"is_reserved":false,"is_disabled":false,"rental_uris":{"android":"levelo://app?vid=114e304d-e20d-4f8a-9525-1a164e809dee","ios":"levelo://app?vid=114e304d-e20d-4f8a-9525-1a164e809dee"},"vehicle_type_id":"4","last_reported":1773486910,"current_range_meters":27600,"station_id":"ce4bhi12rcd13ifvqfp0","pricing_plan_id":"cebpf4jnsgd1na2vs0mg"},{"bike_id":"ed805e5c-c91a-41a9-a21f-ce0355ac464f","system_id":"levelo_inurba_marseille","lat":43.28473,"lon":5.35878,"is_reserved":false,"is_disabled":false,"rental_uris":{"android":"levelo://app?vid=ed805e5c-c91a-41a9-a21f-ce0355ac464f","ios":"levelo://app?vid=ed805e5c-c91a-41a9-a21f-ce0355ac464f"},"vehicle_type_id":"4","last_reported":1773486910,"current_range_meters":17200,"station_id":"ce4bhah2rcd13ifvqei0","pricing_plan_id":"cebpf4jnsgd1na2vs0mg"},{"bike_id":"a29ef319-c201-4a0d-88b8-75666b991d70","system_id":"levelo_inurba_marseille","lat":43.30207,"lon":5.39438,"is_reserved":false,"is_disabled":false,"rental_uris":{"android":"levelo://app?vid=a29ef319-c201-4a0d-88b8-75666b991d70","ios":"levelo://app?vid=a29ef319-c201-4a0d-88b8-75666b991d70"},"vehicle_type_id":"4","last_reported":1773486910,"current_range_meters":11200,"station_id":"ce4bh0p2rcd13ifvqd70","pricing_plan_id":"cebpf4jnsgd1na2vs0mg"},{"bike_id":"84070638-e9dc-4734-8eb1-e9c5ccbf3761","system_id":"levelo_inurba_marseille","lat":43.23181,"lon":5.39976,"is_reserved":false,"is_disabled":false,"rental_uris":{"android":"levelo://app?vid=84070638-e9dc-4734-8eb1-e9c5ccbf3761","ios":"levelo://app?vid=84070638-e9dc-4734-8eb1-e9c5ccbf3761"},"vehicle_type_id":"4","last_reported":1773486910,"current_range_meters":38000,"station_id":"ce4bhn12rcd13ifvqgqg","pricing_plan_id":"cebpf4jnsgd1na2vs0mg"},{"bike_id":"bfecdb4a-3dfe-4b59-8c44-2c5ecdab9200","system_id":"levelo_inurba_marseille","lat":43.28957,"lon":5.36395,"is_reserved":false,"is_disabled":false,"rental_uris":{"android":"levelo://app?vid=bfecdb4a-3dfe-4b59-8c44-2c5ecdab9200","ios":"levelo://app?vid=bfecdb4a-3dfe-4b59-8c44-2c5ecdab9200"},"vehicle_type_id":"4","last_reported":1773486910,"current_range_meters":16400,"station_id":"ce4bhc92rcd13ifvqetg","pricing_plan_id":"cebpf4jnsgd1na2vs0mg"},{"bike_id":"a64fd749-da53-4223-b873-757b3f4d5f8c","system_id":"levelo_inurba_marseille","lat":43.28425,"lon":5.39182,"is_reserved":false,"is_disabled":false,"rental_uris":{"android":"levelo://app?vid=a64fd749-da53-4223-b873-757b3f4d5f8c","ios":"levelo://app?vid=a64fd749-da53-4223-b873-757b3f4d5f8c"},"vehicle_type_id":"4","last_reported":1773486910,"current_range_meters":36800,"station_id":"ce4bhoh2rcd13ifvqh5g","pricing_plan_id":"cebpf4jnsgd1na2vs0mg"},{"bike_id":"84f4a2bf-2617-4f6d-b5b2-52999d43fb4f","system_id":"levelo_inurba_marseille","lat":43.27374,"lon":5.36262,"is_reserved":false,"is_disabled":false,"rental_uris":{"android":"levelo://app?vid=84f4a2bf-2617-4f6d-b5b2-52999d43fb4f","ios":"levelo://app?vid=84f4a2bf-2617-4f6d-b5b2-52999d43fb4f"},"vehicle_type_id":"4","last_reported":1773486910,"current_range_meters":38800,"station_id":"ce4bhbh2rcd13ifvqeo0","pricing_plan_id":"cebpf4jnsgd1na2vs0mg"},{"bike_id":"ae3b076b-7857-43af-bef1-3afe5ec9a162","system_id":"levelo_inurba_marseille","lat":43.30281,"lon":5.37724,"is_reserved":false,"is_disabled":false,"rental_uris":{"android":"levelo://app?vid=ae3b076b-7857-43af-bef1-3afe5ec9a162","ios":"levelo://app?vid=ae3b076b-7857-43af-bef1-3afe5ec9a162"},"vehicle_type_id":"4","last_reported":1773486910,"current_range_meters":38400,"station_id":"ce4bguh2rcd13ifvqcj0","pricing_plan_id":"cebpf4jnsgd1na2vs0mg"},{"bike_id":"012bb7fa-e4d0-4138-9c92-350c5c6b2640","system_id":"levelo_inurba_marseille","lat":43.28543,"lon":5.44093,"is_reserved":false,"is_disabled":false,"rental_uris":{"android":"levelo://app?vid=012bb7fa-e4d0-4138-9c92-350c5c6b2640","ios":"levelo://app?vid=012bb7fa-e4d0-4138-9c92-350c5c6b2640"},"vehicle_type_id":"4","last_reported":1773486910,"current_range_meters":27200,"station_id":"st_d3j3df2ikq2c7380ej80","pricing_plan_id":"cebpf4jnsgd1na2vs0mg"},{"bike_id":"87064ff3-a238-494e-854d-d857dbb567cf","system_id":"levelo_inurba_marseille","lat":43.27322,"lon":5.39094,"is_reserved":false,"is_disabled":false,"rental_uris":{"android":"levelo://app?vid=87064ff3-a238-494e-854d-d857dbb567cf","ios":"levelo://app?vid=87064ff3-a238-494e-854d-d857dbb567cf"},"vehicle_type_id":"4","last_reported":1773486910,"current_range_meters":34000,"station_id":"ce4bhgp2rcd13ifvqfe0","pricing_plan_id":"cebpf4jnsgd1na2vs0mg"},{"bike_id":"959cb468-adf5-492c-a8a7-a3170c99be64","system_id":"levelo_inurba_marseille","lat":43.27051,"lon":5.38302,"is_reserved":false,"is_disabled":false,"rental_uris":{"android":"levelo://app?vid=959cb468-adf5-492c-a8a7-a3170c99be64","ios":"levelo://app?vid=959cb468-adf5-492c-a8a7-a3170c99be64"},"vehicle_type_id":"4","last_reported":1773486910,"current_range_meters":39200,"station_id":"st_d3n2fo6cfp8s73cte1j0","pricing_plan_id":"cebpf4jnsgd1na2vs0mg"},{"bike_id":"4c9a3bf6-127c-4364-87e6-1bc54c587fc5","system_id":"levelo_inurba_marseille","lat":43.31222,"lon":5.36855,"is_reserved":false,"is_disabled":false,"rental_uris":{"android":"levelo://app?vid=4c9a3bf6-127c-4364-87e6-1bc54c587fc5","ios":"levelo://app?vid=4c9a3bf6-127c-4364-87e6-1bc54c587fc5"},"vehicle_type_id":"4","last_reported":1773486910,"current_range_meters":39200,"station_id":"ce4bgl92rcd13ifvqbq0","pricing_plan_id":"cebpf4jnsgd1na2vs0mg"},{"bike_id":"f32212cf-6d01-43e1-9d28-c332d31396c9","system_id":"levelo_inurba_marseille","lat":43.24676,"lon":5.43351,"is_reserved":false,"is_disabled":false,"rental_uris":{"android":"levelo://app?vid=f32212cf-6d01-43e1-9d28-c332d31396c9","ios":"levelo://app?vid=f32212cf-6d01-43e1-9d28-c332d31396c9"},"vehicle_type_id":"4","last_reported":1773486910,"current_range_meters":19200,"station_id":"","pricing_plan_id":"cebpf4jnsgd1na2vs0mg"},{"bike_id":"6acc6294-778e-4389-ae09-ea37b9c06714","system_id":"levelo_inurba_marseille","lat":43.29727,"lon":5.41059,"is_reserved":false,"is_disabled":false,"rental_uris":{"android":"levelo://app?vid=6acc6294-778e-4389-ae09-ea37b9c06714","ios":"levelo://app?vid=6acc6294-778e-4389-ae09-ea37b9c06714"},"vehicle_type_id":"4","last_reported":1773486910,"current_range_meters":16000,"station_id":"","pricing_plan_id":"cebpf4jnsgd1na2vs0mg"},{"bike_id":"545eaa59-7c68-4d5f-81f7-b94276209659","system_id":"levelo_inurba_marseille","lat":43.27226,"lon":5.39187,"is_reserved":false,"is_disabled":false,"rental_uris":{"android":"levelo://app?vid=545eaa59-7c68-4d5f-81f7-b94276209659","ios":"levelo://app?vid=545eaa59-7c68-4d5f-81f7-b94276209659"},"vehicle_type_id":"4","last_reported":1773486910,"current_range_meters":39200,"station_id":"ce4bhhp2rcd13ifvqfm0","pricing_plan_id":"cebpf4jnsgd1na2vs0mg"},{"bike_id":"968e0752-94e3-4427-8693-dccfb2dc93c6","system_id":"levelo_inurba_marseille","lat":43.32363,"lon":5.38885,"is_reserved":false,"is_disabled":false,"rental_uris":{"android":"levelo://app?vid=968e0752-94e3-4427-8693-dccfb2dc93c6","ios":"levelo://app?vid=968e0752-94e3-4427-8693-dccfb2dc93c6"},"vehicle_type_id":"4","last_reported":1773486910,"current_range_meters":38400,"station_id":"ce4bhqp2rcd13ifvqhog","pricing_plan_id":"cebpf4jnsgd1na2vs0mg"},{"bike_id":"f5f9d765-f826-42ed-9505-dd1e9a7c4491","system_id":"levelo_inurba_marseille","lat":43.2587,"lon":5.39898,"is_reserved":false,"is_disabled":false,"rental_uris":{"android":"levelo://app?vid=f5f9d765-f826-42ed-9505-dd1e9a7c4491","ios":"levelo://app?vid=f5f9d765-f826-42ed-9505-dd1e9a7c4491"},"vehicle_type_id":"4","last_reported":1773486910,"current_range_meters":38000,"station_id":"ce4bhl92rcd13ifvqghg","pricing_plan_id":"cebpf4jnsgd1na2vs0mg"},{"bike_id":"885c5720-f8e3-4815-a477-98ae4026ad54","system_id":"levelo_inurba_marseille","lat":43.29033,"lon":5.39964,"is_reserved":false,"is_disabled":false,"rental_uris":{"android":"levelo://app?vid=885c5720-f8e3-4815-a477-98ae4026ad54","ios":"levelo://app?vid=885c5720-f8e3-4815-a477-98ae4026ad54"},"vehicle_type_id":"4","last_reported":1773486910,"current_range_meters":33200,"station_id":"ce4bh392rcd13ifvqdm0","pricing_plan_id":"cebpf4jnsgd1na2vs0mg"},{"bike_id":"5dbc8de5-1746-40c6-890f-29dadb98e0ce","system_id":"levelo_inurba_marseille","lat":43.2843,"lon":5.34993,"is_reserved":false,"is_disabled":false,"rental_uris":{"android":"levelo://app?vid=5dbc8de5-1746-40c6-890f-29dadb98e0ce","ios":"levelo://app?vid=5dbc8de5-1746-40c6-890f-29dadb98e0ce"},"vehicle_type_id":"4","last_reported":1773486910,"current_range_meters":34000,"station_id":"ce4bhbh2rcd13ifvqepg","pricing_plan_id":"cebpf4jnsgd1na2vs0mg"},{"bike_id":"c5cd6bee-ff6a-4f9b-9fb4-3be2cd8497cf","system_id":"levelo_inurba_marseille","lat":43.24411,"lon":5.37045,"is_reserved":false,"is_disabled":false,"rental_uris":{"android":"levelo://app?vid=c5cd6bee-ff6a-4f9b-9fb4-3be2cd8497cf","ios":"levelo://app?vid=c5cd6bee-ff6a-4f9b-9fb4-3be2cd8497cf"},"vehicle_type_id":"4","last_reported":1773486910,"current_range_meters":5600,"station_id":"ce4bhhh2rcd13ifvqfk0","pricing_plan_id":"cebpf4jnsgd1na2vs0mg"},{"bike_id":"d5455e83-72e4-4ef4-9233-f07b53171cfa","system_id":"levelo_inurba_marseille","lat":43.24955,"lon":5.40496,"is_reserved":false,"is_disabled":false,"rental_uris":{"android":"levelo://app?vid=d5455e83-72e4-4ef4-9233-f07b53171cfa","ios":"levelo://app?vid=d5455e83-72e4-4ef4-9233-f07b53171cfa"},"vehicle_type_id":"4","last_reported":1773486910,"current_range_meters":6400,"station_id":"st_d2ngiaodas8pm72gd1h0","pricing_plan_id":"cebpf4jnsgd1na2vs0mg"},{"bike_id":"4b3e344f-d5f5-47ea-a0e1-c3ff7ab3ba9f","system_id":"levelo_inurba_marseille","lat":43.23393,"lon":5.4125,"is_reserved":false,"is_disabled":false,"rental_uris":{"android":"levelo://app?vid=4b3e344f-d5f5-47ea-a0e1-c3ff7ab3ba9f","ios":"levelo://app?vid=4b3e344f-d5f5-47ea-a0e1-c3ff7ab3ba9f"},"vehicle_type_id":"4","last_reported":1773486910,"current_range_meters":30000,"station_id":"","pricing_plan_id":"cebpf4jnsgd1na2vs0mg"},{"bike_id":"fab9d42d-0389-4e3c-b710-106effb7d2e6","system_id":"levelo_inurba_marseille","lat":43.27811,"lon":5.40705,"is_reserved":false,"is_disabled":false,"rental_uris":{"android":"levelo://app?vid=fab9d42d-0389-4e3c-b710-106effb7d2e6","ios":"levelo://app?vid=fab9d42d-0389-4e3c-b710-106effb7d2e6"},"vehicle_type_id":"4","last_reported":1773486910,"current_range_meters":34800,"station_id":"ce4bhnh2rcd13ifvqgtg","pricing_plan_id":"cebpf4jnsgd1na2vs0mg"},{"bike_id":"f3427802-5878-400c-8520-966a18283862","system_id":"levelo_inurba_marseille","lat":43.25205,"lon":5.40376,"is_reserved":false,"is_disabled":false,"rental_uris":{"android":"levelo://app?vid=f3427802-5878-400c-8520-966a18283862","ios":"levelo://app?vid=f3427802-5878-400c-8520-966a18283862"},"vehicle_type_id":"4","last_reported":1773486910,"current_range_meters":26000,"station_id":"","pricing_plan_id":"cebpf4jnsgd1na2vs0mg"},{"bike_id":"b4e7db43-0bcb-420a-8a8e-7147b4affb13","system_id":"levelo_inurba_marseille","lat":43.28568,"lon":5.39502,"is_reserved":false,"is_disabled":false,"rental_uris":{"android":"levelo://app?vid=b4e7db43-0bcb-420a-8a8e-7147b4affb13","ios":"levelo://app?vid=b4e7db43-0bcb-420a-8a8e-7147b4affb13"},"vehicle_type_id":"4","last_reported":1773486910,"current_range_meters":32000,"station_id":"ce4bh292rcd13ifvqdg0","pricing_plan_id":"cebpf4jnsgd1na2vs0mg"},{"bike_id":"1b76ca95-f18f-46ad-b5e2-115c03b09dc0","system_id":"levelo_inurba_marseille","lat":43.29756,"lon":5.42781,"is_reserved":false,"is_disabled":false,"rental_uris":{"android":"levelo://app?vid=1b76ca95-f18f-46ad-b5e2-115c03b09dc0","ios":"levelo://app?vid=1b76ca95-f18f-46ad-b5e2-115c03b09dc0"},"vehicle_type_id":"4","last_reported":1773486910,"current_range_meters":21600,"station_id":"st_d3md5207bmas73dh9klg","pricing_plan_id":"cebpf4jnsgd1na2vs0mg"},{"bike_id":"aa1ea814-effc-4a82-a7ce-fc6b0be25510","system_id":"levelo_inurba_marseille","lat":43.31833,"lon":5.36983,"is_reserved":false,"is_disabled":false,"rental_uris":{"android":"levelo://app?vid=aa1ea814-effc-4a82-a7ce-fc6b0be25510","ios":"levelo://app?vid=aa1ea814-effc-4a82-a7ce-fc6b0be25510"},"vehicle_type_id":"4","last_reported":1773486910,"current_range_meters":34000,"station_id":"","pricing_plan_id":"cebpf4jnsgd1na2vs0mg"},{"bike_id":"7704b38f-82bd-49cd-9941-f2baf8ee666d","system_id":"levelo_inurba_marseille","lat":43.2762,"lon":5.3611,"is_reserved":false,"is_disabled":false,"rental_uris":{"android":"levelo://app?vid=7704b38f-82bd-49cd-9941-f2baf8ee666d","ios":"levelo://app?vid=7704b38f-82bd-49cd-9941-f2baf8ee666d"},"vehicle_type_id":"4","last_reported":1773486910,"current_range_meters":27200,"station_id":"ce4bgj92rcd13ifvqbe0","pricing_plan_id":"cebpf4jnsgd1na2vs0mg"},{"bike_id":"93b038d9-2cb8-45d1-acbc-dd4e629d63a0","system_id":"levelo_inurba_marseille","lat":43.2549,"lon":5.37642,"is_reserved":false,"is_disabled":false,"rental_uris":{"android":"levelo://app?vid=93b038d9-2cb8-45d1-acbc-dd4e629d63a0","ios":"levelo://app?vid=93b038d9-2cb8-45d1-acbc-dd4e629d63a0"},"vehicle_type_id":"4","last_reported":1773486910,"current_range_meters":39200,"station_id":"ce4bhh12rcd13ifvqff0","pricing_plan_id":"cebpf4jnsgd1na2vs0mg"},{"bike_id":"fb572cf7-cf1a-4dfc-ac30-6f925bcd24fa","system_id":"levelo_inurba_marseille","lat":43.3061,"lon":5.37225,"is_reserved":false,"is_disabled":false,"rental_uris":{"android":"levelo://app?vid=fb572cf7-cf1a-4dfc-ac30-6f925bcd24fa","ios":"levelo://app?vid=fb572cf7-cf1a-4dfc-ac30-6f925bcd24fa"},"vehicle_type_id":"4","last_reported":1773486910,"current_range_meters":32400,"station_id":"ce4bgqh2rcd13ifvqc4g","pricing_plan_id":"cebpf4jnsgd1na2vs0mg"},{"bike_id":"55d039aa-2da4-472c-af44-f2c1c8703972","system_id":"levelo_inurba_marseille","lat":43.27969,"lon":5.3869,"is_reserved":false,"is_disabled":false,"rental_uris":{"android":"levelo://app?vid=55d039aa-2da4-472c-af44-f2c1c8703972","ios":"levelo://app?vid=55d039aa-2da4-472c-af44-f2c1c8703972"},"vehicle_type_id":"4","last_reported":1773486910,"current_range_meters":39200,"station_id":"ce4bhg12rcd13ifvqf80","pricing_plan_id":"cebpf4jnsgd1na2vs0mg"},{"bike_id":"1282ad9f-8770-4070-8f14-6057ff9a4ffd","system_id":"levelo_inurba_marseille","lat":43.27821,"lon":5.40678,"is_reserved":false,"is_disabled":false,"rental_uris":{"android":"levelo://app?vid=1282ad9f-8770-4070-8f14-6057ff9a4ffd","ios":"levelo://app?vid=1282ad9f-8770-4070-8f14-6057ff9a4ffd"},"vehicle_type_id":"4","last_reported":1773486910,"current_range_meters":38800,"station_id":"ce4bhnh2rcd13ifvqgtg","pricing_plan_id":"cebpf4jnsgd1na2vs0mg"},{"bike_id":"8d1d6e8b-5750-4bc4-847c-d5a2d80e3e6b","system_id":"levelo_inurba_marseille","lat":43.31492,"lon":5.37311,"is_reserved":false,"is_disabled":false,"rental_uris":{"android":"levelo://app?vid=8d1d6e8b-5750-4bc4-847c-d5a2d80e3e6b","ios":"levelo://app?vid=8d1d6e8b-5750-4bc4-847c-d5a2d80e3e6b"},"vehicle_type_id":"4","last_reported":1773486910,"current_range_meters":39200,"station_id":"ce4bgt12rcd13ifvqcd0","pricing_plan_id":"cebpf4jnsgd1na2vs0mg"},{"bike_id":"833ead7f-2cc1-415f-b495-f484e1825ff8","system_id":"levelo_inurba_marseille","lat":43.31719,"lon":5.43701,"is_reserved":false,"is_disabled":true,"rental_uris":{"android":"levelo://app?vid=833ead7f-2cc1-415f-b495-f484e1825ff8","ios":"levelo://app?vid=833ead7f-2cc1-415f-b495-f484e1825ff8"},"vehicle_type_id":"4","last_reported":1773486910,"current_range_meters":0,"station_id":"ce4bhp92rcd13ifvqhcg","pricing_plan_id":"cebpf4jnsgd1na2vs0mg"},{"bike_id":"eb2f308c-8a12-4604-91b5-c6e7beca1962","system_id":"levelo_inurba_marseille","lat":43.25567,"lon":5.38219,"is_reserved":false,"is_disabled":false,"rental_uris":{"android":"levelo://app?vid=eb2f308c-8a12-4604-91b5-c6e7beca1962","ios":"levelo://app?vid=eb2f308c-8a12-4604-91b5-c6e7beca1962"},"vehicle_type_id":"4","last_reported":1773486910,"current_range_meters":25600,"station_id":"ce4bhih2rcd13ifvqfs0","pricing_plan_id":"cebpf4jnsgd1na2vs0mg"},{"bike_id":"9275d7e0-6f92-4728-99cc-26ef8f5159ad","system_id":"levelo_inurba_marseille","lat":43.29116,"lon":5.43276,"is_reserved":false,"is_disabled":false,"rental_uris":{"android":"levelo://app?vid=9275d7e0-6f92-4728-99cc-26ef8f5159ad","ios":"levelo://app?vid=9275d7e0-6f92-4728-99cc-26ef8f5159ad"},"vehicle_type_id":"4","last_reported":1773486910,"current_range_meters":31200,"station_id":"","pricing_plan_id":"cebpf4jnsgd1na2vs0mg"},{"bike_id":"0129e82f-23e7-41dc-b218-2c46214b3ed1","system_id":"levelo_inurba_marseille","lat":43.31277,"lon":5.40173,"is_reserved":false,"is_disabled":false,"rental_uris":{"android":"levelo://app?vid=0129e82f-23e7-41dc-b218-2c46214b3ed1","ios":"levelo://app?vid=0129e82f-23e7-41dc-b218-2c46214b3ed1"},"vehicle_type_id":"4","last_reported":1773486910,"current_range_meters":20800,"station_id":"ce4bh092rcd13ifvqd30","pricing_plan_id":"cebpf4jnsgd1na2vs0mg"},{"bike_id":"95d4f6aa-da6e-48d3-ad60-c8e1890448a4","system_id":"levelo_inurba_marseille","lat":43.28003,"lon":5.41666,"is_reserved":false,"is_disabled":false,"rental_uris":{"android":"levelo://app?vid=95d4f6aa-da6e-48d3-ad60-c8e1890448a4","ios":"levelo://app?vid=95d4f6aa-da6e-48d3-ad60-c8e1890448a4"},"vehicle_type_id":"4","last_reported":1773486910,"current_range_meters":10800,"station_id":"ce4bho12rcd13ifvqh1g","pricing_plan_id":"cebpf4jnsgd1na2vs0mg"},{"bike_id":"be4b33f3-f666-4b28-9e53-550c3c6e8b23","system_id":"levelo_inurba_marseille","lat":43.28477,"lon":5.48409,"is_reserved":false,"is_disabled":false,"rental_uris":{"android":"levelo://app?vid=be4b33f3-f666-4b28-9e53-550c3c6e8b23","ios":"levelo://app?vid=be4b33f3-f666-4b28-9e53-550c3c6e8b23"},"vehicle_type_id":"4","last_reported":1773486910,"current_range_meters":22400,"station_id":"","pricing_plan_id":"cebpf4jnsgd1na2vs0mg"},{"bike_id":"5af7ee6c-ab5a-4141-b66f-fa4cf96882c5","system_id":"levelo_inurba_marseille","lat":43.28943,"lon":5.36618,"is_reserved":false,"is_disabled":false,"rental_uris":{"android":"levelo://app?vid=5af7ee6c-ab5a-4141-b66f-fa4cf96882c5","ios":"levelo://app?vid=5af7ee6c-ab5a-4141-b66f-fa4cf96882c5"},"vehicle_type_id":"4","last_reported":1773486910,"current_range_meters":40000,"station_id":"ce4bhap2rcd13ifvqek0","pricing_plan_id":"cebpf4jnsgd1na2vs0mg"},{"bike_id":"18b94e32-c0fc-4f34-a2a9-cd156ee3282a","system_id":"levelo_inurba_marseille","lat":43.30593,"lon":5.37236,"is_reserved":false,"is_disabled":false,"rental_uris":{"android":"levelo://app?vid=18b94e32-c0fc-4f34-a2a9-cd156ee3282a","ios":"levelo://app?vid=18b94e32-c0fc-4f34-a2a9-cd156ee3282a"},"vehicle_type_id":"4","last_reported":1773486910,"current_range_meters":36800,"station_id":"ce4bgqh2rcd13ifvqc4g","pricing_plan_id":"cebpf4jnsgd1na2vs0mg"},{"bike_id":"45ab8758-cb84-41aa-8059-0012d460eb55","system_id":"levelo_inurba_marseille","lat":43.25115,"lon":5.40332,"is_reserved":false,"is_disabled":false,"rental_uris":{"android":"levelo://app?vid=45ab8758-cb84-41aa-8059-0012d460eb55","ios":"levelo://app?vid=45ab8758-cb84-41aa-8059-0012d460eb55"},"vehicle_type_id":"4","last_reported":1773486910,"current_range_meters":23200,"station_id":"ce4bhlh2rcd13ifvqgig","pricing_plan_id":"cebpf4jnsgd1na2vs0mg"},{"bike_id":"193cbe9d-b7d2-421e-9f76-9c8c86aebb4a","system_id":"levelo_inurba_marseille","lat":43.33531,"lon":5.37452,"is_reserved":false,"is_disabled":false,"rental_uris":{"android":"levelo://app?vid=193cbe9d-b7d2-421e-9f76-9c8c86aebb4a","ios":"levelo://app?vid=193cbe9d-b7d2-421e-9f76-9c8c86aebb4a"},"vehicle_type_id":"4","last_reported":1773486910,"current_range_meters":13600,"station_id":"st_d46tts09ee8s73dlu43g","pricing_plan_id":"cebpf4jnsgd1na2vs0mg"},{"bike_id":"9f555977-ed84-4e25-9c81-1c0c6fccc8b6","system_id":"levelo_inurba_marseille","lat":43.24368,"lon":5.4412,"is_reserved":false,"is_disabled":true,"rental_uris":{"android":"levelo://app?vid=9f555977-ed84-4e25-9c81-1c0c6fccc8b6","ios":"levelo://app?vid=9f555977-ed84-4e25-9c81-1c0c6fccc8b6"},"vehicle_type_id":"4","last_reported":1773486910,"current_range_meters":3200,"station_id":"","pricing_plan_id":"cebpf4jnsgd1na2vs0mg"},{"bike_id":"69bcc04d-1262-470e-8c27-7da8ae96d177","system_id":"levelo_inurba_marseille","lat":43.29619,"lon":5.37697,"is_reserved":false,"is_disabled":false,"rental_uris":{"android":"levelo://app?vid=69bcc04d-1262-470e-8c27-7da8ae96d177","ios":"levelo://app?vid=69bcc04d-1262-470e-8c27-7da8ae96d177"},"vehicle_type_id":"4","last_reported":1773486910,"current_range_meters":36800,"station_id":"ce4bgi92rcd13ifvqb90","pricing_plan_id":"cebpf4jnsgd1na2vs0mg"},{"bike_id":"df9c427f-d9f6-41e4-94b5-4bd4e80747a7","system_id":"levelo_inurba_marseille","lat":43.2927,"lon":5.40894,"is_reserved":false,"is_disabled":false,"rental_uris":{"android":"levelo://app?vid=df9c427f-d9f6-41e4-94b5-4bd4e80747a7","ios":"levelo://app?vid=df9c427f-d9f6-41e4-94b5-4bd4e80747a7"},"vehicle_type_id":"4","last_reported":1773486910,"current_range_meters":20000,"station_id":"ce4bh192rcd13ifvqdc0","pricing_plan_id":"cebpf4jnsgd1na2vs0mg"},{"bike_id":"0ad3db41-8196-43e9-b68f-6de9087e8aab","system_id":"levelo_inurba_marseille","lat":43.26494,"lon":5.3954,"is_reserved":false,"is_disabled":false,"rental_uris":{"android":"levelo://app?vid=0ad3db41-8196-43e9-b68f-6de9087e8aab","ios":"levelo://app?vid=0ad3db41-8196-43e9-b68f-6de9087e8aab"},"vehicle_type_id":"4","last_reported":1773486910,"current_range_meters":40000,"station_id":"ce4bhi12rcd13ifvqfq0","pricing_plan_id":"cebpf4jnsgd1na2vs0mg"},{"bike_id":"363eb9a8-8391-43a6-8dd0-57a9b8ddd213","system_id":"levelo_inurba_marseille","lat":43.29902,"lon":5.37476,"is_reserved":false,"is_disabled":false,"rental_uris":{"android":"levelo://app?vid=363eb9a8-8391-43a6-8dd0-57a9b8ddd213","ios":"levelo://app?vid=363eb9a8-8391-43a6-8dd0-57a9b8ddd213"},"vehicle_type_id":"4","last_reported":1773486910,"current_range_meters":27200,"station_id":"ce4bgjh2rcd13ifvqbg0","pricing_plan_id":"cebpf4jnsgd1na2vs0mg"},{"bike_id":"1b639a8c-4463-443e-a429-6cd317bbc67e","system_id":"levelo_inurba_marseille","lat":43.30096,"lon":5.39085,"is_reserved":false,"is_disabled":false,"rental_uris":{"android":"levelo://app?vid=1b639a8c-4463-443e-a429-6cd317bbc67e","ios":"levelo://app?vid=1b639a8c-4463-443e-a429-6cd317bbc67e"},"vehicle_type_id":"4","last_reported":1773486910,"current_range_meters":36800,"station_id":"ce4bh192rcd13ifvqdb0","pricing_plan_id":"cebpf4jnsgd1na2vs0mg"},{"bike_id":"641cab82-5627-4c24-a3b6-dfa17af8941b","system_id":"levelo_inurba_marseille","lat":43.24537,"lon":5.39518,"is_reserved":false,"is_disabled":false,"rental_uris":{"android":"levelo://app?vid=641cab82-5627-4c24-a3b6-dfa17af8941b","ios":"levelo://app?vid=641cab82-5627-4c24-a3b6-dfa17af8941b"},"vehicle_type_id":"4","last_reported":1773486910,"current_range_meters":27600,"station_id":"ce4bhlp2rcd13ifvqgjg","pricing_plan_id":"cebpf4jnsgd1na2vs0mg"},{"bike_id":"c507ad31-13a8-4812-86d2-979e4a29518c","system_id":"levelo_inurba_marseille","lat":43.26939,"lon":5.38928,"is_reserved":false,"is_disabled":false,"rental_uris":{"android":"levelo://app?vid=c507ad31-13a8-4812-86d2-979e4a29518c","ios":"levelo://app?vid=c507ad31-13a8-4812-86d2-979e4a29518c"},"vehicle_type_id":"4","last_reported":1773486910,"current_range_meters":11200,"station_id":"ce4bhhh2rcd13ifvqfl0","pricing_plan_id":"cebpf4jnsgd1na2vs0mg"},{"bike_id":"1061801b-b18e-4107-b525-c5770c253c61","system_id":"levelo_inurba_marseille","lat":43.26068,"lon":5.39385,"is_reserved":false,"is_disabled":false,"rental_uris":{"android":"levelo://app?vid=1061801b-b18e-4107-b525-c5770c253c61","ios":"levelo://app?vid=1061801b-b18e-4107-b525-c5770c253c61"},"vehicle_type_id":"4","last_reported":1773486910,"current_range_meters":39200,"station_id":"ce4bhh92rcd13ifvqfj0","pricing_plan_id":"cebpf4jnsgd1na2vs0mg"},{"bike_id":"72025f50-d750-489d-95ad-9aa0f9ecf812","system_id":"levelo_inurba_marseille","lat":43.28269,"lon":5.35061,"is_reserved":false,"is_disabled":false,"rental_uris":{"android":"levelo://app?vid=72025f50-d750-489d-95ad-9aa0f9ecf812","ios":"levelo://app?vid=72025f50-d750-489d-95ad-9aa0f9ecf812"},"vehicle_type_id":"4","last_reported":1773486910,"current_range_meters":35200,"station_id":"ce4bhbp2rcd13ifvqerg","pricing_plan_id":"cebpf4jnsgd1na2vs0mg"},{"bike_id":"3e7c4266-be7b-4c37-abd9-485e291405dd","system_id":"levelo_inurba_marseille","lat":43.22569,"lon":5.41626,"is_reserved":false,"is_disabled":false,"rental_uris":{"android":"levelo://app?vid=3e7c4266-be7b-4c37-abd9-485e291405dd","ios":"levelo://app?vid=3e7c4266-be7b-4c37-abd9-485e291405dd"},"vehicle_type_id":"4","last_reported":1773486910,"current_range_meters":3600,"station_id":"st_d2o4gvlbi1j2169b742g","pricing_plan_id":"cebpf4jnsgd1na2vs0mg"},{"bike_id":"0a7e929e-5dae-47b2-a117-b8f440b22dab","system_id":"levelo_inurba_marseille","lat":43.30174,"lon":5.36626,"is_reserved":false,"is_disabled":false,"rental_uris":{"android":"levelo://app?vid=0a7e929e-5dae-47b2-a117-b8f440b22dab","ios":"levelo://app?vid=0a7e929e-5dae-47b2-a117-b8f440b22dab"},"vehicle_type_id":"4","last_reported":1773486910,"current_range_meters":22000,"station_id":"ce4bgrh2rcd13ifvqc8g","pricing_plan_id":"cebpf4jnsgd1na2vs0mg"},{"bike_id":"d9d17d90-59c8-462c-9413-2b0905e0fe1d","system_id":"levelo_inurba_marseille","lat":43.29598,"lon":5.381,"is_reserved":false,"is_disabled":false,"rental_uris":{"android":"levelo://app?vid=d9d17d90-59c8-462c-9413-2b0905e0fe1d","ios":"levelo://app?vid=d9d17d90-59c8-462c-9413-2b0905e0fe1d"},"vehicle_type_id":"4","last_reported":1773486910,"current_range_meters":26000,"station_id":"ce4bgl12rcd13ifvqbo0","pricing_plan_id":"cebpf4jnsgd1na2vs0mg"},{"bike_id":"246ec6d0-4920-48a7-9d02-863d77d90b73","system_id":"levelo_inurba_marseille","lat":43.30971,"lon":5.43886,"is_reserved":false,"is_disabled":false,"rental_uris":{"android":"levelo://app?vid=246ec6d0-4920-48a7-9d02-863d77d90b73","ios":"levelo://app?vid=246ec6d0-4920-48a7-9d02-863d77d90b73"},"vehicle_type_id":"4","last_reported":1773486910,"current_range_meters":25200,"station_id":"","pricing_plan_id":"cebpf4jnsgd1na2vs0mg"},{"bike_id":"77fcad5b-4358-407d-8083-ca7782e4e7da","system_id":"levelo_inurba_marseille","lat":43.30324,"lon":5.4043,"is_reserved":false,"is_disabled":false,"rental_uris":{"android":"levelo://app?vid=77fcad5b-4358-407d-8083-ca7782e4e7da","ios":"levelo://app?vid=77fcad5b-4358-407d-8083-ca7782e4e7da"},"vehicle_type_id":"4","last_reported":1773486910,"current_range_meters":25600,"station_id":"ce4bh012rcd13ifvqd10","pricing_plan_id":"cebpf4jnsgd1na2vs0mg"},{"bike_id":"8e2b5de6-3ef2-4949-aee1-a0d1e88bd0cd","system_id":"levelo_inurba_marseille","lat":43.29905,"lon":5.38156,"is_reserved":false,"is_disabled":false,"rental_uris":{"android":"levelo://app?vid=8e2b5de6-3ef2-4949-aee1-a0d1e88bd0cd","ios":"levelo://app?vid=8e2b5de6-3ef2-4949-aee1-a0d1e88bd0cd"},"vehicle_type_id":"4","last_reported":1773486910,"current_range_meters":38000,"station_id":"ce4bgj12rcd13ifvqbc0","pricing_plan_id":"cebpf4jnsgd1na2vs0mg"},{"bike_id":"3a46d46a-3434-4c09-9481-ae1049d546b0","system_id":"levelo_inurba_marseille","lat":43.31485,"lon":5.37282,"is_reserved":false,"is_disabled":false,"rental_uris":{"android":"levelo://app?vid=3a46d46a-3434-4c09-9481-ae1049d546b0","ios":"levelo://app?vid=3a46d46a-3434-4c09-9481-ae1049d546b0"},"vehicle_type_id":"4","last_reported":1773486910,"current_range_meters":39200,"station_id":"ce4bgt12rcd13ifvqcd0","pricing_plan_id":"cebpf4jnsgd1na2vs0mg"},{"bike_id":"64069c02-c977-4af0-a752-efe4502ec874","system_id":"levelo_inurba_marseille","lat":43.2848,"lon":5.48393,"is_reserved":false,"is_disabled":false,"rental_uris":{"android":"levelo://app?vid=64069c02-c977-4af0-a752-efe4502ec874","ios":"levelo://app?vid=64069c02-c977-4af0-a752-efe4502ec874"},"vehicle_type_id":"4","last_reported":1773486910,"current_range_meters":7200,"station_id":"","pricing_plan_id":"cebpf4jnsgd1na2vs0mg"},{"bike_id":"030d87a5-4fd6-406c-97be-8b1d2c082c10","system_id":"levelo_inurba_marseille","lat":43.24534,"lon":5.39521,"is_reserved":false,"is_disabled":false,"rental_uris":{"android":"levelo://app?vid=030d87a5-4fd6-406c-97be-8b1d2c082c10","ios":"levelo://app?vid=030d87a5-4fd6-406c-97be-8b1d2c082c10"},"vehicle_type_id":"4","last_reported":1773486910,"current_range_meters":38000,"station_id":"ce4bhlp2rcd13ifvqgjg","pricing_plan_id":"cebpf4jnsgd1na2vs0mg"},{"bike_id":"6632ac0d-f937-4d4b-bfd5-25a67477775d","system_id":"levelo_inurba_marseille","lat":43.29046,"lon":5.39952,"is_reserved":false,"is_disabled":false,"rental_uris":{"android":"levelo://app?vid=6632ac0d-f937-4d4b-bfd5-25a67477775d","ios":"levelo://app?vid=6632ac0d-f937-4d4b-bfd5-25a67477775d"},"vehicle_type_id":"4","last_reported":1773486910,"current_range_meters":4800,"station_id":"ce4bh392rcd13ifvqdm0","pricing_plan_id":"cebpf4jnsgd1na2vs0mg"},{"bike_id":"24d8eb29-1b0b-4eb2-a2e7-0fe82e96578c","system_id":"levelo_inurba_marseille","lat":43.30374,"lon":5.42485,"is_reserved":false,"is_disabled":false,"rental_uris":{"android":"levelo://app?vid=24d8eb29-1b0b-4eb2-a2e7-0fe82e96578c","ios":"levelo://app?vid=24d8eb29-1b0b-4eb2-a2e7-0fe82e96578c"},"vehicle_type_id":"4","last_reported":1773486910,"current_range_meters":24000,"station_id":"ce4bhoh2rcd13ifvqh6g","pricing_plan_id":"cebpf4jnsgd1na2vs0mg"},{"bike_id":"6ba02607-5543-4986-b3cb-a1df5f02d1dd","system_id":"levelo_inurba_marseille","lat":43.31368,"lon":5.36692,"is_reserved":false,"is_disabled":false,"rental_uris":{"android":"levelo://app?vid=6ba02607-5543-4986-b3cb-a1df5f02d1dd","ios":"levelo://app?vid=6ba02607-5543-4986-b3cb-a1df5f02d1dd"},"vehicle_type_id":"4","last_reported":1773486910,"current_range_meters":39200,"station_id":"ce4bgr92rcd13ifvqc6g","pricing_plan_id":"cebpf4jnsgd1na2vs0mg"},{"bike_id":"7bf0a830-d498-457c-a030-91c3bd84fed4","system_id":"levelo_inurba_marseille","lat":43.23203,"lon":5.35561,"is_reserved":false,"is_disabled":false,"rental_uris":{"android":"levelo://app?vid=7bf0a830-d498-457c-a030-91c3bd84fed4","ios":"levelo://app?vid=7bf0a830-d498-457c-a030-91c3bd84fed4"},"vehicle_type_id":"4","last_reported":1773486910,"current_range_meters":35200,"station_id":"ce4bhu92rcd13ifvqi70","pricing_plan_id":"cebpf4jnsgd1na2vs0mg"},{"bike_id":"db5fc025-f609-443b-b481-2f6cefb137d4","system_id":"levelo_inurba_marseille","lat":43.2848,"lon":5.4839,"is_reserved":false,"is_disabled":false,"rental_uris":{"android":"levelo://app?vid=db5fc025-f609-443b-b481-2f6cefb137d4","ios":"levelo://app?vid=db5fc025-f609-443b-b481-2f6cefb137d4"},"vehicle_type_id":"4","last_reported":1773486910,"current_range_meters":30800,"station_id":"","pricing_plan_id":"cebpf4jnsgd1na2vs0mg"},{"bike_id":"3b85e9e8-4938-4ae7-a83e-c8e2526a550f","system_id":"levelo_inurba_marseille","lat":43.24196,"lon":5.364,"is_reserved":false,"is_disabled":false,"rental_uris":{"android":"levelo://app?vid=3b85e9e8-4938-4ae7-a83e-c8e2526a550f","ios":"levelo://app?vid=3b85e9e8-4938-4ae7-a83e-c8e2526a550f"},"vehicle_type_id":"4","last_reported":1773486910,"current_range_meters":22800,"station_id":"cpo36qri1sfpv3e86is0","pricing_plan_id":"cebpf4jnsgd1na2vs0mg"},{"bike_id":"3c1a31b5-1e72-4c95-95c6-affdb8221f31","system_id":"levelo_inurba_marseille","lat":43.29048,"lon":5.39959,"is_reserved":false,"is_disabled":false,"rental_uris":{"android":"levelo://app?vid=3c1a31b5-1e72-4c95-95c6-affdb8221f31","ios":"levelo://app?vid=3c1a31b5-1e72-4c95-95c6-affdb8221f31"},"vehicle_type_id":"4","last_reported":1773486910,"current_range_meters":39200,"station_id":"ce4bh392rcd13ifvqdm0","pricing_plan_id":"cebpf4jnsgd1na2vs0mg"},{"bike_id":"57aa564f-18d7-4da2-b67c-e3aff3bc078f","system_id":"levelo_inurba_marseille","lat":43.3055,"lon":5.36695,"is_reserved":false,"is_disabled":false,"rental_uris":{"android":"levelo://app?vid=57aa564f-18d7-4da2-b67c-e3aff3bc078f","ios":"levelo://app?vid=57aa564f-18d7-4da2-b67c-e3aff3bc078f"},"vehicle_type_id":"4","last_reported":1773486910,"current_range_meters":39200,"station_id":"ce4bgrp2rcd13ifvqc9g","pricing_plan_id":"cebpf4jnsgd1na2vs0mg"},{"bike_id":"d24ddeef-9278-443f-903c-dce36f2aff8f","system_id":"levelo_inurba_marseille","lat":43.28462,"lon":5.35889,"is_reserved":false,"is_disabled":false,"rental_uris":{"android":"levelo://app?vid=d24ddeef-9278-443f-903c-dce36f2aff8f","ios":"levelo://app?vid=d24ddeef-9278-443f-903c-dce36f2aff8f"},"vehicle_type_id":"4","last_reported":1773486910,"current_range_meters":39200,"station_id":"ce4bhah2rcd13ifvqei0","pricing_plan_id":"cebpf4jnsgd1na2vs0mg"},{"bike_id":"2c6a2cc6-c851-4e88-afa4-be17bb846b49","system_id":"levelo_inurba_marseille","lat":43.30528,"lon":5.36527,"is_reserved":false,"is_disabled":false,"rental_uris":{"android":"levelo://app?vid=2c6a2cc6-c851-4e88-afa4-be17bb846b49","ios":"levelo://app?vid=2c6a2cc6-c851-4e88-afa4-be17bb846b49"},"vehicle_type_id":"4","last_reported":1773486910,"current_range_meters":39200,"station_id":"ce4bgs12rcd13ifvqcag","pricing_plan_id":"cebpf4jnsgd1na2vs0mg"},{"bike_id":"ab7d9189-2568-4974-829e-49dee9a447d5","system_id":"levelo_inurba_marseille","lat":43.23199,"lon":5.35537,"is_reserved":false,"is_disabled":false,"rental_uris":{"android":"levelo://app?vid=ab7d9189-2568-4974-829e-49dee9a447d5","ios":"levelo://app?vid=ab7d9189-2568-4974-829e-49dee9a447d5"},"vehicle_type_id":"4","last_reported":1773486910,"current_range_meters":39200,"station_id":"ce4bhu92rcd13ifvqi70","pricing_plan_id":"cebpf4jnsgd1na2vs0mg"},{"bike_id":"734e018e-369b-4e22-8448-013f77c4e902","system_id":"levelo_inurba_marseille","lat":43.28729,"lon":5.36094,"is_reserved":false,"is_disabled":false,"rental_uris":{"android":"levelo://app?vid=734e018e-369b-4e22-8448-013f77c4e902","ios":"levelo://app?vid=734e018e-369b-4e22-8448-013f77c4e902"},"vehicle_type_id":"4","last_reported":1773486910,"current_range_meters":39200,"station_id":"cki0cbj6b192h4jlfktg","pricing_plan_id":"cebpf4jnsgd1na2vs0mg"},{"bike_id":"c0c5d9dc-928d-48b1-bc04-fe5d71707694","system_id":"levelo_inurba_marseille","lat":43.32349,"lon":5.3674,"is_reserved":false,"is_disabled":false,"rental_uris":{"android":"levelo://app?vid=c0c5d9dc-928d-48b1-bc04-fe5d71707694","ios":"levelo://app?vid=c0c5d9dc-928d-48b1-bc04-fe5d71707694"},"vehicle_type_id":"4","last_reported":1773486910,"current_range_meters":37600,"station_id":"ce4bhsh2rcd13ifvqi2g","pricing_plan_id":"cebpf4jnsgd1na2vs0mg"},{"bike_id":"038b193f-6124-4be5-adf7-6ca3635e5d20","system_id":"levelo_inurba_marseille","lat":43.29106,"lon":5.38136,"is_reserved":false,"is_disabled":false,"rental_uris":{"android":"levelo://app?vid=038b193f-6124-4be5-adf7-6ca3635e5d20","ios":"levelo://app?vid=038b193f-6124-4be5-adf7-6ca3635e5d20"},"vehicle_type_id":"4","last_reported":1773486910,"current_range_meters":39200,"station_id":"ce4bh512rcd13ifvqe2g","pricing_plan_id":"cebpf4jnsgd1na2vs0mg"},{"bike_id":"492a4db4-1b6b-496f-950a-74722999c85c","system_id":"levelo_inurba_marseille","lat":43.29628,"lon":5.40584,"is_reserved":false,"is_disabled":false,"rental_uris":{"android":"levelo://app?vid=492a4db4-1b6b-496f-950a-74722999c85c","ios":"levelo://app?vid=492a4db4-1b6b-496f-950a-74722999c85c"},"vehicle_type_id":"4","last_reported":1773486910,"current_range_meters":39200,"station_id":"ce4bh0h2rcd13ifvqd60","pricing_plan_id":"cebpf4jnsgd1na2vs0mg"},{"bike_id":"475f6229-3b8f-4eab-b8fd-2fbd86f0fb75","system_id":"levelo_inurba_marseille","lat":43.24166,"lon":5.36418,"is_reserved":false,"is_disabled":false,"rental_uris":{"android":"levelo://app?vid=475f6229-3b8f-4eab-b8fd-2fbd86f0fb75","ios":"levelo://app?vid=475f6229-3b8f-4eab-b8fd-2fbd86f0fb75"},"vehicle_type_id":"4","last_reported":1773486910,"current_range_meters":38000,"station_id":"cpo36qri1sfpv3e86is0","pricing_plan_id":"cebpf4jnsgd1na2vs0mg"},{"bike_id":"aaf56433-ee77-470c-b7b6-221e680ae993","system_id":"levelo_inurba_marseille","lat":43.22553,"lon":5.41641,"is_reserved":false,"is_disabled":false,"rental_uris":{"android":"levelo://app?vid=aaf56433-ee77-470c-b7b6-221e680ae993","ios":"levelo://app?vid=aaf56433-ee77-470c-b7b6-221e680ae993"},"vehicle_type_id":"4","last_reported":1773486910,"current_range_meters":8800,"station_id":"st_d2o4gvlbi1j2169b742g","pricing_plan_id":"cebpf4jnsgd1na2vs0mg"},{"bike_id":"3ff3df78-eee4-4716-9de4-5e86fa44030b","system_id":"levelo_inurba_marseille","lat":43.30165,"lon":5.37375,"is_reserved":false,"is_disabled":false,"rental_uris":{"android":"levelo://app?vid=3ff3df78-eee4-4716-9de4-5e86fa44030b","ios":"levelo://app?vid=3ff3df78-eee4-4716-9de4-5e86fa44030b"},"vehicle_type_id":"4","last_reported":1773486910,"current_range_meters":39200,"station_id":"ce4bgs92rcd13ifvqcc0","pricing_plan_id":"cebpf4jnsgd1na2vs0mg"},{"bike_id":"3a3e1c85-dbae-420f-b6d9-3a4969e8b66e","system_id":"levelo_inurba_marseille","lat":43.24497,"lon":5.425,"is_reserved":false,"is_disabled":false,"rental_uris":{"android":"levelo://app?vid=3a3e1c85-dbae-420f-b6d9-3a4969e8b66e","ios":"levelo://app?vid=3a3e1c85-dbae-420f-b6d9-3a4969e8b66e"},"vehicle_type_id":"4","last_reported":1773486910,"current_range_meters":39200,"station_id":"st_d4a3vfp97mjs738cd8kg","pricing_plan_id":"cebpf4jnsgd1na2vs0mg"},{"bike_id":"eb566e58-31ed-4f69-8ead-9fd9fd55d1d0","system_id":"levelo_inurba_marseille","lat":43.29613,"lon":5.37726,"is_reserved":false,"is_disabled":false,"rental_uris":{"android":"levelo://app?vid=eb566e58-31ed-4f69-8ead-9fd9fd55d1d0","ios":"levelo://app?vid=eb566e58-31ed-4f69-8ead-9fd9fd55d1d0"},"vehicle_type_id":"4","last_reported":1773486910,"current_range_meters":25200,"station_id":"ce4bgi92rcd13ifvqb90","pricing_plan_id":"cebpf4jnsgd1na2vs0mg"},{"bike_id":"eb259eb3-17cb-4932-bfd9-164bb2aaf2fe","system_id":"levelo_inurba_marseille","lat":43.23195,"lon":5.35553,"is_reserved":false,"is_disabled":false,"rental_uris":{"android":"levelo://app?vid=eb259eb3-17cb-4932-bfd9-164bb2aaf2fe","ios":"levelo://app?vid=eb259eb3-17cb-4932-bfd9-164bb2aaf2fe"},"vehicle_type_id":"4","last_reported":1773486910,"current_range_meters":39200,"station_id":"ce4bhu92rcd13ifvqi70","pricing_plan_id":"cebpf4jnsgd1na2vs0mg"},{"bike_id":"94603dc7-e518-4b5c-b68c-9554ac34faba","system_id":"levelo_inurba_marseille","lat":43.29239,"lon":5.37604,"is_reserved":false,"is_disabled":false,"rental_uris":{"android":"levelo://app?vid=94603dc7-e518-4b5c-b68c-9554ac34faba","ios":"levelo://app?vid=94603dc7-e518-4b5c-b68c-9554ac34faba"},"vehicle_type_id":"4","last_reported":1773486910,"current_range_meters":34000,"station_id":"ce4bgi12rcd13ifvqb80","pricing_plan_id":"cebpf4jnsgd1na2vs0mg"},{"bike_id":"41b16539-d93d-4e64-a8e4-b7d380ab4e3b","system_id":"levelo_inurba_marseille","lat":43.25026,"lon":5.38951,"is_reserved":false,"is_disabled":false,"rental_uris":{"android":"levelo://app?vid=41b16539-d93d-4e64-a8e4-b7d380ab4e3b","ios":"levelo://app?vid=41b16539-d93d-4e64-a8e4-b7d380ab4e3b"},"vehicle_type_id":"4","last_reported":1773486910,"current_range_meters":14800,"station_id":"ce4bhgp2rcd13ifvqfd0","pricing_plan_id":"cebpf4jnsgd1na2vs0mg"},{"bike_id":"f099973d-7c3c-4c24-a96d-66e53b1f4f14","system_id":"levelo_inurba_marseille","lat":43.3011,"lon":5.39178,"is_reserved":false,"is_disabled":true,"rental_uris":{"android":"levelo://app?vid=f099973d-7c3c-4c24-a96d-66e53b1f4f14","ios":"levelo://app?vid=f099973d-7c3c-4c24-a96d-66e53b1f4f14"},"vehicle_type_id":"4","last_reported":1773486910,"current_range_meters":35600,"station_id":"","pricing_plan_id":"cebpf4jnsgd1na2vs0mg"},{"bike_id":"dc55aad2-548c-4bad-93ab-f77886d8d8a8","system_id":"levelo_inurba_marseille","lat":43.30124,"lon":5.43125,"is_reserved":false,"is_disabled":false,"rental_uris":{"android":"levelo://app?vid=dc55aad2-548c-4bad-93ab-f77886d8d8a8","ios":"levelo://app?vid=dc55aad2-548c-4bad-93ab-f77886d8d8a8"},"vehicle_type_id":"4","last_reported":1773486910,"current_range_meters":38400,"station_id":"st_d3js3co5814s73ftftug","pricing_plan_id":"cebpf4jnsgd1na2vs0mg"},{"bike_id":"aaadcfd0-bf4e-49b8-b287-e8ddc173f7d0","system_id":"levelo_inurba_marseille","lat":43.26942,"lon":5.4024,"is_reserved":false,"is_disabled":false,"rental_uris":{"android":"levelo://app?vid=aaadcfd0-bf4e-49b8-b287-e8ddc173f7d0","ios":"levelo://app?vid=aaadcfd0-bf4e-49b8-b287-e8ddc173f7d0"},"vehicle_type_id":"4","last_reported":1773486910,"current_range_meters":39200,"station_id":"cjm6bp8fraef2m0cb0m0","pricing_plan_id":"cebpf4jnsgd1na2vs0mg"},{"bike_id":"dfc5a661-2493-4d07-9383-46a9ee5d3d02","system_id":"levelo_inurba_marseille","lat":43.29716,"lon":5.36616,"is_reserved":false,"is_disabled":false,"rental_uris":{"android":"levelo://app?vid=dfc5a661-2493-4d07-9383-46a9ee5d3d02","ios":"levelo://app?vid=dfc5a661-2493-4d07-9383-46a9ee5d3d02"},"vehicle_type_id":"4","last_reported":1773486910,"current_range_meters":39200,"station_id":"ce4bgn12rcd13ifvqbt0","pricing_plan_id":"cebpf4jnsgd1na2vs0mg"},{"bike_id":"af04683b-e462-44be-8018-569fb65efcf0","system_id":"levelo_inurba_marseille","lat":43.29045,"lon":5.39944,"is_reserved":false,"is_disabled":false,"rental_uris":{"android":"levelo://app?vid=af04683b-e462-44be-8018-569fb65efcf0","ios":"levelo://app?vid=af04683b-e462-44be-8018-569fb65efcf0"},"vehicle_type_id":"4","last_reported":1773486910,"current_range_meters":30000,"station_id":"ce4bh392rcd13ifvqdm0","pricing_plan_id":"cebpf4jnsgd1na2vs0mg"},{"bike_id":"9e0452cb-f2fe-41bc-b8e0-4904e25c3466","system_id":"levelo_inurba_marseille","lat":43.28269,"lon":5.35059,"is_reserved":false,"is_disabled":false,"rental_uris":{"android":"levelo://app?vid=9e0452cb-f2fe-41bc-b8e0-4904e25c3466","ios":"levelo://app?vid=9e0452cb-f2fe-41bc-b8e0-4904e25c3466"},"vehicle_type_id":"4","last_reported":1773486910,"current_range_meters":6400,"station_id":"ce4bhbp2rcd13ifvqerg","pricing_plan_id":"cebpf4jnsgd1na2vs0mg"},{"bike_id":"92f42bc1-a735-43a4-906a-779551f2e4c8","system_id":"levelo_inurba_marseille","lat":43.29783,"lon":5.38123,"is_reserved":false,"is_disabled":false,"rental_uris":{"android":"levelo://app?vid=92f42bc1-a735-43a4-906a-779551f2e4c8","ios":"levelo://app?vid=92f42bc1-a735-43a4-906a-779551f2e4c8"},"vehicle_type_id":"4","last_reported":1773486910,"current_range_meters":23200,"station_id":"ce4bgip2rcd13ifvqbb0","pricing_plan_id":"cebpf4jnsgd1na2vs0mg"},{"bike_id":"88cb8c7f-0ccd-4a01-91f9-3a530d0e94ef","system_id":"levelo_inurba_marseille","lat":43.28629,"lon":5.35081,"is_reserved":false,"is_disabled":false,"rental_uris":{"android":"levelo://app?vid=88cb8c7f-0ccd-4a01-91f9-3a530d0e94ef","ios":"levelo://app?vid=88cb8c7f-0ccd-4a01-91f9-3a530d0e94ef"},"vehicle_type_id":"4","last_reported":1773486910,"current_range_meters":39200,"station_id":"ce4bhch2rcd13ifvqeug","pricing_plan_id":"cebpf4jnsgd1na2vs0mg"},{"bike_id":"fdd6a8d1-d856-47a1-9d99-4ec193dcd283","system_id":"levelo_inurba_marseille","lat":43.30138,"lon":5.38789,"is_reserved":false,"is_disabled":false,"rental_uris":{"android":"levelo://app?vid=fdd6a8d1-d856-47a1-9d99-4ec193dcd283","ios":"levelo://app?vid=fdd6a8d1-d856-47a1-9d99-4ec193dcd283"},"vehicle_type_id":"4","last_reported":1773486910,"current_range_meters":21600,"station_id":"ce4bghh2rcd13ifvqb60","pricing_plan_id":"cebpf4jnsgd1na2vs0mg"},{"bike_id":"32358ead-44ff-491d-882b-0c4122b7d796","system_id":"levelo_inurba_marseille","lat":43.21198,"lon":5.35061,"is_reserved":false,"is_disabled":false,"rental_uris":{"android":"levelo://app?vid=32358ead-44ff-491d-882b-0c4122b7d796","ios":"levelo://app?vid=32358ead-44ff-491d-882b-0c4122b7d796"},"vehicle_type_id":"4","last_reported":1773486910,"current_range_meters":5600,"station_id":"st_cvj6sg6p6f1abm77japg","pricing_plan_id":"cebpf4jnsgd1na2vs0mg"},{"bike_id":"bc673af1-2063-4281-9abc-51fecdfbafc7","system_id":"levelo_inurba_marseille","lat":43.27996,"lon":5.40011,"is_reserved":false,"is_disabled":false,"rental_uris":{"android":"levelo://app?vid=bc673af1-2063-4281-9abc-51fecdfbafc7","ios":"levelo://app?vid=bc673af1-2063-4281-9abc-51fecdfbafc7"},"vehicle_type_id":"4","last_reported":1773486910,"current_range_meters":21600,"station_id":"ce4bho92rcd13ifvqh4g","pricing_plan_id":"cebpf4jnsgd1na2vs0mg"},{"bike_id":"88baf1fe-4b9b-4c52-81f7-dd067c921a9f","system_id":"levelo_inurba_marseille","lat":43.29832,"lon":5.44043,"is_reserved":false,"is_disabled":false,"rental_uris":{"android":"levelo://app?vid=88baf1fe-4b9b-4c52-81f7-dd067c921a9f","ios":"levelo://app?vid=88baf1fe-4b9b-4c52-81f7-dd067c921a9f"},"vehicle_type_id":"4","last_reported":1773486910,"current_range_meters":14000,"station_id":"st_d3jp68qikq2c7381ktn0","pricing_plan_id":"cebpf4jnsgd1na2vs0mg"},{"bike_id":"9809ed74-801c-4fe4-9601-8064fccc6e3e","system_id":"levelo_inurba_marseille","lat":43.26871,"lon":5.37018,"is_reserved":false,"is_disabled":false,"rental_uris":{"android":"levelo://app?vid=9809ed74-801c-4fe4-9601-8064fccc6e3e","ios":"levelo://app?vid=9809ed74-801c-4fe4-9601-8064fccc6e3e"},"vehicle_type_id":"4","last_reported":1773486910,"current_range_meters":37600,"station_id":"","pricing_plan_id":"cebpf4jnsgd1na2vs0mg"},{"bike_id":"0f0d92f0-3031-4109-9545-b12e61aeb8ea","system_id":"levelo_inurba_marseille","lat":43.25515,"lon":5.37629,"is_reserved":false,"is_disabled":false,"rental_uris":{"android":"levelo://app?vid=0f0d92f0-3031-4109-9545-b12e61aeb8ea","ios":"levelo://app?vid=0f0d92f0-3031-4109-9545-b12e61aeb8ea"},"vehicle_type_id":"4","last_reported":1773486910,"current_range_meters":39200,"station_id":"ce4bhh12rcd13ifvqff0","pricing_plan_id":"cebpf4jnsgd1na2vs0mg"},{"bike_id":"5ac94716-44b8-4ae4-8f63-01aed3be190f","system_id":"levelo_inurba_marseille","lat":43.23973,"lon":5.36645,"is_reserved":false,"is_disabled":false,"rental_uris":{"android":"levelo://app?vid=5ac94716-44b8-4ae4-8f63-01aed3be190f","ios":"levelo://app?vid=5ac94716-44b8-4ae4-8f63-01aed3be190f"},"vehicle_type_id":"4","last_reported":1773486910,"current_range_meters":8800,"station_id":"ce4bhi12rcd13ifvqfp0","pricing_plan_id":"cebpf4jnsgd1na2vs0mg"},{"bike_id":"574389cd-d5f7-4bb8-8e81-3a3b9218fbef","system_id":"levelo_inurba_marseille","lat":43.24151,"lon":5.36425,"is_reserved":false,"is_disabled":false,"rental_uris":{"android":"levelo://app?vid=574389cd-d5f7-4bb8-8e81-3a3b9218fbef","ios":"levelo://app?vid=574389cd-d5f7-4bb8-8e81-3a3b9218fbef"},"vehicle_type_id":"4","last_reported":1773486910,"current_range_meters":12000,"station_id":"cpo36qri1sfpv3e86is0","pricing_plan_id":"cebpf4jnsgd1na2vs0mg"},{"bike_id":"4b89016e-4162-40fe-a211-e0b3a395484a","system_id":"levelo_inurba_marseille","lat":43.31328,"lon":5.39703,"is_reserved":false,"is_disabled":false,"rental_uris":{"android":"levelo://app?vid=4b89016e-4162-40fe-a211-e0b3a395484a","ios":"levelo://app?vid=4b89016e-4162-40fe-a211-e0b3a395484a"},"vehicle_type_id":"4","last_reported":1773486910,"current_range_meters":7200,"station_id":"ce4bgvp2rcd13ifvqcu0","pricing_plan_id":"cebpf4jnsgd1na2vs0mg"},{"bike_id":"ca0245d3-a425-427e-9bfd-e30aeca7ed58","system_id":"levelo_inurba_marseille","lat":43.26693,"lon":5.38294,"is_reserved":false,"is_disabled":false,"rental_uris":{"android":"levelo://app?vid=ca0245d3-a425-427e-9bfd-e30aeca7ed58","ios":"levelo://app?vid=ca0245d3-a425-427e-9bfd-e30aeca7ed58"},"vehicle_type_id":"4","last_reported":1773486910,"current_range_meters":39200,"station_id":"ce4bhg92rcd13ifvqf90","pricing_plan_id":"cebpf4jnsgd1na2vs0mg"},{"bike_id":"d008a3ca-bdab-43f7-957e-465391a2d48d","system_id":"levelo_inurba_marseille","lat":43.31725,"lon":5.42397,"is_reserved":false,"is_disabled":false,"rental_uris":{"android":"levelo://app?vid=d008a3ca-bdab-43f7-957e-465391a2d48d","ios":"levelo://app?vid=d008a3ca-bdab-43f7-957e-465391a2d48d"},"vehicle_type_id":"4","last_reported":1773486910,"current_range_meters":36000,"station_id":"ce4bhp92rcd13ifvqhbg","pricing_plan_id":"cebpf4jnsgd1na2vs0mg"},{"bike_id":"d805c533-1ef3-433a-908c-e2a36d60c59f","system_id":"levelo_inurba_marseille","lat":43.26495,"lon":5.39541,"is_reserved":false,"is_disabled":false,"rental_uris":{"android":"levelo://app?vid=d805c533-1ef3-433a-908c-e2a36d60c59f","ios":"levelo://app?vid=d805c533-1ef3-433a-908c-e2a36d60c59f"},"vehicle_type_id":"4","last_reported":1773486910,"current_range_meters":29600,"station_id":"ce4bhi12rcd13ifvqfq0","pricing_plan_id":"cebpf4jnsgd1na2vs0mg"},{"bike_id":"9596f94a-278a-429c-a324-f3e305c15fe7","system_id":"levelo_inurba_marseille","lat":43.28259,"lon":5.35093,"is_reserved":false,"is_disabled":false,"rental_uris":{"android":"levelo://app?vid=9596f94a-278a-429c-a324-f3e305c15fe7","ios":"levelo://app?vid=9596f94a-278a-429c-a324-f3e305c15fe7"},"vehicle_type_id":"4","last_reported":1773486910,"current_range_meters":26800,"station_id":"ce4bhbp2rcd13ifvqerg","pricing_plan_id":"cebpf4jnsgd1na2vs0mg"},{"bike_id":"2da74aad-d5d0-4aee-be79-0fb398f1f69b","system_id":"levelo_inurba_marseille","lat":43.29781,"lon":5.38107,"is_reserved":false,"is_disabled":true,"rental_uris":{"android":"levelo://app?vid=2da74aad-d5d0-4aee-be79-0fb398f1f69b","ios":"levelo://app?vid=2da74aad-d5d0-4aee-be79-0fb398f1f69b"},"vehicle_type_id":"4","last_reported":1773486910,"current_range_meters":28400,"station_id":"ce4bgip2rcd13ifvqbb0","pricing_plan_id":"cebpf4jnsgd1na2vs0mg"},{"bike_id":"035c4046-cd8f-4673-8b6b-3f617f95dcec","system_id":"levelo_inurba_marseille","lat":43.30424,"lon":5.38894,"is_reserved":false,"is_disabled":false,"rental_uris":{"android":"levelo://app?vid=035c4046-cd8f-4673-8b6b-3f617f95dcec","ios":"levelo://app?vid=035c4046-cd8f-4673-8b6b-3f617f95dcec"},"vehicle_type_id":"4","last_reported":1773486910,"current_range_meters":39200,"station_id":"ce4bgk12rcd13ifvqbi0","pricing_plan_id":"cebpf4jnsgd1na2vs0mg"},{"bike_id":"523ded4e-c339-4246-a578-7750d90e545f","system_id":"levelo_inurba_marseille","lat":43.25026,"lon":5.38925,"is_reserved":false,"is_disabled":false,"rental_uris":{"android":"levelo://app?vid=523ded4e-c339-4246-a578-7750d90e545f","ios":"levelo://app?vid=523ded4e-c339-4246-a578-7750d90e545f"},"vehicle_type_id":"4","last_reported":1773486910,"current_range_meters":38000,"station_id":"ce4bhgp2rcd13ifvqfd0","pricing_plan_id":"cebpf4jnsgd1na2vs0mg"},{"bike_id":"9a2fbe44-96fa-42fa-b7e7-679196e3a792","system_id":"levelo_inurba_marseille","lat":43.30934,"lon":5.40167,"is_reserved":false,"is_disabled":false,"rental_uris":{"android":"levelo://app?vid=9a2fbe44-96fa-42fa-b7e7-679196e3a792","ios":"levelo://app?vid=9a2fbe44-96fa-42fa-b7e7-679196e3a792"},"vehicle_type_id":"4","last_reported":1773486910,"current_range_meters":39200,"station_id":"ce4bgvp2rcd13ifvqct0","pricing_plan_id":"cebpf4jnsgd1na2vs0mg"},{"bike_id":"f4e00244-8c5a-40a0-8e1a-7e53723c5906","system_id":"levelo_inurba_marseille","lat":43.25,"lon":5.38943,"is_reserved":false,"is_disabled":false,"rental_uris":{"android":"levelo://app?vid=f4e00244-8c5a-40a0-8e1a-7e53723c5906","ios":"levelo://app?vid=f4e00244-8c5a-40a0-8e1a-7e53723c5906"},"vehicle_type_id":"4","last_reported":1773486910,"current_range_meters":39200,"station_id":"ce4bhgp2rcd13ifvqfd0","pricing_plan_id":"cebpf4jnsgd1na2vs0mg"},{"bike_id":"ef364c26-b12f-4ac2-8385-acdb623c591d","system_id":"levelo_inurba_marseille","lat":43.22558,"lon":5.41624,"is_reserved":false,"is_disabled":false,"rental_uris":{"android":"levelo://app?vid=ef364c26-b12f-4ac2-8385-acdb623c591d","ios":"levelo://app?vid=ef364c26-b12f-4ac2-8385-acdb623c591d"},"vehicle_type_id":"4","last_reported":1773486910,"current_range_meters":14000,"station_id":"st_d2o4gvlbi1j2169b742g","pricing_plan_id":"cebpf4jnsgd1na2vs0mg"},{"bike_id":"1f6349b5-213e-4c70-8847-e120f033f762","system_id":"levelo_inurba_marseille","lat":43.31891,"lon":5.40727,"is_reserved":false,"is_disabled":false,"rental_uris":{"android":"levelo://app?vid=1f6349b5-213e-4c70-8847-e120f033f762","ios":"levelo://app?vid=1f6349b5-213e-4c70-8847-e120f033f762"},"vehicle_type_id":"4","last_reported":1773486910,"current_range_meters":39200,"station_id":"ce4bhq12rcd13ifvqhig","pricing_plan_id":"cebpf4jnsgd1na2vs0mg"},{"bike_id":"a195e17c-c848-401e-9102-841f386338ea","system_id":"levelo_inurba_marseille","lat":43.34148,"lon":5.40899,"is_reserved":false,"is_disabled":false,"rental_uris":{"android":"levelo://app?vid=a195e17c-c848-401e-9102-841f386338ea","ios":"levelo://app?vid=a195e17c-c848-401e-9102-841f386338ea"},"vehicle_type_id":"4","last_reported":1773486910,"current_range_meters":28000,"station_id":"ce4bhqh2rcd13ifvqhlg","pricing_plan_id":"cebpf4jnsgd1na2vs0mg"},{"bike_id":"87c62d11-08d0-4117-89ab-1e5fbad4bf2c","system_id":"levelo_inurba_marseille","lat":43.23185,"lon":5.39993,"is_reserved":false,"is_disabled":false,"rental_uris":{"android":"levelo://app?vid=87c62d11-08d0-4117-89ab-1e5fbad4bf2c","ios":"levelo://app?vid=87c62d11-08d0-4117-89ab-1e5fbad4bf2c"},"vehicle_type_id":"4","last_reported":1773486910,"current_range_meters":15200,"station_id":"ce4bhn12rcd13ifvqgqg","pricing_plan_id":"cebpf4jnsgd1na2vs0mg"},{"bike_id":"8617b24d-bdd2-49e3-beda-5d74fc474252","system_id":"levelo_inurba_marseille","lat":43.28477,"lon":5.48403,"is_reserved":false,"is_disabled":false,"rental_uris":{"android":"levelo://app?vid=8617b24d-bdd2-49e3-beda-5d74fc474252","ios":"levelo://app?vid=8617b24d-bdd2-49e3-beda-5d74fc474252"},"vehicle_type_id":"4","last_reported":1773486910,"current_range_meters":27600,"station_id":"","pricing_plan_id":"cebpf4jnsgd1na2vs0mg"},{"bike_id":"a85a3e19-8fdf-499c-aff9-c20dcac70455","system_id":"levelo_inurba_marseille","lat":43.27211,"lon":5.39182,"is_reserved":false,"is_disabled":false,"rental_uris":{"android":"levelo://app?vid=a85a3e19-8fdf-499c-aff9-c20dcac70455","ios":"levelo://app?vid=a85a3e19-8fdf-499c-aff9-c20dcac70455"},"vehicle_type_id":"4","last_reported":1773486910,"current_range_meters":19200,"station_id":"ce4bhhp2rcd13ifvqfm0","pricing_plan_id":"cebpf4jnsgd1na2vs0mg"},{"bike_id":"75f14208-a968-40dc-80f8-68b063e0d714","system_id":"levelo_inurba_marseille","lat":43.23157,"lon":5.43689,"is_reserved":false,"is_disabled":false,"rental_uris":{"android":"levelo://app?vid=75f14208-a968-40dc-80f8-68b063e0d714","ios":"levelo://app?vid=75f14208-a968-40dc-80f8-68b063e0d714"},"vehicle_type_id":"4","last_reported":1773486910,"current_range_meters":11200,"station_id":"ce4bhmp2rcd13ifvqgog","pricing_plan_id":"cebpf4jnsgd1na2vs0mg"},{"bike_id":"5171781a-4c7f-4561-ae84-4a776dd83173","system_id":"levelo_inurba_marseille","lat":43.29526,"lon":5.37502,"is_reserved":false,"is_disabled":false,"rental_uris":{"android":"levelo://app?vid=5171781a-4c7f-4561-ae84-4a776dd83173","ios":"levelo://app?vid=5171781a-4c7f-4561-ae84-4a776dd83173"},"vehicle_type_id":"4","last_reported":1773486910,"current_range_meters":36800,"station_id":"ce4bgkp2rcd13ifvqbmg","pricing_plan_id":"cebpf4jnsgd1na2vs0mg"},{"bike_id":"c003e21d-e067-4d7f-8e43-206f5e4bc61a","system_id":"levelo_inurba_marseille","lat":43.30134,"lon":5.39878,"is_reserved":false,"is_disabled":true,"rental_uris":{"android":"levelo://app?vid=c003e21d-e067-4d7f-8e43-206f5e4bc61a","ios":"levelo://app?vid=c003e21d-e067-4d7f-8e43-206f5e4bc61a"},"vehicle_type_id":"4","last_reported":1773486910,"current_range_meters":32000,"station_id":"ce4bh0h2rcd13ifvqd40","pricing_plan_id":"cebpf4jnsgd1na2vs0mg"},{"bike_id":"4a09330b-b9bf-424e-8693-aafe00acb3cd","system_id":"levelo_inurba_marseille","lat":43.29569,"lon":5.42253,"is_reserved":false,"is_disabled":false,"rental_uris":{"android":"levelo://app?vid=4a09330b-b9bf-424e-8693-aafe00acb3cd","ios":"levelo://app?vid=4a09330b-b9bf-424e-8693-aafe00acb3cd"},"vehicle_type_id":"4","last_reported":1773486910,"current_range_meters":36400,"station_id":"ce4bhph2rcd13ifvqhdg","pricing_plan_id":"cebpf4jnsgd1na2vs0mg"},{"bike_id":"e0f4c726-c891-4b59-a727-5f7bf2fb4325","system_id":"levelo_inurba_marseille","lat":43.28533,"lon":5.44099,"is_reserved":false,"is_disabled":false,"rental_uris":{"android":"levelo://app?vid=e0f4c726-c891-4b59-a727-5f7bf2fb4325","ios":"levelo://app?vid=e0f4c726-c891-4b59-a727-5f7bf2fb4325"},"vehicle_type_id":"4","last_reported":1773486910,"current_range_meters":38800,"station_id":"st_d3j3df2ikq2c7380ej80","pricing_plan_id":"cebpf4jnsgd1na2vs0mg"},{"bike_id":"af2e80dc-23a8-428f-b0f6-a691171e6533","system_id":"levelo_inurba_marseille","lat":43.24663,"lon":5.38176,"is_reserved":false,"is_disabled":false,"rental_uris":{"android":"levelo://app?vid=af2e80dc-23a8-428f-b0f6-a691171e6533","ios":"levelo://app?vid=af2e80dc-23a8-428f-b0f6-a691171e6533"},"vehicle_type_id":"4","last_reported":1773486910,"current_range_meters":16000,"station_id":"ce4bhih2rcd13ifvqfr0","pricing_plan_id":"cebpf4jnsgd1na2vs0mg"},{"bike_id":"3d4208c2-815f-40bf-8bb0-f78b87ee07d6","system_id":"levelo_inurba_marseille","lat":43.28401,"lon":5.34986,"is_reserved":false,"is_disabled":false,"rental_uris":{"android":"levelo://app?vid=3d4208c2-815f-40bf-8bb0-f78b87ee07d6","ios":"levelo://app?vid=3d4208c2-815f-40bf-8bb0-f78b87ee07d6"},"vehicle_type_id":"4","last_reported":1773486910,"current_range_meters":36800,"station_id":"ce4bhbh2rcd13ifvqepg","pricing_plan_id":"cebpf4jnsgd1na2vs0mg"},{"bike_id":"b129dd58-1611-46d1-8998-00763fbad8df","system_id":"levelo_inurba_marseille","lat":43.30069,"lon":5.41682,"is_reserved":false,"is_disabled":false,"rental_uris":{"android":"levelo://app?vid=b129dd58-1611-46d1-8998-00763fbad8df","ios":"levelo://app?vid=b129dd58-1611-46d1-8998-00763fbad8df"},"vehicle_type_id":"4","last_reported":1773486910,"current_range_meters":35200,"station_id":"","pricing_plan_id":"cebpf4jnsgd1na2vs0mg"},{"bike_id":"e1756004-2e63-4706-8768-9d23ea034b62","system_id":"levelo_inurba_marseille","lat":43.29975,"lon":5.384913,"is_reserved":false,"is_disabled":false,"rental_uris":{"android":"levelo://app?vid=e1756004-2e63-4706-8768-9d23ea034b62","ios":"levelo://app?vid=e1756004-2e63-4706-8768-9d23ea034b62"},"vehicle_type_id":"4","last_reported":1773486910,"current_range_meters":5600,"station_id":"ce4bgj92rcd13ifvqbd0","pricing_plan_id":"cebpf4jnsgd1na2vs0mg"},{"bike_id":"2e688729-ac68-4c27-b018-2f7101bf4426","system_id":"levelo_inurba_marseille","lat":43.32489,"lon":5.36546,"is_reserved":false,"is_disabled":false,"rental_uris":{"android":"levelo://app?vid=2e688729-ac68-4c27-b018-2f7101bf4426","ios":"levelo://app?vid=2e688729-ac68-4c27-b018-2f7101bf4426"},"vehicle_type_id":"4","last_reported":1773486910,"current_range_meters":38400,"station_id":"ce4bhs12rcd13ifvqhvg","pricing_plan_id":"cebpf4jnsgd1na2vs0mg"},{"bike_id":"56fddcda-c541-44a5-8391-f7fbf087f4ed","system_id":"levelo_inurba_marseille","lat":43.22563,"lon":5.41637,"is_reserved":false,"is_disabled":false,"rental_uris":{"android":"levelo://app?vid=56fddcda-c541-44a5-8391-f7fbf087f4ed","ios":"levelo://app?vid=56fddcda-c541-44a5-8391-f7fbf087f4ed"},"vehicle_type_id":"4","last_reported":1773486910,"current_range_meters":38800,"station_id":"st_d2o4gvlbi1j2169b742g","pricing_plan_id":"cebpf4jnsgd1na2vs0mg"},{"bike_id":"6de2338b-bc98-4ec6-8f36-63911b8deee6","system_id":"levelo_inurba_marseille","lat":43.30158,"lon":5.38101,"is_reserved":false,"is_disabled":false,"rental_uris":{"android":"levelo://app?vid=6de2338b-bc98-4ec6-8f36-63911b8deee6","ios":"levelo://app?vid=6de2338b-bc98-4ec6-8f36-63911b8deee6"},"vehicle_type_id":"4","last_reported":1773486910,"current_range_meters":9200,"station_id":"ce4bgjp2rcd13ifvqbh0","pricing_plan_id":"cebpf4jnsgd1na2vs0mg"},{"bike_id":"04d16ef4-39d1-4e51-b75d-bfa218adb8ad","system_id":"levelo_inurba_marseille","lat":43.30475,"lon":5.36804,"is_reserved":false,"is_disabled":false,"rental_uris":{"android":"levelo://app?vid=04d16ef4-39d1-4e51-b75d-bfa218adb8ad","ios":"levelo://app?vid=04d16ef4-39d1-4e51-b75d-bfa218adb8ad"},"vehicle_type_id":"4","last_reported":1773486910,"current_range_meters":25200,"station_id":"","pricing_plan_id":"cebpf4jnsgd1na2vs0mg"},{"bike_id":"7b39c3ab-1ec2-4a85-b74e-65bc5157e762","system_id":"levelo_inurba_marseille","lat":43.2437,"lon":5.37076,"is_reserved":false,"is_disabled":false,"rental_uris":{"android":"levelo://app?vid=7b39c3ab-1ec2-4a85-b74e-65bc5157e762","ios":"levelo://app?vid=7b39c3ab-1ec2-4a85-b74e-65bc5157e762"},"vehicle_type_id":"4","last_reported":1773486910,"current_range_meters":38000,"station_id":"ce4bhhh2rcd13ifvqfk0","pricing_plan_id":"cebpf4jnsgd1na2vs0mg"},{"bike_id":"9d1f089a-5edd-4425-ab5e-572af004d064","system_id":"levelo_inurba_marseille","lat":43.27915,"lon":5.39579,"is_reserved":false,"is_disabled":false,"rental_uris":{"android":"levelo://app?vid=9d1f089a-5edd-4425-ab5e-572af004d064","ios":"levelo://app?vid=9d1f089a-5edd-4425-ab5e-572af004d064"},"vehicle_type_id":"4","last_reported":1773486910,"current_range_meters":32800,"station_id":"ce4bhf92rcd13ifvqf40","pricing_plan_id":"cebpf4jnsgd1na2vs0mg"},{"bike_id":"8c58f475-72b6-4baf-a795-5158f3c12b1c","system_id":"levelo_inurba_marseille","lat":43.27683,"lon":5.38903,"is_reserved":false,"is_disabled":false,"rental_uris":{"android":"levelo://app?vid=8c58f475-72b6-4baf-a795-5158f3c12b1c","ios":"levelo://app?vid=8c58f475-72b6-4baf-a795-5158f3c12b1c"},"vehicle_type_id":"4","last_reported":1773486910,"current_range_meters":17600,"station_id":"ce4bhi12rcd13ifvqfo0","pricing_plan_id":"cebpf4jnsgd1na2vs0mg"},{"bike_id":"53b363a8-d8cd-4d1a-8b48-cd6575379171","system_id":"levelo_inurba_marseille","lat":43.28477,"lon":5.38521,"is_reserved":false,"is_disabled":false,"rental_uris":{"android":"levelo://app?vid=53b363a8-d8cd-4d1a-8b48-cd6575379171","ios":"levelo://app?vid=53b363a8-d8cd-4d1a-8b48-cd6575379171"},"vehicle_type_id":"4","last_reported":1773486910,"current_range_meters":31200,"station_id":"ce4bh8p2rcd13ifvqeb0","pricing_plan_id":"cebpf4jnsgd1na2vs0mg"},{"bike_id":"d213d92d-5289-4183-93be-f84e36b07244","system_id":"levelo_inurba_marseille","lat":43.29036,"lon":5.35598,"is_reserved":false,"is_disabled":false,"rental_uris":{"android":"levelo://app?vid=d213d92d-5289-4183-93be-f84e36b07244","ios":"levelo://app?vid=d213d92d-5289-4183-93be-f84e36b07244"},"vehicle_type_id":"4","last_reported":1773486910,"current_range_meters":27200,"station_id":"ce4bhb92rcd13ifvqen0","pricing_plan_id":"cebpf4jnsgd1na2vs0mg"},{"bike_id":"df6b7196-0468-4e73-9167-0a62375e4848","system_id":"levelo_inurba_marseille","lat":43.26494,"lon":5.39541,"is_reserved":false,"is_disabled":false,"rental_uris":{"android":"levelo://app?vid=df6b7196-0468-4e73-9167-0a62375e4848","ios":"levelo://app?vid=df6b7196-0468-4e73-9167-0a62375e4848"},"vehicle_type_id":"4","last_reported":1773486910,"current_range_meters":32800,"station_id":"ce4bhi12rcd13ifvqfq0","pricing_plan_id":"cebpf4jnsgd1na2vs0mg"},{"bike_id":"575e4aa6-8368-403a-a3c6-35c0ff2136b3","system_id":"levelo_inurba_marseille","lat":43.28534,"lon":5.38447,"is_reserved":false,"is_disabled":false,"rental_uris":{"android":"levelo://app?vid=575e4aa6-8368-403a-a3c6-35c0ff2136b3","ios":"levelo://app?vid=575e4aa6-8368-403a-a3c6-35c0ff2136b3"},"vehicle_type_id":"4","last_reported":1773486910,"current_range_meters":37600,"station_id":"","pricing_plan_id":"cebpf4jnsgd1na2vs0mg"},{"bike_id":"5db7e645-8f8b-4392-99e4-347bb63d0753","system_id":"levelo_inurba_marseille","lat":43.30945,"lon":5.40143,"is_reserved":false,"is_disabled":false,"rental_uris":{"android":"levelo://app?vid=5db7e645-8f8b-4392-99e4-347bb63d0753","ios":"levelo://app?vid=5db7e645-8f8b-4392-99e4-347bb63d0753"},"vehicle_type_id":"4","last_reported":1773486910,"current_range_meters":39200,"station_id":"ce4bgvp2rcd13ifvqct0","pricing_plan_id":"cebpf4jnsgd1na2vs0mg"},{"bike_id":"7ff4a410-e8e0-441c-a47e-4138a9b2afa7","system_id":"levelo_inurba_marseille","lat":43.29514,"lon":5.39034,"is_reserved":false,"is_disabled":true,"rental_uris":{"android":"levelo://app?vid=7ff4a410-e8e0-441c-a47e-4138a9b2afa7","ios":"levelo://app?vid=7ff4a410-e8e0-441c-a47e-4138a9b2afa7"},"vehicle_type_id":"4","last_reported":1773486910,"current_range_meters":0,"station_id":"ce4bh3p2rcd13ifvqdp0","pricing_plan_id":"cebpf4jnsgd1na2vs0mg"},{"bike_id":"378008cb-af5a-4fbc-8292-b209b164483f","system_id":"levelo_inurba_marseille","lat":43.29738,"lon":5.37647,"is_reserved":false,"is_disabled":false,"rental_uris":{"android":"levelo://app?vid=378008cb-af5a-4fbc-8292-b209b164483f","ios":"levelo://app?vid=378008cb-af5a-4fbc-8292-b209b164483f"},"vehicle_type_id":"4","last_reported":1773486910,"current_range_meters":38400,"station_id":"ce4bgkh2rcd13ifvqbl0","pricing_plan_id":"cebpf4jnsgd1na2vs0mg"},{"bike_id":"fb8b6e25-08dd-4da9-b988-824235853dd8","system_id":"levelo_inurba_marseille","lat":43.29983,"lon":5.41331,"is_reserved":false,"is_disabled":false,"rental_uris":{"android":"levelo://app?vid=fb8b6e25-08dd-4da9-b988-824235853dd8","ios":"levelo://app?vid=fb8b6e25-08dd-4da9-b988-824235853dd8"},"vehicle_type_id":"4","last_reported":1773486910,"current_range_meters":35600,"station_id":"ce4bhp12rcd13ifvqh9g","pricing_plan_id":"cebpf4jnsgd1na2vs0mg"},{"bike_id":"9e663960-b898-4d9b-b3fc-cc012c944d0f","system_id":"levelo_inurba_marseille","lat":43.30325,"lon":5.36887,"is_reserved":false,"is_disabled":false,"rental_uris":{"android":"levelo://app?vid=9e663960-b898-4d9b-b3fc-cc012c944d0f","ios":"levelo://app?vid=9e663960-b898-4d9b-b3fc-cc012c944d0f"},"vehicle_type_id":"4","last_reported":1773486910,"current_range_meters":36800,"station_id":"ce4bgqh2rcd13ifvqc5g","pricing_plan_id":"cebpf4jnsgd1na2vs0mg"},{"bike_id":"ac325101-b5a7-4f5d-9bc7-aba501847b2e","system_id":"levelo_inurba_marseille","lat":43.27372,"lon":5.36249,"is_reserved":false,"is_disabled":true,"rental_uris":{"android":"levelo://app?vid=ac325101-b5a7-4f5d-9bc7-aba501847b2e","ios":"levelo://app?vid=ac325101-b5a7-4f5d-9bc7-aba501847b2e"},"vehicle_type_id":"4","last_reported":1773486910,"current_range_meters":39200,"station_id":"ce4bhbh2rcd13ifvqeo0","pricing_plan_id":"cebpf4jnsgd1na2vs0mg"},{"bike_id":"1026a843-5ad2-4108-8ed8-7e0baa3350eb","system_id":"levelo_inurba_marseille","lat":43.30229,"lon":5.40022,"is_reserved":false,"is_disabled":false,"rental_uris":{"android":"levelo://app?vid=1026a843-5ad2-4108-8ed8-7e0baa3350eb","ios":"levelo://app?vid=1026a843-5ad2-4108-8ed8-7e0baa3350eb"},"vehicle_type_id":"4","last_reported":1773486910,"current_range_meters":8800,"station_id":"","pricing_plan_id":"cebpf4jnsgd1na2vs0mg"},{"bike_id":"b55e7dd1-4091-4cd0-9b33-d385b7f63602","system_id":"levelo_inurba_marseille","lat":43.26556,"lon":5.37274,"is_reserved":false,"is_disabled":false,"rental_uris":{"android":"levelo://app?vid=b55e7dd1-4091-4cd0-9b33-d385b7f63602","ios":"levelo://app?vid=b55e7dd1-4091-4cd0-9b33-d385b7f63602"},"vehicle_type_id":"4","last_reported":1773486910,"current_range_meters":39200,"station_id":"ce4bhg12rcd13ifvqf70","pricing_plan_id":"cebpf4jnsgd1na2vs0mg"},{"bike_id":"6840f6df-3461-42c8-98d7-357f6584e26f","system_id":"levelo_inurba_marseille","lat":43.27373,"lon":5.36257,"is_reserved":false,"is_disabled":false,"rental_uris":{"android":"levelo://app?vid=6840f6df-3461-42c8-98d7-357f6584e26f","ios":"levelo://app?vid=6840f6df-3461-42c8-98d7-357f6584e26f"},"vehicle_type_id":"4","last_reported":1773486910,"current_range_meters":36400,"station_id":"ce4bhbh2rcd13ifvqeo0","pricing_plan_id":"cebpf4jnsgd1na2vs0mg"},{"bike_id":"db642bf0-0708-479d-b9b8-d6a2caa6481b","system_id":"levelo_inurba_marseille","lat":43.29908,"lon":5.38143,"is_reserved":false,"is_disabled":false,"rental_uris":{"android":"levelo://app?vid=db642bf0-0708-479d-b9b8-d6a2caa6481b","ios":"levelo://app?vid=db642bf0-0708-479d-b9b8-d6a2caa6481b"},"vehicle_type_id":"4","last_reported":1773486910,"current_range_meters":38000,"station_id":"ce4bgj12rcd13ifvqbc0","pricing_plan_id":"cebpf4jnsgd1na2vs0mg"},{"bike_id":"1a7746ce-7e3a-4514-87f0-0fc0c3f3f555","system_id":"levelo_inurba_marseille","lat":43.29906,"lon":5.38147,"is_reserved":false,"is_disabled":false,"rental_uris":{"android":"levelo://app?vid=1a7746ce-7e3a-4514-87f0-0fc0c3f3f555","ios":"levelo://app?vid=1a7746ce-7e3a-4514-87f0-0fc0c3f3f555"},"vehicle_type_id":"4","last_reported":1773486910,"current_range_meters":37600,"station_id":"ce4bgj12rcd13ifvqbc0","pricing_plan_id":"cebpf4jnsgd1na2vs0mg"},{"bike_id":"59296b60-8738-43eb-86a2-6cb0e148b1cc","system_id":"levelo_inurba_marseille","lat":43.29785,"lon":5.38112,"is_reserved":false,"is_disabled":false,"rental_uris":{"android":"levelo://app?vid=59296b60-8738-43eb-86a2-6cb0e148b1cc","ios":"levelo://app?vid=59296b60-8738-43eb-86a2-6cb0e148b1cc"},"vehicle_type_id":"4","last_reported":1773486910,"current_range_meters":39200,"station_id":"ce4bgip2rcd13ifvqbb0","pricing_plan_id":"cebpf4jnsgd1na2vs0mg"},{"bike_id":"13b759af-9f39-4385-b233-8157f102d0b7","system_id":"levelo_inurba_marseille","lat":43.23968,"lon":5.36623,"is_reserved":false,"is_disabled":false,"rental_uris":{"android":"levelo://app?vid=13b759af-9f39-4385-b233-8157f102d0b7","ios":"levelo://app?vid=13b759af-9f39-4385-b233-8157f102d0b7"},"vehicle_type_id":"4","last_reported":1773486910,"current_range_meters":39200,"station_id":"ce4bhi12rcd13ifvqfp0","pricing_plan_id":"cebpf4jnsgd1na2vs0mg"},{"bike_id":"ccbbfdc0-227e-4f9a-abda-4b98116a3dd5","system_id":"levelo_inurba_marseille","lat":43.28004,"lon":5.4002,"is_reserved":false,"is_disabled":false,"rental_uris":{"android":"levelo://app?vid=ccbbfdc0-227e-4f9a-abda-4b98116a3dd5","ios":"levelo://app?vid=ccbbfdc0-227e-4f9a-abda-4b98116a3dd5"},"vehicle_type_id":"4","last_reported":1773486910,"current_range_meters":37600,"station_id":"ce4bho92rcd13ifvqh4g","pricing_plan_id":"cebpf4jnsgd1na2vs0mg"},{"bike_id":"252a5d80-6607-454c-ba50-bf5f3c088b90","system_id":"levelo_inurba_marseille","lat":43.30895,"lon":5.39629,"is_reserved":false,"is_disabled":false,"rental_uris":{"android":"levelo://app?vid=252a5d80-6607-454c-ba50-bf5f3c088b90","ios":"levelo://app?vid=252a5d80-6607-454c-ba50-bf5f3c088b90"},"vehicle_type_id":"4","last_reported":1773486910,"current_range_meters":39200,"station_id":"ce4bh012rcd13ifvqcv0","pricing_plan_id":"cebpf4jnsgd1na2vs0mg"},{"bike_id":"4750752f-43ad-45f1-98e9-dda63ab4c2f6","system_id":"levelo_inurba_marseille","lat":43.3127,"lon":5.40172,"is_reserved":false,"is_disabled":false,"rental_uris":{"android":"levelo://app?vid=4750752f-43ad-45f1-98e9-dda63ab4c2f6","ios":"levelo://app?vid=4750752f-43ad-45f1-98e9-dda63ab4c2f6"},"vehicle_type_id":"4","last_reported":1773486910,"current_range_meters":39200,"station_id":"ce4bh092rcd13ifvqd30","pricing_plan_id":"cebpf4jnsgd1na2vs0mg"},{"bike_id":"93c8107a-44d9-4b92-a485-08cbd24bb80c","system_id":"levelo_inurba_marseille","lat":43.28619,"lon":5.35098,"is_reserved":false,"is_disabled":false,"rental_uris":{"android":"levelo://app?vid=93c8107a-44d9-4b92-a485-08cbd24bb80c","ios":"levelo://app?vid=93c8107a-44d9-4b92-a485-08cbd24bb80c"},"vehicle_type_id":"4","last_reported":1773486910,"current_range_meters":14800,"station_id":"ce4bhch2rcd13ifvqeug","pricing_plan_id":"cebpf4jnsgd1na2vs0mg"},{"bike_id":"4605d0eb-aef4-494c-b103-fe3cbd9a939f","system_id":"levelo_inurba_marseille","lat":43.26071,"lon":5.3939,"is_reserved":false,"is_disabled":false,"rental_uris":{"android":"levelo://app?vid=4605d0eb-aef4-494c-b103-fe3cbd9a939f","ios":"levelo://app?vid=4605d0eb-aef4-494c-b103-fe3cbd9a939f"},"vehicle_type_id":"4","last_reported":1773486910,"current_range_meters":20000,"station_id":"ce4bhh92rcd13ifvqfj0","pricing_plan_id":"cebpf4jnsgd1na2vs0mg"},{"bike_id":"e2ff8fbe-6ee0-4693-94cc-f4a9ec9cf6bf","system_id":"levelo_inurba_marseille","lat":43.31282,"lon":5.40176,"is_reserved":false,"is_disabled":false,"rental_uris":{"android":"levelo://app?vid=e2ff8fbe-6ee0-4693-94cc-f4a9ec9cf6bf","ios":"levelo://app?vid=e2ff8fbe-6ee0-4693-94cc-f4a9ec9cf6bf"},"vehicle_type_id":"4","last_reported":1773486910,"current_range_meters":11600,"station_id":"ce4bh092rcd13ifvqd30","pricing_plan_id":"cebpf4jnsgd1na2vs0mg"},{"bike_id":"c4bc4c4b-1b65-4f1c-9292-7dbc626f973c","system_id":"levelo_inurba_marseille","lat":43.33779,"lon":5.37461,"is_reserved":false,"is_disabled":false,"rental_uris":{"android":"levelo://app?vid=c4bc4c4b-1b65-4f1c-9292-7dbc626f973c","ios":"levelo://app?vid=c4bc4c4b-1b65-4f1c-9292-7dbc626f973c"},"vehicle_type_id":"4","last_reported":1773486910,"current_range_meters":38800,"station_id":"","pricing_plan_id":"cebpf4jnsgd1na2vs0mg"},{"bike_id":"a4e1eda7-e339-4e89-aeab-5ba3de0c460b","system_id":"levelo_inurba_marseille","lat":43.28346,"lon":5.38126,"is_reserved":false,"is_disabled":true,"rental_uris":{"android":"levelo://app?vid=a4e1eda7-e339-4e89-aeab-5ba3de0c460b","ios":"levelo://app?vid=a4e1eda7-e339-4e89-aeab-5ba3de0c460b"},"vehicle_type_id":"4","last_reported":1773486910,"current_range_meters":35600,"station_id":"ce4bh412rcd13ifvqdr0","pricing_plan_id":"cebpf4jnsgd1na2vs0mg"},{"bike_id":"36d46123-1b41-417b-9791-17a81620f364","system_id":"levelo_inurba_marseille","lat":43.32357,"lon":5.36745,"is_reserved":false,"is_disabled":false,"rental_uris":{"android":"levelo://app?vid=36d46123-1b41-417b-9791-17a81620f364","ios":"levelo://app?vid=36d46123-1b41-417b-9791-17a81620f364"},"vehicle_type_id":"4","last_reported":1773486910,"current_range_meters":38800,"station_id":"ce4bhsh2rcd13ifvqi2g","pricing_plan_id":"cebpf4jnsgd1na2vs0mg"},{"bike_id":"d9133e89-fb58-4d54-9b99-2d6f6c6b9e3e","system_id":"levelo_inurba_marseille","lat":43.30123,"lon":5.43116,"is_reserved":false,"is_disabled":false,"rental_uris":{"android":"levelo://app?vid=d9133e89-fb58-4d54-9b99-2d6f6c6b9e3e","ios":"levelo://app?vid=d9133e89-fb58-4d54-9b99-2d6f6c6b9e3e"},"vehicle_type_id":"4","last_reported":1773486910,"current_range_meters":38000,"station_id":"st_d3js3co5814s73ftftug","pricing_plan_id":"cebpf4jnsgd1na2vs0mg"},{"bike_id":"43f4f8ed-a51a-4b4f-9322-93aebcfd0a4d","system_id":"levelo_inurba_marseille","lat":43.29913,"lon":5.38146,"is_reserved":false,"is_disabled":false,"rental_uris":{"android":"levelo://app?vid=43f4f8ed-a51a-4b4f-9322-93aebcfd0a4d","ios":"levelo://app?vid=43f4f8ed-a51a-4b4f-9322-93aebcfd0a4d"},"vehicle_type_id":"4","last_reported":1773486910,"current_range_meters":37600,"station_id":"ce4bgj12rcd13ifvqbc0","pricing_plan_id":"cebpf4jnsgd1na2vs0mg"},{"bike_id":"9b7bd50e-d313-4414-a4e9-8f8061b541b4","system_id":"levelo_inurba_marseille","lat":43.28629,"lon":5.35094,"is_reserved":false,"is_disabled":false,"rental_uris":{"android":"levelo://app?vid=9b7bd50e-d313-4414-a4e9-8f8061b541b4","ios":"levelo://app?vid=9b7bd50e-d313-4414-a4e9-8f8061b541b4"},"vehicle_type_id":"4","last_reported":1773486910,"current_range_meters":8000,"station_id":"ce4bhch2rcd13ifvqeug","pricing_plan_id":"cebpf4jnsgd1na2vs0mg"},{"bike_id":"da7f86cf-e44a-4069-ac5a-c0af0d80fd2c","system_id":"levelo_inurba_marseille","lat":43.24809,"lon":5.37449,"is_reserved":false,"is_disabled":true,"rental_uris":{"android":"levelo://app?vid=da7f86cf-e44a-4069-ac5a-c0af0d80fd2c","ios":"levelo://app?vid=da7f86cf-e44a-4069-ac5a-c0af0d80fd2c"},"vehicle_type_id":"4","last_reported":1773486910,"current_range_meters":34800,"station_id":"ce4bhgh2rcd13ifvqfb0","pricing_plan_id":"cebpf4jnsgd1na2vs0mg"},{"bike_id":"626a35f0-447c-4bce-95ad-77821380f26a","system_id":"levelo_inurba_marseille","lat":43.33158,"lon":5.37674,"is_reserved":false,"is_disabled":true,"rental_uris":{"android":"levelo://app?vid=626a35f0-447c-4bce-95ad-77821380f26a","ios":"levelo://app?vid=626a35f0-447c-4bce-95ad-77821380f26a"},"vehicle_type_id":"4","last_reported":1773486910,"current_range_meters":38000,"station_id":"st_d46cu089ee8s73dldbu0","pricing_plan_id":"cebpf4jnsgd1na2vs0mg"},{"bike_id":"edf8e9bb-dd65-4f5d-9c37-53194300b8b5","system_id":"levelo_inurba_marseille","lat":43.33736,"lon":5.37457,"is_reserved":false,"is_disabled":false,"rental_uris":{"android":"levelo://app?vid=edf8e9bb-dd65-4f5d-9c37-53194300b8b5","ios":"levelo://app?vid=edf8e9bb-dd65-4f5d-9c37-53194300b8b5"},"vehicle_type_id":"4","last_reported":1773486910,"current_range_meters":32000,"station_id":"","pricing_plan_id":"cebpf4jnsgd1na2vs0mg"},{"bike_id":"bb63d02d-c1ed-4615-82e5-40fd91312844","system_id":"levelo_inurba_marseille","lat":43.29197,"lon":5.35766,"is_reserved":false,"is_disabled":true,"rental_uris":{"android":"levelo://app?vid=bb63d02d-c1ed-4615-82e5-40fd91312844","ios":"levelo://app?vid=bb63d02d-c1ed-4615-82e5-40fd91312844"},"vehicle_type_id":"4","last_reported":1773486910,"current_range_meters":32400,"station_id":"ce4bhb12rcd13ifvqel0","pricing_plan_id":"cebpf4jnsgd1na2vs0mg"},{"bike_id":"2c83db99-f032-4ad3-8b13-4073d4086e5f","system_id":"levelo_inurba_marseille","lat":43.30157,"lon":5.38095,"is_reserved":false,"is_disabled":false,"rental_uris":{"android":"levelo://app?vid=2c83db99-f032-4ad3-8b13-4073d4086e5f","ios":"levelo://app?vid=2c83db99-f032-4ad3-8b13-4073d4086e5f"},