{"last_updated":1731254918,"ttl":60,"version":"2.2","data":{"bikes":[{"bike_id":"dcd8b508-2c18-4839-ab68-7b52cc2d3fb7","system_id":"levelo_inurba_marseille","lat":43.27065,"lon":5.42284,"is_reserved":false,"is_disabled":false,"rental_uris":{"android":"levelo://app?vid=dcd8b508-2c18-4839-ab68-7b52cc2d3fb7","ios":"levelo://app?vid=dcd8b508-2c18-4839-ab68-7b52cc2d3fb7"},"vehicle_type_id":"4","last_reported":1731254918,"current_range_meters":29600,"station_id":"ce4bhk92rcd13ifvqgb0","pricing_plan_id":"cebpf4jnsgd1na2vs0mg"},{"bike_id":"4efa2d87-1c9c-4e8d-b7cc-0370e5ffbdb2","system_id":"levelo_inurba_marseille","lat":43.31495,"lon":5.3731,"is_reserved":false,"is_disabled":false,"rental_uris":{"android":"levelo://app?vid=4efa2d87-1c9c-4e8d-b7cc-0370e5ffbdb2","ios":"levelo://app?vid=4efa2d87-1c9c-4e8d-b7cc-0370e5ffbdb2"},"vehicle_type_id":"4","last_reported":1731254918,"current_range_meters":30800,"station_id":"ce4bgt12rcd13ifvqcd0","pricing_plan_id":"cebpf4jnsgd1na2vs0mg"},{"bike_id":"8bdd176b-8c6d-4fa1-a6dd-c21d48e9d9c0","system_id":"levelo_inurba_marseille","lat":43.2994,"lon":5.36553,"is_reserved":false,"is_disabled":false,"rental_uris":{"android":"levelo://app?vid=8bdd176b-8c6d-4fa1-a6dd-c21d48e9d9c0","ios":"levelo://app?vid=8bdd176b-8c6d-4fa1-a6dd-c21d48e9d9c0"},"vehicle_type_id":"4","last_reported":1731254918,"current_range_meters":22400,"station_id":"ce4bgm92rcd13ifvqbr0","pricing_plan_id":"cebpf4jnsgd1na2vs0mg"},{"bike_id":"ebf7e81c-f05a-4838-907f-9efe25d7233c","system_id":"levelo_inurba_marseille","lat":43.26684,"lon":5.38271,"is_reserved":false,"is_disabled":false,"rental_uris":{"android":"levelo://app?vid=ebf7e81c-f05a-4838-907f-9efe25d7233c","ios":"levelo://app?vid=ebf7e81c-f05a-4838-907f-9efe25d7233c"},"vehicle_type_id":"4","last_reported":1731254918,"current_range_meters":33600,"station_id":"ce4bhg92rcd13ifvqf90","pricing_plan_id":"cebpf4jnsgd1na2vs0mg"},{"bike_id":"f903ea29-30fe-46ae-8eeb-7a1975d030a7","system_id":"levelo_inurba_marseille","lat":43.31752,"lon":5.37713,"is_reserved":false,"is_disabled":false,"rental_uris":{"android":"levelo://app?vid=f903ea29-30fe-46ae-8eeb-7a1975d030a7","ios":"levelo://app?vid=f903ea29-30fe-46ae-8eeb-7a1975d030a7"},"vehicle_type_id":"4","last_reported":1731254918,"current_range_meters":24000,"station_id":"ce4bgth2rcd13ifvqch0","pricing_plan_id":"cebpf4jnsgd1na2vs0mg"},{"bike_id":"48bef655-dfdd-44a7-8c04-ab14e04b9d47","system_id":"levelo_inurba_marseille","lat":43.29295,"lon":5.3745,"is_reserved":false,"is_disabled":false,"rental_uris":{"android":"levelo://app?vid=48bef655-dfdd-44a7-8c04-ab14e04b9d47","ios":"levelo://app?vid=48bef655-dfdd-44a7-8c04-ab14e04b9d47"},"vehicle_type_id":"4","last_reported":1731254918,"current_range_meters":34800,"station_id":"ce4bgi12rcd13ifvqb70","pricing_plan_id":"cebpf4jnsgd1na2vs0mg"},{"bike_id":"5daf7e81-adca-4c69-ac49-7439dac41928","system_id":"levelo_inurba_marseille","lat":43.29548,"lon":5.4229,"is_reserved":false,"is_disabled":false,"rental_uris":{"android":"levelo://app?vid=5daf7e81-adca-4c69-ac49-7439dac41928","ios":"levelo://app?vid=5daf7e81-adca-4c69-ac49-7439dac41928"},"vehicle_type_id":"4","last_reported":1731254918,"current_range_meters":38800,"station_id":"ce4bhph2rcd13ifvqhdg","pricing_plan_id":"cebpf4jnsgd1na2vs0mg"},{"bike_id":"aaea9d51-541c-4e5d-bda0-c15fe6a4cbcc","system_id":"levelo_inurba_marseille","lat":43.29695,"lon":5.37766,"is_reserved":false,"is_disabled":false,"rental_uris":{"android":"levelo://app?vid=aaea9d51-541c-4e5d-bda0-c15fe6a4cbcc","ios":"levelo://app?vid=aaea9d51-541c-4e5d-bda0-c15fe6a4cbcc"},"vehicle_type_id":"4","last_reported":1731254918,"current_range_meters":11600,"station_id":"ce4bgjh2rcd13ifvqbg0","pricing_plan_id":"cebpf4jnsgd1na2vs0mg"},{"bike_id":"7189f3bb-2a8f-406a-9a1f-badea22c40a7","system_id":"levelo_inurba_marseille","lat":43.28423,"lon":5.34992,"is_reserved":false,"is_disabled":false,"rental_uris":{"android":"levelo://app?vid=7189f3bb-2a8f-406a-9a1f-badea22c40a7","ios":"levelo://app?vid=7189f3bb-2a8f-406a-9a1f-badea22c40a7"},"vehicle_type_id":"4","last_reported":1731254918,"current_range_meters":26800,"station_id":"ce4bhbh2rcd13ifvqepg","pricing_plan_id":"cebpf4jnsgd1na2vs0mg"},{"bike_id":"05c60873-e84e-4b6b-9e01-c73375d86b0e","system_id":"levelo_inurba_marseille","lat":43.26481,"lon":5.39556,"is_reserved":false,"is_disabled":false,"rental_uris":{"android":"levelo://app?vid=05c60873-e84e-4b6b-9e01-c73375d86b0e","ios":"levelo://app?vid=05c60873-e84e-4b6b-9e01-c73375d86b0e"},"vehicle_type_id":"4","last_reported":1731254918,"current_range_meters":10000,"station_id":"ce4bhi12rcd13ifvqfq0","pricing_plan_id":"cebpf4jnsgd1na2vs0mg"},{"bike_id":"57152a65-1473-4478-9149-57cc38197e33","system_id":"levelo_inurba_marseille","lat":43.29793,"lon":5.39356,"is_reserved":false,"is_disabled":false,"rental_uris":{"android":"levelo://app?vid=57152a65-1473-4478-9149-57cc38197e33","ios":"levelo://app?vid=57152a65-1473-4478-9149-57cc38197e33"},"vehicle_type_id":"4","last_reported":1731254918,"current_range_meters":38800,"station_id":"chh1huq6cuj3fo74tm60","pricing_plan_id":"cebpf4jnsgd1na2vs0mg"},{"bike_id":"96aafac0-870e-461f-977e-6cb79d84ef33","system_id":"levelo_inurba_marseille","lat":43.28036,"lon":5.36942,"is_reserved":false,"is_disabled":false,"rental_uris":{"android":"levelo://app?vid=96aafac0-870e-461f-977e-6cb79d84ef33","ios":"levelo://app?vid=96aafac0-870e-461f-977e-6cb79d84ef33"},"vehicle_type_id":"4","last_reported":1731254918,"current_range_meters":33600,"station_id":"ce4bh412rcd13ifvqds0","pricing_plan_id":"cebpf4jnsgd1na2vs0mg"},{"bike_id":"cfe40e7e-e302-4688-9420-692bc65f66f0","system_id":"levelo_inurba_marseille","lat":43.32057,"lon":5.41557,"is_reserved":false,"is_disabled":false,"rental_uris":{"android":"levelo://app?vid=cfe40e7e-e302-4688-9420-692bc65f66f0","ios":"levelo://app?vid=cfe40e7e-e302-4688-9420-692bc65f66f0"},"vehicle_type_id":"4","last_reported":1731254918,"current_range_meters":10000,"station_id":"ce4bhq92rcd13ifvqhkg","pricing_plan_id":"cebpf4jnsgd1na2vs0mg"},{"bike_id":"a59a1a27-69a9-4833-820c-4f5b40f640c7","system_id":"levelo_inurba_marseille","lat":43.28438,"lon":5.39211,"is_reserved":false,"is_disabled":false,"rental_uris":{"android":"levelo://app?vid=a59a1a27-69a9-4833-820c-4f5b40f640c7","ios":"levelo://app?vid=a59a1a27-69a9-4833-820c-4f5b40f640c7"},"vehicle_type_id":"4","last_reported":1731254918,"current_range_meters":10800,"station_id":"ce4bhoh2rcd13ifvqh5g","pricing_plan_id":"cebpf4jnsgd1na2vs0mg"},{"bike_id":"0a38ac31-37fc-4fe7-8287-2ea584a2cd48","system_id":"levelo_inurba_marseille","lat":43.29011,"lon":5.3561,"is_reserved":false,"is_disabled":false,"rental_uris":{"android":"levelo://app?vid=0a38ac31-37fc-4fe7-8287-2ea584a2cd48","ios":"levelo://app?vid=0a38ac31-37fc-4fe7-8287-2ea584a2cd48"},"vehicle_type_id":"4","last_reported":1731254918,"current_range_meters":36800,"station_id":"ce4bhb92rcd13ifvqen0","pricing_plan_id":"cebpf4jnsgd1na2vs0mg"},{"bike_id":"c7c7882f-f4d1-462f-9860-e573d1886a14","system_id":"levelo_inurba_marseille","lat":43.24388,"lon":5.37069,"is_reserved":false,"is_disabled":false,"rental_uris":{"android":"levelo://app?vid=c7c7882f-f4d1-462f-9860-e573d1886a14","ios":"levelo://app?vid=c7c7882f-f4d1-462f-9860-e573d1886a14"},"vehicle_type_id":"4","last_reported":1731254918,"current_range_meters":20000,"station_id":"ce4bhhh2rcd13ifvqfk0","pricing_plan_id":"cebpf4jnsgd1na2vs0mg"},{"bike_id":"0f7ef8f2-c091-420e-be1a-8c1e2421ea9d","system_id":"levelo_inurba_marseille","lat":43.23057,"lon":5.35498,"is_reserved":false,"is_disabled":false,"rental_uris":{"android":"levelo://app?vid=0f7ef8f2-c091-420e-be1a-8c1e2421ea9d","ios":"levelo://app?vid=0f7ef8f2-c091-420e-be1a-8c1e2421ea9d"},"vehicle_type_id":"4","last_reported":1731254918,"current_range_meters":9600,"station_id":"cpo3342slgdg3j2ifvpg","pricing_plan_id":"cebpf4jnsgd1na2vs0mg"},{"bike_id":"4d8a39f0-cf9b-4574-b4b3-d359660c3302","system_id":"levelo_inurba_marseille","lat":43.2439,"lon":5.37065,"is_reserved":false,"is_disabled":false,"rental_uris":{"android":"levelo://app?vid=4d8a39f0-cf9b-4574-b4b3-d359660c3302","ios":"levelo://app?vid=4d8a39f0-cf9b-4574-b4b3-d359660c3302"},"vehicle_type_id":"4","last_reported":1731254918,"current_range_meters":38000,"station_id":"ce4bhhh2rcd13ifvqfk0","pricing_plan_id":"cebpf4jnsgd1na2vs0mg"},{"bike_id":"55824a0f-695a-44a4-a991-d5ed9c3f8c72","system_id":"levelo_inurba_marseille","lat":43.25823,"lon":5.39436,"is_reserved":false,"is_disabled":false,"rental_uris":{"android":"levelo://app?vid=55824a0f-695a-44a4-a991-d5ed9c3f8c72","ios":"levelo://app?vid=55824a0f-695a-44a4-a991-d5ed9c3f8c72"},"vehicle_type_id":"4","last_reported":1731254918,"current_range_meters":17200,"station_id":"ce4bhip2rcd13ifvqft0","pricing_plan_id":"cebpf4jnsgd1na2vs0mg"},{"bike_id":"87a6a8a8-9b6d-4a68-bfce-a381ebbab4e5","system_id":"levelo_inurba_marseille","lat":43.27169,"lon":5.39211,"is_reserved":false,"is_disabled":false,"rental_uris":{"android":"levelo://app?vid=87a6a8a8-9b6d-4a68-bfce-a381ebbab4e5","ios":"levelo://app?vid=87a6a8a8-9b6d-4a68-bfce-a381ebbab4e5"},"vehicle_type_id":"4","last_reported":1731254918,"current_range_meters":10800,"station_id":"","pricing_plan_id":"cebpf4jnsgd1na2vs0mg"},{"bike_id":"c439deba-416d-434e-bb31-19e120f44575","system_id":"levelo_inurba_marseille","lat":43.29167,"lon":5.3717,"is_reserved":false,"is_disabled":false,"rental_uris":{"android":"levelo://app?vid=c439deba-416d-434e-bb31-19e120f44575","ios":"levelo://app?vid=c439deba-416d-434e-bb31-19e120f44575"},"vehicle_type_id":"4","last_reported":1731254918,"current_range_meters":36000,"station_id":"ce4bha92rcd13ifvqeh0","pricing_plan_id":"cebpf4jnsgd1na2vs0mg"},{"bike_id":"cdbb1be3-b687-4659-8bbc-bcbeb0a4d820","system_id":"levelo_inurba_marseille","lat":43.28465,"lon":5.35888,"is_reserved":false,"is_disabled":false,"rental_uris":{"android":"levelo://app?vid=cdbb1be3-b687-4659-8bbc-bcbeb0a4d820","ios":"levelo://app?vid=cdbb1be3-b687-4659-8bbc-bcbeb0a4d820"},"vehicle_type_id":"4","last_reported":1731254918,"current_range_meters":28000,"station_id":"ce4bhah2rcd13ifvqei0","pricing_plan_id":"cebpf4jnsgd1na2vs0mg"},{"bike_id":"2cb5e02d-708e-47fd-a468-84194a3b9430","system_id":"levelo_inurba_marseille","lat":43.28942,"lon":5.36402,"is_reserved":false,"is_disabled":false,"rental_uris":{"android":"levelo://app?vid=2cb5e02d-708e-47fd-a468-84194a3b9430","ios":"levelo://app?vid=2cb5e02d-708e-47fd-a468-84194a3b9430"},"vehicle_type_id":"4","last_reported":1731254918,"current_range_meters":16400,"station_id":"ce4bhc92rcd13ifvqetg","pricing_plan_id":"cebpf4jnsgd1na2vs0mg"},{"bike_id":"bd1ef50a-6104-4c04-a7d2-843f7a9f9d93","system_id":"levelo_inurba_marseille","lat":43.31227,"lon":5.36862,"is_reserved":false,"is_disabled":false,"rental_uris":{"android":"levelo://app?vid=bd1ef50a-6104-4c04-a7d2-843f7a9f9d93","ios":"levelo://app?vid=bd1ef50a-6104-4c04-a7d2-843f7a9f9d93"},"vehicle_type_id":"4","last_reported":1731254918,"current_range_meters":38800,"station_id":"ce4bgl92rcd13ifvqbq0","pricing_plan_id":"cebpf4jnsgd1na2vs0mg"},{"bike_id":"c221efe7-efcb-49b8-a1b0-1dd8d171a453","system_id":"levelo_inurba_marseille","lat":43.33722,"lon":5.39186,"is_reserved":false,"is_disabled":false,"rental_uris":{"android":"levelo://app?vid=c221efe7-efcb-49b8-a1b0-1dd8d171a453","ios":"levelo://app?vid=c221efe7-efcb-49b8-a1b0-1dd8d171a453"},"vehicle_type_id":"4","last_reported":1731254918,"current_range_meters":38800,"station_id":"ce4bhr92rcd13ifvqhsg","pricing_plan_id":"cebpf4jnsgd1na2vs0mg"},{"bike_id":"b8fdd341-0697-41ca-82c9-e4253415f4e6","system_id":"levelo_inurba_marseille","lat":43.23055,"lon":5.3549,"is_reserved":false,"is_disabled":false,"rental_uris":{"android":"levelo://app?vid=b8fdd341-0697-41ca-82c9-e4253415f4e6","ios":"levelo://app?vid=b8fdd341-0697-41ca-82c9-e4253415f4e6"},"vehicle_type_id":"4","last_reported":1731254918,"current_range_meters":27200,"station_id":"cpo3342slgdg3j2ifvpg","pricing_plan_id":"cebpf4jnsgd1na2vs0mg"},{"bike_id":"cf9daf46-3bd1-47e7-80ac-0de06577c598","system_id":"levelo_inurba_marseille","lat":43.24389,"lon":5.37049,"is_reserved":false,"is_disabled":false,"rental_uris":{"android":"levelo://app?vid=cf9daf46-3bd1-47e7-80ac-0de06577c598","ios":"levelo://app?vid=cf9daf46-3bd1-47e7-80ac-0de06577c598"},"vehicle_type_id":"4","last_reported":1731254918,"current_range_meters":38800,"station_id":"ce4bhhh2rcd13ifvqfk0","pricing_plan_id":"cebpf4jnsgd1na2vs0mg"},{"bike_id":"c4c352fd-e59d-42dc-b651-459295154f64","system_id":"levelo_inurba_marseille","lat":43.246621,"lon":5.381637,"is_reserved":false,"is_disabled":false,"rental_uris":{"android":"levelo://app?vid=c4c352fd-e59d-42dc-b651-459295154f64","ios":"levelo://app?vid=c4c352fd-e59d-42dc-b651-459295154f64"},"vehicle_type_id":"4","last_reported":1731254918,"current_range_meters":37600,"station_id":"ce4bhih2rcd13ifvqfr0","pricing_plan_id":"cebpf4jnsgd1na2vs0mg"},{"bike_id":"b8ccc57f-5eb1-455d-b235-4bff502b9868","system_id":"levelo_inurba_marseille","lat":43.291718,"lon":5.371535,"is_reserved":false,"is_disabled":false,"rental_uris":{"android":"levelo://app?vid=b8ccc57f-5eb1-455d-b235-4bff502b9868","ios":"levelo://app?vid=b8ccc57f-5eb1-455d-b235-4bff502b9868"},"vehicle_type_id":"4","last_reported":1731254918,"current_range_meters":38400,"station_id":"ce4bha92rcd13ifvqeh0","pricing_plan_id":"cebpf4jnsgd1na2vs0mg"},{"bike_id":"2d777a29-098e-4a3c-8608-498bf6a0d8f6","system_id":"levelo_inurba_marseille","lat":43.28107,"lon":5.37847,"is_reserved":false,"is_disabled":false,"rental_uris":{"android":"levelo://app?vid=2d777a29-098e-4a3c-8608-498bf6a0d8f6","ios":"levelo://app?vid=2d777a29-098e-4a3c-8608-498bf6a0d8f6"},"vehicle_type_id":"4","last_reported":1731254918,"current_range_meters":39200,"station_id":"ce4bha12rcd13ifvqee0","pricing_plan_id":"cebpf4jnsgd1na2vs0mg"},{"bike_id":"525e3c50-51e7-4357-9f2a-5cfb2837c51e","system_id":"levelo_inurba_marseille","lat":43.27598,"lon":5.38416,"is_reserved":false,"is_disabled":false,"rental_uris":{"android":"levelo://app?vid=525e3c50-51e7-4357-9f2a-5cfb2837c51e","ios":"levelo://app?vid=525e3c50-51e7-4357-9f2a-5cfb2837c51e"},"vehicle_type_id":"4","last_reported":1731254918,"current_range_meters":38400,"station_id":"ce4bhh92rcd13ifvqfi0","pricing_plan_id":"cebpf4jnsgd1na2vs0mg"},{"bike_id":"6021a413-f234-4543-9e2c-041cafeef6a9","system_id":"levelo_inurba_marseille","lat":43.29561,"lon":5.42282,"is_reserved":false,"is_disabled":false,"rental_uris":{"android":"levelo://app?vid=6021a413-f234-4543-9e2c-041cafeef6a9","ios":"levelo://app?vid=6021a413-f234-4543-9e2c-041cafeef6a9"},"vehicle_type_id":"4","last_reported":1731254918,"current_range_meters":30400,"station_id":"ce4bhph2rcd13ifvqhdg","pricing_plan_id":"cebpf4jnsgd1na2vs0mg"},{"bike_id":"a2c94e1a-3858-41e6-aa7e-97346fb4829e","system_id":"levelo_inurba_marseille","lat":43.23061,"lon":5.355,"is_reserved":false,"is_disabled":false,"rental_uris":{"android":"levelo://app?vid=a2c94e1a-3858-41e6-aa7e-97346fb4829e","ios":"levelo://app?vid=a2c94e1a-3858-41e6-aa7e-97346fb4829e"},"vehicle_type_id":"4","last_reported":1731254918,"current_range_meters":18000,"station_id":"cpo3342slgdg3j2ifvpg","pricing_plan_id":"cebpf4jnsgd1na2vs0mg"},{"bike_id":"2972f759-c98e-4fe7-9758-85d215895273","system_id":"levelo_inurba_marseille","lat":43.23957,"lon":5.36627,"is_reserved":false,"is_disabled":false,"rental_uris":{"android":"levelo://app?vid=2972f759-c98e-4fe7-9758-85d215895273","ios":"levelo://app?vid=2972f759-c98e-4fe7-9758-85d215895273"},"vehicle_type_id":"4","last_reported":1731254918,"current_range_meters":36000,"station_id":"ce4bhi12rcd13ifvqfp0","pricing_plan_id":"cebpf4jnsgd1na2vs0mg"},{"bike_id":"010d3bc6-1da9-4e2e-9558-6436a5780c21","system_id":"levelo_inurba_marseille","lat":43.23196,"lon":5.35548,"is_reserved":false,"is_disabled":false,"rental_uris":{"android":"levelo://app?vid=010d3bc6-1da9-4e2e-9558-6436a5780c21","ios":"levelo://app?vid=010d3bc6-1da9-4e2e-9558-6436a5780c21"},"vehicle_type_id":"4","last_reported":1731254918,"current_range_meters":38800,"station_id":"ce4bhu92rcd13ifvqi70","pricing_plan_id":"cebpf4jnsgd1na2vs0mg"},{"bike_id":"37ca8915-c325-49ef-bc96-521954b406f3","system_id":"levelo_inurba_marseille","lat":43.24809,"lon":5.37457,"is_reserved":false,"is_disabled":false,"rental_uris":{"android":"levelo://app?vid=37ca8915-c325-49ef-bc96-521954b406f3","ios":"levelo://app?vid=37ca8915-c325-49ef-bc96-521954b406f3"},"vehicle_type_id":"4","last_reported":1731254918,"current_range_meters":4000,"station_id":"ce4bhgh2rcd13ifvqfb0","pricing_plan_id":"cebpf4jnsgd1na2vs0mg"},{"bike_id":"9fc4926e-5d90-43d3-a404-7c224179d30f","system_id":"levelo_inurba_marseille","lat":43.248,"lon":5.37462,"is_reserved":false,"is_disabled":false,"rental_uris":{"android":"levelo://app?vid=9fc4926e-5d90-43d3-a404-7c224179d30f","ios":"levelo://app?vid=9fc4926e-5d90-43d3-a404-7c224179d30f"},"vehicle_type_id":"4","last_reported":1731254918,"current_range_meters":38800,"station_id":"ce4bhgh2rcd13ifvqfb0","pricing_plan_id":"cebpf4jnsgd1na2vs0mg"},{"bike_id":"bff58944-372f-4480-b001-ca5618767dca","system_id":"levelo_inurba_marseille","lat":43.26556,"lon":5.39013,"is_reserved":false,"is_disabled":false,"rental_uris":{"android":"levelo://app?vid=bff58944-372f-4480-b001-ca5618767dca","ios":"levelo://app?vid=bff58944-372f-4480-b001-ca5618767dca"},"vehicle_type_id":"4","last_reported":1731254918,"current_range_meters":8000,"station_id":"ce4bhe12rcd13ifvqf30","pricing_plan_id":"cebpf4jnsgd1na2vs0mg"},{"bike_id":"4d08b22e-7b37-4aa8-b702-a47ab5144543","system_id":"levelo_inurba_marseille","lat":43.26555,"lon":5.37287,"is_reserved":false,"is_disabled":false,"rental_uris":{"android":"levelo://app?vid=4d08b22e-7b37-4aa8-b702-a47ab5144543","ios":"levelo://app?vid=4d08b22e-7b37-4aa8-b702-a47ab5144543"},"vehicle_type_id":"4","last_reported":1731254918,"current_range_meters":24400,"station_id":"ce4bhg12rcd13ifvqf70","pricing_plan_id":"cebpf4jnsgd1na2vs0mg"},{"bike_id":"c1475c7f-3efc-47ab-ad68-777bee614371","system_id":"levelo_inurba_marseille","lat":43.28266,"lon":5.35071,"is_reserved":false,"is_disabled":false,"rental_uris":{"android":"levelo://app?vid=c1475c7f-3efc-47ab-ad68-777bee614371","ios":"levelo://app?vid=c1475c7f-3efc-47ab-ad68-777bee614371"},"vehicle_type_id":"4","last_reported":1731254918,"current_range_meters":38800,"station_id":"ce4bhbp2rcd13ifvqerg","pricing_plan_id":"cebpf4jnsgd1na2vs0mg"},{"bike_id":"b7d9e4fb-0bf0-4133-89df-416e1a8254b4","system_id":"levelo_inurba_marseille","lat":43.30421,"lon":5.39747,"is_reserved":false,"is_disabled":false,"rental_uris":{"android":"levelo://app?vid=b7d9e4fb-0bf0-4133-89df-416e1a8254b4","ios":"levelo://app?vid=b7d9e4fb-0bf0-4133-89df-416e1a8254b4"},"vehicle_type_id":"4","last_reported":1731254918,"current_range_meters":31200,"station_id":"ce4bh092rcd13ifvqd20","pricing_plan_id":"cebpf4jnsgd1na2vs0mg"},{"bike_id":"b9478b1d-79e3-44c9-ae60-496dd5151f62","system_id":"levelo_inurba_marseille","lat":43.29159,"lon":5.37152,"is_reserved":false,"is_disabled":false,"rental_uris":{"android":"levelo://app?vid=b9478b1d-79e3-44c9-ae60-496dd5151f62","ios":"levelo://app?vid=b9478b1d-79e3-44c9-ae60-496dd5151f62"},"vehicle_type_id":"4","last_reported":1731254918,"current_range_meters":30400,"station_id":"ce4bha92rcd13ifvqeh0","pricing_plan_id":"cebpf4jnsgd1na2vs0mg"},{"bike_id":"0810f946-f23d-4621-a984-a9d0258cea17","system_id":"levelo_inurba_marseille","lat":43.25498,"lon":5.37656,"is_reserved":false,"is_disabled":false,"rental_uris":{"android":"levelo://app?vid=0810f946-f23d-4621-a984-a9d0258cea17","ios":"levelo://app?vid=0810f946-f23d-4621-a984-a9d0258cea17"},"vehicle_type_id":"4","last_reported":1731254918,"current_range_meters":38000,"station_id":"ce4bhh12rcd13ifvqff0","pricing_plan_id":"cebpf4jnsgd1na2vs0mg"},{"bike_id":"88fa30e1-117f-468e-9b03-58114d278510","system_id":"levelo_inurba_marseille","lat":43.24178,"lon":5.39734,"is_reserved":false,"is_disabled":false,"rental_uris":{"android":"levelo://app?vid=88fa30e1-117f-468e-9b03-58114d278510","ios":"levelo://app?vid=88fa30e1-117f-468e-9b03-58114d278510"},"vehicle_type_id":"4","last_reported":1731254918,"current_range_meters":6800,"station_id":"ce4bhn12rcd13ifvqgpg","pricing_plan_id":"cebpf4jnsgd1na2vs0mg"},{"bike_id":"c7adae4a-8b42-4447-8177-1bd7306eabb9","system_id":"levelo_inurba_marseille","lat":43.27373,"lon":5.36272,"is_reserved":false,"is_disabled":false,"rental_uris":{"android":"levelo://app?vid=c7adae4a-8b42-4447-8177-1bd7306eabb9","ios":"levelo://app?vid=c7adae4a-8b42-4447-8177-1bd7306eabb9"},"vehicle_type_id":"4","last_reported":1731254918,"current_range_meters":12000,"station_id":"ce4bhbh2rcd13ifvqeo0","pricing_plan_id":"cebpf4jnsgd1na2vs0mg"},{"bike_id":"72d772c1-c607-4ec3-9b0c-fb8e71d93208","system_id":"levelo_inurba_marseille","lat":43.27623,"lon":5.3611,"is_reserved":false,"is_disabled":false,"rental_uris":{"android":"levelo://app?vid=72d772c1-c607-4ec3-9b0c-fb8e71d93208","ios":"levelo://app?vid=72d772c1-c607-4ec3-9b0c-fb8e71d93208"},"vehicle_type_id":"4","last_reported":1731254918,"current_range_meters":4000,"station_id":"ce4bgj92rcd13ifvqbe0","pricing_plan_id":"cebpf4jnsgd1na2vs0mg"},{"bike_id":"2c3862b8-f3f1-4cde-9fec-d4e2f91678e5","system_id":"levelo_inurba_marseille","lat":43.30954,"lon":5.39054,"is_reserved":false,"is_disabled":false,"rental_uris":{"android":"levelo://app?vid=2c3862b8-f3f1-4cde-9fec-d4e2f91678e5","ios":"levelo://app?vid=2c3862b8-f3f1-4cde-9fec-d4e2f91678e5"},"vehicle_type_id":"4","last_reported":1731254918,"current_range_meters":33200,"station_id":"ce4bgup2rcd13ifvqco0","pricing_plan_id":"cebpf4jnsgd1na2vs0mg"},{"bike_id":"5b1ecbe0-a0fe-45b3-b0ea-f76e5b19652b","system_id":"levelo_inurba_marseille","lat":43.23196,"lon":5.35542,"is_reserved":false,"is_disabled":false,"rental_uris":{"android":"levelo://app?vid=5b1ecbe0-a0fe-45b3-b0ea-f76e5b19652b","ios":"levelo://app?vid=5b1ecbe0-a0fe-45b3-b0ea-f76e5b19652b"},"vehicle_type_id":"4","last_reported":1731254918,"current_range_meters":7200,"station_id":"ce4bhu92rcd13ifvqi70","pricing_plan_id":"cebpf4jnsgd1na2vs0mg"},{"bike_id":"e6dc57cf-44da-4102-9d69-7c7b35161e11","system_id":"levelo_inurba_marseille","lat":43.24174,"lon":5.3641,"is_reserved":false,"is_disabled":false,"rental_uris":{"android":"levelo://app?vid=e6dc57cf-44da-4102-9d69-7c7b35161e11","ios":"levelo://app?vid=e6dc57cf-44da-4102-9d69-7c7b35161e11"},"vehicle_type_id":"4","last_reported":1731254918,"current_range_meters":35200,"station_id":"cpo36qri1sfpv3e86is0","pricing_plan_id":"cebpf4jnsgd1na2vs0mg"},{"bike_id":"eea89b14-e5f3-4242-9fbf-52d861894071","system_id":"levelo_inurba_marseille","lat":43.23185,"lon":5.35557,"is_reserved":false,"is_disabled":false,"rental_uris":{"android":"levelo://app?vid=eea89b14-e5f3-4242-9fbf-52d861894071","ios":"levelo://app?vid=eea89b14-e5f3-4242-9fbf-52d861894071"},"vehicle_type_id":"4","last_reported":1731254918,"current_range_meters":27600,"station_id":"ce4bhu92rcd13ifvqi70","pricing_plan_id":"cebpf4jnsgd1na2vs0mg"},{"bike_id":"42d6f295-5350-44da-8761-a50375c709f2","system_id":"levelo_inurba_marseille","lat":43.24391,"lon":5.37066,"is_reserved":false,"is_disabled":false,"rental_uris":{"android":"levelo://app?vid=42d6f295-5350-44da-8761-a50375c709f2","ios":"levelo://app?vid=42d6f295-5350-44da-8761-a50375c709f2"},"vehicle_type_id":"4","last_reported":1731254918,"current_range_meters":18000,"station_id":"ce4bhhh2rcd13ifvqfk0","pricing_plan_id":"cebpf4jnsgd1na2vs0mg"},{"bike_id":"7b65cf59-71da-498d-af55-fadd7a8875ed","system_id":"levelo_inurba_marseille","lat":43.3108,"lon":5.42432,"is_reserved":false,"is_disabled":false,"rental_uris":{"android":"levelo://app?vid=7b65cf59-71da-498d-af55-fadd7a8875ed","ios":"levelo://app?vid=7b65cf59-71da-498d-af55-fadd7a8875ed"},"vehicle_type_id":"4","last_reported":1731254918,"current_range_meters":10800,"station_id":"ce4bhp92rcd13ifvqhag","pricing_plan_id":"cebpf4jnsgd1na2vs0mg"},{"bike_id":"c878c90a-8373-4828-a8ad-a47bc40e514d","system_id":"levelo_inurba_marseille","lat":43.29265,"lon":5.36845,"is_reserved":false,"is_disabled":false,"rental_uris":{"android":"levelo://app?vid=c878c90a-8373-4828-a8ad-a47bc40e514d","ios":"levelo://app?vid=c878c90a-8373-4828-a8ad-a47bc40e514d"},"vehicle_type_id":"4","last_reported":1731254918,"current_range_meters":38800,"station_id":"ce4bhbp2rcd13ifvqesg","pricing_plan_id":"cebpf4jnsgd1na2vs0mg"},{"bike_id":"a89bb1dc-0899-407b-aa18-d5e8e9ff9842","system_id":"levelo_inurba_marseille","lat":43.292877,"lon":5.374386,"is_reserved":false,"is_disabled":false,"rental_uris":{"android":"levelo://app?vid=a89bb1dc-0899-407b-aa18-d5e8e9ff9842","ios":"levelo://app?vid=a89bb1dc-0899-407b-aa18-d5e8e9ff9842"},"vehicle_type_id":"4","last_reported":1731254918,"current_range_meters":6000,"station_id":"ce4bgi12rcd13ifvqb70","pricing_plan_id":"cebpf4jnsgd1na2vs0mg"},{"bike_id":"5243f985-55e3-450a-86dc-b2e63c8a0df1","system_id":"levelo_inurba_marseille","lat":43.29056,"lon":5.3758,"is_reserved":false,"is_disabled":false,"rental_uris":{"android":"levelo://app?vid=5243f985-55e3-450a-86dc-b2e63c8a0df1","ios":"levelo://app?vid=5243f985-55e3-450a-86dc-b2e63c8a0df1"},"vehicle_type_id":"4","last_reported":1731254918,"current_range_meters":39200,"station_id":"ce4bh692rcd13ifvqe90","pricing_plan_id":"cebpf4jnsgd1na2vs0mg"},{"bike_id":"d2a974a2-88bc-4638-8d41-7f094635c91a","system_id":"levelo_inurba_marseille","lat":43.27096,"lon":5.38187,"is_reserved":false,"is_disabled":false,"rental_uris":{"android":"levelo://app?vid=d2a974a2-88bc-4638-8d41-7f094635c91a","ios":"levelo://app?vid=d2a974a2-88bc-4638-8d41-7f094635c91a"},"vehicle_type_id":"4","last_reported":1731254918,"current_range_meters":5600,"station_id":"","pricing_plan_id":"cebpf4jnsgd1na2vs0mg"},{"bike_id":"85e2f4f3-6aa2-4c02-8cb0-3f10017cc61a","system_id":"levelo_inurba_marseille","lat":43.25086,"lon":5.39534,"is_reserved":false,"is_disabled":false,"rental_uris":{"android":"levelo://app?vid=85e2f4f3-6aa2-4c02-8cb0-3f10017cc61a","ios":"levelo://app?vid=85e2f4f3-6aa2-4c02-8cb0-3f10017cc61a"},"vehicle_type_id":"4","last_reported":1731254918,"current_range_meters":38800,"station_id":"ce4bhm12rcd13ifvqgkg","pricing_plan_id":"cebpf4jnsgd1na2vs0mg"},{"bike_id":"19c81473-6570-4dad-85cf-2173fb964abb","system_id":"levelo_inurba_marseille","lat":43.27998,"lon":5.40015,"is_reserved":false,"is_disabled":false,"rental_uris":{"android":"levelo://app?vid=19c81473-6570-4dad-85cf-2173fb964abb","ios":"levelo://app?vid=19c81473-6570-4dad-85cf-2173fb964abb"},"vehicle_type_id":"4","last_reported":1731254918,"current_range_meters":6400,"station_id":"ce4bho92rcd13ifvqh4g","pricing_plan_id":"cebpf4jnsgd1na2vs0mg"},{"bike_id":"d8b069df-29e1-4273-99b0-c9104446d9c3","system_id":"levelo_inurba_marseille","lat":43.23194,"lon":5.35548,"is_reserved":false,"is_disabled":false,"rental_uris":{"android":"levelo://app?vid=d8b069df-29e1-4273-99b0-c9104446d9c3","ios":"levelo://app?vid=d8b069df-29e1-4273-99b0-c9104446d9c3"},"vehicle_type_id":"4","last_reported":1731254918,"current_range_meters":38400,"station_id":"ce4bhu92rcd13ifvqi70","pricing_plan_id":"cebpf4jnsgd1na2vs0mg"},{"bike_id":"be0017f9-e1ad-4085-a97a-5901835912a2","system_id":"levelo_inurba_marseille","lat":43.25492,"lon":5.37652,"is_reserved":false,"is_disabled":false,"rental_uris":{"android":"levelo://app?vid=be0017f9-e1ad-4085-a97a-5901835912a2","ios":"levelo://app?vid=be0017f9-e1ad-4085-a97a-5901835912a2"},"vehicle_type_id":"4","last_reported":1731254918,"current_range_meters":6800,"station_id":"ce4bhh12rcd13ifvqff0","pricing_plan_id":"cebpf4jnsgd1na2vs0mg"},{"bike_id":"7c5e4751-99c0-4681-9286-273ef84dd6cd","system_id":"levelo_inurba_marseille","lat":43.30287,"lon":5.36877,"is_reserved":false,"is_disabled":false,"rental_uris":{"android":"levelo://app?vid=7c5e4751-99c0-4681-9286-273ef84dd6cd","ios":"levelo://app?vid=7c5e4751-99c0-4681-9286-273ef84dd6cd"},"vehicle_type_id":"4","last_reported":1731254918,"current_range_meters":28000,"station_id":"ce4bgqh2rcd13ifvqc5g","pricing_plan_id":"cebpf4jnsgd1na2vs0mg"},{"bike_id":"8bac9053-3887-4a8c-beaf-c9a3ca84e1f9","system_id":"levelo_inurba_marseille","lat":43.29914,"lon":5.37444,"is_reserved":false,"is_disabled":false,"rental_uris":{"android":"levelo://app?vid=8bac9053-3887-4a8c-beaf-c9a3ca84e1f9","ios":"levelo://app?vid=8bac9053-3887-4a8c-beaf-c9a3ca84e1f9"},"vehicle_type_id":"4","last_reported":1731254918,"current_range_meters":34800,"station_id":"ce4bgjh2rcd13ifvqbg0","pricing_plan_id":"cebpf4jnsgd1na2vs0mg"},{"bike_id":"61ebae1e-7e43-4156-bc77-b929042392dc","system_id":"levelo_inurba_marseille","lat":43.29177,"lon":5.37146,"is_reserved":false,"is_disabled":false,"rental_uris":{"android":"levelo://app?vid=61ebae1e-7e43-4156-bc77-b929042392dc","ios":"levelo://app?vid=61ebae1e-7e43-4156-bc77-b929042392dc"},"vehicle_type_id":"4","last_reported":1731254918,"current_range_meters":38400,"station_id":"ce4bha92rcd13ifvqeh0","pricing_plan_id":"cebpf4jnsgd1na2vs0mg"},{"bike_id":"0f07dfce-bd91-4712-84b8-ad0c2bcb71ba","system_id":"levelo_inurba_marseille","lat":43.26928,"lon":5.3893,"is_reserved":false,"is_disabled":false,"rental_uris":{"android":"levelo://app?vid=0f07dfce-bd91-4712-84b8-ad0c2bcb71ba","ios":"levelo://app?vid=0f07dfce-bd91-4712-84b8-ad0c2bcb71ba"},"vehicle_type_id":"4","last_reported":1731254918,"current_range_meters":22800,"station_id":"ce4bhhh2rcd13ifvqfl0","pricing_plan_id":"cebpf4jnsgd1na2vs0mg"},{"bike_id":"933ea0d4-e4f4-4b69-8976-68008c398786","system_id":"levelo_inurba_marseille","lat":43.29448,"lon":5.39755,"is_reserved":false,"is_disabled":false,"rental_uris":{"android":"levelo://app?vid=933ea0d4-e4f4-4b69-8976-68008c398786","ios":"levelo://app?vid=933ea0d4-e4f4-4b69-8976-68008c398786"},"vehicle_type_id":"4","last_reported":1731254918,"current_range_meters":39200,"station_id":"ce4bh3h2rcd13ifvqdo0","pricing_plan_id":"cebpf4jnsgd1na2vs0mg"},{"bike_id":"82a4bd46-d40b-49c1-bed1-5dc2756f5481","system_id":"levelo_inurba_marseille","lat":43.26937,"lon":5.38922,"is_reserved":false,"is_disabled":false,"rental_uris":{"android":"levelo://app?vid=82a4bd46-d40b-49c1-bed1-5dc2756f5481","ios":"levelo://app?vid=82a4bd46-d40b-49c1-bed1-5dc2756f5481"},"vehicle_type_id":"4","last_reported":1731254918,"current_range_meters":27600,"station_id":"ce4bhhh2rcd13ifvqfl0","pricing_plan_id":"cebpf4jnsgd1na2vs0mg"},{"bike_id":"ca6bc757-afb2-47ae-8348-d50290e625d2","system_id":"levelo_inurba_marseille","lat":43.248086,"lon":5.374563,"is_reserved":false,"is_disabled":false,"rental_uris":{"android":"levelo://app?vid=ca6bc757-afb2-47ae-8348-d50290e625d2","ios":"levelo://app?vid=ca6bc757-afb2-47ae-8348-d50290e625d2"},"vehicle_type_id":"4","last_reported":1731254918,"current_range_meters":35600,"station_id":"ce4bhgh2rcd13ifvqfb0","pricing_plan_id":"cebpf4jnsgd1na2vs0mg"},{"bike_id":"e6664a98-07d2-42c4-aad0-dba090095d84","system_id":"levelo_inurba_marseille","lat":43.29847,"lon":5.36282,"is_reserved":false,"is_disabled":false,"rental_uris":{"android":"levelo://app?vid=e6664a98-07d2-42c4-aad0-dba090095d84","ios":"levelo://app?vid=e6664a98-07d2-42c4-aad0-dba090095d84"},"vehicle_type_id":"4","last_reported":1731254918,"current_range_meters":20400,"station_id":"ce4bgpp2rcd13ifvqc3g","pricing_plan_id":"cebpf4jnsgd1na2vs0mg"},{"bike_id":"91159c09-9195-4483-a6be-99230f9de272","system_id":"levelo_inurba_marseille","lat":43.34141,"lon":5.40909,"is_reserved":false,"is_disabled":false,"rental_uris":{"android":"levelo://app?vid=91159c09-9195-4483-a6be-99230f9de272","ios":"levelo://app?vid=91159c09-9195-4483-a6be-99230f9de272"},"vehicle_type_id":"4","last_reported":1731254918,"current_range_meters":38000,"station_id":"ce4bhqh2rcd13ifvqhlg","pricing_plan_id":"cebpf4jnsgd1na2vs0mg"},{"bike_id":"1fbcbabf-d4c1-4ec7-b1e6-4d5cda071137","system_id":"levelo_inurba_marseille","lat":43.29032,"lon":5.35923,"is_reserved":false,"is_disabled":false,"rental_uris":{"android":"levelo://app?vid=1fbcbabf-d4c1-4ec7-b1e6-4d5cda071137","ios":"levelo://app?vid=1fbcbabf-d4c1-4ec7-b1e6-4d5cda071137"},"vehicle_type_id":"4","last_reported":1731254918,"current_range_meters":2800,"station_id":"ce4bha92rcd13ifvqeg0","pricing_plan_id":"cebpf4jnsgd1na2vs0mg"},{"bike_id":"e8423968-17b0-48d0-a8f0-41a5efaa4cf3","system_id":"levelo_inurba_marseille","lat":43.27369,"lon":5.36263,"is_reserved":false,"is_disabled":false,"rental_uris":{"android":"levelo://app?vid=e8423968-17b0-48d0-a8f0-41a5efaa4cf3","ios":"levelo://app?vid=e8423968-17b0-48d0-a8f0-41a5efaa4cf3"},"vehicle_type_id":"4","last_reported":1731254918,"current_range_meters":38800,"station_id":"ce4bhbh2rcd13ifvqeo0","pricing_plan_id":"cebpf4jnsgd1na2vs0mg"},{"bike_id":"3d45a7ce-a824-4ae2-bbac-d6e8a7d529cc","system_id":"levelo_inurba_marseille","lat":43.28264,"lon":5.35071,"is_reserved":false,"is_disabled":false,"rental_uris":{"android":"levelo://app?vid=3d45a7ce-a824-4ae2-bbac-d6e8a7d529cc","ios":"levelo://app?vid=3d45a7ce-a824-4ae2-bbac-d6e8a7d529cc"},"vehicle_type_id":"4","last_reported":1731254918,"current_range_meters":38800,"station_id":"ce4bhbp2rcd13ifvqerg","pricing_plan_id":"cebpf4jnsgd1na2vs0mg"},{"bike_id":"9fa01bb3-ac90-4a04-8358-75765d16d104","system_id":"levelo_inurba_marseille","lat":43.240773,"lon":5.377608,"is_reserved":false,"is_disabled":false,"rental_uris":{"android":"levelo://app?vid=9fa01bb3-ac90-4a04-8358-75765d16d104","ios":"levelo://app?vid=9fa01bb3-ac90-4a04-8358-75765d16d104"},"vehicle_type_id":"4","last_reported":1731254918,"current_range_meters":38800,"station_id":"ce4bhnp2rcd13ifvqgvg","pricing_plan_id":"cebpf4jnsgd1na2vs0mg"},{"bike_id":"497d24e9-e702-4709-b532-ee5e40ce76ad","system_id":"levelo_inurba_marseille","lat":43.24387,"lon":5.37068,"is_reserved":false,"is_disabled":false,"rental_uris":{"android":"levelo://app?vid=497d24e9-e702-4709-b532-ee5e40ce76ad","ios":"levelo://app?vid=497d24e9-e702-4709-b532-ee5e40ce76ad"},"vehicle_type_id":"4","last_reported":1731254918,"current_range_meters":7200,"station_id":"ce4bhhh2rcd13ifvqfk0","pricing_plan_id":"cebpf4jnsgd1na2vs0mg"},{"bike_id":"96aef8c1-f007-442e-b872-036e6f6c58ad","system_id":"levelo_inurba_marseille","lat":43.3175,"lon":5.39028,"is_reserved":false,"is_disabled":false,"rental_uris":{"android":"levelo://app?vid=96aef8c1-f007-442e-b872-036e6f6c58ad","ios":"levelo://app?vid=96aef8c1-f007-442e-b872-036e6f6c58ad"},"vehicle_type_id":"4","last_reported":1731254918,"current_range_meters":38800,"station_id":"ce4bhqp2rcd13ifvqhng","pricing_plan_id":"cebpf4jnsgd1na2vs0mg"},{"bike_id":"134ce1ce-579d-4d82-bde6-b146c0c11c11","system_id":"levelo_inurba_marseille","lat":43.29895,"lon":5.43686,"is_reserved":false,"is_disabled":false,"rental_uris":{"android":"levelo://app?vid=134ce1ce-579d-4d82-bde6-b146c0c11c11","ios":"levelo://app?vid=134ce1ce-579d-4d82-bde6-b146c0c11c11"},"vehicle_type_id":"4","last_reported":1731254918,"current_range_meters":36800,"station_id":"ce4bhpp2rcd13ifvqhfg","pricing_plan_id":"cebpf4jnsgd1na2vs0mg"},{"bike_id":"8735409f-5bc9-4939-b248-cdab1351a3ca","system_id":"levelo_inurba_marseille","lat":43.30552,"lon":5.36561,"is_reserved":false,"is_disabled":false,"rental_uris":{"android":"levelo://app?vid=8735409f-5bc9-4939-b248-cdab1351a3ca","ios":"levelo://app?vid=8735409f-5bc9-4939-b248-cdab1351a3ca"},"vehicle_type_id":"4","last_reported":1731254918,"current_range_meters":34800,"station_id":"ce4bgs12rcd13ifvqcag","pricing_plan_id":"cebpf4jnsgd1na2vs0mg"},{"bike_id":"96d897ae-5e67-45d5-b4f5-9d933a93b113","system_id":"levelo_inurba_marseille","lat":43.26198,"lon":5.37452,"is_reserved":false,"is_disabled":false,"rental_uris":{"android":"levelo://app?vid=96d897ae-5e67-45d5-b4f5-9d933a93b113","ios":"levelo://app?vid=96d897ae-5e67-45d5-b4f5-9d933a93b113"},"vehicle_type_id":"4","last_reported":1731254918,"current_range_meters":35600,"station_id":"ce4bhgp2rcd13ifvqfc0","pricing_plan_id":"cebpf4jnsgd1na2vs0mg"},{"bike_id":"cb415c97-693f-4136-8dd6-aa94b1a33d48","system_id":"levelo_inurba_marseille","lat":43.29261,"lon":5.40899,"is_reserved":false,"is_disabled":false,"rental_uris":{"android":"levelo://app?vid=cb415c97-693f-4136-8dd6-aa94b1a33d48","ios":"levelo://app?vid=cb415c97-693f-4136-8dd6-aa94b1a33d48"},"vehicle_type_id":"4","last_reported":1731254918,"current_range_meters":25200,"station_id":"ce4bh192rcd13ifvqdc0","pricing_plan_id":"cebpf4jnsgd1na2vs0mg"},{"bike_id":"0c7dfe7b-b19a-4c13-9bd7-48cfa373c90b","system_id":"levelo_inurba_marseille","lat":43.25505,"lon":5.37653,"is_reserved":false,"is_disabled":false,"rental_uris":{"android":"levelo://app?vid=0c7dfe7b-b19a-4c13-9bd7-48cfa373c90b","ios":"levelo://app?vid=0c7dfe7b-b19a-4c13-9bd7-48cfa373c90b"},"vehicle_type_id":"4","last_reported":1731254918,"current_range_meters":6800,"station_id":"ce4bhh12rcd13ifvqff0","pricing_plan_id":"cebpf4jnsgd1na2vs0mg"},{"bike_id":"181fa628-fd06-4339-88f4-5d411c857699","system_id":"levelo_inurba_marseille","lat":43.270657,"lon":5.422784,"is_reserved":false,"is_disabled":false,"rental_uris":{"android":"levelo://app?vid=181fa628-fd06-4339-88f4-5d411c857699","ios":"levelo://app?vid=181fa628-fd06-4339-88f4-5d411c857699"},"vehicle_type_id":"4","last_reported":1731254918,"current_range_meters":8400,"station_id":"ce4bhk92rcd13ifvqgb0","pricing_plan_id":"cebpf4jnsgd1na2vs0mg"},{"bike_id":"05d7fc08-83c2-4afb-9108-f605f1fe9828","system_id":"levelo_inurba_marseille","lat":43.29623,"lon":5.37729,"is_reserved":false,"is_disabled":false,"rental_uris":{"android":"levelo://app?vid=05d7fc08-83c2-4afb-9108-f605f1fe9828","ios":"levelo://app?vid=05d7fc08-83c2-4afb-9108-f605f1fe9828"},"vehicle_type_id":"4","last_reported":1731254918,"current_range_meters":20000,"station_id":"ce4bgi92rcd13ifvqb90","pricing_plan_id":"cebpf4jnsgd1na2vs0mg"},{"bike_id":"9a5eb101-92a2-4eeb-93bd-8d070d90c1ea","system_id":"levelo_inurba_marseille","lat":43.30433,"lon":5.42528,"is_reserved":false,"is_disabled":false,"rental_uris":{"android":"levelo://app?vid=9a5eb101-92a2-4eeb-93bd-8d070d90c1ea","ios":"levelo://app?vid=9a5eb101-92a2-4eeb-93bd-8d070d90c1ea"},"vehicle_type_id":"4","last_reported":1731254918,"current_range_meters":11200,"station_id":"","pricing_plan_id":"cebpf4jnsgd1na2vs0mg"},{"bike_id":"3ba567a2-e80d-4154-8ac4-aa6e78894b5a","system_id":"levelo_inurba_marseille","lat":43.27941,"lon":5.38749,"is_reserved":false,"is_disabled":false,"rental_uris":{"android":"levelo://app?vid=3ba567a2-e80d-4154-8ac4-aa6e78894b5a","ios":"levelo://app?vid=3ba567a2-e80d-4154-8ac4-aa6e78894b5a"},"vehicle_type_id":"4","last_reported":1731254918,"current_range_meters":8000,"station_id":"ce4bhg12rcd13ifvqf80","pricing_plan_id":"cebpf4jnsgd1na2vs0mg"},{"bike_id":"63920f76-52c2-4fe1-9e11-9e13951c59dd","system_id":"levelo_inurba_marseille","lat":43.31715,"lon":5.43703,"is_reserved":false,"is_disabled":false,"rental_uris":{"android":"levelo://app?vid=63920f76-52c2-4fe1-9e11-9e13951c59dd","ios":"levelo://app?vid=63920f76-52c2-4fe1-9e11-9e13951c59dd"},"vehicle_type_id":"4","last_reported":1731254918,"current_range_meters":37600,"station_id":"ce4bhp92rcd13ifvqhcg","pricing_plan_id":"cebpf4jnsgd1na2vs0mg"},{"bike_id":"ed8b0725-6d48-49f3-9ced-806434e511df","system_id":"levelo_inurba_marseille","lat":43.29705,"lon":5.37704,"is_reserved":false,"is_disabled":false,"rental_uris":{"android":"levelo://app?vid=ed8b0725-6d48-49f3-9ced-806434e511df","ios":"levelo://app?vid=ed8b0725-6d48-49f3-9ced-806434e511df"},"vehicle_type_id":"4","last_reported":1731254918,"current_range_meters":37600,"station_id":"ce4bgkh2rcd13ifvqbl0","pricing_plan_id":"cebpf4jnsgd1na2vs0mg"},{"bike_id":"91a598a9-4284-4e88-ab7f-5e3a7e64ed8d","system_id":"levelo_inurba_marseille","lat":43.25488,"lon":5.37661,"is_reserved":false,"is_disabled":false,"rental_uris":{"android":"levelo://app?vid=91a598a9-4284-4e88-ab7f-5e3a7e64ed8d","ios":"levelo://app?vid=91a598a9-4284-4e88-ab7f-5e3a7e64ed8d"},"vehicle_type_id":"4","last_reported":1731254918,"current_range_meters":6800,"station_id":"ce4bhh12rcd13ifvqff0","pricing_plan_id":"cebpf4jnsgd1na2vs0mg"},{"bike_id":"8e9a58c9-4fef-4aca-810f-eb47de85c9df","system_id":"levelo_inurba_marseille","lat":43.3248,"lon":5.36567,"is_reserved":false,"is_disabled":false,"rental_uris":{"android":"levelo://app?vid=8e9a58c9-4fef-4aca-810f-eb47de85c9df","ios":"levelo://app?vid=8e9a58c9-4fef-4aca-810f-eb47de85c9df"},"vehicle_type_id":"4","last_reported":1731254918,"current_range_meters":24400,"station_id":"ce4bhs12rcd13ifvqhvg","pricing_plan_id":"cebpf4jnsgd1na2vs0mg"},{"bike_id":"3203f21f-f903-4115-b283-a86ded4b54c5","system_id":"levelo_inurba_marseille","lat":43.26219,"lon":5.37441,"is_reserved":false,"is_disabled":false,"rental_uris":{"android":"levelo://app?vid=3203f21f-f903-4115-b283-a86ded4b54c5","ios":"levelo://app?vid=3203f21f-f903-4115-b283-a86ded4b54c5"},"vehicle_type_id":"4","last_reported":1731254918,"current_range_meters":23200,"station_id":"ce4bhgp2rcd13ifvqfc0","pricing_plan_id":"cebpf4jnsgd1na2vs0mg"},{"bike_id":"ecd32f14-95f0-46e8-a817-7f76327f5271","system_id":"levelo_inurba_marseille","lat":43.25826,"lon":5.39433,"is_reserved":false,"is_disabled":false,"rental_uris":{"android":"levelo://app?vid=ecd32f14-95f0-46e8-a817-7f76327f5271","ios":"levelo://app?vid=ecd32f14-95f0-46e8-a817-7f76327f5271"},"vehicle_type_id":"4","last_reported":1731254918,"current_range_meters":32800,"station_id":"ce4bhip2rcd13ifvqft0","pricing_plan_id":"cebpf4jnsgd1na2vs0mg"},{"bike_id":"4fb6af20-dec9-436c-9f32-24edbd37e126","system_id":"levelo_inurba_marseille","lat":43.2841,"lon":5.34981,"is_reserved":false,"is_disabled":false,"rental_uris":{"android":"levelo://app?vid=4fb6af20-dec9-436c-9f32-24edbd37e126","ios":"levelo://app?vid=4fb6af20-dec9-436c-9f32-24edbd37e126"},"vehicle_type_id":"4","last_reported":1731254918,"current_range_meters":10800,"station_id":"ce4bhbh2rcd13ifvqepg","pricing_plan_id":"cebpf4jnsgd1na2vs0mg"},{"bike_id":"fc795071-9f53-45ff-8cd1-7e1c2948938e","system_id":"levelo_inurba_marseille","lat":43.27315,"lon":5.39076,"is_reserved":false,"is_disabled":false,"rental_uris":{"android":"levelo://app?vid=fc795071-9f53-45ff-8cd1-7e1c2948938e","ios":"levelo://app?vid=fc795071-9f53-45ff-8cd1-7e1c2948938e"},"vehicle_type_id":"4","last_reported":1731254918,"current_range_meters":8000,"station_id":"ce4bhgp2rcd13ifvqfe0","pricing_plan_id":"cebpf4jnsgd1na2vs0mg"},{"bike_id":"4568bcb9-3316-4002-ab36-3373739b675d","system_id":"levelo_inurba_marseille","lat":43.3031,"lon":5.39199,"is_reserved":false,"is_disabled":false,"rental_uris":{"android":"levelo://app?vid=4568bcb9-3316-4002-ab36-3373739b675d","ios":"levelo://app?vid=4568bcb9-3316-4002-ab36-3373739b675d"},"vehicle_type_id":"4","last_reported":1731254918,"current_range_meters":22400,"station_id":"ce4bgkh2rcd13ifvqbk0","pricing_plan_id":"cebpf4jnsgd1na2vs0mg"},{"bike_id":"0f37bcdc-04d6-4a75-a231-fadf0c13c4e3","system_id":"levelo_inurba_marseille","lat":43.290061,"lon":5.356132,"is_reserved":false,"is_disabled":false,"rental_uris":{"android":"levelo://app?vid=0f37bcdc-04d6-4a75-a231-fadf0c13c4e3","ios":"levelo://app?vid=0f37bcdc-04d6-4a75-a231-fadf0c13c4e3"},"vehicle_type_id":"4","last_reported":1731254918,"current_range_meters":26000,"station_id":"ce4bhb92rcd13ifvqen0","pricing_plan_id":"cebpf4jnsgd1na2vs0mg"},{"bike_id":"96753775-bbea-4f45-b9f3-0bf25ad305d8","system_id":"levelo_inurba_marseille","lat":43.25935,"lon":5.40914,"is_reserved":false,"is_disabled":false,"rental_uris":{"android":"levelo://app?vid=96753775-bbea-4f45-b9f3-0bf25ad305d8","ios":"levelo://app?vid=96753775-bbea-4f45-b9f3-0bf25ad305d8"},"vehicle_type_id":"4","last_reported":1731254918,"current_range_meters":12000,"station_id":"ce4bhm92rcd13ifvqglg","pricing_plan_id":"cebpf4jnsgd1na2vs0mg"},{"bike_id":"07704a86-dbed-425a-854d-11b1a4e3d84c","system_id":"levelo_inurba_marseille","lat":43.33751,"lon":5.37449,"is_reserved":false,"is_disabled":false,"rental_uris":{"android":"levelo://app?vid=07704a86-dbed-425a-854d-11b1a4e3d84c","ios":"levelo://app?vid=07704a86-dbed-425a-854d-11b1a4e3d84c"},"vehicle_type_id":"4","last_reported":1731254918,"current_range_meters":30000,"station_id":"","pricing_plan_id":"cebpf4jnsgd1na2vs0mg"},{"bike_id":"7e5eb7ff-1590-471c-942d-8e5ab2e41993","system_id":"levelo_inurba_marseille","lat":43.29201,"lon":5.39324,"is_reserved":false,"is_disabled":false,"rental_uris":{"android":"levelo://app?vid=7e5eb7ff-1590-471c-942d-8e5ab2e41993","ios":"levelo://app?vid=7e5eb7ff-1590-471c-942d-8e5ab2e41993"},"vehicle_type_id":"4","last_reported":1731254918,"current_range_meters":34800,"station_id":"ce4bh192rcd13ifvqdd0","pricing_plan_id":"cebpf4jnsgd1na2vs0mg"},{"bike_id":"0b74ce83-e6b1-4485-8ca6-3897f29a426e","system_id":"levelo_inurba_marseille","lat":43.23959,"lon":5.36637,"is_reserved":false,"is_disabled":false,"rental_uris":{"android":"levelo://app?vid=0b74ce83-e6b1-4485-8ca6-3897f29a426e","ios":"levelo://app?vid=0b74ce83-e6b1-4485-8ca6-3897f29a426e"},"vehicle_type_id":"4","last_reported":1731254918,"current_range_meters":8400,"station_id":"ce4bhi12rcd13ifvqfp0","pricing_plan_id":"cebpf4jnsgd1na2vs0mg"},{"bike_id":"05bd5647-5cbf-4565-a79f-c7731ab2fd6a","system_id":"levelo_inurba_marseille","lat":43.2668,"lon":5.38268,"is_reserved":false,"is_disabled":false,"rental_uris":{"android":"levelo://app?vid=05bd5647-5cbf-4565-a79f-c7731ab2fd6a","ios":"levelo://app?vid=05bd5647-5cbf-4565-a79f-c7731ab2fd6a"},"vehicle_type_id":"4","last_reported":1731254918,"current_range_meters":11600,"station_id":"ce4bhg92rcd13ifvqf90","pricing_plan_id":"cebpf4jnsgd1na2vs0mg"},{"bike_id":"6c667f5f-b7e9-4c69-8c31-28fbbcdde478","system_id":"levelo_inurba_marseille","lat":43.23195,"lon":5.35555,"is_reserved":false,"is_disabled":false,"rental_uris":{"android":"levelo://app?vid=6c667f5f-b7e9-4c69-8c31-28fbbcdde478","ios":"levelo://app?vid=6c667f5f-b7e9-4c69-8c31-28fbbcdde478"},"vehicle_type_id":"4","last_reported":1731254918,"current_range_meters":8000,"station_id":"ce4bhu92rcd13ifvqi70","pricing_plan_id":"cebpf4jnsgd1na2vs0mg"},{"bike_id":"826da21b-ef56-4266-85f6-bffaaaf475a3","system_id":"levelo_inurba_marseille","lat":43.23964,"lon":5.3664,"is_reserved":false,"is_disabled":false,"rental_uris":{"android":"levelo://app?vid=826da21b-ef56-4266-85f6-bffaaaf475a3","ios":"levelo://app?vid=826da21b-ef56-4266-85f6-bffaaaf475a3"},"vehicle_type_id":"4","last_reported":1731254918,"current_range_meters":7200,"station_id":"ce4bhi12rcd13ifvqfp0","pricing_plan_id":"cebpf4jnsgd1na2vs0mg"},{"bike_id":"0c1d7df7-ae4e-47f6-bf0d-eb14fff27e0c","system_id":"levelo_inurba_marseille","lat":43.28102,"lon":5.37836,"is_reserved":false,"is_disabled":false,"rental_uris":{"android":"levelo://app?vid=0c1d7df7-ae4e-47f6-bf0d-eb14fff27e0c","ios":"levelo://app?vid=0c1d7df7-ae4e-47f6-bf0d-eb14fff27e0c"},"vehicle_type_id":"4","last_reported":1731254918,"current_range_meters":27600,"station_id":"ce4bha12rcd13ifvqee0","pricing_plan_id":"cebpf4jnsgd1na2vs0mg"},{"bike_id":"baac3be3-010c-4ab7-b814-2af962c842f8","system_id":"levelo_inurba_marseille","lat":43.28359,"lon":5.37532,"is_reserved":false,"is_disabled":false,"rental_uris":{"android":"levelo://app?vid=baac3be3-010c-4ab7-b814-2af962c842f8","ios":"levelo://app?vid=baac3be3-010c-4ab7-b814-2af962c842f8"},"vehicle_type_id":"4","last_reported":1731254918,"current_range_meters":26000,"station_id":"","pricing_plan_id":"cebpf4jnsgd1na2vs0mg"},{"bike_id":"d95e469b-2ca2-4c1a-8464-e6c1c5da122f","system_id":"levelo_inurba_marseille","lat":43.303913,"lon":5.416674,"is_reserved":false,"is_disabled":false,"rental_uris":{"android":"levelo://app?vid=d95e469b-2ca2-4c1a-8464-e6c1c5da122f","ios":"levelo://app?vid=d95e469b-2ca2-4c1a-8464-e6c1c5da122f"},"vehicle_type_id":"4","last_reported":1731254918,"current_range_meters":4400,"station_id":"ce4bhop2rcd13ifvqh7g","pricing_plan_id":"cebpf4jnsgd1na2vs0mg"},{"bike_id":"6b119bc2-7e74-4c78-a811-a1ae18064ae0","system_id":"levelo_inurba_marseille","lat":43.28613,"lon":5.3706,"is_reserved":false,"is_disabled":false,"rental_uris":{"android":"levelo://app?vid=6b119bc2-7e74-4c78-a811-a1ae18064ae0","ios":"levelo://app?vid=6b119bc2-7e74-4c78-a811-a1ae18064ae0"},"vehicle_type_id":"4","last_reported":1731254918,"current_range_meters":34800,"station_id":"ce4bht12rcd13ifvqi60","pricing_plan_id":"cebpf4jnsgd1na2vs0mg"},{"bike_id":"60d14ad5-1185-4dc4-abac-9f69f7f32269","system_id":"levelo_inurba_marseille","lat":43.29252,"lon":5.40904,"is_reserved":false,"is_disabled":false,"rental_uris":{"android":"levelo://app?vid=60d14ad5-1185-4dc4-abac-9f69f7f32269","ios":"levelo://app?vid=60d14ad5-1185-4dc4-abac-9f69f7f32269"},"vehicle_type_id":"4","last_reported":1731254918,"current_range_meters":16000,"station_id":"ce4bh192rcd13ifvqdc0","pricing_plan_id":"cebpf4jnsgd1na2vs0mg"},{"bike_id":"8a810937-7ee2-474a-b68f-c89ce5fb2e84","system_id":"levelo_inurba_marseille","lat":43.27499,"lon":5.42454,"is_reserved":false,"is_disabled":false,"rental_uris":{"android":"levelo://app?vid=8a810937-7ee2-474a-b68f-c89ce5fb2e84","ios":"levelo://app?vid=8a810937-7ee2-474a-b68f-c89ce5fb2e84"},"vehicle_type_id":"4","last_reported":1731254918,"current_range_meters":9200,"station_id":"ce4bhn92rcd13ifvqgrg","pricing_plan_id":"cebpf4jnsgd1na2vs0mg"},{"bike_id":"7c59c113-339d-4f9b-b12b-18190bdaf895","system_id":"levelo_inurba_marseille","lat":43.25085,"lon":5.39529,"is_reserved":false,"is_disabled":false,"rental_uris":{"android":"levelo://app?vid=7c59c113-339d-4f9b-b12b-18190bdaf895","ios":"levelo://app?vid=7c59c113-339d-4f9b-b12b-18190bdaf895"},"vehicle_type_id":"4","last_reported":1731254918,"current_range_meters":38800,"station_id":"ce4bhm12rcd13ifvqgkg","pricing_plan_id":"cebpf4jnsgd1na2vs0mg"},{"bike_id":"6fabbb8c-a56d-4a53-9f01-1bc3642318a0","system_id":"levelo_inurba_marseille","lat":43.23959,"lon":5.36633,"is_reserved":false,"is_disabled":false,"rental_uris":{"android":"levelo://app?vid=6fabbb8c-a56d-4a53-9f01-1bc3642318a0","ios":"levelo://app?vid=6fabbb8c-a56d-4a53-9f01-1bc3642318a0"},"vehicle_type_id":"4","last_reported":1731254918,"current_range_meters":14800,"station_id":"ce4bhi12rcd13ifvqfp0","pricing_plan_id":"cebpf4jnsgd1na2vs0mg"},{"bike_id":"9616b585-3056-465d-8e83-d92ae412693b","system_id":"levelo_inurba_marseille","lat":43.28936,"lon":5.36639,"is_reserved":false,"is_disabled":false,"rental_uris":{"android":"levelo://app?vid=9616b585-3056-465d-8e83-d92ae412693b","ios":"levelo://app?vid=9616b585-3056-465d-8e83-d92ae412693b"},"vehicle_type_id":"4","last_reported":1731254918,"current_range_meters":8800,"station_id":"ce4bhap2rcd13ifvqek0","pricing_plan_id":"cebpf4jnsgd1na2vs0mg"},{"bike_id":"318a2db7-49fa-42cd-b5cd-e441d34c840c","system_id":"levelo_inurba_marseille","lat":43.28251,"lon":5.35063,"is_reserved":false,"is_disabled":false,"rental_uris":{"android":"levelo://app?vid=318a2db7-49fa-42cd-b5cd-e441d34c840c","ios":"levelo://app?vid=318a2db7-49fa-42cd-b5cd-e441d34c840c"},"vehicle_type_id":"4","last_reported":1731254918,"current_range_meters":38800,"station_id":"ce4bhbp2rcd13ifvqerg","pricing_plan_id":"cebpf4jnsgd1na2vs0mg"},{"bike_id":"f9536705-6469-40fe-8b90-ba5d77388fb4","system_id":"levelo_inurba_marseille","lat":43.25483,"lon":5.37659,"is_reserved":false,"is_disabled":false,"rental_uris":{"android":"levelo://app?vid=f9536705-6469-40fe-8b90-ba5d77388fb4","ios":"levelo://app?vid=f9536705-6469-40fe-8b90-ba5d77388fb4"},"vehicle_type_id":"4","last_reported":1731254918,"current_range_meters":17600,"station_id":"ce4bhh12rcd13ifvqff0","pricing_plan_id":"cebpf4jnsgd1na2vs0mg"},{"bike_id":"336f6dd3-01d0-421e-98d3-245ae2db5930","system_id":"levelo_inurba_marseille","lat":43.3171,"lon":5.43708,"is_reserved":false,"is_disabled":false,"rental_uris":{"android":"levelo://app?vid=336f6dd3-01d0-421e-98d3-245ae2db5930","ios":"levelo://app?vid=336f6dd3-01d0-421e-98d3-245ae2db5930"},"vehicle_type_id":"4","last_reported":1731254918,"current_range_meters":39200,"station_id":"ce4bhp92rcd13ifvqhcg","pricing_plan_id":"cebpf4jnsgd1na2vs0mg"},{"bike_id":"523cf644-cb5d-4271-963b-3d04d0ee26fc","system_id":"levelo_inurba_marseille","lat":43.31082,"lon":5.42435,"is_reserved":false,"is_disabled":false,"rental_uris":{"android":"levelo://app?vid=523cf644-cb5d-4271-963b-3d04d0ee26fc","ios":"levelo://app?vid=523cf644-cb5d-4271-963b-3d04d0ee26fc"},"vehicle_type_id":"4","last_reported":1731254918,"current_range_meters":19600,"station_id":"ce4bhp92rcd13ifvqhag","pricing_plan_id":"cebpf4jnsgd1na2vs0mg"},{"bike_id":"76cb7de1-c6cf-46f4-817f-a13daaf098d0","system_id":"levelo_inurba_marseille","lat":43.31528,"lon":5.38028,"is_reserved":false,"is_disabled":false,"rental_uris":{"android":"levelo://app?vid=76cb7de1-c6cf-46f4-817f-a13daaf098d0","ios":"levelo://app?vid=76cb7de1-c6cf-46f4-817f-a13daaf098d0"},"vehicle_type_id":"4","last_reported":1731254918,"current_range_meters":6400,"station_id":"ce4bhsp2rcd13ifvqi50","pricing_plan_id":"cebpf4jnsgd1na2vs0mg"},{"bike_id":"d8d8a45e-a1a9-4504-8103-52e72645e9d0","system_id":"levelo_inurba_marseille","lat":43.32659,"lon":5.40994,"is_reserved":false,"is_disabled":false,"rental_uris":{"android":"levelo://app?vid=d8d8a45e-a1a9-4504-8103-52e72645e9d0","ios":"levelo://app?vid=d8d8a45e-a1a9-4504-8103-52e72645e9d0"},"vehicle_type_id":"4","last_reported":1731254918,"current_range_meters":30000,"station_id":"ce4bhpp2rcd13ifvqhgg","pricing_plan_id":"cebpf4jnsgd1na2vs0mg"},{"bike_id":"dd5ee355-6965-4a6f-95a8-de7af9832a76","system_id":"levelo_inurba_marseille","lat":43.29436,"lon":5.39758,"is_reserved":false,"is_disabled":false,"rental_uris":{"android":"levelo://app?vid=dd5ee355-6965-4a6f-95a8-de7af9832a76","ios":"levelo://app?vid=dd5ee355-6965-4a6f-95a8-de7af9832a76"},"vehicle_type_id":"4","last_reported":1731254918,"current_range_meters":34800,"station_id":"ce4bh3h2rcd13ifvqdo0","pricing_plan_id":"cebpf4jnsgd1na2vs0mg"},{"bike_id":"f371675f-dd7f-4dfe-a50f-c4c6b877f4b2","system_id":"levelo_inurba_marseille","lat":43.23172,"lon":5.39992,"is_reserved":false,"is_disabled":false,"rental_uris":{"android":"levelo://app?vid=f371675f-dd7f-4dfe-a50f-c4c6b877f4b2","ios":"levelo://app?vid=f371675f-dd7f-4dfe-a50f-c4c6b877f4b2"},"vehicle_type_id":"4","last_reported":1731254918,"current_range_meters":5600,"station_id":"ce4bhn12rcd13ifvqgqg","pricing_plan_id":"cebpf4jnsgd1na2vs0mg"},{"bike_id":"d604bdcf-1c29-4955-a92a-983bad3f66b9","system_id":"levelo_inurba_marseille","lat":43.28417,"lon":5.35004,"is_reserved":false,"is_disabled":false,"rental_uris":{"android":"levelo://app?vid=d604bdcf-1c29-4955-a92a-983bad3f66b9","ios":"levelo://app?vid=d604bdcf-1c29-4955-a92a-983bad3f66b9"},"vehicle_type_id":"4","last_reported":1731254918,"current_range_meters":30000,"station_id":"ce4bhbh2rcd13ifvqepg","pricing_plan_id":"cebpf4jnsgd1na2vs0mg"},{"bike_id":"d4acb691-6fcc-405b-b963-452bd997ccc1","system_id":"levelo_inurba_marseille","lat":43.28403,"lon":5.37505,"is_reserved":false,"is_disabled":false,"rental_uris":{"android":"levelo://app?vid=d4acb691-6fcc-405b-b963-452bd997ccc1","ios":"levelo://app?vid=d4acb691-6fcc-405b-b963-452bd997ccc1"},"vehicle_type_id":"4","last_reported":1731254918,"current_range_meters":35200,"station_id":"ce4bh412rcd13ifvqds0","pricing_plan_id":"cebpf4jnsgd1na2vs0mg"},{"bike_id":"2238368d-1f29-4da4-8e0b-95dfba092e39","system_id":"levelo_inurba_marseille","lat":43.30635,"lon":5.40088,"is_reserved":false,"is_disabled":false,"rental_uris":{"android":"levelo://app?vid=2238368d-1f29-4da4-8e0b-95dfba092e39","ios":"levelo://app?vid=2238368d-1f29-4da4-8e0b-95dfba092e39"},"vehicle_type_id":"4","last_reported":1731254918,"current_range_meters":14000,"station_id":"ce4bh112rcd13ifvqda0","pricing_plan_id":"cebpf4jnsgd1na2vs0mg"},{"bike_id":"7cbcc02e-b174-46f4-99d0-100529c6ebfd","system_id":"levelo_inurba_marseille","lat":43.23962,"lon":5.36632,"is_reserved":false,"is_disabled":false,"rental_uris":{"android":"levelo://app?vid=7cbcc02e-b174-46f4-99d0-100529c6ebfd","ios":"levelo://app?vid=7cbcc02e-b174-46f4-99d0-100529c6ebfd"},"vehicle_type_id":"4","last_reported":1731254918,"current_range_meters":20400,"station_id":"ce4bhi12rcd13ifvqfp0","pricing_plan_id":"cebpf4jnsgd1na2vs0mg"},{"bike_id":"474e489d-bede-4203-9096-15a440aad56a","system_id":"levelo_inurba_marseille","lat":43.29004,"lon":5.35606,"is_reserved":false,"is_disabled":false,"rental_uris":{"android":"levelo://app?vid=474e489d-bede-4203-9096-15a440aad56a","ios":"levelo://app?vid=474e489d-bede-4203-9096-15a440aad56a"},"vehicle_type_id":"4","last_reported":1731254918,"current_range_meters":11200,"station_id":"ce4bhb92rcd13ifvqen0","pricing_plan_id":"cebpf4jnsgd1na2vs0mg"},{"bike_id":"dbf8eb75-d060-4e1b-b763-a42b17a72f02","system_id":"levelo_inurba_marseille","lat":43.31818,"lon":5.42251,"is_reserved":false,"is_disabled":false,"rental_uris":{"android":"levelo://app?vid=dbf8eb75-d060-4e1b-b763-a42b17a72f02","ios":"levelo://app?vid=dbf8eb75-d060-4e1b-b763-a42b17a72f02"},"vehicle_type_id":"4","last_reported":1731254918,"current_range_meters":38800,"station_id":"","pricing_plan_id":"cebpf4jnsgd1na2vs0mg"},{"bike_id":"1353dd95-4748-4b20-96e8-fb06f5f9fc6b","system_id":"levelo_inurba_marseille","lat":43.24175,"lon":5.3973,"is_reserved":false,"is_disabled":false,"rental_uris":{"android":"levelo://app?vid=1353dd95-4748-4b20-96e8-fb06f5f9fc6b","ios":"levelo://app?vid=1353dd95-4748-4b20-96e8-fb06f5f9fc6b"},"vehicle_type_id":"4","last_reported":1731254918,"current_range_meters":8400,"station_id":"ce4bhn12rcd13ifvqgpg","pricing_plan_id":"cebpf4jnsgd1na2vs0mg"},{"bike_id":"02be6ac3-431a-4f68-a042-8089d72cc734","system_id":"levelo_inurba_marseille","lat":43.30541,"lon":5.36549,"is_reserved":false,"is_disabled":false,"rental_uris":{"android":"levelo://app?vid=02be6ac3-431a-4f68-a042-8089d72cc734","ios":"levelo://app?vid=02be6ac3-431a-4f68-a042-8089d72cc734"},"vehicle_type_id":"4","last_reported":1731254918,"current_range_meters":38800,"station_id":"ce4bgs12rcd13ifvqcag","pricing_plan_id":"cebpf4jnsgd1na2vs0mg"},{"bike_id":"ffd5753f-2c72-4326-80a5-57d6422dab85","system_id":"levelo_inurba_marseille","lat":43.25498,"lon":5.3766,"is_reserved":false,"is_disabled":false,"rental_uris":{"android":"levelo://app?vid=ffd5753f-2c72-4326-80a5-57d6422dab85","ios":"levelo://app?vid=ffd5753f-2c72-4326-80a5-57d6422dab85"},"vehicle_type_id":"4","last_reported":1731254918,"current_range_meters":26800,"station_id":"ce4bhh12rcd13ifvqff0","pricing_plan_id":"cebpf4jnsgd1na2vs0mg"},{"bike_id":"93f5fe26-be5c-4689-b784-a5db4418c28a","system_id":"levelo_inurba_marseille","lat":43.26681,"lon":5.38262,"is_reserved":false,"is_disabled":false,"rental_uris":{"android":"levelo://app?vid=93f5fe26-be5c-4689-b784-a5db4418c28a","ios":"levelo://app?vid=93f5fe26-be5c-4689-b784-a5db4418c28a"},"vehicle_type_id":"4","last_reported":1731254918,"current_range_meters":33600,"station_id":"ce4bhg92rcd13ifvqf90","pricing_plan_id":"cebpf4jnsgd1na2vs0mg"},{"bike_id":"8c47021d-28a3-496d-bbe7-f6edb160ac72","system_id":"levelo_inurba_marseille","lat":43.24804,"lon":5.37461,"is_reserved":false,"is_disabled":false,"rental_uris":{"android":"levelo://app?vid=8c47021d-28a3-496d-bbe7-f6edb160ac72","ios":"levelo://app?vid=8c47021d-28a3-496d-bbe7-f6edb160ac72"},"vehicle_type_id":"4","last_reported":1731254918,"current_range_meters":30800,"station_id":"ce4bhgh2rcd13ifvqfb0","pricing_plan_id":"cebpf4jnsgd1na2vs0mg"},{"bike_id":"56b4ae21-99c4-40d9-a084-76388098d1c6","system_id":"levelo_inurba_marseille","lat":43.24804,"lon":5.37457,"is_reserved":false,"is_disabled":false,"rental_uris":{"android":"levelo://app?vid=56b4ae21-99c4-40d9-a084-76388098d1c6","ios":"levelo://app?vid=56b4ae21-99c4-40d9-a084-76388098d1c6"},"vehicle_type_id":"4","last_reported":1731254918,"current_range_meters":38800,"station_id":"ce4bhgh2rcd13ifvqfb0","pricing_plan_id":"cebpf4jnsgd1na2vs0mg"},{"bike_id":"2fd65b1d-d21b-4e4b-94ec-3cba01ab71ab","system_id":"levelo_inurba_marseille","lat":43.24391,"lon":5.3707,"is_reserved":false,"is_disabled":false,"rental_uris":{"android":"levelo://app?vid=2fd65b1d-d21b-4e4b-94ec-3cba01ab71ab","ios":"levelo://app?vid=2fd65b1d-d21b-4e4b-94ec-3cba01ab71ab"},"vehicle_type_id":"4","last_reported":1731254918,"current_range_meters":27200,"station_id":"ce4bhhh2rcd13ifvqfk0","pricing_plan_id":"cebpf4jnsgd1na2vs0mg"},{"bike_id":"db2e6139-0551-4de2-8e50-fffa4eceeafd","system_id":"levelo_inurba_marseille","lat":43.29268,"lon":5.36843,"is_reserved":false,"is_disabled":false,"rental_uris":{"android":"levelo://app?vid=db2e6139-0551-4de2-8e50-fffa4eceeafd","ios":"levelo://app?vid=db2e6139-0551-4de2-8e50-fffa4eceeafd"},"vehicle_type_id":"4","last_reported":1731254918,"current_range_meters":28000,"station_id":"ce4bhbp2rcd13ifvqesg","pricing_plan_id":"cebpf4jnsgd1na2vs0mg"},{"bike_id":"52a71ef5-8ef7-4a13-9edb-b931936b8cfb","system_id":"levelo_inurba_marseille","lat":43.33721,"lon":5.39193,"is_reserved":false,"is_disabled":false,"rental_uris":{"android":"levelo://app?vid=52a71ef5-8ef7-4a13-9edb-b931936b8cfb","ios":"levelo://app?vid=52a71ef5-8ef7-4a13-9edb-b931936b8cfb"},"vehicle_type_id":"4","last_reported":1731254918,"current_range_meters":35600,"station_id":"ce4bhr92rcd13ifvqhsg","pricing_plan_id":"cebpf4jnsgd1na2vs0mg"},{"bike_id":"0a56441e-dcee-448a-8394-e5f3d4cdff02","system_id":"levelo_inurba_marseille","lat":43.29933,"lon":5.36547,"is_reserved":false,"is_disabled":false,"rental_uris":{"android":"levelo://app?vid=0a56441e-dcee-448a-8394-e5f3d4cdff02","ios":"levelo://app?vid=0a56441e-dcee-448a-8394-e5f3d4cdff02"},"vehicle_type_id":"4","last_reported":1731254918,"current_range_meters":27200,"station_id":"ce4bgm92rcd13ifvqbr0","pricing_plan_id":"cebpf4jnsgd1na2vs0mg"},{"bike_id":"6c55c68c-8072-4a7a-8968-0f76e76b364b","system_id":"levelo_inurba_marseille","lat":43.28425,"lon":5.3499,"is_reserved":false,"is_disabled":false,"rental_uris":{"android":"levelo://app?vid=6c55c68c-8072-4a7a-8968-0f76e76b364b","ios":"levelo://app?vid=6c55c68c-8072-4a7a-8968-0f76e76b364b"},"vehicle_type_id":"4","last_reported":1731254918,"current_range_meters":36800,"station_id":"ce4bhbh2rcd13ifvqepg","pricing_plan_id":"cebpf4jnsgd1na2vs0mg"},{"bike_id":"3ec3550b-0b0a-423a-846d-c6e23f763e6c","system_id":"levelo_inurba_marseille","lat":43.23061,"lon":5.35488,"is_reserved":false,"is_disabled":false,"rental_uris":{"android":"levelo://app?vid=3ec3550b-0b0a-423a-846d-c6e23f763e6c","ios":"levelo://app?vid=3ec3550b-0b0a-423a-846d-c6e23f763e6c"},"vehicle_type_id":"4","last_reported":1731254918,"current_range_meters":38800,"station_id":"cpo3342slgdg3j2ifvpg","pricing_plan_id":"cebpf4jnsgd1na2vs0mg"},{"bike_id":"c4580820-01d1-437a-b089-0b721d0f8150","system_id":"levelo_inurba_marseille","lat":43.31228,"lon":5.36869,"is_reserved":false,"is_disabled":false,"rental_uris":{"android":"levelo://app?vid=c4580820-01d1-437a-b089-0b721d0f8150","ios":"levelo://app?vid=c4580820-01d1-437a-b089-0b721d0f8150"},"vehicle_type_id":"4","last_reported":1731254918,"current_range_meters":38800,"station_id":"ce4bgl92rcd13ifvqbq0","pricing_plan_id":"cebpf4jnsgd1na2vs0mg"},{"bike_id":"b0ca4af2-a5d4-4df3-bbff-48880d0c5875","system_id":"levelo_inurba_marseille","lat":43.23062,"lon":5.35499,"is_reserved":false,"is_disabled":false,"rental_uris":{"android":"levelo://app?vid=b0ca4af2-a5d4-4df3-bbff-48880d0c5875","ios":"levelo://app?vid=b0ca4af2-a5d4-4df3-bbff-48880d0c5875"},"vehicle_type_id":"4","last_reported":1731254918,"current_range_meters":33200,"station_id":"cpo3342slgdg3j2ifvpg","pricing_plan_id":"cebpf4jnsgd1na2vs0mg"},{"bike_id":"1e7c44b2-e3c0-49b2-b9a4-cf7b088762ee","system_id":"levelo_inurba_marseille","lat":43.30421,"lon":5.41289,"is_reserved":false,"is_disabled":false,"rental_uris":{"android":"levelo://app?vid=1e7c44b2-e3c0-49b2-b9a4-cf7b088762ee","ios":"levelo://app?vid=1e7c44b2-e3c0-49b2-b9a4-cf7b088762ee"},"vehicle_type_id":"4","last_reported":1731254918,"current_range_meters":28000,"station_id":"ce4bhop2rcd13ifvqh8g","pricing_plan_id":"cebpf4jnsgd1na2vs0mg"},{"bike_id":"c2df35a0-6c8f-451f-9b2e-13bb8494fece","system_id":"levelo_inurba_marseille","lat":43.30184,"lon":5.36622,"is_reserved":false,"is_disabled":false,"rental_uris":{"android":"levelo://app?vid=c2df35a0-6c8f-451f-9b2e-13bb8494fece","ios":"levelo://app?vid=c2df35a0-6c8f-451f-9b2e-13bb8494fece"},"vehicle_type_id":"4","last_reported":1731254918,"current_range_meters":6400,"station_id":"ce4bgrh2rcd13ifvqc8g","pricing_plan_id":"cebpf4jnsgd1na2vs0mg"},{"bike_id":"8c69f012-300b-4821-a16c-983df7d1abef","system_id":"levelo_inurba_marseille","lat":43.23962,"lon":5.36629,"is_reserved":false,"is_disabled":false,"rental_uris":{"android":"levelo://app?vid=8c69f012-300b-4821-a16c-983df7d1abef","ios":"levelo://app?vid=8c69f012-300b-4821-a16c-983df7d1abef"},"vehicle_type_id":"4","last_reported":1731254918,"current_range_meters":8800,"station_id":"ce4bhi12rcd13ifvqfp0","pricing_plan_id":"cebpf4jnsgd1na2vs0mg"},{"bike_id":"cd2c9a58-8e0b-4603-8f62-2b080d63c0f7","system_id":"levelo_inurba_marseille","lat":43.26558,"lon":5.37282,"is_reserved":false,"is_disabled":false,"rental_uris":{"android":"levelo://app?vid=cd2c9a58-8e0b-4603-8f62-2b080d63c0f7","ios":"levelo://app?vid=cd2c9a58-8e0b-4603-8f62-2b080d63c0f7"},"vehicle_type_id":"4","last_reported":1731254918,"current_range_meters":7200,"station_id":"ce4bhg12rcd13ifvqf70","pricing_plan_id":"cebpf4jnsgd1na2vs0mg"},{"bike_id":"16edd5e5-0497-4831-bb6b-d18eb7e92293","system_id":"levelo_inurba_marseille","lat":43.24812,"lon":5.37457,"is_reserved":false,"is_disabled":false,"rental_uris":{"android":"levelo://app?vid=16edd5e5-0497-4831-bb6b-d18eb7e92293","ios":"levelo://app?vid=16edd5e5-0497-4831-bb6b-d18eb7e92293"},"vehicle_type_id":"4","last_reported":1731254918,"current_range_meters":28800,"station_id":"ce4bhgh2rcd13ifvqfb0","pricing_plan_id":"cebpf4jnsgd1na2vs0mg"},{"bike_id":"8993267e-c4d6-467e-81d5-120320751c89","system_id":"levelo_inurba_marseille","lat":43.23068,"lon":5.43764,"is_reserved":false,"is_disabled":false,"rental_uris":{"android":"levelo://app?vid=8993267e-c4d6-467e-81d5-120320751c89","ios":"levelo://app?vid=8993267e-c4d6-467e-81d5-120320751c89"},"vehicle_type_id":"4","last_reported":1731254918,"current_range_meters":20000,"station_id":"","pricing_plan_id":"cebpf4jnsgd1na2vs0mg"},{"bike_id":"3137f504-c340-4026-9855-d8abfc716841","system_id":"levelo_inurba_marseille","lat":43.23056,"lon":5.35502,"is_reserved":false,"is_disabled":false,"rental_uris":{"android":"levelo://app?vid=3137f504-c340-4026-9855-d8abfc716841","ios":"levelo://app?vid=3137f504-c340-4026-9855-d8abfc716841"},"vehicle_type_id":"4","last_reported":1731254918,"current_range_meters":38800,"station_id":"cpo3342slgdg3j2ifvpg","pricing_plan_id":"cebpf4jnsgd1na2vs0mg"},{"bike_id":"ab2d2dd5-192d-4f47-a2bf-6d439d008d60","system_id":"levelo_inurba_marseille","lat":43.32043,"lon":5.41582,"is_reserved":false,"is_disabled":false,"rental_uris":{"android":"levelo://app?vid=ab2d2dd5-192d-4f47-a2bf-6d439d008d60","ios":"levelo://app?vid=ab2d2dd5-192d-4f47-a2bf-6d439d008d60"},"vehicle_type_id":"4","last_reported":1731254918,"current_range_meters":22400,"station_id":"ce4bhq92rcd13ifvqhkg","pricing_plan_id":"cebpf4jnsgd1na2vs0mg"},{"bike_id":"15d05fad-9a33-488c-98ad-429329c9d607","system_id":"levelo_inurba_marseille","lat":43.3124,"lon":5.36867,"is_reserved":false,"is_disabled":false,"rental_uris":{"android":"levelo://app?vid=15d05fad-9a33-488c-98ad-429329c9d607","ios":"levelo://app?vid=15d05fad-9a33-488c-98ad-429329c9d607"},"vehicle_type_id":"4","last_reported":1731254918,"current_range_meters":11600,"station_id":"ce4bgl92rcd13ifvqbq0","pricing_plan_id":"cebpf4jnsgd1na2vs0mg"},{"bike_id":"19542129-42e3-4e99-a13f-c7ff0b8e329b","system_id":"levelo_inurba_marseille","lat":43.290193,"lon":5.35596,"is_reserved":false,"is_disabled":false,"rental_uris":{"android":"levelo://app?vid=19542129-42e3-4e99-a13f-c7ff0b8e329b","ios":"levelo://app?vid=19542129-42e3-4e99-a13f-c7ff0b8e329b"},"vehicle_type_id":"4","last_reported":1731254918,"current_range_meters":9600,"station_id":"ce4bhb92rcd13ifvqen0","pricing_plan_id":"cebpf4jnsgd1na2vs0mg"},{"bike_id":"d85c1fa8-82d4-4713-8bae-cd5d7a2d856d","system_id":"levelo_inurba_marseille","lat":43.28702,"lon":5.39985,"is_reserved":false,"is_disabled":false,"rental_uris":{"android":"levelo://app?vid=d85c1fa8-82d4-4713-8bae-cd5d7a2d856d","ios":"levelo://app?vid=d85c1fa8-82d4-4713-8bae-cd5d7a2d856d"},"vehicle_type_id":"4","last_reported":1731254918,"current_range_meters":17200,"station_id":"ce4bho92rcd13ifvqh3g","pricing_plan_id":"cebpf4jnsgd1na2vs0mg"},{"bike_id":"f2f71ab0-65f0-4a96-8baf-251abcfa9efb","system_id":"levelo_inurba_marseille","lat":43.27379,"lon":5.3625,"is_reserved":false,"is_disabled":false,"rental_uris":{"android":"levelo://app?vid=f2f71ab0-65f0-4a96-8baf-251abcfa9efb","ios":"levelo://app?vid=f2f71ab0-65f0-4a96-8baf-251abcfa9efb"},"vehicle_type_id":"4","last_reported":1731254918,"current_range_meters":38800,"station_id":"ce4bhbh2rcd13ifvqeo0","pricing_plan_id":"cebpf4jnsgd1na2vs0mg"},{"bike_id":"e834dec9-0a95-45eb-a5e4-69060aec7ece","system_id":"levelo_inurba_marseille","lat":43.28405,"lon":5.37516,"is_reserved":false,"is_disabled":false,"rental_uris":{"android":"levelo://app?vid=e834dec9-0a95-45eb-a5e4-69060aec7ece","ios":"levelo://app?vid=e834dec9-0a95-45eb-a5e4-69060aec7ece"},"vehicle_type_id":"4","last_reported":1731254918,"current_range_meters":34800,"station_id":"ce4bh412rcd13ifvqds0","pricing_plan_id":"cebpf4jnsgd1na2vs0mg"},{"bike_id":"164d0958-feee-4f1b-8da6-7277e52e5466","system_id":"levelo_inurba_marseille","lat":43.26502,"lon":5.39536,"is_reserved":false,"is_disabled":false,"rental_uris":{"android":"levelo://app?vid=164d0958-feee-4f1b-8da6-7277e52e5466","ios":"levelo://app?vid=164d0958-feee-4f1b-8da6-7277e52e5466"},"vehicle_type_id":"4","last_reported":1731254918,"current_range_meters":30400,"station_id":"ce4bhi12rcd13ifvqfq0","pricing_plan_id":"cebpf4jnsgd1na2vs0mg"},{"bike_id":"fcea6d26-a2ab-4852-83e5-e371b8797e3e","system_id":"levelo_inurba_marseille","lat":43.29301,"lon":5.37174,"is_reserved":false,"is_disabled":false,"rental_uris":{"android":"levelo://app?vid=fcea6d26-a2ab-4852-83e5-e371b8797e3e","ios":"levelo://app?vid=fcea6d26-a2ab-4852-83e5-e371b8797e3e"},"vehicle_type_id":"4","last_reported":1731254918,"current_range_meters":24000,"station_id":"ce4bgh92rcd13ifvqb40","pricing_plan_id":"cebpf4jnsgd1na2vs0mg"},{"bike_id":"92d10030-6bbf-4b13-8747-6eaf1d5803ed","system_id":"levelo_inurba_marseille","lat":43.24074,"lon":5.37741,"is_reserved":false,"is_disabled":false,"rental_uris":{"android":"levelo://app?vid=92d10030-6bbf-4b13-8747-6eaf1d5803ed","ios":"levelo://app?vid=92d10030-6bbf-4b13-8747-6eaf1d5803ed"},"vehicle_type_id":"4","last_reported":1731254918,"current_range_meters":19200,"station_id":"ce4bhnp2rcd13ifvqgvg","pricing_plan_id":"cebpf4jnsgd1na2vs0mg"},{"bike_id":"7bd6649a-7cc7-4156-a2d2-a537934e1c08","system_id":"levelo_inurba_marseille","lat":43.28427,"lon":5.34989,"is_reserved":false,"is_disabled":false,"rental_uris":{"android":"levelo://app?vid=7bd6649a-7cc7-4156-a2d2-a537934e1c08","ios":"levelo://app?vid=7bd6649a-7cc7-4156-a2d2-a537934e1c08"},"vehicle_type_id":"4","last_reported":1731254918,"current_range_meters":22800,"station_id":"ce4bhbh2rcd13ifvqepg","pricing_plan_id":"cebpf4jnsgd1na2vs0mg"},{"bike_id":"ca76ec10-55bc-42f8-836a-cecc2b249ec6","system_id":"levelo_inurba_marseille","lat":43.30924,"lon":5.40147,"is_reserved":false,"is_disabled":false,"rental_uris":{"android":"levelo://app?vid=ca76ec10-55bc-42f8-836a-cecc2b249ec6","ios":"levelo://app?vid=ca76ec10-55bc-42f8-836a-cecc2b249ec6"},"vehicle_type_id":"4","last_reported":1731254918,"current_range_meters":38800,"station_id":"ce4bgvp2rcd13ifvqct0","pricing_plan_id":"cebpf4jnsgd1na2vs0mg"},{"bike_id":"884af005-1c9c-438b-b950-9e7eb819ba2a","system_id":"levelo_inurba_marseille","lat":43.24166,"lon":5.36399,"is_reserved":false,"is_disabled":false,"rental_uris":{"android":"levelo://app?vid=884af005-1c9c-438b-b950-9e7eb819ba2a","ios":"levelo://app?vid=884af005-1c9c-438b-b950-9e7eb819ba2a"},"vehicle_type_id":"4","last_reported":1731254918,"current_range_meters":16800,"station_id":"cpo36qri1sfpv3e86is0","pricing_plan_id":"cebpf4jnsgd1na2vs0mg"},{"bike_id":"a09cbe4a-ea7f-4315-850c-aee37d8f9de7","system_id":"levelo_inurba_marseille","lat":43.30544,"lon":5.365629,"is_reserved":false,"is_disabled":false,"rental_uris":{"android":"levelo://app?vid=a09cbe4a-ea7f-4315-850c-aee37d8f9de7","ios":"levelo://app?vid=a09cbe4a-ea7f-4315-850c-aee37d8f9de7"},"vehicle_type_id":"4","last_reported":1731254918,"current_range_meters":18800,"station_id":"ce4bgs12rcd13ifvqcag","pricing_plan_id":"cebpf4jnsgd1na2vs0mg"},{"bike_id":"0acccacb-5c5e-4293-af73-a3ca4b76801a","system_id":"levelo_inurba_marseille","lat":43.27949,"lon":5.41052,"is_reserved":false,"is_disabled":false,"rental_uris":{"android":"levelo://app?vid=0acccacb-5c5e-4293-af73-a3ca4b76801a","ios":"levelo://app?vid=0acccacb-5c5e-4293-af73-a3ca4b76801a"},"vehicle_type_id":"4","last_reported":1731254918,"current_range_meters":12400,"station_id":"ce4bhnp2rcd13ifvqh0g","pricing_plan_id":"cebpf4jnsgd1na2vs0mg"},{"bike_id":"be0d3abb-a332-47bb-b8c5-a1eca0ec1cae","system_id":"levelo_inurba_marseille","lat":43.26804,"lon":5.4027,"is_reserved":false,"is_disabled":false,"rental_uris":{"android":"levelo://app?vid=be0d3abb-a332-47bb-b8c5-a1eca0ec1cae","ios":"levelo://app?vid=be0d3abb-a332-47bb-b8c5-a1eca0ec1cae"},"vehicle_type_id":"4","last_reported":1731254918,"current_range_meters":12800,"station_id":"ce501612rcd8frsf0b60","pricing_plan_id":"cebpf4jnsgd1na2vs0mg"},{"bike_id":"11721e6c-b5f3-419f-b4d2-29a6be1c2f42","system_id":"levelo_inurba_marseille","lat":43.30956,"lon":5.39029,"is_reserved":false,"is_disabled":false,"rental_uris":{"android":"levelo://app?vid=11721e6c-b5f3-419f-b4d2-29a6be1c2f42","ios":"levelo://app?vid=11721e6c-b5f3-419f-b4d2-29a6be1c2f42"},"vehicle_type_id":"4","last_reported":1731254918,"current_range_meters":18800,"station_id":"ce4bgup2rcd13ifvqco0","pricing_plan_id":"cebpf4jnsgd1na2vs0mg"},{"bike_id":"32cdd413-4cb5-4843-9eae-0f0e6432dedb","system_id":"levelo_inurba_marseille","lat":43.29894,"lon":5.43663,"is_reserved":false,"is_disabled":false,"rental_uris":{"android":"levelo://app?vid=32cdd413-4cb5-4843-9eae-0f0e6432dedb","ios":"levelo://app?vid=32cdd413-4cb5-4843-9eae-0f0e6432dedb"},"vehicle_type_id":"4","last_reported":1731254918,"current_range_meters":24000,"station_id":"ce4bhpp2rcd13ifvqhfg","pricing_plan_id":"cebpf4jnsgd1na2vs0mg"},{"bike_id":"739f406a-1133-4ca4-9a25-e084554f4c8d","system_id":"levelo_inurba_marseille","lat":43.27988,"lon":5.41668,"is_reserved":false,"is_disabled":false,"rental_uris":{"android":"levelo://app?vid=739f406a-1133-4ca4-9a25-e084554f4c8d","ios":"levelo://app?vid=739f406a-1133-4ca4-9a25-e084554f4c8d"},"vehicle_type_id":"4","last_reported":1731254918,"current_range_meters":17600,"station_id":"ce4bho12rcd13ifvqh1g","pricing_plan_id":"cebpf4jnsgd1na2vs0mg"},{"bike_id":"a347c9be-d588-4eb0-b9e9-73e02db827dd","system_id":"levelo_inurba_marseille","lat":43.2895,"lon":5.36476,"is_reserved":false,"is_disabled":false,"rental_uris":{"android":"levelo://app?vid=a347c9be-d588-4eb0-b9e9-73e02db827dd","ios":"levelo://app?vid=a347c9be-d588-4eb0-b9e9-73e02db827dd"},"vehicle_type_id":"4","last_reported":1731254918,"current_range_meters":33200,"station_id":"","pricing_plan_id":"cebpf4jnsgd1na2vs0mg"},{"bike_id":"088adb6f-0bc0-489a-8314-753815b98020","system_id":"levelo_inurba_marseille","lat":43.28432,"lon":5.35001,"is_reserved":false,"is_disabled":false,"rental_uris":{"android":"levelo://app?vid=088adb6f-0bc0-489a-8314-753815b98020","ios":"levelo://app?vid=088adb6f-0bc0-489a-8314-753815b98020"},"vehicle_type_id":"4","last_reported":1731254918,"current_range_meters":38800,"station_id":"ce4bhbh2rcd13ifvqepg","pricing_plan_id":"cebpf4jnsgd1na2vs0mg"},{"bike_id":"7e514a83-c0dd-47db-9deb-0c35bed0ce43","system_id":"levelo_inurba_marseille","lat":43.246395,"lon":5.388827,"is_reserved":false,"is_disabled":false,"rental_uris":{"android":"levelo://app?vid=7e514a83-c0dd-47db-9deb-0c35bed0ce43","ios":"levelo://app?vid=7e514a83-c0dd-47db-9deb-0c35bed0ce43"},"vehicle_type_id":"4","last_reported":1731254918,"current_range_meters":11200,"station_id":"","pricing_plan_id":"cebpf4jnsgd1na2vs0mg"},{"bike_id":"bd8c90e1-842d-4b29-aa20-5d027002179b","system_id":"levelo_inurba_marseille","lat":43.25508,"lon":5.37654,"is_reserved":false,"is_disabled":false,"rental_uris":{"android":"levelo://app?vid=bd8c90e1-842d-4b29-aa20-5d027002179b","ios":"levelo://app?vid=bd8c90e1-842d-4b29-aa20-5d027002179b"},"vehicle_type_id":"4","last_reported":1731254918,"current_range_meters":38800,"station_id":"ce4bhh12rcd13ifvqff0","pricing_plan_id":"cebpf4jnsgd1na2vs0mg"},{"bike_id":"08d01455-986a-49c3-a8fd-66486f2a0e02","system_id":"levelo_inurba_marseille","lat":43.25796,"lon":5.37642,"is_reserved":false,"is_disabled":false,"rental_uris":{"android":"levelo://app?vid=08d01455-986a-49c3-a8fd-66486f2a0e02","ios":"levelo://app?vid=08d01455-986a-49c3-a8fd-66486f2a0e02"},"vehicle_type_id":"4","last_reported":1731254918,"current_range_meters":27200,"station_id":"ce4bhh12rcd13ifvqff0","pricing_plan_id":"cebpf4jnsgd1na2vs0mg"},{"bike_id":"363ed598-deff-40dc-9a2f-b3a846ccbebb","system_id":"levelo_inurba_marseille","lat":43.273773,"lon":5.362663,"is_reserved":false,"is_disabled":false,"rental_uris":{"android":"levelo://app?vid=363ed598-deff-40dc-9a2f-b3a846ccbebb","ios":"levelo://app?vid=363ed598-deff-40dc-9a2f-b3a846ccbebb"},"vehicle_type_id":"4","last_reported":1731254918,"current_range_meters":38800,"station_id":"ce4bhbh2rcd13ifvqeo0","pricing_plan_id":"cebpf4jnsgd1na2vs0mg"},{"bike_id":"ae064493-3417-48da-a1c4-aa286db73079","system_id":"levelo_inurba_marseille","lat":43.23194,"lon":5.35555,"is_reserved":false,"is_disabled":false,"rental_uris":{"android":"levelo://app?vid=ae064493-3417-48da-a1c4-aa286db73079","ios":"levelo://app?vid=ae064493-3417-48da-a1c4-aa286db73079"},"vehicle_type_id":"4","last_reported":1731254918,"current_range_meters":38800,"station_id":"ce4bhu92rcd13ifvqi70","pricing_plan_id":"cebpf4jnsgd1na2vs0mg"},{"bike_id":"0407cb2d-14ca-4d18-ab0e-6f0e1d153c00","system_id":"levelo_inurba_marseille","lat":43.28267,"lon":5.35071,"is_reserved":false,"is_disabled":false,"rental_uris":{"android":"levelo://app?vid=0407cb2d-14ca-4d18-ab0e-6f0e1d153c00","ios":"levelo://app?vid=0407cb2d-14ca-4d18-ab0e-6f0e1d153c00"},"vehicle_type_id":"4","last_reported":1731254918,"current_range_meters":23200,"station_id":"ce4bhbp2rcd13ifvqerg","pricing_plan_id":"cebpf4jnsgd1na2vs0mg"},{"bike_id":"89fa5217-8be1-43fb-ae56-ee1bbed9a784","system_id":"levelo_inurba_marseille","lat":43.31324,"lon":5.397,"is_reserved":false,"is_disabled":false,"rental_uris":{"android":"levelo://app?vid=89fa5217-8be1-43fb-ae56-ee1bbed9a784","ios":"levelo://app?vid=89fa5217-8be1-43fb-ae56-ee1bbed9a784"},"vehicle_type_id":"4","last_reported":1731254918,"current_range_meters":38000,"station_id":"ce4bgvp2rcd13ifvqcu0","pricing_plan_id":"cebpf4jnsgd1na2vs0mg"},{"bike_id":"6302f316-2760-4cb3-9860-3056aa4ed76c","system_id":"levelo_inurba_marseille","lat":43.290283,"lon":5.386509,"is_reserved":false,"is_disabled":false,"rental_uris":{"android":"levelo://app?vid=6302f316-2760-4cb3-9860-3056aa4ed76c","ios":"levelo://app?vid=6302f316-2760-4cb3-9860-3056aa4ed76c"},"vehicle_type_id":"4","last_reported":1731254918,"current_range_meters":39200,"station_id":"ce4bh4p2rcd13ifvqe0g","pricing_plan_id":"cebpf4jnsgd1na2vs0mg"},{"bike_id":"47d698d4-39ed-4c01-8c9f-7dbfc2421a21","system_id":"levelo_inurba_marseille","lat":43.2474,"lon":5.37402,"is_reserved":false,"is_disabled":false,"rental_uris":{"android":"levelo://app?vid=47d698d4-39ed-4c01-8c9f-7dbfc2421a21","ios":"levelo://app?vid=47d698d4-39ed-4c01-8c9f-7dbfc2421a21"},"vehicle_type_id":"4","last_reported":1731254918,"current_range_meters":29600,"station_id":"","pricing_plan_id":"cebpf4jnsgd1na2vs0mg"},{"bike_id":"f8f2a122-0cf7-4645-ac23-e2f4b73a27b6","system_id":"levelo_inurba_marseille","lat":43.27942,"lon":5.41052,"is_reserved":false,"is_disabled":false,"rental_uris":{"android":"levelo://app?vid=f8f2a122-0cf7-4645-ac23-e2f4b73a27b6","ios":"levelo://app?vid=f8f2a122-0cf7-4645-ac23-e2f4b73a27b6"},"vehicle_type_id":"4","last_reported":1731254918,"current_range_meters":32400,"station_id":"ce4bhnp2rcd13ifvqh0g","pricing_plan_id":"cebpf4jnsgd1na2vs0mg"},{"bike_id":"f62c9599-8f94-4b77-a76c-d41630489314","system_id":"levelo_inurba_marseille","lat":43.31387,"lon":5.43214,"is_reserved":false,"is_disabled":false,"rental_uris":{"android":"levelo://app?vid=f62c9599-8f94-4b77-a76c-d41630489314","ios":"levelo://app?vid=f62c9599-8f94-4b77-a76c-d41630489314"},"vehicle_type_id":"4","last_reported":1731254918,"current_range_meters":14400,"station_id":"ce4bhp92rcd13ifvqhcg","pricing_plan_id":"cebpf4jnsgd1na2vs0mg"},{"bike_id":"bb44ed2a-abc6-4144-ac28-733cc22b0f8a","system_id":"levelo_inurba_marseille","lat":43.24393,"lon":5.37058,"is_reserved":false,"is_disabled":false,"rental_uris":{"android":"levelo://app?vid=bb44ed2a-abc6-4144-ac28-733cc22b0f8a","ios":"levelo://app?vid=bb44ed2a-abc6-4144-ac28-733cc22b0f8a"},"vehicle_type_id":"4","last_reported":1731254918,"current_range_meters":38400,"station_id":"ce4bhhh2rcd13ifvqfk0","pricing_plan_id":"cebpf4jnsgd1na2vs0mg"},{"bike_id":"049a5391-6120-4b2c-b602-da66ecfe049d","system_id":"levelo_inurba_marseille","lat":43.29005,"lon":5.35617,"is_reserved":false,"is_disabled":false,"rental_uris":{"android":"levelo://app?vid=049a5391-6120-4b2c-b602-da66ecfe049d","ios":"levelo://app?vid=049a5391-6120-4b2c-b602-da66ecfe049d"},"vehicle_type_id":"4","last_reported":1731254918,"current_range_meters":7200,"station_id":"ce4bhb92rcd13ifvqen0","pricing_plan_id":"cebpf4jnsgd1na2vs0mg"},{"bike_id":"2b88ec67-1964-44c9-9cdf-f471b1abba72","system_id":"levelo_inurba_marseille","lat":43.29042,"lon":5.35933,"is_reserved":false,"is_disabled":false,"rental_uris":{"android":"levelo://app?vid=2b88ec67-1964-44c9-9cdf-f471b1abba72","ios":"levelo://app?vid=2b88ec67-1964-44c9-9cdf-f471b1abba72"},"vehicle_type_id":"4","last_reported":1731254918,"current_range_meters":38800,"station_id":"ce4bha92rcd13ifvqeg0","pricing_plan_id":"cebpf4jnsgd1na2vs0mg"},{"bike_id":"da0a4462-cd71-4fb0-8846-83fd33c8a61d","system_id":"levelo_inurba_marseille","lat":43.28458,"lon":5.3591,"is_reserved":false,"is_disabled":false,"rental_uris":{"android":"levelo://app?vid=da0a4462-cd71-4fb0-8846-83fd33c8a61d","ios":"levelo://app?vid=da0a4462-cd71-4fb0-8846-83fd33c8a61d"},"vehicle_type_id":"4","last_reported":1731254918,"current_range_meters":3200,"station_id":"ce4bhah2rcd13ifvqei0","pricing_plan_id":"cebpf4jnsgd1na2vs0mg"},{"bike_id":"9525f2c5-5da7-42dd-938b-a3754e4f86ae","system_id":"levelo_inurba_marseille","lat":43.3064,"lon":5.40087,"is_reserved":false,"is_disabled":false,"rental_uris":{"android":"levelo://app?vid=9525f2c5-5da7-42dd-938b-a3754e4f86ae","ios":"levelo://app?vid=9525f2c5-5da7-42dd-938b-a3754e4f86ae"},"vehicle_type_id":"4","last_reported":1731254918,"current_range_meters":39200,"station_id":"ce4bh112rcd13ifvqda0","pricing_plan_id":"cebpf4jnsgd1na2vs0mg"},{"bike_id":"e0558fa8-d63e-4ffb-b659-c116d96b23a0","system_id":"levelo_inurba_marseille","lat":43.29584,"lon":5.36748,"is_reserved":false,"is_disabled":false,"rental_uris":{"android":"levelo://app?vid=e0558fa8-d63e-4ffb-b659-c116d96b23a0","ios":"levelo://app?vid=e0558fa8-d63e-4ffb-b659-c116d96b23a0"},"vehicle_type_id":"4","last_reported":1731254918,"current_range_meters":38800,"station_id":"ce4bgph2rcd13ifvqc2g","pricing_plan_id":"cebpf4jnsgd1na2vs0mg"},{"bike_id":"f17ad613-4c62-4cc4-be8d-8ea84a8a7b16","system_id":"levelo_inurba_marseille","lat":43.24385,"lon":5.37069,"is_reserved":false,"is_disabled":false,"rental_uris":{"android":"levelo://app?vid=f17ad613-4c62-4cc4-be8d-8ea84a8a7b16","ios":"levelo://app?vid=f17ad613-4c62-4cc4-be8d-8ea84a8a7b16"},"vehicle_type_id":"4","last_reported":1731254918,"current_range_meters":30800,"station_id":"ce4bhhh2rcd13ifvqfk0","pricing_plan_id":"cebpf4jnsgd1na2vs0mg"},{"bike_id":"89a57a28-29d9-433a-8c92-c1756cdb1f95","system_id":"levelo_inurba_marseille","lat":43.24076,"lon":5.37746,"is_reserved":false,"is_disabled":false,"rental_uris":{"android":"levelo://app?vid=89a57a28-29d9-433a-8c92-c1756cdb1f95","ios":"levelo://app?vid=89a57a28-29d9-433a-8c92-c1756cdb1f95"},"vehicle_type_id":"4","last_reported":1731254918,"current_range_meters":11200,"station_id":"ce4bhnp2rcd13ifvqgvg","pricing_plan_id":"cebpf4jnsgd1na2vs0mg"},{"bike_id":"4d392cec-ae20-4a0a-85f6-dbd5d0f59b3f","system_id":"levelo_inurba_marseille","lat":43.31718,"lon":5.42408,"is_reserved":false,"is_disabled":false,"rental_uris":{"android":"levelo://app?vid=4d392cec-ae20-4a0a-85f6-dbd5d0f59b3f","ios":"levelo://app?vid=4d392cec-ae20-4a0a-85f6-dbd5d0f59b3f"},"vehicle_type_id":"4","last_reported":1731254918,"current_range_meters":38800,"station_id":"ce4bhp92rcd13ifvqhbg","pricing_plan_id":"cebpf4jnsgd1na2vs0mg"},{"bike_id":"30b4c460-0032-4040-b03a-cd708154c7e4","system_id":"levelo_inurba_marseille","lat":43.27065,"lon":5.42283,"is_reserved":false,"is_disabled":false,"rental_uris":{"android":"levelo://app?vid=30b4c460-0032-4040-b03a-cd708154c7e4","ios":"levelo://app?vid=30b4c460-0032-4040-b03a-cd708154c7e4"},"vehicle_type_id":"4","last_reported":1731254918,"current_range_meters":38800,"station_id":"ce4bhk92rcd13ifvqgb0","pricing_plan_id":"cebpf4jnsgd1na2vs0mg"},{"bike_id":"a7eb5692-1f2b-48c6-af16-f2fe0b372124","system_id":"levelo_inurba_marseille","lat":43.33717,"lon":5.39188,"is_reserved":false,"is_disabled":false,"rental_uris":{"android":"levelo://app?vid=a7eb5692-1f2b-48c6-af16-f2fe0b372124","ios":"levelo://app?vid=a7eb5692-1f2b-48c6-af16-f2fe0b372124"},"vehicle_type_id":"4","last_reported":1731254918,"current_range_meters":10000,"station_id":"ce4bhr92rcd13ifvqhsg","pricing_plan_id":"cebpf4jnsgd1na2vs0mg"},{"bike_id":"4dc0e3bd-ab9c-461a-835f-d4784d7b8326","system_id":"levelo_inurba_marseille","lat":43.3133,"lon":5.42356,"is_reserved":false,"is_disabled":false,"rental_uris":{"android":"levelo://app?vid=4dc0e3bd-ab9c-461a-835f-d4784d7b8326","ios":"levelo://app?vid=4dc0e3bd-ab9c-461a-835f-d4784d7b8326"},"vehicle_type_id":"4","last_reported":1731254918,"current_range_meters":12400,"station_id":"ce4bhp92rcd13ifvqhcg","pricing_plan_id":"cebpf4jnsgd1na2vs0mg"},{"bike_id":"76b23abe-d4fa-4b4a-9ab9-b285bd2abab5","system_id":"levelo_inurba_marseille","lat":43.26205,"lon":5.37048,"is_reserved":false,"is_disabled":false,"rental_uris":{"android":"levelo://app?vid=76b23abe-d4fa-4b4a-9ab9-b285bd2abab5","ios":"levelo://app?vid=76b23abe-d4fa-4b4a-9ab9-b285bd2abab5"},"vehicle_type_id":"4","last_reported":1731254918,"current_range_meters":32800,"station_id":"","pricing_plan_id":"cebpf4jnsgd1na2vs0mg"},{"bike_id":"4f7d36d3-f0b6-4241-8add-da1ec0f708fa","system_id":"levelo_inurba_marseille","lat":43.31996,"lon":5.38169,"is_reserved":false,"is_disabled":false,"rental_uris":{"android":"levelo://app?vid=4f7d36d3-f0b6-4241-8add-da1ec0f708fa","ios":"levelo://app?vid=4f7d36d3-f0b6-4241-8add-da1ec0f708fa"},"vehicle_type_id":"4","last_reported":1731254918,"current_range_meters":27200,"station_id":"ce4bhr12rcd13ifvqhpg","pricing_plan_id":"cebpf4jnsgd1na2vs0mg"},{"bike_id":"59aeb255-4615-42a1-aa25-e1d2a81df452","system_id":"levelo_inurba_marseille","lat":43.30301,"lon":5.36875,"is_reserved":false,"is_disabled":false,"rental_uris":{"android":"levelo://app?vid=59aeb255-4615-42a1-aa25-e1d2a81df452","ios":"levelo://app?vid=59aeb255-4615-42a1-aa25-e1d2a81df452"},"vehicle_type_id":"4","last_reported":1731254918,"current_range_meters":4000,"station_id":"ce4bgqh2rcd13ifvqc5g","pricing_plan_id":"cebpf4jnsgd1na2vs0mg"},{"bike_id":"ea3b4043-c4e0-4442-9ef6-103ad80afb3d","system_id":"levelo_inurba_marseille","lat":43.24389,"lon":5.37059,"is_reserved":false,"is_disabled":false,"rental_uris":{"android":"levelo://app?vid=ea3b4043-c4e0-4442-9ef6-103ad80afb3d","ios":"levelo://app?vid=ea3b4043-c4e0-4442-9ef6-103ad80afb3d"},"vehicle_type_id":"4","last_reported":1731254918,"current_range_meters":14000,"station_id":"ce4bhhh2rcd13ifvqfk0","pricing_plan_id":"cebpf4jnsgd1na2vs0mg"},{"bike_id":"ada3df4f-4750-4776-b623-0bbb33c0ddc7","system_id":"levelo_inurba_marseille","lat":43.23187,"lon":5.35551,"is_reserved":false,"is_disabled":false,"rental_uris":{"android":"levelo://app?vid=ada3df4f-4750-4776-b623-0bbb33c0ddc7","ios":"levelo://app?vid=ada3df4f-4750-4776-b623-0bbb33c0ddc7"},"vehicle_type_id":"4","last_reported":1731254918,"current_range_meters":6400,"station_id":"ce4bhu92rcd13ifvqi70","pricing_plan_id":"cebpf4jnsgd1na2vs0mg"},{"bike_id":"2b92df52-f474-4b8c-84c5-3d6739cf76cd","system_id":"levelo_inurba_marseille","lat":43.31724,"lon":5.42399,"is_reserved":false,"is_disabled":false,"rental_uris":{"android":"levelo://app?vid=2b92df52-f474-4b8c-84c5-3d6739cf76cd","ios":"levelo://app?vid=2b92df52-f474-4b8c-84c5-3d6739cf76cd"},"vehicle_type_id":"4","last_reported":1731254918,"current_range_meters":37600,"station_id":"ce4bhp92rcd13ifvqhbg","pricing_plan_id":"cebpf4jnsgd1na2vs0mg"},{"bike_id":"525831b7-83d5-4477-8ac6-08c675b9a9d6","system_id":"levelo_inurba_marseille","lat":43.27109,"lon":5.40032,"is_reserved":false,"is_disabled":false,"rental_uris":{"android":"levelo://app?vid=525831b7-83d5-4477-8ac6-08c675b9a9d6","ios":"levelo://app?vid=525831b7-83d5-4477-8ac6-08c675b9a9d6"},"vehicle_type_id":"4","last_reported":1731254918,"current_range_meters":4400,"station_id":"ce4bhh92rcd13ifvqfj0","pricing_plan_id":"cebpf4jnsgd1na2vs0mg"},{"bike_id":"ee719609-4ba5-4b02-8a08-1944235b9910","system_id":"levelo_inurba_marseille","lat":43.3253,"lon":5.41441,"is_reserved":false,"is_disabled":false,"rental_uris":{"android":"levelo://app?vid=ee719609-4ba5-4b02-8a08-1944235b9910","ios":"levelo://app?vid=ee719609-4ba5-4b02-8a08-1944235b9910"},"vehicle_type_id":"4","last_reported":1731254918,"current_range_meters":34800,"station_id":"ce4bhq12rcd13ifvqhhg","pricing_plan_id":"cebpf4jnsgd1na2vs0mg"},{"bike_id":"8332f846-1305-413e-b1c9-a7058d37d094","system_id":"levelo_inurba_marseille","lat":43.24168,"lon":5.36402,"is_reserved":false,"is_disabled":false,"rental_uris":{"android":"levelo://app?vid=8332f846-1305-413e-b1c9-a7058d37d094","ios":"levelo://app?vid=8332f846-1305-413e-b1c9-a7058d37d094"},"vehicle_type_id":"4","last_reported":1731254918,"current_range_meters":22400,"station_id":"cpo36qri1sfpv3e86is0","pricing_plan_id":"cebpf4jnsgd1na2vs0mg"},{"bike_id":"0142e3d3-0d19-4adf-bd19-600a8e9bb9f5","system_id":"levelo_inurba_marseille","lat":43.28417,"lon":5.34984,"is_reserved":false,"is_disabled":false,"rental_uris":{"android":"levelo://app?vid=0142e3d3-0d19-4adf-bd19-600a8e9bb9f5","ios":"levelo://app?vid=0142e3d3-0d19-4adf-bd19-600a8e9bb9f5"},"vehicle_type_id":"4","last_reported":1731254918,"current_range_meters":36400,"station_id":"ce4bhbh2rcd13ifvqepg","pricing_plan_id":"cebpf4jnsgd1na2vs0mg"},{"bike_id":"b53e5ee7-2fae-4f15-a426-402512d052bc","system_id":"levelo_inurba_marseille","lat":43.23064,"lon":5.35496,"is_reserved":false,"is_disabled":false,"rental_uris":{"android":"levelo://app?vid=b53e5ee7-2fae-4f15-a426-402512d052bc","ios":"levelo://app?vid=b53e5ee7-2fae-4f15-a426-402512d052bc"},"vehicle_type_id":"4","last_reported":1731254918,"current_range_meters":38800,"station_id":"cpo3342slgdg3j2ifvpg","pricing_plan_id":"cebpf4jnsgd1na2vs0mg"},{"bike_id":"568abe56-585a-458a-ad29-57862d6604cb","system_id":"levelo_inurba_marseille","lat":43.28933,"lon":5.36644,"is_reserved":false,"is_disabled":false,"rental_uris":{"android":"levelo://app?vid=568abe56-585a-458a-ad29-57862d6604cb","ios":"levelo://app?vid=568abe56-585a-458a-ad29-57862d6604cb"},"vehicle_type_id":"4","last_reported":1731254918,"current_range_meters":8000,"station_id":"ce4bhap2rcd13ifvqek0","pricing_plan_id":"cebpf4jnsgd1na2vs0mg"},{"bike_id":"1a1fd8f6-671a-458a-bf13-506c7933daec","system_id":"levelo_inurba_marseille","lat":43.32661,"lon":5.40994,"is_reserved":false,"is_disabled":false,"rental_uris":{"android":"levelo://app?vid=1a1fd8f6-671a-458a-bf13-506c7933daec","ios":"levelo://app?vid=1a1fd8f6-671a-458a-bf13-506c7933daec"},"vehicle_type_id":"4","last_reported":1731254918,"current_range_meters":14800,"station_id":"ce4bhpp2rcd13ifvqhgg","pricing_plan_id":"cebpf4jnsgd1na2vs0mg"},{"bike_id":"67ca06fa-3ea4-4ea4-9b62-620f71b6e0d4","system_id":"levelo_inurba_marseille","lat":43.26681,"lon":5.38272,"is_reserved":false,"is_disabled":false,"rental_uris":{"android":"levelo://app?vid=67ca06fa-3ea4-4ea4-9b62-620f71b6e0d4","ios":"levelo://app?vid=67ca06fa-3ea4-4ea4-9b62-620f71b6e0d4"},"vehicle_type_id":"4","last_reported":1731254918,"current_range_meters":28800,"station_id":"ce4bhg92rcd13ifvqf90","pricing_plan_id":"cebpf4jnsgd1na2vs0mg"},{"bike_id":"64ebd6a5-9bc6-472f-ab4a-4f4a033339b9","system_id":"levelo_inurba_marseille","lat":43.29551,"lon":5.42282,"is_reserved":false,"is_disabled":false,"rental_uris":{"android":"levelo://app?vid=64ebd6a5-9bc6-472f-ab4a-4f4a033339b9","ios":"levelo://app?vid=64ebd6a5-9bc6-472f-ab4a-4f4a033339b9"},"vehicle_type_id":"4","last_reported":1731254918,"current_range_meters":36800,"station_id":"ce4bhph2rcd13ifvqhdg","pricing_plan_id":"cebpf4jnsgd1na2vs0mg"},{"bike_id":"d0ee452d-2a49-429d-8fb8-f955f84f08f9","system_id":"levelo_inurba_marseille","lat":43.32342,"lon":5.40638,"is_reserved":false,"is_disabled":false,"rental_uris":{"android":"levelo://app?vid=d0ee452d-2a49-429d-8fb8-f955f84f08f9","ios":"levelo://app?vid=d0ee452d-2a49-429d-8fb8-f955f84f08f9"},"vehicle_type_id":"4","last_reported":1731254918,"current_range_meters":33200,"station_id":"ce4bhq92rcd13ifvqhjg","pricing_plan_id":"cebpf4jnsgd1na2vs0mg"},{"bike_id":"5c4573d0-edc8-410f-8be5-a7455448d98f","system_id":"levelo_inurba_marseille","lat":43.28405,"lon":5.34987,"is_reserved":false,"is_disabled":false,"rental_uris":{"android":"levelo://app?vid=5c4573d0-edc8-410f-8be5-a7455448d98f","ios":"levelo://app?vid=5c4573d0-edc8-410f-8be5-a7455448d98f"},"vehicle_type_id":"4","last_reported":1731254918,"current_range_meters":36000,"station_id":"ce4bhbh2rcd13ifvqepg","pricing_plan_id":"cebpf4jnsgd1na2vs0mg"},{"bike_id":"d979c5f5-b58c-48e8-b829-73a981bfdfe4","system_id":"levelo_inurba_marseille","lat":43.2927,"lon":5.38431,"is_reserved":false,"is_disabled":false,"rental_uris":{"android":"levelo://app?vid=d979c5f5-b58c-48e8-b829-73a981bfdfe4","ios":"levelo://app?vid=d979c5f5-b58c-48e8-b829-73a981bfdfe4"},"vehicle_type_id":"4","last_reported":1731254918,"current_range_meters":37600,"station_id":"ce4bh692rcd13ifvqea0","pricing_plan_id":"cebpf4jnsgd1na2vs0mg"},{"bike_id":"3a341db7-e5a7-454a-89f5-e5cedc9113a8","system_id":"levelo_inurba_marseille","lat":43.31993,"lon":5.38158,"is_reserved":false,"is_disabled":false,"rental_uris":{"android":"levelo://app?vid=3a341db7-e5a7-454a-89f5-e5cedc9113a8","ios":"levelo://app?vid=3a341db7-e5a7-454a-89f5-e5cedc9113a8"},"vehicle_type_id":"4","last_reported":1731254918,"current_range_meters":36800,"station_id":"ce4bhr12rcd13ifvqhpg","pricing_plan_id":"cebpf4jnsgd1na2vs0mg"},{"bike_id":"2af209d3-e825-48c2-a779-99e4383fe60a","system_id":"levelo_inurba_marseille","lat":43.3054,"lon":5.36701,"is_reserved":false,"is_disabled":false,"rental_uris":{"android":"levelo://app?vid=2af209d3-e825-48c2-a779-99e4383fe60a","ios":"levelo://app?vid=2af209d3-e825-48c2-a779-99e4383fe60a"},"vehicle_type_id":"4","last_reported":1731254918,"current_range_meters":1600,"station_id":"ce4bgrp2rcd13ifvqc9g","pricing_plan_id":"cebpf4jnsgd1na2vs0mg"},{"bike_id":"6687d8c1-ef04-47df-a56c-94a25c0e90f0","system_id":"levelo_inurba_marseille","lat":43.24165,"lon":5.36398,"is_reserved":false,"is_disabled":false,"rental_uris":{"android":"levelo://app?vid=6687d8c1-ef04-47df-a56c-94a25c0e90f0","ios":"levelo://app?vid=6687d8c1-ef04-47df-a56c-94a25c0e90f0"},"vehicle_type_id":"4","last_reported":1731254918,"current_range_meters":9600,"station_id":"cpo36qri1sfpv3e86is0","pricing_plan_id":"cebpf4jnsgd1na2vs0mg"},{"bike_id":"9f357a3b-8a59-4690-a09e-cdfcfff17d6c","system_id":"levelo_inurba_marseille","lat":43.27385,"lon":5.36255,"is_reserved":false,"is_disabled":false,"rental_uris":{"android":"levelo://app?vid=9f357a3b-8a59-4690-a09e-cdfcfff17d6c","ios":"levelo://app?vid=9f357a3b-8a59-4690-a09e-cdfcfff17d6c"},"vehicle_type_id":"4","last_reported":1731254918,"current_range_meters":35600,"station_id":"ce4bhbh2rcd13ifvqeo0","pricing_plan_id":"cebpf4jnsgd1na2vs0mg"},{"bike_id":"773d845a-9431-40a9-a346-95038739b003","system_id":"levelo_inurba_marseille","lat":43.303071,"lon":5.368901,"is_reserved":false,"is_disabled":false,"rental_uris":{"android":"levelo://app?vid=773d845a-9431-40a9-a346-95038739b003","ios":"levelo://app?vid=773d845a-9431-40a9-a346-95038739b003"},"vehicle_type_id":"4","last_reported":1731254918,"current_range_meters":38400,"station_id":"ce4bgqh2rcd13ifvqc5g","pricing_plan_id":"cebpf4jnsgd1na2vs0mg"},{"bike_id":"9ed6a908-e56b-4740-8783-17a8c4e0b56c","system_id":"levelo_inurba_marseille","lat":43.23195,"lon":5.35557,"is_reserved":false,"is_disabled":false,"rental_uris":{"android":"levelo://app?vid=9ed6a908-e56b-4740-8783-17a8c4e0b56c","ios":"levelo://app?vid=9ed6a908-e56b-4740-8783-17a8c4e0b56c"},"vehicle_type_id":"4","last_reported":1731254918,"current_range_meters":24000,"station_id":"ce4bhu92rcd13ifvqi70","pricing_plan_id":"cebpf4jnsgd1na2vs0mg"},{"bike_id":"a649fe9a-6210-44a1-999f-abafedadc2c3","system_id":"levelo_inurba_marseille","lat":43.25926,"lon":5.40916,"is_reserved":false,"is_disabled":false,"rental_uris":{"android":"levelo://app?vid=a649fe9a-6210-44a1-999f-abafedadc2c3","ios":"levelo://app?vid=a649fe9a-6210-44a1-999f-abafedadc2c3"},"vehicle_type_id":"4","last_reported":1731254918,"current_range_meters":18800,"station_id":"ce4bhm92rcd13ifvqglg","pricing_plan_id":"cebpf4jnsgd1na2vs0mg"},{"bike_id":"327fccf5-46ee-4138-ba0b-6f7a7c6374c0","system_id":"levelo_inurba_marseille","lat":43.22885,"lon":5.36509,"is_reserved":false,"is_disabled":false,"rental_uris":{"android":"levelo://app?vid=327fccf5-46ee-4138-ba0b-6f7a7c6374c0","ios":"levelo://app?vid=327fccf5-46ee-4138-ba0b-6f7a7c6374c0"},"vehicle_type_id":"4","last_reported":1731254918,"current_range_meters":14000,"station_id":"","pricing_plan_id":"cebpf4jnsgd1na2vs0mg"},{"bike_id":"1aad8efe-7673-4ca8-b3a2-1f9ffc38be92","system_id":"levelo_inurba_marseille","lat":43.28459,"lon":5.35886,"is_reserved":false,"is_disabled":false,"rental_uris":{"android":"levelo://app?vid=1aad8efe-7673-4ca8-b3a2-1f9ffc38be92","ios":"levelo://app?vid=1aad8efe-7673-4ca8-b3a2-1f9ffc38be92"},"vehicle_type_id":"4","last_reported":1731254918,"current_range_meters":22800,"station_id":"ce4bhah2rcd13ifvqei0","pricing_plan_id":"cebpf4jnsgd1na2vs0mg"},{"bike_id":"718a0ae4-f430-4b5d-b77f-bb6a01603213","system_id":"levelo_inurba_marseille","lat":43.27382,"lon":5.36253,"is_reserved":false,"is_disabled":false,"rental_uris":{"android":"levelo://app?vid=718a0ae4-f430-4b5d-b77f-bb6a01603213","ios":"levelo://app?vid=718a0ae4-f430-4b5d-b77f-bb6a01603213"},"vehicle_type_id":"4","last_reported":1731254918,"current_range_meters":36800,"station_id":"ce4bhbh2rcd13ifvqeo0","pricing_plan_id":"cebpf4jnsgd1na2vs0mg"},{"bike_id":"65cd2430-be0d-496c-b026-9170c0fdf2ab","system_id":"levelo_inurba_marseille","lat":43.30954,"lon":5.3904,"is_reserved":false,"is_disabled":false,"rental_uris":{"android":"levelo://app?vid=65cd2430-be0d-496c-b026-9170c0fdf2ab","ios":"levelo://app?vid=65cd2430-be0d-496c-b026-9170c0fdf2ab"},"vehicle_type_id":"4","last_reported":1731254918,"current_range_meters":6400,"station_id":"ce4bgup2rcd13ifvqco0","pricing_plan_id":"cebpf4jnsgd1na2vs0mg"},{"bike_id":"82fe20b7-0e87-40a9-afc5-3c40884c58a7","system_id":"levelo_inurba_marseille","lat":43.29555,"lon":5.42288,"is_reserved":false,"is_disabled":false,"rental_uris":{"android":"levelo://app?vid=82fe20b7-0e87-40a9-afc5-3c40884c58a7","ios":"levelo://app?vid=82fe20b7-0e87-40a9-afc5-3c40884c58a7"},"vehicle_type_id":"4","last_reported":1731254918,"current_range_meters":7200,"station_id":"ce4bhph2rcd13ifvqhdg","pricing_plan_id":"cebpf4jnsgd1na2vs0mg"},{"bike_id":"eac429de-1e42-4d42-a8d2-b851cc94a9bb","system_id":"levelo_inurba_marseille","lat":43.26066,"lon":5.39391,"is_reserved":false,"is_disabled":false,"rental_uris":{"android":"levelo://app?vid=eac429de-1e42-4d42-a8d2-b851cc94a9bb","ios":"levelo://app?vid=eac429de-1e42-4d42-a8d2-b851cc94a9bb"},"vehicle_type_id":"4","last_reported":1731254918,"current_range_meters":38000,"station_id":"ce4bhh92rcd13ifvqfj0","pricing_plan_id":"cebpf4jnsgd1na2vs0mg"},