{"last_updated":1691816743,"ttl":30,"version":"2.2","data":{"bikes":[{"bike_id":"cdaeb803-c721-437f-8d14-3400c84b0f60","system_id":"levelo_inurba_marseille","lat":43.313391,"lon":5.36706,"is_reserved":false,"is_disabled":false,"rental_uris":{"android":"levelo://app?vid=cdaeb803-c721-437f-8d14-3400c84b0f60","ios":"levelo://app?vid=cdaeb803-c721-437f-8d14-3400c84b0f60"},"vehicle_type_id":"4","last_reported":1691816744,"current_range_meters":31200,"station_id":"ce4bgr92rcd13ifvqc6g","pricing_plan_id":"free"},{"bike_id":"d898e988-1d6b-4d5b-877d-387a2ce96b83","system_id":"levelo_inurba_marseille","lat":43.313391,"lon":5.36706,"is_reserved":false,"is_disabled":false,"rental_uris":{"android":"levelo://app?vid=d898e988-1d6b-4d5b-877d-387a2ce96b83","ios":"levelo://app?vid=d898e988-1d6b-4d5b-877d-387a2ce96b83"},"vehicle_type_id":"4","last_reported":1691816744,"current_range_meters":29600,"station_id":"ce4bgr92rcd13ifvqc6g","pricing_plan_id":"free"},{"bike_id":"8b55ef8d-5f88-405c-973c-45d7658d3378","system_id":"levelo_inurba_marseille","lat":43.313391,"lon":5.36706,"is_reserved":false,"is_disabled":false,"rental_uris":{"android":"levelo://app?vid=8b55ef8d-5f88-405c-973c-45d7658d3378","ios":"levelo://app?vid=8b55ef8d-5f88-405c-973c-45d7658d3378"},"vehicle_type_id":"4","last_reported":1691816744,"current_range_meters":30800,"station_id":"ce4bgr92rcd13ifvqc6g","pricing_plan_id":"free"},{"bike_id":"19b07431-7771-4987-a99c-0e0ed1efd452","system_id":"levelo_inurba_marseille","lat":43.31341,"lon":5.367098,"is_reserved":false,"is_disabled":false,"rental_uris":{"android":"levelo://app?vid=19b07431-7771-4987-a99c-0e0ed1efd452","ios":"levelo://app?vid=19b07431-7771-4987-a99c-0e0ed1efd452"},"vehicle_type_id":"4","last_reported":1691816744,"current_range_meters":31200,"station_id":"ce4bgr92rcd13ifvqc6g","pricing_plan_id":"free"},{"bike_id":"3cf354f1-3639-4758-b9dc-fa20ba7bc866","system_id":"levelo_inurba_marseille","lat":43.313391,"lon":5.36706,"is_reserved":false,"is_disabled":false,"rental_uris":{"android":"levelo://app?vid=3cf354f1-3639-4758-b9dc-fa20ba7bc866","ios":"levelo://app?vid=3cf354f1-3639-4758-b9dc-fa20ba7bc866"},"vehicle_type_id":"4","last_reported":1691816744,"current_range_meters":30400,"station_id":"ce4bgr92rcd13ifvqc6g","pricing_plan_id":"free"},{"bike_id":"d9716b7b-2ec1-4b85-bf54-bbcd7d8d8f40","system_id":"levelo_inurba_marseille","lat":43.31341,"lon":5.367098,"is_reserved":false,"is_disabled":false,"rental_uris":{"android":"levelo://app?vid=d9716b7b-2ec1-4b85-bf54-bbcd7d8d8f40","ios":"levelo://app?vid=d9716b7b-2ec1-4b85-bf54-bbcd7d8d8f40"},"vehicle_type_id":"4","last_reported":1691816744,"current_range_meters":30400,"station_id":"ce4bgr92rcd13ifvqc6g","pricing_plan_id":"free"},{"bike_id":"847c1ab4-0d92-4551-99d2-058f8351b558","system_id":"levelo_inurba_marseille","lat":43.31341,"lon":5.367098,"is_reserved":false,"is_disabled":false,"rental_uris":{"android":"levelo://app?vid=847c1ab4-0d92-4551-99d2-058f8351b558","ios":"levelo://app?vid=847c1ab4-0d92-4551-99d2-058f8351b558"},"vehicle_type_id":"4","last_reported":1691816744,"current_range_meters":28000,"station_id":"ce4bgr92rcd13ifvqc6g","pricing_plan_id":"free"},{"bike_id":"389f5678-93f9-409b-9fe4-c09909b29f43","system_id":"levelo_inurba_marseille","lat":43.312239,"lon":5.368562,"is_reserved":false,"is_disabled":false,"rental_uris":{"android":"levelo://app?vid=389f5678-93f9-409b-9fe4-c09909b29f43","ios":"levelo://app?vid=389f5678-93f9-409b-9fe4-c09909b29f43"},"vehicle_type_id":"4","last_reported":1691816744,"current_range_meters":30000,"station_id":"ce4bgl92rcd13ifvqbq0","pricing_plan_id":"free"},{"bike_id":"ee233c9a-f52d-4406-abcb-bbe8f01ed928","system_id":"levelo_inurba_marseille","lat":43.312239,"lon":5.368562,"is_reserved":false,"is_disabled":false,"rental_uris":{"android":"levelo://app?vid=ee233c9a-f52d-4406-abcb-bbe8f01ed928","ios":"levelo://app?vid=ee233c9a-f52d-4406-abcb-bbe8f01ed928"},"vehicle_type_id":"4","last_reported":1691816744,"current_range_meters":26800,"station_id":"ce4bgl92rcd13ifvqbq0","pricing_plan_id":"free"},{"bike_id":"fc53fd5d-f8a2-4655-8786-a2e6d18806f5","system_id":"levelo_inurba_marseille","lat":43.309076,"lon":5.368465,"is_reserved":false,"is_disabled":false,"rental_uris":{"android":"levelo://app?vid=fc53fd5d-f8a2-4655-8786-a2e6d18806f5","ios":"levelo://app?vid=fc53fd5d-f8a2-4655-8786-a2e6d18806f5"},"vehicle_type_id":"4","last_reported":1691816744,"current_range_meters":30400,"station_id":"ce4bgn92rcd13ifvqbvg","pricing_plan_id":"free"},{"bike_id":"1c5d8fba-cebe-4ffd-a87b-1361d8f778ee","system_id":"levelo_inurba_marseille","lat":43.314811,"lon":5.373103,"is_reserved":false,"is_disabled":false,"rental_uris":{"android":"levelo://app?vid=1c5d8fba-cebe-4ffd-a87b-1361d8f778ee","ios":"levelo://app?vid=1c5d8fba-cebe-4ffd-a87b-1361d8f778ee"},"vehicle_type_id":"4","last_reported":1691816744,"current_range_meters":31200,"station_id":"ce4bgt12rcd13ifvqcd0","pricing_plan_id":"free"},{"bike_id":"8717cbe5-1ab3-4d71-b4da-5e4b9f08ee92","system_id":"levelo_inurba_marseille","lat":43.314811,"lon":5.373104,"is_reserved":false,"is_disabled":false,"rental_uris":{"android":"levelo://app?vid=8717cbe5-1ab3-4d71-b4da-5e4b9f08ee92","ios":"levelo://app?vid=8717cbe5-1ab3-4d71-b4da-5e4b9f08ee92"},"vehicle_type_id":"4","last_reported":1691816744,"current_range_meters":31200,"station_id":"ce4bgt12rcd13ifvqcd0","pricing_plan_id":"free"},{"bike_id":"6fdab106-446a-4718-b87b-34bd95825ac2","system_id":"levelo_inurba_marseille","lat":43.314811,"lon":5.373103,"is_reserved":false,"is_disabled":false,"rental_uris":{"android":"levelo://app?vid=6fdab106-446a-4718-b87b-34bd95825ac2","ios":"levelo://app?vid=6fdab106-446a-4718-b87b-34bd95825ac2"},"vehicle_type_id":"4","last_reported":1691816744,"current_range_meters":26400,"station_id":"ce4bgt12rcd13ifvqcd0","pricing_plan_id":"free"},{"bike_id":"657b9e7b-217d-44db-b09d-edd41eb72c1d","system_id":"levelo_inurba_marseille","lat":43.309039,"lon":5.371797,"is_reserved":false,"is_disabled":false,"rental_uris":{"android":"levelo://app?vid=657b9e7b-217d-44db-b09d-edd41eb72c1d","ios":"levelo://app?vid=657b9e7b-217d-44db-b09d-edd41eb72c1d"},"vehicle_type_id":"4","last_reported":1691816744,"current_range_meters":0,"station_id":"ce4bguh2rcd13ifvqckg","pricing_plan_id":"free"},{"bike_id":"fdbfa17d-e312-40d3-b114-01e4d30ff361","system_id":"levelo_inurba_marseille","lat":43.30548,"lon":5.3671,"is_reserved":false,"is_disabled":false,"rental_uris":{"android":"levelo://app?vid=fdbfa17d-e312-40d3-b114-01e4d30ff361","ios":"levelo://app?vid=fdbfa17d-e312-40d3-b114-01e4d30ff361"},"vehicle_type_id":"4","last_reported":1691816744,"current_range_meters":20000,"station_id":"ce4bgrp2rcd13ifvqc9g","pricing_plan_id":"free"},{"bike_id":"c861be8f-1cae-4af1-8f77-ce99af8b7c3f","system_id":"levelo_inurba_marseille","lat":43.30545,"lon":5.36707,"is_reserved":false,"is_disabled":false,"rental_uris":{"android":"levelo://app?vid=c861be8f-1cae-4af1-8f77-ce99af8b7c3f","ios":"levelo://app?vid=c861be8f-1cae-4af1-8f77-ce99af8b7c3f"},"vehicle_type_id":"4","last_reported":1691816744,"current_range_meters":31200,"station_id":"ce4bgrp2rcd13ifvqc9g","pricing_plan_id":"free"},{"bike_id":"d713bc84-0106-4b73-997c-35219c5b3dd5","system_id":"levelo_inurba_marseille","lat":43.30542,"lon":5.36704,"is_reserved":false,"is_disabled":false,"rental_uris":{"android":"levelo://app?vid=d713bc84-0106-4b73-997c-35219c5b3dd5","ios":"levelo://app?vid=d713bc84-0106-4b73-997c-35219c5b3dd5"},"vehicle_type_id":"4","last_reported":1691816744,"current_range_meters":31200,"station_id":"ce4bgrp2rcd13ifvqc9g","pricing_plan_id":"free"},{"bike_id":"aa49332a-94ab-4fc1-a216-13af4d9c3034","system_id":"levelo_inurba_marseille","lat":43.305714,"lon":5.365633,"is_reserved":false,"is_disabled":false,"rental_uris":{"android":"levelo://app?vid=aa49332a-94ab-4fc1-a216-13af4d9c3034","ios":"levelo://app?vid=aa49332a-94ab-4fc1-a216-13af4d9c3034"},"vehicle_type_id":"4","last_reported":1691816744,"current_range_meters":30000,"station_id":"ce4bgs12rcd13ifvqcag","pricing_plan_id":"free"},{"bike_id":"56d03479-89a5-4c0f-8156-b1aaa2d5f286","system_id":"levelo_inurba_marseille","lat":43.305706,"lon":5.365654,"is_reserved":false,"is_disabled":false,"rental_uris":{"android":"levelo://app?vid=56d03479-89a5-4c0f-8156-b1aaa2d5f286","ios":"levelo://app?vid=56d03479-89a5-4c0f-8156-b1aaa2d5f286"},"vehicle_type_id":"4","last_reported":1691816744,"current_range_meters":14000,"station_id":"ce4bgs12rcd13ifvqcag","pricing_plan_id":"free"},{"bike_id":"bf19707d-7d5b-483e-9e21-4c5d68c17834","system_id":"levelo_inurba_marseille","lat":43.305706,"lon":5.365654,"is_reserved":false,"is_disabled":false,"rental_uris":{"android":"levelo://app?vid=bf19707d-7d5b-483e-9e21-4c5d68c17834","ios":"levelo://app?vid=bf19707d-7d5b-483e-9e21-4c5d68c17834"},"vehicle_type_id":"4","last_reported":1691816744,"current_range_meters":31200,"station_id":"ce4bgs12rcd13ifvqcag","pricing_plan_id":"free"},{"bike_id":"0efab063-7a34-4d4f-aace-949d4992ded7","system_id":"levelo_inurba_marseille","lat":43.305706,"lon":5.365654,"is_reserved":false,"is_disabled":false,"rental_uris":{"android":"levelo://app?vid=0efab063-7a34-4d4f-aace-949d4992ded7","ios":"levelo://app?vid=0efab063-7a34-4d4f-aace-949d4992ded7"},"vehicle_type_id":"4","last_reported":1691816744,"current_range_meters":11600,"station_id":"ce4bgs12rcd13ifvqcag","pricing_plan_id":"free"},{"bike_id":"9b5cb701-63f8-494b-a22b-d6340e31f74d","system_id":"levelo_inurba_marseille","lat":43.305989,"lon":5.37225,"is_reserved":false,"is_disabled":false,"rental_uris":{"android":"levelo://app?vid=9b5cb701-63f8-494b-a22b-d6340e31f74d","ios":"levelo://app?vid=9b5cb701-63f8-494b-a22b-d6340e31f74d"},"vehicle_type_id":"4","last_reported":1691816744,"current_range_meters":16000,"station_id":"ce4bgqh2rcd13ifvqc4g","pricing_plan_id":"free"},{"bike_id":"5b65938b-f4f9-478b-aafc-2e25630904b1","system_id":"levelo_inurba_marseille","lat":43.305989,"lon":5.37225,"is_reserved":false,"is_disabled":false,"rental_uris":{"android":"levelo://app?vid=5b65938b-f4f9-478b-aafc-2e25630904b1","ios":"levelo://app?vid=5b65938b-f4f9-478b-aafc-2e25630904b1"},"vehicle_type_id":"4","last_reported":1691816744,"current_range_meters":17600,"station_id":"ce4bgqh2rcd13ifvqc4g","pricing_plan_id":"free"},{"bike_id":"9bf0a2b5-030b-4dfc-8a36-59c6a247cc0d","system_id":"levelo_inurba_marseille","lat":43.305989,"lon":5.37225,"is_reserved":false,"is_disabled":false,"rental_uris":{"android":"levelo://app?vid=9bf0a2b5-030b-4dfc-8a36-59c6a247cc0d","ios":"levelo://app?vid=9bf0a2b5-030b-4dfc-8a36-59c6a247cc0d"},"vehicle_type_id":"4","last_reported":1691816744,"current_range_meters":16000,"station_id":"ce4bgqh2rcd13ifvqc4g","pricing_plan_id":"free"},{"bike_id":"07524153-e7f0-4563-9b46-a1a99c015f06","system_id":"levelo_inurba_marseille","lat":43.311131,"lon":5.377651,"is_reserved":false,"is_disabled":false,"rental_uris":{"android":"levelo://app?vid=07524153-e7f0-4563-9b46-a1a99c015f06","ios":"levelo://app?vid=07524153-e7f0-4563-9b46-a1a99c015f06"},"vehicle_type_id":"4","last_reported":1691816744,"current_range_meters":29200,"station_id":"ce4bgt92rcd13ifvqcg0","pricing_plan_id":"free"},{"bike_id":"a1ed1fd1-939d-4264-84a8-4c31ff21cb03","system_id":"levelo_inurba_marseille","lat":43.31121,"lon":5.37764,"is_reserved":false,"is_disabled":false,"rental_uris":{"android":"levelo://app?vid=a1ed1fd1-939d-4264-84a8-4c31ff21cb03","ios":"levelo://app?vid=a1ed1fd1-939d-4264-84a8-4c31ff21cb03"},"vehicle_type_id":"4","last_reported":1691816744,"current_range_meters":0,"station_id":"ce4bgt92rcd13ifvqcg0","pricing_plan_id":"free"},{"bike_id":"a07b851f-d1ea-4d44-85f0-a82bf428ec8e","system_id":"levelo_inurba_marseille","lat":43.30783,"lon":5.3766,"is_reserved":false,"is_disabled":false,"rental_uris":{"android":"levelo://app?vid=a07b851f-d1ea-4d44-85f0-a82bf428ec8e","ios":"levelo://app?vid=a07b851f-d1ea-4d44-85f0-a82bf428ec8e"},"vehicle_type_id":"4","last_reported":1691816744,"current_range_meters":23200,"station_id":"ce4bgv92rcd13ifvqcq0","pricing_plan_id":"free"},{"bike_id":"33ee35ed-e071-4764-a761-ba154972f9b6","system_id":"levelo_inurba_marseille","lat":43.317075,"lon":5.377367,"is_reserved":false,"is_disabled":false,"rental_uris":{"android":"levelo://app?vid=33ee35ed-e071-4764-a761-ba154972f9b6","ios":"levelo://app?vid=33ee35ed-e071-4764-a761-ba154972f9b6"},"vehicle_type_id":"4","last_reported":1691816744,"current_range_meters":5200,"station_id":"ce4bgth2rcd13ifvqch0","pricing_plan_id":"free"},{"bike_id":"c547f61d-4693-4939-9104-90a81a348aae","system_id":"levelo_inurba_marseille","lat":43.303046,"lon":5.368981,"is_reserved":false,"is_disabled":false,"rental_uris":{"android":"levelo://app?vid=c547f61d-4693-4939-9104-90a81a348aae","ios":"levelo://app?vid=c547f61d-4693-4939-9104-90a81a348aae"},"vehicle_type_id":"4","last_reported":1691816744,"current_range_meters":400,"station_id":"ce4bgqh2rcd13ifvqc5g","pricing_plan_id":"free"},{"bike_id":"909d380a-5ea3-4e6b-ab3c-645ae08f9529","system_id":"levelo_inurba_marseille","lat":43.30186,"lon":5.36598,"is_reserved":false,"is_disabled":false,"rental_uris":{"android":"levelo://app?vid=909d380a-5ea3-4e6b-ab3c-645ae08f9529","ios":"levelo://app?vid=909d380a-5ea3-4e6b-ab3c-645ae08f9529"},"vehicle_type_id":"4","last_reported":1691816744,"current_range_meters":15200,"station_id":"ce4bgrh2rcd13ifvqc8g","pricing_plan_id":"free"},{"bike_id":"da5a74c3-1b14-4345-98aa-4c2077cee988","system_id":"levelo_inurba_marseille","lat":43.30799,"lon":5.38136,"is_reserved":false,"is_disabled":false,"rental_uris":{"android":"levelo://app?vid=da5a74c3-1b14-4345-98aa-4c2077cee988","ios":"levelo://app?vid=da5a74c3-1b14-4345-98aa-4c2077cee988"},"vehicle_type_id":"4","last_reported":1691816744,"current_range_meters":15600,"station_id":"ce4bgt12rcd13ifvqce0","pricing_plan_id":"free"},{"bike_id":"e7e3afb0-62fd-477a-8f95-f1ddeef15862","system_id":"levelo_inurba_marseille","lat":43.30797,"lon":5.3814,"is_reserved":false,"is_disabled":false,"rental_uris":{"android":"levelo://app?vid=e7e3afb0-62fd-477a-8f95-f1ddeef15862","ios":"levelo://app?vid=e7e3afb0-62fd-477a-8f95-f1ddeef15862"},"vehicle_type_id":"4","last_reported":1691816744,"current_range_meters":29200,"station_id":"ce4bgt12rcd13ifvqce0","pricing_plan_id":"free"},{"bike_id":"af0e086c-a02d-41b8-a825-b0fa05ed1986","system_id":"levelo_inurba_marseille","lat":43.30806,"lon":5.38147,"is_reserved":false,"is_disabled":false,"rental_uris":{"android":"levelo://app?vid=af0e086c-a02d-41b8-a825-b0fa05ed1986","ios":"levelo://app?vid=af0e086c-a02d-41b8-a825-b0fa05ed1986"},"vehicle_type_id":"4","last_reported":1691816744,"current_range_meters":28400,"station_id":"ce4bgt12rcd13ifvqce0","pricing_plan_id":"free"},{"bike_id":"5d72280b-d210-4399-856b-9186c2399480","system_id":"levelo_inurba_marseille","lat":43.304606,"lon":5.379026,"is_reserved":false,"is_disabled":false,"rental_uris":{"android":"levelo://app?vid=5d72280b-d210-4399-856b-9186c2399480","ios":"levelo://app?vid=5d72280b-d210-4399-856b-9186c2399480"},"vehicle_type_id":"4","last_reported":1691816744,"current_range_meters":31200,"station_id":"ce4bgup2rcd13ifvqcn0","pricing_plan_id":"free"},{"bike_id":"85f7a35a-6638-4a88-993d-c970152844a0","system_id":"levelo_inurba_marseille","lat":43.304606,"lon":5.379026,"is_reserved":false,"is_disabled":false,"rental_uris":{"android":"levelo://app?vid=85f7a35a-6638-4a88-993d-c970152844a0","ios":"levelo://app?vid=85f7a35a-6638-4a88-993d-c970152844a0"},"vehicle_type_id":"4","last_reported":1691816744,"current_range_meters":22000,"station_id":"ce4bgup2rcd13ifvqcn0","pricing_plan_id":"free"},{"bike_id":"969adf6a-38c7-4f9d-b092-a3898827df41","system_id":"levelo_inurba_marseille","lat":43.304606,"lon":5.379026,"is_reserved":false,"is_disabled":false,"rental_uris":{"android":"levelo://app?vid=969adf6a-38c7-4f9d-b092-a3898827df41","ios":"levelo://app?vid=969adf6a-38c7-4f9d-b092-a3898827df41"},"vehicle_type_id":"4","last_reported":1691816744,"current_range_meters":28400,"station_id":"ce4bgup2rcd13ifvqcn0","pricing_plan_id":"free"},{"bike_id":"d4cabd5f-d02b-44f3-b2c2-11d133876f95","system_id":"levelo_inurba_marseille","lat":43.304606,"lon":5.379026,"is_reserved":false,"is_disabled":false,"rental_uris":{"android":"levelo://app?vid=d4cabd5f-d02b-44f3-b2c2-11d133876f95","ios":"levelo://app?vid=d4cabd5f-d02b-44f3-b2c2-11d133876f95"},"vehicle_type_id":"4","last_reported":1691816744,"current_range_meters":30000,"station_id":"ce4bgup2rcd13ifvqcn0","pricing_plan_id":"free"},{"bike_id":"dc3d6251-6ff6-4685-9ab0-14dac1b63176","system_id":"levelo_inurba_marseille","lat":43.304606,"lon":5.379026,"is_reserved":false,"is_disabled":false,"rental_uris":{"android":"levelo://app?vid=dc3d6251-6ff6-4685-9ab0-14dac1b63176","ios":"levelo://app?vid=dc3d6251-6ff6-4685-9ab0-14dac1b63176"},"vehicle_type_id":"4","last_reported":1691816744,"current_range_meters":22800,"station_id":"ce4bgup2rcd13ifvqcn0","pricing_plan_id":"free"},{"bike_id":"6abf0809-4236-4648-a20e-9df4648af8eb","system_id":"levelo_inurba_marseille","lat":43.304606,"lon":5.379026,"is_reserved":false,"is_disabled":false,"rental_uris":{"android":"levelo://app?vid=6abf0809-4236-4648-a20e-9df4648af8eb","ios":"levelo://app?vid=6abf0809-4236-4648-a20e-9df4648af8eb"},"vehicle_type_id":"4","last_reported":1691816744,"current_range_meters":22800,"station_id":"ce4bgup2rcd13ifvqcn0","pricing_plan_id":"free"},{"bike_id":"8fcb7237-d8ba-4c3c-9593-335510447dfa","system_id":"levelo_inurba_marseille","lat":43.304606,"lon":5.379026,"is_reserved":false,"is_disabled":false,"rental_uris":{"android":"levelo://app?vid=8fcb7237-d8ba-4c3c-9593-335510447dfa","ios":"levelo://app?vid=8fcb7237-d8ba-4c3c-9593-335510447dfa"},"vehicle_type_id":"4","last_reported":1691816744,"current_range_meters":2400,"station_id":"ce4bgup2rcd13ifvqcn0","pricing_plan_id":"free"},{"bike_id":"576d6981-55b1-4cb2-b51e-2977a4954287","system_id":"levelo_inurba_marseille","lat":43.304606,"lon":5.379026,"is_reserved":false,"is_disabled":false,"rental_uris":{"android":"levelo://app?vid=576d6981-55b1-4cb2-b51e-2977a4954287","ios":"levelo://app?vid=576d6981-55b1-4cb2-b51e-2977a4954287"},"vehicle_type_id":"4","last_reported":1691816744,"current_range_meters":18400,"station_id":"ce4bgup2rcd13ifvqcn0","pricing_plan_id":"free"},{"bike_id":"bbad9849-dcbb-43a1-83b6-2b87b5da8861","system_id":"levelo_inurba_marseille","lat":43.30454,"lon":5.37896,"is_reserved":false,"is_disabled":false,"rental_uris":{"android":"levelo://app?vid=bbad9849-dcbb-43a1-83b6-2b87b5da8861","ios":"levelo://app?vid=bbad9849-dcbb-43a1-83b6-2b87b5da8861"},"vehicle_type_id":"4","last_reported":1691816744,"current_range_meters":0,"station_id":"ce4bgup2rcd13ifvqcn0","pricing_plan_id":"free"},{"bike_id":"27dc5774-fbc1-4ac5-842c-bcc6bea3f3ef","system_id":"levelo_inurba_marseille","lat":43.304606,"lon":5.379026,"is_reserved":false,"is_disabled":false,"rental_uris":{"android":"levelo://app?vid=27dc5774-fbc1-4ac5-842c-bcc6bea3f3ef","ios":"levelo://app?vid=27dc5774-fbc1-4ac5-842c-bcc6bea3f3ef"},"vehicle_type_id":"4","last_reported":1691816744,"current_range_meters":27600,"station_id":"ce4bgup2rcd13ifvqcn0","pricing_plan_id":"free"},{"bike_id":"9bb09813-cd80-4773-8579-38e9eea7d37e","system_id":"levelo_inurba_marseille","lat":43.30461,"lon":5.37907,"is_reserved":false,"is_disabled":false,"rental_uris":{"android":"levelo://app?vid=9bb09813-cd80-4773-8579-38e9eea7d37e","ios":"levelo://app?vid=9bb09813-cd80-4773-8579-38e9eea7d37e"},"vehicle_type_id":"4","last_reported":1691816744,"current_range_meters":24000,"station_id":"ce4bgup2rcd13ifvqcn0","pricing_plan_id":"free"},{"bike_id":"7a374857-d466-4fc5-aa4b-b23826f0a5d1","system_id":"levelo_inurba_marseille","lat":43.30147,"lon":5.37419,"is_reserved":false,"is_disabled":false,"rental_uris":{"android":"levelo://app?vid=7a374857-d466-4fc5-aa4b-b23826f0a5d1","ios":"levelo://app?vid=7a374857-d466-4fc5-aa4b-b23826f0a5d1"},"vehicle_type_id":"4","last_reported":1691816744,"current_range_meters":14800,"station_id":"ce4bgs92rcd13ifvqcc0","pricing_plan_id":"free"},{"bike_id":"a1f78c92-b78a-49aa-b18c-8e94e0f03fad","system_id":"levelo_inurba_marseille","lat":43.30144,"lon":5.37414,"is_reserved":false,"is_disabled":false,"rental_uris":{"android":"levelo://app?vid=a1f78c92-b78a-49aa-b18c-8e94e0f03fad","ios":"levelo://app?vid=a1f78c92-b78a-49aa-b18c-8e94e0f03fad"},"vehicle_type_id":"4","last_reported":1691816744,"current_range_meters":24800,"station_id":"ce4bgs92rcd13ifvqcc0","pricing_plan_id":"free"},{"bike_id":"282d0186-0476-4007-9ca3-7b1d69d0afdb","system_id":"levelo_inurba_marseille","lat":43.302784,"lon":5.377158,"is_reserved":false,"is_disabled":false,"rental_uris":{"android":"levelo://app?vid=282d0186-0476-4007-9ca3-7b1d69d0afdb","ios":"levelo://app?vid=282d0186-0476-4007-9ca3-7b1d69d0afdb"},"vehicle_type_id":"4","last_reported":1691816744,"current_range_meters":29600,"station_id":"ce4bguh2rcd13ifvqcj0","pricing_plan_id":"free"},{"bike_id":"8048be51-f294-4996-a16d-353fba4aa93c","system_id":"levelo_inurba_marseille","lat":43.30142,"lon":5.37416,"is_reserved":false,"is_disabled":false,"rental_uris":{"android":"levelo://app?vid=8048be51-f294-4996-a16d-353fba4aa93c","ios":"levelo://app?vid=8048be51-f294-4996-a16d-353fba4aa93c"},"vehicle_type_id":"4","last_reported":1691816744,"current_range_meters":30800,"station_id":"ce4bgs92rcd13ifvqcc0","pricing_plan_id":"free"},{"bike_id":"2b312ee9-a2b2-49b3-b3c0-fdbb86d82edb","system_id":"levelo_inurba_marseille","lat":43.30142,"lon":5.37417,"is_reserved":false,"is_disabled":false,"rental_uris":{"android":"levelo://app?vid=2b312ee9-a2b2-49b3-b3c0-fdbb86d82edb","ios":"levelo://app?vid=2b312ee9-a2b2-49b3-b3c0-fdbb86d82edb"},"vehicle_type_id":"4","last_reported":1691816744,"current_range_meters":30000,"station_id":"ce4bgs92rcd13ifvqcc0","pricing_plan_id":"free"},{"bike_id":"40206180-e2cb-4456-b8f5-22bf206dc445","system_id":"levelo_inurba_marseille","lat":43.30143,"lon":5.37422,"is_reserved":false,"is_disabled":false,"rental_uris":{"android":"levelo://app?vid=40206180-e2cb-4456-b8f5-22bf206dc445","ios":"levelo://app?vid=40206180-e2cb-4456-b8f5-22bf206dc445"},"vehicle_type_id":"4","last_reported":1691816744,"current_range_meters":22000,"station_id":"ce4bgs92rcd13ifvqcc0","pricing_plan_id":"free"},{"bike_id":"0bf57f3f-fc39-4875-8e79-5891938c81b0","system_id":"levelo_inurba_marseille","lat":43.30141,"lon":5.37423,"is_reserved":false,"is_disabled":false,"rental_uris":{"android":"levelo://app?vid=0bf57f3f-fc39-4875-8e79-5891938c81b0","ios":"levelo://app?vid=0bf57f3f-fc39-4875-8e79-5891938c81b0"},"vehicle_type_id":"4","last_reported":1691816744,"current_range_meters":16800,"station_id":"ce4bgs92rcd13ifvqcc0","pricing_plan_id":"free"},{"bike_id":"ca47b605-71ef-45b7-8a77-eef69c7a450b","system_id":"levelo_inurba_marseille","lat":43.30138,"lon":5.37419,"is_reserved":false,"is_disabled":false,"rental_uris":{"android":"levelo://app?vid=ca47b605-71ef-45b7-8a77-eef69c7a450b","ios":"levelo://app?vid=ca47b605-71ef-45b7-8a77-eef69c7a450b"},"vehicle_type_id":"4","last_reported":1691816744,"current_range_meters":26000,"station_id":"ce4bgs92rcd13ifvqcc0","pricing_plan_id":"free"},{"bike_id":"45e4de85-bee3-4abc-8aff-e9a6886a316f","system_id":"levelo_inurba_marseille","lat":43.30139,"lon":5.37425,"is_reserved":false,"is_disabled":false,"rental_uris":{"android":"levelo://app?vid=45e4de85-bee3-4abc-8aff-e9a6886a316f","ios":"levelo://app?vid=45e4de85-bee3-4abc-8aff-e9a6886a316f"},"vehicle_type_id":"4","last_reported":1691816744,"current_range_meters":23600,"station_id":"ce4bgs92rcd13ifvqcc0","pricing_plan_id":"free"},{"bike_id":"44853381-5d89-4713-8e16-2c28024ec023","system_id":"levelo_inurba_marseille","lat":43.30135,"lon":5.37418,"is_reserved":false,"is_disabled":false,"rental_uris":{"android":"levelo://app?vid=44853381-5d89-4713-8e16-2c28024ec023","ios":"levelo://app?vid=44853381-5d89-4713-8e16-2c28024ec023"},"vehicle_type_id":"4","last_reported":1691816744,"current_range_meters":14000,"station_id":"ce4bgs92rcd13ifvqcc0","pricing_plan_id":"free"},{"bike_id":"bad9f1d5-222b-4ff0-a768-b2ef57f2fb9a","system_id":"levelo_inurba_marseille","lat":43.319935,"lon":5.381699,"is_reserved":false,"is_disabled":false,"rental_uris":{"android":"levelo://app?vid=bad9f1d5-222b-4ff0-a768-b2ef57f2fb9a","ios":"levelo://app?vid=bad9f1d5-222b-4ff0-a768-b2ef57f2fb9a"},"vehicle_type_id":"4","last_reported":1691816744,"current_range_meters":20800,"station_id":"ce4bhr12rcd13ifvqhpg","pricing_plan_id":"free"},{"bike_id":"0870ea0c-8e6b-4a49-a492-2ce628cd0470","system_id":"levelo_inurba_marseille","lat":43.319935,"lon":5.381699,"is_reserved":false,"is_disabled":false,"rental_uris":{"android":"levelo://app?vid=0870ea0c-8e6b-4a49-a492-2ce628cd0470","ios":"levelo://app?vid=0870ea0c-8e6b-4a49-a492-2ce628cd0470"},"vehicle_type_id":"4","last_reported":1691816744,"current_range_meters":6800,"station_id":"ce4bhr12rcd13ifvqhpg","pricing_plan_id":"free"},{"bike_id":"35448d63-6810-432c-8e34-1a9cb307057f","system_id":"levelo_inurba_marseille","lat":43.31372,"lon":5.38513,"is_reserved":false,"is_disabled":false,"rental_uris":{"android":"levelo://app?vid=35448d63-6810-432c-8e34-1a9cb307057f","ios":"levelo://app?vid=35448d63-6810-432c-8e34-1a9cb307057f"},"vehicle_type_id":"4","last_reported":1691816744,"current_range_meters":18000,"station_id":"ce4bgt92rcd13ifvqcf0","pricing_plan_id":"free"},{"bike_id":"91938eb4-40c4-4ade-bc51-7ae51dff6b02","system_id":"levelo_inurba_marseille","lat":43.29941,"lon":5.36518,"is_reserved":false,"is_disabled":false,"rental_uris":{"android":"levelo://app?vid=91938eb4-40c4-4ade-bc51-7ae51dff6b02","ios":"levelo://app?vid=91938eb4-40c4-4ade-bc51-7ae51dff6b02"},"vehicle_type_id":"4","last_reported":1691816744,"current_range_meters":30400,"station_id":"ce4bgm92rcd13ifvqbr0","pricing_plan_id":"free"},{"bike_id":"359f2436-8ee2-4cfa-b631-95b8f30bac95","system_id":"levelo_inurba_marseille","lat":43.29974,"lon":5.37176,"is_reserved":false,"is_disabled":false,"rental_uris":{"android":"levelo://app?vid=359f2436-8ee2-4cfa-b631-95b8f30bac95","ios":"levelo://app?vid=359f2436-8ee2-4cfa-b631-95b8f30bac95"},"vehicle_type_id":"4","last_reported":1691816744,"current_range_meters":28400,"station_id":"ce4bgr92rcd13ifvqc7g","pricing_plan_id":"free"},{"bike_id":"dd06df22-f1d5-4a3e-a624-40965183b78b","system_id":"levelo_inurba_marseille","lat":43.305364,"lon":5.384119,"is_reserved":false,"is_disabled":false,"rental_uris":{"android":"levelo://app?vid=dd06df22-f1d5-4a3e-a624-40965183b78b","ios":"levelo://app?vid=dd06df22-f1d5-4a3e-a624-40965183b78b"},"vehicle_type_id":"4","last_reported":1691816744,"current_range_meters":9200,"station_id":"ce4bgg92rcd13ifvqb30","pricing_plan_id":"free"},{"bike_id":"f57062cd-4c17-4958-a47a-bda53ea40077","system_id":"levelo_inurba_marseille","lat":43.305364,"lon":5.384119,"is_reserved":false,"is_disabled":false,"rental_uris":{"android":"levelo://app?vid=f57062cd-4c17-4958-a47a-bda53ea40077","ios":"levelo://app?vid=f57062cd-4c17-4958-a47a-bda53ea40077"},"vehicle_type_id":"4","last_reported":1691816744,"current_range_meters":4000,"station_id":"ce4bgg92rcd13ifvqb30","pricing_plan_id":"free"},{"bike_id":"f8f6e57d-1a2a-48d7-aef9-d5ec6f7c2fa0","system_id":"levelo_inurba_marseille","lat":43.305364,"lon":5.384119,"is_reserved":false,"is_disabled":false,"rental_uris":{"android":"levelo://app?vid=f8f6e57d-1a2a-48d7-aef9-d5ec6f7c2fa0","ios":"levelo://app?vid=f8f6e57d-1a2a-48d7-aef9-d5ec6f7c2fa0"},"vehicle_type_id":"4","last_reported":1691816744,"current_range_meters":0,"station_id":"ce4bgg92rcd13ifvqb30","pricing_plan_id":"free"},{"bike_id":"92989c88-12a1-457f-b515-4b9db15d64a7","system_id":"levelo_inurba_marseille","lat":43.31167,"lon":5.3871,"is_reserved":false,"is_disabled":false,"rental_uris":{"android":"levelo://app?vid=92989c88-12a1-457f-b515-4b9db15d64a7","ios":"levelo://app?vid=92989c88-12a1-457f-b515-4b9db15d64a7"},"vehicle_type_id":"4","last_reported":1691816744,"current_range_meters":6400,"station_id":"ce4bgv12rcd13ifvqcp0","pricing_plan_id":"free"},{"bike_id":"0b87a3e7-da11-444f-a3db-96fde3dfb10a","system_id":"levelo_inurba_marseille","lat":43.299243,"lon":5.37481,"is_reserved":false,"is_disabled":false,"rental_uris":{"android":"levelo://app?vid=0b87a3e7-da11-444f-a3db-96fde3dfb10a","ios":"levelo://app?vid=0b87a3e7-da11-444f-a3db-96fde3dfb10a"},"vehicle_type_id":"4","last_reported":1691816744,"current_range_meters":30400,"station_id":"ce4bgjh2rcd13ifvqbg0","pricing_plan_id":"free"},{"bike_id":"58394149-786c-4bc7-8be8-7c7e5bfba344","system_id":"levelo_inurba_marseille","lat":43.297774,"lon":5.370875,"is_reserved":false,"is_disabled":false,"rental_uris":{"android":"levelo://app?vid=58394149-786c-4bc7-8be8-7c7e5bfba344","ios":"levelo://app?vid=58394149-786c-4bc7-8be8-7c7e5bfba344"},"vehicle_type_id":"4","last_reported":1691816744,"current_range_meters":26000,"station_id":"ce4bgop2rcd13ifvqc1g","pricing_plan_id":"free"},{"bike_id":"2e341b8a-19ca-467a-9062-4e524deac17d","system_id":"levelo_inurba_marseille","lat":43.32298,"lon":5.38261,"is_reserved":false,"is_disabled":false,"rental_uris":{"android":"levelo://app?vid=2e341b8a-19ca-467a-9062-4e524deac17d","ios":"levelo://app?vid=2e341b8a-19ca-467a-9062-4e524deac17d"},"vehicle_type_id":"4","last_reported":1691816744,"current_range_meters":29600,"station_id":"ce4bhr12rcd13ifvqhqg","pricing_plan_id":"free"},{"bike_id":"026ee3db-f828-4ad6-9e78-43e60a812318","system_id":"levelo_inurba_marseille","lat":43.3229,"lon":5.38275,"is_reserved":false,"is_disabled":false,"rental_uris":{"android":"levelo://app?vid=026ee3db-f828-4ad6-9e78-43e60a812318","ios":"levelo://app?vid=026ee3db-f828-4ad6-9e78-43e60a812318"},"vehicle_type_id":"4","last_reported":1691816744,"current_range_meters":22000,"station_id":"ce4bhr12rcd13ifvqhqg","pricing_plan_id":"free"},{"bike_id":"3d75ec31-9bc5-447c-81ba-d21539df621f","system_id":"levelo_inurba_marseille","lat":43.32291,"lon":5.38274,"is_reserved":false,"is_disabled":false,"rental_uris":{"android":"levelo://app?vid=3d75ec31-9bc5-447c-81ba-d21539df621f","ios":"levelo://app?vid=3d75ec31-9bc5-447c-81ba-d21539df621f"},"vehicle_type_id":"4","last_reported":1691816744,"current_range_meters":12400,"station_id":"ce4bhr12rcd13ifvqhqg","pricing_plan_id":"free"},{"bike_id":"5cef4262-f054-4974-9121-fc3d341ebbb0","system_id":"levelo_inurba_marseille","lat":43.322872,"lon":5.382756,"is_reserved":false,"is_disabled":false,"rental_uris":{"android":"levelo://app?vid=5cef4262-f054-4974-9121-fc3d341ebbb0","ios":"levelo://app?vid=5cef4262-f054-4974-9121-fc3d341ebbb0"},"vehicle_type_id":"4","last_reported":1691816744,"current_range_meters":14800,"station_id":"ce4bhr12rcd13ifvqhqg","pricing_plan_id":"free"},{"bike_id":"4c0051b2-93b8-4cc5-a80a-2595421ac1f5","system_id":"levelo_inurba_marseille","lat":43.322872,"lon":5.382756,"is_reserved":false,"is_disabled":false,"rental_uris":{"android":"levelo://app?vid=4c0051b2-93b8-4cc5-a80a-2595421ac1f5","ios":"levelo://app?vid=4c0051b2-93b8-4cc5-a80a-2595421ac1f5"},"vehicle_type_id":"4","last_reported":1691816744,"current_range_meters":27200,"station_id":"ce4bhr12rcd13ifvqhqg","pricing_plan_id":"free"},{"bike_id":"daf1c66e-67e4-446b-ab69-51ad2a5f2181","system_id":"levelo_inurba_marseille","lat":43.32295,"lon":5.38275,"is_reserved":false,"is_disabled":false,"rental_uris":{"android":"levelo://app?vid=daf1c66e-67e4-446b-ab69-51ad2a5f2181","ios":"levelo://app?vid=daf1c66e-67e4-446b-ab69-51ad2a5f2181"},"vehicle_type_id":"4","last_reported":1691816744,"current_range_meters":28400,"station_id":"ce4bhr12rcd13ifvqhqg","pricing_plan_id":"free"},{"bike_id":"13ae175a-0609-4f70-9fab-6ba23bad8636","system_id":"levelo_inurba_marseille","lat":43.32294,"lon":5.38278,"is_reserved":false,"is_disabled":false,"rental_uris":{"android":"levelo://app?vid=13ae175a-0609-4f70-9fab-6ba23bad8636","ios":"levelo://app?vid=13ae175a-0609-4f70-9fab-6ba23bad8636"},"vehicle_type_id":"4","last_reported":1691816744,"current_range_meters":24000,"station_id":"ce4bhr12rcd13ifvqhqg","pricing_plan_id":"free"},{"bike_id":"34544adb-53d3-44b1-86f1-bb8bc7dbf546","system_id":"levelo_inurba_marseille","lat":43.32294,"lon":5.38278,"is_reserved":false,"is_disabled":false,"rental_uris":{"android":"levelo://app?vid=34544adb-53d3-44b1-86f1-bb8bc7dbf546","ios":"levelo://app?vid=34544adb-53d3-44b1-86f1-bb8bc7dbf546"},"vehicle_type_id":"4","last_reported":1691816744,"current_range_meters":26400,"station_id":"ce4bhr12rcd13ifvqhqg","pricing_plan_id":"free"},{"bike_id":"2a877c10-47b3-4336-884b-4186f2d4f096","system_id":"levelo_inurba_marseille","lat":43.322872,"lon":5.382756,"is_reserved":false,"is_disabled":false,"rental_uris":{"android":"levelo://app?vid=2a877c10-47b3-4336-884b-4186f2d4f096","ios":"levelo://app?vid=2a877c10-47b3-4336-884b-4186f2d4f096"},"vehicle_type_id":"4","last_reported":1691816744,"current_range_meters":17600,"station_id":"ce4bhr12rcd13ifvqhqg","pricing_plan_id":"free"},{"bike_id":"1b203c54-0be7-49b8-a54f-17ca79a8f7f4","system_id":"levelo_inurba_marseille","lat":43.32292,"lon":5.38281,"is_reserved":false,"is_disabled":false,"rental_uris":{"android":"levelo://app?vid=1b203c54-0be7-49b8-a54f-17ca79a8f7f4","ios":"levelo://app?vid=1b203c54-0be7-49b8-a54f-17ca79a8f7f4"},"vehicle_type_id":"4","last_reported":1691816744,"current_range_meters":22800,"station_id":"ce4bhr12rcd13ifvqhqg","pricing_plan_id":"free"},{"bike_id":"cbdb1e2e-23aa-4305-8e8f-f1f9efca0a4f","system_id":"levelo_inurba_marseille","lat":43.32294,"lon":5.38279,"is_reserved":false,"is_disabled":false,"rental_uris":{"android":"levelo://app?vid=cbdb1e2e-23aa-4305-8e8f-f1f9efca0a4f","ios":"levelo://app?vid=cbdb1e2e-23aa-4305-8e8f-f1f9efca0a4f"},"vehicle_type_id":"4","last_reported":1691816744,"current_range_meters":24400,"station_id":"ce4bhr12rcd13ifvqhqg","pricing_plan_id":"free"},{"bike_id":"454e4186-321d-4414-91ad-51d1deee69be","system_id":"levelo_inurba_marseille","lat":43.32294,"lon":5.38283,"is_reserved":false,"is_disabled":false,"rental_uris":{"android":"levelo://app?vid=454e4186-321d-4414-91ad-51d1deee69be","ios":"levelo://app?vid=454e4186-321d-4414-91ad-51d1deee69be"},"vehicle_type_id":"4","last_reported":1691816744,"current_range_meters":30800,"station_id":"ce4bhr12rcd13ifvqhqg","pricing_plan_id":"free"},{"bike_id":"ccde4fab-a619-4b85-80d1-631ae22c1186","system_id":"levelo_inurba_marseille","lat":43.32298,"lon":5.3828,"is_reserved":false,"is_disabled":false,"rental_uris":{"android":"levelo://app?vid=ccde4fab-a619-4b85-80d1-631ae22c1186","ios":"levelo://app?vid=ccde4fab-a619-4b85-80d1-631ae22c1186"},"vehicle_type_id":"4","last_reported":1691816744,"current_range_meters":20800,"station_id":"ce4bhr12rcd13ifvqhqg","pricing_plan_id":"free"},{"bike_id":"63b63e6c-c5a9-49f5-8d21-3106e36d3542","system_id":"levelo_inurba_marseille","lat":43.32298,"lon":5.38284,"is_reserved":false,"is_disabled":false,"rental_uris":{"android":"levelo://app?vid=63b63e6c-c5a9-49f5-8d21-3106e36d3542","ios":"levelo://app?vid=63b63e6c-c5a9-49f5-8d21-3106e36d3542"},"vehicle_type_id":"4","last_reported":1691816744,"current_range_meters":27200,"station_id":"ce4bhr12rcd13ifvqhqg","pricing_plan_id":"free"},{"bike_id":"7768be7e-a3e9-45b5-97ac-f3c89bd7dded","system_id":"levelo_inurba_marseille","lat":43.328257,"lon":5.366905,"is_reserved":false,"is_disabled":false,"rental_uris":{"android":"levelo://app?vid=7768be7e-a3e9-45b5-97ac-f3c89bd7dded","ios":"levelo://app?vid=7768be7e-a3e9-45b5-97ac-f3c89bd7dded"},"vehicle_type_id":"4","last_reported":1691816744,"current_range_meters":4000,"station_id":"ce4bhs92rcd13ifvqi0g","pricing_plan_id":"free"},{"bike_id":"f336e48b-8fbd-4fb6-8154-a5f91e7457a6","system_id":"levelo_inurba_marseille","lat":43.328371,"lon":5.366909,"is_reserved":false,"is_disabled":false,"rental_uris":{"android":"levelo://app?vid=f336e48b-8fbd-4fb6-8154-a5f91e7457a6","ios":"levelo://app?vid=f336e48b-8fbd-4fb6-8154-a5f91e7457a6"},"vehicle_type_id":"4","last_reported":1691816744,"current_range_meters":20800,"station_id":"ce4bhs92rcd13ifvqi0g","pricing_plan_id":"free"},{"bike_id":"d64026df-d608-4f97-93ab-b4ea233c50d5","system_id":"levelo_inurba_marseille","lat":43.32835,"lon":5.36674,"is_reserved":false,"is_disabled":false,"rental_uris":{"android":"levelo://app?vid=d64026df-d608-4f97-93ab-b4ea233c50d5","ios":"levelo://app?vid=d64026df-d608-4f97-93ab-b4ea233c50d5"},"vehicle_type_id":"4","last_reported":1691816744,"current_range_meters":15200,"station_id":"ce4bhs92rcd13ifvqi0g","pricing_plan_id":"free"},{"bike_id":"dd789220-e7b5-42c1-b9dc-dc4243148021","system_id":"levelo_inurba_marseille","lat":43.297163,"lon":5.365866,"is_reserved":false,"is_disabled":false,"rental_uris":{"android":"levelo://app?vid=dd789220-e7b5-42c1-b9dc-dc4243148021","ios":"levelo://app?vid=dd789220-e7b5-42c1-b9dc-dc4243148021"},"vehicle_type_id":"4","last_reported":1691816744,"current_range_meters":30400,"station_id":"ce4bgn12rcd13ifvqbt0","pricing_plan_id":"free"},{"bike_id":"621cf5b8-38ae-45fa-b64d-27a6abbcab76","system_id":"levelo_inurba_marseille","lat":43.297163,"lon":5.365866,"is_reserved":false,"is_disabled":false,"rental_uris":{"android":"levelo://app?vid=621cf5b8-38ae-45fa-b64d-27a6abbcab76","ios":"levelo://app?vid=621cf5b8-38ae-45fa-b64d-27a6abbcab76"},"vehicle_type_id":"4","last_reported":1691816744,"current_range_meters":12000,"station_id":"ce4bgn12rcd13ifvqbt0","pricing_plan_id":"free"},{"bike_id":"fd72acff-6efd-434a-a300-1b77581ce49e","system_id":"levelo_inurba_marseille","lat":43.29713,"lon":5.36965,"is_reserved":false,"is_disabled":false,"rental_uris":{"android":"levelo://app?vid=fd72acff-6efd-434a-a300-1b77581ce49e","ios":"levelo://app?vid=fd72acff-6efd-434a-a300-1b77581ce49e"},"vehicle_type_id":"4","last_reported":1691816744,"current_range_meters":19200,"station_id":"","pricing_plan_id":"free"},{"bike_id":"4546f8c1-0a9e-45be-b4bd-18c11f686c5c","system_id":"levelo_inurba_marseille","lat":43.29671,"lon":5.3658,"is_reserved":false,"is_disabled":false,"rental_uris":{"android":"levelo://app?vid=4546f8c1-0a9e-45be-b4bd-18c11f686c5c","ios":"levelo://app?vid=4546f8c1-0a9e-45be-b4bd-18c11f686c5c"},"vehicle_type_id":"4","last_reported":1691816744,"current_range_meters":4800,"station_id":"","pricing_plan_id":"free"},{"bike_id":"404fed9e-776b-4ccb-93c7-4cce3a4318ee","system_id":"levelo_inurba_marseille","lat":43.29622,"lon":5.37168,"is_reserved":false,"is_disabled":false,"rental_uris":{"android":"levelo://app?vid=404fed9e-776b-4ccb-93c7-4cce3a4318ee","ios":"levelo://app?vid=404fed9e-776b-4ccb-93c7-4cce3a4318ee"},"vehicle_type_id":"4","last_reported":1691816744,"current_range_meters":26800,"station_id":"","pricing_plan_id":"free"},{"bike_id":"5b56fe0a-ab37-4f1f-8a16-4cebf52789c9","system_id":"levelo_inurba_marseille","lat":43.29724,"lon":5.3769,"is_reserved":false,"is_disabled":false,"rental_uris":{"android":"levelo://app?vid=5b56fe0a-ab37-4f1f-8a16-4cebf52789c9","ios":"levelo://app?vid=5b56fe0a-ab37-4f1f-8a16-4cebf52789c9"},"vehicle_type_id":"4","last_reported":1691816744,"current_range_meters":24000,"station_id":"ce4bgkh2rcd13ifvqbl0","pricing_plan_id":"free"},{"bike_id":"60efcd35-7e36-44ee-9488-ad55015137aa","system_id":"levelo_inurba_marseille","lat":43.296921,"lon":5.376579,"is_reserved":false,"is_disabled":false,"rental_uris":{"android":"levelo://app?vid=60efcd35-7e36-44ee-9488-ad55015137aa","ios":"levelo://app?vid=60efcd35-7e36-44ee-9488-ad55015137aa"},"vehicle_type_id":"4","last_reported":1691816744,"current_range_meters":400,"station_id":"ce4bgkh2rcd13ifvqbl0","pricing_plan_id":"free"},{"bike_id":"69822f6c-803f-4b06-b861-0df3407f6868","system_id":"levelo_inurba_marseille","lat":43.29642,"lon":5.37493,"is_reserved":false,"is_disabled":false,"rental_uris":{"android":"levelo://app?vid=69822f6c-803f-4b06-b861-0df3407f6868","ios":"levelo://app?vid=69822f6c-803f-4b06-b861-0df3407f6868"},"vehicle_type_id":"4","last_reported":1691816744,"current_range_meters":2400,"station_id":"","pricing_plan_id":"free"},{"bike_id":"fefa6740-94d8-4b7e-9958-487cdedfa7b5","system_id":"levelo_inurba_marseille","lat":43.299028,"lon":5.381509,"is_reserved":false,"is_disabled":false,"rental_uris":{"android":"levelo://app?vid=fefa6740-94d8-4b7e-9958-487cdedfa7b5","ios":"levelo://app?vid=fefa6740-94d8-4b7e-9958-487cdedfa7b5"},"vehicle_type_id":"4","last_reported":1691816744,"current_range_meters":16800,"station_id":"ce4bgj12rcd13ifvqbc0","pricing_plan_id":"free"},{"bike_id":"bbcbcac3-9bf3-4bb3-80c6-5731c6b15540","system_id":"levelo_inurba_marseille","lat":43.30954,"lon":5.39051,"is_reserved":false,"is_disabled":false,"rental_uris":{"android":"levelo://app?vid=bbcbcac3-9bf3-4bb3-80c6-5731c6b15540","ios":"levelo://app?vid=bbcbcac3-9bf3-4bb3-80c6-5731c6b15540"},"vehicle_type_id":"4","last_reported":1691816744,"current_range_meters":23600,"station_id":"ce4bgup2rcd13ifvqco0","pricing_plan_id":"free"},{"bike_id":"ac397d19-4e03-4ba2-b6e3-e46a1e9f2688","system_id":"levelo_inurba_marseille","lat":43.317557,"lon":5.390173,"is_reserved":false,"is_disabled":false,"rental_uris":{"android":"levelo://app?vid=ac397d19-4e03-4ba2-b6e3-e46a1e9f2688","ios":"levelo://app?vid=ac397d19-4e03-4ba2-b6e3-e46a1e9f2688"},"vehicle_type_id":"4","last_reported":1691816744,"current_range_meters":30400,"station_id":"ce4bhqp2rcd13ifvqhng","pricing_plan_id":"free"},{"bike_id":"92b18089-322e-498d-9529-47aa5d1332e1","system_id":"levelo_inurba_marseille","lat":43.317557,"lon":5.390173,"is_reserved":false,"is_disabled":false,"rental_uris":{"android":"levelo://app?vid=92b18089-322e-498d-9529-47aa5d1332e1","ios":"levelo://app?vid=92b18089-322e-498d-9529-47aa5d1332e1"},"vehicle_type_id":"4","last_reported":1691816744,"current_range_meters":31200,"station_id":"ce4bhqp2rcd13ifvqhng","pricing_plan_id":"free"},{"bike_id":"b71b4e1a-5dd4-4c5a-88e4-d5cfd2dee645","system_id":"levelo_inurba_marseille","lat":43.317557,"lon":5.390173,"is_reserved":false,"is_disabled":false,"rental_uris":{"android":"levelo://app?vid=b71b4e1a-5dd4-4c5a-88e4-d5cfd2dee645","ios":"levelo://app?vid=b71b4e1a-5dd4-4c5a-88e4-d5cfd2dee645"},"vehicle_type_id":"4","last_reported":1691816744,"current_range_meters":31200,"station_id":"ce4bhqp2rcd13ifvqhng","pricing_plan_id":"free"},{"bike_id":"c387a140-0c74-429f-9f5d-e097fcb77053","system_id":"levelo_inurba_marseille","lat":43.317557,"lon":5.390173,"is_reserved":false,"is_disabled":false,"rental_uris":{"android":"levelo://app?vid=c387a140-0c74-429f-9f5d-e097fcb77053","ios":"levelo://app?vid=c387a140-0c74-429f-9f5d-e097fcb77053"},"vehicle_type_id":"4","last_reported":1691816744,"current_range_meters":27600,"station_id":"ce4bhqp2rcd13ifvqhng","pricing_plan_id":"free"},{"bike_id":"c3bd3e16-8a16-4e4f-aba7-7745abf80012","system_id":"levelo_inurba_marseille","lat":43.317557,"lon":5.390173,"is_reserved":false,"is_disabled":false,"rental_uris":{"android":"levelo://app?vid=c3bd3e16-8a16-4e4f-aba7-7745abf80012","ios":"levelo://app?vid=c3bd3e16-8a16-4e4f-aba7-7745abf80012"},"vehicle_type_id":"4","last_reported":1691816744,"current_range_meters":30800,"station_id":"ce4bhqp2rcd13ifvqhng","pricing_plan_id":"free"},{"bike_id":"76ff3b14-d346-4134-b772-5805eda4f7f2","system_id":"levelo_inurba_marseille","lat":43.31756,"lon":5.39024,"is_reserved":false,"is_disabled":false,"rental_uris":{"android":"levelo://app?vid=76ff3b14-d346-4134-b772-5805eda4f7f2","ios":"levelo://app?vid=76ff3b14-d346-4134-b772-5805eda4f7f2"},"vehicle_type_id":"4","last_reported":1691816744,"current_range_meters":30000,"station_id":"ce4bhqp2rcd13ifvqhng","pricing_plan_id":"free"},{"bike_id":"a1f79810-e581-4b1a-8067-4ce69fc0bf20","system_id":"levelo_inurba_marseille","lat":43.30437,"lon":5.38884,"is_reserved":false,"is_disabled":false,"rental_uris":{"android":"levelo://app?vid=a1f79810-e581-4b1a-8067-4ce69fc0bf20","ios":"levelo://app?vid=a1f79810-e581-4b1a-8067-4ce69fc0bf20"},"vehicle_type_id":"4","last_reported":1691816744,"current_range_meters":31200,"station_id":"ce4bgk12rcd13ifvqbi0","pricing_plan_id":"free"},{"bike_id":"380eb757-8c49-4b97-ad89-bdf8960355bb","system_id":"levelo_inurba_marseille","lat":43.30441,"lon":5.3889,"is_reserved":false,"is_disabled":false,"rental_uris":{"android":"levelo://app?vid=380eb757-8c49-4b97-ad89-bdf8960355bb","ios":"levelo://app?vid=380eb757-8c49-4b97-ad89-bdf8960355bb"},"vehicle_type_id":"4","last_reported":1691816744,"current_range_meters":30400,"station_id":"ce4bgk12rcd13ifvqbi0","pricing_plan_id":"free"},{"bike_id":"a4df99ce-0488-49dd-a888-94686f562e88","system_id":"levelo_inurba_marseille","lat":43.295748,"lon":5.37522,"is_reserved":false,"is_disabled":false,"rental_uris":{"android":"levelo://app?vid=a4df99ce-0488-49dd-a888-94686f562e88","ios":"levelo://app?vid=a4df99ce-0488-49dd-a888-94686f562e88"},"vehicle_type_id":"4","last_reported":1691816744,"current_range_meters":30000,"station_id":"ce4bgh92rcd13ifvqb50","pricing_plan_id":"free"},{"bike_id":"659d7063-4b63-423b-a9bc-d7901e6b4156","system_id":"levelo_inurba_marseille","lat":43.30431,"lon":5.38888,"is_reserved":false,"is_disabled":false,"rental_uris":{"android":"levelo://app?vid=659d7063-4b63-423b-a9bc-d7901e6b4156","ios":"levelo://app?vid=659d7063-4b63-423b-a9bc-d7901e6b4156"},"vehicle_type_id":"4","last_reported":1691816744,"current_range_meters":27200,"station_id":"ce4bgk12rcd13ifvqbi0","pricing_plan_id":"free"},{"bike_id":"fd138a62-ada5-4103-8db7-0206752da732","system_id":"levelo_inurba_marseille","lat":43.29613,"lon":5.37719,"is_reserved":false,"is_disabled":false,"rental_uris":{"android":"levelo://app?vid=fd138a62-ada5-4103-8db7-0206752da732","ios":"levelo://app?vid=fd138a62-ada5-4103-8db7-0206752da732"},"vehicle_type_id":"4","last_reported":1691816744,"current_range_meters":0,"station_id":"ce4bgi92rcd13ifvqb90","pricing_plan_id":"free"},{"bike_id":"6dfb3503-9ba8-4337-bdb2-7b700e05e24e","system_id":"levelo_inurba_marseille","lat":43.299707,"lon":5.384859,"is_reserved":false,"is_disabled":false,"rental_uris":{"android":"levelo://app?vid=6dfb3503-9ba8-4337-bdb2-7b700e05e24e","ios":"levelo://app?vid=6dfb3503-9ba8-4337-bdb2-7b700e05e24e"},"vehicle_type_id":"4","last_reported":1691816744,"current_range_meters":21600,"station_id":"ce4bgj92rcd13ifvqbd0","pricing_plan_id":"free"},{"bike_id":"e384a094-d2c4-4129-9f42-72bc6911a81e","system_id":"levelo_inurba_marseille","lat":43.299724,"lon":5.384848,"is_reserved":false,"is_disabled":false,"rental_uris":{"android":"levelo://app?vid=e384a094-d2c4-4129-9f42-72bc6911a81e","ios":"levelo://app?vid=e384a094-d2c4-4129-9f42-72bc6911a81e"},"vehicle_type_id":"4","last_reported":1691816744,"current_range_meters":22800,"station_id":"ce4bgj92rcd13ifvqbd0","pricing_plan_id":"free"},{"bike_id":"9f56a8a7-a9a9-4c3c-9120-a67e1a560b30","system_id":"levelo_inurba_marseille","lat":43.299717,"lon":5.384845,"is_reserved":false,"is_disabled":false,"rental_uris":{"android":"levelo://app?vid=9f56a8a7-a9a9-4c3c-9120-a67e1a560b30","ios":"levelo://app?vid=9f56a8a7-a9a9-4c3c-9120-a67e1a560b30"},"vehicle_type_id":"4","last_reported":1691816744,"current_range_meters":27600,"station_id":"ce4bgj92rcd13ifvqbd0","pricing_plan_id":"free"},{"bike_id":"0337c164-8b0b-4f0b-b7b3-6790b2e9f25d","system_id":"levelo_inurba_marseille","lat":43.32365,"lon":5.3888,"is_reserved":false,"is_disabled":false,"rental_uris":{"android":"levelo://app?vid=0337c164-8b0b-4f0b-b7b3-6790b2e9f25d","ios":"levelo://app?vid=0337c164-8b0b-4f0b-b7b3-6790b2e9f25d"},"vehicle_type_id":"4","last_reported":1691816744,"current_range_meters":24000,"station_id":"ce4bhqp2rcd13ifvqhog","pricing_plan_id":"free"},{"bike_id":"0aa4abac-dd3c-446a-b986-ff96ec672a99","system_id":"levelo_inurba_marseille","lat":43.32365,"lon":5.38882,"is_reserved":false,"is_disabled":false,"rental_uris":{"android":"levelo://app?vid=0aa4abac-dd3c-446a-b986-ff96ec672a99","ios":"levelo://app?vid=0aa4abac-dd3c-446a-b986-ff96ec672a99"},"vehicle_type_id":"4","last_reported":1691816744,"current_range_meters":30400,"station_id":"ce4bhqp2rcd13ifvqhog","pricing_plan_id":"free"},{"bike_id":"1c06817d-c0e7-4587-90fd-16ba47647653","system_id":"levelo_inurba_marseille","lat":43.32362,"lon":5.38888,"is_reserved":false,"is_disabled":false,"rental_uris":{"android":"levelo://app?vid=1c06817d-c0e7-4587-90fd-16ba47647653","ios":"levelo://app?vid=1c06817d-c0e7-4587-90fd-16ba47647653"},"vehicle_type_id":"4","last_reported":1691816744,"current_range_meters":26400,"station_id":"ce4bhqp2rcd13ifvqhog","pricing_plan_id":"free"},{"bike_id":"01e11d4e-126c-4d60-a749-b4934349307d","system_id":"levelo_inurba_marseille","lat":43.32367,"lon":5.38885,"is_reserved":false,"is_disabled":false,"rental_uris":{"android":"levelo://app?vid=01e11d4e-126c-4d60-a749-b4934349307d","ios":"levelo://app?vid=01e11d4e-126c-4d60-a749-b4934349307d"},"vehicle_type_id":"4","last_reported":1691816744,"current_range_meters":24400,"station_id":"ce4bhqp2rcd13ifvqhog","pricing_plan_id":"free"},{"bike_id":"7a5ccebc-5cd7-411d-b3c4-f349eba70b98","system_id":"levelo_inurba_marseille","lat":43.32367,"lon":5.38885,"is_reserved":false,"is_disabled":false,"rental_uris":{"android":"levelo://app?vid=7a5ccebc-5cd7-411d-b3c4-f349eba70b98","ios":"levelo://app?vid=7a5ccebc-5cd7-411d-b3c4-f349eba70b98"},"vehicle_type_id":"4","last_reported":1691816744,"current_range_meters":16800,"station_id":"ce4bhqp2rcd13ifvqhog","pricing_plan_id":"free"},{"bike_id":"092d1ffb-cc8f-4fc9-b481-46d27e9b2b2c","system_id":"levelo_inurba_marseille","lat":43.32367,"lon":5.388836,"is_reserved":false,"is_disabled":false,"rental_uris":{"android":"levelo://app?vid=092d1ffb-cc8f-4fc9-b481-46d27e9b2b2c","ios":"levelo://app?vid=092d1ffb-cc8f-4fc9-b481-46d27e9b2b2c"},"vehicle_type_id":"4","last_reported":1691816744,"current_range_meters":21200,"station_id":"ce4bhqp2rcd13ifvqhog","pricing_plan_id":"free"},{"bike_id":"b8cfcb5c-1fe2-48ab-b86a-5cc900079f22","system_id":"levelo_inurba_marseille","lat":43.32367,"lon":5.388836,"is_reserved":false,"is_disabled":false,"rental_uris":{"android":"levelo://app?vid=b8cfcb5c-1fe2-48ab-b86a-5cc900079f22","ios":"levelo://app?vid=b8cfcb5c-1fe2-48ab-b86a-5cc900079f22"},"vehicle_type_id":"4","last_reported":1691816744,"current_range_meters":16800,"station_id":"ce4bhqp2rcd13ifvqhog","pricing_plan_id":"free"},{"bike_id":"fbe51afe-e58e-4401-bce8-142438eb5f97","system_id":"levelo_inurba_marseille","lat":43.3237,"lon":5.38886,"is_reserved":false,"is_disabled":false,"rental_uris":{"android":"levelo://app?vid=fbe51afe-e58e-4401-bce8-142438eb5f97","ios":"levelo://app?vid=fbe51afe-e58e-4401-bce8-142438eb5f97"},"vehicle_type_id":"4","last_reported":1691816744,"current_range_meters":31200,"station_id":"ce4bhqp2rcd13ifvqhog","pricing_plan_id":"free"},{"bike_id":"b6adb90e-9efd-4170-8253-825de9137b61","system_id":"levelo_inurba_marseille","lat":43.32367,"lon":5.388836,"is_reserved":false,"is_disabled":false,"rental_uris":{"android":"levelo://app?vid=b6adb90e-9efd-4170-8253-825de9137b61","ios":"levelo://app?vid=b6adb90e-9efd-4170-8253-825de9137b61"},"vehicle_type_id":"4","last_reported":1691816744,"current_range_meters":30000,"station_id":"ce4bhqp2rcd13ifvqhog","pricing_plan_id":"free"},{"bike_id":"ca878683-6c48-40c5-a57b-a57665b4ddf7","system_id":"levelo_inurba_marseille","lat":43.32367,"lon":5.388836,"is_reserved":false,"is_disabled":false,"rental_uris":{"android":"levelo://app?vid=ca878683-6c48-40c5-a57b-a57665b4ddf7","ios":"levelo://app?vid=ca878683-6c48-40c5-a57b-a57665b4ddf7"},"vehicle_type_id":"4","last_reported":1691816744,"current_range_meters":24800,"station_id":"ce4bhqp2rcd13ifvqhog","pricing_plan_id":"free"},{"bike_id":"a7758e93-92f2-4ba1-8882-417901e6037c","system_id":"levelo_inurba_marseille","lat":43.32373,"lon":5.3889,"is_reserved":false,"is_disabled":false,"rental_uris":{"android":"levelo://app?vid=a7758e93-92f2-4ba1-8882-417901e6037c","ios":"levelo://app?vid=a7758e93-92f2-4ba1-8882-417901e6037c"},"vehicle_type_id":"4","last_reported":1691816744,"current_range_meters":11600,"station_id":"ce4bhqp2rcd13ifvqhog","pricing_plan_id":"free"},{"bike_id":"d7b453b3-5883-4f31-a8d1-65d180f3c13b","system_id":"levelo_inurba_marseille","lat":43.32373,"lon":5.3889,"is_reserved":false,"is_disabled":false,"rental_uris":{"android":"levelo://app?vid=d7b453b3-5883-4f31-a8d1-65d180f3c13b","ios":"levelo://app?vid=d7b453b3-5883-4f31-a8d1-65d180f3c13b"},"vehicle_type_id":"4","last_reported":1691816744,"current_range_meters":30800,"station_id":"ce4bhqp2rcd13ifvqhog","pricing_plan_id":"free"},{"bike_id":"6aecaa49-9b6e-41dc-b434-0932f7b78f21","system_id":"levelo_inurba_marseille","lat":43.29593,"lon":5.38082,"is_reserved":false,"is_disabled":false,"rental_uris":{"android":"levelo://app?vid=6aecaa49-9b6e-41dc-b434-0932f7b78f21","ios":"levelo://app?vid=6aecaa49-9b6e-41dc-b434-0932f7b78f21"},"vehicle_type_id":"4","last_reported":1691816744,"current_range_meters":0,"station_id":"ce4bgl12rcd13ifvqbo0","pricing_plan_id":"free"},{"bike_id":"f145df05-0334-44b2-b8bb-6a8cd4575d38","system_id":"levelo_inurba_marseille","lat":43.2959,"lon":5.38082,"is_reserved":false,"is_disabled":false,"rental_uris":{"android":"levelo://app?vid=f145df05-0334-44b2-b8bb-6a8cd4575d38","ios":"levelo://app?vid=f145df05-0334-44b2-b8bb-6a8cd4575d38"},"vehicle_type_id":"4","last_reported":1691816744,"current_range_meters":0,"station_id":"ce4bgl12rcd13ifvqbo0","pricing_plan_id":"free"},{"bike_id":"636dcf88-6c18-4d85-be44-364933009690","system_id":"levelo_inurba_marseille","lat":43.29601,"lon":5.381084,"is_reserved":false,"is_disabled":false,"rental_uris":{"android":"levelo://app?vid=636dcf88-6c18-4d85-be44-364933009690","ios":"levelo://app?vid=636dcf88-6c18-4d85-be44-364933009690"},"vehicle_type_id":"4","last_reported":1691816744,"current_range_meters":7600,"station_id":"ce4bgl12rcd13ifvqbo0","pricing_plan_id":"free"},{"bike_id":"dbe406a0-e31d-4174-932b-0d8d584d17c2","system_id":"levelo_inurba_marseille","lat":43.292749,"lon":5.368398,"is_reserved":false,"is_disabled":false,"rental_uris":{"android":"levelo://app?vid=dbe406a0-e31d-4174-932b-0d8d584d17c2","ios":"levelo://app?vid=dbe406a0-e31d-4174-932b-0d8d584d17c2"},"vehicle_type_id":"4","last_reported":1691816744,"current_range_meters":31200,"station_id":"ce4bhbp2rcd13ifvqesg","pricing_plan_id":"free"},{"bike_id":"c64f58aa-5f91-4bee-9993-51df92e93ffd","system_id":"levelo_inurba_marseille","lat":43.293009,"lon":5.374584,"is_reserved":false,"is_disabled":false,"rental_uris":{"android":"levelo://app?vid=c64f58aa-5f91-4bee-9993-51df92e93ffd","ios":"levelo://app?vid=c64f58aa-5f91-4bee-9993-51df92e93ffd"},"vehicle_type_id":"4","last_reported":1691816744,"current_range_meters":28000,"station_id":"ce4bgi12rcd13ifvqb70","pricing_plan_id":"free"},{"bike_id":"8fa300df-f43a-4517-8be2-52360f65d294","system_id":"levelo_inurba_marseille","lat":43.302992,"lon":5.392136,"is_reserved":false,"is_disabled":false,"rental_uris":{"android":"levelo://app?vid=8fa300df-f43a-4517-8be2-52360f65d294","ios":"levelo://app?vid=8fa300df-f43a-4517-8be2-52360f65d294"},"vehicle_type_id":"4","last_reported":1691816744,"current_range_meters":27200,"station_id":"ce4bgkh2rcd13ifvqbk0","pricing_plan_id":"free"},{"bike_id":"b8b27893-333a-46ea-9589-35f1df92c76f","system_id":"levelo_inurba_marseille","lat":43.302992,"lon":5.392136,"is_reserved":false,"is_disabled":false,"rental_uris":{"android":"levelo://app?vid=b8b27893-333a-46ea-9589-35f1df92c76f","ios":"levelo://app?vid=b8b27893-333a-46ea-9589-35f1df92c76f"},"vehicle_type_id":"4","last_reported":1691816744,"current_range_meters":22400,"station_id":"ce4bgkh2rcd13ifvqbk0","pricing_plan_id":"free"},{"bike_id":"bf27f019-e129-4811-a004-17a2b04a26b7","system_id":"levelo_inurba_marseille","lat":43.300852,"lon":5.390859,"is_reserved":false,"is_disabled":false,"rental_uris":{"android":"levelo://app?vid=bf27f019-e129-4811-a004-17a2b04a26b7","ios":"levelo://app?vid=bf27f019-e129-4811-a004-17a2b04a26b7"},"vehicle_type_id":"4","last_reported":1691816744,"current_range_meters":9600,"station_id":"ce4bh192rcd13ifvqdb0","pricing_plan_id":"free"},{"bike_id":"b5ccccb3-7350-4721-b1b5-a3a98c5c85a2","system_id":"levelo_inurba_marseille","lat":43.300852,"lon":5.390859,"is_reserved":false,"is_disabled":false,"rental_uris":{"android":"levelo://app?vid=b5ccccb3-7350-4721-b1b5-a3a98c5c85a2","ios":"levelo://app?vid=b5ccccb3-7350-4721-b1b5-a3a98c5c85a2"},"vehicle_type_id":"4","last_reported":1691816744,"current_range_meters":26000,"station_id":"ce4bh192rcd13ifvqdb0","pricing_plan_id":"free"},{"bike_id":"a9a22371-205e-4450-8210-6a3d3796bf96","system_id":"levelo_inurba_marseille","lat":43.292311,"lon":5.360731,"is_reserved":false,"is_disabled":false,"rental_uris":{"android":"levelo://app?vid=a9a22371-205e-4450-8210-6a3d3796bf96","ios":"levelo://app?vid=a9a22371-205e-4450-8210-6a3d3796bf96"},"vehicle_type_id":"4","last_reported":1691816744,"current_range_meters":30000,"station_id":"ce4bhbh2rcd13ifvqeqg","pricing_plan_id":"free"},{"bike_id":"0ee60542-5b17-44fe-9e85-8e420f846971","system_id":"levelo_inurba_marseille","lat":43.292311,"lon":5.360731,"is_reserved":false,"is_disabled":false,"rental_uris":{"android":"levelo://app?vid=0ee60542-5b17-44fe-9e85-8e420f846971","ios":"levelo://app?vid=0ee60542-5b17-44fe-9e85-8e420f846971"},"vehicle_type_id":"4","last_reported":1691816744,"current_range_meters":29600,"station_id":"ce4bhbh2rcd13ifvqeqg","pricing_plan_id":"free"},{"bike_id":"4a59930a-3326-4a8e-a871-625495db469b","system_id":"levelo_inurba_marseille","lat":43.292311,"lon":5.360731,"is_reserved":false,"is_disabled":false,"rental_uris":{"android":"levelo://app?vid=4a59930a-3326-4a8e-a871-625495db469b","ios":"levelo://app?vid=4a59930a-3326-4a8e-a871-625495db469b"},"vehicle_type_id":"4","last_reported":1691816744,"current_range_meters":22800,"station_id":"ce4bhbh2rcd13ifvqeqg","pricing_plan_id":"free"},{"bike_id":"6c739de7-902e-4611-80d6-90d650dc7023","system_id":"levelo_inurba_marseille","lat":43.292311,"lon":5.360731,"is_reserved":false,"is_disabled":false,"rental_uris":{"android":"levelo://app?vid=6c739de7-902e-4611-80d6-90d650dc7023","ios":"levelo://app?vid=6c739de7-902e-4611-80d6-90d650dc7023"},"vehicle_type_id":"4","last_reported":1691816744,"current_range_meters":31200,"station_id":"ce4bhbh2rcd13ifvqeqg","pricing_plan_id":"free"},{"bike_id":"00170499-e735-4c85-88a5-ee37ada61fc2","system_id":"levelo_inurba_marseille","lat":43.292311,"lon":5.360731,"is_reserved":false,"is_disabled":false,"rental_uris":{"android":"levelo://app?vid=00170499-e735-4c85-88a5-ee37ada61fc2","ios":"levelo://app?vid=00170499-e735-4c85-88a5-ee37ada61fc2"},"vehicle_type_id":"4","last_reported":1691816744,"current_range_meters":28800,"station_id":"ce4bhbh2rcd13ifvqeqg","pricing_plan_id":"free"},{"bike_id":"23dc4947-f348-4fd8-a2b9-2011dd7dea95","system_id":"levelo_inurba_marseille","lat":43.292311,"lon":5.360731,"is_reserved":false,"is_disabled":false,"rental_uris":{"android":"levelo://app?vid=23dc4947-f348-4fd8-a2b9-2011dd7dea95","ios":"levelo://app?vid=23dc4947-f348-4fd8-a2b9-2011dd7dea95"},"vehicle_type_id":"4","last_reported":1691816744,"current_range_meters":31200,"station_id":"ce4bhbh2rcd13ifvqeqg","pricing_plan_id":"free"},{"bike_id":"49a20fd3-5839-4dc9-a5d2-d167743d1f6e","system_id":"levelo_inurba_marseille","lat":43.292311,"lon":5.360731,"is_reserved":false,"is_disabled":false,"rental_uris":{"android":"levelo://app?vid=49a20fd3-5839-4dc9-a5d2-d167743d1f6e","ios":"levelo://app?vid=49a20fd3-5839-4dc9-a5d2-d167743d1f6e"},"vehicle_type_id":"4","last_reported":1691816744,"current_range_meters":31200,"station_id":"ce4bhbh2rcd13ifvqeqg","pricing_plan_id":"free"},{"bike_id":"dd6ef037-10e8-4d4d-ab9a-3f2a0866494c","system_id":"levelo_inurba_marseille","lat":43.292311,"lon":5.360731,"is_reserved":false,"is_disabled":false,"rental_uris":{"android":"levelo://app?vid=dd6ef037-10e8-4d4d-ab9a-3f2a0866494c","ios":"levelo://app?vid=dd6ef037-10e8-4d4d-ab9a-3f2a0866494c"},"vehicle_type_id":"4","last_reported":1691816744,"current_range_meters":31200,"station_id":"ce4bhbh2rcd13ifvqeqg","pricing_plan_id":"free"},{"bike_id":"84832273-3e7b-417a-97ef-05dd379ae981","system_id":"levelo_inurba_marseille","lat":43.29893,"lon":5.38915,"is_reserved":false,"is_disabled":false,"rental_uris":{"android":"levelo://app?vid=84832273-3e7b-417a-97ef-05dd379ae981","ios":"levelo://app?vid=84832273-3e7b-417a-97ef-05dd379ae981"},"vehicle_type_id":"4","last_reported":1691816744,"current_range_meters":0,"station_id":"ce4bh392rcd13ifvqdl0","pricing_plan_id":"free"},{"bike_id":"52cb0192-2512-4327-a3cf-a5084f96382b","system_id":"levelo_inurba_marseille","lat":43.292663,"lon":5.376389,"is_reserved":false,"is_disabled":false,"rental_uris":{"android":"levelo://app?vid=52cb0192-2512-4327-a3cf-a5084f96382b","ios":"levelo://app?vid=52cb0192-2512-4327-a3cf-a5084f96382b"},"vehicle_type_id":"4","last_reported":1691816744,"current_range_meters":30000,"station_id":"ce4bgi12rcd13ifvqb80","pricing_plan_id":"free"},{"bike_id":"9057201c-0e1e-4248-9c4e-769ee6a99f24","system_id":"levelo_inurba_marseille","lat":43.29203,"lon":5.35794,"is_reserved":false,"is_disabled":false,"rental_uris":{"android":"levelo://app?vid=9057201c-0e1e-4248-9c4e-769ee6a99f24","ios":"levelo://app?vid=9057201c-0e1e-4248-9c4e-769ee6a99f24"},"vehicle_type_id":"4","last_reported":1691816744,"current_range_meters":6000,"station_id":"ce4bhb12rcd13ifvqel0","pricing_plan_id":"free"},{"bike_id":"4e833585-8834-47d8-9560-1063aef28c0c","system_id":"levelo_inurba_marseille","lat":43.3088,"lon":5.39628,"is_reserved":false,"is_disabled":false,"rental_uris":{"android":"levelo://app?vid=4e833585-8834-47d8-9560-1063aef28c0c","ios":"levelo://app?vid=4e833585-8834-47d8-9560-1063aef28c0c"},"vehicle_type_id":"4","last_reported":1691816744,"current_range_meters":21200,"station_id":"ce4bh012rcd13ifvqcv0","pricing_plan_id":"free"},{"bike_id":"5ceae46b-ddd8-4a2a-8284-e16bbb5fbfcc","system_id":"levelo_inurba_marseille","lat":43.30883,"lon":5.3963,"is_reserved":false,"is_disabled":false,"rental_uris":{"android":"levelo://app?vid=5ceae46b-ddd8-4a2a-8284-e16bbb5fbfcc","ios":"levelo://app?vid=5ceae46b-ddd8-4a2a-8284-e16bbb5fbfcc"},"vehicle_type_id":"4","last_reported":1691816744,"current_range_meters":15200,"station_id":"ce4bh012rcd13ifvqcv0","pricing_plan_id":"free"},{"bike_id":"43f2ad04-2004-4a77-a098-cdaf839f8e2f","system_id":"levelo_inurba_marseille","lat":43.30882,"lon":5.3963,"is_reserved":false,"is_disabled":false,"rental_uris":{"android":"levelo://app?vid=43f2ad04-2004-4a77-a098-cdaf839f8e2f","ios":"levelo://app?vid=43f2ad04-2004-4a77-a098-cdaf839f8e2f"},"vehicle_type_id":"4","last_reported":1691816744,"current_range_meters":31200,"station_id":"ce4bh012rcd13ifvqcv0","pricing_plan_id":"free"},{"bike_id":"bb1fe75b-0ce6-484b-84be-e25815a6963a","system_id":"levelo_inurba_marseille","lat":43.30882,"lon":5.39633,"is_reserved":false,"is_disabled":false,"rental_uris":{"android":"levelo://app?vid=bb1fe75b-0ce6-484b-84be-e25815a6963a","ios":"levelo://app?vid=bb1fe75b-0ce6-484b-84be-e25815a6963a"},"vehicle_type_id":"4","last_reported":1691816744,"current_range_meters":31200,"station_id":"ce4bh012rcd13ifvqcv0","pricing_plan_id":"free"},{"bike_id":"af303529-ec1d-4a4c-ad8b-719991c82db1","system_id":"levelo_inurba_marseille","lat":43.30881,"lon":5.39633,"is_reserved":false,"is_disabled":false,"rental_uris":{"android":"levelo://app?vid=af303529-ec1d-4a4c-ad8b-719991c82db1","ios":"levelo://app?vid=af303529-ec1d-4a4c-ad8b-719991c82db1"},"vehicle_type_id":"4","last_reported":1691816744,"current_range_meters":28400,"station_id":"ce4bh012rcd13ifvqcv0","pricing_plan_id":"free"},{"bike_id":"d0a79375-33bc-4607-a91a-930ef234f8af","system_id":"levelo_inurba_marseille","lat":43.3088,"lon":5.39634,"is_reserved":false,"is_disabled":false,"rental_uris":{"android":"levelo://app?vid=d0a79375-33bc-4607-a91a-930ef234f8af","ios":"levelo://app?vid=d0a79375-33bc-4607-a91a-930ef234f8af"},"vehicle_type_id":"4","last_reported":1691816744,"current_range_meters":21600,"station_id":"ce4bh012rcd13ifvqcv0","pricing_plan_id":"free"},{"bike_id":"1799338b-72a6-4483-90c6-97793cb4a29d","system_id":"levelo_inurba_marseille","lat":43.30882,"lon":5.39635,"is_reserved":false,"is_disabled":false,"rental_uris":{"android":"levelo://app?vid=1799338b-72a6-4483-90c6-97793cb4a29d","ios":"levelo://app?vid=1799338b-72a6-4483-90c6-97793cb4a29d"},"vehicle_type_id":"4","last_reported":1691816744,"current_range_meters":20800,"station_id":"ce4bh012rcd13ifvqcv0","pricing_plan_id":"free"},{"bike_id":"f9e7f4ae-1564-4a4b-a285-720f9fe61f26","system_id":"levelo_inurba_marseille","lat":43.309038,"lon":5.396546,"is_reserved":false,"is_disabled":false,"rental_uris":{"android":"levelo://app?vid=f9e7f4ae-1564-4a4b-a285-720f9fe61f26","ios":"levelo://app?vid=f9e7f4ae-1564-4a4b-a285-720f9fe61f26"},"vehicle_type_id":"4","last_reported":1691816744,"current_range_meters":10400,"station_id":"ce4bh012rcd13ifvqcv0","pricing_plan_id":"free"},{"bike_id":"a1660386-c08e-4669-b437-689a87eae397","system_id":"levelo_inurba_marseille","lat":43.30885,"lon":5.39637,"is_reserved":false,"is_disabled":false,"rental_uris":{"android":"levelo://app?vid=a1660386-c08e-4669-b437-689a87eae397","ios":"levelo://app?vid=a1660386-c08e-4669-b437-689a87eae397"},"vehicle_type_id":"4","last_reported":1691816744,"current_range_meters":30400,"station_id":"ce4bh012rcd13ifvqcv0","pricing_plan_id":"free"},{"bike_id":"ee70795b-9bc7-4c94-aa84-7f8c4e399bb6","system_id":"levelo_inurba_marseille","lat":43.30883,"lon":5.39637,"is_reserved":false,"is_disabled":false,"rental_uris":{"android":"levelo://app?vid=ee70795b-9bc7-4c94-aa84-7f8c4e399bb6","ios":"levelo://app?vid=ee70795b-9bc7-4c94-aa84-7f8c4e399bb6"},"vehicle_type_id":"4","last_reported":1691816744,"current_range_meters":28400,"station_id":"ce4bh012rcd13ifvqcv0","pricing_plan_id":"free"},{"bike_id":"fbff4b7d-3b36-451d-8d26-7bdab670076a","system_id":"levelo_inurba_marseille","lat":43.30883,"lon":5.39638,"is_reserved":false,"is_disabled":false,"rental_uris":{"android":"levelo://app?vid=fbff4b7d-3b36-451d-8d26-7bdab670076a","ios":"levelo://app?vid=fbff4b7d-3b36-451d-8d26-7bdab670076a"},"vehicle_type_id":"4","last_reported":1691816744,"current_range_meters":30400,"station_id":"ce4bh012rcd13ifvqcv0","pricing_plan_id":"free"},{"bike_id":"c75fde31-037b-4cdc-afb0-b1bcb91eb7a2","system_id":"levelo_inurba_marseille","lat":43.3088,"lon":5.39638,"is_reserved":false,"is_disabled":false,"rental_uris":{"android":"levelo://app?vid=c75fde31-037b-4cdc-afb0-b1bcb91eb7a2","ios":"levelo://app?vid=c75fde31-037b-4cdc-afb0-b1bcb91eb7a2"},"vehicle_type_id":"4","last_reported":1691816744,"current_range_meters":12000,"station_id":"ce4bh012rcd13ifvqcv0","pricing_plan_id":"free"},{"bike_id":"7ea449b7-b6ee-4520-8626-a0323b143213","system_id":"levelo_inurba_marseille","lat":43.30883,"lon":5.39641,"is_reserved":false,"is_disabled":false,"rental_uris":{"android":"levelo://app?vid=7ea449b7-b6ee-4520-8626-a0323b143213","ios":"levelo://app?vid=7ea449b7-b6ee-4520-8626-a0323b143213"},"vehicle_type_id":"4","last_reported":1691816744,"current_range_meters":31200,"station_id":"ce4bh012rcd13ifvqcv0","pricing_plan_id":"free"},{"bike_id":"53004f2d-488c-4d70-986a-5fd2dce9fadb","system_id":"levelo_inurba_marseille","lat":43.30887,"lon":5.39642,"is_reserved":false,"is_disabled":false,"rental_uris":{"android":"levelo://app?vid=53004f2d-488c-4d70-986a-5fd2dce9fadb","ios":"levelo://app?vid=53004f2d-488c-4d70-986a-5fd2dce9fadb"},"vehicle_type_id":"4","last_reported":1691816744,"current_range_meters":31200,"station_id":"ce4bh012rcd13ifvqcv0","pricing_plan_id":"free"},{"bike_id":"673a5d5f-aa9b-45a5-86b5-308651dc6b63","system_id":"levelo_inurba_marseille","lat":43.31332,"lon":5.3969,"is_reserved":false,"is_disabled":false,"rental_uris":{"android":"levelo://app?vid=673a5d5f-aa9b-45a5-86b5-308651dc6b63","ios":"levelo://app?vid=673a5d5f-aa9b-45a5-86b5-308651dc6b63"},"vehicle_type_id":"4","last_reported":1691816744,"current_range_meters":29600,"station_id":"ce4bgvp2rcd13ifvqcu0","pricing_plan_id":"free"},{"bike_id":"8dcfa56c-f89d-4d87-af3c-ee822bd2a086","system_id":"levelo_inurba_marseille","lat":43.3133,"lon":5.39691,"is_reserved":false,"is_disabled":false,"rental_uris":{"android":"levelo://app?vid=8dcfa56c-f89d-4d87-af3c-ee822bd2a086","ios":"levelo://app?vid=8dcfa56c-f89d-4d87-af3c-ee822bd2a086"},"vehicle_type_id":"4","last_reported":1691816744,"current_range_meters":19200,"station_id":"ce4bgvp2rcd13ifvqcu0","pricing_plan_id":"free"},{"bike_id":"744aa810-ace3-4551-a08d-06f1ba1c36f7","system_id":"levelo_inurba_marseille","lat":43.30885,"lon":5.39644,"is_reserved":false,"is_disabled":false,"rental_uris":{"android":"levelo://app?vid=744aa810-ace3-4551-a08d-06f1ba1c36f7","ios":"levelo://app?vid=744aa810-ace3-4551-a08d-06f1ba1c36f7"},"vehicle_type_id":"4","last_reported":1691816744,"current_range_meters":10400,"station_id":"ce4bh012rcd13ifvqcv0","pricing_plan_id":"free"},{"bike_id":"85191532-0175-41b2-ab9f-a0b8940a31e8","system_id":"levelo_inurba_marseille","lat":43.30882,"lon":5.39644,"is_reserved":false,"is_disabled":false,"rental_uris":{"android":"levelo://app?vid=85191532-0175-41b2-ab9f-a0b8940a31e8","ios":"levelo://app?vid=85191532-0175-41b2-ab9f-a0b8940a31e8"},"vehicle_type_id":"4","last_reported":1691816744,"current_range_meters":12000,"station_id":"ce4bh012rcd13ifvqcv0","pricing_plan_id":"free"},{"bike_id":"6f4dd07a-a2fb-4274-a2be-4eef471c9329","system_id":"levelo_inurba_marseille","lat":43.31326,"lon":5.39694,"is_reserved":false,"is_disabled":false,"rental_uris":{"android":"levelo://app?vid=6f4dd07a-a2fb-4274-a2be-4eef471c9329","ios":"levelo://app?vid=6f4dd07a-a2fb-4274-a2be-4eef471c9329"},"vehicle_type_id":"4","last_reported":1691816744,"current_range_meters":28800,"station_id":"ce4bgvp2rcd13ifvqcu0","pricing_plan_id":"free"},{"bike_id":"cb017f35-7a9a-4220-be9f-c5e7944ce457","system_id":"levelo_inurba_marseille","lat":43.31327,"lon":5.39694,"is_reserved":false,"is_disabled":false,"rental_uris":{"android":"levelo://app?vid=cb017f35-7a9a-4220-be9f-c5e7944ce457","ios":"levelo://app?vid=cb017f35-7a9a-4220-be9f-c5e7944ce457"},"vehicle_type_id":"4","last_reported":1691816744,"current_range_meters":9600,"station_id":"ce4bgvp2rcd13ifvqcu0","pricing_plan_id":"free"},{"bike_id":"0d35c190-ac64-4baa-b98e-b02f4b1bb17d","system_id":"levelo_inurba_marseille","lat":43.313291,"lon":5.396838,"is_reserved":false,"is_disabled":false,"rental_uris":{"android":"levelo://app?vid=0d35c190-ac64-4baa-b98e-b02f4b1bb17d","ios":"levelo://app?vid=0d35c190-ac64-4baa-b98e-b02f4b1bb17d"},"vehicle_type_id":"4","last_reported":1691816744,"current_range_meters":24400,"station_id":"ce4bgvp2rcd13ifvqcu0","pricing_plan_id":"free"},{"bike_id":"3471a966-fe27-48a8-8edf-7c1b86079b4f","system_id":"levelo_inurba_marseille","lat":43.31333,"lon":5.39696,"is_reserved":false,"is_disabled":false,"rental_uris":{"android":"levelo://app?vid=3471a966-fe27-48a8-8edf-7c1b86079b4f","ios":"levelo://app?vid=3471a966-fe27-48a8-8edf-7c1b86079b4f"},"vehicle_type_id":"4","last_reported":1691816744,"current_range_meters":20400,"station_id":"ce4bgvp2rcd13ifvqcu0","pricing_plan_id":"free"},{"bike_id":"df8543cd-caca-4182-96c1-b5047a0822f0","system_id":"levelo_inurba_marseille","lat":43.31333,"lon":5.39696,"is_reserved":false,"is_disabled":false,"rental_uris":{"android":"levelo://app?vid=df8543cd-caca-4182-96c1-b5047a0822f0","ios":"levelo://app?vid=df8543cd-caca-4182-96c1-b5047a0822f0"},"vehicle_type_id":"4","last_reported":1691816744,"current_range_meters":30400,"station_id":"ce4bgvp2rcd13ifvqcu0","pricing_plan_id":"free"},{"bike_id":"ca19e6c6-4d85-4640-8644-0af1ff1eb24e","system_id":"levelo_inurba_marseille","lat":43.31333,"lon":5.39697,"is_reserved":false,"is_disabled":false,"rental_uris":{"android":"levelo://app?vid=ca19e6c6-4d85-4640-8644-0af1ff1eb24e","ios":"levelo://app?vid=ca19e6c6-4d85-4640-8644-0af1ff1eb24e"},"vehicle_type_id":"4","last_reported":1691816744,"current_range_meters":23200,"station_id":"ce4bgvp2rcd13ifvqcu0","pricing_plan_id":"free"},{"bike_id":"bd038360-e5e1-45fd-b524-0527750c9f05","system_id":"levelo_inurba_marseille","lat":43.31329,"lon":5.39698,"is_reserved":false,"is_disabled":false,"rental_uris":{"android":"levelo://app?vid=bd038360-e5e1-45fd-b524-0527750c9f05","ios":"levelo://app?vid=bd038360-e5e1-45fd-b524-0527750c9f05"},"vehicle_type_id":"4","last_reported":1691816744,"current_range_meters":31200,"station_id":"ce4bgvp2rcd13ifvqcu0","pricing_plan_id":"free"},{"bike_id":"6456b7f2-e2f2-4964-892a-c5b1cc808eb7","system_id":"levelo_inurba_marseille","lat":43.313291,"lon":5.396838,"is_reserved":false,"is_disabled":false,"rental_uris":{"android":"levelo://app?vid=6456b7f2-e2f2-4964-892a-c5b1cc808eb7","ios":"levelo://app?vid=6456b7f2-e2f2-4964-892a-c5b1cc808eb7"},"vehicle_type_id":"4","last_reported":1691816744,"current_range_meters":31200,"station_id":"ce4bgvp2rcd13ifvqcu0","pricing_plan_id":"free"},{"bike_id":"e9bbb1ae-ed71-4c6f-9415-f0773ffb6caf","system_id":"levelo_inurba_marseille","lat":43.313291,"lon":5.396838,"is_reserved":false,"is_disabled":false,"rental_uris":{"android":"levelo://app?vid=e9bbb1ae-ed71-4c6f-9415-f0773ffb6caf","ios":"levelo://app?vid=e9bbb1ae-ed71-4c6f-9415-f0773ffb6caf"},"vehicle_type_id":"4","last_reported":1691816744,"current_range_meters":30800,"station_id":"ce4bgvp2rcd13ifvqcu0","pricing_plan_id":"free"},{"bike_id":"059221ec-d7b8-44d4-9c06-c84fd2c97d58","system_id":"levelo_inurba_marseille","lat":43.31331,"lon":5.39704,"is_reserved":false,"is_disabled":false,"rental_uris":{"android":"levelo://app?vid=059221ec-d7b8-44d4-9c06-c84fd2c97d58","ios":"levelo://app?vid=059221ec-d7b8-44d4-9c06-c84fd2c97d58"},"vehicle_type_id":"4","last_reported":1691816744,"current_range_meters":29600,"station_id":"ce4bgvp2rcd13ifvqcu0","pricing_plan_id":"free"},{"bike_id":"91ff1dcf-18ea-46b8-9d3f-66ce5d652d02","system_id":"levelo_inurba_marseille","lat":43.302008,"lon":5.394694,"is_reserved":false,"is_disabled":false,"rental_uris":{"android":"levelo://app?vid=91ff1dcf-18ea-46b8-9d3f-66ce5d652d02","ios":"levelo://app?vid=91ff1dcf-18ea-46b8-9d3f-66ce5d652d02"},"vehicle_type_id":"4","last_reported":1691816744,"current_range_meters":26800,"station_id":"ce4bh0p2rcd13ifvqd70","pricing_plan_id":"free"},{"bike_id":"81f43867-2a98-4a7e-9162-a45f1577deb5","system_id":"levelo_inurba_marseille","lat":43.302008,"lon":5.394694,"is_reserved":false,"is_disabled":false,"rental_uris":{"android":"levelo://app?vid=81f43867-2a98-4a7e-9162-a45f1577deb5","ios":"levelo://app?vid=81f43867-2a98-4a7e-9162-a45f1577deb5"},"vehicle_type_id":"4","last_reported":1691816744,"current_range_meters":18400,"station_id":"ce4bh0p2rcd13ifvqd70","pricing_plan_id":"free"},{"bike_id":"0b5d9763-3780-464b-9d38-1bc0b8343af7","system_id":"levelo_inurba_marseille","lat":43.302008,"lon":5.394694,"is_reserved":false,"is_disabled":false,"rental_uris":{"android":"levelo://app?vid=0b5d9763-3780-464b-9d38-1bc0b8343af7","ios":"levelo://app?vid=0b5d9763-3780-464b-9d38-1bc0b8343af7"},"vehicle_type_id":"4","last_reported":1691816744,"current_range_meters":27600,"station_id":"ce4bh0p2rcd13ifvqd70","pricing_plan_id":"free"},{"bike_id":"8f836c84-b705-4893-baf7-643f9582e4b7","system_id":"levelo_inurba_marseille","lat":43.302008,"lon":5.394694,"is_reserved":false,"is_disabled":false,"rental_uris":{"android":"levelo://app?vid=8f836c84-b705-4893-baf7-643f9582e4b7","ios":"levelo://app?vid=8f836c84-b705-4893-baf7-643f9582e4b7"},"vehicle_type_id":"4","last_reported":1691816744,"current_range_meters":23600,"station_id":"ce4bh0p2rcd13ifvqd70","pricing_plan_id":"free"},{"bike_id":"e961ab8a-0fbe-40b2-ab4b-7535ceb5dad2","system_id":"levelo_inurba_marseille","lat":43.302008,"lon":5.394694,"is_reserved":false,"is_disabled":false,"rental_uris":{"android":"levelo://app?vid=e961ab8a-0fbe-40b2-ab4b-7535ceb5dad2","ios":"levelo://app?vid=e961ab8a-0fbe-40b2-ab4b-7535ceb5dad2"},"vehicle_type_id":"4","last_reported":1691816744,"current_range_meters":31200,"station_id":"ce4bh0p2rcd13ifvqd70","pricing_plan_id":"free"},{"bike_id":"52905d18-3996-4af8-9a21-a3b0f18fc169","system_id":"levelo_inurba_marseille","lat":43.29426,"lon":5.38623,"is_reserved":false,"is_disabled":false,"rental_uris":{"android":"levelo://app?vid=52905d18-3996-4af8-9a21-a3b0f18fc169","ios":"levelo://app?vid=52905d18-3996-4af8-9a21-a3b0f18fc169"},"vehicle_type_id":"4","last_reported":1691816744,"current_range_meters":0,"station_id":"ce4bh2h2rcd13ifvqdh0","pricing_plan_id":"free"},{"bike_id":"c9c8be08-e1b4-43da-a993-a2d9a0d40556","system_id":"levelo_inurba_marseille","lat":43.290327,"lon":5.375711,"is_reserved":false,"is_disabled":false,"rental_uris":{"android":"levelo://app?vid=c9c8be08-e1b4-43da-a993-a2d9a0d40556","ios":"levelo://app?vid=c9c8be08-e1b4-43da-a993-a2d9a0d40556"},"vehicle_type_id":"4","last_reported":1691816744,"current_range_meters":28400,"station_id":"ce4bh692rcd13ifvqe90","pricing_plan_id":"free"},{"bike_id":"1c7078e4-a3b3-4796-8109-0a73e6b03084","system_id":"levelo_inurba_marseille","lat":43.29419,"lon":5.38626,"is_reserved":false,"is_disabled":false,"rental_uris":{"android":"levelo://app?vid=1c7078e4-a3b3-4796-8109-0a73e6b03084","ios":"levelo://app?vid=1c7078e4-a3b3-4796-8109-0a73e6b03084"},"vehicle_type_id":"4","last_reported":1691816744,"current_range_meters":29600,"station_id":"","pricing_plan_id":"free"},{"bike_id":"a9b1523e-3489-4524-89d8-7798d0ef0890","system_id":"levelo_inurba_marseille","lat":43.289468,"lon":5.363719,"is_reserved":false,"is_disabled":false,"rental_uris":{"android":"levelo://app?vid=a9b1523e-3489-4524-89d8-7798d0ef0890","ios":"levelo://app?vid=a9b1523e-3489-4524-89d8-7798d0ef0890"},"vehicle_type_id":"4","last_reported":1691816744,"current_range_meters":8000,"station_id":"ce4bhc92rcd13ifvqetg","pricing_plan_id":"free"},{"bike_id":"03fe4a84-c82e-4572-9d5d-1d0fb77c95e4","system_id":"levelo_inurba_marseille","lat":43.28942,"lon":5.36627,"is_reserved":false,"is_disabled":false,"rental_uris":{"android":"levelo://app?vid=03fe4a84-c82e-4572-9d5d-1d0fb77c95e4","ios":"levelo://app?vid=03fe4a84-c82e-4572-9d5d-1d0fb77c95e4"},"vehicle_type_id":"4","last_reported":1691816744,"current_range_meters":6000,"station_id":"ce4bhap2rcd13ifvqek0","pricing_plan_id":"free"},{"bike_id":"ee46db68-559e-4b07-8463-c59fdc82003b","system_id":"levelo_inurba_marseille","lat":43.289184,"lon":5.366408,"is_reserved":false,"is_disabled":false,"rental_uris":{"android":"levelo://app?vid=ee46db68-559e-4b07-8463-c59fdc82003b","ios":"levelo://app?vid=ee46db68-559e-4b07-8463-c59fdc82003b"},"vehicle_type_id":"4","last_reported":1691816744,"current_range_meters":14000,"station_id":"ce4bhap2rcd13ifvqek0","pricing_plan_id":"free"},{"bike_id":"2fcfd48d-4208-4195-82d6-96c37cb64993","system_id":"levelo_inurba_marseille","lat":43.289184,"lon":5.366408,"is_reserved":false,"is_disabled":false,"rental_uris":{"android":"levelo://app?vid=2fcfd48d-4208-4195-82d6-96c37cb64993","ios":"levelo://app?vid=2fcfd48d-4208-4195-82d6-96c37cb64993"},"vehicle_type_id":"4","last_reported":1691816744,"current_range_meters":31600,"station_id":"ce4bhap2rcd13ifvqek0","pricing_plan_id":"free"},{"bike_id":"68034ef9-4910-4291-98c0-3f2144e7b9ea","system_id":"levelo_inurba_marseille","lat":43.289184,"lon":5.366408,"is_reserved":false,"is_disabled":false,"rental_uris":{"android":"levelo://app?vid=68034ef9-4910-4291-98c0-3f2144e7b9ea","ios":"levelo://app?vid=68034ef9-4910-4291-98c0-3f2144e7b9ea"},"vehicle_type_id":"4","last_reported":1691816744,"current_range_meters":22000,"station_id":"ce4bhap2rcd13ifvqek0","pricing_plan_id":"free"},{"bike_id":"b522b87f-35e7-4ed0-afa0-249e21213c00","system_id":"levelo_inurba_marseille","lat":43.289468,"lon":5.363719,"is_reserved":false,"is_disabled":false,"rental_uris":{"android":"levelo://app?vid=b522b87f-35e7-4ed0-afa0-249e21213c00","ios":"levelo://app?vid=b522b87f-35e7-4ed0-afa0-249e21213c00"},"vehicle_type_id":"4","last_reported":1691816744,"current_range_meters":29600,"station_id":"ce4bhc92rcd13ifvqetg","pricing_plan_id":"free"},{"bike_id":"3c9c882c-0e81-49af-8b13-1d4433fd14be","system_id":"levelo_inurba_marseille","lat":43.304296,"lon":5.397513,"is_reserved":false,"is_disabled":false,"rental_uris":{"android":"levelo://app?vid=3c9c882c-0e81-49af-8b13-1d4433fd14be","ios":"levelo://app?vid=3c9c882c-0e81-49af-8b13-1d4433fd14be"},"vehicle_type_id":"4","last_reported":1691816744,"current_range_meters":31200,"station_id":"ce4bh092rcd13ifvqd20","pricing_plan_id":"free"},{"bike_id":"257494e3-3b12-45f3-b9f1-9d3633c8fb94","system_id":"levelo_inurba_marseille","lat":43.30419,"lon":5.39753,"is_reserved":false,"is_disabled":false,"rental_uris":{"android":"levelo://app?vid=257494e3-3b12-45f3-b9f1-9d3633c8fb94","ios":"levelo://app?vid=257494e3-3b12-45f3-b9f1-9d3633c8fb94"},"vehicle_type_id":"4","last_reported":1691816744,"current_range_meters":0,"station_id":"ce4bh092rcd13ifvqd20","pricing_plan_id":"free"},{"bike_id":"69c23820-b8c4-4b33-a6c2-28beb4ed1d2a","system_id":"levelo_inurba_marseille","lat":43.330357,"lon":5.38912,"is_reserved":false,"is_disabled":false,"rental_uris":{"android":"levelo://app?vid=69c23820-b8c4-4b33-a6c2-28beb4ed1d2a","ios":"levelo://app?vid=69c23820-b8c4-4b33-a6c2-28beb4ed1d2a"},"vehicle_type_id":"4","last_reported":1691816744,"current_range_meters":14800,"station_id":"","pricing_plan_id":"free"},{"bike_id":"7b78d55e-e99c-4fa7-968a-c672d6912f00","system_id":"levelo_inurba_marseille","lat":43.29007,"lon":5.3562,"is_reserved":false,"is_disabled":false,"rental_uris":{"android":"levelo://app?vid=7b78d55e-e99c-4fa7-968a-c672d6912f00","ios":"levelo://app?vid=7b78d55e-e99c-4fa7-968a-c672d6912f00"},"vehicle_type_id":"4","last_reported":1691816744,"current_range_meters":30400,"station_id":"ce4bhb92rcd13ifvqen0","pricing_plan_id":"free"},{"bike_id":"e670912e-4d64-418d-a115-4ee484695e56","system_id":"levelo_inurba_marseille","lat":43.33048,"lon":5.38911,"is_reserved":false,"is_disabled":false,"rental_uris":{"android":"levelo://app?vid=e670912e-4d64-418d-a115-4ee484695e56","ios":"levelo://app?vid=e670912e-4d64-418d-a115-4ee484695e56"},"vehicle_type_id":"4","last_reported":1691816744,"current_range_meters":16400,"station_id":"ce4bhr92rcd13ifvqhrg","pricing_plan_id":"free"},{"bike_id":"b85048dc-02f0-4b4d-9a31-dc69b5a08eba","system_id":"levelo_inurba_marseille","lat":43.33044,"lon":5.38918,"is_reserved":false,"is_disabled":false,"rental_uris":{"android":"levelo://app?vid=b85048dc-02f0-4b4d-9a31-dc69b5a08eba","ios":"levelo://app?vid=b85048dc-02f0-4b4d-9a31-dc69b5a08eba"},"vehicle_type_id":"4","last_reported":1691816744,"current_range_meters":400,"station_id":"ce4bhr92rcd13ifvqhrg","pricing_plan_id":"free"},{"bike_id":"97d4156f-5db6-4edb-b007-9bb7f9496df8","system_id":"levelo_inurba_marseille","lat":43.33046,"lon":5.38916,"is_reserved":false,"is_disabled":false,"rental_uris":{"android":"levelo://app?vid=97d4156f-5db6-4edb-b007-9bb7f9496df8","ios":"levelo://app?vid=97d4156f-5db6-4edb-b007-9bb7f9496df8"},"vehicle_type_id":"4","last_reported":1691816744,"current_range_meters":24800,"station_id":"ce4bhr92rcd13ifvqhrg","pricing_plan_id":"free"},{"bike_id":"455260f5-201e-45ac-8473-9f69d25d2f7d","system_id":"levelo_inurba_marseille","lat":43.33045,"lon":5.38918,"is_reserved":false,"is_disabled":false,"rental_uris":{"android":"levelo://app?vid=455260f5-201e-45ac-8473-9f69d25d2f7d","ios":"levelo://app?vid=455260f5-201e-45ac-8473-9f69d25d2f7d"},"vehicle_type_id":"4","last_reported":1691816744,"current_range_meters":13600,"station_id":"ce4bhr92rcd13ifvqhrg","pricing_plan_id":"free"},{"bike_id":"5359e639-b9a2-4606-b521-46f66d2820c7","system_id":"levelo_inurba_marseille","lat":43.33046,"lon":5.38917,"is_reserved":false,"is_disabled":false,"rental_uris":{"android":"levelo://app?vid=5359e639-b9a2-4606-b521-46f66d2820c7","ios":"levelo://app?vid=5359e639-b9a2-4606-b521-46f66d2820c7"},"vehicle_type_id":"4","last_reported":1691816744,"current_range_meters":31200,"station_id":"ce4bhr92rcd13ifvqhrg","pricing_plan_id":"free"},{"bike_id":"9056849e-5b86-44ea-9c2b-2b42c2c1f5e4","system_id":"levelo_inurba_marseille","lat":43.33045,"lon":5.3892,"is_reserved":false,"is_disabled":false,"rental_uris":{"android":"levelo://app?vid=9056849e-5b86-44ea-9c2b-2b42c2c1f5e4","ios":"levelo://app?vid=9056849e-5b86-44ea-9c2b-2b42c2c1f5e4"},"vehicle_type_id":"4","last_reported":1691816744,"current_range_meters":23200,"station_id":"ce4bhr92rcd13ifvqhrg","pricing_plan_id":"free"},{"bike_id":"8fede235-a3fa-4085-b5fb-515c17a98fa1","system_id":"levelo_inurba_marseille","lat":43.33045,"lon":5.3892,"is_reserved":false,"is_disabled":false,"rental_uris":{"android":"levelo://app?vid=8fede235-a3fa-4085-b5fb-515c17a98fa1","ios":"levelo://app?vid=8fede235-a3fa-4085-b5fb-515c17a98fa1"},"vehicle_type_id":"4","last_reported":1691816744,"current_range_meters":19200,"station_id":"ce4bhr92rcd13ifvqhrg","pricing_plan_id":"free"},{"bike_id":"d92191b5-3897-428d-989c-4b986c7a7e64","system_id":"levelo_inurba_marseille","lat":43.29004,"lon":5.35612,"is_reserved":false,"is_disabled":false,"rental_uris":{"android":"levelo://app?vid=d92191b5-3897-428d-989c-4b986c7a7e64","ios":"levelo://app?vid=d92191b5-3897-428d-989c-4b986c7a7e64"},"vehicle_type_id":"4","last_reported":1691816744,"current_range_meters":20800,"station_id":"ce4bhb92rcd13ifvqen0","pricing_plan_id":"free"},{"bike_id":"35189a75-c04b-4663-a0ea-5e4f078b5510","system_id":"levelo_inurba_marseille","lat":43.29796,"lon":5.39338,"is_reserved":false,"is_disabled":false,"rental_uris":{"android":"levelo://app?vid=35189a75-c04b-4663-a0ea-5e4f078b5510","ios":"levelo://app?vid=35189a75-c04b-4663-a0ea-5e4f078b5510"},"vehicle_type_id":"4","last_reported":1691816744,"current_range_meters":29600,"station_id":"chh1huq6cuj3fo74tm60","pricing_plan_id":"free"},{"bike_id":"cbfad15d-468f-470e-acbb-10f110b9a0ca","system_id":"levelo_inurba_marseille","lat":43.295169,"lon":5.390426,"is_reserved":false,"is_disabled":false,"rental_uris":{"android":"levelo://app?vid=cbfad15d-468f-470e-acbb-10f110b9a0ca","ios":"levelo://app?vid=cbfad15d-468f-470e-acbb-10f110b9a0ca"},"vehicle_type_id":"4","last_reported":1691816744,"current_range_meters":22400,"station_id":"ce4bh3p2rcd13ifvqdp0","pricing_plan_id":"free"},{"bike_id":"41613532-4adf-4209-92f9-6f9a6c10fc46","system_id":"levelo_inurba_marseille","lat":43.297815,"lon":5.393548,"is_reserved":false,"is_disabled":false,"rental_uris":{"android":"levelo://app?vid=41613532-4adf-4209-92f9-6f9a6c10fc46","ios":"levelo://app?vid=41613532-4adf-4209-92f9-6f9a6c10fc46"},"vehicle_type_id":"4","last_reported":1691816744,"current_range_meters":29200,"station_id":"chh1huq6cuj3fo74tm60","pricing_plan_id":"free"},{"bike_id":"07fdb908-3fcb-44e6-ac31-a3de89e12b0e","system_id":"levelo_inurba_marseille","lat":43.295169,"lon":5.390426,"is_reserved":false,"is_disabled":false,"rental_uris":{"android":"levelo://app?vid=07fdb908-3fcb-44e6-ac31-a3de89e12b0e","ios":"levelo://app?vid=07fdb908-3fcb-44e6-ac31-a3de89e12b0e"},"vehicle_type_id":"4","last_reported":1691816744,"current_range_meters":16000,"station_id":"ce4bh3p2rcd13ifvqdp0","pricing_plan_id":"free"},{"bike_id":"6305d4a1-6367-4d2a-b9b3-35edbd10b43a","system_id":"levelo_inurba_marseille","lat":43.295169,"lon":5.390426,"is_reserved":false,"is_disabled":false,"rental_uris":{"android":"levelo://app?vid=6305d4a1-6367-4d2a-b9b3-35edbd10b43a","ios":"levelo://app?vid=6305d4a1-6367-4d2a-b9b3-35edbd10b43a"},"vehicle_type_id":"4","last_reported":1691816744,"current_range_meters":31200,"station_id":"ce4bh3p2rcd13ifvqdp0","pricing_plan_id":"free"},{"bike_id":"c4b0aa63-7248-4c69-80eb-f0aa4c35dc39","system_id":"levelo_inurba_marseille","lat":43.33036,"lon":5.39108,"is_reserved":false,"is_disabled":false,"rental_uris":{"android":"levelo://app?vid=c4b0aa63-7248-4c69-80eb-f0aa4c35dc39","ios":"levelo://app?vid=c4b0aa63-7248-4c69-80eb-f0aa4c35dc39"},"vehicle_type_id":"4","last_reported":1691816744,"current_range_meters":8400,"station_id":"","pricing_plan_id":"free"},{"bike_id":"930a49ac-e2c4-4b47-ba41-53a4086a87f3","system_id":"levelo_inurba_marseille","lat":43.28856,"lon":5.358371,"is_reserved":false,"is_disabled":false,"rental_uris":{"android":"levelo://app?vid=930a49ac-e2c4-4b47-ba41-53a4086a87f3","ios":"levelo://app?vid=930a49ac-e2c4-4b47-ba41-53a4086a87f3"},"vehicle_type_id":"4","last_reported":1691816744,"current_range_meters":28000,"station_id":"ce4bhb12rcd13ifvqem0","pricing_plan_id":"free"},{"bike_id":"c3ca3b1a-a4b4-4d18-82ed-3bdf97b7bb45","system_id":"levelo_inurba_marseille","lat":43.28844,"lon":5.35845,"is_reserved":false,"is_disabled":false,"rental_uris":{"android":"levelo://app?vid=c3ca3b1a-a4b4-4d18-82ed-3bdf97b7bb45","ios":"levelo://app?vid=c3ca3b1a-a4b4-4d18-82ed-3bdf97b7bb45"},"vehicle_type_id":"4","last_reported":1691816744,"current_range_meters":31200,"station_id":"ce4bhb12rcd13ifvqem0","pricing_plan_id":"free"},{"bike_id":"cfa02ff8-39f3-4509-9300-1715bbf950a8","system_id":"levelo_inurba_marseille","lat":43.28832,"lon":5.35852,"is_reserved":false,"is_disabled":false,"rental_uris":{"android":"levelo://app?vid=cfa02ff8-39f3-4509-9300-1715bbf950a8","ios":"levelo://app?vid=cfa02ff8-39f3-4509-9300-1715bbf950a8"},"vehicle_type_id":"4","last_reported":1691816744,"current_range_meters":12000,"station_id":"ce4bhb12rcd13ifvqem0","pricing_plan_id":"free"},{"bike_id":"b4ec3432-bf85-4eed-af0f-fb085e2c43f0","system_id":"levelo_inurba_marseille","lat":43.31277,"lon":5.40163,"is_reserved":false,"is_disabled":false,"rental_uris":{"android":"levelo://app?vid=b4ec3432-bf85-4eed-af0f-fb085e2c43f0","ios":"levelo://app?vid=b4ec3432-bf85-4eed-af0f-fb085e2c43f0"},"vehicle_type_id":"4","last_reported":1691816744,"current_range_meters":31200,"station_id":"ce4bh092rcd13ifvqd30","pricing_plan_id":"free"},{"bike_id":"68fcbc4f-1b9c-4bfc-a44a-6b81a14e411b","system_id":"levelo_inurba_marseille","lat":43.30935,"lon":5.40134,"is_reserved":false,"is_disabled":false,"rental_uris":{"android":"levelo://app?vid=68fcbc4f-1b9c-4bfc-a44a-6b81a14e411b","ios":"levelo://app?vid=68fcbc4f-1b9c-4bfc-a44a-6b81a14e411b"},"vehicle_type_id":"4","last_reported":1691816744,"current_range_meters":19200,"station_id":"ce4bgvp2rcd13ifvqct0","pricing_plan_id":"free"},{"bike_id":"c705d5aa-9610-427d-89a5-57f8d83e9adb","system_id":"levelo_inurba_marseille","lat":43.31278,"lon":5.40167,"is_reserved":false,"is_disabled":false,"rental_uris":{"android":"levelo://app?vid=c705d5aa-9610-427d-89a5-57f8d83e9adb","ios":"levelo://app?vid=c705d5aa-9610-427d-89a5-57f8d83e9adb"},"vehicle_type_id":"4","last_reported":1691816744,"current_range_meters":8000,"station_id":"ce4bh092rcd13ifvqd30","pricing_plan_id":"free"},{"bike_id":"7a99e987-4eba-4d86-8510-b90d8e5e3183","system_id":"levelo_inurba_marseille","lat":43.31279,"lon":5.40167,"is_reserved":false,"is_disabled":false,"rental_uris":{"android":"levelo://app?vid=7a99e987-4eba-4d86-8510-b90d8e5e3183","ios":"levelo://app?vid=7a99e987-4eba-4d86-8510-b90d8e5e3183"},"vehicle_type_id":"4","last_reported":1691816744,"current_range_meters":31200,"station_id":"ce4bh092rcd13ifvqd30","pricing_plan_id":"free"},{"bike_id":"a8820a9d-e440-4458-8de2-7264216f3f12","system_id":"levelo_inurba_marseille","lat":43.312609,"lon":5.401662,"is_reserved":false,"is_disabled":false,"rental_uris":{"android":"levelo://app?vid=a8820a9d-e440-4458-8de2-7264216f3f12","ios":"levelo://app?vid=a8820a9d-e440-4458-8de2-7264216f3f12"},"vehicle_type_id":"4","last_reported":1691816744,"current_range_meters":14000,"station_id":"ce4bh092rcd13ifvqd30","pricing_plan_id":"free"},{"bike_id":"c8cd1ce0-3d12-4042-8e66-e995e1de255a","system_id":"levelo_inurba_marseille","lat":43.312609,"lon":5.401662,"is_reserved":false,"is_disabled":false,"rental_uris":{"android":"levelo://app?vid=c8cd1ce0-3d12-4042-8e66-e995e1de255a","ios":"levelo://app?vid=c8cd1ce0-3d12-4042-8e66-e995e1de255a"},"vehicle_type_id":"4","last_reported":1691816744,"current_range_meters":19200,"station_id":"ce4bh092rcd13ifvqd30","pricing_plan_id":"free"},{"bike_id":"86098345-b416-4e32-8439-a1fc94f0a14b","system_id":"levelo_inurba_marseille","lat":43.3127,"lon":5.40173,"is_reserved":false,"is_disabled":false,"rental_uris":{"android":"levelo://app?vid=86098345-b416-4e32-8439-a1fc94f0a14b","ios":"levelo://app?vid=86098345-b416-4e32-8439-a1fc94f0a14b"},"vehicle_type_id":"4","last_reported":1691816744,"current_range_meters":31200,"station_id":"ce4bh092rcd13ifvqd30","pricing_plan_id":"free"},{"bike_id":"11626fa2-46cc-4fe5-8890-1629c230794f","system_id":"levelo_inurba_marseille","lat":43.309371,"lon":5.401449,"is_reserved":false,"is_disabled":false,"rental_uris":{"android":"levelo://app?vid=11626fa2-46cc-4fe5-8890-1629c230794f","ios":"levelo://app?vid=11626fa2-46cc-4fe5-8890-1629c230794f"},"vehicle_type_id":"4","last_reported":1691816744,"current_range_meters":30800,"station_id":"ce4bgvp2rcd13ifvqct0","pricing_plan_id":"free"},{"bike_id":"54afeb21-cacd-4eda-b1ca-3ef597007446","system_id":"levelo_inurba_marseille","lat":43.309371,"lon":5.401449,"is_reserved":false,"is_disabled":false,"rental_uris":{"android":"levelo://app?vid=54afeb21-cacd-4eda-b1ca-3ef597007446","ios":"levelo://app?vid=54afeb21-cacd-4eda-b1ca-3ef597007446"},"vehicle_type_id":"4","last_reported":1691816744,"current_range_meters":10000,"station_id":"ce4bgvp2rcd13ifvqct0","pricing_plan_id":"free"},{"bike_id":"882d2839-28fb-45a9-8365-fc904fd4e75a","system_id":"levelo_inurba_marseille","lat":43.30942,"lon":5.40146,"is_reserved":false,"is_disabled":false,"rental_uris":{"android":"levelo://app?vid=882d2839-28fb-45a9-8365-fc904fd4e75a","ios":"levelo://app?vid=882d2839-28fb-45a9-8365-fc904fd4e75a"},"vehicle_type_id":"4","last_reported":1691816744,"current_range_meters":30800,"station_id":"ce4bgvp2rcd13ifvqct0","pricing_plan_id":"free"},{"bike_id":"23a49f32-241e-4639-b575-9da5460a5c19","system_id":"levelo_inurba_marseille","lat":43.30934,"lon":5.40146,"is_reserved":false,"is_disabled":false,"rental_uris":{"android":"levelo://app?vid=23a49f32-241e-4639-b575-9da5460a5c19","ios":"levelo://app?vid=23a49f32-241e-4639-b575-9da5460a5c19"},"vehicle_type_id":"4","last_reported":1691816744,"current_range_meters":22400,"station_id":"ce4bgvp2rcd13ifvqct0","pricing_plan_id":"free"},{"bike_id":"39f555b2-3fee-4bf3-8ba2-3b7554a2a72d","system_id":"levelo_inurba_marseille","lat":43.31264,"lon":5.40181,"is_reserved":false,"is_disabled":false,"rental_uris":{"android":"levelo://app?vid=39f555b2-3fee-4bf3-8ba2-3b7554a2a72d","ios":"levelo://app?vid=39f555b2-3fee-4bf3-8ba2-3b7554a2a72d"},"vehicle_type_id":"4","last_reported":1691816744,"current_range_meters":6000,"station_id":"ce4bh092rcd13ifvqd30","pricing_plan_id":"free"},{"bike_id":"35c13da9-400f-4e16-9185-ac518ef7e626","system_id":"levelo_inurba_marseille","lat":43.309371,"lon":5.401449,"is_reserved":false,"is_disabled":false,"rental_uris":{"android":"levelo://app?vid=35c13da9-400f-4e16-9185-ac518ef7e626","ios":"levelo://app?vid=35c13da9-400f-4e16-9185-ac518ef7e626"},"vehicle_type_id":"4","last_reported":1691816744,"current_range_meters":8400,"station_id":"ce4bgvp2rcd13ifvqct0","pricing_plan_id":"free"},{"bike_id":"5d8ff918-ee29-4234-921e-d82145574941","system_id":"levelo_inurba_marseille","lat":43.309371,"lon":5.401449,"is_reserved":false,"is_disabled":false,"rental_uris":{"android":"levelo://app?vid=5d8ff918-ee29-4234-921e-d82145574941","ios":"levelo://app?vid=5d8ff918-ee29-4234-921e-d82145574941"},"vehicle_type_id":"4","last_reported":1691816744,"current_range_meters":21600,"station_id":"ce4bgvp2rcd13ifvqct0","pricing_plan_id":"free"},{"bike_id":"86c892da-0b79-4362-bf13-1be33fed67d5","system_id":"levelo_inurba_marseille","lat":43.33757,"lon":5.37465,"is_reserved":false,"is_disabled":false,"rental_uris":{"android":"levelo://app?vid=86c892da-0b79-4362-bf13-1be33fed67d5","ios":"levelo://app?vid=86c892da-0b79-4362-bf13-1be33fed67d5"},"vehicle_type_id":"4","last_reported":1691816744,"current_range_meters":10800,"station_id":"","pricing_plan_id":"free"},{"bike_id":"05565c5e-020d-4297-9bb7-e1a1323ef023","system_id":"levelo_inurba_marseille","lat":43.30644,"lon":5.40088,"is_reserved":false,"is_disabled":false,"rental_uris":{"android":"levelo://app?vid=05565c5e-020d-4297-9bb7-e1a1323ef023","ios":"levelo://app?vid=05565c5e-020d-4297-9bb7-e1a1323ef023"},"vehicle_type_id":"4","last_reported":1691816744,"current_range_meters":18400,"station_id":"ce4bh112rcd13ifvqda0","pricing_plan_id":"free"},{"bike_id":"610eb55d-13d4-46d0-a987-7740ca7f106b","system_id":"levelo_inurba_marseille","lat":43.30646,"lon":5.401,"is_reserved":false,"is_disabled":false,"rental_uris":{"android":"levelo://app?vid=610eb55d-13d4-46d0-a987-7740ca7f106b","ios":"levelo://app?vid=610eb55d-13d4-46d0-a987-7740ca7f106b"},"vehicle_type_id":"4","last_reported":1691816744,"current_range_meters":22400,"station_id":"ce4bh112rcd13ifvqda0","pricing_plan_id":"free"},{"bike_id":"8bf02a6e-de4f-4dd3-bf75-d8ce8c9c7277","system_id":"levelo_inurba_marseille","lat":43.30646,"lon":5.40102,"is_reserved":false,"is_disabled":false,"rental_uris":{"android":"levelo://app?vid=8bf02a6e-de4f-4dd3-bf75-d8ce8c9c7277","ios":"levelo://app?vid=8bf02a6e-de4f-4dd3-bf75-d8ce8c9c7277"},"vehicle_type_id":"4","last_reported":1691816744,"current_range_meters":19600,"station_id":"ce4bh112rcd13ifvqda0","pricing_plan_id":"free"},{"bike_id":"5353cce8-8485-4a52-a516-6e83f3d9b1a7","system_id":"levelo_inurba_marseille","lat":43.301117,"lon":5.398795,"is_reserved":false,"is_disabled":false,"rental_uris":{"android":"levelo://app?vid=5353cce8-8485-4a52-a516-6e83f3d9b1a7","ios":"levelo://app?vid=5353cce8-8485-4a52-a516-6e83f3d9b1a7"},"vehicle_type_id":"4","last_reported":1691816744,"current_range_meters":24800,"station_id":"ce4bh0h2rcd13ifvqd40","pricing_plan_id":"free"},{"bike_id":"4b078038-b1a4-4708-8ff1-b5462abcad02","system_id":"levelo_inurba_marseille","lat":43.301117,"lon":5.398795,"is_reserved":false,"is_disabled":false,"rental_uris":{"android":"levelo://app?vid=4b078038-b1a4-4708-8ff1-b5462abcad02","ios":"levelo://app?vid=4b078038-b1a4-4708-8ff1-b5462abcad02"},"vehicle_type_id":"4","last_reported":1691816744,"current_range_meters":31600,"station_id":"ce4bh0h2rcd13ifvqd40","pricing_plan_id":"free"},{"bike_id":"ad8de787-fd73-4937-ae00-7dd7baf60b68","system_id":"levelo_inurba_marseille","lat":43.301117,"lon":5.398795,"is_reserved":false,"is_disabled":false,"rental_uris":{"android":"levelo://app?vid=ad8de787-fd73-4937-ae00-7dd7baf60b68","ios":"levelo://app?vid=ad8de787-fd73-4937-ae00-7dd7baf60b68"},"vehicle_type_id":"4","last_reported":1691816744,"current_range_meters":31200,"station_id":"ce4bh0h2rcd13ifvqd40","pricing_plan_id":"free"},{"bike_id":"a4152038-9569-46c9-bd9b-2d9e18662d3a","system_id":"levelo_inurba_marseille","lat":43.301117,"lon":5.398795,"is_reserved":false,"is_disabled":false,"rental_uris":{"android":"levelo://app?vid=a4152038-9569-46c9-bd9b-2d9e18662d3a","ios":"levelo://app?vid=a4152038-9569-46c9-bd9b-2d9e18662d3a"},"vehicle_type_id":"4","last_reported":1691816744,"current_range_meters":19600,"station_id":"ce4bh0h2rcd13ifvqd40","pricing_plan_id":"free"},{"bike_id":"ad2a05f5-6179-4266-8c88-48c58927c17d","system_id":"levelo_inurba_marseille","lat":43.301117,"lon":5.398795,"is_reserved":false,"is_disabled":false,"rental_uris":{"android":"levelo://app?vid=ad2a05f5-6179-4266-8c88-48c58927c17d","ios":"levelo://app?vid=ad2a05f5-6179-4266-8c88-48c58927c17d"},"vehicle_type_id":"4","last_reported":1691816744,"current_range_meters":12800,"station_id":"ce4bh0h2rcd13ifvqd40","pricing_plan_id":"free"},{"bike_id":"dc539943-6f17-4f29-81cb-de0bffaf7e26","system_id":"levelo_inurba_marseille","lat":43.301117,"lon":5.398795,"is_reserved":false,"is_disabled":false,"rental_uris":{"android":"levelo://app?vid=dc539943-6f17-4f29-81cb-de0bffaf7e26","ios":"levelo://app?vid=dc539943-6f17-4f29-81cb-de0bffaf7e26"},"vehicle_type_id":"4","last_reported":1691816744,"current_range_meters":31600,"station_id":"ce4bh0h2rcd13ifvqd40","pricing_plan_id":"free"},{"bike_id":"b97b889d-5a2d-4af1-8808-ce062eddd0cf","system_id":"levelo_inurba_marseille","lat":43.301117,"lon":5.398795,"is_reserved":false,"is_disabled":false,"rental_uris":{"android":"levelo://app?vid=b97b889d-5a2d-4af1-8808-ce062eddd0cf","ios":"levelo://app?vid=b97b889d-5a2d-4af1-8808-ce062eddd0cf"},"vehicle_type_id":"4","last_reported":1691816744,"current_range_meters":31200,"station_id":"ce4bh0h2rcd13ifvqd40","pricing_plan_id":"free"},{"bike_id":"17b30cd3-8674-4f3c-b70e-fdb5ba57f42d","system_id":"levelo_inurba_marseille","lat":43.301117,"lon":5.398795,"is_reserved":false,"is_disabled":false,"rental_uris":{"android":"levelo://app?vid=17b30cd3-8674-4f3c-b70e-fdb5ba57f42d","ios":"levelo://app?vid=17b30cd3-8674-4f3c-b70e-fdb5ba57f42d"},