{"last_updated":1725721693,"ttl":30,"version":"2.2","data":{"bikes":[{"bike_id":"4a1e4cf0-d4f6-412d-bf5f-689c45b52bce","system_id":"levelo_inurba_marseille","lat":43.31233,"lon":5.36845,"is_reserved":false,"is_disabled":false,"rental_uris":{"android":"levelo://app?vid=4a1e4cf0-d4f6-412d-bf5f-689c45b52bce","ios":"levelo://app?vid=4a1e4cf0-d4f6-412d-bf5f-689c45b52bce"},"vehicle_type_id":"4","last_reported":1725721693,"current_range_meters":0,"station_id":"ce4bgl92rcd13ifvqbq0","pricing_plan_id":"cebpf4jnsgd1na2vs0mg"},{"bike_id":"a7141734-f184-4092-b002-c511f1a28fd3","system_id":"levelo_inurba_marseille","lat":43.312239,"lon":5.368562,"is_reserved":false,"is_disabled":false,"rental_uris":{"android":"levelo://app?vid=a7141734-f184-4092-b002-c511f1a28fd3","ios":"levelo://app?vid=a7141734-f184-4092-b002-c511f1a28fd3"},"vehicle_type_id":"4","last_reported":1725721693,"current_range_meters":12800,"station_id":"ce4bgl92rcd13ifvqbq0","pricing_plan_id":"cebpf4jnsgd1na2vs0mg"},{"bike_id":"5d2d0c40-fdec-47b6-b37f-ec8a507c2f35","system_id":"levelo_inurba_marseille","lat":43.312234,"lon":5.368573,"is_reserved":false,"is_disabled":false,"rental_uris":{"android":"levelo://app?vid=5d2d0c40-fdec-47b6-b37f-ec8a507c2f35","ios":"levelo://app?vid=5d2d0c40-fdec-47b6-b37f-ec8a507c2f35"},"vehicle_type_id":"4","last_reported":1725721693,"current_range_meters":24800,"station_id":"ce4bgl92rcd13ifvqbq0","pricing_plan_id":"cebpf4jnsgd1na2vs0mg"},{"bike_id":"683d77f4-10df-42dd-b339-95e272942eb6","system_id":"levelo_inurba_marseille","lat":43.309076,"lon":5.368465,"is_reserved":false,"is_disabled":false,"rental_uris":{"android":"levelo://app?vid=683d77f4-10df-42dd-b339-95e272942eb6","ios":"levelo://app?vid=683d77f4-10df-42dd-b339-95e272942eb6"},"vehicle_type_id":"4","last_reported":1725721693,"current_range_meters":17600,"station_id":"ce4bgn92rcd13ifvqbvg","pricing_plan_id":"cebpf4jnsgd1na2vs0mg"},{"bike_id":"c90df943-6c5d-4039-b316-fa276bd815c6","system_id":"levelo_inurba_marseille","lat":43.309076,"lon":5.368465,"is_reserved":false,"is_disabled":false,"rental_uris":{"android":"levelo://app?vid=c90df943-6c5d-4039-b316-fa276bd815c6","ios":"levelo://app?vid=c90df943-6c5d-4039-b316-fa276bd815c6"},"vehicle_type_id":"4","last_reported":1725721693,"current_range_meters":26000,"station_id":"ce4bgn92rcd13ifvqbvg","pricing_plan_id":"cebpf4jnsgd1na2vs0mg"},{"bike_id":"b8fec6a3-09ab-4ffe-a0e3-e01fe70b7121","system_id":"levelo_inurba_marseille","lat":43.309039,"lon":5.371797,"is_reserved":false,"is_disabled":false,"rental_uris":{"android":"levelo://app?vid=b8fec6a3-09ab-4ffe-a0e3-e01fe70b7121","ios":"levelo://app?vid=b8fec6a3-09ab-4ffe-a0e3-e01fe70b7121"},"vehicle_type_id":"4","last_reported":1725721693,"current_range_meters":11600,"station_id":"ce4bguh2rcd13ifvqckg","pricing_plan_id":"cebpf4jnsgd1na2vs0mg"},{"bike_id":"8b646ce2-91fb-4891-b36b-6c5d27cf67b1","system_id":"levelo_inurba_marseille","lat":43.314811,"lon":5.373104,"is_reserved":false,"is_disabled":false,"rental_uris":{"android":"levelo://app?vid=8b646ce2-91fb-4891-b36b-6c5d27cf67b1","ios":"levelo://app?vid=8b646ce2-91fb-4891-b36b-6c5d27cf67b1"},"vehicle_type_id":"4","last_reported":1725721693,"current_range_meters":29200,"station_id":"ce4bgt12rcd13ifvqcd0","pricing_plan_id":"cebpf4jnsgd1na2vs0mg"},{"bike_id":"da4160f6-f0cd-4093-93c2-1bc61f606e3c","system_id":"levelo_inurba_marseille","lat":43.30627,"lon":5.36575,"is_reserved":false,"is_disabled":false,"rental_uris":{"android":"levelo://app?vid=da4160f6-f0cd-4093-93c2-1bc61f606e3c","ios":"levelo://app?vid=da4160f6-f0cd-4093-93c2-1bc61f606e3c"},"vehicle_type_id":"4","last_reported":1725721693,"current_range_meters":400,"station_id":"","pricing_plan_id":"cebpf4jnsgd1na2vs0mg"},{"bike_id":"801a5227-8a0a-4abb-9ca6-f3b2d6144db3","system_id":"levelo_inurba_marseille","lat":43.30537,"lon":5.367345,"is_reserved":false,"is_disabled":false,"rental_uris":{"android":"levelo://app?vid=801a5227-8a0a-4abb-9ca6-f3b2d6144db3","ios":"levelo://app?vid=801a5227-8a0a-4abb-9ca6-f3b2d6144db3"},"vehicle_type_id":"4","last_reported":1725721693,"current_range_meters":1600,"station_id":"ce4bgrp2rcd13ifvqc9g","pricing_plan_id":"cebpf4jnsgd1na2vs0mg"},{"bike_id":"8005ac2c-56f4-4c1f-ab3b-3af85cc4a843","system_id":"levelo_inurba_marseille","lat":43.305714,"lon":5.365633,"is_reserved":false,"is_disabled":false,"rental_uris":{"android":"levelo://app?vid=8005ac2c-56f4-4c1f-ab3b-3af85cc4a843","ios":"levelo://app?vid=8005ac2c-56f4-4c1f-ab3b-3af85cc4a843"},"vehicle_type_id":"4","last_reported":1725721693,"current_range_meters":800,"station_id":"ce4bgs12rcd13ifvqcag","pricing_plan_id":"cebpf4jnsgd1na2vs0mg"},{"bike_id":"3dcd50a9-2ef1-4a6a-8161-afc9b42cf9f7","system_id":"levelo_inurba_marseille","lat":43.305368,"lon":5.367343,"is_reserved":false,"is_disabled":false,"rental_uris":{"android":"levelo://app?vid=3dcd50a9-2ef1-4a6a-8161-afc9b42cf9f7","ios":"levelo://app?vid=3dcd50a9-2ef1-4a6a-8161-afc9b42cf9f7"},"vehicle_type_id":"4","last_reported":1725721693,"current_range_meters":0,"station_id":"ce4bgrp2rcd13ifvqc9g","pricing_plan_id":"cebpf4jnsgd1na2vs0mg"},{"bike_id":"e5ce9bf3-d841-4715-9897-c170d9bc34d4","system_id":"levelo_inurba_marseille","lat":43.311125,"lon":5.377624,"is_reserved":false,"is_disabled":false,"rental_uris":{"android":"levelo://app?vid=e5ce9bf3-d841-4715-9897-c170d9bc34d4","ios":"levelo://app?vid=e5ce9bf3-d841-4715-9897-c170d9bc34d4"},"vehicle_type_id":"4","last_reported":1725721693,"current_range_meters":10800,"station_id":"ce4bgt92rcd13ifvqcg0","pricing_plan_id":"cebpf4jnsgd1na2vs0mg"},{"bike_id":"d7277a75-ff5d-4680-93ad-b0359cfb2dc8","system_id":"levelo_inurba_marseille","lat":43.307945,"lon":5.376487,"is_reserved":false,"is_disabled":false,"rental_uris":{"android":"levelo://app?vid=d7277a75-ff5d-4680-93ad-b0359cfb2dc8","ios":"levelo://app?vid=d7277a75-ff5d-4680-93ad-b0359cfb2dc8"},"vehicle_type_id":"4","last_reported":1725721693,"current_range_meters":4000,"station_id":"ce4bgv92rcd13ifvqcq0","pricing_plan_id":"cebpf4jnsgd1na2vs0mg"},{"bike_id":"f452c192-afed-4b85-9e1f-fd8bb3d470b1","system_id":"levelo_inurba_marseille","lat":43.311125,"lon":5.377624,"is_reserved":false,"is_disabled":false,"rental_uris":{"android":"levelo://app?vid=f452c192-afed-4b85-9e1f-fd8bb3d470b1","ios":"levelo://app?vid=f452c192-afed-4b85-9e1f-fd8bb3d470b1"},"vehicle_type_id":"4","last_reported":1725721693,"current_range_meters":7600,"station_id":"ce4bgt92rcd13ifvqcg0","pricing_plan_id":"cebpf4jnsgd1na2vs0mg"},{"bike_id":"e6240958-5766-4e43-be3c-5414d3e93fa9","system_id":"levelo_inurba_marseille","lat":43.31354,"lon":5.37918,"is_reserved":false,"is_disabled":false,"rental_uris":{"android":"levelo://app?vid=e6240958-5766-4e43-be3c-5414d3e93fa9","ios":"levelo://app?vid=e6240958-5766-4e43-be3c-5414d3e93fa9"},"vehicle_type_id":"4","last_reported":1725721693,"current_range_meters":22800,"station_id":"","pricing_plan_id":"cebpf4jnsgd1na2vs0mg"},{"bike_id":"0e8e4e1a-9ceb-46a9-b9cf-5416d9ef11fe","system_id":"levelo_inurba_marseille","lat":43.311125,"lon":5.377624,"is_reserved":false,"is_disabled":false,"rental_uris":{"android":"levelo://app?vid=0e8e4e1a-9ceb-46a9-b9cf-5416d9ef11fe","ios":"levelo://app?vid=0e8e4e1a-9ceb-46a9-b9cf-5416d9ef11fe"},"vehicle_type_id":"4","last_reported":1725721693,"current_range_meters":30000,"station_id":"ce4bgt92rcd13ifvqcg0","pricing_plan_id":"cebpf4jnsgd1na2vs0mg"},{"bike_id":"036ede4f-cf34-41e7-90a9-6d60afc737e2","system_id":"levelo_inurba_marseille","lat":43.303046,"lon":5.368981,"is_reserved":false,"is_disabled":false,"rental_uris":{"android":"levelo://app?vid=036ede4f-cf34-41e7-90a9-6d60afc737e2","ios":"levelo://app?vid=036ede4f-cf34-41e7-90a9-6d60afc737e2"},"vehicle_type_id":"4","last_reported":1725721693,"current_range_meters":25600,"station_id":"ce4bgqh2rcd13ifvqc5g","pricing_plan_id":"cebpf4jnsgd1na2vs0mg"},{"bike_id":"2f64a74e-08a3-4130-a3d4-4f2ba383eb76","system_id":"levelo_inurba_marseille","lat":43.303046,"lon":5.368981,"is_reserved":false,"is_disabled":false,"rental_uris":{"android":"levelo://app?vid=2f64a74e-08a3-4130-a3d4-4f2ba383eb76","ios":"levelo://app?vid=2f64a74e-08a3-4130-a3d4-4f2ba383eb76"},"vehicle_type_id":"4","last_reported":1725721693,"current_range_meters":20000,"station_id":"ce4bgqh2rcd13ifvqc5g","pricing_plan_id":"cebpf4jnsgd1na2vs0mg"},{"bike_id":"b58bbec2-337c-466d-b432-5373f1c601e7","system_id":"levelo_inurba_marseille","lat":43.302877,"lon":5.370298,"is_reserved":false,"is_disabled":false,"rental_uris":{"android":"levelo://app?vid=b58bbec2-337c-466d-b432-5373f1c601e7","ios":"levelo://app?vid=b58bbec2-337c-466d-b432-5373f1c601e7"},"vehicle_type_id":"4","last_reported":1725721693,"current_range_meters":6400,"station_id":"","pricing_plan_id":"cebpf4jnsgd1na2vs0mg"},{"bike_id":"5c7e602c-f961-461f-96ab-799dea8e8115","system_id":"levelo_inurba_marseille","lat":43.32315,"lon":5.36737,"is_reserved":false,"is_disabled":false,"rental_uris":{"android":"levelo://app?vid=5c7e602c-f961-461f-96ab-799dea8e8115","ios":"levelo://app?vid=5c7e602c-f961-461f-96ab-799dea8e8115"},"vehicle_type_id":"4","last_reported":1725721693,"current_range_meters":14400,"station_id":"","pricing_plan_id":"cebpf4jnsgd1na2vs0mg"},{"bike_id":"d29339c7-82f3-45ee-b4c0-d08c5df9c71b","system_id":"levelo_inurba_marseille","lat":43.301939,"lon":5.366286,"is_reserved":false,"is_disabled":false,"rental_uris":{"android":"levelo://app?vid=d29339c7-82f3-45ee-b4c0-d08c5df9c71b","ios":"levelo://app?vid=d29339c7-82f3-45ee-b4c0-d08c5df9c71b"},"vehicle_type_id":"4","last_reported":1725721693,"current_range_meters":29200,"station_id":"ce4bgrh2rcd13ifvqc8g","pricing_plan_id":"cebpf4jnsgd1na2vs0mg"},{"bike_id":"78e39722-010c-4c08-9051-fdec142c4b6e","system_id":"levelo_inurba_marseille","lat":43.304606,"lon":5.379026,"is_reserved":false,"is_disabled":false,"rental_uris":{"android":"levelo://app?vid=78e39722-010c-4c08-9051-fdec142c4b6e","ios":"levelo://app?vid=78e39722-010c-4c08-9051-fdec142c4b6e"},"vehicle_type_id":"4","last_reported":1725721693,"current_range_meters":12800,"station_id":"ce4bgup2rcd13ifvqcn0","pricing_plan_id":"cebpf4jnsgd1na2vs0mg"},{"bike_id":"08efdfe0-5bcf-414f-8166-34a96d371519","system_id":"levelo_inurba_marseille","lat":43.324771,"lon":5.36557,"is_reserved":false,"is_disabled":false,"rental_uris":{"android":"levelo://app?vid=08efdfe0-5bcf-414f-8166-34a96d371519","ios":"levelo://app?vid=08efdfe0-5bcf-414f-8166-34a96d371519"},"vehicle_type_id":"4","last_reported":1725721693,"current_range_meters":2400,"station_id":"ce4bhs12rcd13ifvqhvg","pricing_plan_id":"cebpf4jnsgd1na2vs0mg"},{"bike_id":"0984b71c-6f69-448e-8521-2cb8a14f6e06","system_id":"levelo_inurba_marseille","lat":43.324771,"lon":5.36557,"is_reserved":false,"is_disabled":false,"rental_uris":{"android":"levelo://app?vid=0984b71c-6f69-448e-8521-2cb8a14f6e06","ios":"levelo://app?vid=0984b71c-6f69-448e-8521-2cb8a14f6e06"},"vehicle_type_id":"4","last_reported":1725721693,"current_range_meters":30400,"station_id":"ce4bhs12rcd13ifvqhvg","pricing_plan_id":"cebpf4jnsgd1na2vs0mg"},{"bike_id":"c30bb852-e35e-45ef-b5b6-a933a90c8e44","system_id":"levelo_inurba_marseille","lat":43.324771,"lon":5.36557,"is_reserved":false,"is_disabled":false,"rental_uris":{"android":"levelo://app?vid=c30bb852-e35e-45ef-b5b6-a933a90c8e44","ios":"levelo://app?vid=c30bb852-e35e-45ef-b5b6-a933a90c8e44"},"vehicle_type_id":"4","last_reported":1725721693,"current_range_meters":31200,"station_id":"ce4bhs12rcd13ifvqhvg","pricing_plan_id":"cebpf4jnsgd1na2vs0mg"},{"bike_id":"33a5524d-9e06-48a0-b030-c181cf3ce0c9","system_id":"levelo_inurba_marseille","lat":43.324771,"lon":5.36557,"is_reserved":false,"is_disabled":false,"rental_uris":{"android":"levelo://app?vid=33a5524d-9e06-48a0-b030-c181cf3ce0c9","ios":"levelo://app?vid=33a5524d-9e06-48a0-b030-c181cf3ce0c9"},"vehicle_type_id":"4","last_reported":1725721693,"current_range_meters":11600,"station_id":"ce4bhs12rcd13ifvqhvg","pricing_plan_id":"cebpf4jnsgd1na2vs0mg"},{"bike_id":"9852a7d1-2a68-4e32-81bb-13cf4bf09a07","system_id":"levelo_inurba_marseille","lat":43.324771,"lon":5.36557,"is_reserved":false,"is_disabled":false,"rental_uris":{"android":"levelo://app?vid=9852a7d1-2a68-4e32-81bb-13cf4bf09a07","ios":"levelo://app?vid=9852a7d1-2a68-4e32-81bb-13cf4bf09a07"},"vehicle_type_id":"4","last_reported":1725721693,"current_range_meters":4800,"station_id":"ce4bhs12rcd13ifvqhvg","pricing_plan_id":"cebpf4jnsgd1na2vs0mg"},{"bike_id":"d5959fbd-009b-4440-810f-601f3cb302d3","system_id":"levelo_inurba_marseille","lat":43.324771,"lon":5.36557,"is_reserved":false,"is_disabled":false,"rental_uris":{"android":"levelo://app?vid=d5959fbd-009b-4440-810f-601f3cb302d3","ios":"levelo://app?vid=d5959fbd-009b-4440-810f-601f3cb302d3"},"vehicle_type_id":"4","last_reported":1725721693,"current_range_meters":6400,"station_id":"ce4bhs12rcd13ifvqhvg","pricing_plan_id":"cebpf4jnsgd1na2vs0mg"},{"bike_id":"0affed82-db5d-4f1c-9824-f792968eeb44","system_id":"levelo_inurba_marseille","lat":43.324771,"lon":5.36557,"is_reserved":false,"is_disabled":false,"rental_uris":{"android":"levelo://app?vid=0affed82-db5d-4f1c-9824-f792968eeb44","ios":"levelo://app?vid=0affed82-db5d-4f1c-9824-f792968eeb44"},"vehicle_type_id":"4","last_reported":1725721693,"current_range_meters":26400,"station_id":"ce4bhs12rcd13ifvqhvg","pricing_plan_id":"cebpf4jnsgd1na2vs0mg"},{"bike_id":"8e8b7298-bda1-42f1-9283-662fa4189aca","system_id":"levelo_inurba_marseille","lat":43.324771,"lon":5.36557,"is_reserved":false,"is_disabled":false,"rental_uris":{"android":"levelo://app?vid=8e8b7298-bda1-42f1-9283-662fa4189aca","ios":"levelo://app?vid=8e8b7298-bda1-42f1-9283-662fa4189aca"},"vehicle_type_id":"4","last_reported":1725721693,"current_range_meters":30800,"station_id":"ce4bhs12rcd13ifvqhvg","pricing_plan_id":"cebpf4jnsgd1na2vs0mg"},{"bike_id":"65c91795-2ec5-482a-afb8-a5b9b4bc73cc","system_id":"levelo_inurba_marseille","lat":43.32486,"lon":5.36573,"is_reserved":false,"is_disabled":false,"rental_uris":{"android":"levelo://app?vid=65c91795-2ec5-482a-afb8-a5b9b4bc73cc","ios":"levelo://app?vid=65c91795-2ec5-482a-afb8-a5b9b4bc73cc"},"vehicle_type_id":"4","last_reported":1725721693,"current_range_meters":0,"station_id":"ce4bhs12rcd13ifvqhvg","pricing_plan_id":"cebpf4jnsgd1na2vs0mg"},{"bike_id":"abfe27c3-4cda-4707-819f-a6aab898bde3","system_id":"levelo_inurba_marseille","lat":43.324771,"lon":5.36557,"is_reserved":false,"is_disabled":false,"rental_uris":{"android":"levelo://app?vid=abfe27c3-4cda-4707-819f-a6aab898bde3","ios":"levelo://app?vid=abfe27c3-4cda-4707-819f-a6aab898bde3"},"vehicle_type_id":"4","last_reported":1725721693,"current_range_meters":10400,"station_id":"ce4bhs12rcd13ifvqhvg","pricing_plan_id":"cebpf4jnsgd1na2vs0mg"},{"bike_id":"02cd1cfe-43ea-41e2-8fd2-da57c83eb4d7","system_id":"levelo_inurba_marseille","lat":43.30149,"lon":5.37417,"is_reserved":false,"is_disabled":false,"rental_uris":{"android":"levelo://app?vid=02cd1cfe-43ea-41e2-8fd2-da57c83eb4d7","ios":"levelo://app?vid=02cd1cfe-43ea-41e2-8fd2-da57c83eb4d7"},"vehicle_type_id":"4","last_reported":1725721693,"current_range_meters":16800,"station_id":"ce4bgs92rcd13ifvqcc0","pricing_plan_id":"cebpf4jnsgd1na2vs0mg"},{"bike_id":"b26d5acd-d920-4e89-b638-c23a34f428dc","system_id":"levelo_inurba_marseille","lat":43.301429,"lon":5.37413,"is_reserved":false,"is_disabled":false,"rental_uris":{"android":"levelo://app?vid=b26d5acd-d920-4e89-b638-c23a34f428dc","ios":"levelo://app?vid=b26d5acd-d920-4e89-b638-c23a34f428dc"},"vehicle_type_id":"4","last_reported":1725721693,"current_range_meters":17200,"station_id":"ce4bgs92rcd13ifvqcc0","pricing_plan_id":"cebpf4jnsgd1na2vs0mg"},{"bike_id":"27a744c3-0677-4797-8cea-f51d7c01baaf","system_id":"levelo_inurba_marseille","lat":43.301433,"lon":5.374127,"is_reserved":false,"is_disabled":false,"rental_uris":{"android":"levelo://app?vid=27a744c3-0677-4797-8cea-f51d7c01baaf","ios":"levelo://app?vid=27a744c3-0677-4797-8cea-f51d7c01baaf"},"vehicle_type_id":"4","last_reported":1725721693,"current_range_meters":12000,"station_id":"ce4bgs92rcd13ifvqcc0","pricing_plan_id":"cebpf4jnsgd1na2vs0mg"},{"bike_id":"0258a2ec-3943-45a3-a38c-2d3a4a922e3b","system_id":"levelo_inurba_marseille","lat":43.30143,"lon":5.37413,"is_reserved":false,"is_disabled":false,"rental_uris":{"android":"levelo://app?vid=0258a2ec-3943-45a3-a38c-2d3a4a922e3b","ios":"levelo://app?vid=0258a2ec-3943-45a3-a38c-2d3a4a922e3b"},"vehicle_type_id":"4","last_reported":1725721693,"current_range_meters":30800,"station_id":"ce4bgs92rcd13ifvqcc0","pricing_plan_id":"cebpf4jnsgd1na2vs0mg"},{"bike_id":"26a4e841-63c4-4ead-b151-539bde1ac509","system_id":"levelo_inurba_marseille","lat":43.301429,"lon":5.37413,"is_reserved":false,"is_disabled":false,"rental_uris":{"android":"levelo://app?vid=26a4e841-63c4-4ead-b151-539bde1ac509","ios":"levelo://app?vid=26a4e841-63c4-4ead-b151-539bde1ac509"},"vehicle_type_id":"4","last_reported":1725721693,"current_range_meters":20400,"station_id":"ce4bgs92rcd13ifvqcc0","pricing_plan_id":"cebpf4jnsgd1na2vs0mg"},{"bike_id":"98a8bbc4-06f4-4919-a3f5-afb5248d8d11","system_id":"levelo_inurba_marseille","lat":43.319935,"lon":5.381699,"is_reserved":false,"is_disabled":false,"rental_uris":{"android":"levelo://app?vid=98a8bbc4-06f4-4919-a3f5-afb5248d8d11","ios":"levelo://app?vid=98a8bbc4-06f4-4919-a3f5-afb5248d8d11"},"vehicle_type_id":"4","last_reported":1725721693,"current_range_meters":15200,"station_id":"ce4bhr12rcd13ifvqhpg","pricing_plan_id":"cebpf4jnsgd1na2vs0mg"},{"bike_id":"1a53b647-c7f6-4c23-80c4-339e90fd2cb6","system_id":"levelo_inurba_marseille","lat":43.313571,"lon":5.384829,"is_reserved":false,"is_disabled":false,"rental_uris":{"android":"levelo://app?vid=1a53b647-c7f6-4c23-80c4-339e90fd2cb6","ios":"levelo://app?vid=1a53b647-c7f6-4c23-80c4-339e90fd2cb6"},"vehicle_type_id":"4","last_reported":1725721693,"current_range_meters":0,"station_id":"ce4bgt92rcd13ifvqcf0","pricing_plan_id":"cebpf4jnsgd1na2vs0mg"},{"bike_id":"5910f762-5b33-4508-ab48-3ee1dc98a796","system_id":"levelo_inurba_marseille","lat":43.29984,"lon":5.37163,"is_reserved":false,"is_disabled":false,"rental_uris":{"android":"levelo://app?vid=5910f762-5b33-4508-ab48-3ee1dc98a796","ios":"levelo://app?vid=5910f762-5b33-4508-ab48-3ee1dc98a796"},"vehicle_type_id":"4","last_reported":1725721693,"current_range_meters":27200,"station_id":"ce4bgr92rcd13ifvqc7g","pricing_plan_id":"cebpf4jnsgd1na2vs0mg"},{"bike_id":"b5958741-4ce4-4824-95ce-b4c0887c562d","system_id":"levelo_inurba_marseille","lat":43.305364,"lon":5.384119,"is_reserved":false,"is_disabled":false,"rental_uris":{"android":"levelo://app?vid=b5958741-4ce4-4824-95ce-b4c0887c562d","ios":"levelo://app?vid=b5958741-4ce4-4824-95ce-b4c0887c562d"},"vehicle_type_id":"4","last_reported":1725721693,"current_range_meters":9600,"station_id":"ce4bgg92rcd13ifvqb30","pricing_plan_id":"cebpf4jnsgd1na2vs0mg"},{"bike_id":"ec50db43-d25c-4879-9794-ef3d5888572b","system_id":"levelo_inurba_marseille","lat":43.30176,"lon":5.3801,"is_reserved":false,"is_disabled":false,"rental_uris":{"android":"levelo://app?vid=ec50db43-d25c-4879-9794-ef3d5888572b","ios":"levelo://app?vid=ec50db43-d25c-4879-9794-ef3d5888572b"},"vehicle_type_id":"4","last_reported":1725721693,"current_range_meters":31200,"station_id":"","pricing_plan_id":"cebpf4jnsgd1na2vs0mg"},{"bike_id":"4c4a2a6c-0718-4376-bf7b-786d5f54da94","system_id":"levelo_inurba_marseille","lat":43.31167,"lon":5.387165,"is_reserved":false,"is_disabled":false,"rental_uris":{"android":"levelo://app?vid=4c4a2a6c-0718-4376-bf7b-786d5f54da94","ios":"levelo://app?vid=4c4a2a6c-0718-4376-bf7b-786d5f54da94"},"vehicle_type_id":"4","last_reported":1725721693,"current_range_meters":0,"station_id":"ce4bgv12rcd13ifvqcp0","pricing_plan_id":"cebpf4jnsgd1na2vs0mg"},{"bike_id":"4ae51d6b-aaaf-442a-873d-f8eca9a3e7b5","system_id":"levelo_inurba_marseille","lat":43.320711,"lon":5.384479,"is_reserved":false,"is_disabled":false,"rental_uris":{"android":"levelo://app?vid=4ae51d6b-aaaf-442a-873d-f8eca9a3e7b5","ios":"levelo://app?vid=4ae51d6b-aaaf-442a-873d-f8eca9a3e7b5"},"vehicle_type_id":"4","last_reported":1725721693,"current_range_meters":6400,"station_id":"","pricing_plan_id":"cebpf4jnsgd1na2vs0mg"},{"bike_id":"9d4d4ad3-9fa4-4394-8995-8a5887e80cc8","system_id":"levelo_inurba_marseille","lat":43.32282,"lon":5.38257,"is_reserved":false,"is_disabled":false,"rental_uris":{"android":"levelo://app?vid=9d4d4ad3-9fa4-4394-8995-8a5887e80cc8","ios":"levelo://app?vid=9d4d4ad3-9fa4-4394-8995-8a5887e80cc8"},"vehicle_type_id":"4","last_reported":1725721693,"current_range_meters":13200,"station_id":"ce4bhr12rcd13ifvqhqg","pricing_plan_id":"cebpf4jnsgd1na2vs0mg"},{"bike_id":"ccfe9188-164f-43cb-bcf0-f3baf5becffa","system_id":"levelo_inurba_marseille","lat":43.29775,"lon":5.37104,"is_reserved":false,"is_disabled":false,"rental_uris":{"android":"levelo://app?vid=ccfe9188-164f-43cb-bcf0-f3baf5becffa","ios":"levelo://app?vid=ccfe9188-164f-43cb-bcf0-f3baf5becffa"},"vehicle_type_id":"4","last_reported":1725721693,"current_range_meters":27600,"station_id":"ce4bgop2rcd13ifvqc1g","pricing_plan_id":"cebpf4jnsgd1na2vs0mg"},{"bike_id":"bdaaa76c-d8cd-45e2-a7e5-ea726925e4da","system_id":"levelo_inurba_marseille","lat":43.32286,"lon":5.38271,"is_reserved":false,"is_disabled":false,"rental_uris":{"android":"levelo://app?vid=bdaaa76c-d8cd-45e2-a7e5-ea726925e4da","ios":"levelo://app?vid=bdaaa76c-d8cd-45e2-a7e5-ea726925e4da"},"vehicle_type_id":"4","last_reported":1725721693,"current_range_meters":23200,"station_id":"ce4bhr12rcd13ifvqhqg","pricing_plan_id":"cebpf4jnsgd1na2vs0mg"},{"bike_id":"632f00c2-86c6-460b-ad96-4bff7ad35ebe","system_id":"levelo_inurba_marseille","lat":43.297163,"lon":5.365866,"is_reserved":false,"is_disabled":false,"rental_uris":{"android":"levelo://app?vid=632f00c2-86c6-460b-ad96-4bff7ad35ebe","ios":"levelo://app?vid=632f00c2-86c6-460b-ad96-4bff7ad35ebe"},"vehicle_type_id":"4","last_reported":1725721693,"current_range_meters":20800,"station_id":"ce4bgn12rcd13ifvqbt0","pricing_plan_id":"cebpf4jnsgd1na2vs0mg"},{"bike_id":"8a8887de-5c7d-4b1c-91b2-78e9c920b48d","system_id":"levelo_inurba_marseille","lat":43.2968,"lon":5.37291,"is_reserved":false,"is_disabled":false,"rental_uris":{"android":"levelo://app?vid=8a8887de-5c7d-4b1c-91b2-78e9c920b48d","ios":"levelo://app?vid=8a8887de-5c7d-4b1c-91b2-78e9c920b48d"},"vehicle_type_id":"4","last_reported":1725721693,"current_range_meters":28800,"station_id":"ce4bgk12rcd13ifvqbj0","pricing_plan_id":"cebpf4jnsgd1na2vs0mg"},{"bike_id":"a0a7a950-aca1-469f-ab91-8a60290e173e","system_id":"levelo_inurba_marseille","lat":43.296131,"lon":5.370791,"is_reserved":false,"is_disabled":false,"rental_uris":{"android":"levelo://app?vid=a0a7a950-aca1-469f-ab91-8a60290e173e","ios":"levelo://app?vid=a0a7a950-aca1-469f-ab91-8a60290e173e"},"vehicle_type_id":"4","last_reported":1725721693,"current_range_meters":31200,"station_id":"ce4bgnh2rcd13ifvqc0g","pricing_plan_id":"cebpf4jnsgd1na2vs0mg"},{"bike_id":"cf91b482-4860-4e9c-908d-1c8c211182da","system_id":"levelo_inurba_marseille","lat":43.29573,"lon":5.367355,"is_reserved":false,"is_disabled":false,"rental_uris":{"android":"levelo://app?vid=cf91b482-4860-4e9c-908d-1c8c211182da","ios":"levelo://app?vid=cf91b482-4860-4e9c-908d-1c8c211182da"},"vehicle_type_id":"4","last_reported":1725721693,"current_range_meters":22000,"station_id":"ce4bgph2rcd13ifvqc2g","pricing_plan_id":"cebpf4jnsgd1na2vs0mg"},{"bike_id":"7e2a9981-304b-427f-9c45-fdaba7c305e1","system_id":"levelo_inurba_marseille","lat":43.29578,"lon":5.365053,"is_reserved":false,"is_disabled":false,"rental_uris":{"android":"levelo://app?vid=7e2a9981-304b-427f-9c45-fdaba7c305e1","ios":"levelo://app?vid=7e2a9981-304b-427f-9c45-fdaba7c305e1"},"vehicle_type_id":"4","last_reported":1725721693,"current_range_meters":20400,"station_id":"","pricing_plan_id":"cebpf4jnsgd1na2vs0mg"},{"bike_id":"7232ea4c-5afb-4cc9-813c-49dc4d3533ee","system_id":"levelo_inurba_marseille","lat":43.309589,"lon":5.390258,"is_reserved":false,"is_disabled":false,"rental_uris":{"android":"levelo://app?vid=7232ea4c-5afb-4cc9-813c-49dc4d3533ee","ios":"levelo://app?vid=7232ea4c-5afb-4cc9-813c-49dc4d3533ee"},"vehicle_type_id":"4","last_reported":1725721693,"current_range_meters":12400,"station_id":"ce4bgup2rcd13ifvqco0","pricing_plan_id":"cebpf4jnsgd1na2vs0mg"},{"bike_id":"7121022d-5dbb-4665-82ed-d246f5ac3b12","system_id":"levelo_inurba_marseille","lat":43.309589,"lon":5.390258,"is_reserved":false,"is_disabled":false,"rental_uris":{"android":"levelo://app?vid=7121022d-5dbb-4665-82ed-d246f5ac3b12","ios":"levelo://app?vid=7121022d-5dbb-4665-82ed-d246f5ac3b12"},"vehicle_type_id":"4","last_reported":1725721693,"current_range_meters":17600,"station_id":"ce4bgup2rcd13ifvqco0","pricing_plan_id":"cebpf4jnsgd1na2vs0mg"},{"bike_id":"d8207c39-c444-4413-95bc-c27077f5f8f4","system_id":"levelo_inurba_marseille","lat":43.309589,"lon":5.390258,"is_reserved":false,"is_disabled":false,"rental_uris":{"android":"levelo://app?vid=d8207c39-c444-4413-95bc-c27077f5f8f4","ios":"levelo://app?vid=d8207c39-c444-4413-95bc-c27077f5f8f4"},"vehicle_type_id":"4","last_reported":1725721693,"current_range_meters":4800,"station_id":"ce4bgup2rcd13ifvqco0","pricing_plan_id":"cebpf4jnsgd1na2vs0mg"},{"bike_id":"1bef5fa3-8c5f-47b2-b437-481c95bc689d","system_id":"levelo_inurba_marseille","lat":43.321288,"lon":5.387701,"is_reserved":false,"is_disabled":false,"rental_uris":{"android":"levelo://app?vid=1bef5fa3-8c5f-47b2-b437-481c95bc689d","ios":"levelo://app?vid=1bef5fa3-8c5f-47b2-b437-481c95bc689d"},"vehicle_type_id":"4","last_reported":1725721693,"current_range_meters":26400,"station_id":"","pricing_plan_id":"cebpf4jnsgd1na2vs0mg"},{"bike_id":"10f69fe8-7773-460f-8cbc-84d5043d302b","system_id":"levelo_inurba_marseille","lat":43.32253,"lon":5.387034,"is_reserved":false,"is_disabled":false,"rental_uris":{"android":"levelo://app?vid=10f69fe8-7773-460f-8cbc-84d5043d302b","ios":"levelo://app?vid=10f69fe8-7773-460f-8cbc-84d5043d302b"},"vehicle_type_id":"4","last_reported":1725721693,"current_range_meters":22800,"station_id":"","pricing_plan_id":"cebpf4jnsgd1na2vs0mg"},{"bike_id":"29d4459f-58af-4f52-9568-496ae25b75f2","system_id":"levelo_inurba_marseille","lat":43.298037,"lon":5.381066,"is_reserved":false,"is_disabled":false,"rental_uris":{"android":"levelo://app?vid=29d4459f-58af-4f52-9568-496ae25b75f2","ios":"levelo://app?vid=29d4459f-58af-4f52-9568-496ae25b75f2"},"vehicle_type_id":"4","last_reported":1725721693,"current_range_meters":0,"station_id":"ce4bgip2rcd13ifvqbb0","pricing_plan_id":"cebpf4jnsgd1na2vs0mg"},{"bike_id":"03a11f47-b6b9-4af4-8928-3c9b183db5a3","system_id":"levelo_inurba_marseille","lat":43.29978,"lon":5.38496,"is_reserved":false,"is_disabled":false,"rental_uris":{"android":"levelo://app?vid=03a11f47-b6b9-4af4-8928-3c9b183db5a3","ios":"levelo://app?vid=03a11f47-b6b9-4af4-8928-3c9b183db5a3"},"vehicle_type_id":"4","last_reported":1725721693,"current_range_meters":31200,"station_id":"ce4bgj92rcd13ifvqbd0","pricing_plan_id":"cebpf4jnsgd1na2vs0mg"},{"bike_id":"6cff727c-0b88-42ed-be8e-92862a697c40","system_id":"levelo_inurba_marseille","lat":43.299724,"lon":5.384848,"is_reserved":false,"is_disabled":false,"rental_uris":{"android":"levelo://app?vid=6cff727c-0b88-42ed-be8e-92862a697c40","ios":"levelo://app?vid=6cff727c-0b88-42ed-be8e-92862a697c40"},"vehicle_type_id":"4","last_reported":1725721693,"current_range_meters":27200,"station_id":"ce4bgj92rcd13ifvqbd0","pricing_plan_id":"cebpf4jnsgd1na2vs0mg"},{"bike_id":"156077c3-7663-46e0-b027-80779d705b28","system_id":"levelo_inurba_marseille","lat":43.299724,"lon":5.384848,"is_reserved":false,"is_disabled":false,"rental_uris":{"android":"levelo://app?vid=156077c3-7663-46e0-b027-80779d705b28","ios":"levelo://app?vid=156077c3-7663-46e0-b027-80779d705b28"},"vehicle_type_id":"4","last_reported":1725721693,"current_range_meters":10800,"station_id":"ce4bgj92rcd13ifvqbd0","pricing_plan_id":"cebpf4jnsgd1na2vs0mg"},{"bike_id":"c852c9d0-c2b2-466c-878d-c231a89e6773","system_id":"levelo_inurba_marseille","lat":43.299724,"lon":5.384848,"is_reserved":false,"is_disabled":false,"rental_uris":{"android":"levelo://app?vid=c852c9d0-c2b2-466c-878d-c231a89e6773","ios":"levelo://app?vid=c852c9d0-c2b2-466c-878d-c231a89e6773"},"vehicle_type_id":"4","last_reported":1725721693,"current_range_meters":31600,"station_id":"ce4bgj92rcd13ifvqbd0","pricing_plan_id":"cebpf4jnsgd1na2vs0mg"},{"bike_id":"72297f8d-2236-491a-b7d8-b0971a3acd9e","system_id":"levelo_inurba_marseille","lat":43.30064,"lon":5.38656,"is_reserved":false,"is_disabled":false,"rental_uris":{"android":"levelo://app?vid=72297f8d-2236-491a-b7d8-b0971a3acd9e","ios":"levelo://app?vid=72297f8d-2236-491a-b7d8-b0971a3acd9e"},"vehicle_type_id":"4","last_reported":1725721693,"current_range_meters":6400,"station_id":"","pricing_plan_id":"cebpf4jnsgd1na2vs0mg"},{"bike_id":"31189c2b-4591-4091-a855-dd50a10bb7b0","system_id":"levelo_inurba_marseille","lat":43.29481,"lon":5.3752,"is_reserved":false,"is_disabled":false,"rental_uris":{"android":"levelo://app?vid=31189c2b-4591-4091-a855-dd50a10bb7b0","ios":"levelo://app?vid=31189c2b-4591-4091-a855-dd50a10bb7b0"},"vehicle_type_id":"4","last_reported":1725721693,"current_range_meters":2400,"station_id":"","pricing_plan_id":"cebpf4jnsgd1na2vs0mg"},{"bike_id":"01058374-90e5-49c7-92d5-6fd797a51504","system_id":"levelo_inurba_marseille","lat":43.29602,"lon":5.381084,"is_reserved":false,"is_disabled":false,"rental_uris":{"android":"levelo://app?vid=01058374-90e5-49c7-92d5-6fd797a51504","ios":"levelo://app?vid=01058374-90e5-49c7-92d5-6fd797a51504"},"vehicle_type_id":"4","last_reported":1725721693,"current_range_meters":2000,"station_id":"ce4bgl12rcd13ifvqbo0","pricing_plan_id":"cebpf4jnsgd1na2vs0mg"},{"bike_id":"7dfad6ee-3a0a-4e82-bc25-e7f709db6a07","system_id":"levelo_inurba_marseille","lat":43.29379,"lon":5.36258,"is_reserved":false,"is_disabled":false,"rental_uris":{"android":"levelo://app?vid=7dfad6ee-3a0a-4e82-bc25-e7f709db6a07","ios":"levelo://app?vid=7dfad6ee-3a0a-4e82-bc25-e7f709db6a07"},"vehicle_type_id":"4","last_reported":1725721693,"current_range_meters":13600,"station_id":"","pricing_plan_id":"cebpf4jnsgd1na2vs0mg"},{"bike_id":"57589969-127d-446a-bda6-f9c8ed487e37","system_id":"levelo_inurba_marseille","lat":43.32369,"lon":5.38886,"is_reserved":false,"is_disabled":false,"rental_uris":{"android":"levelo://app?vid=57589969-127d-446a-bda6-f9c8ed487e37","ios":"levelo://app?vid=57589969-127d-446a-bda6-f9c8ed487e37"},"vehicle_type_id":"4","last_reported":1725721693,"current_range_meters":8400,"station_id":"ce4bhqp2rcd13ifvqhog","pricing_plan_id":"cebpf4jnsgd1na2vs0mg"},{"bike_id":"1389f4a0-fe8c-45a8-89e1-761602337135","system_id":"levelo_inurba_marseille","lat":43.32367,"lon":5.38925,"is_reserved":false,"is_disabled":false,"rental_uris":{"android":"levelo://app?vid=1389f4a0-fe8c-45a8-89e1-761602337135","ios":"levelo://app?vid=1389f4a0-fe8c-45a8-89e1-761602337135"},"vehicle_type_id":"4","last_reported":1725721693,"current_range_meters":19600,"station_id":"ce4bhqp2rcd13ifvqhog","pricing_plan_id":"cebpf4jnsgd1na2vs0mg"},{"bike_id":"25cdebef-ee34-4f7e-9472-4998c3b29cf0","system_id":"levelo_inurba_marseille","lat":43.29602,"lon":5.381084,"is_reserved":false,"is_disabled":false,"rental_uris":{"android":"levelo://app?vid=25cdebef-ee34-4f7e-9472-4998c3b29cf0","ios":"levelo://app?vid=25cdebef-ee34-4f7e-9472-4998c3b29cf0"},"vehicle_type_id":"4","last_reported":1725721693,"current_range_meters":4000,"station_id":"ce4bgl12rcd13ifvqbo0","pricing_plan_id":"cebpf4jnsgd1na2vs0mg"},{"bike_id":"41704600-e9e6-4869-aefd-a4a12996605b","system_id":"levelo_inurba_marseille","lat":43.3237,"lon":5.38926,"is_reserved":false,"is_disabled":false,"rental_uris":{"android":"levelo://app?vid=41704600-e9e6-4869-aefd-a4a12996605b","ios":"levelo://app?vid=41704600-e9e6-4869-aefd-a4a12996605b"},"vehicle_type_id":"4","last_reported":1725721693,"current_range_meters":12400,"station_id":"ce4bhqp2rcd13ifvqhog","pricing_plan_id":"cebpf4jnsgd1na2vs0mg"},{"bike_id":"74c59e3d-56c9-4373-9efe-a345696f9a5c","system_id":"levelo_inurba_marseille","lat":43.3237,"lon":5.38926,"is_reserved":false,"is_disabled":false,"rental_uris":{"android":"levelo://app?vid=74c59e3d-56c9-4373-9efe-a345696f9a5c","ios":"levelo://app?vid=74c59e3d-56c9-4373-9efe-a345696f9a5c"},"vehicle_type_id":"4","last_reported":1725721693,"current_range_meters":24800,"station_id":"","pricing_plan_id":"cebpf4jnsgd1na2vs0mg"},{"bike_id":"14c004be-66ae-4d4a-8eb6-f08cdcb2cf61","system_id":"levelo_inurba_marseille","lat":43.29327,"lon":5.37076,"is_reserved":false,"is_disabled":false,"rental_uris":{"android":"levelo://app?vid=14c004be-66ae-4d4a-8eb6-f08cdcb2cf61","ios":"levelo://app?vid=14c004be-66ae-4d4a-8eb6-f08cdcb2cf61"},"vehicle_type_id":"4","last_reported":1725721693,"current_range_meters":27600,"station_id":"","pricing_plan_id":"cebpf4jnsgd1na2vs0mg"},{"bike_id":"e7c7aaff-1c2a-43ad-9b53-8c27b58e646b","system_id":"levelo_inurba_marseille","lat":43.305994,"lon":5.393687,"is_reserved":false,"is_disabled":false,"rental_uris":{"android":"levelo://app?vid=e7c7aaff-1c2a-43ad-9b53-8c27b58e646b","ios":"levelo://app?vid=e7c7aaff-1c2a-43ad-9b53-8c27b58e646b"},"vehicle_type_id":"4","last_reported":1725721693,"current_range_meters":29200,"station_id":"ce4bh0p2rcd13ifvqd80","pricing_plan_id":"cebpf4jnsgd1na2vs0mg"},{"bike_id":"32b39dc5-7985-4809-88a9-ab8f151fb800","system_id":"levelo_inurba_marseille","lat":43.293009,"lon":5.374584,"is_reserved":false,"is_disabled":false,"rental_uris":{"android":"levelo://app?vid=32b39dc5-7985-4809-88a9-ab8f151fb800","ios":"levelo://app?vid=32b39dc5-7985-4809-88a9-ab8f151fb800"},"vehicle_type_id":"4","last_reported":1725721693,"current_range_meters":25600,"station_id":"ce4bgi12rcd13ifvqb70","pricing_plan_id":"cebpf4jnsgd1na2vs0mg"},{"bike_id":"99aed2bc-c807-43db-9e81-b9310c368695","system_id":"levelo_inurba_marseille","lat":43.293009,"lon":5.374584,"is_reserved":false,"is_disabled":false,"rental_uris":{"android":"levelo://app?vid=99aed2bc-c807-43db-9e81-b9310c368695","ios":"levelo://app?vid=99aed2bc-c807-43db-9e81-b9310c368695"},"vehicle_type_id":"4","last_reported":1725721693,"current_range_meters":8400,"station_id":"ce4bgi12rcd13ifvqb70","pricing_plan_id":"cebpf4jnsgd1na2vs0mg"},{"bike_id":"fd231172-f9f9-4af0-9cdf-943bf2307180","system_id":"levelo_inurba_marseille","lat":43.292076,"lon":5.363216,"is_reserved":false,"is_disabled":false,"rental_uris":{"android":"levelo://app?vid=fd231172-f9f9-4af0-9cdf-943bf2307180","ios":"levelo://app?vid=fd231172-f9f9-4af0-9cdf-943bf2307180"},"vehicle_type_id":"4","last_reported":1725721693,"current_range_meters":0,"station_id":"","pricing_plan_id":"cebpf4jnsgd1na2vs0mg"},{"bike_id":"c59f36ed-d08f-4895-acab-82580dd399a9","system_id":"levelo_inurba_marseille","lat":43.292311,"lon":5.360731,"is_reserved":false,"is_disabled":false,"rental_uris":{"android":"levelo://app?vid=c59f36ed-d08f-4895-acab-82580dd399a9","ios":"levelo://app?vid=c59f36ed-d08f-4895-acab-82580dd399a9"},"vehicle_type_id":"4","last_reported":1725721693,"current_range_meters":23200,"station_id":"ce4bhbh2rcd13ifvqeqg","pricing_plan_id":"cebpf4jnsgd1na2vs0mg"},{"bike_id":"824e864a-9a9c-4a49-becd-f6f96d111747","system_id":"levelo_inurba_marseille","lat":43.292311,"lon":5.360731,"is_reserved":false,"is_disabled":false,"rental_uris":{"android":"levelo://app?vid=824e864a-9a9c-4a49-becd-f6f96d111747","ios":"levelo://app?vid=824e864a-9a9c-4a49-becd-f6f96d111747"},"vehicle_type_id":"4","last_reported":1725721693,"current_range_meters":0,"station_id":"ce4bhbh2rcd13ifvqeqg","pricing_plan_id":"cebpf4jnsgd1na2vs0mg"},{"bike_id":"afc16da3-d821-4d22-b916-00d958f6ced4","system_id":"levelo_inurba_marseille","lat":43.29229,"lon":5.36039,"is_reserved":false,"is_disabled":false,"rental_uris":{"android":"levelo://app?vid=afc16da3-d821-4d22-b916-00d958f6ced4","ios":"levelo://app?vid=afc16da3-d821-4d22-b916-00d958f6ced4"},"vehicle_type_id":"4","last_reported":1725721693,"current_range_meters":14000,"station_id":"ce4bhbh2rcd13ifvqeqg","pricing_plan_id":"cebpf4jnsgd1na2vs0mg"},{"bike_id":"7eafd243-7cb0-4592-a6d3-56817e9748b5","system_id":"levelo_inurba_marseille","lat":43.30085,"lon":5.390856,"is_reserved":false,"is_disabled":false,"rental_uris":{"android":"levelo://app?vid=7eafd243-7cb0-4592-a6d3-56817e9748b5","ios":"levelo://app?vid=7eafd243-7cb0-4592-a6d3-56817e9748b5"},"vehicle_type_id":"4","last_reported":1725721693,"current_range_meters":0,"station_id":"ce4bh192rcd13ifvqdb0","pricing_plan_id":"cebpf4jnsgd1na2vs0mg"},{"bike_id":"34dbfbb7-6460-4da5-9154-b96922cdbb8a","system_id":"levelo_inurba_marseille","lat":43.300852,"lon":5.390859,"is_reserved":false,"is_disabled":false,"rental_uris":{"android":"levelo://app?vid=34dbfbb7-6460-4da5-9154-b96922cdbb8a","ios":"levelo://app?vid=34dbfbb7-6460-4da5-9154-b96922cdbb8a"},"vehicle_type_id":"4","last_reported":1725721693,"current_range_meters":28000,"station_id":"ce4bh192rcd13ifvqdb0","pricing_plan_id":"cebpf4jnsgd1na2vs0mg"},{"bike_id":"81b285ea-eec8-408d-88d7-01cf068e73f7","system_id":"levelo_inurba_marseille","lat":43.2922,"lon":5.36051,"is_reserved":false,"is_disabled":false,"rental_uris":{"android":"levelo://app?vid=81b285ea-eec8-408d-88d7-01cf068e73f7","ios":"levelo://app?vid=81b285ea-eec8-408d-88d7-01cf068e73f7"},"vehicle_type_id":"4","last_reported":1725721693,"current_range_meters":24400,"station_id":"ce4bhbh2rcd13ifvqeqg","pricing_plan_id":"cebpf4jnsgd1na2vs0mg"},{"bike_id":"11d6a286-cca5-4598-888f-e10452c0d3b7","system_id":"levelo_inurba_marseille","lat":43.291675,"lon":5.371583,"is_reserved":false,"is_disabled":false,"rental_uris":{"android":"levelo://app?vid=11d6a286-cca5-4598-888f-e10452c0d3b7","ios":"levelo://app?vid=11d6a286-cca5-4598-888f-e10452c0d3b7"},"vehicle_type_id":"4","last_reported":1725721693,"current_range_meters":800,"station_id":"ce4bha92rcd13ifvqeh0","pricing_plan_id":"cebpf4jnsgd1na2vs0mg"},{"bike_id":"ee83ae0a-d461-4938-9016-a7f2c9d800ad","system_id":"levelo_inurba_marseille","lat":43.29394,"lon":5.38136,"is_reserved":false,"is_disabled":false,"rental_uris":{"android":"levelo://app?vid=ee83ae0a-d461-4938-9016-a7f2c9d800ad","ios":"levelo://app?vid=ee83ae0a-d461-4938-9016-a7f2c9d800ad"},"vehicle_type_id":"4","last_reported":1725721693,"current_range_meters":0,"station_id":"","pricing_plan_id":"cebpf4jnsgd1na2vs0mg"},{"bike_id":"1200e031-95f9-402d-b781-3202d2818de7","system_id":"levelo_inurba_marseille","lat":43.292005,"lon":5.357875,"is_reserved":false,"is_disabled":false,"rental_uris":{"android":"levelo://app?vid=1200e031-95f9-402d-b781-3202d2818de7","ios":"levelo://app?vid=1200e031-95f9-402d-b781-3202d2818de7"},"vehicle_type_id":"4","last_reported":1725721693,"current_range_meters":28400,"station_id":"ce4bhb12rcd13ifvqel0","pricing_plan_id":"cebpf4jnsgd1na2vs0mg"},{"bike_id":"abf4963d-aa65-47ad-b84e-3e933da53718","system_id":"levelo_inurba_marseille","lat":43.309038,"lon":5.396546,"is_reserved":false,"is_disabled":false,"rental_uris":{"android":"levelo://app?vid=abf4963d-aa65-47ad-b84e-3e933da53718","ios":"levelo://app?vid=abf4963d-aa65-47ad-b84e-3e933da53718"},"vehicle_type_id":"4","last_reported":1725721693,"current_range_meters":31600,"station_id":"ce4bh012rcd13ifvqcv0","pricing_plan_id":"cebpf4jnsgd1na2vs0mg"},{"bike_id":"08d4f9e6-50d6-46db-b4be-bc6964ee1600","system_id":"levelo_inurba_marseille","lat":43.29185,"lon":5.35802,"is_reserved":false,"is_disabled":false,"rental_uris":{"android":"levelo://app?vid=08d4f9e6-50d6-46db-b4be-bc6964ee1600","ios":"levelo://app?vid=08d4f9e6-50d6-46db-b4be-bc6964ee1600"},"vehicle_type_id":"4","last_reported":1725721693,"current_range_meters":18400,"station_id":"ce4bhb12rcd13ifvqel0","pricing_plan_id":"cebpf4jnsgd1na2vs0mg"},{"bike_id":"c26d93fc-0c74-423d-a30a-1f82aa7c9c6e","system_id":"levelo_inurba_marseille","lat":43.309047,"lon":5.396551,"is_reserved":false,"is_disabled":false,"rental_uris":{"android":"levelo://app?vid=c26d93fc-0c74-423d-a30a-1f82aa7c9c6e","ios":"levelo://app?vid=c26d93fc-0c74-423d-a30a-1f82aa7c9c6e"},"vehicle_type_id":"4","last_reported":1725721693,"current_range_meters":5600,"station_id":"ce4bh012rcd13ifvqcv0","pricing_plan_id":"cebpf4jnsgd1na2vs0mg"},{"bike_id":"4ae3deb4-4aaa-48eb-ba6b-33cd1ae9e025","system_id":"levelo_inurba_marseille","lat":43.29529,"lon":5.385581,"is_reserved":false,"is_disabled":false,"rental_uris":{"android":"levelo://app?vid=4ae3deb4-4aaa-48eb-ba6b-33cd1ae9e025","ios":"levelo://app?vid=4ae3deb4-4aaa-48eb-ba6b-33cd1ae9e025"},"vehicle_type_id":"4","last_reported":1725721693,"current_range_meters":31600,"station_id":"ce4bgih2rcd13ifvqba0","pricing_plan_id":"cebpf4jnsgd1na2vs0mg"},{"bike_id":"14eb1cf6-9b71-4347-8339-184b07f67835","system_id":"levelo_inurba_marseille","lat":43.290779,"lon":5.371482,"is_reserved":false,"is_disabled":false,"rental_uris":{"android":"levelo://app?vid=14eb1cf6-9b71-4347-8339-184b07f67835","ios":"levelo://app?vid=14eb1cf6-9b71-4347-8339-184b07f67835"},"vehicle_type_id":"4","last_reported":1725721693,"current_range_meters":30000,"station_id":"ce4bh5p2rcd13ifvqe4g","pricing_plan_id":"cebpf4jnsgd1na2vs0mg"},{"bike_id":"7b6680c7-3cd4-4566-9feb-f5b47f0197ef","system_id":"levelo_inurba_marseille","lat":43.290779,"lon":5.371482,"is_reserved":false,"is_disabled":false,"rental_uris":{"android":"levelo://app?vid=7b6680c7-3cd4-4566-9feb-f5b47f0197ef","ios":"levelo://app?vid=7b6680c7-3cd4-4566-9feb-f5b47f0197ef"},"vehicle_type_id":"4","last_reported":1725721693,"current_range_meters":27200,"station_id":"ce4bh5p2rcd13ifvqe4g","pricing_plan_id":"cebpf4jnsgd1na2vs0mg"},{"bike_id":"4a0bd207-b688-4312-a7bd-a8eea62073b7","system_id":"levelo_inurba_marseille","lat":43.29142,"lon":5.37736,"is_reserved":false,"is_disabled":false,"rental_uris":{"android":"levelo://app?vid=4a0bd207-b688-4312-a7bd-a8eea62073b7","ios":"levelo://app?vid=4a0bd207-b688-4312-a7bd-a8eea62073b7"},"vehicle_type_id":"4","last_reported":1725721693,"current_range_meters":0,"station_id":"","pricing_plan_id":"cebpf4jnsgd1na2vs0mg"},{"bike_id":"95209b42-ec27-42e5-880b-b81e899a8bd0","system_id":"levelo_inurba_marseille","lat":43.302008,"lon":5.394694,"is_reserved":false,"is_disabled":false,"rental_uris":{"android":"levelo://app?vid=95209b42-ec27-42e5-880b-b81e899a8bd0","ios":"levelo://app?vid=95209b42-ec27-42e5-880b-b81e899a8bd0"},"vehicle_type_id":"4","last_reported":1725721693,"current_range_meters":0,"station_id":"ce4bh0p2rcd13ifvqd70","pricing_plan_id":"cebpf4jnsgd1na2vs0mg"},{"bike_id":"06e68ea3-3ca2-4e4c-8235-7c90e99893c1","system_id":"levelo_inurba_marseille","lat":43.302107,"lon":5.394603,"is_reserved":false,"is_disabled":false,"rental_uris":{"android":"levelo://app?vid=06e68ea3-3ca2-4e4c-8235-7c90e99893c1","ios":"levelo://app?vid=06e68ea3-3ca2-4e4c-8235-7c90e99893c1"},"vehicle_type_id":"4","last_reported":1725721693,"current_range_meters":30000,"station_id":"ce4bh0p2rcd13ifvqd70","pricing_plan_id":"cebpf4jnsgd1na2vs0mg"},{"bike_id":"98a54d03-06e5-4354-aee1-19413a3a2830","system_id":"levelo_inurba_marseille","lat":43.302008,"lon":5.394694,"is_reserved":false,"is_disabled":false,"rental_uris":{"android":"levelo://app?vid=98a54d03-06e5-4354-aee1-19413a3a2830","ios":"levelo://app?vid=98a54d03-06e5-4354-aee1-19413a3a2830"},"vehicle_type_id":"4","last_reported":1725721693,"current_range_meters":3200,"station_id":"ce4bh0p2rcd13ifvqd70","pricing_plan_id":"cebpf4jnsgd1na2vs0mg"},{"bike_id":"cbf95ef3-f94c-4a19-b57a-229f6c17d4d1","system_id":"levelo_inurba_marseille","lat":43.290631,"lon":5.359244,"is_reserved":false,"is_disabled":false,"rental_uris":{"android":"levelo://app?vid=cbf95ef3-f94c-4a19-b57a-229f6c17d4d1","ios":"levelo://app?vid=cbf95ef3-f94c-4a19-b57a-229f6c17d4d1"},"vehicle_type_id":"4","last_reported":1725721693,"current_range_meters":13600,"station_id":"ce4bha92rcd13ifvqeg0","pricing_plan_id":"cebpf4jnsgd1na2vs0mg"},{"bike_id":"cfbe7e5c-43d7-44bb-abbb-083037c9fd37","system_id":"levelo_inurba_marseille","lat":43.294153,"lon":5.386305,"is_reserved":false,"is_disabled":false,"rental_uris":{"android":"levelo://app?vid=cfbe7e5c-43d7-44bb-abbb-083037c9fd37","ios":"levelo://app?vid=cfbe7e5c-43d7-44bb-abbb-083037c9fd37"},"vehicle_type_id":"4","last_reported":1725721693,"current_range_meters":400,"station_id":"ce4bh2h2rcd13ifvqdh0","pricing_plan_id":"cebpf4jnsgd1na2vs0mg"},{"bike_id":"c25df338-d97a-488f-b5be-26a850b47d0f","system_id":"levelo_inurba_marseille","lat":43.294153,"lon":5.386305,"is_reserved":false,"is_disabled":false,"rental_uris":{"android":"levelo://app?vid=c25df338-d97a-488f-b5be-26a850b47d0f","ios":"levelo://app?vid=c25df338-d97a-488f-b5be-26a850b47d0f"},"vehicle_type_id":"4","last_reported":1725721693,"current_range_meters":0,"station_id":"ce4bh2h2rcd13ifvqdh0","pricing_plan_id":"cebpf4jnsgd1na2vs0mg"},{"bike_id":"fef1367d-887c-49bf-b653-83cf509f8392","system_id":"levelo_inurba_marseille","lat":43.294153,"lon":5.386305,"is_reserved":false,"is_disabled":false,"rental_uris":{"android":"levelo://app?vid=fef1367d-887c-49bf-b653-83cf509f8392","ios":"levelo://app?vid=fef1367d-887c-49bf-b653-83cf509f8392"},"vehicle_type_id":"4","last_reported":1725721693,"current_range_meters":2400,"station_id":"ce4bh2h2rcd13ifvqdh0","pricing_plan_id":"cebpf4jnsgd1na2vs0mg"},{"bike_id":"9a5b553f-b6ad-42ff-aa10-d09b66982162","system_id":"levelo_inurba_marseille","lat":43.294162,"lon":5.386292,"is_reserved":false,"is_disabled":false,"rental_uris":{"android":"levelo://app?vid=9a5b553f-b6ad-42ff-aa10-d09b66982162","ios":"levelo://app?vid=9a5b553f-b6ad-42ff-aa10-d09b66982162"},"vehicle_type_id":"4","last_reported":1725721693,"current_range_meters":7600,"station_id":"ce4bh2h2rcd13ifvqdh0","pricing_plan_id":"cebpf4jnsgd1na2vs0mg"},{"bike_id":"1ca86d03-30f7-4e1a-a756-b61f3941ac08","system_id":"levelo_inurba_marseille","lat":43.290327,"lon":5.375711,"is_reserved":false,"is_disabled":false,"rental_uris":{"android":"levelo://app?vid=1ca86d03-30f7-4e1a-a756-b61f3941ac08","ios":"levelo://app?vid=1ca86d03-30f7-4e1a-a756-b61f3941ac08"},"vehicle_type_id":"4","last_reported":1725721693,"current_range_meters":0,"station_id":"ce4bh692rcd13ifvqe90","pricing_plan_id":"cebpf4jnsgd1na2vs0mg"},{"bike_id":"dc28696c-14f5-407e-b51f-020b561b5e02","system_id":"levelo_inurba_marseille","lat":43.28946,"lon":5.36411,"is_reserved":false,"is_disabled":false,"rental_uris":{"android":"levelo://app?vid=dc28696c-14f5-407e-b51f-020b561b5e02","ios":"levelo://app?vid=dc28696c-14f5-407e-b51f-020b561b5e02"},"vehicle_type_id":"4","last_reported":1725721693,"current_range_meters":26000,"station_id":"ce4bhc92rcd13ifvqetg","pricing_plan_id":"cebpf4jnsgd1na2vs0mg"},{"bike_id":"315af321-0020-4cb3-a294-e2eff7219a2f","system_id":"levelo_inurba_marseille","lat":43.289468,"lon":5.363719,"is_reserved":false,"is_disabled":false,"rental_uris":{"android":"levelo://app?vid=315af321-0020-4cb3-a294-e2eff7219a2f","ios":"levelo://app?vid=315af321-0020-4cb3-a294-e2eff7219a2f"},"vehicle_type_id":"4","last_reported":1725721693,"current_range_meters":2400,"station_id":"ce4bhc92rcd13ifvqetg","pricing_plan_id":"cebpf4jnsgd1na2vs0mg"},{"bike_id":"07ee239e-c4eb-4b2f-b2bc-7b43cdaea4d7","system_id":"levelo_inurba_marseille","lat":43.2905,"lon":5.37776,"is_reserved":false,"is_disabled":false,"rental_uris":{"android":"levelo://app?vid=07ee239e-c4eb-4b2f-b2bc-7b43cdaea4d7","ios":"levelo://app?vid=07ee239e-c4eb-4b2f-b2bc-7b43cdaea4d7"},"vehicle_type_id":"4","last_reported":1725721693,"current_range_meters":0,"station_id":"","pricing_plan_id":"cebpf4jnsgd1na2vs0mg"},{"bike_id":"6d3e4443-5ce0-4da4-b968-c3e5b6821302","system_id":"levelo_inurba_marseille","lat":43.304296,"lon":5.397513,"is_reserved":false,"is_disabled":false,"rental_uris":{"android":"levelo://app?vid=6d3e4443-5ce0-4da4-b968-c3e5b6821302","ios":"levelo://app?vid=6d3e4443-5ce0-4da4-b968-c3e5b6821302"},"vehicle_type_id":"4","last_reported":1725721693,"current_range_meters":27600,"station_id":"ce4bh092rcd13ifvqd20","pricing_plan_id":"cebpf4jnsgd1na2vs0mg"},{"bike_id":"c7239c45-881e-4f02-8428-739b39c6f9c1","system_id":"levelo_inurba_marseille","lat":43.28856,"lon":5.358371,"is_reserved":false,"is_disabled":false,"rental_uris":{"android":"levelo://app?vid=c7239c45-881e-4f02-8428-739b39c6f9c1","ios":"levelo://app?vid=c7239c45-881e-4f02-8428-739b39c6f9c1"},"vehicle_type_id":"4","last_reported":1725721693,"current_range_meters":0,"station_id":"ce4bhb12rcd13ifvqem0","pricing_plan_id":"cebpf4jnsgd1na2vs0mg"},{"bike_id":"b07aa05b-e459-4ff5-a4d6-e7465d2bc4af","system_id":"levelo_inurba_marseille","lat":43.304274,"lon":5.397513,"is_reserved":false,"is_disabled":false,"rental_uris":{"android":"levelo://app?vid=b07aa05b-e459-4ff5-a4d6-e7465d2bc4af","ios":"levelo://app?vid=b07aa05b-e459-4ff5-a4d6-e7465d2bc4af"},"vehicle_type_id":"4","last_reported":1725721693,"current_range_meters":18400,"station_id":"ce4bh092rcd13ifvqd20","pricing_plan_id":"cebpf4jnsgd1na2vs0mg"},{"bike_id":"d4fd573c-8221-4ed6-afb2-c32da4b27a60","system_id":"levelo_inurba_marseille","lat":43.292642,"lon":5.384254,"is_reserved":false,"is_disabled":false,"rental_uris":{"android":"levelo://app?vid=d4fd573c-8221-4ed6-afb2-c32da4b27a60","ios":"levelo://app?vid=d4fd573c-8221-4ed6-afb2-c32da4b27a60"},"vehicle_type_id":"4","last_reported":1725721693,"current_range_meters":13600,"station_id":"ce4bh692rcd13ifvqea0","pricing_plan_id":"cebpf4jnsgd1na2vs0mg"},{"bike_id":"697f5432-4d65-47d7-9bfb-12a4ed7135bd","system_id":"levelo_inurba_marseille","lat":43.304296,"lon":5.397513,"is_reserved":false,"is_disabled":false,"rental_uris":{"android":"levelo://app?vid=697f5432-4d65-47d7-9bfb-12a4ed7135bd","ios":"levelo://app?vid=697f5432-4d65-47d7-9bfb-12a4ed7135bd"},"vehicle_type_id":"4","last_reported":1725721693,"current_range_meters":4400,"station_id":"ce4bh092rcd13ifvqd20","pricing_plan_id":"cebpf4jnsgd1na2vs0mg"},{"bike_id":"b33c6305-9b08-412c-98de-dee861d6dc2f","system_id":"levelo_inurba_marseille","lat":43.292642,"lon":5.384254,"is_reserved":false,"is_disabled":false,"rental_uris":{"android":"levelo://app?vid=b33c6305-9b08-412c-98de-dee861d6dc2f","ios":"levelo://app?vid=b33c6305-9b08-412c-98de-dee861d6dc2f"},"vehicle_type_id":"4","last_reported":1725721693,"current_range_meters":10800,"station_id":"ce4bh692rcd13ifvqea0","pricing_plan_id":"cebpf4jnsgd1na2vs0mg"},{"bike_id":"81cbb3d0-c990-4bcc-ad79-9fb58c07bece","system_id":"levelo_inurba_marseille","lat":43.30411,"lon":5.3975,"is_reserved":false,"is_disabled":false,"rental_uris":{"android":"levelo://app?vid=81cbb3d0-c990-4bcc-ad79-9fb58c07bece","ios":"levelo://app?vid=81cbb3d0-c990-4bcc-ad79-9fb58c07bece"},"vehicle_type_id":"4","last_reported":1725721693,"current_range_meters":0,"station_id":"ce4bh092rcd13ifvqd20","pricing_plan_id":"cebpf4jnsgd1na2vs0mg"},{"bike_id":"a5997945-b4b4-4766-ba1d-0dd745cce23b","system_id":"levelo_inurba_marseille","lat":43.290103,"lon":5.356114,"is_reserved":false,"is_disabled":false,"rental_uris":{"android":"levelo://app?vid=a5997945-b4b4-4766-ba1d-0dd745cce23b","ios":"levelo://app?vid=a5997945-b4b4-4766-ba1d-0dd745cce23b"},"vehicle_type_id":"4","last_reported":1725721693,"current_range_meters":0,"station_id":"ce4bhb92rcd13ifvqen0","pricing_plan_id":"cebpf4jnsgd1na2vs0mg"},{"bike_id":"17e5e3ec-3f5a-4d6b-97f8-461ee04a3034","system_id":"levelo_inurba_marseille","lat":43.29005,"lon":5.35612,"is_reserved":false,"is_disabled":false,"rental_uris":{"android":"levelo://app?vid=17e5e3ec-3f5a-4d6b-97f8-461ee04a3034","ios":"levelo://app?vid=17e5e3ec-3f5a-4d6b-97f8-461ee04a3034"},"vehicle_type_id":"4","last_reported":1725721693,"current_range_meters":9200,"station_id":"ce4bhb92rcd13ifvqen0","pricing_plan_id":"cebpf4jnsgd1na2vs0mg"},{"bike_id":"165d7aba-e224-4cc3-9ade-a78ebc4c47cf","system_id":"levelo_inurba_marseille","lat":43.29005,"lon":5.35606,"is_reserved":false,"is_disabled":false,"rental_uris":{"android":"levelo://app?vid=165d7aba-e224-4cc3-9ade-a78ebc4c47cf","ios":"levelo://app?vid=165d7aba-e224-4cc3-9ade-a78ebc4c47cf"},"vehicle_type_id":"4","last_reported":1725721693,"current_range_meters":18000,"station_id":"ce4bhb92rcd13ifvqen0","pricing_plan_id":"cebpf4jnsgd1na2vs0mg"},{"bike_id":"c5b65792-27eb-4074-950f-3cfaa0fade1d","system_id":"levelo_inurba_marseille","lat":43.290103,"lon":5.356114,"is_reserved":false,"is_disabled":false,"rental_uris":{"android":"levelo://app?vid=c5b65792-27eb-4074-950f-3cfaa0fade1d","ios":"levelo://app?vid=c5b65792-27eb-4074-950f-3cfaa0fade1d"},"vehicle_type_id":"4","last_reported":1725721693,"current_range_meters":0,"station_id":"ce4bhb92rcd13ifvqen0","pricing_plan_id":"cebpf4jnsgd1na2vs0mg"},{"bike_id":"9a0683bf-e8f6-467a-b930-5fbf91f045b3","system_id":"levelo_inurba_marseille","lat":43.29003,"lon":5.3561,"is_reserved":false,"is_disabled":false,"rental_uris":{"android":"levelo://app?vid=9a0683bf-e8f6-467a-b930-5fbf91f045b3","ios":"levelo://app?vid=9a0683bf-e8f6-467a-b930-5fbf91f045b3"},"vehicle_type_id":"4","last_reported":1725721693,"current_range_meters":0,"station_id":"ce4bhb92rcd13ifvqen0","pricing_plan_id":"cebpf4jnsgd1na2vs0mg"},{"bike_id":"42387539-6a8d-4c61-868d-e05ef666bb88","system_id":"levelo_inurba_marseille","lat":43.290103,"lon":5.356114,"is_reserved":false,"is_disabled":false,"rental_uris":{"android":"levelo://app?vid=42387539-6a8d-4c61-868d-e05ef666bb88","ios":"levelo://app?vid=42387539-6a8d-4c61-868d-e05ef666bb88"},"vehicle_type_id":"4","last_reported":1725721693,"current_range_meters":6000,"station_id":"ce4bhb92rcd13ifvqen0","pricing_plan_id":"cebpf4jnsgd1na2vs0mg"},{"bike_id":"3fbc22f3-b6cf-44c1-8fb6-bcfba9515eac","system_id":"levelo_inurba_marseille","lat":43.29795,"lon":5.39352,"is_reserved":false,"is_disabled":false,"rental_uris":{"android":"levelo://app?vid=3fbc22f3-b6cf-44c1-8fb6-bcfba9515eac","ios":"levelo://app?vid=3fbc22f3-b6cf-44c1-8fb6-bcfba9515eac"},"vehicle_type_id":"4","last_reported":1725721693,"current_range_meters":12800,"station_id":"chh1huq6cuj3fo74tm60","pricing_plan_id":"cebpf4jnsgd1na2vs0mg"},{"bike_id":"0c479f67-594d-4ae5-a9ba-5a6bc6160870","system_id":"levelo_inurba_marseille","lat":43.295169,"lon":5.390426,"is_reserved":false,"is_disabled":false,"rental_uris":{"android":"levelo://app?vid=0c479f67-594d-4ae5-a9ba-5a6bc6160870","ios":"levelo://app?vid=0c479f67-594d-4ae5-a9ba-5a6bc6160870"},"vehicle_type_id":"4","last_reported":1725721693,"current_range_meters":14400,"station_id":"ce4bh3p2rcd13ifvqdp0","pricing_plan_id":"cebpf4jnsgd1na2vs0mg"},{"bike_id":"f04bd275-ec11-4ef1-b3b2-15d2abbede83","system_id":"levelo_inurba_marseille","lat":43.310645,"lon":5.400571,"is_reserved":false,"is_disabled":false,"rental_uris":{"android":"levelo://app?vid=f04bd275-ec11-4ef1-b3b2-15d2abbede83","ios":"levelo://app?vid=f04bd275-ec11-4ef1-b3b2-15d2abbede83"},"vehicle_type_id":"4","last_reported":1725721693,"current_range_meters":15600,"station_id":"","pricing_plan_id":"cebpf4jnsgd1na2vs0mg"},{"bike_id":"8ec51539-b9d7-477d-a73f-e64230d30c1d","system_id":"levelo_inurba_marseille","lat":43.2901,"lon":5.381269,"is_reserved":false,"is_disabled":false,"rental_uris":{"android":"levelo://app?vid=8ec51539-b9d7-477d-a73f-e64230d30c1d","ios":"levelo://app?vid=8ec51539-b9d7-477d-a73f-e64230d30c1d"},"vehicle_type_id":"4","last_reported":1725721693,"current_range_meters":0,"station_id":"ce4bh4p2rcd13ifvqe1g","pricing_plan_id":"cebpf4jnsgd1na2vs0mg"},{"bike_id":"137dc5de-f827-407b-bc57-692ceab0d501","system_id":"levelo_inurba_marseille","lat":43.2886,"lon":5.35859,"is_reserved":false,"is_disabled":false,"rental_uris":{"android":"levelo://app?vid=137dc5de-f827-407b-bc57-692ceab0d501","ios":"levelo://app?vid=137dc5de-f827-407b-bc57-692ceab0d501"},"vehicle_type_id":"4","last_reported":1725721693,"current_range_meters":0,"station_id":"ce4bhb12rcd13ifvqem0","pricing_plan_id":"cebpf4jnsgd1na2vs0mg"},{"bike_id":"dc2af9ff-db1e-498d-9f64-936d71884587","system_id":"levelo_inurba_marseille","lat":43.28856,"lon":5.358371,"is_reserved":false,"is_disabled":false,"rental_uris":{"android":"levelo://app?vid=dc2af9ff-db1e-498d-9f64-936d71884587","ios":"levelo://app?vid=dc2af9ff-db1e-498d-9f64-936d71884587"},"vehicle_type_id":"4","last_reported":1725721693,"current_range_meters":2400,"station_id":"ce4bhb12rcd13ifvqem0","pricing_plan_id":"cebpf4jnsgd1na2vs0mg"},{"bike_id":"097f2961-a2f3-4bfc-a995-b24276e20f80","system_id":"levelo_inurba_marseille","lat":43.288533,"lon":5.358737,"is_reserved":false,"is_disabled":false,"rental_uris":{"android":"levelo://app?vid=097f2961-a2f3-4bfc-a995-b24276e20f80","ios":"levelo://app?vid=097f2961-a2f3-4bfc-a995-b24276e20f80"},"vehicle_type_id":"4","last_reported":1725721693,"current_range_meters":27600,"station_id":"ce4bhb12rcd13ifvqem0","pricing_plan_id":"cebpf4jnsgd1na2vs0mg"},{"bike_id":"c623fa77-51dc-46ab-bbaa-094e117b6065","system_id":"levelo_inurba_marseille","lat":43.28855,"lon":5.35859,"is_reserved":false,"is_disabled":false,"rental_uris":{"android":"levelo://app?vid=c623fa77-51dc-46ab-bbaa-094e117b6065","ios":"levelo://app?vid=c623fa77-51dc-46ab-bbaa-094e117b6065"},"vehicle_type_id":"4","last_reported":1725721693,"current_range_meters":0,"station_id":"ce4bhb12rcd13ifvqem0","pricing_plan_id":"cebpf4jnsgd1na2vs0mg"},{"bike_id":"547a28a9-6136-4e37-ac4e-9eb807693a46","system_id":"levelo_inurba_marseille","lat":43.28854,"lon":5.35858,"is_reserved":false,"is_disabled":false,"rental_uris":{"android":"levelo://app?vid=547a28a9-6136-4e37-ac4e-9eb807693a46","ios":"levelo://app?vid=547a28a9-6136-4e37-ac4e-9eb807693a46"},"vehicle_type_id":"4","last_reported":1725721693,"current_range_meters":2800,"station_id":"ce4bhb12rcd13ifvqem0","pricing_plan_id":"cebpf4jnsgd1na2vs0mg"},{"bike_id":"d2c39303-ee82-4e01-9193-4bf46df80aa7","system_id":"levelo_inurba_marseille","lat":43.2885,"lon":5.35859,"is_reserved":false,"is_disabled":false,"rental_uris":{"android":"levelo://app?vid=d2c39303-ee82-4e01-9193-4bf46df80aa7","ios":"levelo://app?vid=d2c39303-ee82-4e01-9193-4bf46df80aa7"},"vehicle_type_id":"4","last_reported":1725721693,"current_range_meters":18400,"station_id":"ce4bhb12rcd13ifvqem0","pricing_plan_id":"cebpf4jnsgd1na2vs0mg"},{"bike_id":"7b766a54-3381-4b18-b926-cff9c98271e9","system_id":"levelo_inurba_marseille","lat":43.28849,"lon":5.35854,"is_reserved":false,"is_disabled":false,"rental_uris":{"android":"levelo://app?vid=7b766a54-3381-4b18-b926-cff9c98271e9","ios":"levelo://app?vid=7b766a54-3381-4b18-b926-cff9c98271e9"},"vehicle_type_id":"4","last_reported":1725721693,"current_range_meters":18800,"station_id":"ce4bhb12rcd13ifvqem0","pricing_plan_id":"cebpf4jnsgd1na2vs0mg"},{"bike_id":"b857a3ba-10d1-4f5e-811f-5ebb2af5ea8b","system_id":"levelo_inurba_marseille","lat":43.28856,"lon":5.358371,"is_reserved":false,"is_disabled":false,"rental_uris":{"android":"levelo://app?vid=b857a3ba-10d1-4f5e-811f-5ebb2af5ea8b","ios":"levelo://app?vid=b857a3ba-10d1-4f5e-811f-5ebb2af5ea8b"},"vehicle_type_id":"4","last_reported":1725721693,"current_range_meters":18000,"station_id":"ce4bhb12rcd13ifvqem0","pricing_plan_id":"cebpf4jnsgd1na2vs0mg"},{"bike_id":"b26a9bda-7e58-4269-ad74-eb45d2a53224","system_id":"levelo_inurba_marseille","lat":43.28856,"lon":5.358371,"is_reserved":false,"is_disabled":false,"rental_uris":{"android":"levelo://app?vid=b26a9bda-7e58-4269-ad74-eb45d2a53224","ios":"levelo://app?vid=b26a9bda-7e58-4269-ad74-eb45d2a53224"},"vehicle_type_id":"4","last_reported":1725721693,"current_range_meters":16800,"station_id":"ce4bhb12rcd13ifvqem0","pricing_plan_id":"cebpf4jnsgd1na2vs0mg"},{"bike_id":"be5ba768-1f25-4909-9609-295c3fc14ae5","system_id":"levelo_inurba_marseille","lat":43.28856,"lon":5.358371,"is_reserved":false,"is_disabled":false,"rental_uris":{"android":"levelo://app?vid=be5ba768-1f25-4909-9609-295c3fc14ae5","ios":"levelo://app?vid=be5ba768-1f25-4909-9609-295c3fc14ae5"},"vehicle_type_id":"4","last_reported":1725721693,"current_range_meters":6800,"station_id":"ce4bhb12rcd13ifvqem0","pricing_plan_id":"cebpf4jnsgd1na2vs0mg"},{"bike_id":"dd3ca4b6-d187-496c-8678-f803ef7f7c31","system_id":"levelo_inurba_marseille","lat":43.28841,"lon":5.3586,"is_reserved":false,"is_disabled":false,"rental_uris":{"android":"levelo://app?vid=dd3ca4b6-d187-496c-8678-f803ef7f7c31","ios":"levelo://app?vid=dd3ca4b6-d187-496c-8678-f803ef7f7c31"},"vehicle_type_id":"4","last_reported":1725721693,"current_range_meters":10000,"station_id":"ce4bhb12rcd13ifvqem0","pricing_plan_id":"cebpf4jnsgd1na2vs0mg"},{"bike_id":"121a093d-c97d-4c6f-8de2-4ef38c9eec94","system_id":"levelo_inurba_marseille","lat":43.28856,"lon":5.358371,"is_reserved":false,"is_disabled":false,"rental_uris":{"android":"levelo://app?vid=121a093d-c97d-4c6f-8de2-4ef38c9eec94","ios":"levelo://app?vid=121a093d-c97d-4c6f-8de2-4ef38c9eec94"},"vehicle_type_id":"4","last_reported":1725721693,"current_range_meters":3200,"station_id":"ce4bhb12rcd13ifvqem0","pricing_plan_id":"cebpf4jnsgd1na2vs0mg"},{"bike_id":"c0f2e9cd-b641-4ad5-8e68-2cc275ed2a05","system_id":"levelo_inurba_marseille","lat":43.309371,"lon":5.401449,"is_reserved":false,"is_disabled":false,"rental_uris":{"android":"levelo://app?vid=c0f2e9cd-b641-4ad5-8e68-2cc275ed2a05","ios":"levelo://app?vid=c0f2e9cd-b641-4ad5-8e68-2cc275ed2a05"},"vehicle_type_id":"4","last_reported":1725721693,"current_range_meters":10000,"station_id":"ce4bgvp2rcd13ifvqct0","pricing_plan_id":"cebpf4jnsgd1na2vs0mg"},{"bike_id":"199d9322-b01d-4544-ad75-ef3e1cd448e7","system_id":"levelo_inurba_marseille","lat":43.28856,"lon":5.358371,"is_reserved":false,"is_disabled":false,"rental_uris":{"android":"levelo://app?vid=199d9322-b01d-4544-ad75-ef3e1cd448e7","ios":"levelo://app?vid=199d9322-b01d-4544-ad75-ef3e1cd448e7"},"vehicle_type_id":"4","last_reported":1725721693,"current_range_meters":29200,"station_id":"ce4bhb12rcd13ifvqem0","pricing_plan_id":"cebpf4jnsgd1na2vs0mg"},{"bike_id":"0a51e642-54d7-4a2b-b933-ae7b60639c29","system_id":"levelo_inurba_marseille","lat":43.312609,"lon":5.401662,"is_reserved":false,"is_disabled":false,"rental_uris":{"android":"levelo://app?vid=0a51e642-54d7-4a2b-b933-ae7b60639c29","ios":"levelo://app?vid=0a51e642-54d7-4a2b-b933-ae7b60639c29"},"vehicle_type_id":"4","last_reported":1725721693,"current_range_meters":29600,"station_id":"ce4bh092rcd13ifvqd30","pricing_plan_id":"cebpf4jnsgd1na2vs0mg"},{"bike_id":"15b9b10e-0054-42e9-85fd-b78634613811","system_id":"levelo_inurba_marseille","lat":43.312758,"lon":5.401747,"is_reserved":false,"is_disabled":false,"rental_uris":{"android":"levelo://app?vid=15b9b10e-0054-42e9-85fd-b78634613811","ios":"levelo://app?vid=15b9b10e-0054-42e9-85fd-b78634613811"},"vehicle_type_id":"4","last_reported":1725721693,"current_range_meters":7200,"station_id":"","pricing_plan_id":"cebpf4jnsgd1na2vs0mg"},{"bike_id":"40565d8c-4159-4883-b3f0-28e961f6be9e","system_id":"levelo_inurba_marseille","lat":43.33717,"lon":5.35762,"is_reserved":false,"is_disabled":false,"rental_uris":{"android":"levelo://app?vid=40565d8c-4159-4883-b3f0-28e961f6be9e","ios":"levelo://app?vid=40565d8c-4159-4883-b3f0-28e961f6be9e"},"vehicle_type_id":"4","last_reported":1725721693,"current_range_meters":16000,"station_id":"","pricing_plan_id":"cebpf4jnsgd1na2vs0mg"},{"bike_id":"85c48fe5-3b62-4e0f-867e-f8d1981f7a3b","system_id":"levelo_inurba_marseille","lat":43.287185,"lon":5.379373,"is_reserved":false,"is_disabled":false,"rental_uris":{"android":"levelo://app?vid=85c48fe5-3b62-4e0f-867e-f8d1981f7a3b","ios":"levelo://app?vid=85c48fe5-3b62-4e0f-867e-f8d1981f7a3b"},"vehicle_type_id":"4","last_reported":1725721693,"current_range_meters":16000,"station_id":"ce4bh9p2rcd13ifvqec0","pricing_plan_id":"cebpf4jnsgd1na2vs0mg"},{"bike_id":"3f3244df-bee4-4437-b2a1-ab9135c8e39a","system_id":"levelo_inurba_marseille","lat":43.33755,"lon":5.37455,"is_reserved":false,"is_disabled":false,"rental_uris":{"android":"levelo://app?vid=3f3244df-bee4-4437-b2a1-ab9135c8e39a","ios":"levelo://app?vid=3f3244df-bee4-4437-b2a1-ab9135c8e39a"},"vehicle_type_id":"4","last_reported":1725721693,"current_range_meters":19600,"station_id":"","pricing_plan_id":"cebpf4jnsgd1na2vs0mg"},{"bike_id":"45985ff5-fc75-4626-9a62-c7067a0f7ca9","system_id":"levelo_inurba_marseille","lat":43.337555,"lon":5.374598,"is_reserved":false,"is_disabled":false,"rental_uris":{"android":"levelo://app?vid=45985ff5-fc75-4626-9a62-c7067a0f7ca9","ios":"levelo://app?vid=45985ff5-fc75-4626-9a62-c7067a0f7ca9"},"vehicle_type_id":"4","last_reported":1725721693,"current_range_meters":31200,"station_id":"ce4bhr92rcd13ifvqhrg","pricing_plan_id":"cebpf4jnsgd1na2vs0mg"},{"bike_id":"39f5af82-2d9d-49b5-9de0-0477144a0224","system_id":"levelo_inurba_marseille","lat":43.33756,"lon":5.37457,"is_reserved":false,"is_disabled":false,"rental_uris":{"android":"levelo://app?vid=39f5af82-2d9d-49b5-9de0-0477144a0224","ios":"levelo://app?vid=39f5af82-2d9d-49b5-9de0-0477144a0224"},"vehicle_type_id":"4","last_reported":1725721693,"current_range_meters":22800,"station_id":"","pricing_plan_id":"cebpf4jnsgd1na2vs0mg"},{"bike_id":"e0b65a30-0b65-4847-a685-99e4930e4876","system_id":"levelo_inurba_marseille","lat":43.301117,"lon":5.398795,"is_reserved":false,"is_disabled":false,"rental_uris":{"android":"levelo://app?vid=e0b65a30-0b65-4847-a685-99e4930e4876","ios":"levelo://app?vid=e0b65a30-0b65-4847-a685-99e4930e4876"},"vehicle_type_id":"4","last_reported":1725721693,"current_range_meters":15600,"station_id":"ce4bh0h2rcd13ifvqd40","pricing_plan_id":"cebpf4jnsgd1na2vs0mg"},{"bike_id":"2ebeeca9-bbf3-485d-9ad8-098b0b0e1048","system_id":"levelo_inurba_marseille","lat":43.286591,"lon":5.363346,"is_reserved":false,"is_disabled":false,"rental_uris":{"android":"levelo://app?vid=2ebeeca9-bbf3-485d-9ad8-098b0b0e1048","ios":"levelo://app?vid=2ebeeca9-bbf3-485d-9ad8-098b0b0e1048"},"vehicle_type_id":"4","last_reported":1725721693,"current_range_meters":6800,"station_id":"ce4bhah2rcd13ifvqej0","pricing_plan_id":"cebpf4jnsgd1na2vs0mg"},{"bike_id":"d042bbaa-7caa-4645-ac77-dc377916aed7","system_id":"levelo_inurba_marseille","lat":43.295192,"lon":5.393948,"is_reserved":false,"is_disabled":false,"rental_uris":{"android":"levelo://app?vid=d042bbaa-7caa-4645-ac77-dc377916aed7","ios":"levelo://app?vid=d042bbaa-7caa-4645-ac77-dc377916aed7"},"vehicle_type_id":"4","last_reported":1725721693,"current_range_meters":0,"station_id":"ce4bh292rcd13ifvqdf0","pricing_plan_id":"cebpf4jnsgd1na2vs0mg"},{"bike_id":"b3bfc2c4-e224-41b6-89e9-9b4ae79d4da5","system_id":"levelo_inurba_marseille","lat":43.28931,"lon":5.38383,"is_reserved":false,"is_disabled":false,"rental_uris":{"android":"levelo://app?vid=b3bfc2c4-e224-41b6-89e9-9b4ae79d4da5","ios":"levelo://app?vid=b3bfc2c4-e224-41b6-89e9-9b4ae79d4da5"},"vehicle_type_id":"4","last_reported":1725721693,"current_range_meters":0,"station_id":"ce4bh612rcd13ifvqe6g","pricing_plan_id":"cebpf4jnsgd1na2vs0mg"},{"bike_id":"92e71f00-b78e-4012-976f-fc3ff903b802","system_id":"levelo_inurba_marseille","lat":43.290345,"lon":5.38646,"is_reserved":false,"is_disabled":false,"rental_uris":{"android":"levelo://app?vid=92e71f00-b78e-4012-976f-fc3ff903b802","ios":"levelo://app?vid=92e71f00-b78e-4012-976f-fc3ff903b802"},"vehicle_type_id":"4","last_reported":1725721693,"current_range_meters":0,"station_id":"ce4bh4p2rcd13ifvqe0g","pricing_plan_id":"cebpf4jnsgd1na2vs0mg"},{"bike_id":"a302aba3-85c4-4816-af25-daa5430eb62d","system_id":"levelo_inurba_marseille","lat":43.29029,"lon":5.386463,"is_reserved":false,"is_disabled":false,"rental_uris":{"android":"levelo://app?vid=a302aba3-85c4-4816-af25-daa5430eb62d","ios":"levelo://app?vid=a302aba3-85c4-4816-af25-daa5430eb62d"},"vehicle_type_id":"4","last_reported":1725721693,"current_range_meters":28800,"station_id":"ce4bh4p2rcd13ifvqe0g","pricing_plan_id":"cebpf4jnsgd1na2vs0mg"},{"bike_id":"f47704d6-272b-4493-8514-32f4e7f547fa","system_id":"levelo_inurba_marseille","lat":43.290336,"lon":5.386425,"is_reserved":false,"is_disabled":false,"rental_uris":{"android":"levelo://app?vid=f47704d6-272b-4493-8514-32f4e7f547fa","ios":"levelo://app?vid=f47704d6-272b-4493-8514-32f4e7f547fa"},"vehicle_type_id":"4","last_reported":1725721693,"current_range_meters":15600,"station_id":"ce4bh4p2rcd13ifvqe0g","pricing_plan_id":"cebpf4jnsgd1na2vs0mg"},{"bike_id":"d1b87304-03c5-4e18-9904-c7266a8f187e","system_id":"levelo_inurba_marseille","lat":43.286039,"lon":5.370679,"is_reserved":false,"is_disabled":false,"rental_uris":{"android":"levelo://app?vid=d1b87304-03c5-4e18-9904-c7266a8f187e","ios":"levelo://app?vid=d1b87304-03c5-4e18-9904-c7266a8f187e"},"vehicle_type_id":"4","last_reported":1725721693,"current_range_meters":10000,"station_id":"ce4bht12rcd13ifvqi60","pricing_plan_id":"cebpf4jnsgd1na2vs0mg"},{"bike_id":"67c374cb-e445-40ae-a691-1e143c42874d","system_id":"levelo_inurba_marseille","lat":43.286039,"lon":5.370679,"is_reserved":false,"is_disabled":false,"rental_uris":{"android":"levelo://app?vid=67c374cb-e445-40ae-a691-1e143c42874d","ios":"levelo://app?vid=67c374cb-e445-40ae-a691-1e143c42874d"},"vehicle_type_id":"4","last_reported":1725721693,"current_range_meters":3200,"station_id":"ce4bht12rcd13ifvqi60","pricing_plan_id":"cebpf4jnsgd1na2vs0mg"},{"bike_id":"fda76631-b59c-459a-b0af-8c4f5f53a474","system_id":"levelo_inurba_marseille","lat":43.28591,"lon":5.37189,"is_reserved":false,"is_disabled":false,"rental_uris":{"android":"levelo://app?vid=fda76631-b59c-459a-b0af-8c4f5f53a474","ios":"levelo://app?vid=fda76631-b59c-459a-b0af-8c4f5f53a474"},"vehicle_type_id":"4","last_reported":1725721693,"current_range_meters":0,"station_id":"","pricing_plan_id":"cebpf4jnsgd1na2vs0mg"},{"bike_id":"0adc8736-253e-4a3a-b5da-a82263632976","system_id":"levelo_inurba_marseille","lat":43.28774,"lon":5.35241,"is_reserved":false,"is_disabled":false,"rental_uris":{"android":"levelo://app?vid=0adc8736-253e-4a3a-b5da-a82263632976","ios":"levelo://app?vid=0adc8736-253e-4a3a-b5da-a82263632976"},"vehicle_type_id":"4","last_reported":1725721693,"current_range_meters":10400,"station_id":"","pricing_plan_id":"cebpf4jnsgd1na2vs0mg"},{"bike_id":"4284af20-e656-48f8-99e5-2c6d829562fd","system_id":"levelo_inurba_marseille","lat":43.316828,"lon":5.404723,"is_reserved":false,"is_disabled":false,"rental_uris":{"android":"levelo://app?vid=4284af20-e656-48f8-99e5-2c6d829562fd","ios":"levelo://app?vid=4284af20-e656-48f8-99e5-2c6d829562fd"},"vehicle_type_id":"4","last_reported":1725721693,"current_range_meters":800,"station_id":"ce4bh012rcd13ifvqd00","pricing_plan_id":"cebpf4jnsgd1na2vs0mg"},{"bike_id":"8fa718fe-9cba-4892-986b-2dc385b5a3c4","system_id":"levelo_inurba_marseille","lat":43.28465,"lon":5.35885,"is_reserved":false,"is_disabled":false,"rental_uris":{"android":"levelo://app?vid=8fa718fe-9cba-4892-986b-2dc385b5a3c4","ios":"levelo://app?vid=8fa718fe-9cba-4892-986b-2dc385b5a3c4"},"vehicle_type_id":"4","last_reported":1725721693,"current_range_meters":0,"station_id":"ce4bhah2rcd13ifvqei0","pricing_plan_id":"cebpf4jnsgd1na2vs0mg"},{"bike_id":"8e30221f-c4fd-4b45-96d0-69a239f3bbc1","system_id":"levelo_inurba_marseille","lat":43.284534,"lon":5.358662,"is_reserved":false,"is_disabled":false,"rental_uris":{"android":"levelo://app?vid=8e30221f-c4fd-4b45-96d0-69a239f3bbc1","ios":"levelo://app?vid=8e30221f-c4fd-4b45-96d0-69a239f3bbc1"},"vehicle_type_id":"4","last_reported":1725721693,"current_range_meters":11600,"station_id":"ce4bhah2rcd13ifvqei0","pricing_plan_id":"cebpf4jnsgd1na2vs0mg"},{"bike_id":"87d210b1-8560-4656-9bcf-323898357391","system_id":"levelo_inurba_marseille","lat":43.303256,"lon":5.404389,"is_reserved":false,"is_disabled":false,"rental_uris":{"android":"levelo://app?vid=87d210b1-8560-4656-9bcf-323898357391","ios":"levelo://app?vid=87d210b1-8560-4656-9bcf-323898357391"},"vehicle_type_id":"4","last_reported":1725721693,"current_range_meters":0,"station_id":"ce4bh012rcd13ifvqd10","pricing_plan_id":"cebpf4jnsgd1na2vs0mg"},{"bike_id":"2ad66222-c1c8-4169-81d1-497f0f4004c1","system_id":"levelo_inurba_marseille","lat":43.284534,"lon":5.358662,"is_reserved":false,"is_disabled":false,"rental_uris":{"android":"levelo://app?vid=2ad66222-c1c8-4169-81d1-497f0f4004c1","ios":"levelo://app?vid=2ad66222-c1c8-4169-81d1-497f0f4004c1"},"vehicle_type_id":"4","last_reported":1725721693,"current_range_meters":7200,"station_id":"ce4bhah2rcd13ifvqei0","pricing_plan_id":"cebpf4jnsgd1na2vs0mg"},{"bike_id":"6d133e92-1e1c-456a-8fac-cef7de20eb34","system_id":"levelo_inurba_marseille","lat":43.28624,"lon":5.35103,"is_reserved":false,"is_disabled":false,"rental_uris":{"android":"levelo://app?vid=6d133e92-1e1c-456a-8fac-cef7de20eb34","ios":"levelo://app?vid=6d133e92-1e1c-456a-8fac-cef7de20eb34"},"vehicle_type_id":"4","last_reported":1725721693,"current_range_meters":6000,"station_id":"ce4bhch2rcd13ifvqeug","pricing_plan_id":"cebpf4jnsgd1na2vs0mg"},{"bike_id":"e3113821-21ef-4d34-aeaf-ec54e84c2ae9","system_id":"levelo_inurba_marseille","lat":43.285856,"lon":5.350771,"is_reserved":false,"is_disabled":false,"rental_uris":{"android":"levelo://app?vid=e3113821-21ef-4d34-aeaf-ec54e84c2ae9","ios":"levelo://app?vid=e3113821-21ef-4d34-aeaf-ec54e84c2ae9"},"vehicle_type_id":"4","last_reported":1725721693,"current_range_meters":27200,"station_id":"ce4bhch2rcd13ifvqeug","pricing_plan_id":"cebpf4jnsgd1na2vs0mg"},{"bike_id":"55e59c15-a361-4fb9-bfe2-7e6b377f8ecb","system_id":"levelo_inurba_marseille","lat":43.286197,"lon":5.35106,"is_reserved":false,"is_disabled":false,"rental_uris":{"android":"levelo://app?vid=55e59c15-a361-4fb9-bfe2-7e6b377f8ecb","ios":"levelo://app?vid=55e59c15-a361-4fb9-bfe2-7e6b377f8ecb"},"vehicle_type_id":"4","last_reported":1725721693,"current_range_meters":0,"station_id":"ce4bhch2rcd13ifvqeug","pricing_plan_id":"cebpf4jnsgd1na2vs0mg"},{"bike_id":"b4d0de31-1698-420c-9e70-31a5f1ad028a","system_id":"levelo_inurba_marseille","lat":43.2862,"lon":5.35098,"is_reserved":false,"is_disabled":false,"rental_uris":{"android":"levelo://app?vid=b4d0de31-1698-420c-9e70-31a5f1ad028a","ios":"levelo://app?vid=b4d0de31-1698-420c-9e70-31a5f1ad028a"},"vehicle_type_id":"4","last_reported":1725721693,"current_range_meters":13600,"station_id":"ce4bhch2rcd13ifvqeug","pricing_plan_id":"cebpf4jnsgd1na2vs0mg"},{"bike_id":"a2c668b5-7616-4b2c-b4a4-dee4af0c8813","system_id":"levelo_inurba_marseille","lat":43.28618,"lon":5.351,"is_reserved":false,"is_disabled":false,"rental_uris":{"android":"levelo://app?vid=a2c668b5-7616-4b2c-b4a4-dee4af0c8813","ios":"levelo://app?vid=a2c668b5-7616-4b2c-b4a4-dee4af0c8813"},"vehicle_type_id":"4","last_reported":1725721693,"current_range_meters":5600,"station_id":"ce4bhch2rcd13ifvqeug","pricing_plan_id":"cebpf4jnsgd1na2vs0mg"},{"bike_id":"59d877aa-d979-4cc6-b1e3-6dcb76b35e11","system_id":"levelo_inurba_marseille","lat":43.28617,"lon":5.35102,"is_reserved":false,"is_disabled":false,"rental_uris":{"android":"levelo://app?vid=59d877aa-d979-4cc6-b1e3-6dcb76b35e11","ios":"levelo://app?vid=59d877aa-d979-4cc6-b1e3-6dcb76b35e11"},"vehicle_type_id":"4","last_reported":1725721693,"current_range_meters":0,"station_id":"ce4bhch2rcd13ifvqeug","pricing_plan_id":"cebpf4jnsgd1na2vs0mg"},{"bike_id":"d9eb232f-46a5-49e1-86e8-e24ece0ce47d","system_id":"levelo_inurba_marseille","lat":43.28617,"lon":5.35095,"is_reserved":false,"is_disabled":false,"rental_uris":{"android":"levelo://app?vid=d9eb232f-46a5-49e1-86e8-e24ece0ce47d","ios":"levelo://app?vid=d9eb232f-46a5-49e1-86e8-e24ece0ce47d"},"vehicle_type_id":"4","last_reported":1725721693,"current_range_meters":5600,"station_id":"ce4bhch2rcd13ifvqeug","pricing_plan_id":"cebpf4jnsgd1na2vs0mg"},{"bike_id":"ece0a681-8434-4167-80b1-3d9fbdbac3ec","system_id":"levelo_inurba_marseille","lat":43.295713,"lon":5.399639,"is_reserved":false,"is_disabled":false,"rental_uris":{"android":"levelo://app?vid=ece0a681-8434-4167-80b1-3d9fbdbac3ec","ios":"levelo://app?vid=ece0a681-8434-4167-80b1-3d9fbdbac3ec"},"vehicle_type_id":"4","last_reported":1725721693,"current_range_meters":24800,"station_id":"ce4bh312rcd13ifvqdj0","pricing_plan_id":"cebpf4jnsgd1na2vs0mg"},{"bike_id":"0d7fd893-57c3-4750-b4e0-cd5a081a1ccb","system_id":"levelo_inurba_marseille","lat":43.286595,"lon":5.386795,"is_reserved":false,"is_disabled":false,"rental_uris":{"android":"levelo://app?vid=0d7fd893-57c3-4750-b4e0-cd5a081a1ccb","ios":"levelo://app?vid=0d7fd893-57c3-4750-b4e0-cd5a081a1ccb"},"vehicle_type_id":"4","last_reported":1725721693,"current_range_meters":1200,"station_id":"ce4bh492rcd13ifvqdug","pricing_plan_id":"cebpf4jnsgd1na2vs0mg"},{"bike_id":"1e43327b-eda2-4560-ba16-64ec90967bb5","system_id":"levelo_inurba_marseille","lat":43.273613,"lon":5.362705,"is_reserved":false,"is_disabled":false,"rental_uris":{"android":"levelo://app?vid=1e43327b-eda2-4560-ba16-64ec90967bb5","ios":"levelo://app?vid=1e43327b-eda2-4560-ba16-64ec90967bb5"},"vehicle_type_id":"4","last_reported":1725721693,"current_range_meters":13200,"station_id":"ce4bhbh2rcd13ifvqeo0","pricing_plan_id":"cebpf4jnsgd1na2vs0mg"},{"bike_id":"5fed1784-3952-482e-ac58-405868f201b1","system_id":"levelo_inurba_marseille","lat":43.319179,"lon":5.407725,"is_reserved":false,"is_disabled":false,"rental_uris":{"android":"levelo://app?vid=5fed1784-3952-482e-ac58-405868f201b1","ios":"levelo://app?vid=5fed1784-3952-482e-ac58-405868f201b1"},"vehicle_type_id":"4","last_reported":1725721693,"current_range_meters":0,"station_id":"ce4bhq12rcd13ifvqhig","pricing_plan_id":"cebpf4jnsgd1na2vs0mg"},{"bike_id":"441b72cd-41ac-41ad-8528-8a86e25dcca1","system_id":"levelo_inurba_marseille","lat":43.319179,"lon":5.407725,"is_reserved":false,"is_disabled":false,"rental_uris":{"android":"levelo://app?vid=441b72cd-41ac-41ad-8528-8a86e25dcca1","ios":"levelo://app?vid=441b72cd-41ac-41ad-8528-8a86e25dcca1"},"vehicle_type_id":"4","last_reported":1725721693,"current_range_meters":19600,"station_id":"ce4bhq12rcd13ifvqhig","pricing_plan_id":"cebpf4jnsgd1na2vs0mg"},{"bike_id":"225b2d41-2d78-468b-ad6a-c9dfc8de765c","system_id":"levelo_inurba_marseille","lat":43.319179,"lon":5.407725,"is_reserved":false,"is_disabled":false,"rental_uris":{"android":"levelo://app?vid=225b2d41-2d78-468b-ad6a-c9dfc8de765c","ios":"levelo://app?vid=225b2d41-2d78-468b-ad6a-c9dfc8de765c"},"vehicle_type_id":"4","last_reported":1725721693,"current_range_meters":16800,"station_id":"ce4bhq12rcd13ifvqhig","pricing_plan_id":"cebpf4jnsgd1na2vs0mg"},{"bike_id":"b4116981-0757-4e56-9558-ae26d066d8d4","system_id":"levelo_inurba_marseille","lat":43.323464,"lon":5.406297,"is_reserved":false,"is_disabled":false,"rental_uris":{"android":"levelo://app?vid=b4116981-0757-4e56-9558-ae26d066d8d4","ios":"levelo://app?vid=b4116981-0757-4e56-9558-ae26d066d8d4"},"vehicle_type_id":"4","last_reported":1725721693,"current_range_meters":31200,"station_id":"ce4bhq92rcd13ifvqhjg","pricing_plan_id":"cebpf4jnsgd1na2vs0mg"},{"bike_id":"3cacdc3c-6b87-407a-9091-cb49d39a7b3d","system_id":"levelo_inurba_marseille","lat":43.33729,"lon":5.3918,"is_reserved":false,"is_disabled":false,"rental_uris":{"android":"levelo://app?vid=3cacdc3c-6b87-407a-9091-cb49d39a7b3d","ios":"levelo://app?vid=3cacdc3c-6b87-407a-9091-cb49d39a7b3d"},"vehicle_type_id":"4","last_reported":1725721693,"current_range_meters":31200,"station_id":"ce4bhr92rcd13ifvqhsg","pricing_plan_id":"cebpf4jnsgd1na2vs0mg"},{"bike_id":"7e92c364-ea1e-4355-baf6-32ed542b399f","system_id":"levelo_inurba_marseille","lat":43.323464,"lon":5.406297,"is_reserved":false,"is_disabled":false,"rental_uris":{"android":"levelo://app?vid=7e92c364-ea1e-4355-baf6-32ed542b399f","ios":"levelo://app?vid=7e92c364-ea1e-4355-baf6-32ed542b399f"},"vehicle_type_id":"4","last_reported":1725721693,"current_range_meters":5600,"station_id":"ce4bhq92rcd13ifvqhjg","pricing_plan_id":"cebpf4jnsgd1na2vs0mg"},{"bike_id":"82982d8b-53f3-48fd-baeb-5566addfcac8","system_id":"levelo_inurba_marseille","lat":43.284793,"lon":5.384119,"is_reserved":false,"is_disabled":false,"rental_uris":{"android":"levelo://app?vid=82982d8b-53f3-48fd-baeb-5566addfcac8","ios":"levelo://app?vid=82982d8b-53f3-48fd-baeb-5566addfcac8"},"vehicle_type_id":"4","last_reported":1725721693,"current_range_meters":0,"station_id":"ce4bh512rcd13ifvqe3g","pricing_plan_id":"cebpf4jnsgd1na2vs0mg"},{"bike_id":"5835d9ad-abb3-418f-9df8-095e675178a4","system_id":"levelo_inurba_marseille","lat":43.297946,"lon":5.404063,"is_reserved":false,"is_disabled":false,"rental_uris":{"android":"levelo://app?vid=5835d9ad-abb3-418f-9df8-095e675178a4","ios":"levelo://app?vid=5835d9ad-abb3-418f-9df8-095e675178a4"},"vehicle_type_id":"4","last_reported":1725721693,"current_range_meters":22400,"station_id":"ce4bh112rcd13ifvqd90","pricing_plan_id":"cebpf4jnsgd1na2vs0mg"},{"bike_id":"8d6de2fa-d60d-49b9-a552-a8da1e5ce276","system_id":"levelo_inurba_marseille","lat":43.29795,"lon":5.404086,"is_reserved":false,"is_disabled":false,"rental_uris":{"android":"levelo://app?vid=8d6de2fa-d60d-49b9-a552-a8da1e5ce276","ios":"levelo://app?vid=8d6de2fa-d60d-49b9-a552-a8da1e5ce276"},"vehicle_type_id":"4","last_reported":1725721693,"current_range_meters":7200,"station_id":"ce4bh112rcd13ifvqd90","pricing_plan_id":"cebpf4jnsgd1na2vs0mg"},{"bike_id":"cd94166c-2b28-4daf-9cd8-0e84a677a7c8","system_id":"levelo_inurba_marseille","lat":43.297946,"lon":5.404063,"is_reserved":false,"is_disabled":false,"rental_uris":{"android":"levelo://app?vid=cd94166c-2b28-4daf-9cd8-0e84a677a7c8","ios":"levelo://app?vid=cd94166c-2b28-4daf-9cd8-0e84a677a7c8"},"vehicle_type_id":"4","last_reported":1725721693,"current_range_meters":7200,"station_id":"ce4bh112rcd13ifvqd90","pricing_plan_id":"cebpf4jnsgd1na2vs0mg"},{"bike_id":"c102b0a8-8e0d-4ef9-9e0c-2e1f55e62c3d","system_id":"levelo_inurba_marseille","lat":43.284793,"lon":5.384119,"is_reserved":false,"is_disabled":false,"rental_uris":{"android":"levelo://app?vid=c102b0a8-8e0d-4ef9-9e0c-2e1f55e62c3d","ios":"levelo://app?vid=c102b0a8-8e0d-4ef9-9e0c-2e1f55e62c3d"},"vehicle_type_id":"4","last_reported":1725721693,"current_range_meters":28800,"station_id":"ce4bh512rcd13ifvqe3g","pricing_plan_id":"cebpf4jnsgd1na2vs0mg"},{"bike_id":"7327eaa6-38d5-4346-b318-938e2ecb72e2","system_id":"levelo_inurba_marseille","lat":43.29795,"lon":5.404086,"is_reserved":false,"is_disabled":false,"rental_uris":{"android":"levelo://app?vid=7327eaa6-38d5-4346-b318-938e2ecb72e2","ios":"levelo://app?vid=7327eaa6-38d5-4346-b318-938e2ecb72e2"},"vehicle_type_id":"4","last_reported":1725721693,"current_range_meters":17200,"station_id":"ce4bh112rcd13ifvqd90","pricing_plan_id":"cebpf4jnsgd1na2vs0mg"},{"bike_id":"874729c8-806c-4e94-b16b-477fcbf9ad90","system_id":"levelo_inurba_marseille","lat":43.319179,"lon":5.407725,"is_reserved":false,"is_disabled":false,"rental_uris":{"android":"levelo://app?vid=874729c8-806c-4e94-b16b-477fcbf9ad90","ios":"levelo://app?vid=874729c8-806c-4e94-b16b-477fcbf9ad90"},"vehicle_type_id":"4","last_reported":1725721693,"current_range_meters":0,"station_id":"ce4bhq12rcd13ifvqhig","pricing_plan_id":"cebpf4jnsgd1na2vs0mg"},{"bike_id":"0520d284-f6ac-4099-88f4-d550dc6ed437","system_id":"levelo_inurba_marseille","lat":43.288501,"lon":5.393087,"is_reserved":false,"is_disabled":false,"rental_uris":{"android":"levelo://app?vid=0520d284-f6ac-4099-88f4-d550dc6ed437","ios":"levelo://app?vid=0520d284-f6ac-4099-88f4-d550dc6ed437"},"vehicle_type_id":"4","last_reported":1725721693,"current_range_meters":1200,"station_id":"ce4bh2p2rcd13ifvqdi0","pricing_plan_id":"cebpf4jnsgd1na2vs0mg"},{"bike_id":"835de70a-5098-47a6-80fc-865a5ddcd331","system_id":"levelo_inurba_marseille","lat":43.283498,"lon":5.380948,"is_reserved":false,"is_disabled":false,"rental_uris":{"android":"levelo://app?vid=835de70a-5098-47a6-80fc-865a5ddcd331","ios":"levelo://app?vid=835de70a-5098-47a6-80fc-865a5ddcd331"},"vehicle_type_id":"4","last_reported":1725721693,"current_range_meters":25600,"station_id":"ce4bh412rcd13ifvqdr0","pricing_plan_id":"cebpf4jnsgd1na2vs0mg"},{"bike_id":"f21f8324-2e4a-4703-85e9-2fabe676eeb1","system_id":"levelo_inurba_marseille","lat":43.28345,"lon":5.38099,"is_reserved":false,"is_disabled":false,"rental_uris":{"android":"levelo://app?vid=f21f8324-2e4a-4703-85e9-2fabe676eeb1","ios":"levelo://app?vid=f21f8324-2e4a-4703-85e9-2fabe676eeb1"},"vehicle_type_id":"4","last_reported":1725721693,"current_range_meters":0,"station_id":"ce4bh412rcd13ifvqdr0","pricing_plan_id":"cebpf4jnsgd1na2vs0mg"},{"bike_id":"f0c5dac5-dfda-43cd-81e1-959b450b252d","system_id":"levelo_inurba_marseille","lat":43.28423,"lon":5.3499,"is_reserved":false,"is_disabled":false,"rental_uris":{"android":"levelo://app?vid=f0c5dac5-dfda-43cd-81e1-959b450b252d","ios":"levelo://app?vid=f0c5dac5-dfda-43cd-81e1-959b450b252d"},"vehicle_type_id":"4","last_reported":1725721693,"current_range_meters":10000,"station_id":"ce4bhbh2rcd13ifvqepg","pricing_plan_id":"cebpf4jnsgd1na2vs0mg"},{"bike_id":"0c6dc0bc-7045-4c80-9184-f34d2894e9f5","system_id":"levelo_inurba_marseille","lat":43.284219,"lon":5.3497,"is_reserved":false,"is_disabled":false,"rental_uris":{"android":"levelo://app?vid=0c6dc0bc-7045-4c80-9184-f34d2894e9f5","ios":"levelo://app?vid=0c6dc0bc-7045-4c80-9184-f34d2894e9f5"},"vehicle_type_id":"4","last_reported":1725721693,"current_range_meters":31200,"station_id":"ce4bhbh2rcd13ifvqepg","pricing_plan_id":"cebpf4jnsgd1na2vs0mg"},{"bike_id":"30d82c39-ea9e-4f68-ae33-16209024279c","system_id":"levelo_inurba_marseille","lat":43.284245,"lon":5.349812,"is_reserved":false,"is_disabled":false,"rental_uris":{"android":"levelo://app?vid=30d82c39-ea9e-4f68-ae33-16209024279c","ios":"levelo://app?vid=30d82c39-ea9e-4f68-ae33-16209024279c"},"vehicle_type_id":"4","last_reported":1725721693,"current_range_meters":18400,"station_id":"ce4bhbh2rcd13ifvqepg","pricing_plan_id":"cebpf4jnsgd1na2vs0mg"},{"bike_id":"4a4907d6-1ce3-43db-bf52-925cb351c5f1","system_id":"levelo_inurba_marseille","lat":43.28421,"lon":5.34978,"is_reserved":false,"is_disabled":false,"rental_uris":{"android":"levelo://app?vid=4a4907d6-1ce3-43db-bf52-925cb351c5f1","ios":"levelo://app?vid=4a4907d6-1ce3-43db-bf52-925cb351c5f1"},"vehicle_type_id":"4","last_reported":1725721693,"current_range_meters":17600,"station_id":"ce4bhbh2rcd13ifvqepg","pricing_plan_id":"cebpf4jnsgd1na2vs0mg"},{"bike_id":"d391958c-26ef-4c2b-85e3-59246d2778c7","system_id":"levelo_inurba_marseille","lat":43.284219,"lon":5.3497,"is_reserved":false,"is_disabled":false,"rental_uris":{"android":"levelo://app?vid=d391958c-26ef-4c2b-85e3-59246d2778c7","ios":"levelo://app?vid=d391958c-26ef-4c2b-85e3-59246d2778c7"},"vehicle_type_id":"4","last_reported":1725721693,"current_range_meters":18000,"station_id":"ce4bhbh2rcd13ifvqepg","pricing_plan_id":"cebpf4jnsgd1na2vs0mg"},{"bike_id":"996551dd-b719-4296-b115-20d25ecbe310","system_id":"levelo_inurba_marseille","lat":43.284193,"lon":5.349789,"is_reserved":false,"is_disabled":false,"rental_uris":{"android":"levelo://app?vid=996551dd-b719-4296-b115-20d25ecbe310","ios":"levelo://app?vid=996551dd-b719-4296-b115-20d25ecbe310"},"vehicle_type_id":"4","last_reported":1725721693,"current_range_meters":0,"station_id":"ce4bhbh2rcd13ifvqepg","pricing_plan_id":"cebpf4jnsgd1na2vs0mg"},{"bike_id":"7ce50e81-d9ca-43e3-878e-9376959de124","system_id":"levelo_inurba_marseille","lat":43.28421,"lon":5.34971,"is_reserved":false,"is_disabled":false,"rental_uris":{"android":"levelo://app?vid=7ce50e81-d9ca-43e3-878e-9376959de124","ios":"levelo://app?vid=7ce50e81-d9ca-43e3-878e-9376959de124"},"vehicle_type_id":"4","last_reported":1725721693,"current_range_meters":3200,"station_id":"ce4bhbh2rcd13ifvqepg","pricing_plan_id":"cebpf4jnsgd1na2vs0mg"},{"bike_id":"10271f46-2fa9-40ca-bfa5-5c61d5775fdd","system_id":"levelo_inurba_marseille","lat":43.284122,"lon":5.349862,"is_reserved":false,"is_disabled":false,"rental_uris":{"android":"levelo://app?vid=10271f46-2fa9-40ca-bfa5-5c61d5775fdd","ios":"levelo://app?vid=10271f46-2fa9-40ca-bfa5-5c61d5775fdd"},"vehicle_type_id":"4","last_reported":1725721693,"current_range_meters":0,"station_id":"ce4bhbh2rcd13ifvqepg","pricing_plan_id":"cebpf4jnsgd1na2vs0mg"},{"bike_id":"bbcffcfa-f286-4126-b057-10be48be96e4","system_id":"levelo_inurba_marseille","lat":43.284217,"lon":5.349697,"is_reserved":false,"is_disabled":false,"rental_uris":{"android":"levelo://app?vid=bbcffcfa-f286-4126-b057-10be48be96e4","ios":"levelo://app?vid=bbcffcfa-f286-4126-b057-10be48be96e4"},"vehicle_type_id":"4","last_reported":1725721693,"current_range_meters":28800,"station_id":"ce4bhbh2rcd13ifvqepg","pricing_plan_id":"cebpf4jnsgd1na2vs0mg"},{"bike_id":"db63ec20-16d2-40be-b346-81373ba2a7cf","system_id":"levelo_inurba_marseille","lat":43.28414,"lon":5.34969,"is_reserved":false,"is_disabled":false,"rental_uris":{"android":"levelo://app?vid=db63ec20-16d2-40be-b346-81373ba2a7cf","ios":"levelo://app?vid=db63ec20-16d2-40be-b346-81373ba2a7cf"},"vehicle_type_id":"4","last_reported":1725721693,"current_range_meters":21600,"station_id":"ce4bhbh2rcd13ifvqepg","pricing_plan_id":"cebpf4jnsgd1na2vs0mg"},{"bike_id":"3afc7e66-433b-47fc-b1c3-cf2442ffe635","system_id":"levelo_inurba_marseille","lat":43.28413,"lon":5.34971,"is_reserved":false,"is_disabled":false,"rental_uris":{"android":"levelo://app?vid=3afc7e66-433b-47fc-b1c3-cf2442ffe635","ios":"levelo://app?vid=3afc7e66-433b-47fc-b1c3-cf2442ffe635"},"vehicle_type_id":"4","last_reported":1725721693,"current_range_meters":28400,"station_id":"ce4bhbh2rcd13ifvqepg","pricing_plan_id":"cebpf4jnsgd1na2vs0mg"},{"bike_id":"e619e81c-3fe7-4769-b86a-83594af57419","system_id":"levelo_inurba_marseille","lat":43.284219,"lon":5.3497,"is_reserved":false,"is_disabled":false,"rental_uris":{"android":"levelo://app?vid=e619e81c-3fe7-4769-b86a-83594af57419","ios":"levelo://app?vid=e619e81c-3fe7-4769-b86a-83594af57419"},"vehicle_type_id":"4","last_reported":1725721693,"current_range_meters":28800,"station_id":"ce4bhbh2rcd13ifvqepg","pricing_plan_id":"cebpf4jnsgd1na2vs0mg"},{"bike_id":"7795e21f-d5c2-43ea-bc18-34a78f9b530a","system_id":"levelo_inurba_marseille","lat":43.284217,"lon":5.349697,"is_reserved":false,"is_disabled":false,"rental_uris":{"android":"levelo://app?vid=7795e21f-d5c2-43ea-bc18-34a78f9b530a","ios":"levelo://app?vid=7795e21f-d5c2-43ea-bc18-34a78f9b530a"},"vehicle_type_id":"4","last_reported":1725721693,"current_range_meters":30000,"station_id":"ce4bhbh2rcd13ifvqepg","pricing_plan_id":"cebpf4jnsgd1na2vs0mg"},{"bike_id":"e5d743db-d6dd-4ef3-a031-3f41b03fbbc0","system_id":"levelo_inurba_marseille","lat":43.28282,"lon":5.35066,"is_reserved":false,"is_disabled":false,"rental_uris":{"android":"levelo://app?vid=e5d743db-d6dd-4ef3-a031-3f41b03fbbc0","ios":"levelo://app?vid=e5d743db-d6dd-4ef3-a031-3f41b03fbbc0"},"vehicle_type_id":"4","last_reported":1725721693,"current_range_meters":28800,"station_id":"ce4bhbp2rcd13ifvqerg","pricing_plan_id":"cebpf4jnsgd1na2vs0mg"},{"bike_id":"ea950d06-485f-479d-b510-9fca548e2481","system_id":"levelo_inurba_marseille","lat":43.282744,"lon":5.350533,"is_reserved":false,"is_disabled":false,"rental_uris":{"android":"levelo://app?vid=ea950d06-485f-479d-b510-9fca548e2481","ios":"levelo://app?vid=ea950d06-485f-479d-b510-9fca548e2481"},"vehicle_type_id":"4","last_reported":1725721693,"current_range_meters":13200,"station_id":"ce4bhbp2rcd13ifvqerg","pricing_plan_id":"cebpf4jnsgd1na2vs0mg"},{"bike_id":"6f43e33c-ad95-41e3-8554-87319aef35c7","system_id":"levelo_inurba_marseille","lat":43.282761,"lon":5.350679,"is_reserved":false,"is_disabled":false,"rental_uris":{"android":"levelo://app?vid=6f43e33c-ad95-41e3-8554-87319aef35c7","ios":"levelo://app?vid=6f43e33c-ad95-41e3-8554-87319aef35c7"},"vehicle_type_id":"4","last_reported":1725721693,"current_range_meters":8400,"station_id":"ce4bhbp2rcd13ifvqerg","pricing_plan_id":"cebpf4jnsgd1na2vs0mg"},{"bike_id":"6adf5b52-cf69-4d3b-8d95-bba2210662b1","system_id":"levelo_inurba_marseille","lat":43.282744,"lon":5.350533,"is_reserved":false,"is_disabled":false,"rental_uris":{"android":"levelo://app?vid=6adf5b52-cf69-4d3b-8d95-bba2210662b1","ios":"levelo://app?vid=6adf5b52-cf69-4d3b-8d95-bba2210662b1"},"vehicle_type_id":"4","last_reported":1725721693,"current_range_meters":12800,"station_id":"ce4bhbp2rcd13ifvqerg","pricing_plan_id":"cebpf4jnsgd1na2vs0mg"},{"bike_id":"0be0c226-e68f-40f2-b537-f2daf9284110","system_id":"levelo_inurba_marseille","lat":43.282744,"lon":5.350533,"is_reserved":false,"is_disabled":false,"rental_uris":{"android":"levelo://app?vid=0be0c226-e68f-40f2-b537-f2daf9284110","ios":"levelo://app?vid=0be0c226-e68f-40f2-b537-f2daf9284110"},"vehicle_type_id":"4","last_reported":1725721693,"current_range_meters":11200,"station_id":"ce4bhbp2rcd13ifvqerg","pricing_plan_id":"cebpf4jnsgd1na2vs0mg"},{"bike_id":"5d55aec0-d462-4c97-862f-910fabbf0882","system_id":"levelo_inurba_marseille","lat":43.282744,"lon":5.350533,"is_reserved":false,"is_disabled":false,"rental_uris":{"android":"levelo://app?vid=5d55aec0-d462-4c97-862f-910fabbf0882","ios":"levelo://app?vid=5d55aec0-d462-4c97-862f-910fabbf0882"},"vehicle_type_id":"4","last_reported":1725721693,"current_range_meters":0,"station_id":"ce4bhbp2rcd13ifvqerg","pricing_plan_id":"cebpf4jnsgd1na2vs0mg"},{"bike_id":"bd9a30b4-e132-4fc5-8e84-d3b8489f83e8","system_id":"levelo_inurba_marseille","lat":43.282744,"lon":5.350533,"is_reserved":false,"is_disabled":false,"rental_uris":{"android":"levelo://app?vid=bd9a30b4-e132-4fc5-8e84-d3b8489f83e8","ios":"levelo://app?vid=bd9a30b4-e132-4fc5-8e84-d3b8489f83e8"},"vehicle_type_id":"4","last_reported":1725721693,"current_range_meters":22000,"station_id":"ce4bhbp2rcd13ifvqerg","pricing_plan_id":"cebpf4jnsgd1na2vs0mg"},{"bike_id":"ab760ab9-4e9c-4a04-99cb-3dc973a0a00f","system_id":"levelo_inurba_marseille","lat":43.282744,"lon":5.350533,"is_reserved":false,"is_disabled":false,"rental_uris":{"android":"levelo://app?vid=ab760ab9-4e9c-4a04-99cb-3dc973a0a00f","ios":"levelo://app?vid=ab760ab9-4e9c-4a04-99cb-3dc973a0a00f"},"vehicle_type_id":"4","last_reported":1725721693,"current_range_meters":6800,"station_id":"ce4bhbp2rcd13ifvqerg","pricing_plan_id":"cebpf4jnsgd1na2vs0mg"},{"bike_id":"04516072-e92f-4ca6-803e-6826c562de1c","system_id":"levelo_inurba_marseille","lat":43.283502,"lon":5.386471,"is_reserved":false,"is_disabled":false,"rental_uris":{"android":"levelo://app?vid=04516072-e92f-4ca6-803e-6826c562de1c","ios":"levelo://app?vid=04516072-e92f-4ca6-803e-6826c562de1c"},"vehicle_type_id":"4","last_reported":1725721693,"current_range_meters":8400,"station_id":"ce4bh492rcd13ifvqdvg","pricing_plan_id":"cebpf4jnsgd1na2vs0mg"},{"bike_id":"5d3cbfb1-fc6b-429a-b0a0-7b3d5d0c440e","system_id":"levelo_inurba_marseille","lat":43.28273,"lon":5.35054,"is_reserved":false,"is_disabled":false,"rental_uris":{"android":"levelo://app?vid=5d3cbfb1-fc6b-429a-b0a0-7b3d5d0c440e","ios":"levelo://app?vid=5d3cbfb1-fc6b-429a-b0a0-7b3d5d0c440e"},"vehicle_type_id":"4","last_reported":1725721693,"current_range_meters":1600,"station_id":"ce4bhbp2rcd13ifvqerg","pricing_plan_id":"cebpf4jnsgd1na2vs0mg"},{"bike_id":"0eda8cf1-5c4d-4dca-bb92-33fc93a5be2b","system_id":"levelo_inurba_marseille","lat":43.28272,"lon":5.35056,"is_reserved":false,"is_disabled":false,"rental_uris":{"android":"levelo://app?vid=0eda8cf1-5c4d-4dca-bb92-33fc93a5be2b","ios":"levelo://app?vid=0eda8cf1-5c4d-4dca-bb92-33fc93a5be2b"},"vehicle_type_id":"4","last_reported":1725721693,"current_range_meters":0,"station_id":"ce4bhbp2rcd13ifvqerg","pricing_plan_id":"cebpf4jnsgd1na2vs0mg"},{"bike_id":"ba77c577-9721-47d6-803b-baa2d45bc109","system_id":"levelo_inurba_marseille","lat":43.282744,"lon":5.350533,"is_reserved":false,"is_disabled":false,"rental_uris":{"android":"levelo://app?vid=ba77c577-9721-47d6-803b-baa2d45bc109","ios":"levelo://app?vid=ba77c577-9721-47d6-803b-baa2d45bc109"},"vehicle_type_id":"4","last_reported":1725721693,"current_range_meters":15600,"station_id":"ce4bhbp2rcd13ifvqerg","pricing_plan_id":"cebpf4jnsgd1na2vs0mg"},{"bike_id":"5aad0571-95e6-4f5a-8432-c02beed4ea3f","system_id":"levelo_inurba_marseille","lat":43.28271,"lon":5.35057,"is_reserved":false,"is_disabled":false,"rental_uris":{"android":"levelo://app?vid=5aad0571-95e6-4f5a-8432-c02beed4ea3f","ios":"levelo://app?vid=5aad0571-95e6-4f5a-8432-c02beed4ea3f"},"vehicle_type_id":"4","last_reported":1725721693,"current_range_meters":0,"station_id":"ce4bhbp2rcd13ifvqerg","pricing_plan_id":"cebpf4jnsgd1na2vs0mg"},{"bike_id":"10b50efa-77a2-48e9-bad3-2af3eb9c325c","system_id":"levelo_inurba_marseille","lat":43.2827,"lon":5.35051,"is_reserved":false,"is_disabled":false,"rental_uris":{"android":"levelo://app?vid=10b50efa-77a2-48e9-bad3-2af3eb9c325c","ios":"levelo://app?vid=10b50efa-77a2-48e9-bad3-2af3eb9c325c"},"vehicle_type_id":"4","last_reported":1725721693,"current_range_meters":23200,"station_id":"ce4bhbp2rcd13ifvqerg","pricing_plan_id":"cebpf4jnsgd1na2vs0mg"},{"bike_id":"191f924b-4aa2-47ee-8c8c-ad1b649e46a6","system_id":"levelo_inurba_marseille","lat":43.28269,"lon":5.35054,"is_reserved":false,"is_disabled":false,"rental_uris":{"android":"levelo://app?vid=191f924b-4aa2-47ee-8c8c-ad1b649e46a6","ios":"levelo://app?vid=191f924b-4aa2-47ee-8c8c-ad1b649e46a6"},"vehicle_type_id":"4","last_reported":1725721693,"current_range_meters":0,"station_id":"ce4bhbp2rcd13ifvqerg","pricing_plan_id":"cebpf4jnsgd1na2vs0mg"},{"bike_id":"14e1ea18-aa37-43f1-9309-cc8b3818cac3","system_id":"levelo_inurba_marseille","lat":43.282744,"lon":5.350533,"is_reserved":false,"is_disabled":false,"rental_uris":{"android":"levelo://app?vid=14e1ea18-aa37-43f1-9309-cc8b3818cac3","ios":"levelo://app?vid=14e1ea18-aa37-43f1-9309-cc8b3818cac3"},"vehicle_type_id":"4","last_reported":1725721693,"current_range_meters":12400,"station_id":"ce4bhbp2rcd13ifvqerg","pricing_plan_id":"cebpf4jnsgd1na2vs0mg"},{"bike_id":"09002978-3d40-46ee-876f-72f17f8b4fb7","system_id":"levelo_inurba_marseille","lat":43.282647,"lon":5.350543,"is_reserved":false,"is_disabled":false,"rental_uris":{"android":"levelo://app?vid=09002978-3d40-46ee-876f-72f17f8b4fb7","ios":"levelo://app?vid=09002978-3d40-46ee-876f-72f17f8b4fb7"},"vehicle_type_id":"4","last_reported":1725721693,"current_range_meters":1200,"station_id":"ce4bhbp2rcd13ifvqerg","pricing_plan_id":"cebpf4jnsgd1na2vs0mg"},{"bike_id":"1b78efc5-4ce8-4706-b03c-3984d8119ffa","system_id":"levelo_inurba_marseille","lat":43.28262,"lon":5.35063,"is_reserved":false,"is_disabled":false,"rental_uris":{"android":"levelo://app?vid=1b78efc5-4ce8-4706-b03c-3984d8119ffa","ios":"levelo://app?vid=1b78efc5-4ce8-4706-b03c-3984d8119ffa"},"vehicle_type_id":"4","last_reported":1725721693,"current_range_meters":6000,"station_id":"ce4bhbp2rcd13ifvqerg","pricing_plan_id":"cebpf4jnsgd1na2vs0mg"},{"bike_id":"997b2b34-3bc9-402f-bf4f-b13f507b4721","system_id":"levelo_inurba_marseille","lat":43.283502,"lon":5.386471,"is_reserved":false,"is_disabled":false,"rental_uris":{"android":"levelo://app?vid=997b2b34-3bc9-402f-bf4f-b13f507b4721","ios":"levelo://app?vid=997b2b34-3bc9-402f-bf4f-b13f507b4721"},"vehicle_type_id":"4","last_reported":1725721693,"current_range_meters":800,"station_id":"ce4bh492rcd13ifvqdvg","pricing_plan_id":"cebpf4jnsgd1na2vs0mg"},{"bike_id":"807a0ba5-bfa0-4879-a1bc-31aea224818c","system_id":"levelo_inurba_marseille","lat":43.282744,"lon":5.350533,"is_reserved":false,"is_disabled":false,"rental_uris":{"android":"levelo://app?vid=807a0ba5-bfa0-4879-a1bc-31aea224818c","ios":"levelo://app?vid=807a0ba5-bfa0-4879-a1bc-31aea224818c"},"vehicle_type_id":"4","last_reported":1725721693,"current_range_meters":0,"station_id":"ce4bhbp2rcd13ifvqerg","pricing_plan_id":"cebpf4jnsgd1na2vs0mg"},{"bike_id":"4f3c1cb4-074f-4856-a495-346c96131425","system_id":"levelo_inurba_marseille","lat":43.29046,"lon":5.39948,"is_reserved":false,"is_disabled":false,"rental_uris":{"android":"levelo://app?vid=4f3c1cb4-074f-4856-a495-346c96131425","ios":"levelo://app?vid=4f3c1cb4-074f-4856-a495-346c96131425"},"vehicle_type_id":"4","last_reported":1725721693,"current_range_meters":0,"station_id":"ce4bh392rcd13ifvqdm0","pricing_plan_id":"cebpf4jnsgd1na2vs0mg"},{"bike_id":"7c77d07e-0cbf-4695-858b-4d72a108c47a","system_id":"levelo_inurba_marseille","lat":43.29041,"lon":5.399634,"is_reserved":false,"is_disabled":false,"rental_uris":{"android":"levelo://app?vid=7c77d07e-0cbf-4695-858b-4d72a108c47a","ios":"levelo://app?vid=7c77d07e-0cbf-4695-858b-4d72a108c47a"},"vehicle_type_id":"4","last_reported":1725721693,"current_range_meters":16400,"station_id":"ce4bh392rcd13ifvqdm0","pricing_plan_id":"cebpf4jnsgd1na2vs0mg"},{"bike_id":"a5edefb6-4afa-419a-a94f-1920693ff431","system_id":"levelo_inurba_marseille","lat":43.2964,"lon":5.40593,"is_reserved":false,"is_disabled":false,"rental_uris":{"android":"levelo://app?vid=a5edefb6-4afa-419a-a94f-1920693ff431","ios":"levelo://app?vid=a5edefb6-4afa-419a-a94f-1920693ff431"},