{"last_updated":1748624964,"ttl":60,"version":"2.2","data":{"bikes":[{"bike_id":"55d42eeb-6b71-4987-a0f2-3d758b10d43e","system_id":"levelo_inurba_marseille","lat":43.33771,"lon":5.37424,"is_reserved":false,"is_disabled":true,"rental_uris":{"android":"levelo://app?vid=55d42eeb-6b71-4987-a0f2-3d758b10d43e","ios":"levelo://app?vid=55d42eeb-6b71-4987-a0f2-3d758b10d43e"},"vehicle_type_id":"4","last_reported":1748624964,"current_range_meters":0,"station_id":"","pricing_plan_id":"cebpf4jnsgd1na2vs0mg"},{"bike_id":"b7fe4621-b706-42f0-9085-4811142f84e8","system_id":"levelo_inurba_marseille","lat":43.337499,"lon":5.374469,"is_reserved":false,"is_disabled":true,"rental_uris":{"android":"levelo://app?vid=b7fe4621-b706-42f0-9085-4811142f84e8","ios":"levelo://app?vid=b7fe4621-b706-42f0-9085-4811142f84e8"},"vehicle_type_id":"4","last_reported":1748624964,"current_range_meters":0,"station_id":"","pricing_plan_id":"cebpf4jnsgd1na2vs0mg"},{"bike_id":"ad402f0f-3192-410c-afac-8cf064a40c6d","system_id":"levelo_inurba_marseille","lat":43.337444,"lon":5.374475,"is_reserved":false,"is_disabled":true,"rental_uris":{"android":"levelo://app?vid=ad402f0f-3192-410c-afac-8cf064a40c6d","ios":"levelo://app?vid=ad402f0f-3192-410c-afac-8cf064a40c6d"},"vehicle_type_id":"4","last_reported":1748624964,"current_range_meters":0,"station_id":"","pricing_plan_id":"cebpf4jnsgd1na2vs0mg"},{"bike_id":"d90baf97-e6b3-4c48-bcd2-63bc44243da4","system_id":"levelo_inurba_marseille","lat":43.216571,"lon":5.342965,"is_reserved":false,"is_disabled":true,"rental_uris":{"android":"levelo://app?vid=d90baf97-e6b3-4c48-bcd2-63bc44243da4","ios":"levelo://app?vid=d90baf97-e6b3-4c48-bcd2-63bc44243da4"},"vehicle_type_id":"4","last_reported":1748624964,"current_range_meters":0,"station_id":"","pricing_plan_id":"cebpf4jnsgd1na2vs0mg"},{"bike_id":"21e17b92-7b88-44ed-a20c-d38e711a1090","system_id":"levelo_inurba_marseille","lat":43.292572,"lon":5.384291,"is_reserved":false,"is_disabled":true,"rental_uris":{"android":"levelo://app?vid=21e17b92-7b88-44ed-a20c-d38e711a1090","ios":"levelo://app?vid=21e17b92-7b88-44ed-a20c-d38e711a1090"},"vehicle_type_id":"4","last_reported":1748624964,"current_range_meters":0,"station_id":"","pricing_plan_id":"cebpf4jnsgd1na2vs0mg"},{"bike_id":"80dc1064-d63f-4a22-ad21-d8abd70986c0","system_id":"levelo_inurba_marseille","lat":43.33811,"lon":5.37503,"is_reserved":false,"is_disabled":true,"rental_uris":{"android":"levelo://app?vid=80dc1064-d63f-4a22-ad21-d8abd70986c0","ios":"levelo://app?vid=80dc1064-d63f-4a22-ad21-d8abd70986c0"},"vehicle_type_id":"4","last_reported":1748624964,"current_range_meters":0,"station_id":"","pricing_plan_id":"cebpf4jnsgd1na2vs0mg"},{"bike_id":"e85986f7-78ee-45ca-a51c-ad41979e478c","system_id":"levelo_inurba_marseille","lat":43.295166,"lon":5.375107,"is_reserved":false,"is_disabled":true,"rental_uris":{"android":"levelo://app?vid=e85986f7-78ee-45ca-a51c-ad41979e478c","ios":"levelo://app?vid=e85986f7-78ee-45ca-a51c-ad41979e478c"},"vehicle_type_id":"4","last_reported":1748624964,"current_range_meters":0,"station_id":"","pricing_plan_id":"cebpf4jnsgd1na2vs0mg"},{"bike_id":"74c1e076-13a8-4361-a537-f1cad05da938","system_id":"levelo_inurba_marseille","lat":43.239054,"lon":5.362651,"is_reserved":false,"is_disabled":true,"rental_uris":{"android":"levelo://app?vid=74c1e076-13a8-4361-a537-f1cad05da938","ios":"levelo://app?vid=74c1e076-13a8-4361-a537-f1cad05da938"},"vehicle_type_id":"4","last_reported":1748624964,"current_range_meters":0,"station_id":"","pricing_plan_id":"cebpf4jnsgd1na2vs0mg"},{"bike_id":"591d5cfc-0b88-44a0-9cb4-5dce3488d010","system_id":"levelo_inurba_marseille","lat":43.30249,"lon":5.400765,"is_reserved":false,"is_disabled":true,"rental_uris":{"android":"levelo://app?vid=591d5cfc-0b88-44a0-9cb4-5dce3488d010","ios":"levelo://app?vid=591d5cfc-0b88-44a0-9cb4-5dce3488d010"},"vehicle_type_id":"4","last_reported":1748624964,"current_range_meters":0,"station_id":"","pricing_plan_id":"cebpf4jnsgd1na2vs0mg"},{"bike_id":"db111e29-c7bc-419e-9b00-20231fbec330","system_id":"levelo_inurba_marseille","lat":43.217468,"lon":5.345991,"is_reserved":false,"is_disabled":true,"rental_uris":{"android":"levelo://app?vid=db111e29-c7bc-419e-9b00-20231fbec330","ios":"levelo://app?vid=db111e29-c7bc-419e-9b00-20231fbec330"},"vehicle_type_id":"4","last_reported":1748624964,"current_range_meters":0,"station_id":"","pricing_plan_id":"cebpf4jnsgd1na2vs0mg"},{"bike_id":"e4c29532-f07a-4102-b0ae-61730aa1af99","system_id":"levelo_inurba_marseille","lat":43.307827,"lon":5.371723,"is_reserved":false,"is_disabled":true,"rental_uris":{"android":"levelo://app?vid=e4c29532-f07a-4102-b0ae-61730aa1af99","ios":"levelo://app?vid=e4c29532-f07a-4102-b0ae-61730aa1af99"},"vehicle_type_id":"4","last_reported":1748624964,"current_range_meters":0,"station_id":"","pricing_plan_id":"cebpf4jnsgd1na2vs0mg"},{"bike_id":"3ba7f187-0f23-4da0-81a2-b3228b366ea6","system_id":"levelo_inurba_marseille","lat":43.30534,"lon":5.36556,"is_reserved":false,"is_disabled":true,"rental_uris":{"android":"levelo://app?vid=3ba7f187-0f23-4da0-81a2-b3228b366ea6","ios":"levelo://app?vid=3ba7f187-0f23-4da0-81a2-b3228b366ea6"},"vehicle_type_id":"4","last_reported":1748624964,"current_range_meters":0,"station_id":"ce4bgs12rcd13ifvqcag","pricing_plan_id":"cebpf4jnsgd1na2vs0mg"},{"bike_id":"c2f16cab-77aa-4154-b318-c2294ef06a12","system_id":"levelo_inurba_marseille","lat":43.305258,"lon":5.393342,"is_reserved":false,"is_disabled":true,"rental_uris":{"android":"levelo://app?vid=c2f16cab-77aa-4154-b318-c2294ef06a12","ios":"levelo://app?vid=c2f16cab-77aa-4154-b318-c2294ef06a12"},"vehicle_type_id":"4","last_reported":1748624964,"current_range_meters":0,"station_id":"ce4bh0p2rcd13ifvqd80","pricing_plan_id":"cebpf4jnsgd1na2vs0mg"},{"bike_id":"082a2bd9-c88a-4af6-bf59-86ece0dfe062","system_id":"levelo_inurba_marseille","lat":43.292691,"lon":5.384356,"is_reserved":false,"is_disabled":false,"rental_uris":{"android":"levelo://app?vid=082a2bd9-c88a-4af6-bf59-86ece0dfe062","ios":"levelo://app?vid=082a2bd9-c88a-4af6-bf59-86ece0dfe062"},"vehicle_type_id":"4","last_reported":1748624964,"current_range_meters":0,"station_id":"ce4bh692rcd13ifvqea0","pricing_plan_id":"cebpf4jnsgd1na2vs0mg"},{"bike_id":"40523e5d-e1e0-4e63-918e-dd56cc3d71ea","system_id":"levelo_inurba_marseille","lat":43.28864,"lon":5.35827,"is_reserved":false,"is_disabled":true,"rental_uris":{"android":"levelo://app?vid=40523e5d-e1e0-4e63-918e-dd56cc3d71ea","ios":"levelo://app?vid=40523e5d-e1e0-4e63-918e-dd56cc3d71ea"},"vehicle_type_id":"4","last_reported":1748624964,"current_range_meters":0,"station_id":"ce4bhb12rcd13ifvqem0","pricing_plan_id":"cebpf4jnsgd1na2vs0mg"},{"bike_id":"0bb32688-9494-450c-a081-f78e19a993f0","system_id":"levelo_inurba_marseille","lat":43.27377,"lon":5.36253,"is_reserved":false,"is_disabled":true,"rental_uris":{"android":"levelo://app?vid=0bb32688-9494-450c-a081-f78e19a993f0","ios":"levelo://app?vid=0bb32688-9494-450c-a081-f78e19a993f0"},"vehicle_type_id":"4","last_reported":1748624964,"current_range_meters":0,"station_id":"ce4bhbh2rcd13ifvqeo0","pricing_plan_id":"cebpf4jnsgd1na2vs0mg"},{"bike_id":"697d9367-9253-4cd9-bf9c-fe41669285d2","system_id":"levelo_inurba_marseille","lat":43.27364,"lon":5.36252,"is_reserved":false,"is_disabled":true,"rental_uris":{"android":"levelo://app?vid=697d9367-9253-4cd9-bf9c-fe41669285d2","ios":"levelo://app?vid=697d9367-9253-4cd9-bf9c-fe41669285d2"},"vehicle_type_id":"4","last_reported":1748624964,"current_range_meters":0,"station_id":"ce4bhbh2rcd13ifvqeo0","pricing_plan_id":"cebpf4jnsgd1na2vs0mg"},{"bike_id":"d5d64d35-2fe3-4075-bbd4-4aeff60e5c8c","system_id":"levelo_inurba_marseille","lat":43.27364,"lon":5.36243,"is_reserved":false,"is_disabled":true,"rental_uris":{"android":"levelo://app?vid=d5d64d35-2fe3-4075-bbd4-4aeff60e5c8c","ios":"levelo://app?vid=d5d64d35-2fe3-4075-bbd4-4aeff60e5c8c"},"vehicle_type_id":"4","last_reported":1748624964,"current_range_meters":0,"station_id":"ce4bhbh2rcd13ifvqeo0","pricing_plan_id":"cebpf4jnsgd1na2vs0mg"},{"bike_id":"98f7962b-0d26-40d0-ae47-b14e68b167f9","system_id":"levelo_inurba_marseille","lat":43.27378,"lon":5.36254,"is_reserved":false,"is_disabled":true,"rental_uris":{"android":"levelo://app?vid=98f7962b-0d26-40d0-ae47-b14e68b167f9","ios":"levelo://app?vid=98f7962b-0d26-40d0-ae47-b14e68b167f9"},"vehicle_type_id":"4","last_reported":1748624964,"current_range_meters":0,"station_id":"ce4bhbh2rcd13ifvqeo0","pricing_plan_id":"cebpf4jnsgd1na2vs0mg"},{"bike_id":"59c85405-8bd5-4508-9714-b5fe7bab6913","system_id":"levelo_inurba_marseille","lat":43.2827,"lon":5.35058,"is_reserved":false,"is_disabled":true,"rental_uris":{"android":"levelo://app?vid=59c85405-8bd5-4508-9714-b5fe7bab6913","ios":"levelo://app?vid=59c85405-8bd5-4508-9714-b5fe7bab6913"},"vehicle_type_id":"4","last_reported":1748624964,"current_range_meters":0,"station_id":"ce4bhbp2rcd13ifvqerg","pricing_plan_id":"cebpf4jnsgd1na2vs0mg"},{"bike_id":"1c745c16-98c9-4580-ac00-3b9b5817e942","system_id":"levelo_inurba_marseille","lat":43.28613,"lon":5.35092,"is_reserved":false,"is_disabled":true,"rental_uris":{"android":"levelo://app?vid=1c745c16-98c9-4580-ac00-3b9b5817e942","ios":"levelo://app?vid=1c745c16-98c9-4580-ac00-3b9b5817e942"},"vehicle_type_id":"4","last_reported":1748624964,"current_range_meters":0,"station_id":"ce4bhch2rcd13ifvqeug","pricing_plan_id":"cebpf4jnsgd1na2vs0mg"},{"bike_id":"70f672b1-3b19-4810-8aa8-55defb792890","system_id":"levelo_inurba_marseille","lat":43.265316,"lon":5.373057,"is_reserved":false,"is_disabled":true,"rental_uris":{"android":"levelo://app?vid=70f672b1-3b19-4810-8aa8-55defb792890","ios":"levelo://app?vid=70f672b1-3b19-4810-8aa8-55defb792890"},"vehicle_type_id":"4","last_reported":1748624964,"current_range_meters":0,"station_id":"ce4bhg12rcd13ifvqf70","pricing_plan_id":"cebpf4jnsgd1na2vs0mg"},{"bike_id":"d5526e3c-9548-4199-ae16-bb3edc1adff8","system_id":"levelo_inurba_marseille","lat":43.26187,"lon":5.3745,"is_reserved":false,"is_disabled":true,"rental_uris":{"android":"levelo://app?vid=d5526e3c-9548-4199-ae16-bb3edc1adff8","ios":"levelo://app?vid=d5526e3c-9548-4199-ae16-bb3edc1adff8"},"vehicle_type_id":"4","last_reported":1748624964,"current_range_meters":0,"station_id":"ce4bhgp2rcd13ifvqfc0","pricing_plan_id":"cebpf4jnsgd1na2vs0mg"},{"bike_id":"5c6a6cd9-6d2b-45ce-a8e9-37b27e7ed0b2","system_id":"levelo_inurba_marseille","lat":43.25007,"lon":5.38937,"is_reserved":false,"is_disabled":true,"rental_uris":{"android":"levelo://app?vid=5c6a6cd9-6d2b-45ce-a8e9-37b27e7ed0b2","ios":"levelo://app?vid=5c6a6cd9-6d2b-45ce-a8e9-37b27e7ed0b2"},"vehicle_type_id":"4","last_reported":1748624964,"current_range_meters":0,"station_id":"ce4bhgp2rcd13ifvqfd0","pricing_plan_id":"cebpf4jnsgd1na2vs0mg"},{"bike_id":"308275e5-6099-4ddb-82e1-1aba680b542b","system_id":"levelo_inurba_marseille","lat":43.255846,"lon":5.382296,"is_reserved":false,"is_disabled":true,"rental_uris":{"android":"levelo://app?vid=308275e5-6099-4ddb-82e1-1aba680b542b","ios":"levelo://app?vid=308275e5-6099-4ddb-82e1-1aba680b542b"},"vehicle_type_id":"4","last_reported":1748624964,"current_range_meters":0,"station_id":"ce4bhih2rcd13ifvqfs0","pricing_plan_id":"cebpf4jnsgd1na2vs0mg"},{"bike_id":"ff65314b-c6d7-4480-ae07-5fd9dfc89f84","system_id":"levelo_inurba_marseille","lat":43.27071,"lon":5.42271,"is_reserved":false,"is_disabled":true,"rental_uris":{"android":"levelo://app?vid=ff65314b-c6d7-4480-ae07-5fd9dfc89f84","ios":"levelo://app?vid=ff65314b-c6d7-4480-ae07-5fd9dfc89f84"},"vehicle_type_id":"4","last_reported":1748624964,"current_range_meters":0,"station_id":"ce4bhk92rcd13ifvqgb0","pricing_plan_id":"cebpf4jnsgd1na2vs0mg"},{"bike_id":"b80ee325-09b2-4724-993d-4f8d3707c41c","system_id":"levelo_inurba_marseille","lat":43.25862,"lon":5.39902,"is_reserved":false,"is_disabled":true,"rental_uris":{"android":"levelo://app?vid=b80ee325-09b2-4724-993d-4f8d3707c41c","ios":"levelo://app?vid=b80ee325-09b2-4724-993d-4f8d3707c41c"},"vehicle_type_id":"4","last_reported":1748624964,"current_range_meters":0,"station_id":"ce4bhl92rcd13ifvqghg","pricing_plan_id":"cebpf4jnsgd1na2vs0mg"},{"bike_id":"d15385dd-e601-4661-b726-8b3c4d3a429c","system_id":"levelo_inurba_marseille","lat":43.24176,"lon":5.39709,"is_reserved":false,"is_disabled":true,"rental_uris":{"android":"levelo://app?vid=d15385dd-e601-4661-b726-8b3c4d3a429c","ios":"levelo://app?vid=d15385dd-e601-4661-b726-8b3c4d3a429c"},"vehicle_type_id":"4","last_reported":1748624964,"current_range_meters":0,"station_id":"ce4bhn12rcd13ifvqgpg","pricing_plan_id":"cebpf4jnsgd1na2vs0mg"},{"bike_id":"12a72bb7-baa1-4b3e-ad1a-8dd53992e6eb","system_id":"levelo_inurba_marseille","lat":43.31754,"lon":5.39008,"is_reserved":false,"is_disabled":true,"rental_uris":{"android":"levelo://app?vid=12a72bb7-baa1-4b3e-ad1a-8dd53992e6eb","ios":"levelo://app?vid=12a72bb7-baa1-4b3e-ad1a-8dd53992e6eb"},"vehicle_type_id":"4","last_reported":1748624964,"current_range_meters":0,"station_id":"ce4bhqp2rcd13ifvqhng","pricing_plan_id":"cebpf4jnsgd1na2vs0mg"},{"bike_id":"80d4d59b-7bb4-4e77-8e8f-b84e803dfdc3","system_id":"levelo_inurba_marseille","lat":43.28607,"lon":5.37064,"is_reserved":false,"is_disabled":true,"rental_uris":{"android":"levelo://app?vid=80d4d59b-7bb4-4e77-8e8f-b84e803dfdc3","ios":"levelo://app?vid=80d4d59b-7bb4-4e77-8e8f-b84e803dfdc3"},"vehicle_type_id":"4","last_reported":1748624964,"current_range_meters":0,"station_id":"ce4bht12rcd13ifvqi60","pricing_plan_id":"cebpf4jnsgd1na2vs0mg"},{"bike_id":"eace6ab2-3bec-450b-8f21-c86cce343eae","system_id":"levelo_inurba_marseille","lat":43.298053,"lon":5.393131,"is_reserved":false,"is_disabled":true,"rental_uris":{"android":"levelo://app?vid=eace6ab2-3bec-450b-8f21-c86cce343eae","ios":"levelo://app?vid=eace6ab2-3bec-450b-8f21-c86cce343eae"},"vehicle_type_id":"4","last_reported":1748624964,"current_range_meters":0,"station_id":"chh1huq6cuj3fo74tm60","pricing_plan_id":"cebpf4jnsgd1na2vs0mg"},{"bike_id":"ab9c9983-bf72-44ed-ad75-a96b382dad3c","system_id":"levelo_inurba_marseille","lat":43.21744,"lon":5.34608,"is_reserved":false,"is_disabled":true,"rental_uris":{"android":"levelo://app?vid=ab9c9983-bf72-44ed-ad75-a96b382dad3c","ios":"levelo://app?vid=ab9c9983-bf72-44ed-ad75-a96b382dad3c"},"vehicle_type_id":"4","last_reported":1748624964,"current_range_meters":0,"station_id":"st_cvj6r9ubvosntc0bgbag","pricing_plan_id":"cebpf4jnsgd1na2vs0mg"},{"bike_id":"edcb0dfe-bdaa-4cf7-84cb-f40080951379","system_id":"levelo_inurba_marseille","lat":43.21744,"lon":5.34598,"is_reserved":false,"is_disabled":true,"rental_uris":{"android":"levelo://app?vid=edcb0dfe-bdaa-4cf7-84cb-f40080951379","ios":"levelo://app?vid=edcb0dfe-bdaa-4cf7-84cb-f40080951379"},"vehicle_type_id":"4","last_reported":1748624964,"current_range_meters":0,"station_id":"st_cvj6r9ubvosntc0bgbag","pricing_plan_id":"cebpf4jnsgd1na2vs0mg"},{"bike_id":"51c1fe87-a8cd-4744-82e5-d0dcb356be56","system_id":"levelo_inurba_marseille","lat":43.29058,"lon":5.37159,"is_reserved":false,"is_disabled":true,"rental_uris":{"android":"levelo://app?vid=51c1fe87-a8cd-4744-82e5-d0dcb356be56","ios":"levelo://app?vid=51c1fe87-a8cd-4744-82e5-d0dcb356be56"},"vehicle_type_id":"4","last_reported":1748624964,"current_range_meters":400,"station_id":"ce4bh5p2rcd13ifvqe4g","pricing_plan_id":"cebpf4jnsgd1na2vs0mg"},{"bike_id":"a84664aa-8bc7-4f36-a655-c1c1980bb677","system_id":"levelo_inurba_marseille","lat":43.27377,"lon":5.36258,"is_reserved":false,"is_disabled":true,"rental_uris":{"android":"levelo://app?vid=a84664aa-8bc7-4f36-a655-c1c1980bb677","ios":"levelo://app?vid=a84664aa-8bc7-4f36-a655-c1c1980bb677"},"vehicle_type_id":"4","last_reported":1748624964,"current_range_meters":400,"station_id":"ce4bhbh2rcd13ifvqeo0","pricing_plan_id":"cebpf4jnsgd1na2vs0mg"},{"bike_id":"a6209e45-7e2f-4a3e-9358-090e4aa54fc0","system_id":"levelo_inurba_marseille","lat":43.2861,"lon":5.3511,"is_reserved":false,"is_disabled":true,"rental_uris":{"android":"levelo://app?vid=a6209e45-7e2f-4a3e-9358-090e4aa54fc0","ios":"levelo://app?vid=a6209e45-7e2f-4a3e-9358-090e4aa54fc0"},"vehicle_type_id":"4","last_reported":1748624964,"current_range_meters":400,"station_id":"ce4bhch2rcd13ifvqeug","pricing_plan_id":"cebpf4jnsgd1na2vs0mg"},{"bike_id":"f95007fb-3e5b-41e7-93f9-8fca69e0d136","system_id":"levelo_inurba_marseille","lat":43.25568,"lon":5.38242,"is_reserved":false,"is_disabled":true,"rental_uris":{"android":"levelo://app?vid=f95007fb-3e5b-41e7-93f9-8fca69e0d136","ios":"levelo://app?vid=f95007fb-3e5b-41e7-93f9-8fca69e0d136"},"vehicle_type_id":"4","last_reported":1748624964,"current_range_meters":400,"station_id":"ce4bhih2rcd13ifvqfs0","pricing_plan_id":"cebpf4jnsgd1na2vs0mg"},{"bike_id":"8dcf7ebc-3f2c-4fb4-b020-240c23a4bdf8","system_id":"levelo_inurba_marseille","lat":43.25102,"lon":5.40343,"is_reserved":false,"is_disabled":true,"rental_uris":{"android":"levelo://app?vid=8dcf7ebc-3f2c-4fb4-b020-240c23a4bdf8","ios":"levelo://app?vid=8dcf7ebc-3f2c-4fb4-b020-240c23a4bdf8"},"vehicle_type_id":"4","last_reported":1748624964,"current_range_meters":400,"station_id":"ce4bhlh2rcd13ifvqgig","pricing_plan_id":"cebpf4jnsgd1na2vs0mg"},{"bike_id":"31769a55-5bc3-4b62-9370-c5070767fc42","system_id":"levelo_inurba_marseille","lat":43.260281,"lon":5.375469,"is_reserved":false,"is_disabled":true,"rental_uris":{"android":"levelo://app?vid=31769a55-5bc3-4b62-9370-c5070767fc42","ios":"levelo://app?vid=31769a55-5bc3-4b62-9370-c5070767fc42"},"vehicle_type_id":"4","last_reported":1748624964,"current_range_meters":800,"station_id":"","pricing_plan_id":"cebpf4jnsgd1na2vs0mg"},{"bike_id":"29ebf0f8-f226-40a0-9f27-f1d4a3aae6b3","system_id":"levelo_inurba_marseille","lat":43.28363,"lon":5.38626,"is_reserved":false,"is_disabled":true,"rental_uris":{"android":"levelo://app?vid=29ebf0f8-f226-40a0-9f27-f1d4a3aae6b3","ios":"levelo://app?vid=29ebf0f8-f226-40a0-9f27-f1d4a3aae6b3"},"vehicle_type_id":"4","last_reported":1748624964,"current_range_meters":800,"station_id":"ce4bh492rcd13ifvqdvg","pricing_plan_id":"cebpf4jnsgd1na2vs0mg"},{"bike_id":"eda961f0-2075-4adf-8e43-ae4c907e12cd","system_id":"levelo_inurba_marseille","lat":43.284241,"lon":5.34971,"is_reserved":false,"is_disabled":true,"rental_uris":{"android":"levelo://app?vid=eda961f0-2075-4adf-8e43-ae4c907e12cd","ios":"levelo://app?vid=eda961f0-2075-4adf-8e43-ae4c907e12cd"},"vehicle_type_id":"4","last_reported":1748624964,"current_range_meters":800,"station_id":"ce4bhbh2rcd13ifvqepg","pricing_plan_id":"cebpf4jnsgd1na2vs0mg"},{"bike_id":"00ac3ac3-e237-4724-a0dc-287ac990b562","system_id":"levelo_inurba_marseille","lat":43.26575,"lon":5.38997,"is_reserved":false,"is_disabled":true,"rental_uris":{"android":"levelo://app?vid=00ac3ac3-e237-4724-a0dc-287ac990b562","ios":"levelo://app?vid=00ac3ac3-e237-4724-a0dc-287ac990b562"},"vehicle_type_id":"4","last_reported":1748624964,"current_range_meters":800,"station_id":"ce4bhe12rcd13ifvqf30","pricing_plan_id":"cebpf4jnsgd1na2vs0mg"},{"bike_id":"f6cb3cc0-1c66-4001-bd4b-1b366586e45d","system_id":"levelo_inurba_marseille","lat":43.27062,"lon":5.40252,"is_reserved":false,"is_disabled":true,"rental_uris":{"android":"levelo://app?vid=f6cb3cc0-1c66-4001-bd4b-1b366586e45d","ios":"levelo://app?vid=f6cb3cc0-1c66-4001-bd4b-1b366586e45d"},"vehicle_type_id":"4","last_reported":1748624964,"current_range_meters":800,"station_id":"ce4bhk92rcd13ifvqgc0","pricing_plan_id":"cebpf4jnsgd1na2vs0mg"},{"bike_id":"7cc63e9d-878c-4099-b74a-7194fd7fb94f","system_id":"levelo_inurba_marseille","lat":43.25073,"lon":5.39519,"is_reserved":false,"is_disabled":true,"rental_uris":{"android":"levelo://app?vid=7cc63e9d-878c-4099-b74a-7194fd7fb94f","ios":"levelo://app?vid=7cc63e9d-878c-4099-b74a-7194fd7fb94f"},"vehicle_type_id":"4","last_reported":1748624964,"current_range_meters":800,"station_id":"ce4bhm12rcd13ifvqgkg","pricing_plan_id":"cebpf4jnsgd1na2vs0mg"},{"bike_id":"773c1455-d022-4f8e-8c6e-cf957b22d221","system_id":"levelo_inurba_marseille","lat":43.21748,"lon":5.34597,"is_reserved":false,"is_disabled":true,"rental_uris":{"android":"levelo://app?vid=773c1455-d022-4f8e-8c6e-cf957b22d221","ios":"levelo://app?vid=773c1455-d022-4f8e-8c6e-cf957b22d221"},"vehicle_type_id":"4","last_reported":1748624964,"current_range_meters":800,"station_id":"st_cvj6r9ubvosntc0bgbag","pricing_plan_id":"cebpf4jnsgd1na2vs0mg"},{"bike_id":"69bfc1f5-2ef6-4309-b84c-5ab7d0c2f9e0","system_id":"levelo_inurba_marseille","lat":43.29302,"lon":5.37172,"is_reserved":false,"is_disabled":true,"rental_uris":{"android":"levelo://app?vid=69bfc1f5-2ef6-4309-b84c-5ab7d0c2f9e0","ios":"levelo://app?vid=69bfc1f5-2ef6-4309-b84c-5ab7d0c2f9e0"},"vehicle_type_id":"4","last_reported":1748624964,"current_range_meters":1200,"station_id":"ce4bgh92rcd13ifvqb40","pricing_plan_id":"cebpf4jnsgd1na2vs0mg"},{"bike_id":"e9a78985-0992-4a85-9f33-605a6e4cedb9","system_id":"levelo_inurba_marseille","lat":43.2959,"lon":5.3811,"is_reserved":false,"is_disabled":true,"rental_uris":{"android":"levelo://app?vid=e9a78985-0992-4a85-9f33-605a6e4cedb9","ios":"levelo://app?vid=e9a78985-0992-4a85-9f33-605a6e4cedb9"},"vehicle_type_id":"4","last_reported":1748624964,"current_range_meters":1200,"station_id":"ce4bgl12rcd13ifvqbo0","pricing_plan_id":"cebpf4jnsgd1na2vs0mg"},{"bike_id":"81297a36-8be4-4fc4-bba6-3d77fec31042","system_id":"levelo_inurba_marseille","lat":43.30936,"lon":5.40146,"is_reserved":false,"is_disabled":true,"rental_uris":{"android":"levelo://app?vid=81297a36-8be4-4fc4-bba6-3d77fec31042","ios":"levelo://app?vid=81297a36-8be4-4fc4-bba6-3d77fec31042"},"vehicle_type_id":"4","last_reported":1748624964,"current_range_meters":1200,"station_id":"ce4bgvp2rcd13ifvqct0","pricing_plan_id":"cebpf4jnsgd1na2vs0mg"},{"bike_id":"3571e0a8-5a27-417c-92d5-8c70df8685b0","system_id":"levelo_inurba_marseille","lat":43.284973,"lon":5.359371,"is_reserved":false,"is_disabled":true,"rental_uris":{"android":"levelo://app?vid=3571e0a8-5a27-417c-92d5-8c70df8685b0","ios":"levelo://app?vid=3571e0a8-5a27-417c-92d5-8c70df8685b0"},"vehicle_type_id":"4","last_reported":1748624964,"current_range_meters":1200,"station_id":"ce4bhah2rcd13ifvqei0","pricing_plan_id":"cebpf4jnsgd1na2vs0mg"},{"bike_id":"d5e08583-116d-4b39-9084-710d026779c3","system_id":"levelo_inurba_marseille","lat":43.26546,"lon":5.39056,"is_reserved":false,"is_disabled":true,"rental_uris":{"android":"levelo://app?vid=d5e08583-116d-4b39-9084-710d026779c3","ios":"levelo://app?vid=d5e08583-116d-4b39-9084-710d026779c3"},"vehicle_type_id":"4","last_reported":1748624964,"current_range_meters":1200,"station_id":"ce4bhe12rcd13ifvqf30","pricing_plan_id":"cebpf4jnsgd1na2vs0mg"},{"bike_id":"a4fc0f00-cc8f-4878-8d8a-462138d32572","system_id":"levelo_inurba_marseille","lat":43.27201,"lon":5.39178,"is_reserved":false,"is_disabled":true,"rental_uris":{"android":"levelo://app?vid=a4fc0f00-cc8f-4878-8d8a-462138d32572","ios":"levelo://app?vid=a4fc0f00-cc8f-4878-8d8a-462138d32572"},"vehicle_type_id":"4","last_reported":1748624964,"current_range_meters":1200,"station_id":"ce4bhhp2rcd13ifvqfm0","pricing_plan_id":"cebpf4jnsgd1na2vs0mg"},{"bike_id":"9d2d75de-6f79-4c98-a794-66bda20110b0","system_id":"levelo_inurba_marseille","lat":43.23073,"lon":5.35472,"is_reserved":false,"is_disabled":true,"rental_uris":{"android":"levelo://app?vid=9d2d75de-6f79-4c98-a794-66bda20110b0","ios":"levelo://app?vid=9d2d75de-6f79-4c98-a794-66bda20110b0"},"vehicle_type_id":"4","last_reported":1748624964,"current_range_meters":1200,"station_id":"cpo3342slgdg3j2ifvpg","pricing_plan_id":"cebpf4jnsgd1na2vs0mg"},{"bike_id":"24204c04-5d8c-4ac1-bc38-3e364dee5b7a","system_id":"levelo_inurba_marseille","lat":43.30246,"lon":5.41311,"is_reserved":false,"is_disabled":true,"rental_uris":{"android":"levelo://app?vid=24204c04-5d8c-4ac1-bc38-3e364dee5b7a","ios":"levelo://app?vid=24204c04-5d8c-4ac1-bc38-3e364dee5b7a"},"vehicle_type_id":"4","last_reported":1748624964,"current_range_meters":1600,"station_id":"","pricing_plan_id":"cebpf4jnsgd1na2vs0mg"},{"bike_id":"77e04ab8-b44f-40dc-908e-e5838eb58075","system_id":"levelo_inurba_marseille","lat":43.23555,"lon":5.36035,"is_reserved":false,"is_disabled":true,"rental_uris":{"android":"levelo://app?vid=77e04ab8-b44f-40dc-908e-e5838eb58075","ios":"levelo://app?vid=77e04ab8-b44f-40dc-908e-e5838eb58075"},"vehicle_type_id":"4","last_reported":1748624964,"current_range_meters":1600,"station_id":"","pricing_plan_id":"cebpf4jnsgd1na2vs0mg"},{"bike_id":"fe15e1b2-d871-46a1-bc16-4b2177ea4a71","system_id":"levelo_inurba_marseille","lat":43.29594,"lon":5.37738,"is_reserved":false,"is_disabled":true,"rental_uris":{"android":"levelo://app?vid=fe15e1b2-d871-46a1-bc16-4b2177ea4a71","ios":"levelo://app?vid=fe15e1b2-d871-46a1-bc16-4b2177ea4a71"},"vehicle_type_id":"4","last_reported":1748624964,"current_range_meters":1600,"station_id":"ce4bgi92rcd13ifvqb90","pricing_plan_id":"cebpf4jnsgd1na2vs0mg"},{"bike_id":"9d4d8f44-de40-417d-a0fd-b975541718cc","system_id":"levelo_inurba_marseille","lat":43.314966,"lon":5.373031,"is_reserved":false,"is_disabled":true,"rental_uris":{"android":"levelo://app?vid=9d4d8f44-de40-417d-a0fd-b975541718cc","ios":"levelo://app?vid=9d4d8f44-de40-417d-a0fd-b975541718cc"},"vehicle_type_id":"4","last_reported":1748624964,"current_range_meters":1600,"station_id":"ce4bgt12rcd13ifvqcd0","pricing_plan_id":"cebpf4jnsgd1na2vs0mg"},{"bike_id":"75601c07-3bbf-4451-8dd1-a29894ad466f","system_id":"levelo_inurba_marseille","lat":43.29418,"lon":5.38625,"is_reserved":false,"is_disabled":true,"rental_uris":{"android":"levelo://app?vid=75601c07-3bbf-4451-8dd1-a29894ad466f","ios":"levelo://app?vid=75601c07-3bbf-4451-8dd1-a29894ad466f"},"vehicle_type_id":"4","last_reported":1748624964,"current_range_meters":1600,"station_id":"ce4bh2h2rcd13ifvqdh0","pricing_plan_id":"cebpf4jnsgd1na2vs0mg"},{"bike_id":"427b5bf9-c0a7-4af4-8acf-1c57fae2be3a","system_id":"levelo_inurba_marseille","lat":43.2737,"lon":5.36254,"is_reserved":false,"is_disabled":true,"rental_uris":{"android":"levelo://app?vid=427b5bf9-c0a7-4af4-8acf-1c57fae2be3a","ios":"levelo://app?vid=427b5bf9-c0a7-4af4-8acf-1c57fae2be3a"},"vehicle_type_id":"4","last_reported":1748624964,"current_range_meters":1600,"station_id":"ce4bhbh2rcd13ifvqeo0","pricing_plan_id":"cebpf4jnsgd1na2vs0mg"},{"bike_id":"a6965e51-942d-43bd-ac3c-8bc517d6ca3b","system_id":"levelo_inurba_marseille","lat":43.24999,"lon":5.38922,"is_reserved":false,"is_disabled":true,"rental_uris":{"android":"levelo://app?vid=a6965e51-942d-43bd-ac3c-8bc517d6ca3b","ios":"levelo://app?vid=a6965e51-942d-43bd-ac3c-8bc517d6ca3b"},"vehicle_type_id":"4","last_reported":1748624964,"current_range_meters":1600,"station_id":"ce4bhgp2rcd13ifvqfd0","pricing_plan_id":"cebpf4jnsgd1na2vs0mg"},{"bike_id":"3e0bb5ff-0e8c-476e-be67-5c18c094b186","system_id":"levelo_inurba_marseille","lat":43.24381,"lon":5.3708,"is_reserved":false,"is_disabled":true,"rental_uris":{"android":"levelo://app?vid=3e0bb5ff-0e8c-476e-be67-5c18c094b186","ios":"levelo://app?vid=3e0bb5ff-0e8c-476e-be67-5c18c094b186"},"vehicle_type_id":"4","last_reported":1748624964,"current_range_meters":1600,"station_id":"ce4bhhh2rcd13ifvqfk0","pricing_plan_id":"cebpf4jnsgd1na2vs0mg"},{"bike_id":"5ea204c3-dcb5-4088-97df-98a711cb6542","system_id":"levelo_inurba_marseille","lat":43.2721,"lon":5.39183,"is_reserved":false,"is_disabled":true,"rental_uris":{"android":"levelo://app?vid=5ea204c3-dcb5-4088-97df-98a711cb6542","ios":"levelo://app?vid=5ea204c3-dcb5-4088-97df-98a711cb6542"},"vehicle_type_id":"4","last_reported":1748624964,"current_range_meters":1600,"station_id":"ce4bhhp2rcd13ifvqfm0","pricing_plan_id":"cebpf4jnsgd1na2vs0mg"},{"bike_id":"ee518c44-386a-4bdd-b085-1cee9a95e842","system_id":"levelo_inurba_marseille","lat":43.23961,"lon":5.366572,"is_reserved":false,"is_disabled":true,"rental_uris":{"android":"levelo://app?vid=ee518c44-386a-4bdd-b085-1cee9a95e842","ios":"levelo://app?vid=ee518c44-386a-4bdd-b085-1cee9a95e842"},"vehicle_type_id":"4","last_reported":1748624964,"current_range_meters":1600,"station_id":"ce4bhi12rcd13ifvqfp0","pricing_plan_id":"cebpf4jnsgd1na2vs0mg"},{"bike_id":"82000894-18cf-4dfd-bfcf-3b7b0baba697","system_id":"levelo_inurba_marseille","lat":43.25573,"lon":5.38233,"is_reserved":false,"is_disabled":true,"rental_uris":{"android":"levelo://app?vid=82000894-18cf-4dfd-bfcf-3b7b0baba697","ios":"levelo://app?vid=82000894-18cf-4dfd-bfcf-3b7b0baba697"},"vehicle_type_id":"4","last_reported":1748624964,"current_range_meters":1600,"station_id":"ce4bhih2rcd13ifvqfs0","pricing_plan_id":"cebpf4jnsgd1na2vs0mg"},{"bike_id":"0bcf8bc6-f298-419a-9cd8-5945b1962414","system_id":"levelo_inurba_marseille","lat":43.25934,"lon":5.40901,"is_reserved":false,"is_disabled":true,"rental_uris":{"android":"levelo://app?vid=0bcf8bc6-f298-419a-9cd8-5945b1962414","ios":"levelo://app?vid=0bcf8bc6-f298-419a-9cd8-5945b1962414"},"vehicle_type_id":"4","last_reported":1748624964,"current_range_meters":1600,"station_id":"ce4bhm92rcd13ifvqglg","pricing_plan_id":"cebpf4jnsgd1na2vs0mg"},{"bike_id":"5116da3f-e635-473b-a992-6cee5eacb525","system_id":"levelo_inurba_marseille","lat":43.26937,"lon":5.40249,"is_reserved":false,"is_disabled":true,"rental_uris":{"android":"levelo://app?vid=5116da3f-e635-473b-a992-6cee5eacb525","ios":"levelo://app?vid=5116da3f-e635-473b-a992-6cee5eacb525"},"vehicle_type_id":"4","last_reported":1748624964,"current_range_meters":1600,"station_id":"cjm6bp8fraef2m0cb0m0","pricing_plan_id":"cebpf4jnsgd1na2vs0mg"},{"bike_id":"5278b434-6c84-40e9-b526-dac962bdf780","system_id":"levelo_inurba_marseille","lat":43.23539,"lon":5.36011,"is_reserved":false,"is_disabled":true,"rental_uris":{"android":"levelo://app?vid=5278b434-6c84-40e9-b526-dac962bdf780","ios":"levelo://app?vid=5278b434-6c84-40e9-b526-dac962bdf780"},"vehicle_type_id":"4","last_reported":1748624964,"current_range_meters":2000,"station_id":"","pricing_plan_id":"cebpf4jnsgd1na2vs0mg"},{"bike_id":"fcbedf31-ab26-42ed-9a7e-5f9e97aa9a93","system_id":"levelo_inurba_marseille","lat":43.29558,"lon":5.38256,"is_reserved":false,"is_disabled":true,"rental_uris":{"android":"levelo://app?vid=fcbedf31-ab26-42ed-9a7e-5f9e97aa9a93","ios":"levelo://app?vid=fcbedf31-ab26-42ed-9a7e-5f9e97aa9a93"},"vehicle_type_id":"4","last_reported":1748624964,"current_range_meters":2000,"station_id":"","pricing_plan_id":"cebpf4jnsgd1na2vs0mg"},{"bike_id":"f9a27812-1723-4f9c-873d-74ec6ab0cafa","system_id":"levelo_inurba_marseille","lat":43.29429,"lon":5.38622,"is_reserved":false,"is_disabled":true,"rental_uris":{"android":"levelo://app?vid=f9a27812-1723-4f9c-873d-74ec6ab0cafa","ios":"levelo://app?vid=f9a27812-1723-4f9c-873d-74ec6ab0cafa"},"vehicle_type_id":"4","last_reported":1748624964,"current_range_meters":2000,"station_id":"ce4bh2h2rcd13ifvqdh0","pricing_plan_id":"cebpf4jnsgd1na2vs0mg"},{"bike_id":"d2874c44-f3fa-404b-85af-72acebe71e78","system_id":"levelo_inurba_marseille","lat":43.29424,"lon":5.38621,"is_reserved":false,"is_disabled":true,"rental_uris":{"android":"levelo://app?vid=d2874c44-f3fa-404b-85af-72acebe71e78","ios":"levelo://app?vid=d2874c44-f3fa-404b-85af-72acebe71e78"},"vehicle_type_id":"4","last_reported":1748624964,"current_range_meters":2000,"station_id":"ce4bh2h2rcd13ifvqdh0","pricing_plan_id":"cebpf4jnsgd1na2vs0mg"},{"bike_id":"720ce97e-a7f4-4ed4-868a-8a9239a55765","system_id":"levelo_inurba_marseille","lat":43.28265,"lon":5.35072,"is_reserved":false,"is_disabled":true,"rental_uris":{"android":"levelo://app?vid=720ce97e-a7f4-4ed4-868a-8a9239a55765","ios":"levelo://app?vid=720ce97e-a7f4-4ed4-868a-8a9239a55765"},"vehicle_type_id":"4","last_reported":1748624964,"current_range_meters":2000,"station_id":"ce4bhbp2rcd13ifvqerg","pricing_plan_id":"cebpf4jnsgd1na2vs0mg"},{"bike_id":"2bbfab00-b48b-4eb2-8422-f0f83be7962b","system_id":"levelo_inurba_marseille","lat":43.28608,"lon":5.35112,"is_reserved":false,"is_disabled":true,"rental_uris":{"android":"levelo://app?vid=2bbfab00-b48b-4eb2-8422-f0f83be7962b","ios":"levelo://app?vid=2bbfab00-b48b-4eb2-8422-f0f83be7962b"},"vehicle_type_id":"4","last_reported":1748624964,"current_range_meters":2000,"station_id":"ce4bhch2rcd13ifvqeug","pricing_plan_id":"cebpf4jnsgd1na2vs0mg"},{"bike_id":"ba82873c-7eeb-43a1-a457-cb6bc3f375de","system_id":"levelo_inurba_marseille","lat":43.26554,"lon":5.3732,"is_reserved":false,"is_disabled":true,"rental_uris":{"android":"levelo://app?vid=ba82873c-7eeb-43a1-a457-cb6bc3f375de","ios":"levelo://app?vid=ba82873c-7eeb-43a1-a457-cb6bc3f375de"},"vehicle_type_id":"4","last_reported":1748624964,"current_range_meters":2000,"station_id":"ce4bhg12rcd13ifvqf70","pricing_plan_id":"cebpf4jnsgd1na2vs0mg"},{"bike_id":"00c41287-535e-44b9-8cd1-3138d2c731e9","system_id":"levelo_inurba_marseille","lat":43.26532,"lon":5.373153,"is_reserved":false,"is_disabled":true,"rental_uris":{"android":"levelo://app?vid=00c41287-535e-44b9-8cd1-3138d2c731e9","ios":"levelo://app?vid=00c41287-535e-44b9-8cd1-3138d2c731e9"},"vehicle_type_id":"4","last_reported":1748624964,"current_range_meters":2000,"station_id":"ce4bhg12rcd13ifvqf70","pricing_plan_id":"cebpf4jnsgd1na2vs0mg"},{"bike_id":"c583cc07-6878-478c-93ba-ee04d045cb45","system_id":"levelo_inurba_marseille","lat":43.26203,"lon":5.37925,"is_reserved":false,"is_disabled":true,"rental_uris":{"android":"levelo://app?vid=c583cc07-6878-478c-93ba-ee04d045cb45","ios":"levelo://app?vid=c583cc07-6878-478c-93ba-ee04d045cb45"},"vehicle_type_id":"4","last_reported":1748624964,"current_range_meters":2000,"station_id":"ce4bhjp2rcd13ifvqg90","pricing_plan_id":"cebpf4jnsgd1na2vs0mg"},{"bike_id":"660518f4-1847-4b36-8410-9858e20e272f","system_id":"levelo_inurba_marseille","lat":43.2673,"lon":5.38982,"is_reserved":false,"is_disabled":false,"rental_uris":{"android":"levelo://app?vid=660518f4-1847-4b36-8410-9858e20e272f","ios":"levelo://app?vid=660518f4-1847-4b36-8410-9858e20e272f"},"vehicle_type_id":"4","last_reported":1748624964,"current_range_meters":2800,"station_id":"","pricing_plan_id":"cebpf4jnsgd1na2vs0mg"},{"bike_id":"2f650bb1-6027-4191-83d2-16315820a0a7","system_id":"levelo_inurba_marseille","lat":43.299883,"lon":5.373586,"is_reserved":false,"is_disabled":false,"rental_uris":{"android":"levelo://app?vid=2f650bb1-6027-4191-83d2-16315820a0a7","ios":"levelo://app?vid=2f650bb1-6027-4191-83d2-16315820a0a7"},"vehicle_type_id":"4","last_reported":1748624964,"current_range_meters":2800,"station_id":"","pricing_plan_id":"cebpf4jnsgd1na2vs0mg"},{"bike_id":"336e34b9-79e3-4dca-b586-36716249807a","system_id":"levelo_inurba_marseille","lat":43.31688,"lon":5.40475,"is_reserved":false,"is_disabled":false,"rental_uris":{"android":"levelo://app?vid=336e34b9-79e3-4dca-b586-36716249807a","ios":"levelo://app?vid=336e34b9-79e3-4dca-b586-36716249807a"},"vehicle_type_id":"4","last_reported":1748624964,"current_range_meters":2800,"station_id":"ce4bh012rcd13ifvqd00","pricing_plan_id":"cebpf4jnsgd1na2vs0mg"},{"bike_id":"27fd9f00-8e3b-4837-90f2-7b078b2174b6","system_id":"levelo_inurba_marseille","lat":43.265398,"lon":5.372971,"is_reserved":false,"is_disabled":true,"rental_uris":{"android":"levelo://app?vid=27fd9f00-8e3b-4837-90f2-7b078b2174b6","ios":"levelo://app?vid=27fd9f00-8e3b-4837-90f2-7b078b2174b6"},"vehicle_type_id":"4","last_reported":1748624964,"current_range_meters":2800,"station_id":"ce4bhg12rcd13ifvqf70","pricing_plan_id":"cebpf4jnsgd1na2vs0mg"},{"bike_id":"14c8a9bb-1b5a-490d-b75a-ba5e9bfafcfa","system_id":"levelo_inurba_marseille","lat":43.29765,"lon":5.37107,"is_reserved":false,"is_disabled":false,"rental_uris":{"android":"levelo://app?vid=14c8a9bb-1b5a-490d-b75a-ba5e9bfafcfa","ios":"levelo://app?vid=14c8a9bb-1b5a-490d-b75a-ba5e9bfafcfa"},"vehicle_type_id":"4","last_reported":1748624964,"current_range_meters":3200,"station_id":"ce4bgop2rcd13ifvqc1g","pricing_plan_id":"cebpf4jnsgd1na2vs0mg"},{"bike_id":"1a9d6407-4911-48b0-a07a-653078f49fa7","system_id":"levelo_inurba_marseille","lat":43.3009,"lon":5.3908,"is_reserved":false,"is_disabled":false,"rental_uris":{"android":"levelo://app?vid=1a9d6407-4911-48b0-a07a-653078f49fa7","ios":"levelo://app?vid=1a9d6407-4911-48b0-a07a-653078f49fa7"},"vehicle_type_id":"4","last_reported":1748624964,"current_range_meters":3200,"station_id":"ce4bh192rcd13ifvqdb0","pricing_plan_id":"cebpf4jnsgd1na2vs0mg"},{"bike_id":"ef2532d7-86ad-47c5-b74e-9c9227c5bd21","system_id":"levelo_inurba_marseille","lat":43.2827,"lon":5.35058,"is_reserved":false,"is_disabled":false,"rental_uris":{"android":"levelo://app?vid=ef2532d7-86ad-47c5-b74e-9c9227c5bd21","ios":"levelo://app?vid=ef2532d7-86ad-47c5-b74e-9c9227c5bd21"},"vehicle_type_id":"4","last_reported":1748624964,"current_range_meters":3200,"station_id":"ce4bhbp2rcd13ifvqerg","pricing_plan_id":"cebpf4jnsgd1na2vs0mg"},{"bike_id":"a55d66a7-984d-4e0e-aa29-3c3dca2f2ef0","system_id":"levelo_inurba_marseille","lat":43.26566,"lon":5.37303,"is_reserved":false,"is_disabled":false,"rental_uris":{"android":"levelo://app?vid=a55d66a7-984d-4e0e-aa29-3c3dca2f2ef0","ios":"levelo://app?vid=a55d66a7-984d-4e0e-aa29-3c3dca2f2ef0"},"vehicle_type_id":"4","last_reported":1748624964,"current_range_meters":3200,"station_id":"ce4bhg12rcd13ifvqf70","pricing_plan_id":"cebpf4jnsgd1na2vs0mg"},{"bike_id":"8c1d3c6e-140a-4408-b010-0d8f59c3bde4","system_id":"levelo_inurba_marseille","lat":43.28,"lon":5.40003,"is_reserved":false,"is_disabled":false,"rental_uris":{"android":"levelo://app?vid=8c1d3c6e-140a-4408-b010-0d8f59c3bde4","ios":"levelo://app?vid=8c1d3c6e-140a-4408-b010-0d8f59c3bde4"},"vehicle_type_id":"4","last_reported":1748624964,"current_range_meters":3200,"station_id":"ce4bho92rcd13ifvqh4g","pricing_plan_id":"cebpf4jnsgd1na2vs0mg"},{"bike_id":"c84594be-673d-467a-983a-e433884e1d36","system_id":"levelo_inurba_marseille","lat":43.301469,"lon":5.380918,"is_reserved":false,"is_disabled":false,"rental_uris":{"android":"levelo://app?vid=c84594be-673d-467a-983a-e433884e1d36","ios":"levelo://app?vid=c84594be-673d-467a-983a-e433884e1d36"},"vehicle_type_id":"4","last_reported":1748624964,"current_range_meters":3600,"station_id":"ce4bgjp2rcd13ifvqbh0","pricing_plan_id":"cebpf4jnsgd1na2vs0mg"},{"bike_id":"4067809a-7529-4334-90cf-b703f644a2aa","system_id":"levelo_inurba_marseille","lat":43.30657,"lon":5.40108,"is_reserved":false,"is_disabled":false,"rental_uris":{"android":"levelo://app?vid=4067809a-7529-4334-90cf-b703f644a2aa","ios":"levelo://app?vid=4067809a-7529-4334-90cf-b703f644a2aa"},"vehicle_type_id":"4","last_reported":1748624964,"current_range_meters":3600,"station_id":"ce4bh112rcd13ifvqda0","pricing_plan_id":"cebpf4jnsgd1na2vs0mg"},{"bike_id":"cd50d113-9ba4-4fb0-8625-9806a37f638a","system_id":"levelo_inurba_marseille","lat":43.26558,"lon":5.39008,"is_reserved":false,"is_disabled":false,"rental_uris":{"android":"levelo://app?vid=cd50d113-9ba4-4fb0-8625-9806a37f638a","ios":"levelo://app?vid=cd50d113-9ba4-4fb0-8625-9806a37f638a"},"vehicle_type_id":"4","last_reported":1748624964,"current_range_meters":3600,"station_id":"ce4bhe12rcd13ifvqf30","pricing_plan_id":"cebpf4jnsgd1na2vs0mg"},{"bike_id":"c2febff3-eb34-4aa6-8571-ac2168a5f8c1","system_id":"levelo_inurba_marseille","lat":43.28152,"lon":5.42639,"is_reserved":false,"is_disabled":false,"rental_uris":{"android":"levelo://app?vid=c2febff3-eb34-4aa6-8571-ac2168a5f8c1","ios":"levelo://app?vid=c2febff3-eb34-4aa6-8571-ac2168a5f8c1"},"vehicle_type_id":"4","last_reported":1748624964,"current_range_meters":3600,"station_id":"ce4bhnh2rcd13ifvqgug","pricing_plan_id":"cebpf4jnsgd1na2vs0mg"},{"bike_id":"7c6e48ab-b87e-4e89-9339-a1a2992e6797","system_id":"levelo_inurba_marseille","lat":43.26114,"lon":5.41462,"is_reserved":false,"is_disabled":false,"rental_uris":{"android":"levelo://app?vid=7c6e48ab-b87e-4e89-9339-a1a2992e6797","ios":"levelo://app?vid=7c6e48ab-b87e-4e89-9339-a1a2992e6797"},"vehicle_type_id":"4","last_reported":1748624964,"current_range_meters":4000,"station_id":"","pricing_plan_id":"cebpf4jnsgd1na2vs0mg"},{"bike_id":"abda2df9-1a80-46e9-a46e-915608c1dbeb","system_id":"levelo_inurba_marseille","lat":43.29767,"lon":5.38106,"is_reserved":false,"is_disabled":false,"rental_uris":{"android":"levelo://app?vid=abda2df9-1a80-46e9-a46e-915608c1dbeb","ios":"levelo://app?vid=abda2df9-1a80-46e9-a46e-915608c1dbeb"},"vehicle_type_id":"4","last_reported":1748624964,"current_range_meters":4000,"station_id":"ce4bgip2rcd13ifvqbb0","pricing_plan_id":"cebpf4jnsgd1na2vs0mg"},{"bike_id":"015f6167-8464-4677-8c68-54e841e6846a","system_id":"levelo_inurba_marseille","lat":43.30792,"lon":5.38151,"is_reserved":false,"is_disabled":false,"rental_uris":{"android":"levelo://app?vid=015f6167-8464-4677-8c68-54e841e6846a","ios":"levelo://app?vid=015f6167-8464-4677-8c68-54e841e6846a"},"vehicle_type_id":"4","last_reported":1748624964,"current_range_meters":4000,"station_id":"ce4bgt12rcd13ifvqce0","pricing_plan_id":"cebpf4jnsgd1na2vs0mg"},{"bike_id":"93222ebe-437b-49ba-b05e-139fa3159770","system_id":"levelo_inurba_marseille","lat":43.228872,"lon":5.353529,"is_reserved":false,"is_disabled":false,"rental_uris":{"android":"levelo://app?vid=93222ebe-437b-49ba-b05e-139fa3159770","ios":"levelo://app?vid=93222ebe-437b-49ba-b05e-139fa3159770"},"vehicle_type_id":"4","last_reported":1748624964,"current_range_meters":4000,"station_id":"cpo3532slgdg3j2ikp40","pricing_plan_id":"cebpf4jnsgd1na2vs0mg"},{"bike_id":"697d924a-ea53-411b-88e3-ed7542c4178d","system_id":"levelo_inurba_marseille","lat":43.337777,"lon":5.374613,"is_reserved":false,"is_disabled":false,"rental_uris":{"android":"levelo://app?vid=697d924a-ea53-411b-88e3-ed7542c4178d","ios":"levelo://app?vid=697d924a-ea53-411b-88e3-ed7542c4178d"},"vehicle_type_id":"4","last_reported":1748624964,"current_range_meters":4400,"station_id":"","pricing_plan_id":"cebpf4jnsgd1na2vs0mg"},{"bike_id":"3fa962d0-6a1a-4642-9b5f-43ffc6a1a297","system_id":"levelo_inurba_marseille","lat":43.29593,"lon":5.37738,"is_reserved":false,"is_disabled":false,"rental_uris":{"android":"levelo://app?vid=3fa962d0-6a1a-4642-9b5f-43ffc6a1a297","ios":"levelo://app?vid=3fa962d0-6a1a-4642-9b5f-43ffc6a1a297"},"vehicle_type_id":"4","last_reported":1748624964,"current_range_meters":4400,"station_id":"ce4bgi92rcd13ifvqb90","pricing_plan_id":"cebpf4jnsgd1na2vs0mg"},{"bike_id":"aaf83fa3-d1d5-4f3a-92ef-1fa4810aba4e","system_id":"levelo_inurba_marseille","lat":43.29537,"lon":5.3855,"is_reserved":false,"is_disabled":false,"rental_uris":{"android":"levelo://app?vid=aaf83fa3-d1d5-4f3a-92ef-1fa4810aba4e","ios":"levelo://app?vid=aaf83fa3-d1d5-4f3a-92ef-1fa4810aba4e"},"vehicle_type_id":"4","last_reported":1748624964,"current_range_meters":4400,"station_id":"ce4bgih2rcd13ifvqba0","pricing_plan_id":"cebpf4jnsgd1na2vs0mg"},{"bike_id":"f3a58ed7-75e4-47c5-b554-efbb1aaae2c9","system_id":"levelo_inurba_marseille","lat":43.31213,"lon":5.36864,"is_reserved":false,"is_disabled":false,"rental_uris":{"android":"levelo://app?vid=f3a58ed7-75e4-47c5-b554-efbb1aaae2c9","ios":"levelo://app?vid=f3a58ed7-75e4-47c5-b554-efbb1aaae2c9"},"vehicle_type_id":"4","last_reported":1748624964,"current_range_meters":4400,"station_id":"ce4bgl92rcd13ifvqbq0","pricing_plan_id":"cebpf4jnsgd1na2vs0mg"},{"bike_id":"a699ae8d-4dee-4788-854e-30fb67bbd554","system_id":"levelo_inurba_marseille","lat":43.29409,"lon":5.38615,"is_reserved":false,"is_disabled":false,"rental_uris":{"android":"levelo://app?vid=a699ae8d-4dee-4788-854e-30fb67bbd554","ios":"levelo://app?vid=a699ae8d-4dee-4788-854e-30fb67bbd554"},"vehicle_type_id":"4","last_reported":1748624964,"current_range_meters":4400,"station_id":"ce4bh2h2rcd13ifvqdh0","pricing_plan_id":"cebpf4jnsgd1na2vs0mg"},{"bike_id":"c8371029-f848-406b-9e41-37b50a8274ab","system_id":"levelo_inurba_marseille","lat":43.23149,"lon":5.43721,"is_reserved":false,"is_disabled":false,"rental_uris":{"android":"levelo://app?vid=c8371029-f848-406b-9e41-37b50a8274ab","ios":"levelo://app?vid=c8371029-f848-406b-9e41-37b50a8274ab"},"vehicle_type_id":"4","last_reported":1748624964,"current_range_meters":4400,"station_id":"ce4bhmp2rcd13ifvqgog","pricing_plan_id":"cebpf4jnsgd1na2vs0mg"},{"bike_id":"6f6bfa7f-3c80-4f17-9f83-302c57e0fef8","system_id":"levelo_inurba_marseille","lat":43.23184,"lon":5.39988,"is_reserved":false,"is_disabled":false,"rental_uris":{"android":"levelo://app?vid=6f6bfa7f-3c80-4f17-9f83-302c57e0fef8","ios":"levelo://app?vid=6f6bfa7f-3c80-4f17-9f83-302c57e0fef8"},"vehicle_type_id":"4","last_reported":1748624964,"current_range_meters":4400,"station_id":"ce4bhn12rcd13ifvqgqg","pricing_plan_id":"cebpf4jnsgd1na2vs0mg"},{"bike_id":"3112857f-bd3a-4fff-9b9f-ec62ba0de487","system_id":"levelo_inurba_marseille","lat":43.2174,"lon":5.3462,"is_reserved":false,"is_disabled":false,"rental_uris":{"android":"levelo://app?vid=3112857f-bd3a-4fff-9b9f-ec62ba0de487","ios":"levelo://app?vid=3112857f-bd3a-4fff-9b9f-ec62ba0de487"},"vehicle_type_id":"4","last_reported":1748624964,"current_range_meters":4400,"station_id":"st_cvj6r9ubvosntc0bgbag","pricing_plan_id":"cebpf4jnsgd1na2vs0mg"},{"bike_id":"ce69a475-abf0-4bcd-a905-fe4a94dddc90","system_id":"levelo_inurba_marseille","lat":43.292635,"lon":5.36793,"is_reserved":false,"is_disabled":false,"rental_uris":{"android":"levelo://app?vid=ce69a475-abf0-4bcd-a905-fe4a94dddc90","ios":"levelo://app?vid=ce69a475-abf0-4bcd-a905-fe4a94dddc90"},"vehicle_type_id":"4","last_reported":1748624964,"current_range_meters":4800,"station_id":"","pricing_plan_id":"cebpf4jnsgd1na2vs0mg"},{"bike_id":"f643d6ce-9596-419e-b71d-198dba66fb04","system_id":"levelo_inurba_marseille","lat":43.27441,"lon":5.36176,"is_reserved":false,"is_disabled":false,"rental_uris":{"android":"levelo://app?vid=f643d6ce-9596-419e-b71d-198dba66fb04","ios":"levelo://app?vid=f643d6ce-9596-419e-b71d-198dba66fb04"},"vehicle_type_id":"4","last_reported":1748624964,"current_range_meters":4800,"station_id":"","pricing_plan_id":"cebpf4jnsgd1na2vs0mg"},{"bike_id":"eb6f7b70-b554-4f0b-9071-c468db80e368","system_id":"levelo_inurba_marseille","lat":43.2398,"lon":5.36291,"is_reserved":false,"is_disabled":false,"rental_uris":{"android":"levelo://app?vid=eb6f7b70-b554-4f0b-9071-c468db80e368","ios":"levelo://app?vid=eb6f7b70-b554-4f0b-9071-c468db80e368"},"vehicle_type_id":"4","last_reported":1748624964,"current_range_meters":4800,"station_id":"","pricing_plan_id":"cebpf4jnsgd1na2vs0mg"},{"bike_id":"34070ccb-d4bd-49ce-b38b-3218e207f1fc","system_id":"levelo_inurba_marseille","lat":43.259085,"lon":5.376005,"is_reserved":false,"is_disabled":false,"rental_uris":{"android":"levelo://app?vid=34070ccb-d4bd-49ce-b38b-3218e207f1fc","ios":"levelo://app?vid=34070ccb-d4bd-49ce-b38b-3218e207f1fc"},"vehicle_type_id":"4","last_reported":1748624964,"current_range_meters":4800,"station_id":"ce4bhr12rcd13ifvqhqg","pricing_plan_id":"cebpf4jnsgd1na2vs0mg"},{"bike_id":"2e0e97a1-bfc1-49b2-9b74-fb9015c0df07","system_id":"levelo_inurba_marseille","lat":43.28739,"lon":5.36066,"is_reserved":false,"is_disabled":false,"rental_uris":{"android":"levelo://app?vid=2e0e97a1-bfc1-49b2-9b74-fb9015c0df07","ios":"levelo://app?vid=2e0e97a1-bfc1-49b2-9b74-fb9015c0df07"},"vehicle_type_id":"4","last_reported":1748624964,"current_range_meters":4800,"station_id":"cki0cbj6b192h4jlfktg","pricing_plan_id":"cebpf4jnsgd1na2vs0mg"},{"bike_id":"49ff598a-7458-4d8e-8abf-f3b330555b51","system_id":"levelo_inurba_marseille","lat":43.30881,"lon":5.39654,"is_reserved":false,"is_disabled":false,"rental_uris":{"android":"levelo://app?vid=49ff598a-7458-4d8e-8abf-f3b330555b51","ios":"levelo://app?vid=49ff598a-7458-4d8e-8abf-f3b330555b51"},"vehicle_type_id":"4","last_reported":1748624964,"current_range_meters":5600,"station_id":"ce4bh012rcd13ifvqcv0","pricing_plan_id":"cebpf4jnsgd1na2vs0mg"},{"bike_id":"1bce0a2e-b9e6-423b-8e5a-01fa50589117","system_id":"levelo_inurba_marseille","lat":43.28855,"lon":5.3583,"is_reserved":false,"is_disabled":false,"rental_uris":{"android":"levelo://app?vid=1bce0a2e-b9e6-423b-8e5a-01fa50589117","ios":"levelo://app?vid=1bce0a2e-b9e6-423b-8e5a-01fa50589117"},"vehicle_type_id":"4","last_reported":1748624964,"current_range_meters":5600,"station_id":"ce4bhb12rcd13ifvqem0","pricing_plan_id":"cebpf4jnsgd1na2vs0mg"},{"bike_id":"2a8f34b5-352e-4d2b-be36-dfc3df011438","system_id":"levelo_inurba_marseille","lat":43.28839,"lon":5.35841,"is_reserved":false,"is_disabled":false,"rental_uris":{"android":"levelo://app?vid=2a8f34b5-352e-4d2b-be36-dfc3df011438","ios":"levelo://app?vid=2a8f34b5-352e-4d2b-be36-dfc3df011438"},"vehicle_type_id":"4","last_reported":1748624964,"current_range_meters":5600,"station_id":"ce4bhb12rcd13ifvqem0","pricing_plan_id":"cebpf4jnsgd1na2vs0mg"},{"bike_id":"2811bd3c-ff5b-4540-993e-de3fdd7cb70e","system_id":"levelo_inurba_marseille","lat":43.26027,"lon":5.37546,"is_reserved":false,"is_disabled":false,"rental_uris":{"android":"levelo://app?vid=2811bd3c-ff5b-4540-993e-de3fdd7cb70e","ios":"levelo://app?vid=2811bd3c-ff5b-4540-993e-de3fdd7cb70e"},"vehicle_type_id":"4","last_reported":1748624964,"current_range_meters":5600,"station_id":"ce4bhgh2rcd13ifvqfa0","pricing_plan_id":"cebpf4jnsgd1na2vs0mg"},{"bike_id":"351fa926-bb31-41a3-8907-e43faccd8d58","system_id":"levelo_inurba_marseille","lat":43.25491,"lon":5.37646,"is_reserved":false,"is_disabled":false,"rental_uris":{"android":"levelo://app?vid=351fa926-bb31-41a3-8907-e43faccd8d58","ios":"levelo://app?vid=351fa926-bb31-41a3-8907-e43faccd8d58"},"vehicle_type_id":"4","last_reported":1748624964,"current_range_meters":5600,"station_id":"ce4bhh12rcd13ifvqff0","pricing_plan_id":"cebpf4jnsgd1na2vs0mg"},{"bike_id":"20175f64-e28f-403d-a677-6da96824b5c6","system_id":"levelo_inurba_marseille","lat":43.27173,"lon":5.40992,"is_reserved":false,"is_disabled":false,"rental_uris":{"android":"levelo://app?vid=20175f64-e28f-403d-a677-6da96824b5c6","ios":"levelo://app?vid=20175f64-e28f-403d-a677-6da96824b5c6"},"vehicle_type_id":"4","last_reported":1748624964,"current_range_meters":5600,"station_id":"ce4bhl12rcd13ifvqgf0","pricing_plan_id":"cebpf4jnsgd1na2vs0mg"},{"bike_id":"299bc464-0062-40b9-b8fd-94e53cb49a69","system_id":"levelo_inurba_marseille","lat":43.29641,"lon":5.36229,"is_reserved":false,"is_disabled":false,"rental_uris":{"android":"levelo://app?vid=299bc464-0062-40b9-b8fd-94e53cb49a69","ios":"levelo://app?vid=299bc464-0062-40b9-b8fd-94e53cb49a69"},"vehicle_type_id":"4","last_reported":1748624964,"current_range_meters":6000,"station_id":"","pricing_plan_id":"cebpf4jnsgd1na2vs0mg"},{"bike_id":"f189cf46-f40b-49fd-a7d2-090c8db00dd9","system_id":"levelo_inurba_marseille","lat":43.30799,"lon":5.38148,"is_reserved":false,"is_disabled":false,"rental_uris":{"android":"levelo://app?vid=f189cf46-f40b-49fd-a7d2-090c8db00dd9","ios":"levelo://app?vid=f189cf46-f40b-49fd-a7d2-090c8db00dd9"},"vehicle_type_id":"4","last_reported":1748624964,"current_range_meters":6000,"station_id":"ce4bgt12rcd13ifvqce0","pricing_plan_id":"cebpf4jnsgd1na2vs0mg"},{"bike_id":"2b54bf11-80ed-4ff3-acaa-db3cd6b14e9f","system_id":"levelo_inurba_marseille","lat":43.28344,"lon":5.38102,"is_reserved":false,"is_disabled":false,"rental_uris":{"android":"levelo://app?vid=2b54bf11-80ed-4ff3-acaa-db3cd6b14e9f","ios":"levelo://app?vid=2b54bf11-80ed-4ff3-acaa-db3cd6b14e9f"},"vehicle_type_id":"4","last_reported":1748624964,"current_range_meters":6400,"station_id":"ce4bh412rcd13ifvqdr0","pricing_plan_id":"cebpf4jnsgd1na2vs0mg"},{"bike_id":"8bd61dea-36be-4386-a376-cd020cc67216","system_id":"levelo_inurba_marseille","lat":43.28658,"lon":5.38661,"is_reserved":false,"is_disabled":false,"rental_uris":{"android":"levelo://app?vid=8bd61dea-36be-4386-a376-cd020cc67216","ios":"levelo://app?vid=8bd61dea-36be-4386-a376-cd020cc67216"},"vehicle_type_id":"4","last_reported":1748624964,"current_range_meters":6400,"station_id":"ce4bh492rcd13ifvqdug","pricing_plan_id":"cebpf4jnsgd1na2vs0mg"},{"bike_id":"df5639a9-d79a-4237-aeb9-c8a6d07030ce","system_id":"levelo_inurba_marseille","lat":43.29003,"lon":5.35606,"is_reserved":false,"is_disabled":false,"rental_uris":{"android":"levelo://app?vid=df5639a9-d79a-4237-aeb9-c8a6d07030ce","ios":"levelo://app?vid=df5639a9-d79a-4237-aeb9-c8a6d07030ce"},"vehicle_type_id":"4","last_reported":1748624964,"current_range_meters":6400,"station_id":"ce4bhb92rcd13ifvqen0","pricing_plan_id":"cebpf4jnsgd1na2vs0mg"},{"bike_id":"afe6667c-a708-4cbb-bfa4-119b32f98c9a","system_id":"levelo_inurba_marseille","lat":43.258175,"lon":5.394322,"is_reserved":false,"is_disabled":false,"rental_uris":{"android":"levelo://app?vid=afe6667c-a708-4cbb-bfa4-119b32f98c9a","ios":"levelo://app?vid=afe6667c-a708-4cbb-bfa4-119b32f98c9a"},"vehicle_type_id":"4","last_reported":1748624964,"current_range_meters":6400,"station_id":"ce4bhip2rcd13ifvqft0","pricing_plan_id":"cebpf4jnsgd1na2vs0mg"},{"bike_id":"8d9f69c4-ca71-4dc5-bc9b-be08d92bb43f","system_id":"levelo_inurba_marseille","lat":43.28713,"lon":5.36094,"is_reserved":false,"is_disabled":false,"rental_uris":{"android":"levelo://app?vid=8d9f69c4-ca71-4dc5-bc9b-be08d92bb43f","ios":"levelo://app?vid=8d9f69c4-ca71-4dc5-bc9b-be08d92bb43f"},"vehicle_type_id":"4","last_reported":1748624964,"current_range_meters":6400,"station_id":"cki0cbj6b192h4jlfktg","pricing_plan_id":"cebpf4jnsgd1na2vs0mg"},{"bike_id":"d47dd661-2a27-4d13-bb60-c0261d2092e2","system_id":"levelo_inurba_marseille","lat":43.29514,"lon":5.394083,"is_reserved":false,"is_disabled":false,"rental_uris":{"android":"levelo://app?vid=d47dd661-2a27-4d13-bb60-c0261d2092e2","ios":"levelo://app?vid=d47dd661-2a27-4d13-bb60-c0261d2092e2"},"vehicle_type_id":"4","last_reported":1748624964,"current_range_meters":6800,"station_id":"ce4bh292rcd13ifvqdf0","pricing_plan_id":"cebpf4jnsgd1na2vs0mg"},{"bike_id":"f6a1fb63-bcbf-4a59-862f-296a683cfa82","system_id":"levelo_inurba_marseille","lat":43.29515,"lon":5.39043,"is_reserved":false,"is_disabled":false,"rental_uris":{"android":"levelo://app?vid=f6a1fb63-bcbf-4a59-862f-296a683cfa82","ios":"levelo://app?vid=f6a1fb63-bcbf-4a59-862f-296a683cfa82"},"vehicle_type_id":"4","last_reported":1748624964,"current_range_meters":6800,"station_id":"ce4bh3p2rcd13ifvqdp0","pricing_plan_id":"cebpf4jnsgd1na2vs0mg"},{"bike_id":"bbb2d7fa-4fea-45cc-92c7-b1f8fb614697","system_id":"levelo_inurba_marseille","lat":43.265587,"lon":5.372803,"is_reserved":false,"is_disabled":false,"rental_uris":{"android":"levelo://app?vid=bbb2d7fa-4fea-45cc-92c7-b1f8fb614697","ios":"levelo://app?vid=bbb2d7fa-4fea-45cc-92c7-b1f8fb614697"},"vehicle_type_id":"4","last_reported":1748624964,"current_range_meters":6800,"station_id":"ce4bhg12rcd13ifvqf70","pricing_plan_id":"cebpf4jnsgd1na2vs0mg"},{"bike_id":"5b2c0fd0-7601-433f-946e-ccd487b24b7e","system_id":"levelo_inurba_marseille","lat":43.29279,"lon":5.40116,"is_reserved":false,"is_disabled":false,"rental_uris":{"android":"levelo://app?vid=5b2c0fd0-7601-433f-946e-ccd487b24b7e","ios":"levelo://app?vid=5b2c0fd0-7601-433f-946e-ccd487b24b7e"},"vehicle_type_id":"4","last_reported":1748624964,"current_range_meters":7200,"station_id":"ce4bh312rcd13ifvqdk0","pricing_plan_id":"cebpf4jnsgd1na2vs0mg"},{"bike_id":"81e0f4d8-2bdd-4a69-81fe-1065c5d29ed8","system_id":"levelo_inurba_marseille","lat":43.29258,"lon":5.38435,"is_reserved":false,"is_disabled":false,"rental_uris":{"android":"levelo://app?vid=81e0f4d8-2bdd-4a69-81fe-1065c5d29ed8","ios":"levelo://app?vid=81e0f4d8-2bdd-4a69-81fe-1065c5d29ed8"},"vehicle_type_id":"4","last_reported":1748624964,"current_range_meters":7200,"station_id":"ce4bh692rcd13ifvqea0","pricing_plan_id":"cebpf4jnsgd1na2vs0mg"},{"bike_id":"bc5971db-4b5f-48ab-b09c-f0d5d30aafb8","system_id":"levelo_inurba_marseille","lat":43.25494,"lon":5.37651,"is_reserved":false,"is_disabled":false,"rental_uris":{"android":"levelo://app?vid=bc5971db-4b5f-48ab-b09c-f0d5d30aafb8","ios":"levelo://app?vid=bc5971db-4b5f-48ab-b09c-f0d5d30aafb8"},"vehicle_type_id":"4","last_reported":1748624964,"current_range_meters":7200,"station_id":"ce4bhh12rcd13ifvqff0","pricing_plan_id":"cebpf4jnsgd1na2vs0mg"},{"bike_id":"5c313a27-55b8-47f8-94c1-f60712fc0a85","system_id":"levelo_inurba_marseille","lat":43.26054,"lon":5.39398,"is_reserved":false,"is_disabled":false,"rental_uris":{"android":"levelo://app?vid=5c313a27-55b8-47f8-94c1-f60712fc0a85","ios":"levelo://app?vid=5c313a27-55b8-47f8-94c1-f60712fc0a85"},"vehicle_type_id":"4","last_reported":1748624964,"current_range_meters":7200,"station_id":"ce4bhh92rcd13ifvqfj0","pricing_plan_id":"cebpf4jnsgd1na2vs0mg"},{"bike_id":"2f6a8c21-7273-42a7-b612-09ae4a367a8b","system_id":"levelo_inurba_marseille","lat":43.27679,"lon":5.38881,"is_reserved":false,"is_disabled":false,"rental_uris":{"android":"levelo://app?vid=2f6a8c21-7273-42a7-b612-09ae4a367a8b","ios":"levelo://app?vid=2f6a8c21-7273-42a7-b612-09ae4a367a8b"},"vehicle_type_id":"4","last_reported":1748624964,"current_range_meters":7200,"station_id":"ce4bhi12rcd13ifvqfo0","pricing_plan_id":"cebpf4jnsgd1na2vs0mg"},{"bike_id":"21f934d2-0f6e-4f7b-b5ed-00eb8063c6cf","system_id":"levelo_inurba_marseille","lat":43.24077,"lon":5.37747,"is_reserved":false,"is_disabled":false,"rental_uris":{"android":"levelo://app?vid=21f934d2-0f6e-4f7b-b5ed-00eb8063c6cf","ios":"levelo://app?vid=21f934d2-0f6e-4f7b-b5ed-00eb8063c6cf"},"vehicle_type_id":"4","last_reported":1748624964,"current_range_meters":7200,"station_id":"ce4bhnp2rcd13ifvqgvg","pricing_plan_id":"cebpf4jnsgd1na2vs0mg"},{"bike_id":"00f77637-c960-45d0-b516-a2f6a0285858","system_id":"levelo_inurba_marseille","lat":43.29742,"lon":5.38547,"is_reserved":false,"is_disabled":false,"rental_uris":{"android":"levelo://app?vid=00f77637-c960-45d0-b516-a2f6a0285858","ios":"levelo://app?vid=00f77637-c960-45d0-b516-a2f6a0285858"},"vehicle_type_id":"4","last_reported":1748624964,"current_range_meters":8000,"station_id":"","pricing_plan_id":"cebpf4jnsgd1na2vs0mg"},{"bike_id":"345ab587-d3bc-4c5d-81fc-f67df4352327","system_id":"levelo_inurba_marseille","lat":43.3044,"lon":5.3888,"is_reserved":false,"is_disabled":false,"rental_uris":{"android":"levelo://app?vid=345ab587-d3bc-4c5d-81fc-f67df4352327","ios":"levelo://app?vid=345ab587-d3bc-4c5d-81fc-f67df4352327"},"vehicle_type_id":"4","last_reported":1748624964,"current_range_meters":8000,"station_id":"ce4bgk12rcd13ifvqbi0","pricing_plan_id":"cebpf4jnsgd1na2vs0mg"},{"bike_id":"0c582cb1-c3e7-4404-bb8b-ec025ad93e0a","system_id":"levelo_inurba_marseille","lat":43.305578,"lon":5.365545,"is_reserved":false,"is_disabled":false,"rental_uris":{"android":"levelo://app?vid=0c582cb1-c3e7-4404-bb8b-ec025ad93e0a","ios":"levelo://app?vid=0c582cb1-c3e7-4404-bb8b-ec025ad93e0a"},"vehicle_type_id":"4","last_reported":1748624964,"current_range_meters":8000,"station_id":"ce4bgs12rcd13ifvqcag","pricing_plan_id":"cebpf4jnsgd1na2vs0mg"},{"bike_id":"451f1fdd-1712-47dc-9e96-e5231712aab5","system_id":"levelo_inurba_marseille","lat":43.29272,"lon":5.38426,"is_reserved":false,"is_disabled":false,"rental_uris":{"android":"levelo://app?vid=451f1fdd-1712-47dc-9e96-e5231712aab5","ios":"levelo://app?vid=451f1fdd-1712-47dc-9e96-e5231712aab5"},"vehicle_type_id":"4","last_reported":1748624964,"current_range_meters":8000,"station_id":"ce4bh692rcd13ifvqea0","pricing_plan_id":"cebpf4jnsgd1na2vs0mg"},{"bike_id":"900afae4-a591-462b-a7a4-fd73d1c5f660","system_id":"levelo_inurba_marseille","lat":43.27916,"lon":5.39576,"is_reserved":false,"is_disabled":false,"rental_uris":{"android":"levelo://app?vid=900afae4-a591-462b-a7a4-fd73d1c5f660","ios":"levelo://app?vid=900afae4-a591-462b-a7a4-fd73d1c5f660"},"vehicle_type_id":"4","last_reported":1748624964,"current_range_meters":8000,"station_id":"ce4bhf92rcd13ifvqf40","pricing_plan_id":"cebpf4jnsgd1na2vs0mg"},{"bike_id":"161ccf12-51e5-431e-acaa-3166efd5d61c","system_id":"levelo_inurba_marseille","lat":43.28148,"lon":5.42645,"is_reserved":false,"is_disabled":false,"rental_uris":{"android":"levelo://app?vid=161ccf12-51e5-431e-acaa-3166efd5d61c","ios":"levelo://app?vid=161ccf12-51e5-431e-acaa-3166efd5d61c"},"vehicle_type_id":"4","last_reported":1748624964,"current_range_meters":8000,"station_id":"ce4bhnh2rcd13ifvqgug","pricing_plan_id":"cebpf4jnsgd1na2vs0mg"},{"bike_id":"d9cd1b0f-4437-48a7-9dfa-2da92da9d46b","system_id":"levelo_inurba_marseille","lat":43.29786,"lon":5.39341,"is_reserved":false,"is_disabled":false,"rental_uris":{"android":"levelo://app?vid=d9cd1b0f-4437-48a7-9dfa-2da92da9d46b","ios":"levelo://app?vid=d9cd1b0f-4437-48a7-9dfa-2da92da9d46b"},"vehicle_type_id":"4","last_reported":1748624964,"current_range_meters":8000,"station_id":"chh1huq6cuj3fo74tm60","pricing_plan_id":"cebpf4jnsgd1na2vs0mg"},{"bike_id":"f5733814-9732-4748-bcc9-3b2fac8e1564","system_id":"levelo_inurba_marseille","lat":43.31256,"lon":5.37829,"is_reserved":false,"is_disabled":false,"rental_uris":{"android":"levelo://app?vid=f5733814-9732-4748-bcc9-3b2fac8e1564","ios":"levelo://app?vid=f5733814-9732-4748-bcc9-3b2fac8e1564"},"vehicle_type_id":"4","last_reported":1748624964,"current_range_meters":8400,"station_id":"","pricing_plan_id":"cebpf4jnsgd1na2vs0mg"},{"bike_id":"1cd0d90d-6b55-4fbf-b7b4-b735e852f0ec","system_id":"levelo_inurba_marseille","lat":43.28348,"lon":5.38105,"is_reserved":false,"is_disabled":false,"rental_uris":{"android":"levelo://app?vid=1cd0d90d-6b55-4fbf-b7b4-b735e852f0ec","ios":"levelo://app?vid=1cd0d90d-6b55-4fbf-b7b4-b735e852f0ec"},"vehicle_type_id":"4","last_reported":1748624964,"current_range_meters":8400,"station_id":"ce4bh412rcd13ifvqdr0","pricing_plan_id":"cebpf4jnsgd1na2vs0mg"},{"bike_id":"8b407b59-8a95-45f4-9d3a-318c4e78b4d0","system_id":"levelo_inurba_marseille","lat":43.24999,"lon":5.38924,"is_reserved":false,"is_disabled":false,"rental_uris":{"android":"levelo://app?vid=8b407b59-8a95-45f4-9d3a-318c4e78b4d0","ios":"levelo://app?vid=8b407b59-8a95-45f4-9d3a-318c4e78b4d0"},"vehicle_type_id":"4","last_reported":1748624964,"current_range_meters":8400,"station_id":"ce4bhgp2rcd13ifvqfd0","pricing_plan_id":"cebpf4jnsgd1na2vs0mg"},{"bike_id":"1ce1a775-5c21-4f89-b81a-5456c9f91e91","system_id":"levelo_inurba_marseille","lat":43.23964,"lon":5.36629,"is_reserved":false,"is_disabled":false,"rental_uris":{"android":"levelo://app?vid=1ce1a775-5c21-4f89-b81a-5456c9f91e91","ios":"levelo://app?vid=1ce1a775-5c21-4f89-b81a-5456c9f91e91"},"vehicle_type_id":"4","last_reported":1748624964,"current_range_meters":8400,"station_id":"ce4bhi12rcd13ifvqfp0","pricing_plan_id":"cebpf4jnsgd1na2vs0mg"},{"bike_id":"f78cc853-94fc-4b7f-b345-980d57485950","system_id":"levelo_inurba_marseille","lat":43.286126,"lon":5.37058,"is_reserved":false,"is_disabled":false,"rental_uris":{"android":"levelo://app?vid=f78cc853-94fc-4b7f-b345-980d57485950","ios":"levelo://app?vid=f78cc853-94fc-4b7f-b345-980d57485950"},"vehicle_type_id":"4","last_reported":1748624964,"current_range_meters":8400,"station_id":"ce4bht12rcd13ifvqi60","pricing_plan_id":"cebpf4jnsgd1na2vs0mg"},{"bike_id":"a426f99b-d34a-41bf-bbda-59f7dfd6939b","system_id":"levelo_inurba_marseille","lat":43.255796,"lon":5.382262,"is_reserved":false,"is_disabled":false,"rental_uris":{"android":"levelo://app?vid=a426f99b-d34a-41bf-bbda-59f7dfd6939b","ios":"levelo://app?vid=a426f99b-d34a-41bf-bbda-59f7dfd6939b"},"vehicle_type_id":"4","last_reported":1748624964,"current_range_meters":8400,"station_id":"ce501612rcd8frsf0b60","pricing_plan_id":"cebpf4jnsgd1na2vs0mg"},{"bike_id":"da5921cd-e75b-4ce7-b109-06c28f720590","system_id":"levelo_inurba_marseille","lat":43.28746,"lon":5.36133,"is_reserved":false,"is_disabled":false,"rental_uris":{"android":"levelo://app?vid=da5921cd-e75b-4ce7-b109-06c28f720590","ios":"levelo://app?vid=da5921cd-e75b-4ce7-b109-06c28f720590"},"vehicle_type_id":"4","last_reported":1748624964,"current_range_meters":8400,"station_id":"cki0cbj6b192h4jlfktg","pricing_plan_id":"cebpf4jnsgd1na2vs0mg"},{"bike_id":"544abdfa-b4d6-4c3e-8a04-4e2476db1de5","system_id":"levelo_inurba_marseille","lat":43.29904,"lon":5.36847,"is_reserved":false,"is_disabled":false,"rental_uris":{"android":"levelo://app?vid=544abdfa-b4d6-4c3e-8a04-4e2476db1de5","ios":"levelo://app?vid=544abdfa-b4d6-4c3e-8a04-4e2476db1de5"},"vehicle_type_id":"4","last_reported":1748624964,"current_range_meters":8800,"station_id":"","pricing_plan_id":"cebpf4jnsgd1na2vs0mg"},{"bike_id":"e9cda520-c6f4-465d-ad7f-8c059b3dc45a","system_id":"levelo_inurba_marseille","lat":43.313967,"lon":5.383993,"is_reserved":false,"is_disabled":false,"rental_uris":{"android":"levelo://app?vid=e9cda520-c6f4-465d-ad7f-8c059b3dc45a","ios":"levelo://app?vid=e9cda520-c6f4-465d-ad7f-8c059b3dc45a"},"vehicle_type_id":"4","last_reported":1748624964,"current_range_meters":8800,"station_id":"","pricing_plan_id":"cebpf4jnsgd1na2vs0mg"},{"bike_id":"717f4583-ef6a-44de-9503-7904eb71c0cd","system_id":"levelo_inurba_marseille","lat":43.3116,"lon":5.387273,"is_reserved":false,"is_disabled":false,"rental_uris":{"android":"levelo://app?vid=717f4583-ef6a-44de-9503-7904eb71c0cd","ios":"levelo://app?vid=717f4583-ef6a-44de-9503-7904eb71c0cd"},"vehicle_type_id":"4","last_reported":1748624964,"current_range_meters":8800,"station_id":"ce4bgv12rcd13ifvqcp0","pricing_plan_id":"cebpf4jnsgd1na2vs0mg"},{"bike_id":"4258291f-daf6-4adf-952f-cf27f3ce12b6","system_id":"levelo_inurba_marseille","lat":43.26197,"lon":5.3744,"is_reserved":false,"is_disabled":false,"rental_uris":{"android":"levelo://app?vid=4258291f-daf6-4adf-952f-cf27f3ce12b6","ios":"levelo://app?vid=4258291f-daf6-4adf-952f-cf27f3ce12b6"},"vehicle_type_id":"4","last_reported":1748624964,"current_range_meters":8800,"station_id":"ce4bhgp2rcd13ifvqfc0","pricing_plan_id":"cebpf4jnsgd1na2vs0mg"},{"bike_id":"35e290a6-9a23-452e-b436-088e35527004","system_id":"levelo_inurba_marseille","lat":43.240768,"lon":5.377521,"is_reserved":false,"is_disabled":false,"rental_uris":{"android":"levelo://app?vid=35e290a6-9a23-452e-b436-088e35527004","ios":"levelo://app?vid=35e290a6-9a23-452e-b436-088e35527004"},"vehicle_type_id":"4","last_reported":1748624964,"current_range_meters":8800,"station_id":"ce4bhnp2rcd13ifvqgvg","pricing_plan_id":"cebpf4jnsgd1na2vs0mg"},{"bike_id":"dcac3f7e-ac89-4f51-9065-db434d572e88","system_id":"levelo_inurba_marseille","lat":43.29526,"lon":5.38549,"is_reserved":false,"is_disabled":false,"rental_uris":{"android":"levelo://app?vid=dcac3f7e-ac89-4f51-9065-db434d572e88","ios":"levelo://app?vid=dcac3f7e-ac89-4f51-9065-db434d572e88"},"vehicle_type_id":"4","last_reported":1748624964,"current_range_meters":9200,"station_id":"ce4bgih2rcd13ifvqba0","pricing_plan_id":"cebpf4jnsgd1na2vs0mg"},{"bike_id":"9af9c926-ba62-4dc8-a9bf-b7c1621ad0ad","system_id":"levelo_inurba_marseille","lat":43.29792,"lon":5.38105,"is_reserved":false,"is_disabled":false,"rental_uris":{"android":"levelo://app?vid=9af9c926-ba62-4dc8-a9bf-b7c1621ad0ad","ios":"levelo://app?vid=9af9c926-ba62-4dc8-a9bf-b7c1621ad0ad"},"vehicle_type_id":"4","last_reported":1748624964,"current_range_meters":9200,"station_id":"ce4bgip2rcd13ifvqbb0","pricing_plan_id":"cebpf4jnsgd1na2vs0mg"},{"bike_id":"8d79857f-6234-4d94-8a1e-b4d77899b9e4","system_id":"levelo_inurba_marseille","lat":43.30876,"lon":5.37185,"is_reserved":false,"is_disabled":false,"rental_uris":{"android":"levelo://app?vid=8d79857f-6234-4d94-8a1e-b4d77899b9e4","ios":"levelo://app?vid=8d79857f-6234-4d94-8a1e-b4d77899b9e4"},"vehicle_type_id":"4","last_reported":1748624964,"current_range_meters":9200,"station_id":"ce4bguh2rcd13ifvqckg","pricing_plan_id":"cebpf4jnsgd1na2vs0mg"},{"bike_id":"0095bac4-e789-4388-93cc-ddbf74ae2157","system_id":"levelo_inurba_marseille","lat":43.31061,"lon":5.38356,"is_reserved":false,"is_disabled":false,"rental_uris":{"android":"levelo://app?vid=0095bac4-e789-4388-93cc-ddbf74ae2157","ios":"levelo://app?vid=0095bac4-e789-4388-93cc-ddbf74ae2157"},"vehicle_type_id":"4","last_reported":1748624964,"current_range_meters":9200,"station_id":"ce4bgv92rcd13ifvqcr0","pricing_plan_id":"cebpf4jnsgd1na2vs0mg"},{"bike_id":"064c4a75-dc29-4f54-92ae-869181bd5253","system_id":"levelo_inurba_marseille","lat":43.2857,"lon":5.39494,"is_reserved":false,"is_disabled":false,"rental_uris":{"android":"levelo://app?vid=064c4a75-dc29-4f54-92ae-869181bd5253","ios":"levelo://app?vid=064c4a75-dc29-4f54-92ae-869181bd5253"},"vehicle_type_id":"4","last_reported":1748624964,"current_range_meters":9200,"station_id":"ce4bh292rcd13ifvqdg0","pricing_plan_id":"cebpf4jnsgd1na2vs0mg"},{"bike_id":"143a89d0-b585-4dd0-aef6-2ee26bb03371","system_id":"levelo_inurba_marseille","lat":43.26035,"lon":5.3754,"is_reserved":false,"is_disabled":false,"rental_uris":{"android":"levelo://app?vid=143a89d0-b585-4dd0-aef6-2ee26bb03371","ios":"levelo://app?vid=143a89d0-b585-4dd0-aef6-2ee26bb03371"},"vehicle_type_id":"4","last_reported":1748624964,"current_range_meters":9200,"station_id":"ce4bhgh2rcd13ifvqfa0","pricing_plan_id":"cebpf4jnsgd1na2vs0mg"},{"bike_id":"a69c5064-55ac-40fa-a02e-700ee3dac888","system_id":"levelo_inurba_marseille","lat":43.26563,"lon":5.40324,"is_reserved":false,"is_disabled":false,"rental_uris":{"android":"levelo://app?vid=a69c5064-55ac-40fa-a02e-700ee3dac888","ios":"levelo://app?vid=a69c5064-55ac-40fa-a02e-700ee3dac888"},"vehicle_type_id":"4","last_reported":1748624964,"current_range_meters":9600,"station_id":"","pricing_plan_id":"cebpf4jnsgd1na2vs0mg"},{"bike_id":"a807c8dd-75ce-4f49-b322-50ddd08ec8d0","system_id":"levelo_inurba_marseille","lat":43.3475,"lon":5.37315,"is_reserved":false,"is_disabled":false,"rental_uris":{"android":"levelo://app?vid=a807c8dd-75ce-4f49-b322-50ddd08ec8d0","ios":"levelo://app?vid=a807c8dd-75ce-4f49-b322-50ddd08ec8d0"},"vehicle_type_id":"4","last_reported":1748624964,"current_range_meters":9600,"station_id":"","pricing_plan_id":"cebpf4jnsgd1na2vs0mg"},{"bike_id":"4c3ef1ae-d3da-44ca-a2b6-0c94f47449d7","system_id":"levelo_inurba_marseille","lat":43.30948,"lon":5.390287,"is_reserved":false,"is_disabled":false,"rental_uris":{"android":"levelo://app?vid=4c3ef1ae-d3da-44ca-a2b6-0c94f47449d7","ios":"levelo://app?vid=4c3ef1ae-d3da-44ca-a2b6-0c94f47449d7"},"vehicle_type_id":"4","last_reported":1748624964,"current_range_meters":9600,"station_id":"ce4bgup2rcd13ifvqco0","pricing_plan_id":"cebpf4jnsgd1na2vs0mg"},{"bike_id":"f43a6b2f-2dc4-446b-95c6-093b7c1cdcee","system_id":"levelo_inurba_marseille","lat":43.29272,"lon":5.38448,"is_reserved":false,"is_disabled":false,"rental_uris":{"android":"levelo://app?vid=f43a6b2f-2dc4-446b-95c6-093b7c1cdcee","ios":"levelo://app?vid=f43a6b2f-2dc4-446b-95c6-093b7c1cdcee"},"vehicle_type_id":"4","last_reported":1748624964,"current_range_meters":9600,"station_id":"ce4bh692rcd13ifvqea0","pricing_plan_id":"cebpf4jnsgd1na2vs0mg"},{"bike_id":"e759bcc2-6fa9-4cf7-b01a-fdc71e492c43","system_id":"levelo_inurba_marseille","lat":43.27377,"lon":5.36257,"is_reserved":false,"is_disabled":false,"rental_uris":{"android":"levelo://app?vid=e759bcc2-6fa9-4cf7-b01a-fdc71e492c43","ios":"levelo://app?vid=e759bcc2-6fa9-4cf7-b01a-fdc71e492c43"},"vehicle_type_id":"4","last_reported":1748624964,"current_range_meters":9600,"station_id":"ce4bhbh2rcd13ifvqeo0","pricing_plan_id":"cebpf4jnsgd1na2vs0mg"},{"bike_id":"fbf62787-a3c6-4f23-83c5-9f8471a73f2d","system_id":"levelo_inurba_marseille","lat":43.26559,"lon":5.37282,"is_reserved":false,"is_disabled":false,"rental_uris":{"android":"levelo://app?vid=fbf62787-a3c6-4f23-83c5-9f8471a73f2d","ios":"levelo://app?vid=fbf62787-a3c6-4f23-83c5-9f8471a73f2d"},"vehicle_type_id":"4","last_reported":1748624964,"current_range_meters":9600,"station_id":"ce4bhg12rcd13ifvqf70","pricing_plan_id":"cebpf4jnsgd1na2vs0mg"},{"bike_id":"c24f8c1e-605c-4220-a18b-2919ba9c3f1b","system_id":"levelo_inurba_marseille","lat":43.26058,"lon":5.39391,"is_reserved":false,"is_disabled":false,"rental_uris":{"android":"levelo://app?vid=c24f8c1e-605c-4220-a18b-2919ba9c3f1b","ios":"levelo://app?vid=c24f8c1e-605c-4220-a18b-2919ba9c3f1b"},"vehicle_type_id":"4","last_reported":1748624964,"current_range_meters":9600,"station_id":"ce4bhh92rcd13ifvqfj0","pricing_plan_id":"cebpf4jnsgd1na2vs0mg"},{"bike_id":"ae490bd6-d52e-40c2-ae56-549b10a7a455","system_id":"levelo_inurba_marseille","lat":43.26059,"lon":5.39396,"is_reserved":false,"is_disabled":false,"rental_uris":{"android":"levelo://app?vid=ae490bd6-d52e-40c2-ae56-549b10a7a455","ios":"levelo://app?vid=ae490bd6-d52e-40c2-ae56-549b10a7a455"},"vehicle_type_id":"4","last_reported":1748624964,"current_range_meters":9600,"station_id":"ce4bhh92rcd13ifvqfj0","pricing_plan_id":"cebpf4jnsgd1na2vs0mg"},{"bike_id":"2f1ea8e6-62a0-4710-ac17-ae4026911cc8","system_id":"levelo_inurba_marseille","lat":43.24386,"lon":5.37067,"is_reserved":false,"is_disabled":false,"rental_uris":{"android":"levelo://app?vid=2f1ea8e6-62a0-4710-ac17-ae4026911cc8","ios":"levelo://app?vid=2f1ea8e6-62a0-4710-ac17-ae4026911cc8"},"vehicle_type_id":"4","last_reported":1748624964,"current_range_meters":9600,"station_id":"ce4bhhh2rcd13ifvqfk0","pricing_plan_id":"cebpf4jnsgd1na2vs0mg"},{"bike_id":"90d64cc8-1965-4b36-90ac-a492658bfddc","system_id":"levelo_inurba_marseille","lat":43.2717,"lon":5.40996,"is_reserved":false,"is_disabled":false,"rental_uris":{"android":"levelo://app?vid=90d64cc8-1965-4b36-90ac-a492658bfddc","ios":"levelo://app?vid=90d64cc8-1965-4b36-90ac-a492658bfddc"},"vehicle_type_id":"4","last_reported":1748624964,"current_range_meters":9600,"station_id":"ce4bhl12rcd13ifvqgf0","pricing_plan_id":"cebpf4jnsgd1na2vs0mg"},{"bike_id":"70f15466-281e-48ff-9938-bd6340cf093a","system_id":"levelo_inurba_marseille","lat":43.299239,"lon":5.374323,"is_reserved":false,"is_disabled":false,"rental_uris":{"android":"levelo://app?vid=70f15466-281e-48ff-9938-bd6340cf093a","ios":"levelo://app?vid=70f15466-281e-48ff-9938-bd6340cf093a"},"vehicle_type_id":"4","last_reported":1748624964,"current_range_meters":10000,"station_id":"ce4bgr92rcd13ifvqc7g","pricing_plan_id":"cebpf4jnsgd1na2vs0mg"},{"bike_id":"6d60f85d-bee1-472a-8890-612bf622c225","system_id":"levelo_inurba_marseille","lat":43.28431,"lon":5.37499,"is_reserved":false,"is_disabled":false,"rental_uris":{"android":"levelo://app?vid=6d60f85d-bee1-472a-8890-612bf622c225","ios":"levelo://app?vid=6d60f85d-bee1-472a-8890-612bf622c225"},"vehicle_type_id":"4","last_reported":1748624964,"current_range_meters":10000,"station_id":"ce4bh412rcd13ifvqds0","pricing_plan_id":"cebpf4jnsgd1na2vs0mg"},{"bike_id":"36bf6960-f192-4ffe-a9ab-b15a603d687e","system_id":"levelo_inurba_marseille","lat":43.28457,"lon":5.35884,"is_reserved":false,"is_disabled":false,"rental_uris":{"android":"levelo://app?vid=36bf6960-f192-4ffe-a9ab-b15a603d687e","ios":"levelo://app?vid=36bf6960-f192-4ffe-a9ab-b15a603d687e"},"vehicle_type_id":"4","last_reported":1748624964,"current_range_meters":10000,"station_id":"ce4bhah2rcd13ifvqei0","pricing_plan_id":"cebpf4jnsgd1na2vs0mg"},{"bike_id":"c066299f-85c0-4e5c-9999-5f87b1514179","system_id":"levelo_inurba_marseille","lat":43.29204,"lon":5.35785,"is_reserved":false,"is_disabled":false,"rental_uris":{"android":"levelo://app?vid=c066299f-85c0-4e5c-9999-5f87b1514179","ios":"levelo://app?vid=c066299f-85c0-4e5c-9999-5f87b1514179"},"vehicle_type_id":"4","last_reported":1748624964,"current_range_meters":10000,"station_id":"ce4bhb12rcd13ifvqel0","pricing_plan_id":"cebpf4jnsgd1na2vs0mg"},{"bike_id":"bbc8f079-ccac-4d1c-a354-aacfdcde3f1d","system_id":"levelo_inurba_marseille","lat":43.27911,"lon":5.39574,"is_reserved":false,"is_disabled":false,"rental_uris":{"android":"levelo://app?vid=bbc8f079-ccac-4d1c-a354-aacfdcde3f1d","ios":"levelo://app?vid=bbc8f079-ccac-4d1c-a354-aacfdcde3f1d"},"vehicle_type_id":"4","last_reported":1748624964,"current_range_meters":10000,"station_id":"ce4bhf92rcd13ifvqf40","pricing_plan_id":"cebpf4jnsgd1na2vs0mg"},{"bike_id":"fe0e0aab-c84d-4e36-a4c6-6bf7f57a8f05","system_id":"levelo_inurba_marseille","lat":43.265565,"lon":5.372998,"is_reserved":false,"is_disabled":false,"rental_uris":{"android":"levelo://app?vid=fe0e0aab-c84d-4e36-a4c6-6bf7f57a8f05","ios":"levelo://app?vid=fe0e0aab-c84d-4e36-a4c6-6bf7f57a8f05"},"vehicle_type_id":"4","last_reported":1748624964,"current_range_meters":10000,"station_id":"ce4bhg12rcd13ifvqf70","pricing_plan_id":"cebpf4jnsgd1na2vs0mg"},{"bike_id":"3ce1fbaf-fde3-43d8-b575-826e4a3e528b","system_id":"levelo_inurba_marseille","lat":43.26223,"lon":5.4045,"is_reserved":false,"is_disabled":false,"rental_uris":{"android":"levelo://app?vid=3ce1fbaf-fde3-43d8-b575-826e4a3e528b","ios":"levelo://app?vid=3ce1fbaf-fde3-43d8-b575-826e4a3e528b"},"vehicle_type_id":"4","last_reported":1748624964,"current_range_meters":10000,"station_id":"ce4bhmh2rcd13ifvqgmg","pricing_plan_id":"cebpf4jnsgd1na2vs0mg"},{"bike_id":"10506cb7-ecd1-4b9a-8a8d-ad241d961b8c","system_id":"levelo_inurba_marseille","lat":43.231979,"lon":5.355493,"is_reserved":false,"is_disabled":false,"rental_uris":{"android":"levelo://app?vid=10506cb7-ecd1-4b9a-8a8d-ad241d961b8c","ios":"levelo://app?vid=10506cb7-ecd1-4b9a-8a8d-ad241d961b8c"},"vehicle_type_id":"4","last_reported":1748624964,"current_range_meters":10000,"station_id":"ce4bhu92rcd13ifvqi70","pricing_plan_id":"cebpf4jnsgd1na2vs0mg"},{"bike_id":"f62b0f19-ff53-4031-8249-304838c01795","system_id":"levelo_inurba_marseille","lat":43.29264,"lon":5.38437,"is_reserved":false,"is_disabled":false,"rental_uris":{"android":"levelo://app?vid=f62b0f19-ff53-4031-8249-304838c01795","ios":"levelo://app?vid=f62b0f19-ff53-4031-8249-304838c01795"},"vehicle_type_id":"4","last_reported":1748624964,"current_range_meters":10800,"station_id":"ce4bh692rcd13ifvqea0","pricing_plan_id":"cebpf4jnsgd1na2vs0mg"},{"bike_id":"d147cded-2833-47da-af11-386bfa4c1ab2","system_id":"levelo_inurba_marseille","lat":43.28037,"lon":5.36948,"is_reserved":false,"is_disabled":false,"rental_uris":{"android":"levelo://app?vid=d147cded-2833-47da-af11-386bfa4c1ab2","ios":"levelo://app?vid=d147cded-2833-47da-af11-386bfa4c1ab2"},"vehicle_type_id":"4","last_reported":1748624964,"current_range_meters":10800,"station_id":"ce4bha12rcd13ifvqef0","pricing_plan_id":"cebpf4jnsgd1na2vs0mg"},{"bike_id":"81d2277f-be09-407f-964d-04cec026abb7","system_id":"levelo_inurba_marseille","lat":43.26026,"lon":5.37548,"is_reserved":false,"is_disabled":false,"rental_uris":{"android":"levelo://app?vid=81d2277f-be09-407f-964d-04cec026abb7","ios":"levelo://app?vid=81d2277f-be09-407f-964d-04cec026abb7"},"vehicle_type_id":"4","last_reported":1748624964,"current_range_meters":10800,"station_id":"ce4bhgh2rcd13ifvqfa0","pricing_plan_id":"cebpf4jnsgd1na2vs0mg"},{"bike_id":"f533c3d1-a375-4622-8dbc-c23025a32f32","system_id":"levelo_inurba_marseille","lat":43.26486,"lon":5.39538,"is_reserved":false,"is_disabled":false,"rental_uris":{"android":"levelo://app?vid=f533c3d1-a375-4622-8dbc-c23025a32f32","ios":"levelo://app?vid=f533c3d1-a375-4622-8dbc-c23025a32f32"},"vehicle_type_id":"4","last_reported":1748624964,"current_range_meters":10800,"station_id":"ce4bhi12rcd13ifvqfq0","pricing_plan_id":"cebpf4jnsgd1na2vs0mg"},{"bike_id":"8588c8cd-2f4b-429a-923c-fc0a25cd8d5a","system_id":"levelo_inurba_marseille","lat":43.28154,"lon":5.42642,"is_reserved":false,"is_disabled":false,"rental_uris":{"android":"levelo://app?vid=8588c8cd-2f4b-429a-923c-fc0a25cd8d5a","ios":"levelo://app?vid=8588c8cd-2f4b-429a-923c-fc0a25cd8d5a"},"vehicle_type_id":"4","last_reported":1748624964,"current_range_meters":10800,"station_id":"ce4bhnh2rcd13ifvqgug","pricing_plan_id":"cebpf4jnsgd1na2vs0mg"},{"bike_id":"e29482c7-5a0e-4a29-aa3b-ee0d775eff1a","system_id":"levelo_inurba_marseille","lat":43.28606,"lon":5.37053,"is_reserved":false,"is_disabled":false,"rental_uris":{"android":"levelo://app?vid=e29482c7-5a0e-4a29-aa3b-ee0d775eff1a","ios":"levelo://app?vid=e29482c7-5a0e-4a29-aa3b-ee0d775eff1a"},"vehicle_type_id":"4","last_reported":1748624964,"current_range_meters":10800,"station_id":"ce4bht12rcd13ifvqi60","pricing_plan_id":"cebpf4jnsgd1na2vs0mg"},{"bike_id":"7243d7c8-02f5-4392-89cf-8c360e846d55","system_id":"levelo_inurba_marseille","lat":43.2528,"lon":5.37828,"is_reserved":false,"is_disabled":false,"rental_uris":{"android":"levelo://app?vid=7243d7c8-02f5-4392-89cf-8c360e846d55","ios":"levelo://app?vid=7243d7c8-02f5-4392-89cf-8c360e846d55"},"vehicle_type_id":"4","last_reported":1748624964,"current_range_meters":11200,"station_id":"","pricing_plan_id":"cebpf4jnsgd1na2vs0mg"},{"bike_id":"9e10c44b-0fb0-4e49-b1c0-3e9687f90c89","system_id":"levelo_inurba_marseille","lat":43.291931,"lon":5.357963,"is_reserved":false,"is_disabled":false,"rental_uris":{"android":"levelo://app?vid=9e10c44b-0fb0-4e49-b1c0-3e9687f90c89","ios":"levelo://app?vid=9e10c44b-0fb0-4e49-b1c0-3e9687f90c89"},"vehicle_type_id":"4","last_reported":1748624964,"current_range_meters":11200,"station_id":"ce4bhb12rcd13ifvqel0","pricing_plan_id":"cebpf4jnsgd1na2vs0mg"},{"bike_id":"d2fad95d-2ac3-49d0-9810-4046d3f01984","system_id":"levelo_inurba_marseille","lat":43.29273,"lon":5.36846,"is_reserved":false,"is_disabled":false,"rental_uris":{"android":"levelo://app?vid=d2fad95d-2ac3-49d0-9810-4046d3f01984","ios":"levelo://app?vid=d2fad95d-2ac3-49d0-9810-4046d3f01984"},"vehicle_type_id":"4","last_reported":1748624964,"current_range_meters":11200,"station_id":"ce4bhbp2rcd13ifvqesg","pricing_plan_id":"cebpf4jnsgd1na2vs0mg"},{"bike_id":"4de53686-049c-400e-b895-447b16526585","system_id":"levelo_inurba_marseille","lat":43.26961,"lon":5.3862,"is_reserved":false,"is_disabled":false,"rental_uris":{"android":"levelo://app?vid=4de53686-049c-400e-b895-447b16526585","ios":"levelo://app?vid=4de53686-049c-400e-b895-447b16526585"},"vehicle_type_id":"4","last_reported":1748624964,"current_range_meters":11200,"station_id":"ce4bhh92rcd13ifvqfh0","pricing_plan_id":"cebpf4jnsgd1na2vs0mg"},{"bike_id":"a9a2a326-ad17-41ff-9dfe-649b2d8fa0fe","system_id":"levelo_inurba_marseille","lat":43.278077,"lon":5.407137,"is_reserved":false,"is_disabled":false,"rental_uris":{"android":"levelo://app?vid=a9a2a326-ad17-41ff-9dfe-649b2d8fa0fe","ios":"levelo://app?vid=a9a2a326-ad17-41ff-9dfe-649b2d8fa0fe"},"vehicle_type_id":"4","last_reported":1748624964,"current_range_meters":11200,"station_id":"ce4bhnh2rcd13ifvqgtg","pricing_plan_id":"cebpf4jnsgd1na2vs0mg"},{"bike_id":"7330b40d-aef1-42a3-9294-a8c9048131a4","system_id":"levelo_inurba_marseille","lat":43.240703,"lon":5.377517,"is_reserved":false,"is_disabled":false,"rental_uris":{"android":"levelo://app?vid=7330b40d-aef1-42a3-9294-a8c9048131a4","ios":"levelo://app?vid=7330b40d-aef1-42a3-9294-a8c9048131a4"},"vehicle_type_id":"4","last_reported":1748624964,"current_range_meters":11200,"station_id":"ce4bhnp2rcd13ifvqgvg","pricing_plan_id":"cebpf4jnsgd1na2vs0mg"},{"bike_id":"6d0b5a4f-cc7b-4946-b03c-1fdeaf133ce4","system_id":"levelo_inurba_marseille","lat":43.22493,"lon":5.3479,"is_reserved":false,"is_disabled":false,"rental_uris":{"android":"levelo://app?vid=6d0b5a4f-cc7b-4946-b03c-1fdeaf133ce4","ios":"levelo://app?vid=6d0b5a4f-cc7b-4946-b03c-1fdeaf133ce4"},"vehicle_type_id":"4","last_reported":1748624964,"current_range_meters":11200,"station_id":"st_cvj5dfep6f1abm77gieg","pricing_plan_id":"cebpf4jnsgd1na2vs0mg"},{"bike_id":"d8428ccd-b1c2-41ee-acb8-d19f0abba504","system_id":"levelo_inurba_marseille","lat":43.306377,"lon":5.385137,"is_reserved":false,"is_disabled":false,"rental_uris":{"android":"levelo://app?vid=d8428ccd-b1c2-41ee-acb8-d19f0abba504","ios":"levelo://app?vid=d8428ccd-b1c2-41ee-acb8-d19f0abba504"},"vehicle_type_id":"4","last_reported":1748624964,"current_range_meters":11600,"station_id":"ce4bgv12rcd13ifvqcp0","pricing_plan_id":"cebpf4jnsgd1na2vs0mg"},{"bike_id":"7c8659f2-1789-4f05-a117-befdc25f5de5","system_id":"levelo_inurba_marseille","lat":43.28855,"lon":5.35843,"is_reserved":false,"is_disabled":false,"rental_uris":{"android":"levelo://app?vid=7c8659f2-1789-4f05-a117-befdc25f5de5","ios":"levelo://app?vid=7c8659f2-1789-4f05-a117-befdc25f5de5"},"vehicle_type_id":"4","last_reported":1748624964,"current_range_meters":11600,"station_id":"ce4bhb12rcd13ifvqem0","pricing_plan_id":"cebpf4jnsgd1na2vs0mg"},{"bike_id":"9dd5e9ef-a940-4593-bedc-e170cc198481","system_id":"levelo_inurba_marseille","lat":43.274283,"lon":5.394022,"is_reserved":false,"is_disabled":false,"rental_uris":{"android":"levelo://app?vid=9dd5e9ef-a940-4593-bedc-e170cc198481","ios":"levelo://app?vid=9dd5e9ef-a940-4593-bedc-e170cc198481"},"vehicle_type_id":"4","last_reported":1748624964,"current_range_meters":11600,"station_id":"ce4bhdp2rcd13ifvqf20","pricing_plan_id":"cebpf4jnsgd1na2vs0mg"},{"bike_id":"c5955212-23b9-47a9-8fed-0e2d976ea049","system_id":"levelo_inurba_marseille","lat":43.26558,"lon":5.37278,"is_reserved":false,"is_disabled":false,"rental_uris":{"android":"levelo://app?vid=c5955212-23b9-47a9-8fed-0e2d976ea049","ios":"levelo://app?vid=c5955212-23b9-47a9-8fed-0e2d976ea049"},"vehicle_type_id":"4","last_reported":1748624964,"current_range_meters":11600,"station_id":"ce4bhg12rcd13ifvqf70","pricing_plan_id":"cebpf4jnsgd1na2vs0mg"},{"bike_id":"86ad2eff-4452-4470-bd63-74f2c929881d","system_id":"levelo_inurba_marseille","lat":43.30149,"lon":5.38071,"is_reserved":false,"is_disabled":false,"rental_uris":{"android":"levelo://app?vid=86ad2eff-4452-4470-bd63-74f2c929881d","ios":"levelo://app?vid=86ad2eff-4452-4470-bd63-74f2c929881d"},"vehicle_type_id":"4","last_reported":1748624964,"current_range_meters":12000,"station_id":"ce4bgjp2rcd13ifvqbh0","pricing_plan_id":"cebpf4jnsgd1na2vs0mg"},{"bike_id":"13cc5359-5640-427f-a5a7-7bc18900a862","system_id":"levelo_inurba_marseille","lat":43.29977,"lon":5.37175,"is_reserved":false,"is_disabled":false,"rental_uris":{"android":"levelo://app?vid=13cc5359-5640-427f-a5a7-7bc18900a862","ios":"levelo://app?vid=13cc5359-5640-427f-a5a7-7bc18900a862"},"vehicle_type_id":"4","last_reported":1748624964,"current_range_meters":12000,"station_id":"ce4bgr92rcd13ifvqc7g","pricing_plan_id":"cebpf4jnsgd1na2vs0mg"},{"bike_id":"976c6d8e-ee75-47af-8c99-4d34e5423ddb","system_id":"levelo_inurba_marseille","lat":43.29082,"lon":5.37179,"is_reserved":false,"is_disabled":false,"rental_uris":{"android":"levelo://app?vid=976c6d8e-ee75-47af-8c99-4d34e5423ddb","ios":"levelo://app?vid=976c6d8e-ee75-47af-8c99-4d34e5423ddb"},"vehicle_type_id":"4","last_reported":1748624964,"current_range_meters":12000,"station_id":"ce4bh5p2rcd13ifvqe4g","pricing_plan_id":"cebpf4jnsgd1na2vs0mg"},{"bike_id":"6cab2d10-7f2c-4dac-ba3d-4f103803cc6a","system_id":"levelo_inurba_marseille","lat":43.2892,"lon":5.38398,"is_reserved":false,"is_disabled":false,"rental_uris":{"android":"levelo://app?vid=6cab2d10-7f2c-4dac-ba3d-4f103803cc6a","ios":"levelo://app?vid=6cab2d10-7f2c-4dac-ba3d-4f103803cc6a"},"vehicle_type_id":"4","last_reported":1748624964,"current_range_meters":12000,"station_id":"ce4bh612rcd13ifvqe6g","pricing_plan_id":"cebpf4jnsgd1na2vs0mg"},{"bike_id":"224bd8e6-5aa6-43c3-9b35-d938c57a99b5","system_id":"levelo_inurba_marseille","lat":43.26557,"lon":5.3728,"is_reserved":false,"is_disabled":false,"rental_uris":{"android":"levelo://app?vid=224bd8e6-5aa6-43c3-9b35-d938c57a99b5","ios":"levelo://app?vid=224bd8e6-5aa6-43c3-9b35-d938c57a99b5"},"vehicle_type_id":"4","last_reported":1748624964,"current_range_meters":12000,"station_id":"ce4bhg12rcd13ifvqf70","pricing_plan_id":"cebpf4jnsgd1na2vs0mg"},{"bike_id":"950a66c6-0112-4714-a007-202e42172c1f","system_id":"levelo_inurba_marseille","lat":43.24802,"lon":5.37457,"is_reserved":false,"is_disabled":false,"rental_uris":{"android":"levelo://app?vid=950a66c6-0112-4714-a007-202e42172c1f","ios":"levelo://app?vid=950a66c6-0112-4714-a007-202e42172c1f"},"vehicle_type_id":"4","last_reported":1748624964,"current_range_meters":12000,"station_id":"ce4bhgh2rcd13ifvqfb0","pricing_plan_id":"cebpf4jnsgd1na2vs0mg"},{"bike_id":"1ad48f6c-692d-407b-a383-d73fa3af89e5","system_id":"levelo_inurba_marseille","lat":43.29552,"lon":5.42282,"is_reserved":false,"is_disabled":false,"rental_uris":{"android":"levelo://app?vid=1ad48f6c-692d-407b-a383-d73fa3af89e5","ios":"levelo://app?vid=1ad48f6c-692d-407b-a383-d73fa3af89e5"},"vehicle_type_id":"4","last_reported":1748624964,"current_range_meters":12000,"station_id":"ce4bhph2rcd13ifvqhdg","pricing_plan_id":"cebpf4jnsgd1na2vs0mg"},{"bike_id":"9ee87dbe-3990-4764-9a6b-2020fac42886","system_id":"levelo_inurba_marseille","lat":43.321027,"lon":5.367903,"is_reserved":false,"is_disabled":false,"rental_uris":{"android":"levelo://app?vid=9ee87dbe-3990-4764-9a6b-2020fac42886","ios":"levelo://app?vid=9ee87dbe-3990-4764-9a6b-2020fac42886"},"vehicle_type_id":"4","last_reported":1748624964,"current_range_meters":12000,"station_id":"ce4bhrh2rcd13ifvqhug","pricing_plan_id":"cebpf4jnsgd1na2vs0mg"},{"bike_id":"20e06bf4-7524-484a-95f8-6d79a24d0136","system_id":"levelo_inurba_marseille","lat":43.26564,"lon":5.40317,"is_reserved":false,"is_disabled":false,"rental_uris":{"android":"levelo://app?vid=20e06bf4-7524-484a-95f8-6d79a24d0136","ios":"levelo://app?vid=20e06bf4-7524-484a-95f8-6d79a24d0136"},"vehicle_type_id":"4","last_reported":1748624964,"current_range_meters":12400,"station_id":"","pricing_plan_id":"cebpf4jnsgd1na2vs0mg"},{"bike_id":"7a1d85c9-0d33-4cc6-9488-de0df39bb2d5","system_id":"levelo_inurba_marseille","lat":43.30648,"lon":5.40098,"is_reserved":false,"is_disabled":false,"rental_uris":{"android":"levelo://app?vid=7a1d85c9-0d33-4cc6-9488-de0df39bb2d5","ios":"levelo://app?vid=7a1d85c9-0d33-4cc6-9488-de0df39bb2d5"},"vehicle_type_id":"4","last_reported":1748624964,"current_range_meters":12400,"station_id":"ce4bh112rcd13ifvqda0","pricing_plan_id":"cebpf4jnsgd1na2vs0mg"},{"bike_id":"fc6c7916-eed9-4a1e-bc1e-2dffa696af84","system_id":"levelo_inurba_marseille","lat":43.30654,"lon":5.40084,"is_reserved":false,"is_disabled":false,"rental_uris":{"android":"levelo://app?vid=fc6c7916-eed9-4a1e-bc1e-2dffa696af84","ios":"levelo://app?vid=fc6c7916-eed9-4a1e-bc1e-2dffa696af84"},"vehicle_type_id":"4","last_reported":1748624964,"current_range_meters":12400,"station_id":"ce4bh112rcd13ifvqda0","pricing_plan_id":"cebpf4jnsgd1na2vs0mg"},{"bike_id":"cb49d2ae-dc0a-4936-a75a-136f5eb0ff3d","system_id":"levelo_inurba_marseille","lat":43.28668,"lon":5.38661,"is_reserved":false,"is_disabled":false,"rental_uris":{"android":"levelo://app?vid=cb49d2ae-dc0a-4936-a75a-136f5eb0ff3d","ios":"levelo://app?vid=cb49d2ae-dc0a-4936-a75a-136f5eb0ff3d"},"vehicle_type_id":"4","last_reported":1748624964,"current_range_meters":12400,"station_id":"ce4bh492rcd13ifvqdug","pricing_plan_id":"cebpf4jnsgd1na2vs0mg"},{"bike_id":"b6232c3a-95c6-4644-9c42-43ab3eb2c4dd","system_id":"levelo_inurba_marseille","lat":43.29266,"lon":5.38431,"is_reserved":false,"is_disabled":false,"rental_uris":{"android":"levelo://app?vid=b6232c3a-95c6-4644-9c42-43ab3eb2c4dd","ios":"levelo://app?vid=b6232c3a-95c6-4644-9c42-43ab3eb2c4dd"},"vehicle_type_id":"4","last_reported":1748624964,"current_range_meters":12400,"station_id":"ce4bh692rcd13ifvqea0","pricing_plan_id":"cebpf4jnsgd1na2vs0mg"},{"bike_id":"bac667cf-137e-4ea7-b037-7ebd6a2ad77c","system_id":"levelo_inurba_marseille","lat":43.28242,"lon":5.35083,"is_reserved":false,"is_disabled":false,"rental_uris":{"android":"levelo://app?vid=bac667cf-137e-4ea7-b037-7ebd6a2ad77c","ios":"levelo://app?vid=bac667cf-137e-4ea7-b037-7ebd6a2ad77c"},"vehicle_type_id":"4","last_reported":1748624964,"current_range_meters":12400,"station_id":"ce4bhbp2rcd13ifvqerg","pricing_plan_id":"cebpf4jnsgd1na2vs0mg"},{"bike_id":"607ff01e-c7ba-434a-b556-d39c725fe8ee","system_id":"levelo_inurba_marseille","lat":43.26698,"lon":5.38255,"is_reserved":false,"is_disabled":false,"rental_uris":{"android":"levelo://app?vid=607ff01e-c7ba-434a-b556-d39c725fe8ee","ios":"levelo://app?vid=607ff01e-c7ba-434a-b556-d39c725fe8ee"},"vehicle_type_id":"4","last_reported":1748624964,"current_range_meters":12400,"station_id":"ce4bhg92rcd13ifvqf90","pricing_plan_id":"cebpf4jnsgd1na2vs0mg"},{"bike_id":"93285144-95f4-4b1b-861d-a70f94a449a5","system_id":"levelo_inurba_marseille","lat":43.26028,"lon":5.37545,"is_reserved":false,"is_disabled":false,"rental_uris":{"android":"levelo://app?vid=93285144-95f4-4b1b-861d-a70f94a449a5","ios":"levelo://app?vid=93285144-95f4-4b1b-861d-a70f94a449a5"},"vehicle_type_id":"4","last_reported":1748624964,"current_range_meters":12400,"station_id":"ce4bhgh2rcd13ifvqfa0","pricing_plan_id":"cebpf4jnsgd1na2vs0mg"},{"bike_id":"049bea5a-b292-4d36-bc62-eb2987d37436","system_id":"levelo_inurba_marseille","lat":43.261866,"lon":5.374539,"is_reserved":false,"is_disabled":false,"rental_uris":{"android":"levelo://app?vid=049bea5a-b292-4d36-bc62-eb2987d37436","ios":"levelo://app?vid=049bea5a-b292-4d36-bc62-eb2987d37436"},"vehicle_type_id":"4","last_reported":1748624964,"current_range_meters":12400,"station_id":"ce4bhgp2rcd13ifvqfc0","pricing_plan_id":"cebpf4jnsgd1na2vs0mg"},{"bike_id":"da53ff99-5159-4e16-9409-bdc33c8dc8f2","system_id":"levelo_inurba_marseille","lat":43.23189,"lon":5.39983,"is_reserved":false,"is_disabled":false,"rental_uris":{"android":"levelo://app?vid=da53ff99-5159-4e16-9409-bdc33c8dc8f2","ios":"levelo://app?vid=da53ff99-5159-4e16-9409-bdc33c8dc8f2"},"vehicle_type_id":"4","last_reported":1748624964,"current_range_meters":12400,"station_id":"ce4bhn12rcd13ifvqgqg","pricing_plan_id":"cebpf4jnsgd1na2vs0mg"},{"bike_id":"8d0b7f84-93ec-40e9-83c5-feea7d2b6577","system_id":"levelo_inurba_marseille","lat":43.27803,"lon":5.40724,"is_reserved":false,"is_disabled":false,"rental_uris":{"android":"levelo://app?vid=8d0b7f84-93ec-40e9-83c5-feea7d2b6577","ios":"levelo://app?vid=8d0b7f84-93ec-40e9-83c5-feea7d2b6577"},"vehicle_type_id":"4","last_reported":1748624964,"current_range_meters":12400,"station_id":"ce4bhnh2rcd13ifvqgtg","pricing_plan_id":"cebpf4jnsgd1na2vs0mg"},{"bike_id":"90809526-e7af-4b6a-8a10-fb2c2b757f1b","system_id":"levelo_inurba_marseille","lat":43.29957,"lon":5.41317,"is_reserved":false,"is_disabled":false,"rental_uris":{"android":"levelo://app?vid=90809526-e7af-4b6a-8a10-fb2c2b757f1b","ios":"levelo://app?vid=90809526-e7af-4b6a-8a10-fb2c2b757f1b"},"vehicle_type_id":"4","last_reported":1748624964,"current_range_meters":12400,"station_id":"ce4bhp12rcd13ifvqh9g","pricing_plan_id":"cebpf4jnsgd1na2vs0mg"},{"bike_id":"db17351c-5dd6-4cbe-9ecc-27307fb796d4","system_id":"levelo_inurba_marseille","lat":43.26941,"lon":5.40249,"is_reserved":false,"is_disabled":false,"rental_uris":{"android":"levelo://app?vid=db17351c-5dd6-4cbe-9ecc-27307fb796d4","ios":"levelo://app?vid=db17351c-5dd6-4cbe-9ecc-27307fb796d4"},"vehicle_type_id":"4","last_reported":1748624964,"current_range_meters":12400,"station_id":"cjm6bp8fraef2m0cb0m0","pricing_plan_id":"cebpf4jnsgd1na2vs0mg"},{"bike_id":"1982defd-166d-4255-89b9-40e6a677a3ca","system_id":"levelo_inurba_marseille","lat":43.26556,"lon":5.40317,"is_reserved":false,"is_disabled":false,"rental_uris":{"android":"levelo://app?vid=1982defd-166d-4255-89b9-40e6a677a3ca","ios":"levelo://app?vid=1982defd-166d-4255-89b9-40e6a677a3ca"},"vehicle_type_id":"4","last_reported":1748624964,"current_range_meters":12800,"station_id":"","pricing_plan_id":"cebpf4jnsgd1na2vs0mg"},{"bike_id":"990df701-79a7-41ec-b963-3693dc590a87","system_id":"levelo_inurba_marseille","lat":43.301828,"lon":5.379275,"is_reserved":false,"is_disabled":false,"rental_uris":{"android":"levelo://app?vid=990df701-79a7-41ec-b963-3693dc590a87","ios":"levelo://app?vid=990df701-79a7-41ec-b963-3693dc590a87"},"vehicle_type_id":"4","last_reported":1748624964,"current_range_meters":12800,"station_id":"","pricing_plan_id":"cebpf4jnsgd1na2vs0mg"},{"bike_id":"b7aa92ee-4f27-43f9-aaf4-a488b9e5376f","system_id":"levelo_inurba_marseille","lat":43.292216,"lon":5.400979,"is_reserved":false,"is_disabled":false,"rental_uris":{"android":"levelo://app?vid=b7aa92ee-4f27-43f9-aaf4-a488b9e5376f","ios":"levelo://app?vid=b7aa92ee-4f27-43f9-aaf4-a488b9e5376f"},"vehicle_type_id":"4","last_reported":1748624964,"current_range_meters":12800,"station_id":"ce4bh312rcd13ifvqdk0","pricing_plan_id":"cebpf4jnsgd1na2vs0mg"},{"bike_id":"fc1b7bf0-f442-4645-900b-306033de1ed8","system_id":"levelo_inurba_marseille","lat":43.33025,"lon":5.39038,"is_reserved":false,"is_disabled":false,"rental_uris":{"android":"levelo://app?vid=fc1b7bf0-f442-4645-900b-306033de1ed8","ios":"levelo://app?vid=fc1b7bf0-f442-4645-900b-306033de1ed8"},"vehicle_type_id":"4","last_reported":1748624964,"current_range_meters":12800,"station_id":"ce4bhr92rcd13ifvqhrg","pricing_plan_id":"cebpf4jnsgd1na2vs0mg"},{"bike_id":"03976688-07dd-4c46-b124-e49004387be0","system_id":"levelo_inurba_marseille","lat":43.28729,"lon":5.36077,"is_reserved":false,"is_disabled":false,"rental_uris":{"android":"levelo://app?vid=03976688-07dd-4c46-b124-e49004387be0","ios":"levelo://app?vid=03976688-07dd-4c46-b124-e49004387be0"},"vehicle_type_id":"4","last_reported":1748624964,"current_range_meters":12800,"station_id":"cki0cbj6b192h4jlfktg","pricing_plan_id":"cebpf4jnsgd1na2vs0mg"},{"bike_id":"99659fe4-df05-4333-ac2b-276971b19282","system_id":"levelo_inurba_marseille","lat":43.22927,"lon":5.35369,"is_reserved":false,"is_disabled":false,"rental_uris":{"android":"levelo://app?vid=99659fe4-df05-4333-ac2b-276971b19282","ios":"levelo://app?vid=99659fe4-df05-4333-ac2b-276971b19282"},"vehicle_type_id":"4","last_reported":1748624964,"current_range_meters":12800,"station_id":"cpo3532slgdg3j2ikp40","pricing_plan_id":"cebpf4jnsgd1na2vs0mg"},{"bike_id":"dd34afa2-f665-4263-85a8-7de7dbd3a196","system_id":"levelo_inurba_marseille","lat":43.27614,"lon":5.39697,"is_reserved":false,"is_disabled":false,"rental_uris":{"android":"levelo://app?vid=dd34afa2-f665-4263-85a8-7de7dbd3a196","ios":"levelo://app?vid=dd34afa2-f665-4263-85a8-7de7dbd3a196"},"vehicle_type_id":"4","last_reported":1748624964,"current_range_meters":13600,"station_id":"","pricing_plan_id":"cebpf4jnsgd1na2vs0mg"},{"bike_id":"b8cb4e06-888a-443d-aeae-e8e2169b0a69","system_id":"levelo_inurba_marseille","lat":43.29376,"lon":5.37864,"is_reserved":false,"is_disabled":false,"rental_uris":{"android":"levelo://app?vid=b8cb4e06-888a-443d-aeae-e8e2169b0a69","ios":"levelo://app?vid=b8cb4e06-888a-443d-aeae-e8e2169b0a69"},"vehicle_type_id":"4","last_reported":1748624964,"current_range_meters":13600,"station_id":"ce4bgjh2rcd13ifvqbf0","pricing_plan_id":"cebpf4jnsgd1na2vs0mg"},{"bike_id":"bee60485-8fa3-4040-b156-d2eae41a67d9","system_id":"levelo_inurba_marseille","lat":43.30425,"lon":5.38893,"is_reserved":false,"is_disabled":false,"rental_uris":{"android":"levelo://app?vid=bee60485-8fa3-4040-b156-d2eae41a67d9","ios":"levelo://app?vid=bee60485-8fa3-4040-b156-d2eae41a67d9"},"vehicle_type_id":"4","last_reported":1748624964,"current_range_meters":13600,"station_id":"ce4bgk12rcd13ifvqbi0","pricing_plan_id":"cebpf4jnsgd1na2vs0mg"},{"bike_id":"eeabf505-4c22-4f66-bd30-0d4a1d940de3","system_id":"levelo_inurba_marseille","lat":43.29624,"lon":5.37125,"is_reserved":false,"is_disabled":false,"rental_uris":{"android":"levelo://app?vid=eeabf505-4c22-4f66-bd30-0d4a1d940de3","ios":"levelo://app?vid=eeabf505-4c22-4f66-bd30-0d4a1d940de3"},"vehicle_type_id":"4","last_reported":1748624964,"current_range_meters":13600,"station_id":"ce4bgnh2rcd13ifvqc0g","pricing_plan_id":"cebpf4jnsgd1na2vs0mg"},{"bike_id":"9843e855-f69e-4256-bb93-dd01f4ceee79","system_id":"levelo_inurba_marseille","lat":43.31326,"lon":5.39685,"is_reserved":false,"is_disabled":false,"rental_uris":{"android":"levelo://app?vid=9843e855-f69e-4256-bb93-dd01f4ceee79","ios":"levelo://app?vid=9843e855-f69e-4256-bb93-dd01f4ceee79"},"vehicle_type_id":"4","last_reported":1748624964,"current_range_meters":13600,"station_id":"ce4bgvp2rcd13ifvqcu0","pricing_plan_id":"cebpf4jnsgd1na2vs0mg"},{"bike_id":"b18036e4-cdbb-441f-a4f1-99c9cdbece34","system_id":"levelo_inurba_marseille","lat":43.29513,"lon":5.390713,"is_reserved":false,"is_disabled":false,"rental_uris":{"android":"levelo://app?vid=b18036e4-cdbb-441f-a4f1-99c9cdbece34","ios":"levelo://app?vid=b18036e4-cdbb-441f-a4f1-99c9cdbece34"},"vehicle_type_id":"4","last_reported":1748624964,"current_range_meters":13600,"station_id":"ce4bh3p2rcd13ifvqdp0","pricing_plan_id":"cebpf4jnsgd1na2vs0mg"},{"bike_id":"bb0a42a0-7027-49ab-93c4-b1dfc700d3d3","system_id":"levelo_inurba_marseille","lat":43.29178,"lon":5.3714,"is_reserved":false,"is_disabled":false,"rental_uris":{"android":"levelo://app?vid=bb0a42a0-7027-49ab-93c4-b1dfc700d3d3","ios":"levelo://app?vid=bb0a42a0-7027-49ab-93c4-b1dfc700d3d3"},"vehicle_type_id":"4","last_reported":1748624964,"current_range_meters":13600,"station_id":"ce4bha92rcd13ifvqeh0","pricing_plan_id":"cebpf4jnsgd1na2vs0mg"},{"bike_id":"816f366b-54d6-4520-91d1-75c5ba8cd04d","system_id":"levelo_inurba_marseille","lat":43.26027,"lon":5.37548,"is_reserved":false,"is_disabled":false,"rental_uris":{"android":"levelo://app?vid=816f366b-54d6-4520-91d1-75c5ba8cd04d","ios":"levelo://app?vid=816f366b-54d6-4520-91d1-75c5ba8cd04d"},