{"last_updated":1720112874,"ttl":30,"version":"2.2","data":{"bikes":[{"bike_id":"0f9ea6c0-2cba-4e3b-8d8b-7ca20c569721","system_id":"levelo_inurba_marseille","lat":43.313391,"lon":5.36706,"is_reserved":false,"is_disabled":false,"rental_uris":{"android":"levelo://app?vid=0f9ea6c0-2cba-4e3b-8d8b-7ca20c569721","ios":"levelo://app?vid=0f9ea6c0-2cba-4e3b-8d8b-7ca20c569721"},"vehicle_type_id":"4","last_reported":1720112874,"current_range_meters":2400,"station_id":"ce4bgr92rcd13ifvqc6g","pricing_plan_id":"cebpf4jnsgd1na2vs0mg"},{"bike_id":"be105cb8-6fc5-49b5-a319-66b3314e00e3","system_id":"levelo_inurba_marseille","lat":43.31341,"lon":5.367098,"is_reserved":false,"is_disabled":false,"rental_uris":{"android":"levelo://app?vid=be105cb8-6fc5-49b5-a319-66b3314e00e3","ios":"levelo://app?vid=be105cb8-6fc5-49b5-a319-66b3314e00e3"},"vehicle_type_id":"4","last_reported":1720112874,"current_range_meters":4000,"station_id":"ce4bgr92rcd13ifvqc6g","pricing_plan_id":"cebpf4jnsgd1na2vs0mg"},{"bike_id":"f0ac3e9f-5390-4aa5-8d7f-109963e5329d","system_id":"levelo_inurba_marseille","lat":43.312239,"lon":5.368562,"is_reserved":false,"is_disabled":false,"rental_uris":{"android":"levelo://app?vid=f0ac3e9f-5390-4aa5-8d7f-109963e5329d","ios":"levelo://app?vid=f0ac3e9f-5390-4aa5-8d7f-109963e5329d"},"vehicle_type_id":"4","last_reported":1720112874,"current_range_meters":400,"station_id":"ce4bgl92rcd13ifvqbq0","pricing_plan_id":"cebpf4jnsgd1na2vs0mg"},{"bike_id":"9126d824-866f-4158-b64f-dd015100b953","system_id":"levelo_inurba_marseille","lat":43.312239,"lon":5.368562,"is_reserved":false,"is_disabled":false,"rental_uris":{"android":"levelo://app?vid=9126d824-866f-4158-b64f-dd015100b953","ios":"levelo://app?vid=9126d824-866f-4158-b64f-dd015100b953"},"vehicle_type_id":"4","last_reported":1720112874,"current_range_meters":24000,"station_id":"ce4bgl92rcd13ifvqbq0","pricing_plan_id":"cebpf4jnsgd1na2vs0mg"},{"bike_id":"e275ffa1-78b7-4c54-8ed5-e9db163bf42e","system_id":"levelo_inurba_marseille","lat":43.309076,"lon":5.368465,"is_reserved":false,"is_disabled":false,"rental_uris":{"android":"levelo://app?vid=e275ffa1-78b7-4c54-8ed5-e9db163bf42e","ios":"levelo://app?vid=e275ffa1-78b7-4c54-8ed5-e9db163bf42e"},"vehicle_type_id":"4","last_reported":1720112874,"current_range_meters":8000,"station_id":"ce4bgn92rcd13ifvqbvg","pricing_plan_id":"cebpf4jnsgd1na2vs0mg"},{"bike_id":"ca45d5b0-6706-4b92-a536-257b1f39817f","system_id":"levelo_inurba_marseille","lat":43.309076,"lon":5.368465,"is_reserved":false,"is_disabled":false,"rental_uris":{"android":"levelo://app?vid=ca45d5b0-6706-4b92-a536-257b1f39817f","ios":"levelo://app?vid=ca45d5b0-6706-4b92-a536-257b1f39817f"},"vehicle_type_id":"4","last_reported":1720112874,"current_range_meters":4800,"station_id":"ce4bgn92rcd13ifvqbvg","pricing_plan_id":"cebpf4jnsgd1na2vs0mg"},{"bike_id":"6d9c42d9-cabc-48b9-844e-7cde31d66b1e","system_id":"levelo_inurba_marseille","lat":43.30897,"lon":5.37197,"is_reserved":false,"is_disabled":false,"rental_uris":{"android":"levelo://app?vid=6d9c42d9-cabc-48b9-844e-7cde31d66b1e","ios":"levelo://app?vid=6d9c42d9-cabc-48b9-844e-7cde31d66b1e"},"vehicle_type_id":"4","last_reported":1720112874,"current_range_meters":0,"station_id":"ce4bguh2rcd13ifvqckg","pricing_plan_id":"cebpf4jnsgd1na2vs0mg"},{"bike_id":"8897fabd-6bb0-4b16-b53b-2c4c26db53e8","system_id":"levelo_inurba_marseille","lat":43.30537,"lon":5.367345,"is_reserved":false,"is_disabled":false,"rental_uris":{"android":"levelo://app?vid=8897fabd-6bb0-4b16-b53b-2c4c26db53e8","ios":"levelo://app?vid=8897fabd-6bb0-4b16-b53b-2c4c26db53e8"},"vehicle_type_id":"4","last_reported":1720112874,"current_range_meters":2800,"station_id":"ce4bgrp2rcd13ifvqc9g","pricing_plan_id":"cebpf4jnsgd1na2vs0mg"},{"bike_id":"680354a0-47dd-4515-9af6-2f5bab6d1594","system_id":"levelo_inurba_marseille","lat":43.30546,"lon":5.36656,"is_reserved":false,"is_disabled":false,"rental_uris":{"android":"levelo://app?vid=680354a0-47dd-4515-9af6-2f5bab6d1594","ios":"levelo://app?vid=680354a0-47dd-4515-9af6-2f5bab6d1594"},"vehicle_type_id":"4","last_reported":1720112874,"current_range_meters":2000,"station_id":"","pricing_plan_id":"cebpf4jnsgd1na2vs0mg"},{"bike_id":"99feb936-2a1e-4d91-a2ff-194761e21e05","system_id":"levelo_inurba_marseille","lat":43.305706,"lon":5.365654,"is_reserved":false,"is_disabled":false,"rental_uris":{"android":"levelo://app?vid=99feb936-2a1e-4d91-a2ff-194761e21e05","ios":"levelo://app?vid=99feb936-2a1e-4d91-a2ff-194761e21e05"},"vehicle_type_id":"4","last_reported":1720112874,"current_range_meters":0,"station_id":"ce4bgs12rcd13ifvqcag","pricing_plan_id":"cebpf4jnsgd1na2vs0mg"},{"bike_id":"ecd3f327-688a-405a-af52-76a8b8ad2b01","system_id":"levelo_inurba_marseille","lat":43.305368,"lon":5.367343,"is_reserved":false,"is_disabled":false,"rental_uris":{"android":"levelo://app?vid=ecd3f327-688a-405a-af52-76a8b8ad2b01","ios":"levelo://app?vid=ecd3f327-688a-405a-af52-76a8b8ad2b01"},"vehicle_type_id":"4","last_reported":1720112874,"current_range_meters":13600,"station_id":"ce4bgrp2rcd13ifvqc9g","pricing_plan_id":"cebpf4jnsgd1na2vs0mg"},{"bike_id":"5af167cb-89d7-4c22-acb9-aa5d9765cb4d","system_id":"levelo_inurba_marseille","lat":43.305706,"lon":5.365654,"is_reserved":false,"is_disabled":false,"rental_uris":{"android":"levelo://app?vid=5af167cb-89d7-4c22-acb9-aa5d9765cb4d","ios":"levelo://app?vid=5af167cb-89d7-4c22-acb9-aa5d9765cb4d"},"vehicle_type_id":"4","last_reported":1720112874,"current_range_meters":31600,"station_id":"ce4bgs12rcd13ifvqcag","pricing_plan_id":"cebpf4jnsgd1na2vs0mg"},{"bike_id":"2f8d95e8-64f7-41e5-b1e1-dafa0377b82d","system_id":"levelo_inurba_marseille","lat":43.317075,"lon":5.377367,"is_reserved":false,"is_disabled":false,"rental_uris":{"android":"levelo://app?vid=2f8d95e8-64f7-41e5-b1e1-dafa0377b82d","ios":"levelo://app?vid=2f8d95e8-64f7-41e5-b1e1-dafa0377b82d"},"vehicle_type_id":"4","last_reported":1720112874,"current_range_meters":16400,"station_id":"ce4bgth2rcd13ifvqch0","pricing_plan_id":"cebpf4jnsgd1na2vs0mg"},{"bike_id":"2ef2cb4a-3b57-454d-bf91-d5b44d084cd0","system_id":"levelo_inurba_marseille","lat":43.307945,"lon":5.376487,"is_reserved":false,"is_disabled":false,"rental_uris":{"android":"levelo://app?vid=2ef2cb4a-3b57-454d-bf91-d5b44d084cd0","ios":"levelo://app?vid=2ef2cb4a-3b57-454d-bf91-d5b44d084cd0"},"vehicle_type_id":"4","last_reported":1720112874,"current_range_meters":0,"station_id":"ce4bgv92rcd13ifvqcq0","pricing_plan_id":"cebpf4jnsgd1na2vs0mg"},{"bike_id":"a91edf37-5ffb-4f5c-9cc8-2c2d362602f7","system_id":"levelo_inurba_marseille","lat":43.30304,"lon":5.368987,"is_reserved":false,"is_disabled":false,"rental_uris":{"android":"levelo://app?vid=a91edf37-5ffb-4f5c-9cc8-2c2d362602f7","ios":"levelo://app?vid=a91edf37-5ffb-4f5c-9cc8-2c2d362602f7"},"vehicle_type_id":"4","last_reported":1720112874,"current_range_meters":25600,"station_id":"ce4bgqh2rcd13ifvqc5g","pricing_plan_id":"cebpf4jnsgd1na2vs0mg"},{"bike_id":"754661c2-d3ff-4748-bbeb-f83e63e1b4be","system_id":"levelo_inurba_marseille","lat":43.315289,"lon":5.380349,"is_reserved":false,"is_disabled":false,"rental_uris":{"android":"levelo://app?vid=754661c2-d3ff-4748-bbeb-f83e63e1b4be","ios":"levelo://app?vid=754661c2-d3ff-4748-bbeb-f83e63e1b4be"},"vehicle_type_id":"4","last_reported":1720112874,"current_range_meters":9200,"station_id":"ce4bhsp2rcd13ifvqi50","pricing_plan_id":"cebpf4jnsgd1na2vs0mg"},{"bike_id":"0479ee22-14fc-454e-9b81-5f134e20a668","system_id":"levelo_inurba_marseille","lat":43.315289,"lon":5.380349,"is_reserved":false,"is_disabled":false,"rental_uris":{"android":"levelo://app?vid=0479ee22-14fc-454e-9b81-5f134e20a668","ios":"levelo://app?vid=0479ee22-14fc-454e-9b81-5f134e20a668"},"vehicle_type_id":"4","last_reported":1720112874,"current_range_meters":9600,"station_id":"ce4bhsp2rcd13ifvqi50","pricing_plan_id":"cebpf4jnsgd1na2vs0mg"},{"bike_id":"b8c4fdb7-b245-4a15-a0a7-706d64151a92","system_id":"levelo_inurba_marseille","lat":43.312405,"lon":5.38135,"is_reserved":false,"is_disabled":false,"rental_uris":{"android":"levelo://app?vid=b8c4fdb7-b245-4a15-a0a7-706d64151a92","ios":"levelo://app?vid=b8c4fdb7-b245-4a15-a0a7-706d64151a92"},"vehicle_type_id":"4","last_reported":1720112874,"current_range_meters":0,"station_id":"ce4bgt92rcd13ifvqcg0","pricing_plan_id":"cebpf4jnsgd1na2vs0mg"},{"bike_id":"f258cd99-dfda-406d-9891-19318271aa69","system_id":"levelo_inurba_marseille","lat":43.30807,"lon":5.38144,"is_reserved":false,"is_disabled":false,"rental_uris":{"android":"levelo://app?vid=f258cd99-dfda-406d-9891-19318271aa69","ios":"levelo://app?vid=f258cd99-dfda-406d-9891-19318271aa69"},"vehicle_type_id":"4","last_reported":1720112874,"current_range_meters":0,"station_id":"ce4bgt12rcd13ifvqce0","pricing_plan_id":"cebpf4jnsgd1na2vs0mg"},{"bike_id":"56296303-7ce3-4773-b32b-fbc0e1e7c8ff","system_id":"levelo_inurba_marseille","lat":43.30806,"lon":5.38145,"is_reserved":false,"is_disabled":false,"rental_uris":{"android":"levelo://app?vid=56296303-7ce3-4773-b32b-fbc0e1e7c8ff","ios":"levelo://app?vid=56296303-7ce3-4773-b32b-fbc0e1e7c8ff"},"vehicle_type_id":"4","last_reported":1720112874,"current_range_meters":0,"station_id":"ce4bgt12rcd13ifvqce0","pricing_plan_id":"cebpf4jnsgd1na2vs0mg"},{"bike_id":"a1bd282e-9d70-44dd-af92-a9eabca9bb7b","system_id":"levelo_inurba_marseille","lat":43.310804,"lon":5.38359,"is_reserved":false,"is_disabled":false,"rental_uris":{"android":"levelo://app?vid=a1bd282e-9d70-44dd-af92-a9eabca9bb7b","ios":"levelo://app?vid=a1bd282e-9d70-44dd-af92-a9eabca9bb7b"},"vehicle_type_id":"4","last_reported":1720112874,"current_range_meters":21200,"station_id":"ce4bgv92rcd13ifvqcr0","pricing_plan_id":"cebpf4jnsgd1na2vs0mg"},{"bike_id":"0d0a1a59-79c7-4749-a6ad-b98968b9d284","system_id":"levelo_inurba_marseille","lat":43.310804,"lon":5.38359,"is_reserved":false,"is_disabled":false,"rental_uris":{"android":"levelo://app?vid=0d0a1a59-79c7-4749-a6ad-b98968b9d284","ios":"levelo://app?vid=0d0a1a59-79c7-4749-a6ad-b98968b9d284"},"vehicle_type_id":"4","last_reported":1720112874,"current_range_meters":0,"station_id":"ce4bgv92rcd13ifvqcr0","pricing_plan_id":"cebpf4jnsgd1na2vs0mg"},{"bike_id":"188cafbc-b33b-4553-adfa-2fbb10905a86","system_id":"levelo_inurba_marseille","lat":43.310804,"lon":5.38359,"is_reserved":false,"is_disabled":false,"rental_uris":{"android":"levelo://app?vid=188cafbc-b33b-4553-adfa-2fbb10905a86","ios":"levelo://app?vid=188cafbc-b33b-4553-adfa-2fbb10905a86"},"vehicle_type_id":"4","last_reported":1720112874,"current_range_meters":2800,"station_id":"ce4bgv92rcd13ifvqcr0","pricing_plan_id":"cebpf4jnsgd1na2vs0mg"},{"bike_id":"a01e229e-e8a7-486f-9548-6bb8dca3e22f","system_id":"levelo_inurba_marseille","lat":43.301429,"lon":5.37413,"is_reserved":false,"is_disabled":false,"rental_uris":{"android":"levelo://app?vid=a01e229e-e8a7-486f-9548-6bb8dca3e22f","ios":"levelo://app?vid=a01e229e-e8a7-486f-9548-6bb8dca3e22f"},"vehicle_type_id":"4","last_reported":1720112874,"current_range_meters":800,"station_id":"ce4bgs92rcd13ifvqcc0","pricing_plan_id":"cebpf4jnsgd1na2vs0mg"},{"bike_id":"f1147fad-607a-4e06-b8c8-9eeb7210076f","system_id":"levelo_inurba_marseille","lat":43.30143,"lon":5.37413,"is_reserved":false,"is_disabled":false,"rental_uris":{"android":"levelo://app?vid=f1147fad-607a-4e06-b8c8-9eeb7210076f","ios":"levelo://app?vid=f1147fad-607a-4e06-b8c8-9eeb7210076f"},"vehicle_type_id":"4","last_reported":1720112874,"current_range_meters":2000,"station_id":"ce4bgs92rcd13ifvqcc0","pricing_plan_id":"cebpf4jnsgd1na2vs0mg"},{"bike_id":"39c64966-ce3b-43aa-a055-b2eab29fce14","system_id":"levelo_inurba_marseille","lat":43.301429,"lon":5.37413,"is_reserved":false,"is_disabled":false,"rental_uris":{"android":"levelo://app?vid=39c64966-ce3b-43aa-a055-b2eab29fce14","ios":"levelo://app?vid=39c64966-ce3b-43aa-a055-b2eab29fce14"},"vehicle_type_id":"4","last_reported":1720112874,"current_range_meters":3600,"station_id":"ce4bgs92rcd13ifvqcc0","pricing_plan_id":"cebpf4jnsgd1na2vs0mg"},{"bike_id":"55f29928-de3c-493d-b799-244c32dfd243","system_id":"levelo_inurba_marseille","lat":43.319935,"lon":5.381699,"is_reserved":false,"is_disabled":false,"rental_uris":{"android":"levelo://app?vid=55f29928-de3c-493d-b799-244c32dfd243","ios":"levelo://app?vid=55f29928-de3c-493d-b799-244c32dfd243"},"vehicle_type_id":"4","last_reported":1720112874,"current_range_meters":0,"station_id":"ce4bhr12rcd13ifvqhpg","pricing_plan_id":"cebpf4jnsgd1na2vs0mg"},{"bike_id":"423ce2af-750d-453e-9fa4-1d0fd4a028b1","system_id":"levelo_inurba_marseille","lat":43.319935,"lon":5.381699,"is_reserved":false,"is_disabled":false,"rental_uris":{"android":"levelo://app?vid=423ce2af-750d-453e-9fa4-1d0fd4a028b1","ios":"levelo://app?vid=423ce2af-750d-453e-9fa4-1d0fd4a028b1"},"vehicle_type_id":"4","last_reported":1720112874,"current_range_meters":3200,"station_id":"ce4bhr12rcd13ifvqhpg","pricing_plan_id":"cebpf4jnsgd1na2vs0mg"},{"bike_id":"19b6b023-8af3-4947-8039-58689ba41b53","system_id":"levelo_inurba_marseille","lat":43.313571,"lon":5.384829,"is_reserved":false,"is_disabled":false,"rental_uris":{"android":"levelo://app?vid=19b6b023-8af3-4947-8039-58689ba41b53","ios":"levelo://app?vid=19b6b023-8af3-4947-8039-58689ba41b53"},"vehicle_type_id":"4","last_reported":1720112874,"current_range_meters":3200,"station_id":"ce4bgt92rcd13ifvqcf0","pricing_plan_id":"cebpf4jnsgd1na2vs0mg"},{"bike_id":"5aab825d-5564-475f-9e8a-6bdaa818f75c","system_id":"levelo_inurba_marseille","lat":43.299222,"lon":5.365554,"is_reserved":false,"is_disabled":false,"rental_uris":{"android":"levelo://app?vid=5aab825d-5564-475f-9e8a-6bdaa818f75c","ios":"levelo://app?vid=5aab825d-5564-475f-9e8a-6bdaa818f75c"},"vehicle_type_id":"4","last_reported":1720112874,"current_range_meters":6800,"station_id":"ce4bgm92rcd13ifvqbr0","pricing_plan_id":"cebpf4jnsgd1na2vs0mg"},{"bike_id":"bc38f47c-0a37-464f-99bf-705f1cc6f473","system_id":"levelo_inurba_marseille","lat":43.299222,"lon":5.365554,"is_reserved":false,"is_disabled":false,"rental_uris":{"android":"levelo://app?vid=bc38f47c-0a37-464f-99bf-705f1cc6f473","ios":"levelo://app?vid=bc38f47c-0a37-464f-99bf-705f1cc6f473"},"vehicle_type_id":"4","last_reported":1720112874,"current_range_meters":27200,"station_id":"ce4bgm92rcd13ifvqbr0","pricing_plan_id":"cebpf4jnsgd1na2vs0mg"},{"bike_id":"8a30a965-6e84-4e7a-b8d3-6495ecda49f3","system_id":"levelo_inurba_marseille","lat":43.29937,"lon":5.36548,"is_reserved":false,"is_disabled":false,"rental_uris":{"android":"levelo://app?vid=8a30a965-6e84-4e7a-b8d3-6495ecda49f3","ios":"levelo://app?vid=8a30a965-6e84-4e7a-b8d3-6495ecda49f3"},"vehicle_type_id":"4","last_reported":1720112874,"current_range_meters":16800,"station_id":"ce4bgm92rcd13ifvqbr0","pricing_plan_id":"cebpf4jnsgd1na2vs0mg"},{"bike_id":"a3692e99-3ef4-41ff-a94c-e40fc272a060","system_id":"levelo_inurba_marseille","lat":43.299724,"lon":5.371829,"is_reserved":false,"is_disabled":false,"rental_uris":{"android":"levelo://app?vid=a3692e99-3ef4-41ff-a94c-e40fc272a060","ios":"levelo://app?vid=a3692e99-3ef4-41ff-a94c-e40fc272a060"},"vehicle_type_id":"4","last_reported":1720112874,"current_range_meters":18000,"station_id":"ce4bgr92rcd13ifvqc7g","pricing_plan_id":"cebpf4jnsgd1na2vs0mg"},{"bike_id":"5fd9cd86-562e-47fc-8de3-3c5ab59fab09","system_id":"levelo_inurba_marseille","lat":43.29847,"lon":5.36276,"is_reserved":false,"is_disabled":false,"rental_uris":{"android":"levelo://app?vid=5fd9cd86-562e-47fc-8de3-3c5ab59fab09","ios":"levelo://app?vid=5fd9cd86-562e-47fc-8de3-3c5ab59fab09"},"vehicle_type_id":"4","last_reported":1720112874,"current_range_meters":13600,"station_id":"","pricing_plan_id":"cebpf4jnsgd1na2vs0mg"},{"bike_id":"ca8bebaf-21c2-4b3a-b30f-b72dcfeb8e88","system_id":"levelo_inurba_marseille","lat":43.311722,"lon":5.387247,"is_reserved":false,"is_disabled":false,"rental_uris":{"android":"levelo://app?vid=ca8bebaf-21c2-4b3a-b30f-b72dcfeb8e88","ios":"levelo://app?vid=ca8bebaf-21c2-4b3a-b30f-b72dcfeb8e88"},"vehicle_type_id":"4","last_reported":1720112874,"current_range_meters":1600,"station_id":"ce4bgv12rcd13ifvqcp0","pricing_plan_id":"cebpf4jnsgd1na2vs0mg"},{"bike_id":"9d88621d-ebf9-448f-b117-d0dad07fc111","system_id":"levelo_inurba_marseille","lat":43.311703,"lon":5.38721,"is_reserved":false,"is_disabled":false,"rental_uris":{"android":"levelo://app?vid=9d88621d-ebf9-448f-b117-d0dad07fc111","ios":"levelo://app?vid=9d88621d-ebf9-448f-b117-d0dad07fc111"},"vehicle_type_id":"4","last_reported":1720112874,"current_range_meters":18800,"station_id":"ce4bgv12rcd13ifvqcp0","pricing_plan_id":"cebpf4jnsgd1na2vs0mg"},{"bike_id":"938476ed-64af-4a78-9a14-1acc3a7d5482","system_id":"levelo_inurba_marseille","lat":43.311722,"lon":5.387247,"is_reserved":false,"is_disabled":false,"rental_uris":{"android":"levelo://app?vid=938476ed-64af-4a78-9a14-1acc3a7d5482","ios":"levelo://app?vid=938476ed-64af-4a78-9a14-1acc3a7d5482"},"vehicle_type_id":"4","last_reported":1720112874,"current_range_meters":0,"station_id":"ce4bgv12rcd13ifvqcp0","pricing_plan_id":"cebpf4jnsgd1na2vs0mg"},{"bike_id":"27a6bef8-9fa2-4c7c-a852-ef52da7f4c34","system_id":"levelo_inurba_marseille","lat":43.32297,"lon":5.38261,"is_reserved":false,"is_disabled":false,"rental_uris":{"android":"levelo://app?vid=27a6bef8-9fa2-4c7c-a852-ef52da7f4c34","ios":"levelo://app?vid=27a6bef8-9fa2-4c7c-a852-ef52da7f4c34"},"vehicle_type_id":"4","last_reported":1720112874,"current_range_meters":27600,"station_id":"ce4bhr12rcd13ifvqhqg","pricing_plan_id":"cebpf4jnsgd1na2vs0mg"},{"bike_id":"6f3e3cce-7b60-40a8-bdf6-bd92cd111de5","system_id":"levelo_inurba_marseille","lat":43.322872,"lon":5.382756,"is_reserved":false,"is_disabled":false,"rental_uris":{"android":"levelo://app?vid=6f3e3cce-7b60-40a8-bdf6-bd92cd111de5","ios":"levelo://app?vid=6f3e3cce-7b60-40a8-bdf6-bd92cd111de5"},"vehicle_type_id":"4","last_reported":1720112874,"current_range_meters":6800,"station_id":"ce4bhr12rcd13ifvqhqg","pricing_plan_id":"cebpf4jnsgd1na2vs0mg"},{"bike_id":"d17a9e4c-0eca-4029-9bac-bccd6cd7bc43","system_id":"levelo_inurba_marseille","lat":43.29718,"lon":5.36626,"is_reserved":false,"is_disabled":false,"rental_uris":{"android":"levelo://app?vid=d17a9e4c-0eca-4029-9bac-bccd6cd7bc43","ios":"levelo://app?vid=d17a9e4c-0eca-4029-9bac-bccd6cd7bc43"},"vehicle_type_id":"4","last_reported":1720112874,"current_range_meters":19600,"station_id":"ce4bgn12rcd13ifvqbt0","pricing_plan_id":"cebpf4jnsgd1na2vs0mg"},{"bike_id":"48625202-75f3-4b6e-af9e-cc8f4aebb5f1","system_id":"levelo_inurba_marseille","lat":43.297163,"lon":5.365866,"is_reserved":false,"is_disabled":false,"rental_uris":{"android":"levelo://app?vid=48625202-75f3-4b6e-af9e-cc8f4aebb5f1","ios":"levelo://app?vid=48625202-75f3-4b6e-af9e-cc8f4aebb5f1"},"vehicle_type_id":"4","last_reported":1720112874,"current_range_meters":21200,"station_id":"ce4bgn12rcd13ifvqbt0","pricing_plan_id":"cebpf4jnsgd1na2vs0mg"},{"bike_id":"814afcf2-1235-4829-92f3-e0dca88bd8d1","system_id":"levelo_inurba_marseille","lat":43.297145,"lon":5.36608,"is_reserved":false,"is_disabled":false,"rental_uris":{"android":"levelo://app?vid=814afcf2-1235-4829-92f3-e0dca88bd8d1","ios":"levelo://app?vid=814afcf2-1235-4829-92f3-e0dca88bd8d1"},"vehicle_type_id":"4","last_reported":1720112874,"current_range_meters":14000,"station_id":"ce4bgn12rcd13ifvqbt0","pricing_plan_id":"cebpf4jnsgd1na2vs0mg"},{"bike_id":"9212c254-eefe-4257-805e-b8b003c892d9","system_id":"levelo_inurba_marseille","lat":43.297163,"lon":5.365866,"is_reserved":false,"is_disabled":false,"rental_uris":{"android":"levelo://app?vid=9212c254-eefe-4257-805e-b8b003c892d9","ios":"levelo://app?vid=9212c254-eefe-4257-805e-b8b003c892d9"},"vehicle_type_id":"4","last_reported":1720112874,"current_range_meters":2400,"station_id":"ce4bgn12rcd13ifvqbt0","pricing_plan_id":"cebpf4jnsgd1na2vs0mg"},{"bike_id":"1a25f2ed-e9c1-4cb6-b799-a2b18ab73376","system_id":"levelo_inurba_marseille","lat":43.29821,"lon":5.37649,"is_reserved":false,"is_disabled":false,"rental_uris":{"android":"levelo://app?vid=1a25f2ed-e9c1-4cb6-b799-a2b18ab73376","ios":"levelo://app?vid=1a25f2ed-e9c1-4cb6-b799-a2b18ab73376"},"vehicle_type_id":"4","last_reported":1720112874,"current_range_meters":19200,"station_id":"","pricing_plan_id":"cebpf4jnsgd1na2vs0mg"},{"bike_id":"0c845e77-91f9-4f53-b4c0-9cd585c05b3e","system_id":"levelo_inurba_marseille","lat":43.29663,"lon":5.36162,"is_reserved":false,"is_disabled":false,"rental_uris":{"android":"levelo://app?vid=0c845e77-91f9-4f53-b4c0-9cd585c05b3e","ios":"levelo://app?vid=0c845e77-91f9-4f53-b4c0-9cd585c05b3e"},"vehicle_type_id":"4","last_reported":1720112874,"current_range_meters":0,"station_id":"","pricing_plan_id":"cebpf4jnsgd1na2vs0mg"},{"bike_id":"80b77f64-95ba-40a5-9222-ff29f6df684b","system_id":"levelo_inurba_marseille","lat":43.29573,"lon":5.367355,"is_reserved":false,"is_disabled":false,"rental_uris":{"android":"levelo://app?vid=80b77f64-95ba-40a5-9222-ff29f6df684b","ios":"levelo://app?vid=80b77f64-95ba-40a5-9222-ff29f6df684b"},"vehicle_type_id":"4","last_reported":1720112874,"current_range_meters":31200,"station_id":"ce4bgph2rcd13ifvqc2g","pricing_plan_id":"cebpf4jnsgd1na2vs0mg"},{"bike_id":"d67b9ec1-508b-472e-bed7-cb2b19f8f75e","system_id":"levelo_inurba_marseille","lat":43.29573,"lon":5.367355,"is_reserved":false,"is_disabled":false,"rental_uris":{"android":"levelo://app?vid=d67b9ec1-508b-472e-bed7-cb2b19f8f75e","ios":"levelo://app?vid=d67b9ec1-508b-472e-bed7-cb2b19f8f75e"},"vehicle_type_id":"4","last_reported":1720112874,"current_range_meters":0,"station_id":"ce4bgph2rcd13ifvqc2g","pricing_plan_id":"cebpf4jnsgd1na2vs0mg"},{"bike_id":"a277052b-6d33-48f7-aee6-bd0f717cd078","system_id":"levelo_inurba_marseille","lat":43.29573,"lon":5.367355,"is_reserved":false,"is_disabled":false,"rental_uris":{"android":"levelo://app?vid=a277052b-6d33-48f7-aee6-bd0f717cd078","ios":"levelo://app?vid=a277052b-6d33-48f7-aee6-bd0f717cd078"},"vehicle_type_id":"4","last_reported":1720112874,"current_range_meters":14400,"station_id":"ce4bgph2rcd13ifvqc2g","pricing_plan_id":"cebpf4jnsgd1na2vs0mg"},{"bike_id":"ef6acd7f-f482-4f25-8319-08cab56cee7d","system_id":"levelo_inurba_marseille","lat":43.29573,"lon":5.367355,"is_reserved":false,"is_disabled":false,"rental_uris":{"android":"levelo://app?vid=ef6acd7f-f482-4f25-8319-08cab56cee7d","ios":"levelo://app?vid=ef6acd7f-f482-4f25-8319-08cab56cee7d"},"vehicle_type_id":"4","last_reported":1720112874,"current_range_meters":15200,"station_id":"ce4bgph2rcd13ifvqc2g","pricing_plan_id":"cebpf4jnsgd1na2vs0mg"},{"bike_id":"60221b14-a5a2-4b6a-b2e5-bc7a6ed099c4","system_id":"levelo_inurba_marseille","lat":43.29905,"lon":5.38139,"is_reserved":false,"is_disabled":false,"rental_uris":{"android":"levelo://app?vid=60221b14-a5a2-4b6a-b2e5-bc7a6ed099c4","ios":"levelo://app?vid=60221b14-a5a2-4b6a-b2e5-bc7a6ed099c4"},"vehicle_type_id":"4","last_reported":1720112874,"current_range_meters":0,"station_id":"ce4bgj12rcd13ifvqbc0","pricing_plan_id":"cebpf4jnsgd1na2vs0mg"},{"bike_id":"e4ee9ec7-1098-4dde-b18e-b08e6c7353b0","system_id":"levelo_inurba_marseille","lat":43.30957,"lon":5.39026,"is_reserved":false,"is_disabled":false,"rental_uris":{"android":"levelo://app?vid=e4ee9ec7-1098-4dde-b18e-b08e6c7353b0","ios":"levelo://app?vid=e4ee9ec7-1098-4dde-b18e-b08e6c7353b0"},"vehicle_type_id":"4","last_reported":1720112874,"current_range_meters":0,"station_id":"ce4bgup2rcd13ifvqco0","pricing_plan_id":"cebpf4jnsgd1na2vs0mg"},{"bike_id":"1601de5a-9f5a-4d24-829c-8b5d821fd20c","system_id":"levelo_inurba_marseille","lat":43.30961,"lon":5.39034,"is_reserved":false,"is_disabled":false,"rental_uris":{"android":"levelo://app?vid=1601de5a-9f5a-4d24-829c-8b5d821fd20c","ios":"levelo://app?vid=1601de5a-9f5a-4d24-829c-8b5d821fd20c"},"vehicle_type_id":"4","last_reported":1720112874,"current_range_meters":24800,"station_id":"ce4bgup2rcd13ifvqco0","pricing_plan_id":"cebpf4jnsgd1na2vs0mg"},{"bike_id":"afd10372-cf74-4e68-9928-ab2c23fd1759","system_id":"levelo_inurba_marseille","lat":43.309589,"lon":5.390258,"is_reserved":false,"is_disabled":false,"rental_uris":{"android":"levelo://app?vid=afd10372-cf74-4e68-9928-ab2c23fd1759","ios":"levelo://app?vid=afd10372-cf74-4e68-9928-ab2c23fd1759"},"vehicle_type_id":"4","last_reported":1720112874,"current_range_meters":0,"station_id":"ce4bgup2rcd13ifvqco0","pricing_plan_id":"cebpf4jnsgd1na2vs0mg"},{"bike_id":"661b5c7b-5c4e-476d-81eb-e2b9140e0af2","system_id":"levelo_inurba_marseille","lat":43.30959,"lon":5.39036,"is_reserved":false,"is_disabled":false,"rental_uris":{"android":"levelo://app?vid=661b5c7b-5c4e-476d-81eb-e2b9140e0af2","ios":"levelo://app?vid=661b5c7b-5c4e-476d-81eb-e2b9140e0af2"},"vehicle_type_id":"4","last_reported":1720112874,"current_range_meters":0,"station_id":"ce4bgup2rcd13ifvqco0","pricing_plan_id":"cebpf4jnsgd1na2vs0mg"},{"bike_id":"94c5ed5b-f18e-4d0c-a56f-837189bb8eb0","system_id":"levelo_inurba_marseille","lat":43.30947,"lon":5.39033,"is_reserved":false,"is_disabled":false,"rental_uris":{"android":"levelo://app?vid=94c5ed5b-f18e-4d0c-a56f-837189bb8eb0","ios":"levelo://app?vid=94c5ed5b-f18e-4d0c-a56f-837189bb8eb0"},"vehicle_type_id":"4","last_reported":1720112874,"current_range_meters":0,"station_id":"ce4bgup2rcd13ifvqco0","pricing_plan_id":"cebpf4jnsgd1na2vs0mg"},{"bike_id":"c489d781-20d1-42db-9030-1072d76fbf2d","system_id":"levelo_inurba_marseille","lat":43.309589,"lon":5.390258,"is_reserved":false,"is_disabled":false,"rental_uris":{"android":"levelo://app?vid=c489d781-20d1-42db-9030-1072d76fbf2d","ios":"levelo://app?vid=c489d781-20d1-42db-9030-1072d76fbf2d"},"vehicle_type_id":"4","last_reported":1720112874,"current_range_meters":0,"station_id":"ce4bgup2rcd13ifvqco0","pricing_plan_id":"cebpf4jnsgd1na2vs0mg"},{"bike_id":"495f5ce8-9a2c-4ffc-a49a-5fa7557c8a31","system_id":"levelo_inurba_marseille","lat":43.309589,"lon":5.390258,"is_reserved":false,"is_disabled":false,"rental_uris":{"android":"levelo://app?vid=495f5ce8-9a2c-4ffc-a49a-5fa7557c8a31","ios":"levelo://app?vid=495f5ce8-9a2c-4ffc-a49a-5fa7557c8a31"},"vehicle_type_id":"4","last_reported":1720112874,"current_range_meters":22000,"station_id":"ce4bgup2rcd13ifvqco0","pricing_plan_id":"cebpf4jnsgd1na2vs0mg"},{"bike_id":"f4037b9d-466c-4cfd-9f2e-6f50843bb018","system_id":"levelo_inurba_marseille","lat":43.309589,"lon":5.390258,"is_reserved":false,"is_disabled":false,"rental_uris":{"android":"levelo://app?vid=f4037b9d-466c-4cfd-9f2e-6f50843bb018","ios":"levelo://app?vid=f4037b9d-466c-4cfd-9f2e-6f50843bb018"},"vehicle_type_id":"4","last_reported":1720112874,"current_range_meters":1200,"station_id":"ce4bgup2rcd13ifvqco0","pricing_plan_id":"cebpf4jnsgd1na2vs0mg"},{"bike_id":"ca7c2519-c409-45c1-ba39-de8c8db6eb3b","system_id":"levelo_inurba_marseille","lat":43.317557,"lon":5.390173,"is_reserved":false,"is_disabled":false,"rental_uris":{"android":"levelo://app?vid=ca7c2519-c409-45c1-ba39-de8c8db6eb3b","ios":"levelo://app?vid=ca7c2519-c409-45c1-ba39-de8c8db6eb3b"},"vehicle_type_id":"4","last_reported":1720112874,"current_range_meters":6000,"station_id":"ce4bhqp2rcd13ifvqhng","pricing_plan_id":"cebpf4jnsgd1na2vs0mg"},{"bike_id":"86011536-ef5c-47b9-b809-58c26ee4e4e6","system_id":"levelo_inurba_marseille","lat":43.317557,"lon":5.390173,"is_reserved":false,"is_disabled":false,"rental_uris":{"android":"levelo://app?vid=86011536-ef5c-47b9-b809-58c26ee4e4e6","ios":"levelo://app?vid=86011536-ef5c-47b9-b809-58c26ee4e4e6"},"vehicle_type_id":"4","last_reported":1720112874,"current_range_meters":21200,"station_id":"ce4bhqp2rcd13ifvqhng","pricing_plan_id":"cebpf4jnsgd1na2vs0mg"},{"bike_id":"86ad60e9-ec80-4c1b-a63b-c7e89b7a08d3","system_id":"levelo_inurba_marseille","lat":43.2958,"lon":5.37526,"is_reserved":false,"is_disabled":false,"rental_uris":{"android":"levelo://app?vid=86ad60e9-ec80-4c1b-a63b-c7e89b7a08d3","ios":"levelo://app?vid=86ad60e9-ec80-4c1b-a63b-c7e89b7a08d3"},"vehicle_type_id":"4","last_reported":1720112874,"current_range_meters":20800,"station_id":"ce4bgh92rcd13ifvqb50","pricing_plan_id":"cebpf4jnsgd1na2vs0mg"},{"bike_id":"457a9c57-4417-4140-8dbd-226cc8140cf1","system_id":"levelo_inurba_marseille","lat":43.29576,"lon":5.375193,"is_reserved":false,"is_disabled":false,"rental_uris":{"android":"levelo://app?vid=457a9c57-4417-4140-8dbd-226cc8140cf1","ios":"levelo://app?vid=457a9c57-4417-4140-8dbd-226cc8140cf1"},"vehicle_type_id":"4","last_reported":1720112874,"current_range_meters":1600,"station_id":"ce4bgh92rcd13ifvqb50","pricing_plan_id":"cebpf4jnsgd1na2vs0mg"},{"bike_id":"c5395370-ce42-4264-aa00-b328b8f16735","system_id":"levelo_inurba_marseille","lat":43.304278,"lon":5.388868,"is_reserved":false,"is_disabled":false,"rental_uris":{"android":"levelo://app?vid=c5395370-ce42-4264-aa00-b328b8f16735","ios":"levelo://app?vid=c5395370-ce42-4264-aa00-b328b8f16735"},"vehicle_type_id":"4","last_reported":1720112874,"current_range_meters":0,"station_id":"ce4bgk12rcd13ifvqbi0","pricing_plan_id":"cebpf4jnsgd1na2vs0mg"},{"bike_id":"5504fb8a-3152-4477-8253-c8ead49ac625","system_id":"levelo_inurba_marseille","lat":43.304274,"lon":5.388873,"is_reserved":false,"is_disabled":false,"rental_uris":{"android":"levelo://app?vid=5504fb8a-3152-4477-8253-c8ead49ac625","ios":"levelo://app?vid=5504fb8a-3152-4477-8253-c8ead49ac625"},"vehicle_type_id":"4","last_reported":1720112874,"current_range_meters":1200,"station_id":"ce4bgk12rcd13ifvqbi0","pricing_plan_id":"cebpf4jnsgd1na2vs0mg"},{"bike_id":"219fef35-c6ca-4bd6-90e6-b53d224fcc2a","system_id":"levelo_inurba_marseille","lat":43.304278,"lon":5.388868,"is_reserved":false,"is_disabled":false,"rental_uris":{"android":"levelo://app?vid=219fef35-c6ca-4bd6-90e6-b53d224fcc2a","ios":"levelo://app?vid=219fef35-c6ca-4bd6-90e6-b53d224fcc2a"},"vehicle_type_id":"4","last_reported":1720112874,"current_range_meters":0,"station_id":"ce4bgk12rcd13ifvqbi0","pricing_plan_id":"cebpf4jnsgd1na2vs0mg"},{"bike_id":"ad57610f-c192-4627-b1ca-3e6b260e9b57","system_id":"levelo_inurba_marseille","lat":43.304278,"lon":5.388868,"is_reserved":false,"is_disabled":false,"rental_uris":{"android":"levelo://app?vid=ad57610f-c192-4627-b1ca-3e6b260e9b57","ios":"levelo://app?vid=ad57610f-c192-4627-b1ca-3e6b260e9b57"},"vehicle_type_id":"4","last_reported":1720112874,"current_range_meters":0,"station_id":"ce4bgk12rcd13ifvqbi0","pricing_plan_id":"cebpf4jnsgd1na2vs0mg"},{"bike_id":"98a3074f-b1da-4514-af67-af14431059d8","system_id":"levelo_inurba_marseille","lat":43.296277,"lon":5.377108,"is_reserved":false,"is_disabled":false,"rental_uris":{"android":"levelo://app?vid=98a3074f-b1da-4514-af67-af14431059d8","ios":"levelo://app?vid=98a3074f-b1da-4514-af67-af14431059d8"},"vehicle_type_id":"4","last_reported":1720112874,"current_range_meters":0,"station_id":"ce4bgi92rcd13ifvqb90","pricing_plan_id":"cebpf4jnsgd1na2vs0mg"},{"bike_id":"a402f916-8b47-4a7f-b268-cbdd4032ecf5","system_id":"levelo_inurba_marseille","lat":43.290319,"lon":5.375732,"is_reserved":false,"is_disabled":false,"rental_uris":{"android":"levelo://app?vid=a402f916-8b47-4a7f-b268-cbdd4032ecf5","ios":"levelo://app?vid=a402f916-8b47-4a7f-b268-cbdd4032ecf5"},"vehicle_type_id":"4","last_reported":1720112874,"current_range_meters":800,"station_id":"ce4bh692rcd13ifvqe90","pricing_plan_id":"cebpf4jnsgd1na2vs0mg"},{"bike_id":"eda0cff3-65a3-4c80-9316-15d5ceb5ca1c","system_id":"levelo_inurba_marseille","lat":43.32368,"lon":5.38883,"is_reserved":false,"is_disabled":false,"rental_uris":{"android":"levelo://app?vid=eda0cff3-65a3-4c80-9316-15d5ceb5ca1c","ios":"levelo://app?vid=eda0cff3-65a3-4c80-9316-15d5ceb5ca1c"},"vehicle_type_id":"4","last_reported":1720112874,"current_range_meters":0,"station_id":"ce4bhqp2rcd13ifvqhog","pricing_plan_id":"cebpf4jnsgd1na2vs0mg"},{"bike_id":"0025cafd-11b6-44e5-99d6-055c75647f42","system_id":"levelo_inurba_marseille","lat":43.29596,"lon":5.38105,"is_reserved":false,"is_disabled":false,"rental_uris":{"android":"levelo://app?vid=0025cafd-11b6-44e5-99d6-055c75647f42","ios":"levelo://app?vid=0025cafd-11b6-44e5-99d6-055c75647f42"},"vehicle_type_id":"4","last_reported":1720112874,"current_range_meters":13600,"station_id":"ce4bgl12rcd13ifvqbo0","pricing_plan_id":"cebpf4jnsgd1na2vs0mg"},{"bike_id":"c0b6bb19-ed68-4a20-bf93-8f66e0bcc066","system_id":"levelo_inurba_marseille","lat":43.293249,"lon":5.371578,"is_reserved":false,"is_disabled":false,"rental_uris":{"android":"levelo://app?vid=c0b6bb19-ed68-4a20-bf93-8f66e0bcc066","ios":"levelo://app?vid=c0b6bb19-ed68-4a20-bf93-8f66e0bcc066"},"vehicle_type_id":"4","last_reported":1720112874,"current_range_meters":20000,"station_id":"ce4bgh92rcd13ifvqb40","pricing_plan_id":"cebpf4jnsgd1na2vs0mg"},{"bike_id":"b67de70d-e27b-4577-9c05-1e2980bf96d4","system_id":"levelo_inurba_marseille","lat":43.293259,"lon":5.371586,"is_reserved":false,"is_disabled":false,"rental_uris":{"android":"levelo://app?vid=b67de70d-e27b-4577-9c05-1e2980bf96d4","ios":"levelo://app?vid=b67de70d-e27b-4577-9c05-1e2980bf96d4"},"vehicle_type_id":"4","last_reported":1720112874,"current_range_meters":1200,"station_id":"ce4bgh92rcd13ifvqb40","pricing_plan_id":"cebpf4jnsgd1na2vs0mg"},{"bike_id":"3ed5a73e-3bd1-47c4-b5fb-8439a8d847c1","system_id":"levelo_inurba_marseille","lat":43.292749,"lon":5.368402,"is_reserved":false,"is_disabled":false,"rental_uris":{"android":"levelo://app?vid=3ed5a73e-3bd1-47c4-b5fb-8439a8d847c1","ios":"levelo://app?vid=3ed5a73e-3bd1-47c4-b5fb-8439a8d847c1"},"vehicle_type_id":"4","last_reported":1720112874,"current_range_meters":24800,"station_id":"ce4bhbp2rcd13ifvqesg","pricing_plan_id":"cebpf4jnsgd1na2vs0mg"},{"bike_id":"875a8042-69ed-40d6-8d9d-c509976d5eb5","system_id":"levelo_inurba_marseille","lat":43.292749,"lon":5.368402,"is_reserved":false,"is_disabled":false,"rental_uris":{"android":"levelo://app?vid=875a8042-69ed-40d6-8d9d-c509976d5eb5","ios":"levelo://app?vid=875a8042-69ed-40d6-8d9d-c509976d5eb5"},"vehicle_type_id":"4","last_reported":1720112874,"current_range_meters":18000,"station_id":"ce4bhbp2rcd13ifvqesg","pricing_plan_id":"cebpf4jnsgd1na2vs0mg"},{"bike_id":"c49ee174-64fe-4fcc-83f0-aa8a2bcb7cb8","system_id":"levelo_inurba_marseille","lat":43.292749,"lon":5.368402,"is_reserved":false,"is_disabled":false,"rental_uris":{"android":"levelo://app?vid=c49ee174-64fe-4fcc-83f0-aa8a2bcb7cb8","ios":"levelo://app?vid=c49ee174-64fe-4fcc-83f0-aa8a2bcb7cb8"},"vehicle_type_id":"4","last_reported":1720112874,"current_range_meters":20800,"station_id":"ce4bhbp2rcd13ifvqesg","pricing_plan_id":"cebpf4jnsgd1na2vs0mg"},{"bike_id":"1490b70d-a818-4f28-abe0-cade9c8d4c18","system_id":"levelo_inurba_marseille","lat":43.292749,"lon":5.368402,"is_reserved":false,"is_disabled":false,"rental_uris":{"android":"levelo://app?vid=1490b70d-a818-4f28-abe0-cade9c8d4c18","ios":"levelo://app?vid=1490b70d-a818-4f28-abe0-cade9c8d4c18"},"vehicle_type_id":"4","last_reported":1720112874,"current_range_meters":3600,"station_id":"ce4bhbp2rcd13ifvqesg","pricing_plan_id":"cebpf4jnsgd1na2vs0mg"},{"bike_id":"ac254e83-7fbb-46e3-90f9-963fa35b8bfd","system_id":"levelo_inurba_marseille","lat":43.29276,"lon":5.36841,"is_reserved":false,"is_disabled":false,"rental_uris":{"android":"levelo://app?vid=ac254e83-7fbb-46e3-90f9-963fa35b8bfd","ios":"levelo://app?vid=ac254e83-7fbb-46e3-90f9-963fa35b8bfd"},"vehicle_type_id":"4","last_reported":1720112874,"current_range_meters":23200,"station_id":"ce4bhbp2rcd13ifvqesg","pricing_plan_id":"cebpf4jnsgd1na2vs0mg"},{"bike_id":"e0dfb123-0af9-478e-8273-19afbfce7bc4","system_id":"levelo_inurba_marseille","lat":43.293009,"lon":5.374584,"is_reserved":false,"is_disabled":false,"rental_uris":{"android":"levelo://app?vid=e0dfb123-0af9-478e-8273-19afbfce7bc4","ios":"levelo://app?vid=e0dfb123-0af9-478e-8273-19afbfce7bc4"},"vehicle_type_id":"4","last_reported":1720112874,"current_range_meters":13600,"station_id":"ce4bgi12rcd13ifvqb70","pricing_plan_id":"cebpf4jnsgd1na2vs0mg"},{"bike_id":"26d51fdf-9dac-4dfd-a056-7fb53099bd56","system_id":"levelo_inurba_marseille","lat":43.305994,"lon":5.393687,"is_reserved":false,"is_disabled":false,"rental_uris":{"android":"levelo://app?vid=26d51fdf-9dac-4dfd-a056-7fb53099bd56","ios":"levelo://app?vid=26d51fdf-9dac-4dfd-a056-7fb53099bd56"},"vehicle_type_id":"4","last_reported":1720112874,"current_range_meters":0,"station_id":"ce4bh0p2rcd13ifvqd80","pricing_plan_id":"cebpf4jnsgd1na2vs0mg"},{"bike_id":"6a4e4737-c2ea-420a-b373-df5ffac9f705","system_id":"levelo_inurba_marseille","lat":43.305994,"lon":5.393687,"is_reserved":false,"is_disabled":false,"rental_uris":{"android":"levelo://app?vid=6a4e4737-c2ea-420a-b373-df5ffac9f705","ios":"levelo://app?vid=6a4e4737-c2ea-420a-b373-df5ffac9f705"},"vehicle_type_id":"4","last_reported":1720112874,"current_range_meters":0,"station_id":"ce4bh0p2rcd13ifvqd80","pricing_plan_id":"cebpf4jnsgd1na2vs0mg"},{"bike_id":"5030322b-b722-4105-b80c-e57e04e8a8c5","system_id":"levelo_inurba_marseille","lat":43.30308,"lon":5.39206,"is_reserved":false,"is_disabled":false,"rental_uris":{"android":"levelo://app?vid=5030322b-b722-4105-b80c-e57e04e8a8c5","ios":"levelo://app?vid=5030322b-b722-4105-b80c-e57e04e8a8c5"},"vehicle_type_id":"4","last_reported":1720112874,"current_range_meters":0,"station_id":"ce4bgkh2rcd13ifvqbk0","pricing_plan_id":"cebpf4jnsgd1na2vs0mg"},{"bike_id":"c01c63a8-a7fb-45aa-ac2f-a3e519d657a9","system_id":"levelo_inurba_marseille","lat":43.30304,"lon":5.39205,"is_reserved":false,"is_disabled":false,"rental_uris":{"android":"levelo://app?vid=c01c63a8-a7fb-45aa-ac2f-a3e519d657a9","ios":"levelo://app?vid=c01c63a8-a7fb-45aa-ac2f-a3e519d657a9"},"vehicle_type_id":"4","last_reported":1720112874,"current_range_meters":0,"station_id":"ce4bgkh2rcd13ifvqbk0","pricing_plan_id":"cebpf4jnsgd1na2vs0mg"},{"bike_id":"94711566-e1f4-41b1-9426-074675b4e608","system_id":"levelo_inurba_marseille","lat":43.29232,"lon":5.36082,"is_reserved":false,"is_disabled":false,"rental_uris":{"android":"levelo://app?vid=94711566-e1f4-41b1-9426-074675b4e608","ios":"levelo://app?vid=94711566-e1f4-41b1-9426-074675b4e608"},"vehicle_type_id":"4","last_reported":1720112874,"current_range_meters":6400,"station_id":"ce4bhbh2rcd13ifvqeqg","pricing_plan_id":"cebpf4jnsgd1na2vs0mg"},{"bike_id":"c58f3731-edcf-4037-a27d-f92f99db19d6","system_id":"levelo_inurba_marseille","lat":43.29231,"lon":5.36064,"is_reserved":false,"is_disabled":false,"rental_uris":{"android":"levelo://app?vid=c58f3731-edcf-4037-a27d-f92f99db19d6","ios":"levelo://app?vid=c58f3731-edcf-4037-a27d-f92f99db19d6"},"vehicle_type_id":"4","last_reported":1720112874,"current_range_meters":14000,"station_id":"ce4bhbh2rcd13ifvqeqg","pricing_plan_id":"cebpf4jnsgd1na2vs0mg"},{"bike_id":"1c57d81a-cbdb-4692-9ad9-de00c6fe51d7","system_id":"levelo_inurba_marseille","lat":43.292311,"lon":5.360731,"is_reserved":false,"is_disabled":false,"rental_uris":{"android":"levelo://app?vid=1c57d81a-cbdb-4692-9ad9-de00c6fe51d7","ios":"levelo://app?vid=1c57d81a-cbdb-4692-9ad9-de00c6fe51d7"},"vehicle_type_id":"4","last_reported":1720112874,"current_range_meters":26800,"station_id":"ce4bhbh2rcd13ifvqeqg","pricing_plan_id":"cebpf4jnsgd1na2vs0mg"},{"bike_id":"a3a2641c-177c-4507-ad4f-c98dd3cba7f6","system_id":"levelo_inurba_marseille","lat":43.29228,"lon":5.36071,"is_reserved":false,"is_disabled":false,"rental_uris":{"android":"levelo://app?vid=a3a2641c-177c-4507-ad4f-c98dd3cba7f6","ios":"levelo://app?vid=a3a2641c-177c-4507-ad4f-c98dd3cba7f6"},"vehicle_type_id":"4","last_reported":1720112874,"current_range_meters":16000,"station_id":"ce4bhbh2rcd13ifvqeqg","pricing_plan_id":"cebpf4jnsgd1na2vs0mg"},{"bike_id":"d0ccc0bd-8545-4f0f-929f-8c2062e975ce","system_id":"levelo_inurba_marseille","lat":43.292311,"lon":5.360731,"is_reserved":false,"is_disabled":false,"rental_uris":{"android":"levelo://app?vid=d0ccc0bd-8545-4f0f-929f-8c2062e975ce","ios":"levelo://app?vid=d0ccc0bd-8545-4f0f-929f-8c2062e975ce"},"vehicle_type_id":"4","last_reported":1720112874,"current_range_meters":400,"station_id":"ce4bhbh2rcd13ifvqeqg","pricing_plan_id":"cebpf4jnsgd1na2vs0mg"},{"bike_id":"d2fcebb1-c889-4443-9a18-f5ccdc0f37a8","system_id":"levelo_inurba_marseille","lat":43.292311,"lon":5.360731,"is_reserved":false,"is_disabled":false,"rental_uris":{"android":"levelo://app?vid=d2fcebb1-c889-4443-9a18-f5ccdc0f37a8","ios":"levelo://app?vid=d2fcebb1-c889-4443-9a18-f5ccdc0f37a8"},"vehicle_type_id":"4","last_reported":1720112874,"current_range_meters":2800,"station_id":"ce4bhbh2rcd13ifvqeqg","pricing_plan_id":"cebpf4jnsgd1na2vs0mg"},{"bike_id":"2df6d7dd-9062-4667-93aa-f6df4a9f5d30","system_id":"levelo_inurba_marseille","lat":43.292311,"lon":5.360731,"is_reserved":false,"is_disabled":false,"rental_uris":{"android":"levelo://app?vid=2df6d7dd-9062-4667-93aa-f6df4a9f5d30","ios":"levelo://app?vid=2df6d7dd-9062-4667-93aa-f6df4a9f5d30"},"vehicle_type_id":"4","last_reported":1720112874,"current_range_meters":28800,"station_id":"ce4bhbh2rcd13ifvqeqg","pricing_plan_id":"cebpf4jnsgd1na2vs0mg"},{"bike_id":"858f7868-1001-4110-b470-ac4e0cc1359a","system_id":"levelo_inurba_marseille","lat":43.298764,"lon":5.388973,"is_reserved":false,"is_disabled":false,"rental_uris":{"android":"levelo://app?vid=858f7868-1001-4110-b470-ac4e0cc1359a","ios":"levelo://app?vid=858f7868-1001-4110-b470-ac4e0cc1359a"},"vehicle_type_id":"4","last_reported":1720112874,"current_range_meters":0,"station_id":"ce4bh392rcd13ifvqdl0","pricing_plan_id":"cebpf4jnsgd1na2vs0mg"},{"bike_id":"48c1e076-5244-4f6e-b354-720c9b967966","system_id":"levelo_inurba_marseille","lat":43.298764,"lon":5.388973,"is_reserved":false,"is_disabled":false,"rental_uris":{"android":"levelo://app?vid=48c1e076-5244-4f6e-b354-720c9b967966","ios":"levelo://app?vid=48c1e076-5244-4f6e-b354-720c9b967966"},"vehicle_type_id":"4","last_reported":1720112874,"current_range_meters":18000,"station_id":"ce4bh392rcd13ifvqdl0","pricing_plan_id":"cebpf4jnsgd1na2vs0mg"},{"bike_id":"4674768a-689b-4092-a800-5286cadd2fe7","system_id":"levelo_inurba_marseille","lat":43.298764,"lon":5.388973,"is_reserved":false,"is_disabled":false,"rental_uris":{"android":"levelo://app?vid=4674768a-689b-4092-a800-5286cadd2fe7","ios":"levelo://app?vid=4674768a-689b-4092-a800-5286cadd2fe7"},"vehicle_type_id":"4","last_reported":1720112874,"current_range_meters":21600,"station_id":"ce4bh392rcd13ifvqdl0","pricing_plan_id":"cebpf4jnsgd1na2vs0mg"},{"bike_id":"a759c499-8239-4e90-8099-df97c956d425","system_id":"levelo_inurba_marseille","lat":43.29875,"lon":5.38912,"is_reserved":false,"is_disabled":false,"rental_uris":{"android":"levelo://app?vid=a759c499-8239-4e90-8099-df97c956d425","ios":"levelo://app?vid=a759c499-8239-4e90-8099-df97c956d425"},"vehicle_type_id":"4","last_reported":1720112874,"current_range_meters":22400,"station_id":"ce4bh392rcd13ifvqdl0","pricing_plan_id":"cebpf4jnsgd1na2vs0mg"},{"bike_id":"8689d3b0-5840-47cc-b780-2588146fb02a","system_id":"levelo_inurba_marseille","lat":43.298764,"lon":5.388973,"is_reserved":false,"is_disabled":false,"rental_uris":{"android":"levelo://app?vid=8689d3b0-5840-47cc-b780-2588146fb02a","ios":"levelo://app?vid=8689d3b0-5840-47cc-b780-2588146fb02a"},"vehicle_type_id":"4","last_reported":1720112874,"current_range_meters":31600,"station_id":"ce4bh392rcd13ifvqdl0","pricing_plan_id":"cebpf4jnsgd1na2vs0mg"},{"bike_id":"74401b95-3a18-4fef-8594-c911b44c3d86","system_id":"levelo_inurba_marseille","lat":43.29873,"lon":5.38919,"is_reserved":false,"is_disabled":false,"rental_uris":{"android":"levelo://app?vid=74401b95-3a18-4fef-8594-c911b44c3d86","ios":"levelo://app?vid=74401b95-3a18-4fef-8594-c911b44c3d86"},"vehicle_type_id":"4","last_reported":1720112874,"current_range_meters":26400,"station_id":"ce4bh392rcd13ifvqdl0","pricing_plan_id":"cebpf4jnsgd1na2vs0mg"},{"bike_id":"f79f7998-7aca-4768-9cca-5fdeda606713","system_id":"levelo_inurba_marseille","lat":43.29203,"lon":5.357987,"is_reserved":false,"is_disabled":false,"rental_uris":{"android":"levelo://app?vid=f79f7998-7aca-4768-9cca-5fdeda606713","ios":"levelo://app?vid=f79f7998-7aca-4768-9cca-5fdeda606713"},"vehicle_type_id":"4","last_reported":1720112874,"current_range_meters":14000,"station_id":"ce4bhb12rcd13ifvqel0","pricing_plan_id":"cebpf4jnsgd1na2vs0mg"},{"bike_id":"c8da8e81-bb7d-4ead-8bb6-06d59da37c43","system_id":"levelo_inurba_marseille","lat":43.292005,"lon":5.357875,"is_reserved":false,"is_disabled":false,"rental_uris":{"android":"levelo://app?vid=c8da8e81-bb7d-4ead-8bb6-06d59da37c43","ios":"levelo://app?vid=c8da8e81-bb7d-4ead-8bb6-06d59da37c43"},"vehicle_type_id":"4","last_reported":1720112874,"current_range_meters":3600,"station_id":"ce4bhb12rcd13ifvqel0","pricing_plan_id":"cebpf4jnsgd1na2vs0mg"},{"bike_id":"244a8208-8b59-4c5a-a90d-32290253bcbb","system_id":"levelo_inurba_marseille","lat":43.29198,"lon":5.358,"is_reserved":false,"is_disabled":false,"rental_uris":{"android":"levelo://app?vid=244a8208-8b59-4c5a-a90d-32290253bcbb","ios":"levelo://app?vid=244a8208-8b59-4c5a-a90d-32290253bcbb"},"vehicle_type_id":"4","last_reported":1720112874,"current_range_meters":3200,"station_id":"ce4bhb12rcd13ifvqel0","pricing_plan_id":"cebpf4jnsgd1na2vs0mg"},{"bike_id":"cdb55222-b591-4796-95a1-5d0735bbe352","system_id":"levelo_inurba_marseille","lat":43.313291,"lon":5.396838,"is_reserved":false,"is_disabled":false,"rental_uris":{"android":"levelo://app?vid=cdb55222-b591-4796-95a1-5d0735bbe352","ios":"levelo://app?vid=cdb55222-b591-4796-95a1-5d0735bbe352"},"vehicle_type_id":"4","last_reported":1720112874,"current_range_meters":3600,"station_id":"ce4bgvp2rcd13ifvqcu0","pricing_plan_id":"cebpf4jnsgd1na2vs0mg"},{"bike_id":"e5a29951-4eee-424e-8eff-c1a4519e2e3f","system_id":"levelo_inurba_marseille","lat":43.313291,"lon":5.396838,"is_reserved":false,"is_disabled":false,"rental_uris":{"android":"levelo://app?vid=e5a29951-4eee-424e-8eff-c1a4519e2e3f","ios":"levelo://app?vid=e5a29951-4eee-424e-8eff-c1a4519e2e3f"},"vehicle_type_id":"4","last_reported":1720112874,"current_range_meters":20400,"station_id":"ce4bgvp2rcd13ifvqcu0","pricing_plan_id":"cebpf4jnsgd1na2vs0mg"},{"bike_id":"ee8bc1dd-71c2-449b-ba74-9b15c31742cd","system_id":"levelo_inurba_marseille","lat":43.3133,"lon":5.39695,"is_reserved":false,"is_disabled":false,"rental_uris":{"android":"levelo://app?vid=ee8bc1dd-71c2-449b-ba74-9b15c31742cd","ios":"levelo://app?vid=ee8bc1dd-71c2-449b-ba74-9b15c31742cd"},"vehicle_type_id":"4","last_reported":1720112874,"current_range_meters":0,"station_id":"ce4bgvp2rcd13ifvqcu0","pricing_plan_id":"cebpf4jnsgd1na2vs0mg"},{"bike_id":"fbd642e7-2614-4397-b07c-7c8bb7162fc7","system_id":"levelo_inurba_marseille","lat":43.309038,"lon":5.396546,"is_reserved":false,"is_disabled":false,"rental_uris":{"android":"levelo://app?vid=fbd642e7-2614-4397-b07c-7c8bb7162fc7","ios":"levelo://app?vid=fbd642e7-2614-4397-b07c-7c8bb7162fc7"},"vehicle_type_id":"4","last_reported":1720112874,"current_range_meters":14800,"station_id":"ce4bh012rcd13ifvqcv0","pricing_plan_id":"cebpf4jnsgd1na2vs0mg"},{"bike_id":"fdd0e6bd-6f69-4921-81cb-503b646c5c38","system_id":"levelo_inurba_marseille","lat":43.309047,"lon":5.396551,"is_reserved":false,"is_disabled":false,"rental_uris":{"android":"levelo://app?vid=fdd0e6bd-6f69-4921-81cb-503b646c5c38","ios":"levelo://app?vid=fdd0e6bd-6f69-4921-81cb-503b646c5c38"},"vehicle_type_id":"4","last_reported":1720112874,"current_range_meters":1600,"station_id":"ce4bh012rcd13ifvqcv0","pricing_plan_id":"cebpf4jnsgd1na2vs0mg"},{"bike_id":"431118fb-2fc4-4f08-a540-bdd5cc92d322","system_id":"levelo_inurba_marseille","lat":43.309038,"lon":5.396546,"is_reserved":false,"is_disabled":false,"rental_uris":{"android":"levelo://app?vid=431118fb-2fc4-4f08-a540-bdd5cc92d322","ios":"levelo://app?vid=431118fb-2fc4-4f08-a540-bdd5cc92d322"},"vehicle_type_id":"4","last_reported":1720112874,"current_range_meters":23200,"station_id":"ce4bh012rcd13ifvqcv0","pricing_plan_id":"cebpf4jnsgd1na2vs0mg"},{"bike_id":"97164279-5186-43c2-b53d-4f3bcd77216c","system_id":"levelo_inurba_marseille","lat":43.29538,"lon":5.38539,"is_reserved":false,"is_disabled":false,"rental_uris":{"android":"levelo://app?vid=97164279-5186-43c2-b53d-4f3bcd77216c","ios":"levelo://app?vid=97164279-5186-43c2-b53d-4f3bcd77216c"},"vehicle_type_id":"4","last_reported":1720112874,"current_range_meters":25200,"station_id":"ce4bgih2rcd13ifvqba0","pricing_plan_id":"cebpf4jnsgd1na2vs0mg"},{"bike_id":"c93a6d73-604c-4355-a1da-af1960c8f945","system_id":"levelo_inurba_marseille","lat":43.29536,"lon":5.3854,"is_reserved":false,"is_disabled":false,"rental_uris":{"android":"levelo://app?vid=c93a6d73-604c-4355-a1da-af1960c8f945","ios":"levelo://app?vid=c93a6d73-604c-4355-a1da-af1960c8f945"},"vehicle_type_id":"4","last_reported":1720112874,"current_range_meters":8000,"station_id":"ce4bgih2rcd13ifvqba0","pricing_plan_id":"cebpf4jnsgd1na2vs0mg"},{"bike_id":"326b0008-9f4d-44af-a937-8f896e21a975","system_id":"levelo_inurba_marseille","lat":43.290779,"lon":5.371482,"is_reserved":false,"is_disabled":false,"rental_uris":{"android":"levelo://app?vid=326b0008-9f4d-44af-a937-8f896e21a975","ios":"levelo://app?vid=326b0008-9f4d-44af-a937-8f896e21a975"},"vehicle_type_id":"4","last_reported":1720112874,"current_range_meters":0,"station_id":"ce4bh5p2rcd13ifvqe4g","pricing_plan_id":"cebpf4jnsgd1na2vs0mg"},{"bike_id":"22d98d0d-c608-4d59-ac1b-2c8b357e43b4","system_id":"levelo_inurba_marseille","lat":43.290779,"lon":5.371482,"is_reserved":false,"is_disabled":false,"rental_uris":{"android":"levelo://app?vid=22d98d0d-c608-4d59-ac1b-2c8b357e43b4","ios":"levelo://app?vid=22d98d0d-c608-4d59-ac1b-2c8b357e43b4"},"vehicle_type_id":"4","last_reported":1720112874,"current_range_meters":14000,"station_id":"ce4bh5p2rcd13ifvqe4g","pricing_plan_id":"cebpf4jnsgd1na2vs0mg"},{"bike_id":"d71fd725-dd37-4600-974c-a804a289c486","system_id":"levelo_inurba_marseille","lat":43.290624,"lon":5.359245,"is_reserved":false,"is_disabled":false,"rental_uris":{"android":"levelo://app?vid=d71fd725-dd37-4600-974c-a804a289c486","ios":"levelo://app?vid=d71fd725-dd37-4600-974c-a804a289c486"},"vehicle_type_id":"4","last_reported":1720112874,"current_range_meters":5600,"station_id":"ce4bha92rcd13ifvqeg0","pricing_plan_id":"cebpf4jnsgd1na2vs0mg"},{"bike_id":"45cc4b60-5958-4f0e-adf9-fb2946508c87","system_id":"levelo_inurba_marseille","lat":43.290631,"lon":5.359244,"is_reserved":false,"is_disabled":false,"rental_uris":{"android":"levelo://app?vid=45cc4b60-5958-4f0e-adf9-fb2946508c87","ios":"levelo://app?vid=45cc4b60-5958-4f0e-adf9-fb2946508c87"},"vehicle_type_id":"4","last_reported":1720112874,"current_range_meters":10400,"station_id":"ce4bha92rcd13ifvqeg0","pricing_plan_id":"cebpf4jnsgd1na2vs0mg"},{"bike_id":"7171fba3-299f-4c57-9ad6-814cfe6107d4","system_id":"levelo_inurba_marseille","lat":43.290631,"lon":5.359244,"is_reserved":false,"is_disabled":false,"rental_uris":{"android":"levelo://app?vid=7171fba3-299f-4c57-9ad6-814cfe6107d4","ios":"levelo://app?vid=7171fba3-299f-4c57-9ad6-814cfe6107d4"},"vehicle_type_id":"4","last_reported":1720112874,"current_range_meters":9200,"station_id":"ce4bha92rcd13ifvqeg0","pricing_plan_id":"cebpf4jnsgd1na2vs0mg"},{"bike_id":"153b2323-ef54-4b17-8e8b-afc04d6bb6b0","system_id":"levelo_inurba_marseille","lat":43.290624,"lon":5.359245,"is_reserved":false,"is_disabled":false,"rental_uris":{"android":"levelo://app?vid=153b2323-ef54-4b17-8e8b-afc04d6bb6b0","ios":"levelo://app?vid=153b2323-ef54-4b17-8e8b-afc04d6bb6b0"},"vehicle_type_id":"4","last_reported":1720112874,"current_range_meters":1200,"station_id":"ce4bha92rcd13ifvqeg0","pricing_plan_id":"cebpf4jnsgd1na2vs0mg"},{"bike_id":"1e4e483f-6ae0-4a65-9587-2a6d80086685","system_id":"levelo_inurba_marseille","lat":43.290319,"lon":5.375732,"is_reserved":false,"is_disabled":false,"rental_uris":{"android":"levelo://app?vid=1e4e483f-6ae0-4a65-9587-2a6d80086685","ios":"levelo://app?vid=1e4e483f-6ae0-4a65-9587-2a6d80086685"},"vehicle_type_id":"4","last_reported":1720112874,"current_range_meters":30800,"station_id":"ce4bh692rcd13ifvqe90","pricing_plan_id":"cebpf4jnsgd1na2vs0mg"},{"bike_id":"dbae4d5c-34ce-48a7-ab86-8ab473b7f11f","system_id":"levelo_inurba_marseille","lat":43.290327,"lon":5.375711,"is_reserved":false,"is_disabled":false,"rental_uris":{"android":"levelo://app?vid=dbae4d5c-34ce-48a7-ab86-8ab473b7f11f","ios":"levelo://app?vid=dbae4d5c-34ce-48a7-ab86-8ab473b7f11f"},"vehicle_type_id":"4","last_reported":1720112874,"current_range_meters":12800,"station_id":"ce4bh692rcd13ifvqe90","pricing_plan_id":"cebpf4jnsgd1na2vs0mg"},{"bike_id":"62bec669-e849-4c50-9985-696d360265f9","system_id":"levelo_inurba_marseille","lat":43.294153,"lon":5.386305,"is_reserved":false,"is_disabled":false,"rental_uris":{"android":"levelo://app?vid=62bec669-e849-4c50-9985-696d360265f9","ios":"levelo://app?vid=62bec669-e849-4c50-9985-696d360265f9"},"vehicle_type_id":"4","last_reported":1720112874,"current_range_meters":18800,"station_id":"ce4bh2h2rcd13ifvqdh0","pricing_plan_id":"cebpf4jnsgd1na2vs0mg"},{"bike_id":"b9baa33d-706c-4e20-a2f7-cca82129f1dd","system_id":"levelo_inurba_marseille","lat":43.28948,"lon":5.36636,"is_reserved":false,"is_disabled":false,"rental_uris":{"android":"levelo://app?vid=b9baa33d-706c-4e20-a2f7-cca82129f1dd","ios":"levelo://app?vid=b9baa33d-706c-4e20-a2f7-cca82129f1dd"},"vehicle_type_id":"4","last_reported":1720112874,"current_range_meters":400,"station_id":"ce4bhap2rcd13ifvqek0","pricing_plan_id":"cebpf4jnsgd1na2vs0mg"},{"bike_id":"bb839830-9e77-4e66-a8e2-d97bedc2265f","system_id":"levelo_inurba_marseille","lat":43.290319,"lon":5.375732,"is_reserved":false,"is_disabled":false,"rental_uris":{"android":"levelo://app?vid=bb839830-9e77-4e66-a8e2-d97bedc2265f","ios":"levelo://app?vid=bb839830-9e77-4e66-a8e2-d97bedc2265f"},"vehicle_type_id":"4","last_reported":1720112874,"current_range_meters":0,"station_id":"ce4bh692rcd13ifvqe90","pricing_plan_id":"cebpf4jnsgd1na2vs0mg"},{"bike_id":"7a08dbc0-93e8-4aec-9087-d6eafe5bb486","system_id":"levelo_inurba_marseille","lat":43.294153,"lon":5.386305,"is_reserved":false,"is_disabled":false,"rental_uris":{"android":"levelo://app?vid=7a08dbc0-93e8-4aec-9087-d6eafe5bb486","ios":"levelo://app?vid=7a08dbc0-93e8-4aec-9087-d6eafe5bb486"},"vehicle_type_id":"4","last_reported":1720112874,"current_range_meters":2000,"station_id":"ce4bh2h2rcd13ifvqdh0","pricing_plan_id":"cebpf4jnsgd1na2vs0mg"},{"bike_id":"cbe43ebf-f278-47b3-8645-5c467f6351d3","system_id":"levelo_inurba_marseille","lat":43.29418,"lon":5.38627,"is_reserved":false,"is_disabled":false,"rental_uris":{"android":"levelo://app?vid=cbe43ebf-f278-47b3-8645-5c467f6351d3","ios":"levelo://app?vid=cbe43ebf-f278-47b3-8645-5c467f6351d3"},"vehicle_type_id":"4","last_reported":1720112874,"current_range_meters":31200,"station_id":"ce4bh2h2rcd13ifvqdh0","pricing_plan_id":"cebpf4jnsgd1na2vs0mg"},{"bike_id":"672fcf45-6009-4a2b-a1ef-20ccd76dbb19","system_id":"levelo_inurba_marseille","lat":43.28944,"lon":5.36636,"is_reserved":false,"is_disabled":false,"rental_uris":{"android":"levelo://app?vid=672fcf45-6009-4a2b-a1ef-20ccd76dbb19","ios":"levelo://app?vid=672fcf45-6009-4a2b-a1ef-20ccd76dbb19"},"vehicle_type_id":"4","last_reported":1720112874,"current_range_meters":0,"station_id":"ce4bhap2rcd13ifvqek0","pricing_plan_id":"cebpf4jnsgd1na2vs0mg"},{"bike_id":"1256ad99-68fb-417f-80b4-540531a6bcba","system_id":"levelo_inurba_marseille","lat":43.28943,"lon":5.36634,"is_reserved":false,"is_disabled":false,"rental_uris":{"android":"levelo://app?vid=1256ad99-68fb-417f-80b4-540531a6bcba","ios":"levelo://app?vid=1256ad99-68fb-417f-80b4-540531a6bcba"},"vehicle_type_id":"4","last_reported":1720112874,"current_range_meters":16000,"station_id":"ce4bhap2rcd13ifvqek0","pricing_plan_id":"cebpf4jnsgd1na2vs0mg"},{"bike_id":"4ce3df19-ac97-4a5d-95e0-8409ef2018d7","system_id":"levelo_inurba_marseille","lat":43.294147,"lon":5.386261,"is_reserved":false,"is_disabled":false,"rental_uris":{"android":"levelo://app?vid=4ce3df19-ac97-4a5d-95e0-8409ef2018d7","ios":"levelo://app?vid=4ce3df19-ac97-4a5d-95e0-8409ef2018d7"},"vehicle_type_id":"4","last_reported":1720112874,"current_range_meters":31600,"station_id":"ce4bh2h2rcd13ifvqdh0","pricing_plan_id":"cebpf4jnsgd1na2vs0mg"},{"bike_id":"c4915c0c-f7ac-49b9-b516-567fad8174f9","system_id":"levelo_inurba_marseille","lat":43.28942,"lon":5.36638,"is_reserved":false,"is_disabled":false,"rental_uris":{"android":"levelo://app?vid=c4915c0c-f7ac-49b9-b516-567fad8174f9","ios":"levelo://app?vid=c4915c0c-f7ac-49b9-b516-567fad8174f9"},"vehicle_type_id":"4","last_reported":1720112874,"current_range_meters":5200,"station_id":"ce4bhap2rcd13ifvqek0","pricing_plan_id":"cebpf4jnsgd1na2vs0mg"},{"bike_id":"b3440d80-2bed-4f95-9044-87f7b77d0ad5","system_id":"levelo_inurba_marseille","lat":43.29413,"lon":5.38625,"is_reserved":false,"is_disabled":false,"rental_uris":{"android":"levelo://app?vid=b3440d80-2bed-4f95-9044-87f7b77d0ad5","ios":"levelo://app?vid=b3440d80-2bed-4f95-9044-87f7b77d0ad5"},"vehicle_type_id":"4","last_reported":1720112874,"current_range_meters":31600,"station_id":"ce4bh2h2rcd13ifvqdh0","pricing_plan_id":"cebpf4jnsgd1na2vs0mg"},{"bike_id":"6c8b296b-abb7-4579-a4a5-f583bb2d9795","system_id":"levelo_inurba_marseille","lat":43.289468,"lon":5.363719,"is_reserved":false,"is_disabled":false,"rental_uris":{"android":"levelo://app?vid=6c8b296b-abb7-4579-a4a5-f583bb2d9795","ios":"levelo://app?vid=6c8b296b-abb7-4579-a4a5-f583bb2d9795"},"vehicle_type_id":"4","last_reported":1720112874,"current_range_meters":10000,"station_id":"ce4bhc92rcd13ifvqetg","pricing_plan_id":"cebpf4jnsgd1na2vs0mg"},{"bike_id":"05e7cfbb-4616-42e0-a3a4-f61cb9bf06ea","system_id":"levelo_inurba_marseille","lat":43.289325,"lon":5.36643,"is_reserved":false,"is_disabled":false,"rental_uris":{"android":"levelo://app?vid=05e7cfbb-4616-42e0-a3a4-f61cb9bf06ea","ios":"levelo://app?vid=05e7cfbb-4616-42e0-a3a4-f61cb9bf06ea"},"vehicle_type_id":"4","last_reported":1720112874,"current_range_meters":13600,"station_id":"ce4bhap2rcd13ifvqek0","pricing_plan_id":"cebpf4jnsgd1na2vs0mg"},{"bike_id":"3b77c9e8-0ecb-4940-a9f7-61d00caba3d1","system_id":"levelo_inurba_marseille","lat":43.290319,"lon":5.375732,"is_reserved":false,"is_disabled":false,"rental_uris":{"android":"levelo://app?vid=3b77c9e8-0ecb-4940-a9f7-61d00caba3d1","ios":"levelo://app?vid=3b77c9e8-0ecb-4940-a9f7-61d00caba3d1"},"vehicle_type_id":"4","last_reported":1720112874,"current_range_meters":29600,"station_id":"ce4bh692rcd13ifvqe90","pricing_plan_id":"cebpf4jnsgd1na2vs0mg"},{"bike_id":"3b60a1d6-42a7-4082-a7c6-06cb28f6bf7e","system_id":"levelo_inurba_marseille","lat":43.292644,"lon":5.384257,"is_reserved":false,"is_disabled":false,"rental_uris":{"android":"levelo://app?vid=3b60a1d6-42a7-4082-a7c6-06cb28f6bf7e","ios":"levelo://app?vid=3b60a1d6-42a7-4082-a7c6-06cb28f6bf7e"},"vehicle_type_id":"4","last_reported":1720112874,"current_range_meters":0,"station_id":"ce4bh692rcd13ifvqea0","pricing_plan_id":"cebpf4jnsgd1na2vs0mg"},{"bike_id":"606c7eba-19cb-4ef2-a588-7df7d8d6ccb8","system_id":"levelo_inurba_marseille","lat":43.29271,"lon":5.38442,"is_reserved":false,"is_disabled":false,"rental_uris":{"android":"levelo://app?vid=606c7eba-19cb-4ef2-a588-7df7d8d6ccb8","ios":"levelo://app?vid=606c7eba-19cb-4ef2-a588-7df7d8d6ccb8"},"vehicle_type_id":"4","last_reported":1720112874,"current_range_meters":0,"station_id":"ce4bh692rcd13ifvqea0","pricing_plan_id":"cebpf4jnsgd1na2vs0mg"},{"bike_id":"d3505747-1342-406f-95f9-e98b05ce3391","system_id":"levelo_inurba_marseille","lat":43.292644,"lon":5.384257,"is_reserved":false,"is_disabled":false,"rental_uris":{"android":"levelo://app?vid=d3505747-1342-406f-95f9-e98b05ce3391","ios":"levelo://app?vid=d3505747-1342-406f-95f9-e98b05ce3391"},"vehicle_type_id":"4","last_reported":1720112874,"current_range_meters":25200,"station_id":"ce4bh692rcd13ifvqea0","pricing_plan_id":"cebpf4jnsgd1na2vs0mg"},{"bike_id":"d8f42c07-ac52-48f9-94eb-3ff03536ddcc","system_id":"levelo_inurba_marseille","lat":43.292644,"lon":5.384257,"is_reserved":false,"is_disabled":false,"rental_uris":{"android":"levelo://app?vid=d8f42c07-ac52-48f9-94eb-3ff03536ddcc","ios":"levelo://app?vid=d8f42c07-ac52-48f9-94eb-3ff03536ddcc"},"vehicle_type_id":"4","last_reported":1720112874,"current_range_meters":15600,"station_id":"ce4bh692rcd13ifvqea0","pricing_plan_id":"cebpf4jnsgd1na2vs0mg"},{"bike_id":"2da0d3d5-c423-4e65-b970-e5dcf6dabb2b","system_id":"levelo_inurba_marseille","lat":43.29018,"lon":5.356463,"is_reserved":false,"is_disabled":false,"rental_uris":{"android":"levelo://app?vid=2da0d3d5-c423-4e65-b970-e5dcf6dabb2b","ios":"levelo://app?vid=2da0d3d5-c423-4e65-b970-e5dcf6dabb2b"},"vehicle_type_id":"4","last_reported":1720112874,"current_range_meters":0,"station_id":"ce4bhb92rcd13ifvqen0","pricing_plan_id":"cebpf4jnsgd1na2vs0mg"},{"bike_id":"64b636cb-d5e9-4a1e-aee9-52abc37a6227","system_id":"levelo_inurba_marseille","lat":43.29265,"lon":5.38452,"is_reserved":false,"is_disabled":false,"rental_uris":{"android":"levelo://app?vid=64b636cb-d5e9-4a1e-aee9-52abc37a6227","ios":"levelo://app?vid=64b636cb-d5e9-4a1e-aee9-52abc37a6227"},"vehicle_type_id":"4","last_reported":1720112874,"current_range_meters":0,"station_id":"ce4bh692rcd13ifvqea0","pricing_plan_id":"cebpf4jnsgd1na2vs0mg"},{"bike_id":"9de32f47-6f5e-4af7-a02c-19882e474f04","system_id":"levelo_inurba_marseille","lat":43.292644,"lon":5.384257,"is_reserved":false,"is_disabled":false,"rental_uris":{"android":"levelo://app?vid=9de32f47-6f5e-4af7-a02c-19882e474f04","ios":"levelo://app?vid=9de32f47-6f5e-4af7-a02c-19882e474f04"},"vehicle_type_id":"4","last_reported":1720112874,"current_range_meters":17200,"station_id":"ce4bh692rcd13ifvqea0","pricing_plan_id":"cebpf4jnsgd1na2vs0mg"},{"bike_id":"ad37e5e0-410d-4ba2-bd06-0ad1f387cf51","system_id":"levelo_inurba_marseille","lat":43.290104,"lon":5.356111,"is_reserved":false,"is_disabled":false,"rental_uris":{"android":"levelo://app?vid=ad37e5e0-410d-4ba2-bd06-0ad1f387cf51","ios":"levelo://app?vid=ad37e5e0-410d-4ba2-bd06-0ad1f387cf51"},"vehicle_type_id":"4","last_reported":1720112874,"current_range_meters":7200,"station_id":"ce4bhb92rcd13ifvqen0","pricing_plan_id":"cebpf4jnsgd1na2vs0mg"},{"bike_id":"7176cadf-a41d-4abe-b9ac-43f78157fa83","system_id":"levelo_inurba_marseille","lat":43.290103,"lon":5.356114,"is_reserved":false,"is_disabled":false,"rental_uris":{"android":"levelo://app?vid=7176cadf-a41d-4abe-b9ac-43f78157fa83","ios":"levelo://app?vid=7176cadf-a41d-4abe-b9ac-43f78157fa83"},"vehicle_type_id":"4","last_reported":1720112874,"current_range_meters":16400,"station_id":"ce4bhb92rcd13ifvqen0","pricing_plan_id":"cebpf4jnsgd1na2vs0mg"},{"bike_id":"c80e39d4-703c-49cc-b537-13854fade1c9","system_id":"levelo_inurba_marseille","lat":43.290103,"lon":5.356114,"is_reserved":false,"is_disabled":false,"rental_uris":{"android":"levelo://app?vid=c80e39d4-703c-49cc-b537-13854fade1c9","ios":"levelo://app?vid=c80e39d4-703c-49cc-b537-13854fade1c9"},"vehicle_type_id":"4","last_reported":1720112874,"current_range_meters":30400,"station_id":"ce4bhb92rcd13ifvqen0","pricing_plan_id":"cebpf4jnsgd1na2vs0mg"},{"bike_id":"f5d0adb4-5dd1-4aac-9b7a-ddd25e5768f5","system_id":"levelo_inurba_marseille","lat":43.290104,"lon":5.356111,"is_reserved":false,"is_disabled":false,"rental_uris":{"android":"levelo://app?vid=f5d0adb4-5dd1-4aac-9b7a-ddd25e5768f5","ios":"levelo://app?vid=f5d0adb4-5dd1-4aac-9b7a-ddd25e5768f5"},"vehicle_type_id":"4","last_reported":1720112874,"current_range_meters":800,"station_id":"ce4bhb92rcd13ifvqen0","pricing_plan_id":"cebpf4jnsgd1na2vs0mg"},{"bike_id":"f917e6da-6221-4455-b15b-e0027649809b","system_id":"levelo_inurba_marseille","lat":43.290103,"lon":5.356114,"is_reserved":false,"is_disabled":false,"rental_uris":{"android":"levelo://app?vid=f917e6da-6221-4455-b15b-e0027649809b","ios":"levelo://app?vid=f917e6da-6221-4455-b15b-e0027649809b"},"vehicle_type_id":"4","last_reported":1720112874,"current_range_meters":3600,"station_id":"ce4bhb92rcd13ifvqen0","pricing_plan_id":"cebpf4jnsgd1na2vs0mg"},{"bike_id":"128ef0da-5ced-4040-9efb-613b2e6838e4","system_id":"levelo_inurba_marseille","lat":43.29008,"lon":5.356125,"is_reserved":false,"is_disabled":false,"rental_uris":{"android":"levelo://app?vid=128ef0da-5ced-4040-9efb-613b2e6838e4","ios":"levelo://app?vid=128ef0da-5ced-4040-9efb-613b2e6838e4"},"vehicle_type_id":"4","last_reported":1720112874,"current_range_meters":0,"station_id":"ce4bhb92rcd13ifvqen0","pricing_plan_id":"cebpf4jnsgd1na2vs0mg"},{"bike_id":"4b612d20-7c87-4ded-98ef-6b0a50712dbc","system_id":"levelo_inurba_marseille","lat":43.290104,"lon":5.356111,"is_reserved":false,"is_disabled":false,"rental_uris":{"android":"levelo://app?vid=4b612d20-7c87-4ded-98ef-6b0a50712dbc","ios":"levelo://app?vid=4b612d20-7c87-4ded-98ef-6b0a50712dbc"},"vehicle_type_id":"4","last_reported":1720112874,"current_range_meters":25600,"station_id":"ce4bhb92rcd13ifvqen0","pricing_plan_id":"cebpf4jnsgd1na2vs0mg"},{"bike_id":"2ed4248d-5c4c-4701-a458-b083876d888b","system_id":"levelo_inurba_marseille","lat":43.290995,"lon":5.381361,"is_reserved":false,"is_disabled":false,"rental_uris":{"android":"levelo://app?vid=2ed4248d-5c4c-4701-a458-b083876d888b","ios":"levelo://app?vid=2ed4248d-5c4c-4701-a458-b083876d888b"},"vehicle_type_id":"4","last_reported":1720112874,"current_range_meters":0,"station_id":"ce4bh512rcd13ifvqe2g","pricing_plan_id":"cebpf4jnsgd1na2vs0mg"},{"bike_id":"21c43ef4-6d22-437a-a421-ee5747804ac6","system_id":"levelo_inurba_marseille","lat":43.290995,"lon":5.381361,"is_reserved":false,"is_disabled":false,"rental_uris":{"android":"levelo://app?vid=21c43ef4-6d22-437a-a421-ee5747804ac6","ios":"levelo://app?vid=21c43ef4-6d22-437a-a421-ee5747804ac6"},"vehicle_type_id":"4","last_reported":1720112874,"current_range_meters":0,"station_id":"ce4bh512rcd13ifvqe2g","pricing_plan_id":"cebpf4jnsgd1na2vs0mg"},{"bike_id":"d20f3332-52b3-4148-9cc4-dfa5521d21e3","system_id":"levelo_inurba_marseille","lat":43.289741,"lon":5.378306,"is_reserved":false,"is_disabled":false,"rental_uris":{"android":"levelo://app?vid=d20f3332-52b3-4148-9cc4-dfa5521d21e3","ios":"levelo://app?vid=d20f3332-52b3-4148-9cc4-dfa5521d21e3"},"vehicle_type_id":"4","last_reported":1720112874,"current_range_meters":2400,"station_id":"ce4bh9p2rcd13ifvqed0","pricing_plan_id":"cebpf4jnsgd1na2vs0mg"},{"bike_id":"847f2b85-96af-4ca8-8813-5d59a6d35b4c","system_id":"levelo_inurba_marseille","lat":43.289741,"lon":5.378306,"is_reserved":false,"is_disabled":false,"rental_uris":{"android":"levelo://app?vid=847f2b85-96af-4ca8-8813-5d59a6d35b4c","ios":"levelo://app?vid=847f2b85-96af-4ca8-8813-5d59a6d35b4c"},"vehicle_type_id":"4","last_reported":1720112874,"current_range_meters":2000,"station_id":"ce4bh9p2rcd13ifvqed0","pricing_plan_id":"cebpf4jnsgd1na2vs0mg"},{"bike_id":"c3a44fe7-1b67-45c1-b275-003e9f307006","system_id":"levelo_inurba_marseille","lat":43.330442,"lon":5.389148,"is_reserved":false,"is_disabled":false,"rental_uris":{"android":"levelo://app?vid=c3a44fe7-1b67-45c1-b275-003e9f307006","ios":"levelo://app?vid=c3a44fe7-1b67-45c1-b275-003e9f307006"},"vehicle_type_id":"4","last_reported":1720112874,"current_range_meters":1600,"station_id":"ce4bhr92rcd13ifvqhrg","pricing_plan_id":"cebpf4jnsgd1na2vs0mg"},{"bike_id":"956138fd-819c-40bb-ab24-ceaa1973c695","system_id":"levelo_inurba_marseille","lat":43.295169,"lon":5.390426,"is_reserved":false,"is_disabled":false,"rental_uris":{"android":"levelo://app?vid=956138fd-819c-40bb-ab24-ceaa1973c695","ios":"levelo://app?vid=956138fd-819c-40bb-ab24-ceaa1973c695"},"vehicle_type_id":"4","last_reported":1720112874,"current_range_meters":4000,"station_id":"ce4bh3p2rcd13ifvqdp0","pricing_plan_id":"cebpf4jnsgd1na2vs0mg"},{"bike_id":"a613af97-1d55-49fa-9134-01baa66d949e","system_id":"levelo_inurba_marseille","lat":43.295169,"lon":5.390426,"is_reserved":false,"is_disabled":false,"rental_uris":{"android":"levelo://app?vid=a613af97-1d55-49fa-9134-01baa66d949e","ios":"levelo://app?vid=a613af97-1d55-49fa-9134-01baa66d949e"},"vehicle_type_id":"4","last_reported":1720112874,"current_range_meters":4000,"station_id":"ce4bh3p2rcd13ifvqdp0","pricing_plan_id":"cebpf4jnsgd1na2vs0mg"},{"bike_id":"bf9532ae-058c-4790-b187-dc36b755a589","system_id":"levelo_inurba_marseille","lat":43.2952,"lon":5.3904,"is_reserved":false,"is_disabled":false,"rental_uris":{"android":"levelo://app?vid=bf9532ae-058c-4790-b187-dc36b755a589","ios":"levelo://app?vid=bf9532ae-058c-4790-b187-dc36b755a589"},"vehicle_type_id":"4","last_reported":1720112874,"current_range_meters":0,"station_id":"ce4bh3p2rcd13ifvqdp0","pricing_plan_id":"cebpf4jnsgd1na2vs0mg"},{"bike_id":"0cd35b2f-0beb-40ea-8c88-c4802747f284","system_id":"levelo_inurba_marseille","lat":43.28856,"lon":5.358371,"is_reserved":false,"is_disabled":false,"rental_uris":{"android":"levelo://app?vid=0cd35b2f-0beb-40ea-8c88-c4802747f284","ios":"levelo://app?vid=0cd35b2f-0beb-40ea-8c88-c4802747f284"},"vehicle_type_id":"4","last_reported":1720112874,"current_range_meters":5200,"station_id":"ce4bhb12rcd13ifvqem0","pricing_plan_id":"cebpf4jnsgd1na2vs0mg"},{"bike_id":"35a5c68b-3f3a-4b64-a20d-faa7c7efd968","system_id":"levelo_inurba_marseille","lat":43.33729,"lon":5.37388,"is_reserved":false,"is_disabled":false,"rental_uris":{"android":"levelo://app?vid=35a5c68b-3f3a-4b64-a20d-faa7c7efd968","ios":"levelo://app?vid=35a5c68b-3f3a-4b64-a20d-faa7c7efd968"},"vehicle_type_id":"4","last_reported":1720112874,"current_range_meters":30000,"station_id":"","pricing_plan_id":"cebpf4jnsgd1na2vs0mg"},{"bike_id":"6fe14791-cfd0-4a4c-8f06-a93d85a53764","system_id":"levelo_inurba_marseille","lat":43.28856,"lon":5.358371,"is_reserved":false,"is_disabled":false,"rental_uris":{"android":"levelo://app?vid=6fe14791-cfd0-4a4c-8f06-a93d85a53764","ios":"levelo://app?vid=6fe14791-cfd0-4a4c-8f06-a93d85a53764"},"vehicle_type_id":"4","last_reported":1720112874,"current_range_meters":800,"station_id":"ce4bhb12rcd13ifvqem0","pricing_plan_id":"cebpf4jnsgd1na2vs0mg"},{"bike_id":"ea997188-3cc9-4202-9f89-71ec4ca56262","system_id":"levelo_inurba_marseille","lat":43.312609,"lon":5.401662,"is_reserved":false,"is_disabled":false,"rental_uris":{"android":"levelo://app?vid=ea997188-3cc9-4202-9f89-71ec4ca56262","ios":"levelo://app?vid=ea997188-3cc9-4202-9f89-71ec4ca56262"},"vehicle_type_id":"4","last_reported":1720112874,"current_range_meters":18000,"station_id":"ce4bh092rcd13ifvqd30","pricing_plan_id":"cebpf4jnsgd1na2vs0mg"},{"bike_id":"61a124c6-7fd1-45f5-954d-3c86c43c368d","system_id":"levelo_inurba_marseille","lat":43.3374,"lon":5.37444,"is_reserved":false,"is_disabled":false,"rental_uris":{"android":"levelo://app?vid=61a124c6-7fd1-45f5-954d-3c86c43c368d","ios":"levelo://app?vid=61a124c6-7fd1-45f5-954d-3c86c43c368d"},"vehicle_type_id":"4","last_reported":1720112874,"current_range_meters":27200,"station_id":"","pricing_plan_id":"cebpf4jnsgd1na2vs0mg"},{"bike_id":"b1908d39-9ffc-44bf-b4ff-6b02e27f9b1c","system_id":"levelo_inurba_marseille","lat":43.312609,"lon":5.401662,"is_reserved":false,"is_disabled":false,"rental_uris":{"android":"levelo://app?vid=b1908d39-9ffc-44bf-b4ff-6b02e27f9b1c","ios":"levelo://app?vid=b1908d39-9ffc-44bf-b4ff-6b02e27f9b1c"},"vehicle_type_id":"4","last_reported":1720112874,"current_range_meters":19600,"station_id":"ce4bh092rcd13ifvqd30","pricing_plan_id":"cebpf4jnsgd1na2vs0mg"},{"bike_id":"e1596da8-3841-488f-adf9-c63dc2bd8292","system_id":"levelo_inurba_marseille","lat":43.3374,"lon":5.37448,"is_reserved":false,"is_disabled":false,"rental_uris":{"android":"levelo://app?vid=e1596da8-3841-488f-adf9-c63dc2bd8292","ios":"levelo://app?vid=e1596da8-3841-488f-adf9-c63dc2bd8292"},"vehicle_type_id":"4","last_reported":1720112874,"current_range_meters":4400,"station_id":"","pricing_plan_id":"cebpf4jnsgd1na2vs0mg"},{"bike_id":"d93b389d-27d6-4b91-baf3-ef4a693cbf76","system_id":"levelo_inurba_marseille","lat":43.312609,"lon":5.401662,"is_reserved":false,"is_disabled":false,"rental_uris":{"android":"levelo://app?vid=d93b389d-27d6-4b91-baf3-ef4a693cbf76","ios":"levelo://app?vid=d93b389d-27d6-4b91-baf3-ef4a693cbf76"},"vehicle_type_id":"4","last_reported":1720112874,"current_range_meters":0,"station_id":"ce4bh092rcd13ifvqd30","pricing_plan_id":"cebpf4jnsgd1na2vs0mg"},{"bike_id":"3d88704c-c4b8-4eac-8eeb-91b9c543abf8","system_id":"levelo_inurba_marseille","lat":43.312609,"lon":5.401662,"is_reserved":false,"is_disabled":false,"rental_uris":{"android":"levelo://app?vid=3d88704c-c4b8-4eac-8eeb-91b9c543abf8","ios":"levelo://app?vid=3d88704c-c4b8-4eac-8eeb-91b9c543abf8"},"vehicle_type_id":"4","last_reported":1720112874,"current_range_meters":0,"station_id":"ce4bh092rcd13ifvqd30","pricing_plan_id":"cebpf4jnsgd1na2vs0mg"},{"bike_id":"668b6270-367b-4f6c-b750-d67dec44cb4f","system_id":"levelo_inurba_marseille","lat":43.337436,"lon":5.374544,"is_reserved":false,"is_disabled":false,"rental_uris":{"android":"levelo://app?vid=668b6270-367b-4f6c-b750-d67dec44cb4f","ios":"levelo://app?vid=668b6270-367b-4f6c-b750-d67dec44cb4f"},"vehicle_type_id":"4","last_reported":1720112874,"current_range_meters":25200,"station_id":"","pricing_plan_id":"cebpf4jnsgd1na2vs0mg"},{"bike_id":"350dfeb4-3df7-47ec-bb69-08ad5482c10c","system_id":"levelo_inurba_marseille","lat":43.337483,"lon":5.374414,"is_reserved":false,"is_disabled":false,"rental_uris":{"android":"levelo://app?vid=350dfeb4-3df7-47ec-bb69-08ad5482c10c","ios":"levelo://app?vid=350dfeb4-3df7-47ec-bb69-08ad5482c10c"},"vehicle_type_id":"4","last_reported":1720112874,"current_range_meters":29600,"station_id":"","pricing_plan_id":"cebpf4jnsgd1na2vs0mg"},{"bike_id":"19e2aafa-1574-4b42-9a6f-f3bbdde7e6b1","system_id":"levelo_inurba_marseille","lat":43.309371,"lon":5.401449,"is_reserved":false,"is_disabled":false,"rental_uris":{"android":"levelo://app?vid=19e2aafa-1574-4b42-9a6f-f3bbdde7e6b1","ios":"levelo://app?vid=19e2aafa-1574-4b42-9a6f-f3bbdde7e6b1"},"vehicle_type_id":"4","last_reported":1720112874,"current_range_meters":1600,"station_id":"ce4bgvp2rcd13ifvqct0","pricing_plan_id":"cebpf4jnsgd1na2vs0mg"},{"bike_id":"f7b90582-72ef-44b9-be3c-10965a5f20f8","system_id":"levelo_inurba_marseille","lat":43.337524,"lon":5.374469,"is_reserved":false,"is_disabled":false,"rental_uris":{"android":"levelo://app?vid=f7b90582-72ef-44b9-be3c-10965a5f20f8","ios":"levelo://app?vid=f7b90582-72ef-44b9-be3c-10965a5f20f8"},"vehicle_type_id":"4","last_reported":1720112874,"current_range_meters":25600,"station_id":"","pricing_plan_id":"cebpf4jnsgd1na2vs0mg"},{"bike_id":"268a261a-d7ab-409f-863b-7e797fa4522e","system_id":"levelo_inurba_marseille","lat":43.33756,"lon":5.37454,"is_reserved":false,"is_disabled":false,"rental_uris":{"android":"levelo://app?vid=268a261a-d7ab-409f-863b-7e797fa4522e","ios":"levelo://app?vid=268a261a-d7ab-409f-863b-7e797fa4522e"},"vehicle_type_id":"4","last_reported":1720112874,"current_range_meters":29200,"station_id":"","pricing_plan_id":"cebpf4jnsgd1na2vs0mg"},{"bike_id":"67d75ecb-2330-40d0-a5a5-33420b3eb581","system_id":"levelo_inurba_marseille","lat":43.312609,"lon":5.401662,"is_reserved":false,"is_disabled":false,"rental_uris":{"android":"levelo://app?vid=67d75ecb-2330-40d0-a5a5-33420b3eb581","ios":"levelo://app?vid=67d75ecb-2330-40d0-a5a5-33420b3eb581"},"vehicle_type_id":"4","last_reported":1720112874,"current_range_meters":16400,"station_id":"ce4bh092rcd13ifvqd30","pricing_plan_id":"cebpf4jnsgd1na2vs0mg"},{"bike_id":"95f91891-7abb-4bc1-ad3a-80dd3e134f8e","system_id":"levelo_inurba_marseille","lat":43.33759,"lon":5.374433,"is_reserved":false,"is_disabled":false,"rental_uris":{"android":"levelo://app?vid=95f91891-7abb-4bc1-ad3a-80dd3e134f8e","ios":"levelo://app?vid=95f91891-7abb-4bc1-ad3a-80dd3e134f8e"},"vehicle_type_id":"4","last_reported":1720112874,"current_range_meters":29600,"station_id":"","pricing_plan_id":"cebpf4jnsgd1na2vs0mg"},{"bike_id":"b6489de4-a6f4-4a28-97fe-e4b8bfff8e39","system_id":"levelo_inurba_marseille","lat":43.3376,"lon":5.3744,"is_reserved":false,"is_disabled":false,"rental_uris":{"android":"levelo://app?vid=b6489de4-a6f4-4a28-97fe-e4b8bfff8e39","ios":"levelo://app?vid=b6489de4-a6f4-4a28-97fe-e4b8bfff8e39"},"vehicle_type_id":"4","last_reported":1720112874,"current_range_meters":9200,"station_id":"","pricing_plan_id":"cebpf4jnsgd1na2vs0mg"},{"bike_id":"2d552ba8-a7c6-425a-b149-10d0d4d18252","system_id":"levelo_inurba_marseille","lat":43.33761,"lon":5.37438,"is_reserved":false,"is_disabled":false,"rental_uris":{"android":"levelo://app?vid=2d552ba8-a7c6-425a-b149-10d0d4d18252","ios":"levelo://app?vid=2d552ba8-a7c6-425a-b149-10d0d4d18252"},"vehicle_type_id":"4","last_reported":1720112874,"current_range_meters":11200,"station_id":"","pricing_plan_id":"cebpf4jnsgd1na2vs0mg"},{"bike_id":"053346b1-70c3-4aa2-b952-e509b9391d16","system_id":"levelo_inurba_marseille","lat":43.33762,"lon":5.37438,"is_reserved":false,"is_disabled":false,"rental_uris":{"android":"levelo://app?vid=053346b1-70c3-4aa2-b952-e509b9391d16","ios":"levelo://app?vid=053346b1-70c3-4aa2-b952-e509b9391d16"},"vehicle_type_id":"4","last_reported":1720112874,"current_range_meters":20000,"station_id":"","pricing_plan_id":"cebpf4jnsgd1na2vs0mg"},{"bike_id":"b42696b2-7f43-434f-9cbf-a49b88b52a44","system_id":"levelo_inurba_marseille","lat":43.33763,"lon":5.37444,"is_reserved":false,"is_disabled":false,"rental_uris":{"android":"levelo://app?vid=b42696b2-7f43-434f-9cbf-a49b88b52a44","ios":"levelo://app?vid=b42696b2-7f43-434f-9cbf-a49b88b52a44"},"vehicle_type_id":"4","last_reported":1720112874,"current_range_meters":29200,"station_id":"","pricing_plan_id":"cebpf4jnsgd1na2vs0mg"},{"bike_id":"3bd92717-40ae-4dd8-88f8-c809a275b478","system_id":"levelo_inurba_marseille","lat":43.33761,"lon":5.374565,"is_reserved":false,"is_disabled":false,"rental_uris":{"android":"levelo://app?vid=3bd92717-40ae-4dd8-88f8-c809a275b478","ios":"levelo://app?vid=3bd92717-40ae-4dd8-88f8-c809a275b478"},"vehicle_type_id":"4","last_reported":1720112874,"current_range_meters":27200,"station_id":"","pricing_plan_id":"cebpf4jnsgd1na2vs0mg"},{"bike_id":"73b4fc66-6fc4-4c20-813a-4d2eadd6f2b8","system_id":"levelo_inurba_marseille","lat":43.33757,"lon":5.37488,"is_reserved":false,"is_disabled":false,"rental_uris":{"android":"levelo://app?vid=73b4fc66-6fc4-4c20-813a-4d2eadd6f2b8","ios":"levelo://app?vid=73b4fc66-6fc4-4c20-813a-4d2eadd6f2b8"},"vehicle_type_id":"4","last_reported":1720112874,"current_range_meters":28800,"station_id":"","pricing_plan_id":"cebpf4jnsgd1na2vs0mg"},{"bike_id":"813948cb-27c3-4450-9b7c-250dc9dee592","system_id":"levelo_inurba_marseille","lat":43.337647,"lon":5.374428,"is_reserved":false,"is_disabled":false,"rental_uris":{"android":"levelo://app?vid=813948cb-27c3-4450-9b7c-250dc9dee592","ios":"levelo://app?vid=813948cb-27c3-4450-9b7c-250dc9dee592"},"vehicle_type_id":"4","last_reported":1720112874,"current_range_meters":12800,"station_id":"","pricing_plan_id":"cebpf4jnsgd1na2vs0mg"},{"bike_id":"e4109c4a-d7a2-4ed6-afc8-242d11ff39ac","system_id":"levelo_inurba_marseille","lat":43.337643,"lon":5.374453,"is_reserved":false,"is_disabled":false,"rental_uris":{"android":"levelo://app?vid=e4109c4a-d7a2-4ed6-afc8-242d11ff39ac","ios":"levelo://app?vid=e4109c4a-d7a2-4ed6-afc8-242d11ff39ac"},"vehicle_type_id":"4","last_reported":1720112874,"current_range_meters":30800,"station_id":"","pricing_plan_id":"cebpf4jnsgd1na2vs0mg"},{"bike_id":"7774f6c3-c956-414c-8e2c-82dbb18a916a","system_id":"levelo_inurba_marseille","lat":43.33764,"lon":5.37448,"is_reserved":false,"is_disabled":false,"rental_uris":{"android":"levelo://app?vid=7774f6c3-c956-414c-8e2c-82dbb18a916a","ios":"levelo://app?vid=7774f6c3-c956-414c-8e2c-82dbb18a916a"},"vehicle_type_id":"4","last_reported":1720112874,"current_range_meters":9200,"station_id":"","pricing_plan_id":"cebpf4jnsgd1na2vs0mg"},{"bike_id":"7521861a-977e-43b8-b3b8-9252f5f41b26","system_id":"levelo_inurba_marseille","lat":43.337653,"lon":5.37441,"is_reserved":false,"is_disabled":false,"rental_uris":{"android":"levelo://app?vid=7521861a-977e-43b8-b3b8-9252f5f41b26","ios":"levelo://app?vid=7521861a-977e-43b8-b3b8-9252f5f41b26"},"vehicle_type_id":"4","last_reported":1720112874,"current_range_meters":29200,"station_id":"","pricing_plan_id":"cebpf4jnsgd1na2vs0mg"},{"bike_id":"f4143f66-1e8c-47f7-a5ba-fff2d49c7510","system_id":"levelo_inurba_marseille","lat":43.33764,"lon":5.3745,"is_reserved":false,"is_disabled":false,"rental_uris":{"android":"levelo://app?vid=f4143f66-1e8c-47f7-a5ba-fff2d49c7510","ios":"levelo://app?vid=f4143f66-1e8c-47f7-a5ba-fff2d49c7510"},"vehicle_type_id":"4","last_reported":1720112874,"current_range_meters":29600,"station_id":"","pricing_plan_id":"cebpf4jnsgd1na2vs0mg"},{"bike_id":"74b0e430-9ed5-4ca4-ae5f-95447d28f904","system_id":"levelo_inurba_marseille","lat":43.337643,"lon":5.374487,"is_reserved":false,"is_disabled":false,"rental_uris":{"android":"levelo://app?vid=74b0e430-9ed5-4ca4-ae5f-95447d28f904","ios":"levelo://app?vid=74b0e430-9ed5-4ca4-ae5f-95447d28f904"},"vehicle_type_id":"4","last_reported":1720112874,"current_range_meters":27200,"station_id":"","pricing_plan_id":"cebpf4jnsgd1na2vs0mg"},{"bike_id":"5fca1349-76b7-478b-b6a4-e9ee12acf525","system_id":"levelo_inurba_marseille","lat":43.33764,"lon":5.37453,"is_reserved":false,"is_disabled":false,"rental_uris":{"android":"levelo://app?vid=5fca1349-76b7-478b-b6a4-e9ee12acf525","ios":"levelo://app?vid=5fca1349-76b7-478b-b6a4-e9ee12acf525"},"vehicle_type_id":"4","last_reported":1720112874,"current_range_meters":21200,"station_id":"","pricing_plan_id":"cebpf4jnsgd1na2vs0mg"},{"bike_id":"501d1471-018f-4f4f-a66e-4f356803d824","system_id":"levelo_inurba_marseille","lat":43.337663,"lon":5.374387,"is_reserved":false,"is_disabled":false,"rental_uris":{"android":"levelo://app?vid=501d1471-018f-4f4f-a66e-4f356803d824","ios":"levelo://app?vid=501d1471-018f-4f4f-a66e-4f356803d824"},"vehicle_type_id":"4","last_reported":1720112874,"current_range_meters":29600,"station_id":"","pricing_plan_id":"cebpf4jnsgd1na2vs0mg"},{"bike_id":"42f67f08-8e3a-4411-8138-adef5d593281","system_id":"levelo_inurba_marseille","lat":43.30642,"lon":5.401031,"is_reserved":false,"is_disabled":false,"rental_uris":{"android":"levelo://app?vid=42f67f08-8e3a-4411-8138-adef5d593281","ios":"levelo://app?vid=42f67f08-8e3a-4411-8138-adef5d593281"},"vehicle_type_id":"4","last_reported":1720112874,"current_range_meters":16400,"station_id":"ce4bh112rcd13ifvqda0","pricing_plan_id":"cebpf4jnsgd1na2vs0mg"},{"bike_id":"1e076613-4525-4f4c-8854-19ace8c31b82","system_id":"levelo_inurba_marseille","lat":43.30642,"lon":5.401031,"is_reserved":false,"is_disabled":false,"rental_uris":{"android":"levelo://app?vid=1e076613-4525-4f4c-8854-19ace8c31b82","ios":"levelo://app?vid=1e076613-4525-4f4c-8854-19ace8c31b82"},"vehicle_type_id":"4","last_reported":1720112874,"current_range_meters":2000,"station_id":"ce4bh112rcd13ifvqda0","pricing_plan_id":"cebpf4jnsgd1na2vs0mg"},{"bike_id":"927eacb2-9f55-409f-8c86-91cbfef1415a","system_id":"levelo_inurba_marseille","lat":43.33766,"lon":5.374517,"is_reserved":false,"is_disabled":false,"rental_uris":{"android":"levelo://app?vid=927eacb2-9f55-409f-8c86-91cbfef1415a","ios":"levelo://app?vid=927eacb2-9f55-409f-8c86-91cbfef1415a"},"vehicle_type_id":"4","last_reported":1720112874,"current_range_meters":6400,"station_id":"","pricing_plan_id":"cebpf4jnsgd1na2vs0mg"},{"bike_id":"cb06a28b-8a43-4da4-ba10-82313cede184","system_id":"levelo_inurba_marseille","lat":43.3377,"lon":5.37431,"is_reserved":false,"is_disabled":false,"rental_uris":{"android":"levelo://app?vid=cb06a28b-8a43-4da4-ba10-82313cede184","ios":"levelo://app?vid=cb06a28b-8a43-4da4-ba10-82313cede184"},"vehicle_type_id":"4","last_reported":1720112874,"current_range_meters":7600,"station_id":"","pricing_plan_id":"cebpf4jnsgd1na2vs0mg"},{"bike_id":"254d450a-1a06-4b88-baa3-37111a79ed68","system_id":"levelo_inurba_marseille","lat":43.33767,"lon":5.3745,"is_reserved":false,"is_disabled":false,"rental_uris":{"android":"levelo://app?vid=254d450a-1a06-4b88-baa3-37111a79ed68","ios":"levelo://app?vid=254d450a-1a06-4b88-baa3-37111a79ed68"},"vehicle_type_id":"4","last_reported":1720112874,"current_range_meters":28800,"station_id":"","pricing_plan_id":"cebpf4jnsgd1na2vs0mg"},{"bike_id":"beddaf1e-8c1d-4a71-9b52-48a794b30e3c","system_id":"levelo_inurba_marseille","lat":43.33768,"lon":5.37445,"is_reserved":false,"is_disabled":false,"rental_uris":{"android":"levelo://app?vid=beddaf1e-8c1d-4a71-9b52-48a794b30e3c","ios":"levelo://app?vid=beddaf1e-8c1d-4a71-9b52-48a794b30e3c"},"vehicle_type_id":"4","last_reported":1720112874,"current_range_meters":29600,"station_id":"","pricing_plan_id":"cebpf4jnsgd1na2vs0mg"},{"bike_id":"06fd049a-534a-450f-9aca-4c0f36b464bb","system_id":"levelo_inurba_marseille","lat":43.306412,"lon":5.401035,"is_reserved":false,"is_disabled":false,"rental_uris":{"android":"levelo://app?vid=06fd049a-534a-450f-9aca-4c0f36b464bb","ios":"levelo://app?vid=06fd049a-534a-450f-9aca-4c0f36b464bb"},"vehicle_type_id":"4","last_reported":1720112874,"current_range_meters":19200,"station_id":"ce4bh112rcd13ifvqda0","pricing_plan_id":"cebpf4jnsgd1na2vs0mg"},{"bike_id":"bd708975-e7a8-443c-a9ca-0740216a1dbb","system_id":"levelo_inurba_marseille","lat":43.3377,"lon":5.374353,"is_reserved":false,"is_disabled":false,"rental_uris":{"android":"levelo://app?vid=bd708975-e7a8-443c-a9ca-0740216a1dbb","ios":"levelo://app?vid=bd708975-e7a8-443c-a9ca-0740216a1dbb"},"vehicle_type_id":"4","last_reported":1720112874,"current_range_meters":28000,"station_id":"","pricing_plan_id":"cebpf4jnsgd1na2vs0mg"},{"bike_id":"c5b8a15c-beee-4e49-a1f8-75c22c4db605","system_id":"levelo_inurba_marseille","lat":43.337687,"lon":5.374463,"is_reserved":false,"is_disabled":false,"rental_uris":{"android":"levelo://app?vid=c5b8a15c-beee-4e49-a1f8-75c22c4db605","ios":"levelo://app?vid=c5b8a15c-beee-4e49-a1f8-75c22c4db605"},"vehicle_type_id":"4","last_reported":1720112874,"current_range_meters":29600,"station_id":"","pricing_plan_id":"cebpf4jnsgd1na2vs0mg"},{"bike_id":"deeaed9d-9157-429e-8fd5-1f59df7a2918","system_id":"levelo_inurba_marseille","lat":43.33771,"lon":5.37432,"is_reserved":false,"is_disabled":false,"rental_uris":{"android":"levelo://app?vid=deeaed9d-9157-429e-8fd5-1f59df7a2918","ios":"levelo://app?vid=deeaed9d-9157-429e-8fd5-1f59df7a2918"},"vehicle_type_id":"4","last_reported":1720112874,"current_range_meters":19600,"station_id":"","pricing_plan_id":"cebpf4jnsgd1na2vs0mg"},{"bike_id":"a565c61d-86a4-4516-be57-317b5aba22a6","system_id":"levelo_inurba_marseille","lat":43.337697,"lon":5.374413,"is_reserved":false,"is_disabled":false,"rental_uris":{"android":"levelo://app?vid=a565c61d-86a4-4516-be57-317b5aba22a6","ios":"levelo://app?vid=a565c61d-86a4-4516-be57-317b5aba22a6"},"vehicle_type_id":"4","last_reported":1720112874,"current_range_meters":16800,"station_id":"","pricing_plan_id":"cebpf4jnsgd1na2vs0mg"},{"bike_id":"d8b1e2be-dced-4fc9-9de1-299d47ee0a02","system_id":"levelo_inurba_marseille","lat":43.33772,"lon":5.37428,"is_reserved":false,"is_disabled":false,"rental_uris":{"android":"levelo://app?vid=d8b1e2be-dced-4fc9-9de1-299d47ee0a02","ios":"levelo://app?vid=d8b1e2be-dced-4fc9-9de1-299d47ee0a02"},"vehicle_type_id":"4","last_reported":1720112874,"current_range_meters":31200,"station_id":"","pricing_plan_id":"cebpf4jnsgd1na2vs0mg"},{"bike_id":"71aae6dd-ee5f-43f5-b5a1-fe8f1fe7d92e","system_id":"levelo_inurba_marseille","lat":43.30642,"lon":5.401031,"is_reserved":false,"is_disabled":false,"rental_uris":{"android":"levelo://app?vid=71aae6dd-ee5f-43f5-b5a1-fe8f1fe7d92e","ios":"levelo://app?vid=71aae6dd-ee5f-43f5-b5a1-fe8f1fe7d92e"},"vehicle_type_id":"4","last_reported":1720112874,"current_range_meters":9600,"station_id":"ce4bh112rcd13ifvqda0","pricing_plan_id":"cebpf4jnsgd1na2vs0mg"},{"bike_id":"8d5e6798-bce0-44aa-99fe-2af5d56d9d6c","system_id":"levelo_inurba_marseille","lat":43.33772,"lon":5.37448,"is_reserved":false,"is_disabled":false,"rental_uris":{"android":"levelo://app?vid=8d5e6798-bce0-44aa-99fe-2af5d56d9d6c","ios":"levelo://app?vid=8d5e6798-bce0-44aa-99fe-2af5d56d9d6c"},"vehicle_type_id":"4","last_reported":1720112874,"current_range_meters":14400,"station_id":"","pricing_plan_id":"cebpf4jnsgd1na2vs0mg"},{"bike_id":"5ba55efb-39fb-4843-966f-6c1f73b56bd7","system_id":"levelo_inurba_marseille","lat":43.306412,"lon":5.401035,"is_reserved":false,"is_disabled":false,"rental_uris":{"android":"levelo://app?vid=5ba55efb-39fb-4843-966f-6c1f73b56bd7","ios":"levelo://app?vid=5ba55efb-39fb-4843-966f-6c1f73b56bd7"},"vehicle_type_id":"4","last_reported":1720112874,"current_range_meters":0,"station_id":"ce4bh112rcd13ifvqda0","pricing_plan_id":"cebpf4jnsgd1na2vs0mg"},{"bike_id":"8c52e61c-878d-4b9e-9d7d-4575088b9d1c","system_id":"levelo_inurba_marseille","lat":43.306412,"lon":5.401035,"is_reserved":false,"is_disabled":false,"rental_uris":{"android":"levelo://app?vid=8c52e61c-878d-4b9e-9d7d-4575088b9d1c","ios":"levelo://app?vid=8c52e61c-878d-4b9e-9d7d-4575088b9d1c"},"vehicle_type_id":"4","last_reported":1720112874,"current_range_meters":18000,"station_id":"ce4bh112rcd13ifvqda0","pricing_plan_id":"cebpf4jnsgd1na2vs0mg"},{"bike_id":"65b879fa-7f09-40a9-bbe1-a637cdea45ff","system_id":"levelo_inurba_marseille","lat":43.33777,"lon":5.37441,"is_reserved":false,"is_disabled":false,"rental_uris":{"android":"levelo://app?vid=65b879fa-7f09-40a9-bbe1-a637cdea45ff","ios":"levelo://app?vid=65b879fa-7f09-40a9-bbe1-a637cdea45ff"},"vehicle_type_id":"4","last_reported":1720112874,"current_range_meters":18000,"station_id":"","pricing_plan_id":"cebpf4jnsgd1na2vs0mg"},{"bike_id":"dfb8b2a3-8d2f-43be-80c4-1d13ad7450c9","system_id":"levelo_inurba_marseille","lat":43.33775,"lon":5.374537,"is_reserved":false,"is_disabled":false,"rental_uris":{"android":"levelo://app?vid=dfb8b2a3-8d2f-43be-80c4-1d13ad7450c9","ios":"levelo://app?vid=dfb8b2a3-8d2f-43be-80c4-1d13ad7450c9"},"vehicle_type_id":"4","last_reported":1720112874,"current_range_meters":25200,"station_id":"","pricing_plan_id":"cebpf4jnsgd1na2vs0mg"},{"bike_id":"c7d507b1-24d8-4a70-b848-8fa2e74c8d33","system_id":"levelo_inurba_marseille","lat":43.301117,"lon":5.398795,"is_reserved":false,"is_disabled":false,"rental_uris":{"android":"levelo://app?vid=c7d507b1-24d8-4a70-b848-8fa2e74c8d33","ios":"levelo://app?vid=c7d507b1-24d8-4a70-b848-8fa2e74c8d33"},"vehicle_type_id":"4","last_reported":1720112874,"current_range_meters":11600,"station_id":"ce4bh0h2rcd13ifvqd40","pricing_plan_id":"cebpf4jnsgd1na2vs0mg"},{"bike_id":"76b2845d-7790-40d0-a15e-caa06cc0fa12","system_id":"levelo_inurba_marseille","lat":43.3378,"lon":5.37442,"is_reserved":false,"is_disabled":false,"rental_uris":{"android":"levelo://app?vid=76b2845d-7790-40d0-a15e-caa06cc0fa12","ios":"levelo://app?vid=76b2845d-7790-40d0-a15e-caa06cc0fa12"},"vehicle_type_id":"4","last_reported":1720112874,"current_range_meters":26800,"station_id":"","pricing_plan_id":"cebpf4jnsgd1na2vs0mg"},{"bike_id":"f4783e47-f4b0-4238-ad62-aa45b92b0ef2","system_id":"levelo_inurba_marseille","lat":43.33786,"lon":5.37435,"is_reserved":false,"is_disabled":false,"rental_uris":{"android":"levelo://app?vid=f4783e47-f4b0-4238-ad62-aa45b92b0ef2","ios":"levelo://app?vid=f4783e47-f4b0-4238-ad62-aa45b92b0ef2"},"vehicle_type_id":"4","last_reported":1720112874,"current_range_meters":29200,"station_id":"","pricing_plan_id":"cebpf4jnsgd1na2vs0mg"},{"bike_id":"c949c5e6-9a6b-4387-bbc4-4da6fa420227","system_id":"levelo_inurba_marseille","lat":43.33788,"lon":5.37445,"is_reserved":false,"is_disabled":false,"rental_uris":{"android":"levelo://app?vid=c949c5e6-9a6b-4387-bbc4-4da6fa420227","ios":"levelo://app?vid=c949c5e6-9a6b-4387-bbc4-4da6fa420227"},"vehicle_type_id":"4","last_reported":1720112874,"current_range_meters":27200,"station_id":"","pricing_plan_id":"cebpf4jnsgd1na2vs0mg"},{"bike_id":"239566d9-f35f-4ef7-941a-056057084c35","system_id":"levelo_inurba_marseille","lat":43.33801,"lon":5.37434,"is_reserved":false,"is_disabled":false,"rental_uris":{"android":"levelo://app?vid=239566d9-f35f-4ef7-941a-056057084c35","ios":"levelo://app?vid=239566d9-f35f-4ef7-941a-056057084c35"},"vehicle_type_id":"4","last_reported":1720112874,"current_range_meters":30800,"station_id":"","pricing_plan_id":"cebpf4jnsgd1na2vs0mg"},{"bike_id":"ebe66dce-b6ac-4b5f-8d9b-808ef9e6cafb","system_id":"levelo_inurba_marseille","lat":43.28727,"lon":5.36078,"is_reserved":false,"is_disabled":false,"rental_uris":{"android":"levelo://app?vid=ebe66dce-b6ac-4b5f-8d9b-808ef9e6cafb","ios":"levelo://app?vid=ebe66dce-b6ac-4b5f-8d9b-808ef9e6cafb"},"vehicle_type_id":"4","last_reported":1720112874,"current_range_meters":19200,"station_id":"cki0cbj6b192h4jlfktg","pricing_plan_id":"cebpf4jnsgd1na2vs0mg"},{"bike_id":"0f2eeb7e-555d-489d-bf94-76b67d1cf263","system_id":"levelo_inurba_marseille","lat":43.29155,"lon":5.38762,"is_reserved":false,"is_disabled":false,"rental_uris":{"android":"levelo://app?vid=0f2eeb7e-555d-489d-bf94-76b67d1cf263","ios":"levelo://app?vid=0f2eeb7e-555d-489d-bf94-76b67d1cf263"},"vehicle_type_id":"4","last_reported":1720112874,"current_range_meters":22000,"station_id":"","pricing_plan_id":"cebpf4jnsgd1na2vs0mg"},{"bike_id":"6be76e23-c675-450d-8b1a-aec7c78edcde","system_id":"levelo_inurba_marseille","lat":43.298681,"lon":5.397225,"is_reserved":false,"is_disabled":false,"rental_uris":{"android":"levelo://app?vid=6be76e23-c675-450d-8b1a-aec7c78edcde","ios":"levelo://app?vid=6be76e23-c675-450d-8b1a-aec7c78edcde"},"vehicle_type_id":"4","last_reported":1720112874,"current_range_meters":18000,"station_id":"ce4bh0h2rcd13ifvqd50","pricing_plan_id":"cebpf4jnsgd1na2vs0mg"},{"bike_id":"ef818da1-4546-4b95-9828-38e787015680","system_id":"levelo_inurba_marseille","lat":43.298681,"lon":5.397225,"is_reserved":false,"is_disabled":false,"rental_uris":{"android":"levelo://app?vid=ef818da1-4546-4b95-9828-38e787015680","ios":"levelo://app?vid=ef818da1-4546-4b95-9828-38e787015680"},"vehicle_type_id":"4","last_reported":1720112874,"current_range_meters":24000,"station_id":"ce4bh0h2rcd13ifvqd50","pricing_plan_id":"cebpf4jnsgd1na2vs0mg"},{"bike_id":"2d449a35-8dbb-4c0e-8a9a-e9c01b6dde1a","system_id":"levelo_inurba_marseille","lat":43.286593,"lon":5.363346,"is_reserved":false,"is_disabled":false,"rental_uris":{"android":"levelo://app?vid=2d449a35-8dbb-4c0e-8a9a-e9c01b6dde1a","ios":"levelo://app?vid=2d449a35-8dbb-4c0e-8a9a-e9c01b6dde1a"},"vehicle_type_id":"4","last_reported":1720112874,"current_range_meters":0,"station_id":"ce4bhah2rcd13ifvqej0","pricing_plan_id":"cebpf4jnsgd1na2vs0mg"},{"bike_id":"ba967392-3d1d-4eba-9b9d-454bd74a16f9","system_id":"levelo_inurba_marseille","lat":43.295194,"lon":5.39397,"is_reserved":false,"is_disabled":false,"rental_uris":{"android":"levelo://app?vid=ba967392-3d1d-4eba-9b9d-454bd74a16f9","ios":"levelo://app?vid=ba967392-3d1d-4eba-9b9d-454bd74a16f9"},"vehicle_type_id":"4","last_reported":1720112874,"current_range_meters":8000,"station_id":"ce4bh292rcd13ifvqdf0","pricing_plan_id":"cebpf4jnsgd1na2vs0mg"},{"bike_id":"77ac1e89-f3e8-4834-90be-9600a2d58a42","system_id":"levelo_inurba_marseille","lat":43.286961,"lon":5.373785,"is_reserved":false,"is_disabled":false,"rental_uris":{"android":"levelo://app?vid=77ac1e89-f3e8-4834-90be-9600a2d58a42","ios":"levelo://app?vid=77ac1e89-f3e8-4834-90be-9600a2d58a42"},"vehicle_type_id":"4","last_reported":1720112874,"current_range_meters":0,"station_id":"ce4bh3p2rcd13ifvqdq0","pricing_plan_id":"cebpf4jnsgd1na2vs0mg"},{"bike_id":"5fdda7b7-257b-40ea-859d-8f5b7f49124f","system_id":"levelo_inurba_marseille","lat":43.295196,"lon":5.39397,"is_reserved":false,"is_disabled":false,"rental_uris":{"android":"levelo://app?vid=5fdda7b7-257b-40ea-859d-8f5b7f49124f","ios":"levelo://app?vid=5fdda7b7-257b-40ea-859d-8f5b7f49124f"},"vehicle_type_id":"4","last_reported":1720112874,"current_range_meters":800,"station_id":"ce4bh292rcd13ifvqdf0","pricing_plan_id":"cebpf4jnsgd1na2vs0mg"},{"bike_id":"c825d903-91bb-4fe0-8b93-9d261695978e","system_id":"levelo_inurba_marseille","lat":43.286961,"lon":5.373785,"is_reserved":false,"is_disabled":false,"rental_uris":{"android":"levelo://app?vid=c825d903-91bb-4fe0-8b93-9d261695978e","ios":"levelo://app?vid=c825d903-91bb-4fe0-8b93-9d261695978e"},"vehicle_type_id":"4","last_reported":1720112874,"current_range_meters":19200,"station_id":"ce4bh3p2rcd13ifvqdq0","pricing_plan_id":"cebpf4jnsgd1na2vs0mg"},{"bike_id":"56477b00-1622-40c7-9943-926cafbc3878","system_id":"levelo_inurba_marseille","lat":43.286961,"lon":5.373785,"is_reserved":false,"is_disabled":false,"rental_uris":{"android":"levelo://app?vid=56477b00-1622-40c7-9943-926cafbc3878","ios":"levelo://app?vid=56477b00-1622-40c7-9943-926cafbc3878"},"vehicle_type_id":"4","last_reported":1720112874,"current_range_meters":6000,"station_id":"ce4bh3p2rcd13ifvqdq0","pricing_plan_id":"cebpf4jnsgd1na2vs0mg"},{"bike_id":"d871226c-9b94-4d3a-a82c-9311b12559f9","system_id":"levelo_inurba_marseille","lat":43.286961,"lon":5.373785,"is_reserved":false,"is_disabled":false,"rental_uris":{"android":"levelo://app?vid=d871226c-9b94-4d3a-a82c-9311b12559f9","ios":"levelo://app?vid=d871226c-9b94-4d3a-a82c-9311b12559f9"},"vehicle_type_id":"4","last_reported":1720112874,"current_range_meters":17200,"station_id":"ce4bh3p2rcd13ifvqdq0","pricing_plan_id":"cebpf4jnsgd1na2vs0mg"},{"bike_id":"653666b7-3368-4a81-bc3e-2bde03555b62","system_id":"levelo_inurba_marseille","lat":43.286961,"lon":5.373785,"is_reserved":false,"is_disabled":false,"rental_uris":{"android":"levelo://app?vid=653666b7-3368-4a81-bc3e-2bde03555b62","ios":"levelo://app?vid=653666b7-3368-4a81-bc3e-2bde03555b62"},"vehicle_type_id":"4","last_reported":1720112874,"current_range_meters":0,"station_id":"ce4bh3p2rcd13ifvqdq0","pricing_plan_id":"cebpf4jnsgd1na2vs0mg"},{"bike_id":"b65bb548-c136-4f43-9dc7-ba7f8f2d2958","system_id":"levelo_inurba_marseille","lat":43.295196,"lon":5.39397,"is_reserved":false,"is_disabled":false,"rental_uris":{"android":"levelo://app?vid=b65bb548-c136-4f43-9dc7-ba7f8f2d2958","ios":"levelo://app?vid=b65bb548-c136-4f43-9dc7-ba7f8f2d2958"},"vehicle_type_id":"4","last_reported":1720112874,"current_range_meters":2800,"station_id":"ce4bh292rcd13ifvqdf0","pricing_plan_id":"cebpf4jnsgd1na2vs0mg"},{"bike_id":"3d2f485f-6f8c-4956-8598-2304a3eb7839","system_id":"levelo_inurba_marseille","lat":43.29522,"lon":5.39407,"is_reserved":false,"is_disabled":false,"rental_uris":{"android":"levelo://app?vid=3d2f485f-6f8c-4956-8598-2304a3eb7839","ios":"levelo://app?vid=3d2f485f-6f8c-4956-8598-2304a3eb7839"},"vehicle_type_id":"4","last_reported":1720112874,"current_range_meters":3200,"station_id":"ce4bh292rcd13ifvqdf0","pricing_plan_id":"cebpf4jnsgd1na2vs0mg"},{"bike_id":"4288f826-3cc4-47d3-ac80-e880e60b758d","system_id":"levelo_inurba_marseille","lat":43.290336,"lon":5.386425,"is_reserved":false,"is_disabled":false,"rental_uris":{"android":"levelo://app?vid=4288f826-3cc4-47d3-ac80-e880e60b758d","ios":"levelo://app?vid=4288f826-3cc4-47d3-ac80-e880e60b758d"},"vehicle_type_id":"4","last_reported":1720112874,"current_range_meters":0,"station_id":"ce4bh4p2rcd13ifvqe0g","pricing_plan_id":"cebpf4jnsgd1na2vs0mg"},{"bike_id":"64631c37-c385-4e04-b636-695f744e2ae9","system_id":"levelo_inurba_marseille","lat":43.295194,"lon":5.39397,"is_reserved":false,"is_disabled":false,"rental_uris":{"android":"levelo://app?vid=64631c37-c385-4e04-b636-695f744e2ae9","ios":"levelo://app?vid=64631c37-c385-4e04-b636-695f744e2ae9"},"vehicle_type_id":"4","last_reported":1720112874,"current_range_meters":0,"station_id":"ce4bh292rcd13ifvqdf0","pricing_plan_id":"cebpf4jnsgd1na2vs0mg"},{"bike_id":"5374b525-d8a3-4d46-923b-367ecbc6ce54","system_id":"levelo_inurba_marseille","lat":43.290336,"lon":5.386425,"is_reserved":false,"is_disabled":false,"rental_uris":{"android":"levelo://app?vid=5374b525-d8a3-4d46-923b-367ecbc6ce54","ios":"levelo://app?vid=5374b525-d8a3-4d46-923b-367ecbc6ce54"},"vehicle_type_id":"4","last_reported":1720112874,"current_range_meters":0,"station_id":"ce4bh4p2rcd13ifvqe0g","pricing_plan_id":"cebpf4jnsgd1na2vs0mg"},{"bike_id":"7050dfd8-b166-4e3d-8950-7bb91d9d543e","system_id":"levelo_inurba_marseille","lat":43.290336,"lon":5.386425,"is_reserved":false,"is_disabled":false,"rental_uris":{"android":"levelo://app?vid=7050dfd8-b166-4e3d-8950-7bb91d9d543e","ios":"levelo://app?vid=7050dfd8-b166-4e3d-8950-7bb91d9d543e"},"vehicle_type_id":"4","last_reported":1720112874,"current_range_meters":21200,"station_id":"ce4bh4p2rcd13ifvqe0g","pricing_plan_id":"cebpf4jnsgd1na2vs0mg"},