{"last_updated":1758630016,"ttl":60,"version":"2.2","data":{"bikes":[{"bike_id":"ab628ddd-b450-463f-bff3-6cf240000385","system_id":"levelo_inurba_marseille","lat":43.302774,"lon":5.392345,"is_reserved":false,"is_disabled":false,"rental_uris":{"android":"levelo://app?vid=ab628ddd-b450-463f-bff3-6cf240000385","ios":"levelo://app?vid=ab628ddd-b450-463f-bff3-6cf240000385"},"vehicle_type_id":"4","last_reported":1758630016,"current_range_meters":2800,"station_id":"ce4bgkh2rcd13ifvqbk0","pricing_plan_id":"cebpf4jnsgd1na2vs0mg"},{"bike_id":"29d18331-fd2d-4e7d-b5d2-a4ef831d2f94","system_id":"levelo_inurba_marseille","lat":43.29599,"lon":5.38103,"is_reserved":false,"is_disabled":false,"rental_uris":{"android":"levelo://app?vid=29d18331-fd2d-4e7d-b5d2-a4ef831d2f94","ios":"levelo://app?vid=29d18331-fd2d-4e7d-b5d2-a4ef831d2f94"},"vehicle_type_id":"4","last_reported":1758630016,"current_range_meters":2800,"station_id":"ce4bgl12rcd13ifvqbo0","pricing_plan_id":"cebpf4jnsgd1na2vs0mg"},{"bike_id":"200efc3f-0485-42d0-b63a-67b53a18ecf2","system_id":"levelo_inurba_marseille","lat":43.22929,"lon":5.35377,"is_reserved":false,"is_disabled":false,"rental_uris":{"android":"levelo://app?vid=200efc3f-0485-42d0-b63a-67b53a18ecf2","ios":"levelo://app?vid=200efc3f-0485-42d0-b63a-67b53a18ecf2"},"vehicle_type_id":"4","last_reported":1758630016,"current_range_meters":2800,"station_id":"cpo3532slgdg3j2ikp40","pricing_plan_id":"cebpf4jnsgd1na2vs0mg"},{"bike_id":"ac71d570-5910-4427-af02-e0d4921b67dc","system_id":"levelo_inurba_marseille","lat":43.29038,"lon":5.37556,"is_reserved":false,"is_disabled":false,"rental_uris":{"android":"levelo://app?vid=ac71d570-5910-4427-af02-e0d4921b67dc","ios":"levelo://app?vid=ac71d570-5910-4427-af02-e0d4921b67dc"},"vehicle_type_id":"4","last_reported":1758630016,"current_range_meters":3200,"station_id":"ce4bh692rcd13ifvqe90","pricing_plan_id":"cebpf4jnsgd1na2vs0mg"},{"bike_id":"e4405f42-3608-4636-b419-04b11e4bed5a","system_id":"levelo_inurba_marseille","lat":43.2962,"lon":5.36703,"is_reserved":false,"is_disabled":false,"rental_uris":{"android":"levelo://app?vid=e4405f42-3608-4636-b419-04b11e4bed5a","ios":"levelo://app?vid=e4405f42-3608-4636-b419-04b11e4bed5a"},"vehicle_type_id":"4","last_reported":1758630016,"current_range_meters":3200,"station_id":"ce4bgph2rcd13ifvqc2g","pricing_plan_id":"cebpf4jnsgd1na2vs0mg"},{"bike_id":"75060fa6-de0d-4045-9369-d2bb5b7b81fa","system_id":"levelo_inurba_marseille","lat":43.29258,"lon":5.38431,"is_reserved":false,"is_disabled":false,"rental_uris":{"android":"levelo://app?vid=75060fa6-de0d-4045-9369-d2bb5b7b81fa","ios":"levelo://app?vid=75060fa6-de0d-4045-9369-d2bb5b7b81fa"},"vehicle_type_id":"4","last_reported":1758630016,"current_range_meters":3200,"station_id":"ce4bh692rcd13ifvqea0","pricing_plan_id":"cebpf4jnsgd1na2vs0mg"},{"bike_id":"8d9f5ffb-dc95-4c8d-867f-db1f5fb0afd2","system_id":"levelo_inurba_marseille","lat":43.29989,"lon":5.38495,"is_reserved":false,"is_disabled":false,"rental_uris":{"android":"levelo://app?vid=8d9f5ffb-dc95-4c8d-867f-db1f5fb0afd2","ios":"levelo://app?vid=8d9f5ffb-dc95-4c8d-867f-db1f5fb0afd2"},"vehicle_type_id":"4","last_reported":1758630016,"current_range_meters":3600,"station_id":"ce4bgj92rcd13ifvqbd0","pricing_plan_id":"cebpf4jnsgd1na2vs0mg"},{"bike_id":"32dd6415-4795-4872-b2b8-7318f2c3486c","system_id":"levelo_inurba_marseille","lat":43.28677,"lon":5.3867,"is_reserved":false,"is_disabled":false,"rental_uris":{"android":"levelo://app?vid=32dd6415-4795-4872-b2b8-7318f2c3486c","ios":"levelo://app?vid=32dd6415-4795-4872-b2b8-7318f2c3486c"},"vehicle_type_id":"4","last_reported":1758630016,"current_range_meters":3600,"station_id":"ce4bh492rcd13ifvqdug","pricing_plan_id":"cebpf4jnsgd1na2vs0mg"},{"bike_id":"eeff14b3-b804-4024-9af4-517717f19131","system_id":"levelo_inurba_marseille","lat":43.30944,"lon":5.40151,"is_reserved":false,"is_disabled":false,"rental_uris":{"android":"levelo://app?vid=eeff14b3-b804-4024-9af4-517717f19131","ios":"levelo://app?vid=eeff14b3-b804-4024-9af4-517717f19131"},"vehicle_type_id":"4","last_reported":1758630016,"current_range_meters":3200,"station_id":"ce4bgvp2rcd13ifvqct0","pricing_plan_id":"cebpf4jnsgd1na2vs0mg"},{"bike_id":"f828f7e1-b97a-4d68-b7b3-48c2642e17f3","system_id":"levelo_inurba_marseille","lat":43.28435,"lon":5.39197,"is_reserved":false,"is_disabled":false,"rental_uris":{"android":"levelo://app?vid=f828f7e1-b97a-4d68-b7b3-48c2642e17f3","ios":"levelo://app?vid=f828f7e1-b97a-4d68-b7b3-48c2642e17f3"},"vehicle_type_id":"4","last_reported":1758630016,"current_range_meters":3600,"station_id":"ce4bhoh2rcd13ifvqh5g","pricing_plan_id":"cebpf4jnsgd1na2vs0mg"},{"bike_id":"922e7484-6e53-4b8d-8a95-cf9f5390d601","system_id":"levelo_inurba_marseille","lat":43.21194,"lon":5.35061,"is_reserved":false,"is_disabled":false,"rental_uris":{"android":"levelo://app?vid=922e7484-6e53-4b8d-8a95-cf9f5390d601","ios":"levelo://app?vid=922e7484-6e53-4b8d-8a95-cf9f5390d601"},"vehicle_type_id":"4","last_reported":1758630016,"current_range_meters":3600,"station_id":"st_cvj6sg6p6f1abm77japg","pricing_plan_id":"cebpf4jnsgd1na2vs0mg"},{"bike_id":"72df89cb-7746-46e6-b269-fbddd2d473fe","system_id":"levelo_inurba_marseille","lat":43.32135,"lon":5.36745,"is_reserved":false,"is_disabled":false,"rental_uris":{"android":"levelo://app?vid=72df89cb-7746-46e6-b269-fbddd2d473fe","ios":"levelo://app?vid=72df89cb-7746-46e6-b269-fbddd2d473fe"},"vehicle_type_id":"4","last_reported":1758630016,"current_range_meters":3600,"station_id":"ce4bhrh2rcd13ifvqhug","pricing_plan_id":"cebpf4jnsgd1na2vs0mg"},{"bike_id":"0085988b-feea-41af-a9a4-4cda7db3656d","system_id":"levelo_inurba_marseille","lat":43.21195,"lon":5.35067,"is_reserved":false,"is_disabled":false,"rental_uris":{"android":"levelo://app?vid=0085988b-feea-41af-a9a4-4cda7db3656d","ios":"levelo://app?vid=0085988b-feea-41af-a9a4-4cda7db3656d"},"vehicle_type_id":"4","last_reported":1758630016,"current_range_meters":3600,"station_id":"st_cvj6sg6p6f1abm77japg","pricing_plan_id":"cebpf4jnsgd1na2vs0mg"},{"bike_id":"f3449d16-904c-4fd3-8bf1-c83b914ee8cd","system_id":"levelo_inurba_marseille","lat":43.28355,"lon":5.38099,"is_reserved":false,"is_disabled":false,"rental_uris":{"android":"levelo://app?vid=f3449d16-904c-4fd3-8bf1-c83b914ee8cd","ios":"levelo://app?vid=f3449d16-904c-4fd3-8bf1-c83b914ee8cd"},"vehicle_type_id":"4","last_reported":1758630016,"current_range_meters":4000,"station_id":"ce4bh412rcd13ifvqdr0","pricing_plan_id":"cebpf4jnsgd1na2vs0mg"},{"bike_id":"e0b60429-a100-4ba1-b3af-953ef0e0b57e","system_id":"levelo_inurba_marseille","lat":43.2903,"lon":5.38139,"is_reserved":false,"is_disabled":false,"rental_uris":{"android":"levelo://app?vid=e0b60429-a100-4ba1-b3af-953ef0e0b57e","ios":"levelo://app?vid=e0b60429-a100-4ba1-b3af-953ef0e0b57e"},"vehicle_type_id":"4","last_reported":1758630016,"current_range_meters":4000,"station_id":"ce4bh4p2rcd13ifvqe1g","pricing_plan_id":"cebpf4jnsgd1na2vs0mg"},{"bike_id":"edf03771-bc1c-44c2-a866-d84b2d8df70c","system_id":"levelo_inurba_marseille","lat":43.31067,"lon":5.3836,"is_reserved":false,"is_disabled":false,"rental_uris":{"android":"levelo://app?vid=edf03771-bc1c-44c2-a866-d84b2d8df70c","ios":"levelo://app?vid=edf03771-bc1c-44c2-a866-d84b2d8df70c"},"vehicle_type_id":"4","last_reported":1758630016,"current_range_meters":4000,"station_id":"ce4bgv92rcd13ifvqcr0","pricing_plan_id":"cebpf4jnsgd1na2vs0mg"},{"bike_id":"1b790372-5d34-489f-a29a-5f2319ad70e0","system_id":"levelo_inurba_marseille","lat":43.28261,"lon":5.35048,"is_reserved":false,"is_disabled":true,"rental_uris":{"android":"levelo://app?vid=1b790372-5d34-489f-a29a-5f2319ad70e0","ios":"levelo://app?vid=1b790372-5d34-489f-a29a-5f2319ad70e0"},"vehicle_type_id":"4","last_reported":1758630016,"current_range_meters":4000,"station_id":"ce4bhbp2rcd13ifvqerg","pricing_plan_id":"cebpf4jnsgd1na2vs0mg"},{"bike_id":"729a6b8f-5f5b-457f-95e1-bbd1c76d5149","system_id":"levelo_inurba_marseille","lat":43.31344,"lon":5.3672,"is_reserved":false,"is_disabled":false,"rental_uris":{"android":"levelo://app?vid=729a6b8f-5f5b-457f-95e1-bbd1c76d5149","ios":"levelo://app?vid=729a6b8f-5f5b-457f-95e1-bbd1c76d5149"},"vehicle_type_id":"4","last_reported":1758630016,"current_range_meters":4000,"station_id":"ce4bgr92rcd13ifvqc6g","pricing_plan_id":"cebpf4jnsgd1na2vs0mg"},{"bike_id":"25d05286-867f-4974-a608-07e03c5c0b96","system_id":"levelo_inurba_marseille","lat":43.30534,"lon":5.38432,"is_reserved":false,"is_disabled":false,"rental_uris":{"android":"levelo://app?vid=25d05286-867f-4974-a608-07e03c5c0b96","ios":"levelo://app?vid=25d05286-867f-4974-a608-07e03c5c0b96"},"vehicle_type_id":"4","last_reported":1758630016,"current_range_meters":4000,"station_id":"ce4bgg92rcd13ifvqb30","pricing_plan_id":"cebpf4jnsgd1na2vs0mg"},{"bike_id":"05977a29-4492-4e42-b026-696e72e1cc93","system_id":"levelo_inurba_marseille","lat":43.28228,"lon":5.37256,"is_reserved":false,"is_disabled":false,"rental_uris":{"android":"levelo://app?vid=05977a29-4492-4e42-b026-696e72e1cc93","ios":"levelo://app?vid=05977a29-4492-4e42-b026-696e72e1cc93"},"vehicle_type_id":"4","last_reported":1758630016,"current_range_meters":4400,"station_id":"","pricing_plan_id":"cebpf4jnsgd1na2vs0mg"},{"bike_id":"d45b699c-9f5b-4654-b1c2-ecdec9061bb4","system_id":"levelo_inurba_marseille","lat":43.2721,"lon":5.39185,"is_reserved":false,"is_disabled":false,"rental_uris":{"android":"levelo://app?vid=d45b699c-9f5b-4654-b1c2-ecdec9061bb4","ios":"levelo://app?vid=d45b699c-9f5b-4654-b1c2-ecdec9061bb4"},"vehicle_type_id":"4","last_reported":1758630016,"current_range_meters":4400,"station_id":"ce4bhhp2rcd13ifvqfm0","pricing_plan_id":"cebpf4jnsgd1na2vs0mg"},{"bike_id":"071eba3f-03d9-4496-bbb4-ef175d240ac4","system_id":"levelo_inurba_marseille","lat":43.3237,"lon":5.38887,"is_reserved":false,"is_disabled":false,"rental_uris":{"android":"levelo://app?vid=071eba3f-03d9-4496-bbb4-ef175d240ac4","ios":"levelo://app?vid=071eba3f-03d9-4496-bbb4-ef175d240ac4"},"vehicle_type_id":"4","last_reported":1758630016,"current_range_meters":4400,"station_id":"ce4bhqp2rcd13ifvqhog","pricing_plan_id":"cebpf4jnsgd1na2vs0mg"},{"bike_id":"54502de0-09ba-43cd-a1f2-9f84e6e6c1cb","system_id":"levelo_inurba_marseille","lat":43.290149,"lon":5.381283,"is_reserved":false,"is_disabled":false,"rental_uris":{"android":"levelo://app?vid=54502de0-09ba-43cd-a1f2-9f84e6e6c1cb","ios":"levelo://app?vid=54502de0-09ba-43cd-a1f2-9f84e6e6c1cb"},"vehicle_type_id":"4","last_reported":1758630016,"current_range_meters":4400,"station_id":"","pricing_plan_id":"cebpf4jnsgd1na2vs0mg"},{"bike_id":"a0c7ba0a-e565-4795-bb09-4f43b4223e9f","system_id":"levelo_inurba_marseille","lat":43.29367,"lon":5.37851,"is_reserved":false,"is_disabled":false,"rental_uris":{"android":"levelo://app?vid=a0c7ba0a-e565-4795-bb09-4f43b4223e9f","ios":"levelo://app?vid=a0c7ba0a-e565-4795-bb09-4f43b4223e9f"},"vehicle_type_id":"4","last_reported":1758630016,"current_range_meters":4400,"station_id":"ce4bgjh2rcd13ifvqbf0","pricing_plan_id":"cebpf4jnsgd1na2vs0mg"},{"bike_id":"7d804cbb-23f8-4c08-983b-bcfeb8cddfe6","system_id":"levelo_inurba_marseille","lat":43.29985,"lon":5.37179,"is_reserved":false,"is_disabled":false,"rental_uris":{"android":"levelo://app?vid=7d804cbb-23f8-4c08-983b-bcfeb8cddfe6","ios":"levelo://app?vid=7d804cbb-23f8-4c08-983b-bcfeb8cddfe6"},"vehicle_type_id":"4","last_reported":1758630016,"current_range_meters":4400,"station_id":"ce4bgr92rcd13ifvqc7g","pricing_plan_id":"cebpf4jnsgd1na2vs0mg"},{"bike_id":"fdf8df6f-c8f1-4687-b1d7-39aa28972f03","system_id":"levelo_inurba_marseille","lat":43.29042,"lon":5.39964,"is_reserved":false,"is_disabled":false,"rental_uris":{"android":"levelo://app?vid=fdf8df6f-c8f1-4687-b1d7-39aa28972f03","ios":"levelo://app?vid=fdf8df6f-c8f1-4687-b1d7-39aa28972f03"},"vehicle_type_id":"4","last_reported":1758630016,"current_range_meters":4800,"station_id":"ce4bh392rcd13ifvqdm0","pricing_plan_id":"cebpf4jnsgd1na2vs0mg"},{"bike_id":"2ecaf6f2-972b-4a8b-bc95-7c44817f18c1","system_id":"levelo_inurba_marseille","lat":43.24185,"lon":5.39733,"is_reserved":false,"is_disabled":false,"rental_uris":{"android":"levelo://app?vid=2ecaf6f2-972b-4a8b-bc95-7c44817f18c1","ios":"levelo://app?vid=2ecaf6f2-972b-4a8b-bc95-7c44817f18c1"},"vehicle_type_id":"4","last_reported":1758630016,"current_range_meters":4800,"station_id":"ce4bhn12rcd13ifvqgpg","pricing_plan_id":"cebpf4jnsgd1na2vs0mg"},{"bike_id":"bbbf7ffa-79d1-4857-a540-4cb3b35c9781","system_id":"levelo_inurba_marseille","lat":43.29036,"lon":5.38153,"is_reserved":false,"is_disabled":false,"rental_uris":{"android":"levelo://app?vid=bbbf7ffa-79d1-4857-a540-4cb3b35c9781","ios":"levelo://app?vid=bbbf7ffa-79d1-4857-a540-4cb3b35c9781"},"vehicle_type_id":"4","last_reported":1758630016,"current_range_meters":4800,"station_id":"ce4bh4p2rcd13ifvqe1g","pricing_plan_id":"cebpf4jnsgd1na2vs0mg"},{"bike_id":"e3bf99e3-9558-41b1-8d69-e1d063a3020a","system_id":"levelo_inurba_marseille","lat":43.30538,"lon":5.3656,"is_reserved":false,"is_disabled":false,"rental_uris":{"android":"levelo://app?vid=e3bf99e3-9558-41b1-8d69-e1d063a3020a","ios":"levelo://app?vid=e3bf99e3-9558-41b1-8d69-e1d063a3020a"},"vehicle_type_id":"4","last_reported":1758630016,"current_range_meters":4800,"station_id":"ce4bgs12rcd13ifvqcag","pricing_plan_id":"cebpf4jnsgd1na2vs0mg"},{"bike_id":"1f9afba9-6fb4-4813-933c-1ce19f6c2120","system_id":"levelo_inurba_marseille","lat":43.28415,"lon":5.37513,"is_reserved":false,"is_disabled":false,"rental_uris":{"android":"levelo://app?vid=1f9afba9-6fb4-4813-933c-1ce19f6c2120","ios":"levelo://app?vid=1f9afba9-6fb4-4813-933c-1ce19f6c2120"},"vehicle_type_id":"4","last_reported":1758630016,"current_range_meters":4800,"station_id":"ce4bh412rcd13ifvqds0","pricing_plan_id":"cebpf4jnsgd1na2vs0mg"},{"bike_id":"db039eb9-8741-4ce0-a73f-f380b76fdb17","system_id":"levelo_inurba_marseille","lat":43.26559,"lon":5.37285,"is_reserved":false,"is_disabled":false,"rental_uris":{"android":"levelo://app?vid=db039eb9-8741-4ce0-a73f-f380b76fdb17","ios":"levelo://app?vid=db039eb9-8741-4ce0-a73f-f380b76fdb17"},"vehicle_type_id":"4","last_reported":1758630016,"current_range_meters":4800,"station_id":"ce4bhg12rcd13ifvqf70","pricing_plan_id":"cebpf4jnsgd1na2vs0mg"},{"bike_id":"9176512c-2cc1-4df2-a8e0-6be514fbcdbf","system_id":"levelo_inurba_marseille","lat":43.33748,"lon":5.37465,"is_reserved":false,"is_disabled":false,"rental_uris":{"android":"levelo://app?vid=9176512c-2cc1-4df2-a8e0-6be514fbcdbf","ios":"levelo://app?vid=9176512c-2cc1-4df2-a8e0-6be514fbcdbf"},"vehicle_type_id":"4","last_reported":1758630016,"current_range_meters":5600,"station_id":"","pricing_plan_id":"cebpf4jnsgd1na2vs0mg"},{"bike_id":"e89b4882-a351-4193-9d47-f6479514a644","system_id":"levelo_inurba_marseille","lat":43.28434,"lon":5.35002,"is_reserved":false,"is_disabled":false,"rental_uris":{"android":"levelo://app?vid=e89b4882-a351-4193-9d47-f6479514a644","ios":"levelo://app?vid=e89b4882-a351-4193-9d47-f6479514a644"},"vehicle_type_id":"4","last_reported":1758630016,"current_range_meters":5600,"station_id":"ce4bhbh2rcd13ifvqepg","pricing_plan_id":"cebpf4jnsgd1na2vs0mg"},{"bike_id":"438ead59-de14-4fa0-a61d-03a70a4122ae","system_id":"levelo_inurba_marseille","lat":43.97285,"lon":4.89134,"is_reserved":false,"is_disabled":true,"rental_uris":{"android":"levelo://app?vid=438ead59-de14-4fa0-a61d-03a70a4122ae","ios":"levelo://app?vid=438ead59-de14-4fa0-a61d-03a70a4122ae"},"vehicle_type_id":"4","last_reported":1758630016,"current_range_meters":6000,"station_id":"","pricing_plan_id":"cebpf4jnsgd1na2vs0mg"},{"bike_id":"296a72b0-6395-47a8-b78a-d3904027bf5a","system_id":"levelo_inurba_marseille","lat":43.28619,"lon":5.35111,"is_reserved":false,"is_disabled":false,"rental_uris":{"android":"levelo://app?vid=296a72b0-6395-47a8-b78a-d3904027bf5a","ios":"levelo://app?vid=296a72b0-6395-47a8-b78a-d3904027bf5a"},"vehicle_type_id":"4","last_reported":1758630016,"current_range_meters":6000,"station_id":"ce4bhch2rcd13ifvqeug","pricing_plan_id":"cebpf4jnsgd1na2vs0mg"},{"bike_id":"9b087a65-9596-4376-9690-36385cd26a2f","system_id":"levelo_inurba_marseille","lat":43.29792,"lon":5.38101,"is_reserved":false,"is_disabled":false,"rental_uris":{"android":"levelo://app?vid=9b087a65-9596-4376-9690-36385cd26a2f","ios":"levelo://app?vid=9b087a65-9596-4376-9690-36385cd26a2f"},"vehicle_type_id":"4","last_reported":1758630016,"current_range_meters":6000,"station_id":"ce4bgip2rcd13ifvqbb0","pricing_plan_id":"cebpf4jnsgd1na2vs0mg"},{"bike_id":"698a1659-1be4-4464-8e40-0054e6845364","system_id":"levelo_inurba_marseille","lat":43.294046,"lon":5.40376,"is_reserved":false,"is_disabled":false,"rental_uris":{"android":"levelo://app?vid=698a1659-1be4-4464-8e40-0054e6845364","ios":"levelo://app?vid=698a1659-1be4-4464-8e40-0054e6845364"},"vehicle_type_id":"4","last_reported":1758630016,"current_range_meters":6400,"station_id":"","pricing_plan_id":"cebpf4jnsgd1na2vs0mg"},{"bike_id":"102099c0-a3bb-48a5-af5e-bf4042779cb3","system_id":"levelo_inurba_marseille","lat":43.29536,"lon":5.38538,"is_reserved":false,"is_disabled":false,"rental_uris":{"android":"levelo://app?vid=102099c0-a3bb-48a5-af5e-bf4042779cb3","ios":"levelo://app?vid=102099c0-a3bb-48a5-af5e-bf4042779cb3"},"vehicle_type_id":"4","last_reported":1758630016,"current_range_meters":6400,"station_id":"ce4bgih2rcd13ifvqba0","pricing_plan_id":"cebpf4jnsgd1na2vs0mg"},{"bike_id":"cf15f0ab-4027-43c7-82dc-a40724160eb1","system_id":"levelo_inurba_marseille","lat":43.21755,"lon":5.34599,"is_reserved":false,"is_disabled":false,"rental_uris":{"android":"levelo://app?vid=cf15f0ab-4027-43c7-82dc-a40724160eb1","ios":"levelo://app?vid=cf15f0ab-4027-43c7-82dc-a40724160eb1"},"vehicle_type_id":"4","last_reported":1758630016,"current_range_meters":6400,"station_id":"st_cvj6r9ubvosntc0bgbag","pricing_plan_id":"cebpf4jnsgd1na2vs0mg"},{"bike_id":"3fcb0330-7cc8-4814-aa5f-3d648d869369","system_id":"levelo_inurba_marseille","lat":43.28513,"lon":5.384957,"is_reserved":false,"is_disabled":false,"rental_uris":{"android":"levelo://app?vid=3fcb0330-7cc8-4814-aa5f-3d648d869369","ios":"levelo://app?vid=3fcb0330-7cc8-4814-aa5f-3d648d869369"},"vehicle_type_id":"4","last_reported":1758630016,"current_range_meters":6400,"station_id":"ce4bhf92rcd13ifvqf40","pricing_plan_id":"cebpf4jnsgd1na2vs0mg"},{"bike_id":"2289a0ff-9c3e-4f79-ad38-4b41158d6057","system_id":"levelo_inurba_marseille","lat":43.29882,"lon":5.37911,"is_reserved":false,"is_disabled":false,"rental_uris":{"android":"levelo://app?vid=2289a0ff-9c3e-4f79-ad38-4b41158d6057","ios":"levelo://app?vid=2289a0ff-9c3e-4f79-ad38-4b41158d6057"},"vehicle_type_id":"4","last_reported":1758630016,"current_range_meters":6400,"station_id":"","pricing_plan_id":"cebpf4jnsgd1na2vs0mg"},{"bike_id":"172ce25e-e63b-4b1d-882a-65da647a609b","system_id":"levelo_inurba_marseille","lat":43.24074,"lon":5.37761,"is_reserved":false,"is_disabled":false,"rental_uris":{"android":"levelo://app?vid=172ce25e-e63b-4b1d-882a-65da647a609b","ios":"levelo://app?vid=172ce25e-e63b-4b1d-882a-65da647a609b"},"vehicle_type_id":"4","last_reported":1758630016,"current_range_meters":6400,"station_id":"ce4bhnp2rcd13ifvqgvg","pricing_plan_id":"cebpf4jnsgd1na2vs0mg"},{"bike_id":"9fd77543-f18d-4c23-af18-b4fabf18caa2","system_id":"levelo_inurba_marseille","lat":43.28176,"lon":5.42637,"is_reserved":false,"is_disabled":false,"rental_uris":{"android":"levelo://app?vid=9fd77543-f18d-4c23-af18-b4fabf18caa2","ios":"levelo://app?vid=9fd77543-f18d-4c23-af18-b4fabf18caa2"},"vehicle_type_id":"4","last_reported":1758630016,"current_range_meters":6400,"station_id":"ce4bhnh2rcd13ifvqgug","pricing_plan_id":"cebpf4jnsgd1na2vs0mg"},{"bike_id":"696a8053-1302-4fae-9e80-b56610208f0d","system_id":"levelo_inurba_marseille","lat":43.30887,"lon":5.39665,"is_reserved":false,"is_disabled":false,"rental_uris":{"android":"levelo://app?vid=696a8053-1302-4fae-9e80-b56610208f0d","ios":"levelo://app?vid=696a8053-1302-4fae-9e80-b56610208f0d"},"vehicle_type_id":"4","last_reported":1758630016,"current_range_meters":6400,"station_id":"ce4bh012rcd13ifvqcv0","pricing_plan_id":"cebpf4jnsgd1na2vs0mg"},{"bike_id":"829dab7a-daa7-429a-8cd3-4e2609ce1a7e","system_id":"levelo_inurba_marseille","lat":43.3027,"lon":5.37744,"is_reserved":false,"is_disabled":false,"rental_uris":{"android":"levelo://app?vid=829dab7a-daa7-429a-8cd3-4e2609ce1a7e","ios":"levelo://app?vid=829dab7a-daa7-429a-8cd3-4e2609ce1a7e"},"vehicle_type_id":"4","last_reported":1758630016,"current_range_meters":6400,"station_id":"ce4bguh2rcd13ifvqcj0","pricing_plan_id":"cebpf4jnsgd1na2vs0mg"},{"bike_id":"bd6c981f-7622-495e-98aa-41c2b8493557","system_id":"levelo_inurba_marseille","lat":43.30463,"lon":5.37904,"is_reserved":false,"is_disabled":false,"rental_uris":{"android":"levelo://app?vid=bd6c981f-7622-495e-98aa-41c2b8493557","ios":"levelo://app?vid=bd6c981f-7622-495e-98aa-41c2b8493557"},"vehicle_type_id":"4","last_reported":1758630016,"current_range_meters":6800,"station_id":"ce4bgup2rcd13ifvqcn0","pricing_plan_id":"cebpf4jnsgd1na2vs0mg"},{"bike_id":"bf10c7f8-b8b3-475e-9359-e60a6edb697d","system_id":"levelo_inurba_marseille","lat":43.29615,"lon":5.38104,"is_reserved":false,"is_disabled":false,"rental_uris":{"android":"levelo://app?vid=bf10c7f8-b8b3-475e-9359-e60a6edb697d","ios":"levelo://app?vid=bf10c7f8-b8b3-475e-9359-e60a6edb697d"},"vehicle_type_id":"4","last_reported":1758630016,"current_range_meters":6800,"station_id":"ce4bgl12rcd13ifvqbo0","pricing_plan_id":"cebpf4jnsgd1na2vs0mg"},{"bike_id":"4ab0c240-6e4b-4599-9e5d-fce35efc3d42","system_id":"levelo_inurba_marseille","lat":43.28493,"lon":5.38413,"is_reserved":false,"is_disabled":false,"rental_uris":{"android":"levelo://app?vid=4ab0c240-6e4b-4599-9e5d-fce35efc3d42","ios":"levelo://app?vid=4ab0c240-6e4b-4599-9e5d-fce35efc3d42"},"vehicle_type_id":"4","last_reported":1758630016,"current_range_meters":6800,"station_id":"ce4bh512rcd13ifvqe3g","pricing_plan_id":"cebpf4jnsgd1na2vs0mg"},{"bike_id":"781b4c33-8515-44f8-bbd0-a35a0de74e13","system_id":"levelo_inurba_marseille","lat":43.29243,"lon":5.37621,"is_reserved":false,"is_disabled":false,"rental_uris":{"android":"levelo://app?vid=781b4c33-8515-44f8-bbd0-a35a0de74e13","ios":"levelo://app?vid=781b4c33-8515-44f8-bbd0-a35a0de74e13"},"vehicle_type_id":"4","last_reported":1758630016,"current_range_meters":6800,"station_id":"ce4bgi12rcd13ifvqb80","pricing_plan_id":"cebpf4jnsgd1na2vs0mg"},{"bike_id":"3b496a93-ba76-4804-af84-80068cbde36c","system_id":"levelo_inurba_marseille","lat":43.265741,"lon":5.390338,"is_reserved":false,"is_disabled":false,"rental_uris":{"android":"levelo://app?vid=3b496a93-ba76-4804-af84-80068cbde36c","ios":"levelo://app?vid=3b496a93-ba76-4804-af84-80068cbde36c"},"vehicle_type_id":"4","last_reported":1758630016,"current_range_meters":6800,"station_id":"","pricing_plan_id":"cebpf4jnsgd1na2vs0mg"},{"bike_id":"19185377-96fb-457d-a94d-378ad48a1ceb","system_id":"levelo_inurba_marseille","lat":43.29531,"lon":5.38542,"is_reserved":false,"is_disabled":false,"rental_uris":{"android":"levelo://app?vid=19185377-96fb-457d-a94d-378ad48a1ceb","ios":"levelo://app?vid=19185377-96fb-457d-a94d-378ad48a1ceb"},"vehicle_type_id":"4","last_reported":1758630016,"current_range_meters":6800,"station_id":"ce4bgih2rcd13ifvqba0","pricing_plan_id":"cebpf4jnsgd1na2vs0mg"},{"bike_id":"1524e6c0-4ed0-43ec-8c3d-b5c4246bcf5e","system_id":"levelo_inurba_marseille","lat":43.28268,"lon":5.35071,"is_reserved":false,"is_disabled":false,"rental_uris":{"android":"levelo://app?vid=1524e6c0-4ed0-43ec-8c3d-b5c4246bcf5e","ios":"levelo://app?vid=1524e6c0-4ed0-43ec-8c3d-b5c4246bcf5e"},"vehicle_type_id":"4","last_reported":1758630016,"current_range_meters":6800,"station_id":"ce4bhbp2rcd13ifvqerg","pricing_plan_id":"cebpf4jnsgd1na2vs0mg"},{"bike_id":"a3ddfb19-fdae-42ee-ac06-d14ae870620a","system_id":"levelo_inurba_marseille","lat":43.29607,"lon":5.38104,"is_reserved":false,"is_disabled":false,"rental_uris":{"android":"levelo://app?vid=a3ddfb19-fdae-42ee-ac06-d14ae870620a","ios":"levelo://app?vid=a3ddfb19-fdae-42ee-ac06-d14ae870620a"},"vehicle_type_id":"4","last_reported":1758630016,"current_range_meters":7200,"station_id":"ce4bgl12rcd13ifvqbo0","pricing_plan_id":"cebpf4jnsgd1na2vs0mg"},{"bike_id":"d6defd42-777a-4d9d-9a5c-20a66a8fbb75","system_id":"levelo_inurba_marseille","lat":43.287767,"lon":5.36254,"is_reserved":false,"is_disabled":false,"rental_uris":{"android":"levelo://app?vid=d6defd42-777a-4d9d-9a5c-20a66a8fbb75","ios":"levelo://app?vid=d6defd42-777a-4d9d-9a5c-20a66a8fbb75"},"vehicle_type_id":"4","last_reported":1758630016,"current_range_meters":6400,"station_id":"cki0cbj6b192h4jlfktg","pricing_plan_id":"cebpf4jnsgd1na2vs0mg"},{"bike_id":"cf870754-2548-4c71-a8d3-efa39af4716d","system_id":"levelo_inurba_marseille","lat":43.30142,"lon":5.37415,"is_reserved":false,"is_disabled":false,"rental_uris":{"android":"levelo://app?vid=cf870754-2548-4c71-a8d3-efa39af4716d","ios":"levelo://app?vid=cf870754-2548-4c71-a8d3-efa39af4716d"},"vehicle_type_id":"4","last_reported":1758630016,"current_range_meters":7200,"station_id":"ce4bgs92rcd13ifvqcc0","pricing_plan_id":"cebpf4jnsgd1na2vs0mg"},{"bike_id":"41e03531-d926-4714-9cb0-33d759375f30","system_id":"levelo_inurba_marseille","lat":43.31189,"lon":5.36849,"is_reserved":false,"is_disabled":false,"rental_uris":{"android":"levelo://app?vid=41e03531-d926-4714-9cb0-33d759375f30","ios":"levelo://app?vid=41e03531-d926-4714-9cb0-33d759375f30"},"vehicle_type_id":"4","last_reported":1758630016,"current_range_meters":7200,"station_id":"ce4bgl92rcd13ifvqbq0","pricing_plan_id":"cebpf4jnsgd1na2vs0mg"},{"bike_id":"612f5b6d-7a42-49d4-a4a9-cd0d60040cb3","system_id":"levelo_inurba_marseille","lat":43.31661,"lon":5.39016,"is_reserved":false,"is_disabled":false,"rental_uris":{"android":"levelo://app?vid=612f5b6d-7a42-49d4-a4a9-cd0d60040cb3","ios":"levelo://app?vid=612f5b6d-7a42-49d4-a4a9-cd0d60040cb3"},"vehicle_type_id":"4","last_reported":1758630016,"current_range_meters":7200,"station_id":"","pricing_plan_id":"cebpf4jnsgd1na2vs0mg"},{"bike_id":"af29bd4a-51c0-47f1-bce0-b9ca138339ea","system_id":"levelo_inurba_marseille","lat":43.31712,"lon":5.43701,"is_reserved":false,"is_disabled":false,"rental_uris":{"android":"levelo://app?vid=af29bd4a-51c0-47f1-bce0-b9ca138339ea","ios":"levelo://app?vid=af29bd4a-51c0-47f1-bce0-b9ca138339ea"},"vehicle_type_id":"4","last_reported":1758630016,"current_range_meters":8000,"station_id":"ce4bhp92rcd13ifvqhcg","pricing_plan_id":"cebpf4jnsgd1na2vs0mg"},{"bike_id":"7fd14ad2-a454-423d-bbfa-04d2678cc6ac","system_id":"levelo_inurba_marseille","lat":43.29784,"lon":5.38118,"is_reserved":false,"is_disabled":false,"rental_uris":{"android":"levelo://app?vid=7fd14ad2-a454-423d-bbfa-04d2678cc6ac","ios":"levelo://app?vid=7fd14ad2-a454-423d-bbfa-04d2678cc6ac"},"vehicle_type_id":"4","last_reported":1758630016,"current_range_meters":8000,"station_id":"ce4bgip2rcd13ifvqbb0","pricing_plan_id":"cebpf4jnsgd1na2vs0mg"},{"bike_id":"87828865-c641-4a92-96cc-2a9d2b51cfba","system_id":"levelo_inurba_marseille","lat":43.2176,"lon":5.34593,"is_reserved":false,"is_disabled":false,"rental_uris":{"android":"levelo://app?vid=87828865-c641-4a92-96cc-2a9d2b51cfba","ios":"levelo://app?vid=87828865-c641-4a92-96cc-2a9d2b51cfba"},"vehicle_type_id":"4","last_reported":1758630016,"current_range_meters":8000,"station_id":"st_cvj6r9ubvosntc0bgbag","pricing_plan_id":"cebpf4jnsgd1na2vs0mg"},{"bike_id":"b968685a-9fb9-42dd-8cd7-e7fb7ba27bb6","system_id":"levelo_inurba_marseille","lat":43.31109,"lon":5.37764,"is_reserved":false,"is_disabled":false,"rental_uris":{"android":"levelo://app?vid=b968685a-9fb9-42dd-8cd7-e7fb7ba27bb6","ios":"levelo://app?vid=b968685a-9fb9-42dd-8cd7-e7fb7ba27bb6"},"vehicle_type_id":"4","last_reported":1758630016,"current_range_meters":8000,"station_id":"ce4bgt92rcd13ifvqcg0","pricing_plan_id":"cebpf4jnsgd1na2vs0mg"},{"bike_id":"ca000825-5d13-495e-af19-915ae846db43","system_id":"levelo_inurba_marseille","lat":43.33025,"lon":5.39042,"is_reserved":false,"is_disabled":false,"rental_uris":{"android":"levelo://app?vid=ca000825-5d13-495e-af19-915ae846db43","ios":"levelo://app?vid=ca000825-5d13-495e-af19-915ae846db43"},"vehicle_type_id":"4","last_reported":1758630016,"current_range_meters":8000,"station_id":"ce4bhr92rcd13ifvqhrg","pricing_plan_id":"cebpf4jnsgd1na2vs0mg"},{"bike_id":"faada6d3-f2e9-4ffd-82fa-a7fbf619b0b1","system_id":"levelo_inurba_marseille","lat":43.29937,"lon":5.36568,"is_reserved":false,"is_disabled":false,"rental_uris":{"android":"levelo://app?vid=faada6d3-f2e9-4ffd-82fa-a7fbf619b0b1","ios":"levelo://app?vid=faada6d3-f2e9-4ffd-82fa-a7fbf619b0b1"},"vehicle_type_id":"4","last_reported":1758630016,"current_range_meters":8000,"station_id":"ce4bgm92rcd13ifvqbr0","pricing_plan_id":"cebpf4jnsgd1na2vs0mg"},{"bike_id":"ce363e50-fda5-401e-ae42-6f36dbfefb82","system_id":"levelo_inurba_marseille","lat":43.29825,"lon":5.38083,"is_reserved":false,"is_disabled":false,"rental_uris":{"android":"levelo://app?vid=ce363e50-fda5-401e-ae42-6f36dbfefb82","ios":"levelo://app?vid=ce363e50-fda5-401e-ae42-6f36dbfefb82"},"vehicle_type_id":"4","last_reported":1758630016,"current_range_meters":8000,"station_id":"ce4bgip2rcd13ifvqbb0","pricing_plan_id":"cebpf4jnsgd1na2vs0mg"},{"bike_id":"4f67f435-03af-4715-96f8-552f8274e2b4","system_id":"levelo_inurba_marseille","lat":43.2925,"lon":5.37634,"is_reserved":false,"is_disabled":false,"rental_uris":{"android":"levelo://app?vid=4f67f435-03af-4715-96f8-552f8274e2b4","ios":"levelo://app?vid=4f67f435-03af-4715-96f8-552f8274e2b4"},"vehicle_type_id":"4","last_reported":1758630016,"current_range_meters":8000,"station_id":"ce4bgi12rcd13ifvqb80","pricing_plan_id":"cebpf4jnsgd1na2vs0mg"},{"bike_id":"2a853227-753f-4899-aad4-3b56cc05fdd0","system_id":"levelo_inurba_marseille","lat":43.31078,"lon":5.38357,"is_reserved":false,"is_disabled":false,"rental_uris":{"android":"levelo://app?vid=2a853227-753f-4899-aad4-3b56cc05fdd0","ios":"levelo://app?vid=2a853227-753f-4899-aad4-3b56cc05fdd0"},"vehicle_type_id":"4","last_reported":1758630016,"current_range_meters":8000,"station_id":"ce4bgv92rcd13ifvqcr0","pricing_plan_id":"cebpf4jnsgd1na2vs0mg"},{"bike_id":"76f99441-8513-48a1-9281-7d7385be543b","system_id":"levelo_inurba_marseille","lat":43.29798,"lon":5.38094,"is_reserved":false,"is_disabled":false,"rental_uris":{"android":"levelo://app?vid=76f99441-8513-48a1-9281-7d7385be543b","ios":"levelo://app?vid=76f99441-8513-48a1-9281-7d7385be543b"},"vehicle_type_id":"4","last_reported":1758630016,"current_range_meters":8000,"station_id":"ce4bgip2rcd13ifvqbb0","pricing_plan_id":"cebpf4jnsgd1na2vs0mg"},{"bike_id":"6a191d34-ecab-4862-b080-864707992238","system_id":"levelo_inurba_marseille","lat":43.30786,"lon":5.37646,"is_reserved":false,"is_disabled":false,"rental_uris":{"android":"levelo://app?vid=6a191d34-ecab-4862-b080-864707992238","ios":"levelo://app?vid=6a191d34-ecab-4862-b080-864707992238"},"vehicle_type_id":"4","last_reported":1758630016,"current_range_meters":14400,"station_id":"ce4bgv92rcd13ifvqcq0","pricing_plan_id":"cebpf4jnsgd1na2vs0mg"},{"bike_id":"d20fed51-8110-4224-8d70-0ca80c718659","system_id":"levelo_inurba_marseille","lat":43.28083,"lon":5.39671,"is_reserved":false,"is_disabled":false,"rental_uris":{"android":"levelo://app?vid=d20fed51-8110-4224-8d70-0ca80c718659","ios":"levelo://app?vid=d20fed51-8110-4224-8d70-0ca80c718659"},"vehicle_type_id":"4","last_reported":1758630016,"current_range_meters":8400,"station_id":"ce4bho12rcd13ifvqh2g","pricing_plan_id":"cebpf4jnsgd1na2vs0mg"},{"bike_id":"a15e48c8-16c3-437e-a237-62b9e19d84cb","system_id":"levelo_inurba_marseille","lat":43.21763,"lon":5.34593,"is_reserved":false,"is_disabled":false,"rental_uris":{"android":"levelo://app?vid=a15e48c8-16c3-437e-a237-62b9e19d84cb","ios":"levelo://app?vid=a15e48c8-16c3-437e-a237-62b9e19d84cb"},"vehicle_type_id":"4","last_reported":1758630016,"current_range_meters":8400,"station_id":"st_cvj6r9ubvosntc0bgbag","pricing_plan_id":"cebpf4jnsgd1na2vs0mg"},{"bike_id":"3850e952-f363-4243-b92e-a9e09a8e2a75","system_id":"levelo_inurba_marseille","lat":43.295471,"lon":5.385419,"is_reserved":false,"is_disabled":false,"rental_uris":{"android":"levelo://app?vid=3850e952-f363-4243-b92e-a9e09a8e2a75","ios":"levelo://app?vid=3850e952-f363-4243-b92e-a9e09a8e2a75"},"vehicle_type_id":"4","last_reported":1758630016,"current_range_meters":8400,"station_id":"ce4bgih2rcd13ifvqba0","pricing_plan_id":"cebpf4jnsgd1na2vs0mg"},{"bike_id":"d601c5ac-9f40-4413-b704-6528d37b20d6","system_id":"levelo_inurba_marseille","lat":43.29558,"lon":5.38174,"is_reserved":false,"is_disabled":true,"rental_uris":{"android":"levelo://app?vid=d601c5ac-9f40-4413-b704-6528d37b20d6","ios":"levelo://app?vid=d601c5ac-9f40-4413-b704-6528d37b20d6"},"vehicle_type_id":"4","last_reported":1758630016,"current_range_meters":8400,"station_id":"","pricing_plan_id":"cebpf4jnsgd1na2vs0mg"},{"bike_id":"df20f5d7-7ef8-43e4-b324-5f79a4689dae","system_id":"levelo_inurba_marseille","lat":43.29714,"lon":5.36618,"is_reserved":false,"is_disabled":false,"rental_uris":{"android":"levelo://app?vid=df20f5d7-7ef8-43e4-b324-5f79a4689dae","ios":"levelo://app?vid=df20f5d7-7ef8-43e4-b324-5f79a4689dae"},"vehicle_type_id":"4","last_reported":1758630016,"current_range_meters":8400,"station_id":"ce4bgn12rcd13ifvqbt0","pricing_plan_id":"cebpf4jnsgd1na2vs0mg"},{"bike_id":"366ee9b3-4a19-4a1f-b0a8-0d28aed7b35c","system_id":"levelo_inurba_marseille","lat":43.3248,"lon":5.36578,"is_reserved":false,"is_disabled":false,"rental_uris":{"android":"levelo://app?vid=366ee9b3-4a19-4a1f-b0a8-0d28aed7b35c","ios":"levelo://app?vid=366ee9b3-4a19-4a1f-b0a8-0d28aed7b35c"},"vehicle_type_id":"4","last_reported":1758630016,"current_range_meters":8400,"station_id":"ce4bhs12rcd13ifvqhvg","pricing_plan_id":"cebpf4jnsgd1na2vs0mg"},{"bike_id":"f90ba460-1f65-4dec-a03c-1cde0a6357d4","system_id":"levelo_inurba_marseille","lat":43.28577,"lon":5.39489,"is_reserved":false,"is_disabled":false,"rental_uris":{"android":"levelo://app?vid=f90ba460-1f65-4dec-a03c-1cde0a6357d4","ios":"levelo://app?vid=f90ba460-1f65-4dec-a03c-1cde0a6357d4"},"vehicle_type_id":"4","last_reported":1758630016,"current_range_meters":8800,"station_id":"ce4bh292rcd13ifvqdg0","pricing_plan_id":"cebpf4jnsgd1na2vs0mg"},{"bike_id":"ecd99137-88f3-4057-a279-605d96884e27","system_id":"levelo_inurba_marseille","lat":43.29042,"lon":5.39962,"is_reserved":false,"is_disabled":false,"rental_uris":{"android":"levelo://app?vid=ecd99137-88f3-4057-a279-605d96884e27","ios":"levelo://app?vid=ecd99137-88f3-4057-a279-605d96884e27"},"vehicle_type_id":"4","last_reported":1758630016,"current_range_meters":8800,"station_id":"ce4bh392rcd13ifvqdm0","pricing_plan_id":"cebpf4jnsgd1na2vs0mg"},{"bike_id":"809d9c54-c072-46e5-9088-1f41e70a6537","system_id":"levelo_inurba_marseille","lat":43.28985,"lon":5.37836,"is_reserved":false,"is_disabled":false,"rental_uris":{"android":"levelo://app?vid=809d9c54-c072-46e5-9088-1f41e70a6537","ios":"levelo://app?vid=809d9c54-c072-46e5-9088-1f41e70a6537"},"vehicle_type_id":"4","last_reported":1758630016,"current_range_meters":8800,"station_id":"ce4bh9p2rcd13ifvqed0","pricing_plan_id":"cebpf4jnsgd1na2vs0mg"},{"bike_id":"1a736a3e-45ac-4358-8cb6-c01ca17f9987","system_id":"levelo_inurba_marseille","lat":43.34145,"lon":5.40908,"is_reserved":false,"is_disabled":false,"rental_uris":{"android":"levelo://app?vid=1a736a3e-45ac-4358-8cb6-c01ca17f9987","ios":"levelo://app?vid=1a736a3e-45ac-4358-8cb6-c01ca17f9987"},"vehicle_type_id":"4","last_reported":1758630016,"current_range_meters":8800,"station_id":"ce4bhqh2rcd13ifvqhlg","pricing_plan_id":"cebpf4jnsgd1na2vs0mg"},{"bike_id":"f0a6b9c5-5c33-4e4d-84f7-944b2b43e8c5","system_id":"levelo_inurba_marseille","lat":43.30548,"lon":5.38435,"is_reserved":false,"is_disabled":false,"rental_uris":{"android":"levelo://app?vid=f0a6b9c5-5c33-4e4d-84f7-944b2b43e8c5","ios":"levelo://app?vid=f0a6b9c5-5c33-4e4d-84f7-944b2b43e8c5"},"vehicle_type_id":"4","last_reported":1758630016,"current_range_meters":8800,"station_id":"ce4bgg92rcd13ifvqb30","pricing_plan_id":"cebpf4jnsgd1na2vs0mg"},{"bike_id":"64f6180a-c20a-4caa-b9aa-8badf8f78909","system_id":"levelo_inurba_marseille","lat":43.26631,"lon":5.382689,"is_reserved":false,"is_disabled":false,"rental_uris":{"android":"levelo://app?vid=64f6180a-c20a-4caa-b9aa-8badf8f78909","ios":"levelo://app?vid=64f6180a-c20a-4caa-b9aa-8badf8f78909"},"vehicle_type_id":"4","last_reported":1758630016,"current_range_meters":6400,"station_id":"ce4bhg92rcd13ifvqf90","pricing_plan_id":"cebpf4jnsgd1na2vs0mg"},{"bike_id":"759e47b9-2553-49c5-b2a0-35471b025155","system_id":"levelo_inurba_marseille","lat":43.3057,"lon":5.3929,"is_reserved":false,"is_disabled":false,"rental_uris":{"android":"levelo://app?vid=759e47b9-2553-49c5-b2a0-35471b025155","ios":"levelo://app?vid=759e47b9-2553-49c5-b2a0-35471b025155"},"vehicle_type_id":"4","last_reported":1758630016,"current_range_meters":9200,"station_id":"","pricing_plan_id":"cebpf4jnsgd1na2vs0mg"},{"bike_id":"cbe68fbb-2a42-4e70-8624-b9e00d6c1f2d","system_id":"levelo_inurba_marseille","lat":43.29044,"lon":5.39968,"is_reserved":false,"is_disabled":false,"rental_uris":{"android":"levelo://app?vid=cbe68fbb-2a42-4e70-8624-b9e00d6c1f2d","ios":"levelo://app?vid=cbe68fbb-2a42-4e70-8624-b9e00d6c1f2d"},"vehicle_type_id":"4","last_reported":1758630016,"current_range_meters":9200,"station_id":"ce4bh392rcd13ifvqdm0","pricing_plan_id":"cebpf4jnsgd1na2vs0mg"},{"bike_id":"0b2230e3-adb9-421c-91b1-c113eb397705","system_id":"levelo_inurba_marseille","lat":43.288922,"lon":5.376627,"is_reserved":false,"is_disabled":false,"rental_uris":{"android":"levelo://app?vid=0b2230e3-adb9-421c-91b1-c113eb397705","ios":"levelo://app?vid=0b2230e3-adb9-421c-91b1-c113eb397705"},"vehicle_type_id":"4","last_reported":1758630016,"current_range_meters":9200,"station_id":"","pricing_plan_id":"cebpf4jnsgd1na2vs0mg"},{"bike_id":"c3e48ccc-65c6-4ebf-8cf7-ad2b8d3ed03f","system_id":"levelo_inurba_marseille","lat":43.28852,"lon":5.35845,"is_reserved":false,"is_disabled":false,"rental_uris":{"android":"levelo://app?vid=c3e48ccc-65c6-4ebf-8cf7-ad2b8d3ed03f","ios":"levelo://app?vid=c3e48ccc-65c6-4ebf-8cf7-ad2b8d3ed03f"},"vehicle_type_id":"4","last_reported":1758630016,"current_range_meters":9200,"station_id":"ce4bhb12rcd13ifvqem0","pricing_plan_id":"cebpf4jnsgd1na2vs0mg"},{"bike_id":"98c4c8b4-9c54-406a-8df5-89670e4fc971","system_id":"levelo_inurba_marseille","lat":43.29054,"lon":5.39971,"is_reserved":false,"is_disabled":false,"rental_uris":{"android":"levelo://app?vid=98c4c8b4-9c54-406a-8df5-89670e4fc971","ios":"levelo://app?vid=98c4c8b4-9c54-406a-8df5-89670e4fc971"},"vehicle_type_id":"4","last_reported":1758630016,"current_range_meters":9200,"station_id":"ce4bh392rcd13ifvqdm0","pricing_plan_id":"cebpf4jnsgd1na2vs0mg"},{"bike_id":"6158583e-998b-401d-8a85-7a40ff5f5fe2","system_id":"levelo_inurba_marseille","lat":43.29971,"lon":5.38496,"is_reserved":false,"is_disabled":false,"rental_uris":{"android":"levelo://app?vid=6158583e-998b-401d-8a85-7a40ff5f5fe2","ios":"levelo://app?vid=6158583e-998b-401d-8a85-7a40ff5f5fe2"},"vehicle_type_id":"4","last_reported":1758630016,"current_range_meters":9200,"station_id":"ce4bgj92rcd13ifvqbd0","pricing_plan_id":"cebpf4jnsgd1na2vs0mg"},{"bike_id":"d46536c1-b7ad-4df6-a9a1-6c4b8943878b","system_id":"levelo_inurba_marseille","lat":43.32377,"lon":5.38877,"is_reserved":false,"is_disabled":false,"rental_uris":{"android":"levelo://app?vid=d46536c1-b7ad-4df6-a9a1-6c4b8943878b","ios":"levelo://app?vid=d46536c1-b7ad-4df6-a9a1-6c4b8943878b"},"vehicle_type_id":"4","last_reported":1758630016,"current_range_meters":9200,"station_id":"ce4bhqp2rcd13ifvqhog","pricing_plan_id":"cebpf4jnsgd1na2vs0mg"},{"bike_id":"3b49cb28-6617-4eca-9b0e-27c8185dedcf","system_id":"levelo_inurba_marseille","lat":43.292,"lon":5.39298,"is_reserved":false,"is_disabled":true,"rental_uris":{"android":"levelo://app?vid=3b49cb28-6617-4eca-9b0e-27c8185dedcf","ios":"levelo://app?vid=3b49cb28-6617-4eca-9b0e-27c8185dedcf"},"vehicle_type_id":"4","last_reported":1758630016,"current_range_meters":9200,"station_id":"ce4bh192rcd13ifvqdd0","pricing_plan_id":"cebpf4jnsgd1na2vs0mg"},{"bike_id":"d6892ced-68b2-4c0a-8b78-e0080257d6fa","system_id":"levelo_inurba_marseille","lat":43.31248,"lon":5.36796,"is_reserved":false,"is_disabled":true,"rental_uris":{"android":"levelo://app?vid=d6892ced-68b2-4c0a-8b78-e0080257d6fa","ios":"levelo://app?vid=d6892ced-68b2-4c0a-8b78-e0080257d6fa"},"vehicle_type_id":"4","last_reported":1758630016,"current_range_meters":9600,"station_id":"ce4bgl92rcd13ifvqbq0","pricing_plan_id":"cebpf4jnsgd1na2vs0mg"},{"bike_id":"052b5890-b63e-4618-b3b6-981dc02403fb","system_id":"levelo_inurba_marseille","lat":43.27842,"lon":5.39209,"is_reserved":false,"is_disabled":false,"rental_uris":{"android":"levelo://app?vid=052b5890-b63e-4618-b3b6-981dc02403fb","ios":"levelo://app?vid=052b5890-b63e-4618-b3b6-981dc02403fb"},"vehicle_type_id":"4","last_reported":1758630016,"current_range_meters":9600,"station_id":"ce4bhjp2rcd13ifvqga0","pricing_plan_id":"cebpf4jnsgd1na2vs0mg"},{"bike_id":"5597be2c-99a4-465c-9161-a2f9af1976fc","system_id":"levelo_inurba_marseille","lat":43.27496,"lon":5.42455,"is_reserved":false,"is_disabled":false,"rental_uris":{"android":"levelo://app?vid=5597be2c-99a4-465c-9161-a2f9af1976fc","ios":"levelo://app?vid=5597be2c-99a4-465c-9161-a2f9af1976fc"},"vehicle_type_id":"4","last_reported":1758630016,"current_range_meters":9600,"station_id":"ce4bhn92rcd13ifvqgrg","pricing_plan_id":"cebpf4jnsgd1na2vs0mg"},{"bike_id":"5448f37e-95e0-4cd2-96f0-e61cdd2afcc0","system_id":"levelo_inurba_marseille","lat":43.29119,"lon":5.40062,"is_reserved":false,"is_disabled":false,"rental_uris":{"android":"levelo://app?vid=5448f37e-95e0-4cd2-96f0-e61cdd2afcc0","ios":"levelo://app?vid=5448f37e-95e0-4cd2-96f0-e61cdd2afcc0"},"vehicle_type_id":"4","last_reported":1758630016,"current_range_meters":9600,"station_id":"ce4bh392rcd13ifvqdm0","pricing_plan_id":"cebpf4jnsgd1na2vs0mg"},{"bike_id":"1130f932-ddb2-44a8-afe1-54b2f30349b7","system_id":"levelo_inurba_marseille","lat":43.299787,"lon":5.387273,"is_reserved":false,"is_disabled":false,"rental_uris":{"android":"levelo://app?vid=1130f932-ddb2-44a8-afe1-54b2f30349b7","ios":"levelo://app?vid=1130f932-ddb2-44a8-afe1-54b2f30349b7"},"vehicle_type_id":"4","last_reported":1758630016,"current_range_meters":9200,"station_id":"ce4bgj12rcd13ifvqbc0","pricing_plan_id":"cebpf4jnsgd1na2vs0mg"},{"bike_id":"41b8e3f6-b6ac-4ea6-9b1e-03e1a32a2cab","system_id":"levelo_inurba_marseille","lat":43.29958,"lon":5.38995,"is_reserved":false,"is_disabled":false,"rental_uris":{"android":"levelo://app?vid=41b8e3f6-b6ac-4ea6-9b1e-03e1a32a2cab","ios":"levelo://app?vid=41b8e3f6-b6ac-4ea6-9b1e-03e1a32a2cab"},"vehicle_type_id":"4","last_reported":1758630016,"current_range_meters":9600,"station_id":"","pricing_plan_id":"cebpf4jnsgd1na2vs0mg"},{"bike_id":"3baa6b1a-7a61-4774-8287-81667dbfaefc","system_id":"levelo_inurba_marseille","lat":43.24656,"lon":5.38881,"is_reserved":false,"is_disabled":false,"rental_uris":{"android":"levelo://app?vid=3baa6b1a-7a61-4774-8287-81667dbfaefc","ios":"levelo://app?vid=3baa6b1a-7a61-4774-8287-81667dbfaefc"},"vehicle_type_id":"4","last_reported":1758630016,"current_range_meters":10000,"station_id":"ce4bhg12rcd13ifvqf60","pricing_plan_id":"cebpf4jnsgd1na2vs0mg"},{"bike_id":"89eb46b6-7430-4609-93a8-4c6aa20c3baf","system_id":"levelo_inurba_marseille","lat":43.30733,"lon":5.4245,"is_reserved":false,"is_disabled":false,"rental_uris":{"android":"levelo://app?vid=89eb46b6-7430-4609-93a8-4c6aa20c3baf","ios":"levelo://app?vid=89eb46b6-7430-4609-93a8-4c6aa20c3baf"},"vehicle_type_id":"4","last_reported":1758630016,"current_range_meters":10000,"station_id":"st_cvj6ca6bvosntc0bfgr0","pricing_plan_id":"cebpf4jnsgd1na2vs0mg"},{"bike_id":"ad9f1ff7-708f-4e6a-a4cb-1b85afcbfa78","system_id":"levelo_inurba_marseille","lat":43.31184,"lon":5.38716,"is_reserved":false,"is_disabled":true,"rental_uris":{"android":"levelo://app?vid=ad9f1ff7-708f-4e6a-a4cb-1b85afcbfa78","ios":"levelo://app?vid=ad9f1ff7-708f-4e6a-a4cb-1b85afcbfa78"},"vehicle_type_id":"4","last_reported":1758630016,"current_range_meters":10000,"station_id":"ce4bgv12rcd13ifvqcp0","pricing_plan_id":"cebpf4jnsgd1na2vs0mg"},{"bike_id":"1efddf8d-578f-4e4c-8c3f-e3a8bd592ba4","system_id":"levelo_inurba_marseille","lat":43.29992,"lon":5.3745,"is_reserved":false,"is_disabled":false,"rental_uris":{"android":"levelo://app?vid=1efddf8d-578f-4e4c-8c3f-e3a8bd592ba4","ios":"levelo://app?vid=1efddf8d-578f-4e4c-8c3f-e3a8bd592ba4"},"vehicle_type_id":"4","last_reported":1758630016,"current_range_meters":10800,"station_id":"","pricing_plan_id":"cebpf4jnsgd1na2vs0mg"},{"bike_id":"ef75d15d-c28a-4fe7-853a-ed887e41d629","system_id":"levelo_inurba_marseille","lat":43.21763,"lon":5.34589,"is_reserved":false,"is_disabled":false,"rental_uris":{"android":"levelo://app?vid=ef75d15d-c28a-4fe7-853a-ed887e41d629","ios":"levelo://app?vid=ef75d15d-c28a-4fe7-853a-ed887e41d629"},"vehicle_type_id":"4","last_reported":1758630016,"current_range_meters":10800,"station_id":"st_cvj6r9ubvosntc0bgbag","pricing_plan_id":"cebpf4jnsgd1na2vs0mg"},{"bike_id":"94d430e6-52b3-4d21-80c9-c6dd4519a8fb","system_id":"levelo_inurba_marseille","lat":43.31767,"lon":5.38292,"is_reserved":false,"is_disabled":false,"rental_uris":{"android":"levelo://app?vid=94d430e6-52b3-4d21-80c9-c6dd4519a8fb","ios":"levelo://app?vid=94d430e6-52b3-4d21-80c9-c6dd4519a8fb"},"vehicle_type_id":"4","last_reported":1758630016,"current_range_meters":10800,"station_id":"","pricing_plan_id":"cebpf4jnsgd1na2vs0mg"},{"bike_id":"156ba3ee-2d05-4060-9b3c-44e608592be0","system_id":"levelo_inurba_marseille","lat":43.27987,"lon":5.4167,"is_reserved":false,"is_disabled":true,"rental_uris":{"android":"levelo://app?vid=156ba3ee-2d05-4060-9b3c-44e608592be0","ios":"levelo://app?vid=156ba3ee-2d05-4060-9b3c-44e608592be0"},"vehicle_type_id":"4","last_reported":1758630016,"current_range_meters":10800,"station_id":"ce4bho12rcd13ifvqh1g","pricing_plan_id":"cebpf4jnsgd1na2vs0mg"},{"bike_id":"7a4b4c71-9aa8-43e6-b89d-8f51da31e41f","system_id":"levelo_inurba_marseille","lat":43.265571,"lon":5.37291,"is_reserved":false,"is_disabled":false,"rental_uris":{"android":"levelo://app?vid=7a4b4c71-9aa8-43e6-b89d-8f51da31e41f","ios":"levelo://app?vid=7a4b4c71-9aa8-43e6-b89d-8f51da31e41f"},"vehicle_type_id":"4","last_reported":1758630016,"current_range_meters":11200,"station_id":"ce4bhg12rcd13ifvqf70","pricing_plan_id":"cebpf4jnsgd1na2vs0mg"},{"bike_id":"e593190a-622e-4a29-8368-9b291650611b","system_id":"levelo_inurba_marseille","lat":43.27678,"lon":5.38908,"is_reserved":false,"is_disabled":false,"rental_uris":{"android":"levelo://app?vid=e593190a-622e-4a29-8368-9b291650611b","ios":"levelo://app?vid=e593190a-622e-4a29-8368-9b291650611b"},"vehicle_type_id":"4","last_reported":1758630016,"current_range_meters":11200,"station_id":"ce4bhi12rcd13ifvqfo0","pricing_plan_id":"cebpf4jnsgd1na2vs0mg"},{"bike_id":"57078226-9624-498c-9d33-abb05ac16cb0","system_id":"levelo_inurba_marseille","lat":43.286174,"lon":5.351078,"is_reserved":false,"is_disabled":false,"rental_uris":{"android":"levelo://app?vid=57078226-9624-498c-9d33-abb05ac16cb0","ios":"levelo://app?vid=57078226-9624-498c-9d33-abb05ac16cb0"},"vehicle_type_id":"4","last_reported":1758630016,"current_range_meters":11200,"station_id":"ce4bhch2rcd13ifvqeug","pricing_plan_id":"cebpf4jnsgd1na2vs0mg"},{"bike_id":"63b363d6-5d7e-4eb6-b8a3-467eb7f5f0c6","system_id":"levelo_inurba_marseille","lat":43.31496,"lon":5.37311,"is_reserved":false,"is_disabled":false,"rental_uris":{"android":"levelo://app?vid=63b363d6-5d7e-4eb6-b8a3-467eb7f5f0c6","ios":"levelo://app?vid=63b363d6-5d7e-4eb6-b8a3-467eb7f5f0c6"},"vehicle_type_id":"4","last_reported":1758630016,"current_range_meters":11200,"station_id":"ce4bgt12rcd13ifvqcd0","pricing_plan_id":"cebpf4jnsgd1na2vs0mg"},{"bike_id":"46c8f7b8-33c6-4de9-846d-015a655cfc20","system_id":"levelo_inurba_marseille","lat":43.25731,"lon":5.41106,"is_reserved":false,"is_disabled":false,"rental_uris":{"android":"levelo://app?vid=46c8f7b8-33c6-4de9-846d-015a655cfc20","ios":"levelo://app?vid=46c8f7b8-33c6-4de9-846d-015a655cfc20"},"vehicle_type_id":"4","last_reported":1758630016,"current_range_meters":11200,"station_id":"ce4bhkp2rcd13ifvqgd0","pricing_plan_id":"cebpf4jnsgd1na2vs0mg"},{"bike_id":"0f68414b-1cc5-4ae2-aed0-d1cf3401f760","system_id":"levelo_inurba_marseille","lat":43.308,"lon":5.38169,"is_reserved":false,"is_disabled":false,"rental_uris":{"android":"levelo://app?vid=0f68414b-1cc5-4ae2-aed0-d1cf3401f760","ios":"levelo://app?vid=0f68414b-1cc5-4ae2-aed0-d1cf3401f760"},"vehicle_type_id":"4","last_reported":1758630016,"current_range_meters":11200,"station_id":"ce4bgt12rcd13ifvqce0","pricing_plan_id":"cebpf4jnsgd1na2vs0mg"},{"bike_id":"f6a53fe3-7928-4ae3-9d46-c8de8bee0c65","system_id":"levelo_inurba_marseille","lat":43.23965,"lon":5.36623,"is_reserved":false,"is_disabled":false,"rental_uris":{"android":"levelo://app?vid=f6a53fe3-7928-4ae3-9d46-c8de8bee0c65","ios":"levelo://app?vid=f6a53fe3-7928-4ae3-9d46-c8de8bee0c65"},"vehicle_type_id":"4","last_reported":1758630016,"current_range_meters":11200,"station_id":"ce4bhi12rcd13ifvqfp0","pricing_plan_id":"cebpf4jnsgd1na2vs0mg"},{"bike_id":"8d243e83-cc74-44d3-bf18-f20421549672","system_id":"levelo_inurba_marseille","lat":43.28926,"lon":5.35936,"is_reserved":false,"is_disabled":false,"rental_uris":{"android":"levelo://app?vid=8d243e83-cc74-44d3-bf18-f20421549672","ios":"levelo://app?vid=8d243e83-cc74-44d3-bf18-f20421549672"},"vehicle_type_id":"4","last_reported":1758630016,"current_range_meters":11200,"station_id":"","pricing_plan_id":"cebpf4jnsgd1na2vs0mg"},{"bike_id":"d7688c97-8757-46a9-a367-1702f9b408d8","system_id":"levelo_inurba_marseille","lat":43.24174,"lon":5.36401,"is_reserved":false,"is_disabled":false,"rental_uris":{"android":"levelo://app?vid=d7688c97-8757-46a9-a367-1702f9b408d8","ios":"levelo://app?vid=d7688c97-8757-46a9-a367-1702f9b408d8"},"vehicle_type_id":"4","last_reported":1758630016,"current_range_meters":11600,"station_id":"cpo36qri1sfpv3e86is0","pricing_plan_id":"cebpf4jnsgd1na2vs0mg"},{"bike_id":"89aea701-8647-4517-807f-0e59d779b3ac","system_id":"levelo_inurba_marseille","lat":43.31116,"lon":5.3777,"is_reserved":false,"is_disabled":false,"rental_uris":{"android":"levelo://app?vid=89aea701-8647-4517-807f-0e59d779b3ac","ios":"levelo://app?vid=89aea701-8647-4517-807f-0e59d779b3ac"},"vehicle_type_id":"4","last_reported":1758630016,"current_range_meters":11600,"station_id":"ce4bgt92rcd13ifvqcg0","pricing_plan_id":"cebpf4jnsgd1na2vs0mg"},{"bike_id":"f8c8f0dd-5148-4bd8-9471-177d7b718b02","system_id":"levelo_inurba_marseille","lat":43.280146,"lon":5.401032,"is_reserved":false,"is_disabled":false,"rental_uris":{"android":"levelo://app?vid=f8c8f0dd-5148-4bd8-9471-177d7b718b02","ios":"levelo://app?vid=f8c8f0dd-5148-4bd8-9471-177d7b718b02"},"vehicle_type_id":"4","last_reported":1758630016,"current_range_meters":11600,"station_id":"ce4bho92rcd13ifvqh4g","pricing_plan_id":"cebpf4jnsgd1na2vs0mg"},{"bike_id":"769f1e28-7007-4b21-9d1f-c77defb80909","system_id":"levelo_inurba_marseille","lat":43.25744,"lon":5.411,"is_reserved":false,"is_disabled":false,"rental_uris":{"android":"levelo://app?vid=769f1e28-7007-4b21-9d1f-c77defb80909","ios":"levelo://app?vid=769f1e28-7007-4b21-9d1f-c77defb80909"},"vehicle_type_id":"4","last_reported":1758630016,"current_range_meters":12000,"station_id":"ce4bhkp2rcd13ifvqgd0","pricing_plan_id":"cebpf4jnsgd1na2vs0mg"},{"bike_id":"6d79a709-6b99-4cb4-8eb4-4fffa24b3b88","system_id":"levelo_inurba_marseille","lat":43.2971,"lon":5.36608,"is_reserved":false,"is_disabled":false,"rental_uris":{"android":"levelo://app?vid=6d79a709-6b99-4cb4-8eb4-4fffa24b3b88","ios":"levelo://app?vid=6d79a709-6b99-4cb4-8eb4-4fffa24b3b88"},"vehicle_type_id":"4","last_reported":1758630016,"current_range_meters":11600,"station_id":"ce4bgn12rcd13ifvqbt0","pricing_plan_id":"cebpf4jnsgd1na2vs0mg"},{"bike_id":"a60ea823-6ee0-47b9-a522-d89a0ee4cec8","system_id":"levelo_inurba_marseille","lat":43.29779,"lon":5.38122,"is_reserved":false,"is_disabled":false,"rental_uris":{"android":"levelo://app?vid=a60ea823-6ee0-47b9-a522-d89a0ee4cec8","ios":"levelo://app?vid=a60ea823-6ee0-47b9-a522-d89a0ee4cec8"},"vehicle_type_id":"4","last_reported":1758630016,"current_range_meters":12000,"station_id":"ce4bgip2rcd13ifvqbb0","pricing_plan_id":"cebpf4jnsgd1na2vs0mg"},{"bike_id":"1f34c7b4-21df-4ed2-b83f-be974e7b4354","system_id":"levelo_inurba_marseille","lat":43.25115,"lon":5.4032,"is_reserved":false,"is_disabled":false,"rental_uris":{"android":"levelo://app?vid=1f34c7b4-21df-4ed2-b83f-be974e7b4354","ios":"levelo://app?vid=1f34c7b4-21df-4ed2-b83f-be974e7b4354"},"vehicle_type_id":"4","last_reported":1758630016,"current_range_meters":12000,"station_id":"ce4bhlh2rcd13ifvqgig","pricing_plan_id":"cebpf4jnsgd1na2vs0mg"},{"bike_id":"573e58b7-a468-4c13-ae46-0d4bd2c6e3ef","system_id":"levelo_inurba_marseille","lat":43.28939,"lon":5.38387,"is_reserved":false,"is_disabled":false,"rental_uris":{"android":"levelo://app?vid=573e58b7-a468-4c13-ae46-0d4bd2c6e3ef","ios":"levelo://app?vid=573e58b7-a468-4c13-ae46-0d4bd2c6e3ef"},"vehicle_type_id":"4","last_reported":1758630016,"current_range_meters":12400,"station_id":"ce4bh612rcd13ifvqe6g","pricing_plan_id":"cebpf4jnsgd1na2vs0mg"},{"bike_id":"5c2b9598-88ff-4d7f-bde2-ae259279d64e","system_id":"levelo_inurba_marseille","lat":43.212,"lon":5.35074,"is_reserved":false,"is_disabled":false,"rental_uris":{"android":"levelo://app?vid=5c2b9598-88ff-4d7f-bde2-ae259279d64e","ios":"levelo://app?vid=5c2b9598-88ff-4d7f-bde2-ae259279d64e"},"vehicle_type_id":"4","last_reported":1758630016,"current_range_meters":12400,"station_id":"st_cvj6sg6p6f1abm77japg","pricing_plan_id":"cebpf4jnsgd1na2vs0mg"},{"bike_id":"e8787da6-0f2b-41ca-a600-3cac7a0d3992","system_id":"levelo_inurba_marseille","lat":43.31221,"lon":5.36883,"is_reserved":false,"is_disabled":false,"rental_uris":{"android":"levelo://app?vid=e8787da6-0f2b-41ca-a600-3cac7a0d3992","ios":"levelo://app?vid=e8787da6-0f2b-41ca-a600-3cac7a0d3992"},"vehicle_type_id":"4","last_reported":1758630016,"current_range_meters":12800,"station_id":"ce4bgl92rcd13ifvqbq0","pricing_plan_id":"cebpf4jnsgd1na2vs0mg"},{"bike_id":"2a2f1ce0-5eb2-4ab6-a692-64d9649dcb94","system_id":"levelo_inurba_marseille","lat":43.22578,"lon":5.41632,"is_reserved":false,"is_disabled":false,"rental_uris":{"android":"levelo://app?vid=2a2f1ce0-5eb2-4ab6-a692-64d9649dcb94","ios":"levelo://app?vid=2a2f1ce0-5eb2-4ab6-a692-64d9649dcb94"},"vehicle_type_id":"4","last_reported":1758630016,"current_range_meters":12800,"station_id":"st_d2o4gvlbi1j2169b742g","pricing_plan_id":"cebpf4jnsgd1na2vs0mg"},{"bike_id":"1cad1d56-7373-48ea-a63b-7b3c0493e4b4","system_id":"levelo_inurba_marseille","lat":43.28275,"lon":5.3507,"is_reserved":false,"is_disabled":false,"rental_uris":{"android":"levelo://app?vid=1cad1d56-7373-48ea-a63b-7b3c0493e4b4","ios":"levelo://app?vid=1cad1d56-7373-48ea-a63b-7b3c0493e4b4"},"vehicle_type_id":"4","last_reported":1758630016,"current_range_meters":13600,"station_id":"ce4bhbp2rcd13ifvqerg","pricing_plan_id":"cebpf4jnsgd1na2vs0mg"},{"bike_id":"6875e661-a2e3-423d-a4f5-d79cdbcc11b6","system_id":"levelo_inurba_marseille","lat":43.29589,"lon":5.36732,"is_reserved":false,"is_disabled":false,"rental_uris":{"android":"levelo://app?vid=6875e661-a2e3-423d-a4f5-d79cdbcc11b6","ios":"levelo://app?vid=6875e661-a2e3-423d-a4f5-d79cdbcc11b6"},"vehicle_type_id":"4","last_reported":1758630016,"current_range_meters":13600,"station_id":"ce4bgph2rcd13ifvqc2g","pricing_plan_id":"cebpf4jnsgd1na2vs0mg"},{"bike_id":"5d1eb6ca-29f8-452e-909d-a0cd17d365e2","system_id":"levelo_inurba_marseille","lat":43.29369,"lon":5.37849,"is_reserved":false,"is_disabled":false,"rental_uris":{"android":"levelo://app?vid=5d1eb6ca-29f8-452e-909d-a0cd17d365e2","ios":"levelo://app?vid=5d1eb6ca-29f8-452e-909d-a0cd17d365e2"},"vehicle_type_id":"4","last_reported":1758630016,"current_range_meters":13600,"station_id":"ce4bgjh2rcd13ifvqbf0","pricing_plan_id":"cebpf4jnsgd1na2vs0mg"},{"bike_id":"9a013cb9-1ab0-461a-8d98-0949cea720de","system_id":"levelo_inurba_marseille","lat":43.29973,"lon":5.38504,"is_reserved":false,"is_disabled":false,"rental_uris":{"android":"levelo://app?vid=9a013cb9-1ab0-461a-8d98-0949cea720de","ios":"levelo://app?vid=9a013cb9-1ab0-461a-8d98-0949cea720de"},"vehicle_type_id":"4","last_reported":1758630016,"current_range_meters":13600,"station_id":"ce4bgj92rcd13ifvqbd0","pricing_plan_id":"cebpf4jnsgd1na2vs0mg"},{"bike_id":"0d93d80f-23fc-4b4f-918d-28fde704208b","system_id":"levelo_inurba_marseille","lat":43.2418,"lon":5.36389,"is_reserved":false,"is_disabled":false,"rental_uris":{"android":"levelo://app?vid=0d93d80f-23fc-4b4f-918d-28fde704208b","ios":"levelo://app?vid=0d93d80f-23fc-4b4f-918d-28fde704208b"},"vehicle_type_id":"4","last_reported":1758630016,"current_range_meters":13600,"station_id":"cpo36qri1sfpv3e86is0","pricing_plan_id":"cebpf4jnsgd1na2vs0mg"},{"bike_id":"5c6070a0-0fa7-40a1-bae4-90214c4809f1","system_id":"levelo_inurba_marseille","lat":43.28619,"lon":5.35105,"is_reserved":false,"is_disabled":false,"rental_uris":{"android":"levelo://app?vid=5c6070a0-0fa7-40a1-bae4-90214c4809f1","ios":"levelo://app?vid=5c6070a0-0fa7-40a1-bae4-90214c4809f1"},"vehicle_type_id":"4","last_reported":1758630016,"current_range_meters":13600,"station_id":"ce4bhch2rcd13ifvqeug","pricing_plan_id":"cebpf4jnsgd1na2vs0mg"},{"bike_id":"be037bdd-a7e2-4d75-bb3f-91bdc78b125c","system_id":"levelo_inurba_marseille","lat":43.29714,"lon":5.36599,"is_reserved":false,"is_disabled":false,"rental_uris":{"android":"levelo://app?vid=be037bdd-a7e2-4d75-bb3f-91bdc78b125c","ios":"levelo://app?vid=be037bdd-a7e2-4d75-bb3f-91bdc78b125c"},"vehicle_type_id":"4","last_reported":1758630016,"current_range_meters":13600,"station_id":"ce4bgn12rcd13ifvqbt0","pricing_plan_id":"cebpf4jnsgd1na2vs0mg"},{"bike_id":"30bb83fe-1759-4439-94c7-873da2c2a5e5","system_id":"levelo_inurba_marseille","lat":43.23153,"lon":5.43716,"is_reserved":false,"is_disabled":false,"rental_uris":{"android":"levelo://app?vid=30bb83fe-1759-4439-94c7-873da2c2a5e5","ios":"levelo://app?vid=30bb83fe-1759-4439-94c7-873da2c2a5e5"},"vehicle_type_id":"4","last_reported":1758630016,"current_range_meters":13600,"station_id":"ce4bhmp2rcd13ifvqgog","pricing_plan_id":"cebpf4jnsgd1na2vs0mg"},{"bike_id":"42704bee-9abe-4e63-b823-b9e5e0082fc5","system_id":"levelo_inurba_marseille","lat":43.317204,"lon":5.437132,"is_reserved":false,"is_disabled":false,"rental_uris":{"android":"levelo://app?vid=42704bee-9abe-4e63-b823-b9e5e0082fc5","ios":"levelo://app?vid=42704bee-9abe-4e63-b823-b9e5e0082fc5"},"vehicle_type_id":"4","last_reported":1758630016,"current_range_meters":14000,"station_id":"ce4bhp92rcd13ifvqhcg","pricing_plan_id":"cebpf4jnsgd1na2vs0mg"},{"bike_id":"bb8378cf-8ff1-4433-b1a7-5492596ea123","system_id":"levelo_inurba_marseille","lat":43.30585,"lon":5.39363,"is_reserved":false,"is_disabled":false,"rental_uris":{"android":"levelo://app?vid=bb8378cf-8ff1-4433-b1a7-5492596ea123","ios":"levelo://app?vid=bb8378cf-8ff1-4433-b1a7-5492596ea123"},"vehicle_type_id":"4","last_reported":1758630016,"current_range_meters":14000,"station_id":"ce4bh0p2rcd13ifvqd80","pricing_plan_id":"cebpf4jnsgd1na2vs0mg"},{"bike_id":"ebd45b5d-0ed8-4e09-9086-a837608bf74c","system_id":"levelo_inurba_marseille","lat":43.28425,"lon":5.34982,"is_reserved":false,"is_disabled":false,"rental_uris":{"android":"levelo://app?vid=ebd45b5d-0ed8-4e09-9086-a837608bf74c","ios":"levelo://app?vid=ebd45b5d-0ed8-4e09-9086-a837608bf74c"},"vehicle_type_id":"4","last_reported":1758630016,"current_range_meters":14000,"station_id":"ce4bhbh2rcd13ifvqepg","pricing_plan_id":"cebpf4jnsgd1na2vs0mg"},{"bike_id":"f3b0f77b-a56a-437a-9db0-4f53f71a5bf9","system_id":"levelo_inurba_marseille","lat":43.25119,"lon":5.40318,"is_reserved":false,"is_disabled":false,"rental_uris":{"android":"levelo://app?vid=f3b0f77b-a56a-437a-9db0-4f53f71a5bf9","ios":"levelo://app?vid=f3b0f77b-a56a-437a-9db0-4f53f71a5bf9"},"vehicle_type_id":"4","last_reported":1758630016,"current_range_meters":14000,"station_id":"ce4bhlh2rcd13ifvqgig","pricing_plan_id":"cebpf4jnsgd1na2vs0mg"},{"bike_id":"3025cf20-d4d0-4a70-ad1f-fa415b19a070","system_id":"levelo_inurba_marseille","lat":43.31311,"lon":5.36728,"is_reserved":false,"is_disabled":false,"rental_uris":{"android":"levelo://app?vid=3025cf20-d4d0-4a70-ad1f-fa415b19a070","ios":"levelo://app?vid=3025cf20-d4d0-4a70-ad1f-fa415b19a070"},"vehicle_type_id":"4","last_reported":1758630016,"current_range_meters":14000,"station_id":"ce4bgr92rcd13ifvqc6g","pricing_plan_id":"cebpf4jnsgd1na2vs0mg"},{"bike_id":"51b93413-1342-426f-8416-856b80eac246","system_id":"levelo_inurba_marseille","lat":43.282725,"lon":5.350534,"is_reserved":false,"is_disabled":false,"rental_uris":{"android":"levelo://app?vid=51b93413-1342-426f-8416-856b80eac246","ios":"levelo://app?vid=51b93413-1342-426f-8416-856b80eac246"},"vehicle_type_id":"4","last_reported":1758630016,"current_range_meters":14400,"station_id":"","pricing_plan_id":"cebpf4jnsgd1na2vs0mg"},{"bike_id":"84ed6c5f-ee83-4d29-9c03-bc2c90d6c59c","system_id":"levelo_inurba_marseille","lat":43.3053,"lon":5.3671,"is_reserved":false,"is_disabled":false,"rental_uris":{"android":"levelo://app?vid=84ed6c5f-ee83-4d29-9c03-bc2c90d6c59c","ios":"levelo://app?vid=84ed6c5f-ee83-4d29-9c03-bc2c90d6c59c"},"vehicle_type_id":"4","last_reported":1758630016,"current_range_meters":14800,"station_id":"ce4bgrp2rcd13ifvqc9g","pricing_plan_id":"cebpf4jnsgd1na2vs0mg"},{"bike_id":"6ac17a81-0487-4557-9f83-8f554f6e083e","system_id":"levelo_inurba_marseille","lat":43.32045,"lon":5.37126,"is_reserved":false,"is_disabled":false,"rental_uris":{"android":"levelo://app?vid=6ac17a81-0487-4557-9f83-8f554f6e083e","ios":"levelo://app?vid=6ac17a81-0487-4557-9f83-8f554f6e083e"},"vehicle_type_id":"4","last_reported":1758630016,"current_range_meters":14400,"station_id":"","pricing_plan_id":"cebpf4jnsgd1na2vs0mg"},{"bike_id":"fae7e526-e4bc-4bca-bbd8-dfec2f6559ba","system_id":"levelo_inurba_marseille","lat":43.319902,"lon":5.381488,"is_reserved":false,"is_disabled":false,"rental_uris":{"android":"levelo://app?vid=fae7e526-e4bc-4bca-bbd8-dfec2f6559ba","ios":"levelo://app?vid=fae7e526-e4bc-4bca-bbd8-dfec2f6559ba"},"vehicle_type_id":"4","last_reported":1758630016,"current_range_meters":14400,"station_id":"ce4bhr12rcd13ifvqhpg","pricing_plan_id":"cebpf4jnsgd1na2vs0mg"},{"bike_id":"8f63bb28-daf3-434a-b520-4ffc9e66dc1c","system_id":"levelo_inurba_marseille","lat":43.25627,"lon":5.41185,"is_reserved":false,"is_disabled":false,"rental_uris":{"android":"levelo://app?vid=8f63bb28-daf3-434a-b520-4ffc9e66dc1c","ios":"levelo://app?vid=8f63bb28-daf3-434a-b520-4ffc9e66dc1c"},"vehicle_type_id":"4","last_reported":1758630016,"current_range_meters":14400,"station_id":"","pricing_plan_id":"cebpf4jnsgd1na2vs0mg"},{"bike_id":"4c657e84-6818-4929-a977-8506ea5f576e","system_id":"levelo_inurba_marseille","lat":43.24953,"lon":5.40492,"is_reserved":false,"is_disabled":false,"rental_uris":{"android":"levelo://app?vid=4c657e84-6818-4929-a977-8506ea5f576e","ios":"levelo://app?vid=4c657e84-6818-4929-a977-8506ea5f576e"},"vehicle_type_id":"4","last_reported":1758630016,"current_range_meters":14400,"station_id":"st_d2ngiaodas8pm72gd1h0","pricing_plan_id":"cebpf4jnsgd1na2vs0mg"},{"bike_id":"5b1a36c8-304b-48bf-aa9d-28113bdf9ed6","system_id":"levelo_inurba_marseille","lat":43.30381,"lon":5.42491,"is_reserved":false,"is_disabled":false,"rental_uris":{"android":"levelo://app?vid=5b1a36c8-304b-48bf-aa9d-28113bdf9ed6","ios":"levelo://app?vid=5b1a36c8-304b-48bf-aa9d-28113bdf9ed6"},"vehicle_type_id":"4","last_reported":1758630016,"current_range_meters":14400,"station_id":"ce4bhoh2rcd13ifvqh6g","pricing_plan_id":"cebpf4jnsgd1na2vs0mg"},{"bike_id":"7b3329e5-fafa-4dfb-a463-76e2467de163","system_id":"levelo_inurba_marseille","lat":43.29977,"lon":5.37171,"is_reserved":false,"is_disabled":false,"rental_uris":{"android":"levelo://app?vid=7b3329e5-fafa-4dfb-a463-76e2467de163","ios":"levelo://app?vid=7b3329e5-fafa-4dfb-a463-76e2467de163"},"vehicle_type_id":"4","last_reported":1758630016,"current_range_meters":14400,"station_id":"ce4bgr92rcd13ifvqc7g","pricing_plan_id":"cebpf4jnsgd1na2vs0mg"},{"bike_id":"c7d5dd41-d713-4e18-9736-89debbe2514c","system_id":"levelo_inurba_marseille","lat":43.291981,"lon":5.358011,"is_reserved":false,"is_disabled":false,"rental_uris":{"android":"levelo://app?vid=c7d5dd41-d713-4e18-9736-89debbe2514c","ios":"levelo://app?vid=c7d5dd41-d713-4e18-9736-89debbe2514c"},"vehicle_type_id":"4","last_reported":1758630016,"current_range_meters":14400,"station_id":"ce4bhb12rcd13ifvqel0","pricing_plan_id":"cebpf4jnsgd1na2vs0mg"},{"bike_id":"43d57fd4-047e-4ac8-97e5-ec9b96239472","system_id":"levelo_inurba_marseille","lat":43.33231,"lon":5.39821,"is_reserved":false,"is_disabled":false,"rental_uris":{"android":"levelo://app?vid=43d57fd4-047e-4ac8-97e5-ec9b96239472","ios":"levelo://app?vid=43d57fd4-047e-4ac8-97e5-ec9b96239472"},"vehicle_type_id":"4","last_reported":1758630016,"current_range_meters":14400,"station_id":"","pricing_plan_id":"cebpf4jnsgd1na2vs0mg"},{"bike_id":"303786bb-f827-43e7-b41e-fdcefd5770de","system_id":"levelo_inurba_marseille","lat":43.254909,"lon":5.376474,"is_reserved":false,"is_disabled":false,"rental_uris":{"android":"levelo://app?vid=303786bb-f827-43e7-b41e-fdcefd5770de","ios":"levelo://app?vid=303786bb-f827-43e7-b41e-fdcefd5770de"},"vehicle_type_id":"4","last_reported":1758630016,"current_range_meters":14000,"station_id":"ce4bhh12rcd13ifvqff0","pricing_plan_id":"cebpf4jnsgd1na2vs0mg"},{"bike_id":"6606233b-d7ad-41f1-a240-4bcf1162c1c3","system_id":"levelo_inurba_marseille","lat":43.29587,"lon":5.36741,"is_reserved":false,"is_disabled":false,"rental_uris":{"android":"levelo://app?vid=6606233b-d7ad-41f1-a240-4bcf1162c1c3","ios":"levelo://app?vid=6606233b-d7ad-41f1-a240-4bcf1162c1c3"},"vehicle_type_id":"4","last_reported":1758630016,"current_range_meters":14800,"station_id":"ce4bgph2rcd13ifvqc2g","pricing_plan_id":"cebpf4jnsgd1na2vs0mg"},{"bike_id":"7c0482c3-9253-4d1b-b4f3-be55cdb7721d","system_id":"levelo_inurba_marseille","lat":43.33757,"lon":5.37466,"is_reserved":false,"is_disabled":false,"rental_uris":{"android":"levelo://app?vid=7c0482c3-9253-4d1b-b4f3-be55cdb7721d","ios":"levelo://app?vid=7c0482c3-9253-4d1b-b4f3-be55cdb7721d"},"vehicle_type_id":"4","last_reported":1758630016,"current_range_meters":14800,"station_id":"","pricing_plan_id":"cebpf4jnsgd1na2vs0mg"},{"bike_id":"0c5c6f42-d2cf-489b-8e01-3cee334b1df6","system_id":"levelo_inurba_marseille","lat":43.32491,"lon":5.36573,"is_reserved":false,"is_disabled":false,"rental_uris":{"android":"levelo://app?vid=0c5c6f42-d2cf-489b-8e01-3cee334b1df6","ios":"levelo://app?vid=0c5c6f42-d2cf-489b-8e01-3cee334b1df6"},"vehicle_type_id":"4","last_reported":1758630016,"current_range_meters":14800,"station_id":"ce4bhs12rcd13ifvqhvg","pricing_plan_id":"cebpf4jnsgd1na2vs0mg"},{"bike_id":"1f7155ca-6d5d-46a2-b9d2-aed45ae1cc4a","system_id":"levelo_inurba_marseille","lat":43.30639,"lon":5.40065,"is_reserved":false,"is_disabled":false,"rental_uris":{"android":"levelo://app?vid=1f7155ca-6d5d-46a2-b9d2-aed45ae1cc4a","ios":"levelo://app?vid=1f7155ca-6d5d-46a2-b9d2-aed45ae1cc4a"},"vehicle_type_id":"4","last_reported":1758630016,"current_range_meters":14800,"station_id":"ce4bh112rcd13ifvqda0","pricing_plan_id":"cebpf4jnsgd1na2vs0mg"},{"bike_id":"1cd32492-01d3-4698-85a3-f552c709f67e","system_id":"levelo_inurba_marseille","lat":43.2873,"lon":5.39987,"is_reserved":false,"is_disabled":false,"rental_uris":{"android":"levelo://app?vid=1cd32492-01d3-4698-85a3-f552c709f67e","ios":"levelo://app?vid=1cd32492-01d3-4698-85a3-f552c709f67e"},"vehicle_type_id":"4","last_reported":1758630016,"current_range_meters":14800,"station_id":"ce4bho92rcd13ifvqh3g","pricing_plan_id":"cebpf4jnsgd1na2vs0mg"},{"bike_id":"f8d6c6d2-a76b-4197-a754-9be858267b97","system_id":"levelo_inurba_marseille","lat":43.33027,"lon":5.39044,"is_reserved":false,"is_disabled":false,"rental_uris":{"android":"levelo://app?vid=f8d6c6d2-a76b-4197-a754-9be858267b97","ios":"levelo://app?vid=f8d6c6d2-a76b-4197-a754-9be858267b97"},"vehicle_type_id":"4","last_reported":1758630016,"current_range_meters":14800,"station_id":"ce4bhr92rcd13ifvqhrg","pricing_plan_id":"cebpf4jnsgd1na2vs0mg"},{"bike_id":"0cb93c3e-f4be-46ab-96df-67ed36f5707e","system_id":"levelo_inurba_marseille","lat":43.31265,"lon":5.40168,"is_reserved":false,"is_disabled":false,"rental_uris":{"android":"levelo://app?vid=0cb93c3e-f4be-46ab-96df-67ed36f5707e","ios":"levelo://app?vid=0cb93c3e-f4be-46ab-96df-67ed36f5707e"},"vehicle_type_id":"4","last_reported":1758630016,"current_range_meters":14400,"station_id":"ce4bh092rcd13ifvqd30","pricing_plan_id":"cebpf4jnsgd1na2vs0mg"},{"bike_id":"eba01587-aeed-4123-b2ce-9abc98879f91","system_id":"levelo_inurba_marseille","lat":43.2707,"lon":5.42285,"is_reserved":false,"is_disabled":false,"rental_uris":{"android":"levelo://app?vid=eba01587-aeed-4123-b2ce-9abc98879f91","ios":"levelo://app?vid=eba01587-aeed-4123-b2ce-9abc98879f91"},"vehicle_type_id":"4","last_reported":1758630016,"current_range_meters":15200,"station_id":"ce4bhk92rcd13ifvqgb0","pricing_plan_id":"cebpf4jnsgd1na2vs0mg"},{"bike_id":"06a24bce-028d-4b4a-b4a3-d45296145db5","system_id":"levelo_inurba_marseille","lat":43.28425,"lon":5.34991,"is_reserved":false,"is_disabled":true,"rental_uris":{"android":"levelo://app?vid=06a24bce-028d-4b4a-b4a3-d45296145db5","ios":"levelo://app?vid=06a24bce-028d-4b4a-b4a3-d45296145db5"},"vehicle_type_id":"4","last_reported":1758630016,"current_range_meters":15200,"station_id":"ce4bhch2rcd13ifvqeug","pricing_plan_id":"cebpf4jnsgd1na2vs0mg"},{"bike_id":"781ec3f5-b9cc-4e84-aa29-d17ad816a188","system_id":"levelo_inurba_marseille","lat":43.29694,"lon":5.37285,"is_reserved":false,"is_disabled":false,"rental_uris":{"android":"levelo://app?vid=781ec3f5-b9cc-4e84-aa29-d17ad816a188","ios":"levelo://app?vid=781ec3f5-b9cc-4e84-aa29-d17ad816a188"},"vehicle_type_id":"4","last_reported":1758630016,"current_range_meters":15200,"station_id":"ce4bgk12rcd13ifvqbj0","pricing_plan_id":"cebpf4jnsgd1na2vs0mg"},{"bike_id":"daa8c5e0-271c-4473-9fcf-fef1f6636825","system_id":"levelo_inurba_marseille","lat":43.28417,"lon":5.37519,"is_reserved":false,"is_disabled":true,"rental_uris":{"android":"levelo://app?vid=daa8c5e0-271c-4473-9fcf-fef1f6636825","ios":"levelo://app?vid=daa8c5e0-271c-4473-9fcf-fef1f6636825"},"vehicle_type_id":"4","last_reported":1758630016,"current_range_meters":15200,"station_id":"ce4bh412rcd13ifvqds0","pricing_plan_id":"cebpf4jnsgd1na2vs0mg"},{"bike_id":"bfd2ca00-f58a-4c59-aa70-bff99b2c4476","system_id":"levelo_inurba_marseille","lat":43.26215,"lon":5.37444,"is_reserved":false,"is_disabled":false,"rental_uris":{"android":"levelo://app?vid=bfd2ca00-f58a-4c59-aa70-bff99b2c4476","ios":"levelo://app?vid=bfd2ca00-f58a-4c59-aa70-bff99b2c4476"},"vehicle_type_id":"4","last_reported":1758630016,"current_range_meters":15200,"station_id":"ce4bhgp2rcd13ifvqfc0","pricing_plan_id":"cebpf4jnsgd1na2vs0mg"},{"bike_id":"9c7a180f-bee6-48c2-9ad2-181dea55ce36","system_id":"levelo_inurba_marseille","lat":43.31719,"lon":5.43703,"is_reserved":false,"is_disabled":false,"rental_uris":{"android":"levelo://app?vid=9c7a180f-bee6-48c2-9ad2-181dea55ce36","ios":"levelo://app?vid=9c7a180f-bee6-48c2-9ad2-181dea55ce36"},"vehicle_type_id":"4","last_reported":1758630016,"current_range_meters":16000,"station_id":"ce4bhp92rcd13ifvqhcg","pricing_plan_id":"cebpf4jnsgd1na2vs0mg"},{"bike_id":"fea2c190-cb68-42e9-9971-47a5dafa1766","system_id":"levelo_inurba_marseille","lat":43.27065,"lon":5.40265,"is_reserved":false,"is_disabled":false,"rental_uris":{"android":"levelo://app?vid=fea2c190-cb68-42e9-9971-47a5dafa1766","ios":"levelo://app?vid=fea2c190-cb68-42e9-9971-47a5dafa1766"},"vehicle_type_id":"4","last_reported":1758630016,"current_range_meters":16000,"station_id":"ce4bhk92rcd13ifvqgc0","pricing_plan_id":"cebpf4jnsgd1na2vs0mg"},{"bike_id":"2e86854b-25f6-4d9b-a3a1-fb7c707a145b","system_id":"levelo_inurba_marseille","lat":43.24191,"lon":5.39725,"is_reserved":false,"is_disabled":false,"rental_uris":{"android":"levelo://app?vid=2e86854b-25f6-4d9b-a3a1-fb7c707a145b","ios":"levelo://app?vid=2e86854b-25f6-4d9b-a3a1-fb7c707a145b"},"vehicle_type_id":"4","last_reported":1758630016,"current_range_meters":16000,"station_id":"ce4bhn12rcd13ifvqgpg","pricing_plan_id":"cebpf4jnsgd1na2vs0mg"},{"bike_id":"34728ec4-eac5-4dfb-ac35-e25a33cd487d","system_id":"levelo_inurba_marseille","lat":43.29525,"lon":5.39034,"is_reserved":false,"is_disabled":false,"rental_uris":{"android":"levelo://app?vid=34728ec4-eac5-4dfb-ac35-e25a33cd487d","ios":"levelo://app?vid=34728ec4-eac5-4dfb-ac35-e25a33cd487d"},"vehicle_type_id":"4","last_reported":1758630016,"current_range_meters":16000,"station_id":"ce4bh3p2rcd13ifvqdp0","pricing_plan_id":"cebpf4jnsgd1na2vs0mg"},{"bike_id":"b7a2fd05-48af-40a6-93ba-1d0f3216ae07","system_id":"levelo_inurba_marseille","lat":43.29254,"lon":5.37626,"is_reserved":false,"is_disabled":false,"rental_uris":{"android":"levelo://app?vid=b7a2fd05-48af-40a6-93ba-1d0f3216ae07","ios":"levelo://app?vid=b7a2fd05-48af-40a6-93ba-1d0f3216ae07"},"vehicle_type_id":"4","last_reported":1758630016,"current_range_meters":16000,"station_id":"ce4bgi12rcd13ifvqb80","pricing_plan_id":"cebpf4jnsgd1na2vs0mg"},{"bike_id":"ec998397-70b6-4c87-8660-ea0f660bcbd7","system_id":"levelo_inurba_marseille","lat":43.280846,"lon":5.396548,"is_reserved":false,"is_disabled":false,"rental_uris":{"android":"levelo://app?vid=ec998397-70b6-4c87-8660-ea0f660bcbd7","ios":"levelo://app?vid=ec998397-70b6-4c87-8660-ea0f660bcbd7"},"vehicle_type_id":"4","last_reported":1758630016,"current_range_meters":16000,"station_id":"ce4bho12rcd13ifvqh2g","pricing_plan_id":"cebpf4jnsgd1na2vs0mg"},{"bike_id":"338c6097-95cc-4915-b46a-c949f77ff738","system_id":"levelo_inurba_marseille","lat":43.28158,"lon":5.42635,"is_reserved":false,"is_disabled":false,"rental_uris":{"android":"levelo://app?vid=338c6097-95cc-4915-b46a-c949f77ff738","ios":"levelo://app?vid=338c6097-95cc-4915-b46a-c949f77ff738"},"vehicle_type_id":"4","last_reported":1758630016,"current_range_meters":16000,"station_id":"ce4bhnh2rcd13ifvqgug","pricing_plan_id":"cebpf4jnsgd1na2vs0mg"},{"bike_id":"e7fbccca-59ee-42ad-a21c-fa784c21a860","system_id":"levelo_inurba_marseille","lat":43.29045,"lon":5.39956,"is_reserved":false,"is_disabled":false,"rental_uris":{"android":"levelo://app?vid=e7fbccca-59ee-42ad-a21c-fa784c21a860","ios":"levelo://app?vid=e7fbccca-59ee-42ad-a21c-fa784c21a860"},"vehicle_type_id":"4","last_reported":1758630016,"current_range_meters":16000,"station_id":"ce4bh392rcd13ifvqdm0","pricing_plan_id":"cebpf4jnsgd1na2vs0mg"},{"bike_id":"b46318e1-3483-48e5-877a-b1e76a985abd","system_id":"levelo_inurba_marseille","lat":43.25339,"lon":5.42172,"is_reserved":false,"is_disabled":false,"rental_uris":{"android":"levelo://app?vid=b46318e1-3483-48e5-877a-b1e76a985abd","ios":"levelo://app?vid=b46318e1-3483-48e5-877a-b1e76a985abd"},"vehicle_type_id":"4","last_reported":1758630016,"current_range_meters":16000,"station_id":"st_d2m65c5bi1j21697t3ng","pricing_plan_id":"cebpf4jnsgd1na2vs0mg"},{"bike_id":"c7653f69-e253-4dd9-bf32-da312db4b9a0","system_id":"levelo_inurba_marseille","lat":43.30908,"lon":5.36851,"is_reserved":false,"is_disabled":false,"rental_uris":{"android":"levelo://app?vid=c7653f69-e253-4dd9-bf32-da312db4b9a0","ios":"levelo://app?vid=c7653f69-e253-4dd9-bf32-da312db4b9a0"},"vehicle_type_id":"4","last_reported":1758630016,"current_range_meters":16000,"station_id":"ce4bgn92rcd13ifvqbvg","pricing_plan_id":"cebpf4jnsgd1na2vs0mg"},{"bike_id":"6e1ad3c0-fd96-43e9-a6b7-d2a1ce587f43","system_id":"levelo_inurba_marseille","lat":43.30538,"lon":5.36708,"is_reserved":false,"is_disabled":false,"rental_uris":{"android":"levelo://app?vid=6e1ad3c0-fd96-43e9-a6b7-d2a1ce587f43","ios":"levelo://app?vid=6e1ad3c0-fd96-43e9-a6b7-d2a1ce587f43"},"vehicle_type_id":"4","last_reported":1758630016,"current_range_meters":16000,"station_id":"ce4bgrp2rcd13ifvqc9g","pricing_plan_id":"cebpf4jnsgd1na2vs0mg"},{"bike_id":"ad35abec-120c-4a34-9566-219318a98693","system_id":"levelo_inurba_marseille","lat":43.28413,"lon":5.37513,"is_reserved":false,"is_disabled":false,"rental_uris":{"android":"levelo://app?vid=ad35abec-120c-4a34-9566-219318a98693","ios":"levelo://app?vid=ad35abec-120c-4a34-9566-219318a98693"},"vehicle_type_id":"4","last_reported":1758630016,"current_range_meters":16400,"station_id":"ce4bh412rcd13ifvqds0","pricing_plan_id":"cebpf4jnsgd1na2vs0mg"},{"bike_id":"adc9b767-fa5a-487c-b17d-fb3c376c3f08","system_id":"levelo_inurba_marseille","lat":43.2976,"lon":5.37708,"is_reserved":false,"is_disabled":false,"rental_uris":{"android":"levelo://app?vid=adc9b767-fa5a-487c-b17d-fb3c376c3f08","ios":"levelo://app?vid=adc9b767-fa5a-487c-b17d-fb3c376c3f08"},"vehicle_type_id":"4","last_reported":1758630016,"current_range_meters":16400,"station_id":"","pricing_plan_id":"cebpf4jnsgd1na2vs0mg"},{"bike_id":"35d95925-9a21-42b3-8313-eb6306e7a2aa","system_id":"levelo_inurba_marseille","lat":43.29713,"lon":5.37701,"is_reserved":false,"is_disabled":false,"rental_uris":{"android":"levelo://app?vid=35d95925-9a21-42b3-8313-eb6306e7a2aa","ios":"levelo://app?vid=35d95925-9a21-42b3-8313-eb6306e7a2aa"},"vehicle_type_id":"4","last_reported":1758630016,"current_range_meters":16000,"station_id":"ce4bgkh2rcd13ifvqbl0","pricing_plan_id":"cebpf4jnsgd1na2vs0mg"},{"bike_id":"dddca5ef-4a33-499b-936a-6d8e6136a417","system_id":"levelo_inurba_marseille","lat":43.22933,"lon":5.35384,"is_reserved":false,"is_disabled":false,"rental_uris":{"android":"levelo://app?vid=dddca5ef-4a33-499b-936a-6d8e6136a417","ios":"levelo://app?vid=dddca5ef-4a33-499b-936a-6d8e6136a417"},"vehicle_type_id":"4","last_reported":1758630016,"current_range_meters":16400,"station_id":"cpo3532slgdg3j2ikp40","pricing_plan_id":"cebpf4jnsgd1na2vs0mg"},{"bike_id":"8552fe36-10d8-46fd-997b-c97d2970480a","system_id":"levelo_inurba_marseille","lat":43.323569,"lon":5.367437,"is_reserved":false,"is_disabled":false,"rental_uris":{"android":"levelo://app?vid=8552fe36-10d8-46fd-997b-c97d2970480a","ios":"levelo://app?vid=8552fe36-10d8-46fd-997b-c97d2970480a"},"vehicle_type_id":"4","last_reported":1758630016,"current_range_meters":16400,"station_id":"ce4bhsh2rcd13ifvqi2g","pricing_plan_id":"cebpf4jnsgd1na2vs0mg"},{"bike_id":"b9f556a9-de86-4612-972f-7429a6da03bb","system_id":"levelo_inurba_marseille","lat":43.28152,"lon":5.42647,"is_reserved":false,"is_disabled":false,"rental_uris":{"android":"levelo://app?vid=b9f556a9-de86-4612-972f-7429a6da03bb","ios":"levelo://app?vid=b9f556a9-de86-4612-972f-7429a6da03bb"},"vehicle_type_id":"4","last_reported":1758630016,"current_range_meters":16800,"station_id":"ce4bhnh2rcd13ifvqgug","pricing_plan_id":"cebpf4jnsgd1na2vs0mg"},{"bike_id":"1cd420c9-83fb-4bc1-b7d7-4ff4e3fc796c","system_id":"levelo_inurba_marseille","lat":43.32109,"lon":5.36773,"is_reserved":false,"is_disabled":false,"rental_uris":{"android":"levelo://app?vid=1cd420c9-83fb-4bc1-b7d7-4ff4e3fc796c","ios":"levelo://app?vid=1cd420c9-83fb-4bc1-b7d7-4ff4e3fc796c"},"vehicle_type_id":"4","last_reported":1758630016,"current_range_meters":16800,"station_id":"ce4bhrh2rcd13ifvqhug","pricing_plan_id":"cebpf4jnsgd1na2vs0mg"},{"bike_id":"4c0b651b-953c-4759-a0f7-0074f59a45eb","system_id":"levelo_inurba_marseille","lat":43.25838,"lon":5.39242,"is_reserved":false,"is_disabled":false,"rental_uris":{"android":"levelo://app?vid=4c0b651b-953c-4759-a0f7-0074f59a45eb","ios":"levelo://app?vid=4c0b651b-953c-4759-a0f7-0074f59a45eb"},"vehicle_type_id":"4","last_reported":1758630016,"current_range_meters":16800,"station_id":"","pricing_plan_id":"cebpf4jnsgd1na2vs0mg"},{"bike_id":"3c0fa725-f739-4599-965d-e73d3e7b2c8f","system_id":"levelo_inurba_marseille","lat":43.32351,"lon":5.36739,"is_reserved":false,"is_disabled":false,"rental_uris":{"android":"levelo://app?vid=3c0fa725-f739-4599-965d-e73d3e7b2c8f","ios":"levelo://app?vid=3c0fa725-f739-4599-965d-e73d3e7b2c8f"},"vehicle_type_id":"4","last_reported":1758630016,"current_range_meters":16800,"station_id":"ce4bhsh2rcd13ifvqi2g","pricing_plan_id":"cebpf4jnsgd1na2vs0mg"},{"bike_id":"c8f3c8da-edc9-4118-a2a2-80f74b9d6e48","system_id":"levelo_inurba_marseille","lat":43.25093,"lon":5.39512,"is_reserved":false,"is_disabled":false,"rental_uris":{"android":"levelo://app?vid=c8f3c8da-edc9-4118-a2a2-80f74b9d6e48","ios":"levelo://app?vid=c8f3c8da-edc9-4118-a2a2-80f74b9d6e48"},"vehicle_type_id":"4","last_reported":1758630016,"current_range_meters":16800,"station_id":"ce4bhm12rcd13ifvqgkg","pricing_plan_id":"cebpf4jnsgd1na2vs0mg"},{"bike_id":"e36a0f53-6126-4647-b0be-5b5f7c8fd47d","system_id":"levelo_inurba_marseille","lat":43.26678,"lon":5.3827,"is_reserved":false,"is_disabled":false,"rental_uris":{"android":"levelo://app?vid=e36a0f53-6126-4647-b0be-5b5f7c8fd47d","ios":"levelo://app?vid=e36a0f53-6126-4647-b0be-5b5f7c8fd47d"},"vehicle_type_id":"4","last_reported":1758630016,"current_range_meters":16800,"station_id":"ce4bhg92rcd13ifvqf90","pricing_plan_id":"cebpf4jnsgd1na2vs0mg"},{"bike_id":"547121a6-ed50-4d48-bad3-f73539aaa9d7","system_id":"levelo_inurba_marseille","lat":43.212,"lon":5.35068,"is_reserved":false,"is_disabled":false,"rental_uris":{"android":"levelo://app?vid=547121a6-ed50-4d48-bad3-f73539aaa9d7","ios":"levelo://app?vid=547121a6-ed50-4d48-bad3-f73539aaa9d7"},"vehicle_type_id":"4","last_reported":1758630016,"current_range_meters":16800,"station_id":"st_cvj6sg6p6f1abm77japg","pricing_plan_id":"cebpf4jnsgd1na2vs0mg"},{"bike_id":"fc91a2b7-831a-4fae-9615-bc03a15607b4","system_id":"levelo_inurba_marseille","lat":43.30143,"lon":5.3741,"is_reserved":false,"is_disabled":false,"rental_uris":{"android":"levelo://app?vid=fc91a2b7-831a-4fae-9615-bc03a15607b4","ios":"levelo://app?vid=fc91a2b7-831a-4fae-9615-bc03a15607b4"},"vehicle_type_id":"4","last_reported":1758630016,"current_range_meters":16400,"station_id":"ce4bgs92rcd13ifvqcc0","pricing_plan_id":"cebpf4jnsgd1na2vs0mg"},{"bike_id":"9feb0e0f-24fa-4463-b0f3-30472830c043","system_id":"levelo_inurba_marseille","lat":43.31757,"lon":5.39002,"is_reserved":false,"is_disabled":false,"rental_uris":{"android":"levelo://app?vid=9feb0e0f-24fa-4463-b0f3-30472830c043","ios":"levelo://app?vid=9feb0e0f-24fa-4463-b0f3-30472830c043"},"vehicle_type_id":"4","last_reported":1758630016,"current_range_meters":17200,"station_id":"ce4bhqp2rcd13ifvqhng","pricing_plan_id":"cebpf4jnsgd1na2vs0mg"},{"bike_id":"1ee2e3a7-0129-4f7e-bddc-803fa343746b","system_id":"levelo_inurba_marseille","lat":43.34147,"lon":5.40898,"is_reserved":false,"is_disabled":false,"rental_uris":{"android":"levelo://app?vid=1ee2e3a7-0129-4f7e-bddc-803fa343746b","ios":"levelo://app?vid=1ee2e3a7-0129-4f7e-bddc-803fa343746b"},"vehicle_type_id":"4","last_reported":1758630016,"current_range_meters":17200,"station_id":"ce4bhqh2rcd13ifvqhlg","pricing_plan_id":"cebpf4jnsgd1na2vs0mg"},{"bike_id":"4c7c686b-4083-4dae-a4eb-9f350c084508","system_id":"levelo_inurba_marseille","lat":43.25505,"lon":5.37652,"is_reserved":false,"is_disabled":false,"rental_uris":{"android":"levelo://app?vid=4c7c686b-4083-4dae-a4eb-9f350c084508","ios":"levelo://app?vid=4c7c686b-4083-4dae-a4eb-9f350c084508"},"vehicle_type_id":"4","last_reported":1758630016,"current_range_meters":17200,"station_id":"ce4bhh12rcd13ifvqff0","pricing_plan_id":"cebpf4jnsgd1na2vs0mg"},{"bike_id":"f7a280eb-f969-4743-91fc-4d1debf8620f","system_id":"levelo_inurba_marseille","lat":43.25091,"lon":5.39527,"is_reserved":false,"is_disabled":false,"rental_uris":{"android":"levelo://app?vid=f7a280eb-f969-4743-91fc-4d1debf8620f","ios":"levelo://app?vid=f7a280eb-f969-4743-91fc-4d1debf8620f"},"vehicle_type_id":"4","last_reported":1758630016,"current_range_meters":17200,"station_id":"ce4bhm12rcd13ifvqgkg","pricing_plan_id":"cebpf4jnsgd1na2vs0mg"},{"bike_id":"e5ec2a3c-a297-4dc2-a4c4-3c581dabdb5a","system_id":"levelo_inurba_marseille","lat":43.2395,"lon":5.36645,"is_reserved":false,"is_disabled":false,"rental_uris":{"android":"levelo://app?vid=e5ec2a3c-a297-4dc2-a4c4-3c581dabdb5a","ios":"levelo://app?vid=e5ec2a3c-a297-4dc2-a4c4-3c581dabdb5a"},"vehicle_type_id":"4","last_reported":1758630016,"current_range_meters":17200,"station_id":"ce4bhi12rcd13ifvqfp0","pricing_plan_id":"cebpf4jnsgd1na2vs0mg"},{"bike_id":"a60abba9-f9b8-477b-8786-175fc2b6218b","system_id":"levelo_inurba_marseille","lat":43.30869,"lon":5.37167,"is_reserved":false,"is_disabled":false,"rental_uris":{"android":"levelo://app?vid=a60abba9-f9b8-477b-8786-175fc2b6218b","ios":"levelo://app?vid=a60abba9-f9b8-477b-8786-175fc2b6218b"},"vehicle_type_id":"4","last_reported":1758630016,"current_range_meters":17200,"station_id":"ce4bguh2rcd13ifvqckg","pricing_plan_id":"cebpf4jnsgd1na2vs0mg"},{"bike_id":"49d9eb13-9c16-42a5-8b0a-553a0ab4ac5f","system_id":"levelo_inurba_marseille","lat":43.33596,"lon":5.40975,"is_reserved":false,"is_disabled":false,"rental_uris":{"android":"levelo://app?vid=49d9eb13-9c16-42a5-8b0a-553a0ab4ac5f","ios":"levelo://app?vid=49d9eb13-9c16-42a5-8b0a-553a0ab4ac5f"},"vehicle_type_id":"4","last_reported":1758630016,"current_range_meters":17200,"station_id":"","pricing_plan_id":"cebpf4jnsgd1na2vs0mg"},{"bike_id":"647573e2-892a-4127-85df-9da9229fa0b8","system_id":"levelo_inurba_marseille","lat":43.28678,"lon":5.38663,"is_reserved":false,"is_disabled":false,"rental_uris":{"android":"levelo://app?vid=647573e2-892a-4127-85df-9da9229fa0b8","ios":"levelo://app?vid=647573e2-892a-4127-85df-9da9229fa0b8"},"vehicle_type_id":"4","last_reported":1758630016,"current_range_meters":17200,"station_id":"ce4bh492rcd13ifvqdug","pricing_plan_id":"cebpf4jnsgd1na2vs0mg"},{"bike_id":"95092148-5f75-4663-be7d-7c8aa2863391","system_id":"levelo_inurba_marseille","lat":43.24174,"lon":5.3638,"is_reserved":false,"is_disabled":false,"rental_uris":{"android":"levelo://app?vid=95092148-5f75-4663-be7d-7c8aa2863391","ios":"levelo://app?vid=95092148-5f75-4663-be7d-7c8aa2863391"},"vehicle_type_id":"4","last_reported":1758630016,"current_range_meters":17200,"station_id":"cpo36qri1sfpv3e86is0","pricing_plan_id":"cebpf4jnsgd1na2vs0mg"},{"bike_id":"afb79fde-6dcb-41ff-ab02-574468d54d9d","system_id":"levelo_inurba_marseille","lat":43.27682,"lon":5.38879,"is_reserved":false,"is_disabled":false,"rental_uris":{"android":"levelo://app?vid=afb79fde-6dcb-41ff-ab02-574468d54d9d","ios":"levelo://app?vid=afb79fde-6dcb-41ff-ab02-574468d54d9d"},"vehicle_type_id":"4","last_reported":1758630016,"current_range_meters":17200,"station_id":"ce4bhi12rcd13ifvqfo0","pricing_plan_id":"cebpf4jnsgd1na2vs0mg"},{"bike_id":"d8b9327a-bf13-4d9d-a1d2-647b48d95863","system_id":"levelo_inurba_marseille","lat":43.29434,"lon":5.39757,"is_reserved":false,"is_disabled":false,"rental_uris":{"android":"levelo://app?vid=d8b9327a-bf13-4d9d-a1d2-647b48d95863","ios":"levelo://app?vid=d8b9327a-bf13-4d9d-a1d2-647b48d95863"},"vehicle_type_id":"4","last_reported":1758630016,"current_range_meters":17200,"station_id":"ce4bh3h2rcd13ifvqdo0","pricing_plan_id":"cebpf4jnsgd1na2vs0mg"},{"bike_id":"9524be74-c097-42b1-a700-a43986d10e9c","system_id":"levelo_inurba_marseille","lat":43.26226,"lon":5.40439,"is_reserved":false,"is_disabled":false,"rental_uris":{"android":"levelo://app?vid=9524be74-c097-42b1-a700-a43986d10e9c","ios":"levelo://app?vid=9524be74-c097-42b1-a700-a43986d10e9c"},"vehicle_type_id":"4","last_reported":1758630016,"current_range_meters":17200,"station_id":"ce4bhmh2rcd13ifvqgmg","pricing_plan_id":"cebpf4jnsgd1na2vs0mg"},{"bike_id":"3a3429e9-152b-4e6e-8229-b8cec6f691f0","system_id":"levelo_inurba_marseille","lat":43.2904,"lon":5.39955,"is_reserved":false,"is_disabled":false,"rental_uris":{"android":"levelo://app?vid=3a3429e9-152b-4e6e-8229-b8cec6f691f0","ios":"levelo://app?vid=3a3429e9-152b-4e6e-8229-b8cec6f691f0"},"vehicle_type_id":"4","last_reported":1758630016,"current_range_meters":17200,"station_id":"ce4bh392rcd13ifvqdm0","pricing_plan_id":"cebpf4jnsgd1na2vs0mg"},{"bike_id":"e34a534e-40a2-424f-9a9f-8dd078555d70","system_id":"levelo_inurba_marseille","lat":43.31299,"lon":5.36748,"is_reserved":false,"is_disabled":false,"rental_uris":{"android":"levelo://app?vid=e34a534e-40a2-424f-9a9f-8dd078555d70","ios":"levelo://app?vid=e34a534e-40a2-424f-9a9f-8dd078555d70"},"vehicle_type_id":"4","last_reported":1758630016,"current_range_meters":17600,"station_id":"","pricing_plan_id":"cebpf4jnsgd1na2vs0mg"},{"bike_id":"ca5534d1-158a-4ad4-8599-5de4f2ca998c","system_id":"levelo_inurba_marseille","lat":43.29039,"lon":5.39969,"is_reserved":false,"is_disabled":false,"rental_uris":{"android":"levelo://app?vid=ca5534d1-158a-4ad4-8599-5de4f2ca998c","ios":"levelo://app?vid=ca5534d1-158a-4ad4-8599-5de4f2ca998c"},"vehicle_type_id":"4","last_reported":1758630016,"current_range_meters":17600,"station_id":"ce4bh392rcd13ifvqdm0","pricing_plan_id":"cebpf4jnsgd1na2vs0mg"},{"bike_id":"fe931e6c-c264-41ef-99a0-c6c5a1ca395f","system_id":"levelo_inurba_marseille","lat":43.29282,"lon":5.40133,"is_reserved":false,"is_disabled":false,"rental_uris":{"android":"levelo://app?vid=fe931e6c-c264-41ef-99a0-c6c5a1ca395f","ios":"levelo://app?vid=fe931e6c-c264-41ef-99a0-c6c5a1ca395f"},"vehicle_type_id":"4","last_reported":1758630016,"current_range_meters":17200,"station_id":"ce4bh312rcd13ifvqdk0","pricing_plan_id":"cebpf4jnsgd1na2vs0mg"},{"bike_id":"023b672d-364e-42a5-ae2f-0c02e8e52660","system_id":"levelo_inurba_marseille","lat":43.28422,"lon":5.34985,"is_reserved":false,"is_disabled":false,"rental_uris":{"android":"levelo://app?vid=023b672d-364e-42a5-ae2f-0c02e8e52660","ios":"levelo://app?vid=023b672d-364e-42a5-ae2f-0c02e8e52660"},"vehicle_type_id":"4","last_reported":1758630016,"current_range_meters":17600,"station_id":"ce4bhbh2rcd13ifvqepg","pricing_plan_id":"cebpf4jnsgd1na2vs0mg"},{"bike_id":"3ec27642-aad7-4ab3-a9a9-011928c67590","system_id":"levelo_inurba_marseille","lat":43.26935,"lon":5.38923,"is_reserved":false,"is_disabled":false,"rental_uris":{"android":"levelo://app?vid=3ec27642-aad7-4ab3-a9a9-011928c67590","ios":"levelo://app?vid=3ec27642-aad7-4ab3-a9a9-011928c67590"},"vehicle_type_id":"4","last_reported":1758630016,"current_range_meters":17600,"station_id":"ce4bhhh2rcd13ifvqfl0","pricing_plan_id":"cebpf4jnsgd1na2vs0mg"},{"bike_id":"acd73526-8b4b-4674-b73a-92ebac5d8098","system_id":"levelo_inurba_marseille","lat":43.3207,"lon":5.415521,"is_reserved":false,"is_disabled":false,"rental_uris":{"android":"levelo://app?vid=acd73526-8b4b-4674-b73a-92ebac5d8098","ios":"levelo://app?vid=acd73526-8b4b-4674-b73a-92ebac5d8098"},"vehicle_type_id":"4","last_reported":1758630016,"current_range_meters":17600,"station_id":"ce4bhq92rcd13ifvqhkg","pricing_plan_id":"cebpf4jnsgd1na2vs0mg"},{"bike_id":"c0e68bf7-21fd-4165-bde1-3bbbb2dc294b","system_id":"levelo_inurba_marseille","lat":43.29564,"lon":5.37495,"is_reserved":false,"is_disabled":true,"rental_uris":{"android":"levelo://app?vid=c0e68bf7-21fd-4165-bde1-3bbbb2dc294b","ios":"levelo://app?vid=c0e68bf7-21fd-4165-bde1-3bbbb2dc294b"},"vehicle_type_id":"4","last_reported":1758630016,"current_range_meters":18000,"station_id":"ce4bgh92rcd13ifvqb50","pricing_plan_id":"cebpf4jnsgd1na2vs0mg"},{"bike_id":"fbcf3b60-6f6d-4d3d-b3fa-6e68c8907ab7","system_id":"levelo_inurba_marseille","lat":43.27077,"lon":5.42282,"is_reserved":false,"is_disabled":false,"rental_uris":{"android":"levelo://app?vid=fbcf3b60-6f6d-4d3d-b3fa-6e68c8907ab7","ios":"levelo://app?vid=fbcf3b60-6f6d-4d3d-b3fa-6e68c8907ab7"},"vehicle_type_id":"4","last_reported":1758630016,"current_range_meters":18000,"station_id":"ce4bhk92rcd13ifvqgb0","pricing_plan_id":"cebpf4jnsgd1na2vs0mg"},{"bike_id":"7d0caa8a-aeb2-418d-ae62-a6b7b9bc68f2","system_id":"levelo_inurba_marseille","lat":43.299051,"lon":5.381417,"is_reserved":false,"is_disabled":false,"rental_uris":{"android":"levelo://app?vid=7d0caa8a-aeb2-418d-ae62-a6b7b9bc68f2","ios":"levelo://app?vid=7d0caa8a-aeb2-418d-ae62-a6b7b9bc68f2"},"vehicle_type_id":"4","last_reported":1758630016,"current_range_meters":18000,"station_id":"ce4bgj12rcd13ifvqbc0","pricing_plan_id":"cebpf4jnsgd1na2vs0mg"},{"bike_id":"f7066c79-4096-4eae-94b1-afe90980f6af","system_id":"levelo_inurba_marseille","lat":43.288576,"lon":5.393186,"is_reserved":false,"is_disabled":true,"rental_uris":{"android":"levelo://app?vid=f7066c79-4096-4eae-94b1-afe90980f6af","ios":"levelo://app?vid=f7066c79-4096-4eae-94b1-afe90980f6af"},"vehicle_type_id":"4","last_reported":1758630016,"current_range_meters":18000,"station_id":"ce4bh2p2rcd13ifvqdi0","pricing_plan_id":"cebpf4jnsgd1na2vs0mg"},{"bike_id":"b5097eea-9912-4be2-9cf9-14c224c5fab6","system_id":"levelo_inurba_marseille","lat":43.23217,"lon":5.35533,"is_reserved":false,"is_disabled":false,"rental_uris":{"android":"levelo://app?vid=b5097eea-9912-4be2-9cf9-14c224c5fab6","ios":"levelo://app?vid=b5097eea-9912-4be2-9cf9-14c224c5fab6"},"vehicle_type_id":"4","last_reported":1758630016,"current_range_meters":18000,"station_id":"ce4bhu92rcd13ifvqi70","pricing_plan_id":"cebpf4jnsgd1na2vs0mg"},{"bike_id":"33c3bc37-b0fb-4bbc-94c6-23e7c0c2d46f","system_id":"levelo_inurba_marseille","lat":43.314,"lon":5.36712,"is_reserved":false,"is_disabled":false,"rental_uris":{"android":"levelo://app?vid=33c3bc37-b0fb-4bbc-94c6-23e7c0c2d46f","ios":"levelo://app?vid=33c3bc37-b0fb-4bbc-94c6-23e7c0c2d46f"},"vehicle_type_id":"4","last_reported":1758630016,"current_range_meters":18000,"station_id":"ce4bgr92rcd13ifvqc6g","pricing_plan_id":"cebpf4jnsgd1na2vs0mg"},{"bike_id":"bdd37a6a-29fd-49f3-86ee-26a3c01098d9","system_id":"levelo_inurba_marseille","lat":43.30444,"lon":5.3792,"is_reserved":false,"is_disabled":false,"rental_uris":{"android":"levelo://app?vid=bdd37a6a-29fd-49f3-86ee-26a3c01098d9","ios":"levelo://app?vid=bdd37a6a-29fd-49f3-86ee-26a3c01098d9"},"vehicle_type_id":"4","last_reported":1758630016,"current_range_meters":18000,"station_id":"ce4bgup2rcd13ifvqcn0","pricing_plan_id":"cebpf4jnsgd1na2vs0mg"},{"bike_id":"9ea05566-3b94-432b-b3e5-db100f99f124","system_id":"levelo_inurba_marseille","lat":43.25731,"lon":5.41109,"is_reserved":false,"is_disabled":false,"rental_uris":{"android":"levelo://app?vid=9ea05566-3b94-432b-b3e5-db100f99f124","ios":"levelo://app?vid=9ea05566-3b94-432b-b3e5-db100f99f124"},"vehicle_type_id":"4","last_reported":1758630016,"current_range_meters":18000,"station_id":"ce4bhkp2rcd13ifvqgd0","pricing_plan_id":"cebpf4jnsgd1na2vs0mg"},{"bike_id":"b312f3fd-1c71-4ab3-8166-99a5e0aff6b3","system_id":"levelo_inurba_marseille","lat":43.31223,"lon":5.36907,"is_reserved":false,"is_disabled":false,"rental_uris":{"android":"levelo://app?vid=b312f3fd-1c71-4ab3-8166-99a5e0aff6b3","ios":"levelo://app?vid=b312f3fd-1c71-4ab3-8166-99a5e0aff6b3"},"vehicle_type_id":"4","last_reported":1758630016,"current_range_meters":18000,"station_id":"ce4bgl92rcd13ifvqbq0","pricing_plan_id":"cebpf4jnsgd1na2vs0mg"},{"bike_id":"d68b9cdd-055c-48e6-b5c7-c6c683b923e5","system_id":"levelo_inurba_marseille","lat":43.28629,"lon":5.35094,"is_reserved":false,"is_disabled":true,"rental_uris":{"android":"levelo://app?vid=d68b9cdd-055c-48e6-b5c7-c6c683b923e5","ios":"levelo://app?vid=d68b9cdd-055c-48e6-b5c7-c6c683b923e5"},"vehicle_type_id":"4","last_reported":1758630016,"current_range_meters":18000,"station_id":"ce4bhch2rcd13ifvqeug","pricing_plan_id":"cebpf4jnsgd1na2vs0mg"},{"bike_id":"fb9472cd-19fa-40f2-bed4-53a5198a7a5a","system_id":"levelo_inurba_marseille","lat":43.23155,"lon":5.43712,"is_reserved":false,"is_disabled":false,"rental_uris":{"android":"levelo://app?vid=fb9472cd-19fa-40f2-bed4-53a5198a7a5a","ios":"levelo://app?vid=fb9472cd-19fa-40f2-bed4-53a5198a7a5a"},"vehicle_type_id":"4","last_reported":1758630016,"current_range_meters":18000,"station_id":"ce4bhmp2rcd13ifvqgog","pricing_plan_id":"cebpf4jnsgd1na2vs0mg"},{"bike_id":"b816d576-d71a-41a1-96e0-049d5941d5d6","system_id":"levelo_inurba_marseille","lat":43.266946,"lon":5.38258,"is_reserved":false,"is_disabled":false,"rental_uris":{"android":"levelo://app?vid=b816d576-d71a-41a1-96e0-049d5941d5d6","ios":"levelo://app?vid=b816d576-d71a-41a1-96e0-049d5941d5d6"},"vehicle_type_id":"4","last_reported":1758630016,"current_range_meters":18800,"station_id":"ce4bhg92rcd13ifvqf90","pricing_plan_id":"cebpf4jnsgd1na2vs0mg"},{"bike_id":"4d1696d1-fee5-4cbb-b6cf-473bb9852d90","system_id":"levelo_inurba_marseille","lat":43.29703,"lon":5.37687,"is_reserved":false,"is_disabled":false,"rental_uris":{"android":"levelo://app?vid=4d1696d1-fee5-4cbb-b6cf-473bb9852d90","ios":"levelo://app?vid=4d1696d1-fee5-4cbb-b6cf-473bb9852d90"},"vehicle_type_id":"4","last_reported":1758630016,"current_range_meters":18800,"station_id":"ce4bgkh2rcd13ifvqbl0","pricing_plan_id":"cebpf4jnsgd1na2vs0mg"},{"bike_id":"0306c5d5-8061-4818-a9c1-9604d16570d9","system_id":"levelo_inurba_marseille","lat":43.24176,"lon":5.36389,"is_reserved":false,"is_disabled":false,"rental_uris":{"android":"levelo://app?vid=0306c5d5-8061-4818-a9c1-9604d16570d9","ios":"levelo://app?vid=0306c5d5-8061-4818-a9c1-9604d16570d9"},"vehicle_type_id":"4","last_reported":1758630016,"current_range_meters":18800,"station_id":"cpo36qri1sfpv3e86is0","pricing_plan_id":"cebpf4jnsgd1na2vs0mg"},{"bike_id":"d8776e6e-502b-419b-a2ba-53f094ba2c15","system_id":"levelo_inurba_marseille","lat":43.25727,"lon":5.41112,"is_reserved":false,"is_disabled":false,"rental_uris":{"android":"levelo://app?vid=d8776e6e-502b-419b-a2ba-53f094ba2c15","ios":"levelo://app?vid=d8776e6e-502b-419b-a2ba-53f094ba2c15"},"vehicle_type_id":"4","last_reported":1758630016,"current_range_meters":18800,"station_id":"ce4bhkp2rcd13ifvqgd0","pricing_plan_id":"cebpf4jnsgd1na2vs0mg"},{"bike_id":"45d97ba3-b04a-43ac-8719-c9e530fef261","system_id":"levelo_inurba_marseille","lat":43.29794,"lon":5.38105,"is_reserved":false,"is_disabled":false,"rental_uris":{"android":"levelo://app?vid=45d97ba3-b04a-43ac-8719-c9e530fef261","ios":"levelo://app?vid=45d97ba3-b04a-43ac-8719-c9e530fef261"},"vehicle_type_id":"4","last_reported":1758630016,"current_range_meters":19200,"station_id":"ce4bgip2rcd13ifvqbb0","pricing_plan_id":"cebpf4jnsgd1na2vs0mg"},{"bike_id":"891d779a-3787-40fe-807e-436cf621bf41","system_id":"levelo_inurba_marseille","lat":43.29976,"lon":5.3717,"is_reserved":false,"is_disabled":false,"rental_uris":{"android":"levelo://app?vid=891d779a-3787-40fe-807e-436cf621bf41","ios":"levelo://app?vid=891d779a-3787-40fe-807e-436cf621bf41"},"vehicle_type_id":"4","last_reported":1758630016,"current_range_meters":19200,"station_id":"ce4bgr92rcd13ifvqc7g","pricing_plan_id":"cebpf4jnsgd1na2vs0mg"},{"bike_id":"ef00c611-56e3-4d87-83a8-6fad9627913a","system_id":"levelo_inurba_marseille","lat":43.308894,"lon":5.371943,"is_reserved":false,"is_disabled":false,"rental_uris":{"android":"levelo://app?vid=ef00c611-56e3-4d87-83a8-6fad9627913a","ios":"levelo://app?vid=ef00c611-56e3-4d87-83a8-6fad9627913a"},"vehicle_type_id":"4","last_reported":1758630016,"current_range_meters":19200,"station_id":"ce4bguh2rcd13ifvqckg","pricing_plan_id":"cebpf4jnsgd1na2vs0mg"},{"bike_id":"4a9a978a-712d-4a16-907b-c03240f6abbd","system_id":"levelo_inurba_marseille","lat":43.23072,"lon":5.35479,"is_reserved":false,"is_disabled":false,"rental_uris":{"android":"levelo://app?vid=4a9a978a-712d-4a16-907b-c03240f6abbd","ios":"levelo://app?vid=4a9a978a-712d-4a16-907b-c03240f6abbd"},"vehicle_type_id":"4","last_reported":1758630016,"current_range_meters":19200,"station_id":"cpo3342slgdg3j2ifvpg","pricing_plan_id":"cebpf4jnsgd1na2vs0mg"},{"bike_id":"67fe6986-2673-437e-8298-b410a875da84","system_id":"levelo_inurba_marseille","lat":43.336,"lon":5.41029,"is_reserved":false,"is_disabled":false,"rental_uris":{"android":"levelo://app?vid=67fe6986-2673-437e-8298-b410a875da84","ios":"levelo://app?vid=67fe6986-2673-437e-8298-b410a875da84"},"vehicle_type_id":"4","last_reported":1758630016,"current_range_meters":19200,"station_id":"ce4bhqh2rcd13ifvqhmg","pricing_plan_id":"cebpf4jnsgd1na2vs0mg"},{"bike_id":"e2017298-7010-4fcc-9644-9ccfb0f46125","system_id":"levelo_inurba_marseille","lat":43.30111,"lon":5.41525,"is_reserved":false,"is_disabled":false,"rental_uris":{"android":"levelo://app?vid=e2017298-7010-4fcc-9644-9ccfb0f46125","ios":"levelo://app?vid=e2017298-7010-4fcc-9644-9ccfb0f46125"},