{"last_updated":1732619308,"ttl":60,"version":"2.2","data":{"bikes":[{"bike_id":"d9c28aa4-81a4-4d13-8fc9-100bb4e3d7e2","system_id":"levelo_inurba_marseille","lat":43.27412,"lon":5.38954,"is_reserved":false,"is_disabled":true,"rental_uris":{"android":"levelo://app?vid=d9c28aa4-81a4-4d13-8fc9-100bb4e3d7e2","ios":"levelo://app?vid=d9c28aa4-81a4-4d13-8fc9-100bb4e3d7e2"},"vehicle_type_id":"4","last_reported":1732619308,"current_range_meters":0,"station_id":"","pricing_plan_id":"cebpf4jnsgd1na2vs0mg"},{"bike_id":"dee36e72-2dbd-4c06-8f38-77d20879854f","system_id":"levelo_inurba_marseille","lat":43.280076,"lon":5.400221,"is_reserved":false,"is_disabled":false,"rental_uris":{"android":"levelo://app?vid=dee36e72-2dbd-4c06-8f38-77d20879854f","ios":"levelo://app?vid=dee36e72-2dbd-4c06-8f38-77d20879854f"},"vehicle_type_id":"4","last_reported":1732619308,"current_range_meters":15200,"station_id":"ce4bho92rcd13ifvqh4g","pricing_plan_id":"cebpf4jnsgd1na2vs0mg"},{"bike_id":"b856c8b4-412d-4c25-bdd4-e6b29aed04cb","system_id":"levelo_inurba_marseille","lat":43.337444,"lon":5.374475,"is_reserved":false,"is_disabled":false,"rental_uris":{"android":"levelo://app?vid=b856c8b4-412d-4c25-bdd4-e6b29aed04cb","ios":"levelo://app?vid=b856c8b4-412d-4c25-bdd4-e6b29aed04cb"},"vehicle_type_id":"4","last_reported":1732619308,"current_range_meters":38800,"station_id":"cpo3532slgdg3j2ikp40","pricing_plan_id":"cebpf4jnsgd1na2vs0mg"},{"bike_id":"979805f3-9c2b-4f4f-bf18-695ae2e941f7","system_id":"levelo_inurba_marseille","lat":43.3361,"lon":5.41027,"is_reserved":false,"is_disabled":false,"rental_uris":{"android":"levelo://app?vid=979805f3-9c2b-4f4f-bf18-695ae2e941f7","ios":"levelo://app?vid=979805f3-9c2b-4f4f-bf18-695ae2e941f7"},"vehicle_type_id":"4","last_reported":1732619308,"current_range_meters":19200,"station_id":"ce4bhqh2rcd13ifvqhmg","pricing_plan_id":"cebpf4jnsgd1na2vs0mg"},{"bike_id":"b5530706-e7f4-4d15-b275-3ad01cff36ee","system_id":"levelo_inurba_marseille","lat":43.33608,"lon":5.41037,"is_reserved":false,"is_disabled":false,"rental_uris":{"android":"levelo://app?vid=b5530706-e7f4-4d15-b275-3ad01cff36ee","ios":"levelo://app?vid=b5530706-e7f4-4d15-b275-3ad01cff36ee"},"vehicle_type_id":"4","last_reported":1732619308,"current_range_meters":38800,"station_id":"ce4bhqh2rcd13ifvqhmg","pricing_plan_id":"cebpf4jnsgd1na2vs0mg"},{"bike_id":"b5c101e1-e4fd-4456-bc79-a51d756a2bc9","system_id":"levelo_inurba_marseille","lat":43.28442,"lon":5.39185,"is_reserved":false,"is_disabled":true,"rental_uris":{"android":"levelo://app?vid=b5c101e1-e4fd-4456-bc79-a51d756a2bc9","ios":"levelo://app?vid=b5c101e1-e4fd-4456-bc79-a51d756a2bc9"},"vehicle_type_id":"4","last_reported":1732619308,"current_range_meters":28400,"station_id":"ce4bhoh2rcd13ifvqh5g","pricing_plan_id":"cebpf4jnsgd1na2vs0mg"},{"bike_id":"2b48f9a1-245c-4b52-a2eb-7174d2d85e5e","system_id":"levelo_inurba_marseille","lat":43.30946,"lon":5.39031,"is_reserved":false,"is_disabled":true,"rental_uris":{"android":"levelo://app?vid=2b48f9a1-245c-4b52-a2eb-7174d2d85e5e","ios":"levelo://app?vid=2b48f9a1-245c-4b52-a2eb-7174d2d85e5e"},"vehicle_type_id":"4","last_reported":1732619308,"current_range_meters":0,"station_id":"ce4bgup2rcd13ifvqco0","pricing_plan_id":"cebpf4jnsgd1na2vs0mg"},{"bike_id":"eac73a78-d1ff-4392-b370-690860f36b9b","system_id":"levelo_inurba_marseille","lat":43.32367,"lon":5.38882,"is_reserved":false,"is_disabled":false,"rental_uris":{"android":"levelo://app?vid=eac73a78-d1ff-4392-b370-690860f36b9b","ios":"levelo://app?vid=eac73a78-d1ff-4392-b370-690860f36b9b"},"vehicle_type_id":"4","last_reported":1732619308,"current_range_meters":20400,"station_id":"ce4bhqp2rcd13ifvqhog","pricing_plan_id":"cebpf4jnsgd1na2vs0mg"},{"bike_id":"fd6b7b7c-7443-4ec8-ae25-480f4416ac45","system_id":"levelo_inurba_marseille","lat":43.2621,"lon":5.3744,"is_reserved":false,"is_disabled":false,"rental_uris":{"android":"levelo://app?vid=fd6b7b7c-7443-4ec8-ae25-480f4416ac45","ios":"levelo://app?vid=fd6b7b7c-7443-4ec8-ae25-480f4416ac45"},"vehicle_type_id":"4","last_reported":1732619308,"current_range_meters":38800,"station_id":"ce4bhgp2rcd13ifvqfc0","pricing_plan_id":"cebpf4jnsgd1na2vs0mg"},{"bike_id":"24be7068-a66e-46bc-9f96-e0cdbfd135fc","system_id":"levelo_inurba_marseille","lat":43.265,"lon":5.39535,"is_reserved":false,"is_disabled":false,"rental_uris":{"android":"levelo://app?vid=24be7068-a66e-46bc-9f96-e0cdbfd135fc","ios":"levelo://app?vid=24be7068-a66e-46bc-9f96-e0cdbfd135fc"},"vehicle_type_id":"4","last_reported":1732619308,"current_range_meters":5600,"station_id":"ce4bhi12rcd13ifvqfq0","pricing_plan_id":"cebpf4jnsgd1na2vs0mg"},{"bike_id":"f04824cb-3df1-426e-9df0-6ea22b35ffb7","system_id":"levelo_inurba_marseille","lat":43.23187,"lon":5.39978,"is_reserved":false,"is_disabled":false,"rental_uris":{"android":"levelo://app?vid=f04824cb-3df1-426e-9df0-6ea22b35ffb7","ios":"levelo://app?vid=f04824cb-3df1-426e-9df0-6ea22b35ffb7"},"vehicle_type_id":"4","last_reported":1732619308,"current_range_meters":38800,"station_id":"ce4bhn12rcd13ifvqgqg","pricing_plan_id":"cebpf4jnsgd1na2vs0mg"},{"bike_id":"117a2e50-51a9-48b6-ab8e-6d947c0452b8","system_id":"levelo_inurba_marseille","lat":43.27068,"lon":5.42271,"is_reserved":false,"is_disabled":false,"rental_uris":{"android":"levelo://app?vid=117a2e50-51a9-48b6-ab8e-6d947c0452b8","ios":"levelo://app?vid=117a2e50-51a9-48b6-ab8e-6d947c0452b8"},"vehicle_type_id":"4","last_reported":1732619308,"current_range_meters":38800,"station_id":"ce4bhk92rcd13ifvqgb0","pricing_plan_id":"cebpf4jnsgd1na2vs0mg"},{"bike_id":"38e5dd59-c780-4856-8550-b20273f4e496","system_id":"levelo_inurba_marseille","lat":43.30426,"lon":5.38907,"is_reserved":false,"is_disabled":true,"rental_uris":{"android":"levelo://app?vid=38e5dd59-c780-4856-8550-b20273f4e496","ios":"levelo://app?vid=38e5dd59-c780-4856-8550-b20273f4e496"},"vehicle_type_id":"4","last_reported":1732619308,"current_range_meters":26000,"station_id":"ce4bgk12rcd13ifvqbi0","pricing_plan_id":"cebpf4jnsgd1na2vs0mg"},{"bike_id":"2231c890-82b1-4fb4-b0d7-5edbe090c957","system_id":"levelo_inurba_marseille","lat":43.25003,"lon":5.38938,"is_reserved":false,"is_disabled":true,"rental_uris":{"android":"levelo://app?vid=2231c890-82b1-4fb4-b0d7-5edbe090c957","ios":"levelo://app?vid=2231c890-82b1-4fb4-b0d7-5edbe090c957"},"vehicle_type_id":"4","last_reported":1732619308,"current_range_meters":24000,"station_id":"ce4bhgp2rcd13ifvqfd0","pricing_plan_id":"cebpf4jnsgd1na2vs0mg"},{"bike_id":"11a0ae1a-8d34-442f-abec-878ae67379cd","system_id":"levelo_inurba_marseille","lat":43.337444,"lon":5.374475,"is_reserved":false,"is_disabled":false,"rental_uris":{"android":"levelo://app?vid=11a0ae1a-8d34-442f-abec-878ae67379cd","ios":"levelo://app?vid=11a0ae1a-8d34-442f-abec-878ae67379cd"},"vehicle_type_id":"4","last_reported":1732619308,"current_range_meters":38400,"station_id":"","pricing_plan_id":"cebpf4jnsgd1na2vs0mg"},{"bike_id":"436dd976-416d-469e-afba-0c5538b79c29","system_id":"levelo_inurba_marseille","lat":43.25197,"lon":5.39133,"is_reserved":false,"is_disabled":true,"rental_uris":{"android":"levelo://app?vid=436dd976-416d-469e-afba-0c5538b79c29","ios":"levelo://app?vid=436dd976-416d-469e-afba-0c5538b79c29"},"vehicle_type_id":"4","last_reported":1732619308,"current_range_meters":0,"station_id":"","pricing_plan_id":"cebpf4jnsgd1na2vs0mg"},{"bike_id":"15431eb2-b4a6-4f69-8b25-8b9cba8b0604","system_id":"levelo_inurba_marseille","lat":43.280815,"lon":5.396676,"is_reserved":false,"is_disabled":false,"rental_uris":{"android":"levelo://app?vid=15431eb2-b4a6-4f69-8b25-8b9cba8b0604","ios":"levelo://app?vid=15431eb2-b4a6-4f69-8b25-8b9cba8b0604"},"vehicle_type_id":"4","last_reported":1732619308,"current_range_meters":37600,"station_id":"ce4bho12rcd13ifvqh2g","pricing_plan_id":"cebpf4jnsgd1na2vs0mg"},{"bike_id":"029d6b5f-bf5d-4ffe-af86-cd610c3a671c","system_id":"levelo_inurba_marseille","lat":43.28723,"lon":5.36091,"is_reserved":false,"is_disabled":false,"rental_uris":{"android":"levelo://app?vid=029d6b5f-bf5d-4ffe-af86-cd610c3a671c","ios":"levelo://app?vid=029d6b5f-bf5d-4ffe-af86-cd610c3a671c"},"vehicle_type_id":"4","last_reported":1732619308,"current_range_meters":25600,"station_id":"cki0cbj6b192h4jlfktg","pricing_plan_id":"cebpf4jnsgd1na2vs0mg"},{"bike_id":"26ec1a22-5020-45e4-ab45-512c7f67d5dd","system_id":"levelo_inurba_marseille","lat":43.32036,"lon":5.415,"is_reserved":false,"is_disabled":true,"rental_uris":{"android":"levelo://app?vid=26ec1a22-5020-45e4-ab45-512c7f67d5dd","ios":"levelo://app?vid=26ec1a22-5020-45e4-ab45-512c7f67d5dd"},"vehicle_type_id":"4","last_reported":1732619308,"current_range_meters":38800,"station_id":"ce4bhq92rcd13ifvqhkg","pricing_plan_id":"cebpf4jnsgd1na2vs0mg"},{"bike_id":"d2a93a8e-0c91-4dd2-9676-3963d5d8c707","system_id":"levelo_inurba_marseille","lat":43.30429,"lon":5.38891,"is_reserved":false,"is_disabled":true,"rental_uris":{"android":"levelo://app?vid=d2a93a8e-0c91-4dd2-9676-3963d5d8c707","ios":"levelo://app?vid=d2a93a8e-0c91-4dd2-9676-3963d5d8c707"},"vehicle_type_id":"4","last_reported":1732619308,"current_range_meters":0,"station_id":"ce4bgk12rcd13ifvqbi0","pricing_plan_id":"cebpf4jnsgd1na2vs0mg"},{"bike_id":"5d95998b-17b9-491d-af92-448605152fe8","system_id":"levelo_inurba_marseille","lat":43.27948,"lon":5.41039,"is_reserved":false,"is_disabled":false,"rental_uris":{"android":"levelo://app?vid=5d95998b-17b9-491d-af92-448605152fe8","ios":"levelo://app?vid=5d95998b-17b9-491d-af92-448605152fe8"},"vehicle_type_id":"4","last_reported":1732619308,"current_range_meters":14000,"station_id":"ce4bhnp2rcd13ifvqh0g","pricing_plan_id":"cebpf4jnsgd1na2vs0mg"},{"bike_id":"008df394-a4fc-4070-833b-4b8ca3581b96","system_id":"levelo_inurba_marseille","lat":43.31227,"lon":5.36856,"is_reserved":false,"is_disabled":false,"rental_uris":{"android":"levelo://app?vid=008df394-a4fc-4070-833b-4b8ca3581b96","ios":"levelo://app?vid=008df394-a4fc-4070-833b-4b8ca3581b96"},"vehicle_type_id":"4","last_reported":1732619308,"current_range_meters":8800,"station_id":"ce4bgl92rcd13ifvqbq0","pricing_plan_id":"cebpf4jnsgd1na2vs0mg"},{"bike_id":"9f8aea45-6317-46b2-bfdf-12486e5e39e0","system_id":"levelo_inurba_marseille","lat":43.31267,"lon":5.36756,"is_reserved":false,"is_disabled":true,"rental_uris":{"android":"levelo://app?vid=9f8aea45-6317-46b2-bfdf-12486e5e39e0","ios":"levelo://app?vid=9f8aea45-6317-46b2-bfdf-12486e5e39e0"},"vehicle_type_id":"4","last_reported":1732619308,"current_range_meters":0,"station_id":"","pricing_plan_id":"cebpf4jnsgd1na2vs0mg"},{"bike_id":"0957a422-753b-4b81-be11-d080ad7c9e18","system_id":"levelo_inurba_marseille","lat":43.30545,"lon":5.36703,"is_reserved":false,"is_disabled":false,"rental_uris":{"android":"levelo://app?vid=0957a422-753b-4b81-be11-d080ad7c9e18","ios":"levelo://app?vid=0957a422-753b-4b81-be11-d080ad7c9e18"},"vehicle_type_id":"4","last_reported":1732619308,"current_range_meters":36800,"station_id":"ce4bgrp2rcd13ifvqc9g","pricing_plan_id":"cebpf4jnsgd1na2vs0mg"},{"bike_id":"259784ed-2535-48df-a51a-6ff7db4379ea","system_id":"levelo_inurba_marseille","lat":43.28076,"lon":5.39661,"is_reserved":false,"is_disabled":false,"rental_uris":{"android":"levelo://app?vid=259784ed-2535-48df-a51a-6ff7db4379ea","ios":"levelo://app?vid=259784ed-2535-48df-a51a-6ff7db4379ea"},"vehicle_type_id":"4","last_reported":1732619308,"current_range_meters":36000,"station_id":"ce4bho12rcd13ifvqh2g","pricing_plan_id":"cebpf4jnsgd1na2vs0mg"},{"bike_id":"4de3f7a9-dede-421a-9310-d6c21fee1591","system_id":"levelo_inurba_marseille","lat":43.25934,"lon":5.40901,"is_reserved":false,"is_disabled":false,"rental_uris":{"android":"levelo://app?vid=4de3f7a9-dede-421a-9310-d6c21fee1591","ios":"levelo://app?vid=4de3f7a9-dede-421a-9310-d6c21fee1591"},"vehicle_type_id":"4","last_reported":1732619308,"current_range_meters":30800,"station_id":"ce4bhm92rcd13ifvqglg","pricing_plan_id":"cebpf4jnsgd1na2vs0mg"},{"bike_id":"c0c086a9-22d2-40a0-b629-75d711f67e11","system_id":"levelo_inurba_marseille","lat":43.24659,"lon":5.3816,"is_reserved":false,"is_disabled":false,"rental_uris":{"android":"levelo://app?vid=c0c086a9-22d2-40a0-b629-75d711f67e11","ios":"levelo://app?vid=c0c086a9-22d2-40a0-b629-75d711f67e11"},"vehicle_type_id":"4","last_reported":1732619308,"current_range_meters":31200,"station_id":"ce4bhih2rcd13ifvqfr0","pricing_plan_id":"cebpf4jnsgd1na2vs0mg"},{"bike_id":"b3d148f5-c6b6-40c3-9460-15c820f9d79d","system_id":"levelo_inurba_marseille","lat":43.27915,"lon":5.39586,"is_reserved":false,"is_disabled":false,"rental_uris":{"android":"levelo://app?vid=b3d148f5-c6b6-40c3-9460-15c820f9d79d","ios":"levelo://app?vid=b3d148f5-c6b6-40c3-9460-15c820f9d79d"},"vehicle_type_id":"4","last_reported":1732619308,"current_range_meters":36400,"station_id":"ce4bhf92rcd13ifvqf40","pricing_plan_id":"cebpf4jnsgd1na2vs0mg"},{"bike_id":"b325fdfe-2140-41f0-b1c7-50e944b036b6","system_id":"levelo_inurba_marseille","lat":43.24809,"lon":5.37456,"is_reserved":false,"is_disabled":false,"rental_uris":{"android":"levelo://app?vid=b325fdfe-2140-41f0-b1c7-50e944b036b6","ios":"levelo://app?vid=b325fdfe-2140-41f0-b1c7-50e944b036b6"},"vehicle_type_id":"4","last_reported":1732619308,"current_range_meters":19200,"station_id":"ce4bhgh2rcd13ifvqfb0","pricing_plan_id":"cebpf4jnsgd1na2vs0mg"},{"bike_id":"44b1f4db-9263-4061-91b2-f4965ec817dd","system_id":"levelo_inurba_marseille","lat":43.29526,"lon":5.39405,"is_reserved":false,"is_disabled":false,"rental_uris":{"android":"levelo://app?vid=44b1f4db-9263-4061-91b2-f4965ec817dd","ios":"levelo://app?vid=44b1f4db-9263-4061-91b2-f4965ec817dd"},"vehicle_type_id":"4","last_reported":1732619308,"current_range_meters":32400,"station_id":"ce4bh292rcd13ifvqdf0","pricing_plan_id":"cebpf4jnsgd1na2vs0mg"},{"bike_id":"8bfd2db3-9c30-4ac4-82ab-dc0a88c4e9a9","system_id":"levelo_inurba_marseille","lat":43.23153,"lon":5.43715,"is_reserved":false,"is_disabled":false,"rental_uris":{"android":"levelo://app?vid=8bfd2db3-9c30-4ac4-82ab-dc0a88c4e9a9","ios":"levelo://app?vid=8bfd2db3-9c30-4ac4-82ab-dc0a88c4e9a9"},"vehicle_type_id":"4","last_reported":1732619308,"current_range_meters":23200,"station_id":"ce4bhmp2rcd13ifvqgog","pricing_plan_id":"cebpf4jnsgd1na2vs0mg"},{"bike_id":"32f7daf2-f036-40a6-815c-678ef4dc00a4","system_id":"levelo_inurba_marseille","lat":43.27666,"lon":5.38884,"is_reserved":false,"is_disabled":false,"rental_uris":{"android":"levelo://app?vid=32f7daf2-f036-40a6-815c-678ef4dc00a4","ios":"levelo://app?vid=32f7daf2-f036-40a6-815c-678ef4dc00a4"},"vehicle_type_id":"4","last_reported":1732619308,"current_range_meters":38800,"station_id":"ce4bhi12rcd13ifvqfo0","pricing_plan_id":"cebpf4jnsgd1na2vs0mg"},{"bike_id":"83f442cf-579e-46be-91e9-63bdc8bc05b6","system_id":"levelo_inurba_marseille","lat":43.25929,"lon":5.40901,"is_reserved":false,"is_disabled":false,"rental_uris":{"android":"levelo://app?vid=83f442cf-579e-46be-91e9-63bdc8bc05b6","ios":"levelo://app?vid=83f442cf-579e-46be-91e9-63bdc8bc05b6"},"vehicle_type_id":"4","last_reported":1732619308,"current_range_meters":36800,"station_id":"ce4bhm92rcd13ifvqglg","pricing_plan_id":"cebpf4jnsgd1na2vs0mg"},{"bike_id":"0a2d70bc-b761-4725-9e3d-6717bfcaa6cc","system_id":"levelo_inurba_marseille","lat":43.337444,"lon":5.374475,"is_reserved":false,"is_disabled":false,"rental_uris":{"android":"levelo://app?vid=0a2d70bc-b761-4725-9e3d-6717bfcaa6cc","ios":"levelo://app?vid=0a2d70bc-b761-4725-9e3d-6717bfcaa6cc"},"vehicle_type_id":"4","last_reported":1732619308,"current_range_meters":38400,"station_id":"","pricing_plan_id":"cebpf4jnsgd1na2vs0mg"},{"bike_id":"1e3d2aed-a3f4-4aef-8605-9a4732190938","system_id":"levelo_inurba_marseille","lat":43.26059,"lon":5.3939,"is_reserved":false,"is_disabled":false,"rental_uris":{"android":"levelo://app?vid=1e3d2aed-a3f4-4aef-8605-9a4732190938","ios":"levelo://app?vid=1e3d2aed-a3f4-4aef-8605-9a4732190938"},"vehicle_type_id":"4","last_reported":1732619308,"current_range_meters":34800,"station_id":"ce4bhh92rcd13ifvqfj0","pricing_plan_id":"cebpf4jnsgd1na2vs0mg"},{"bike_id":"c29462b2-6f03-4354-a0a3-f395b21c5128","system_id":"levelo_inurba_marseille","lat":43.27495,"lon":5.42449,"is_reserved":false,"is_disabled":true,"rental_uris":{"android":"levelo://app?vid=c29462b2-6f03-4354-a0a3-f395b21c5128","ios":"levelo://app?vid=c29462b2-6f03-4354-a0a3-f395b21c5128"},"vehicle_type_id":"4","last_reported":1732619308,"current_range_meters":0,"station_id":"ce4bhn92rcd13ifvqgrg","pricing_plan_id":"cebpf4jnsgd1na2vs0mg"},{"bike_id":"820f12a0-cf28-488c-8a74-3f1b9d2e4db5","system_id":"levelo_inurba_marseille","lat":43.23056,"lon":5.35491,"is_reserved":false,"is_disabled":false,"rental_uris":{"android":"levelo://app?vid=820f12a0-cf28-488c-8a74-3f1b9d2e4db5","ios":"levelo://app?vid=820f12a0-cf28-488c-8a74-3f1b9d2e4db5"},"vehicle_type_id":"4","last_reported":1732619308,"current_range_meters":24800,"station_id":"cpo3342slgdg3j2ifvpg","pricing_plan_id":"cebpf4jnsgd1na2vs0mg"},{"bike_id":"b990b4e2-a552-43b1-b5a5-77f3d79148bd","system_id":"levelo_inurba_marseille","lat":43.25495,"lon":5.37646,"is_reserved":false,"is_disabled":false,"rental_uris":{"android":"levelo://app?vid=b990b4e2-a552-43b1-b5a5-77f3d79148bd","ios":"levelo://app?vid=b990b4e2-a552-43b1-b5a5-77f3d79148bd"},"vehicle_type_id":"4","last_reported":1732619308,"current_range_meters":22800,"station_id":"ce4bhh12rcd13ifvqff0","pricing_plan_id":"cebpf4jnsgd1na2vs0mg"},{"bike_id":"37ebd768-ba4e-4092-9496-38b6e1597cad","system_id":"levelo_inurba_marseille","lat":43.29937,"lon":5.36539,"is_reserved":false,"is_disabled":false,"rental_uris":{"android":"levelo://app?vid=37ebd768-ba4e-4092-9496-38b6e1597cad","ios":"levelo://app?vid=37ebd768-ba4e-4092-9496-38b6e1597cad"},"vehicle_type_id":"4","last_reported":1732619308,"current_range_meters":14800,"station_id":"ce4bgm92rcd13ifvqbr0","pricing_plan_id":"cebpf4jnsgd1na2vs0mg"},{"bike_id":"7cfc7d24-05ea-4d3c-86fb-767d1bef412c","system_id":"levelo_inurba_marseille","lat":43.25118,"lon":5.40317,"is_reserved":false,"is_disabled":false,"rental_uris":{"android":"levelo://app?vid=7cfc7d24-05ea-4d3c-86fb-767d1bef412c","ios":"levelo://app?vid=7cfc7d24-05ea-4d3c-86fb-767d1bef412c"},"vehicle_type_id":"4","last_reported":1732619308,"current_range_meters":16000,"station_id":"ce4bhlh2rcd13ifvqgig","pricing_plan_id":"cebpf4jnsgd1na2vs0mg"},{"bike_id":"bb047e28-c44c-4872-b369-77c0bb0cc6d3","system_id":"levelo_inurba_marseille","lat":43.337444,"lon":5.374475,"is_reserved":false,"is_disabled":false,"rental_uris":{"android":"levelo://app?vid=bb047e28-c44c-4872-b369-77c0bb0cc6d3","ios":"levelo://app?vid=bb047e28-c44c-4872-b369-77c0bb0cc6d3"},"vehicle_type_id":"4","last_reported":1732619308,"current_range_meters":9200,"station_id":"","pricing_plan_id":"cebpf4jnsgd1na2vs0mg"},{"bike_id":"67b6a3fa-1eec-4286-b804-6481a690c11d","system_id":"levelo_inurba_marseille","lat":43.29223,"lon":5.36336,"is_reserved":false,"is_disabled":false,"rental_uris":{"android":"levelo://app?vid=67b6a3fa-1eec-4286-b804-6481a690c11d","ios":"levelo://app?vid=67b6a3fa-1eec-4286-b804-6481a690c11d"},"vehicle_type_id":"4","last_reported":1732619308,"current_range_meters":37600,"station_id":"ce4bh012rcd13ifvqcv0","pricing_plan_id":"cebpf4jnsgd1na2vs0mg"},{"bike_id":"d1df6e53-000d-467b-8749-a391521578f1","system_id":"levelo_inurba_marseille","lat":43.30879,"lon":5.39658,"is_reserved":false,"is_disabled":false,"rental_uris":{"android":"levelo://app?vid=d1df6e53-000d-467b-8749-a391521578f1","ios":"levelo://app?vid=d1df6e53-000d-467b-8749-a391521578f1"},"vehicle_type_id":"4","last_reported":1732619308,"current_range_meters":37600,"station_id":"ce4bh012rcd13ifvqcv0","pricing_plan_id":"cebpf4jnsgd1na2vs0mg"},{"bike_id":"39b12e76-d675-4b6c-8c62-824692964c19","system_id":"levelo_inurba_marseille","lat":43.29704,"lon":5.3769,"is_reserved":false,"is_disabled":false,"rental_uris":{"android":"levelo://app?vid=39b12e76-d675-4b6c-8c62-824692964c19","ios":"levelo://app?vid=39b12e76-d675-4b6c-8c62-824692964c19"},"vehicle_type_id":"4","last_reported":1732619308,"current_range_meters":1200,"station_id":"ce4bgkh2rcd13ifvqbl0","pricing_plan_id":"cebpf4jnsgd1na2vs0mg"},{"bike_id":"38e1e885-f00f-4432-8f79-85aa98593c2f","system_id":"levelo_inurba_marseille","lat":43.2721,"lon":5.3918,"is_reserved":false,"is_disabled":false,"rental_uris":{"android":"levelo://app?vid=38e1e885-f00f-4432-8f79-85aa98593c2f","ios":"levelo://app?vid=38e1e885-f00f-4432-8f79-85aa98593c2f"},"vehicle_type_id":"4","last_reported":1732619308,"current_range_meters":1200,"station_id":"ce4bhhp2rcd13ifvqfm0","pricing_plan_id":"cebpf4jnsgd1na2vs0mg"},{"bike_id":"62965e1e-ade4-47c8-a5ff-f8c8cd07ca98","system_id":"levelo_inurba_marseille","lat":43.27617,"lon":5.36109,"is_reserved":false,"is_disabled":true,"rental_uris":{"android":"levelo://app?vid=62965e1e-ade4-47c8-a5ff-f8c8cd07ca98","ios":"levelo://app?vid=62965e1e-ade4-47c8-a5ff-f8c8cd07ca98"},"vehicle_type_id":"4","last_reported":1732619308,"current_range_meters":37600,"station_id":"ce4bgj92rcd13ifvqbe0","pricing_plan_id":"cebpf4jnsgd1na2vs0mg"},{"bike_id":"8ef02f6e-4404-4ff3-ab1d-50d1ccbdeca6","system_id":"levelo_inurba_marseille","lat":43.28695,"lon":5.37385,"is_reserved":false,"is_disabled":false,"rental_uris":{"android":"levelo://app?vid=8ef02f6e-4404-4ff3-ab1d-50d1ccbdeca6","ios":"levelo://app?vid=8ef02f6e-4404-4ff3-ab1d-50d1ccbdeca6"},"vehicle_type_id":"4","last_reported":1732619308,"current_range_meters":22800,"station_id":"ce4bh3p2rcd13ifvqdq0","pricing_plan_id":"cebpf4jnsgd1na2vs0mg"},{"bike_id":"54fcdae9-3ee8-419a-ada6-cc85ac90e046","system_id":"levelo_inurba_marseille","lat":43.30908,"lon":5.36849,"is_reserved":false,"is_disabled":false,"rental_uris":{"android":"levelo://app?vid=54fcdae9-3ee8-419a-ada6-cc85ac90e046","ios":"levelo://app?vid=54fcdae9-3ee8-419a-ada6-cc85ac90e046"},"vehicle_type_id":"4","last_reported":1732619308,"current_range_meters":38800,"station_id":"ce4bgn92rcd13ifvqbvg","pricing_plan_id":"cebpf4jnsgd1na2vs0mg"},{"bike_id":"ec2c977a-ebf7-49a7-8260-e79df0d73670","system_id":"levelo_inurba_marseille","lat":43.24999,"lon":5.38921,"is_reserved":false,"is_disabled":false,"rental_uris":{"android":"levelo://app?vid=ec2c977a-ebf7-49a7-8260-e79df0d73670","ios":"levelo://app?vid=ec2c977a-ebf7-49a7-8260-e79df0d73670"},"vehicle_type_id":"4","last_reported":1732619308,"current_range_meters":36400,"station_id":"ce4bhgp2rcd13ifvqfd0","pricing_plan_id":"cebpf4jnsgd1na2vs0mg"},{"bike_id":"5b8cd3b4-e243-4fba-aaf5-11d686fcd3e4","system_id":"levelo_inurba_marseille","lat":43.29006,"lon":5.35619,"is_reserved":false,"is_disabled":false,"rental_uris":{"android":"levelo://app?vid=5b8cd3b4-e243-4fba-aaf5-11d686fcd3e4","ios":"levelo://app?vid=5b8cd3b4-e243-4fba-aaf5-11d686fcd3e4"},"vehicle_type_id":"4","last_reported":1732619308,"current_range_meters":24800,"station_id":"ce4bhb92rcd13ifvqen0","pricing_plan_id":"cebpf4jnsgd1na2vs0mg"},{"bike_id":"7a528987-9c62-4282-ae57-31b94412b3b2","system_id":"levelo_inurba_marseille","lat":43.25003,"lon":5.38933,"is_reserved":false,"is_disabled":false,"rental_uris":{"android":"levelo://app?vid=7a528987-9c62-4282-ae57-31b94412b3b2","ios":"levelo://app?vid=7a528987-9c62-4282-ae57-31b94412b3b2"},"vehicle_type_id":"4","last_reported":1732619308,"current_range_meters":4400,"station_id":"ce4bhgp2rcd13ifvqfd0","pricing_plan_id":"cebpf4jnsgd1na2vs0mg"},{"bike_id":"d065423b-f4fe-4e59-899f-08236d369c99","system_id":"levelo_inurba_marseille","lat":43.29569,"lon":5.39981,"is_reserved":false,"is_disabled":false,"rental_uris":{"android":"levelo://app?vid=d065423b-f4fe-4e59-899f-08236d369c99","ios":"levelo://app?vid=d065423b-f4fe-4e59-899f-08236d369c99"},"vehicle_type_id":"4","last_reported":1732619308,"current_range_meters":37600,"station_id":"ce4bh312rcd13ifvqdj0","pricing_plan_id":"cebpf4jnsgd1na2vs0mg"},{"bike_id":"cf7c9153-0dc8-430f-83bc-b3f293869575","system_id":"levelo_inurba_marseille","lat":43.33726,"lon":5.39185,"is_reserved":false,"is_disabled":false,"rental_uris":{"android":"levelo://app?vid=cf7c9153-0dc8-430f-83bc-b3f293869575","ios":"levelo://app?vid=cf7c9153-0dc8-430f-83bc-b3f293869575"},"vehicle_type_id":"4","last_reported":1732619308,"current_range_meters":10000,"station_id":"ce4bhr92rcd13ifvqhsg","pricing_plan_id":"cebpf4jnsgd1na2vs0mg"},{"bike_id":"2a5481cd-ff53-4043-8ffe-7e6ecd7906ca","system_id":"levelo_inurba_marseille","lat":43.30532,"lon":5.36535,"is_reserved":false,"is_disabled":false,"rental_uris":{"android":"levelo://app?vid=2a5481cd-ff53-4043-8ffe-7e6ecd7906ca","ios":"levelo://app?vid=2a5481cd-ff53-4043-8ffe-7e6ecd7906ca"},"vehicle_type_id":"4","last_reported":1732619308,"current_range_meters":27200,"station_id":"ce4bgs12rcd13ifvqcag","pricing_plan_id":"cebpf4jnsgd1na2vs0mg"},{"bike_id":"d11648c1-f4dc-4824-920f-ecea74229cb7","system_id":"levelo_inurba_marseille","lat":43.29972,"lon":5.38492,"is_reserved":false,"is_disabled":false,"rental_uris":{"android":"levelo://app?vid=d11648c1-f4dc-4824-920f-ecea74229cb7","ios":"levelo://app?vid=d11648c1-f4dc-4824-920f-ecea74229cb7"},"vehicle_type_id":"4","last_reported":1732619308,"current_range_meters":38000,"station_id":"ce4bgj92rcd13ifvqbd0","pricing_plan_id":"cebpf4jnsgd1na2vs0mg"},{"bike_id":"1997cc20-6bd0-43f5-85fc-0754c9a8b2e4","system_id":"levelo_inurba_marseille","lat":43.28619,"lon":5.35103,"is_reserved":false,"is_disabled":false,"rental_uris":{"android":"levelo://app?vid=1997cc20-6bd0-43f5-85fc-0754c9a8b2e4","ios":"levelo://app?vid=1997cc20-6bd0-43f5-85fc-0754c9a8b2e4"},"vehicle_type_id":"4","last_reported":1732619308,"current_range_meters":37600,"station_id":"ce4bhch2rcd13ifvqeug","pricing_plan_id":"cebpf4jnsgd1na2vs0mg"},{"bike_id":"1727785f-b8e7-4951-be6f-cc832b160a14","system_id":"levelo_inurba_marseille","lat":43.27494,"lon":5.4245,"is_reserved":false,"is_disabled":false,"rental_uris":{"android":"levelo://app?vid=1727785f-b8e7-4951-be6f-cc832b160a14","ios":"levelo://app?vid=1727785f-b8e7-4951-be6f-cc832b160a14"},"vehicle_type_id":"4","last_reported":1732619308,"current_range_meters":32800,"station_id":"ce4bhn92rcd13ifvqgrg","pricing_plan_id":"cebpf4jnsgd1na2vs0mg"},{"bike_id":"4d809776-4d2b-4bf5-8aa6-666b5b1fd18f","system_id":"levelo_inurba_marseille","lat":43.33731,"lon":5.3918,"is_reserved":false,"is_disabled":false,"rental_uris":{"android":"levelo://app?vid=4d809776-4d2b-4bf5-8aa6-666b5b1fd18f","ios":"levelo://app?vid=4d809776-4d2b-4bf5-8aa6-666b5b1fd18f"},"vehicle_type_id":"4","last_reported":1732619308,"current_range_meters":38800,"station_id":"ce4bhr92rcd13ifvqhsg","pricing_plan_id":"cebpf4jnsgd1na2vs0mg"},{"bike_id":"48463c71-0fc5-44bc-ab80-e71f5219ce7d","system_id":"levelo_inurba_marseille","lat":43.27493,"lon":5.42455,"is_reserved":false,"is_disabled":false,"rental_uris":{"android":"levelo://app?vid=48463c71-0fc5-44bc-ab80-e71f5219ce7d","ios":"levelo://app?vid=48463c71-0fc5-44bc-ab80-e71f5219ce7d"},"vehicle_type_id":"4","last_reported":1732619308,"current_range_meters":27600,"station_id":"ce4bhn92rcd13ifvqgrg","pricing_plan_id":"cebpf4jnsgd1na2vs0mg"},{"bike_id":"e80c77b7-df4c-42f1-b71d-bce618ebfe41","system_id":"levelo_inurba_marseille","lat":43.23193,"lon":5.35543,"is_reserved":false,"is_disabled":false,"rental_uris":{"android":"levelo://app?vid=e80c77b7-df4c-42f1-b71d-bce618ebfe41","ios":"levelo://app?vid=e80c77b7-df4c-42f1-b71d-bce618ebfe41"},"vehicle_type_id":"4","last_reported":1732619308,"current_range_meters":15200,"station_id":"ce4bhu92rcd13ifvqi70","pricing_plan_id":"cebpf4jnsgd1na2vs0mg"},{"bike_id":"16d1da16-0006-471b-bea0-d468322d1893","system_id":"levelo_inurba_marseille","lat":43.29033,"lon":5.3813,"is_reserved":false,"is_disabled":true,"rental_uris":{"android":"levelo://app?vid=16d1da16-0006-471b-bea0-d468322d1893","ios":"levelo://app?vid=16d1da16-0006-471b-bea0-d468322d1893"},"vehicle_type_id":"4","last_reported":1732619308,"current_range_meters":23200,"station_id":"ce4bh4p2rcd13ifvqe1g","pricing_plan_id":"cebpf4jnsgd1na2vs0mg"},{"bike_id":"0bc01a91-dc9a-4345-b02a-3fcc82b2e0ec","system_id":"levelo_inurba_marseille","lat":43.28723,"lon":5.37939,"is_reserved":false,"is_disabled":false,"rental_uris":{"android":"levelo://app?vid=0bc01a91-dc9a-4345-b02a-3fcc82b2e0ec","ios":"levelo://app?vid=0bc01a91-dc9a-4345-b02a-3fcc82b2e0ec"},"vehicle_type_id":"4","last_reported":1732619308,"current_range_meters":6800,"station_id":"ce4bh9p2rcd13ifvqec0","pricing_plan_id":"cebpf4jnsgd1na2vs0mg"},{"bike_id":"babeb021-287f-4cad-8f8c-7c2e7f913148","system_id":"levelo_inurba_marseille","lat":43.2407,"lon":5.37744,"is_reserved":false,"is_disabled":false,"rental_uris":{"android":"levelo://app?vid=babeb021-287f-4cad-8f8c-7c2e7f913148","ios":"levelo://app?vid=babeb021-287f-4cad-8f8c-7c2e7f913148"},"vehicle_type_id":"4","last_reported":1732619308,"current_range_meters":15200,"station_id":"ce4bhnp2rcd13ifvqgvg","pricing_plan_id":"cebpf4jnsgd1na2vs0mg"},{"bike_id":"30e856e7-53f5-4729-a77e-238fa992e2d2","system_id":"levelo_inurba_marseille","lat":43.30529,"lon":5.36689,"is_reserved":false,"is_disabled":false,"rental_uris":{"android":"levelo://app?vid=30e856e7-53f5-4729-a77e-238fa992e2d2","ios":"levelo://app?vid=30e856e7-53f5-4729-a77e-238fa992e2d2"},"vehicle_type_id":"4","last_reported":1732619308,"current_range_meters":38800,"station_id":"ce4bgrp2rcd13ifvqc9g","pricing_plan_id":"cebpf4jnsgd1na2vs0mg"},{"bike_id":"2a09209b-9e53-4e93-a4c9-9ab475d29893","system_id":"levelo_inurba_marseille","lat":43.30236,"lon":5.37457,"is_reserved":false,"is_disabled":false,"rental_uris":{"android":"levelo://app?vid=2a09209b-9e53-4e93-a4c9-9ab475d29893","ios":"levelo://app?vid=2a09209b-9e53-4e93-a4c9-9ab475d29893"},"vehicle_type_id":"4","last_reported":1732619308,"current_range_meters":17600,"station_id":"","pricing_plan_id":"cebpf4jnsgd1na2vs0mg"},{"bike_id":"145542e8-c4f2-4c57-acd0-2e754476b5e3","system_id":"levelo_inurba_marseille","lat":43.30193,"lon":5.36595,"is_reserved":false,"is_disabled":false,"rental_uris":{"android":"levelo://app?vid=145542e8-c4f2-4c57-acd0-2e754476b5e3","ios":"levelo://app?vid=145542e8-c4f2-4c57-acd0-2e754476b5e3"},"vehicle_type_id":"4","last_reported":1732619308,"current_range_meters":24400,"station_id":"ce4bgrh2rcd13ifvqc8g","pricing_plan_id":"cebpf4jnsgd1na2vs0mg"},{"bike_id":"0cd7fb1f-f090-4e80-a2fb-03510d2b2219","system_id":"levelo_inurba_marseille","lat":43.29581,"lon":5.37498,"is_reserved":false,"is_disabled":true,"rental_uris":{"android":"levelo://app?vid=0cd7fb1f-f090-4e80-a2fb-03510d2b2219","ios":"levelo://app?vid=0cd7fb1f-f090-4e80-a2fb-03510d2b2219"},"vehicle_type_id":"4","last_reported":1732619308,"current_range_meters":36000,"station_id":"ce4bgh92rcd13ifvqb50","pricing_plan_id":"cebpf4jnsgd1na2vs0mg"},{"bike_id":"8a8e15b2-8ce3-4304-8abb-4dfd70b62859","system_id":"levelo_inurba_marseille","lat":43.24079,"lon":5.37747,"is_reserved":false,"is_disabled":true,"rental_uris":{"android":"levelo://app?vid=8a8e15b2-8ce3-4304-8abb-4dfd70b62859","ios":"levelo://app?vid=8a8e15b2-8ce3-4304-8abb-4dfd70b62859"},"vehicle_type_id":"4","last_reported":1732619308,"current_range_meters":38800,"station_id":"ce4bhnp2rcd13ifvqgvg","pricing_plan_id":"cebpf4jnsgd1na2vs0mg"},{"bike_id":"d33a5273-2943-4fa7-881b-94fa64c3bbe9","system_id":"levelo_inurba_marseille","lat":43.23959,"lon":5.36642,"is_reserved":false,"is_disabled":false,"rental_uris":{"android":"levelo://app?vid=d33a5273-2943-4fa7-881b-94fa64c3bbe9","ios":"levelo://app?vid=d33a5273-2943-4fa7-881b-94fa64c3bbe9"},"vehicle_type_id":"4","last_reported":1732619308,"current_range_meters":27600,"station_id":"ce4bhi12rcd13ifvqfp0","pricing_plan_id":"cebpf4jnsgd1na2vs0mg"},{"bike_id":"f6a6ddf5-3623-4303-b4dd-56a6aeb905d9","system_id":"levelo_inurba_marseille","lat":43.26951,"lon":5.38632,"is_reserved":false,"is_disabled":false,"rental_uris":{"android":"levelo://app?vid=f6a6ddf5-3623-4303-b4dd-56a6aeb905d9","ios":"levelo://app?vid=f6a6ddf5-3623-4303-b4dd-56a6aeb905d9"},"vehicle_type_id":"4","last_reported":1732619308,"current_range_meters":39200,"station_id":"ce4bhh92rcd13ifvqfh0","pricing_plan_id":"cebpf4jnsgd1na2vs0mg"},{"bike_id":"41249b53-42aa-45f7-a470-76761e0f7179","system_id":"levelo_inurba_marseille","lat":43.27497,"lon":5.42454,"is_reserved":false,"is_disabled":false,"rental_uris":{"android":"levelo://app?vid=41249b53-42aa-45f7-a470-76761e0f7179","ios":"levelo://app?vid=41249b53-42aa-45f7-a470-76761e0f7179"},"vehicle_type_id":"4","last_reported":1732619308,"current_range_meters":34800,"station_id":"ce4bhn92rcd13ifvqgrg","pricing_plan_id":"cebpf4jnsgd1na2vs0mg"},{"bike_id":"f06f3555-cfeb-4dfd-93c0-faeaa75a9ad2","system_id":"levelo_inurba_marseille","lat":43.2922,"lon":5.36078,"is_reserved":false,"is_disabled":false,"rental_uris":{"android":"levelo://app?vid=f06f3555-cfeb-4dfd-93c0-faeaa75a9ad2","ios":"levelo://app?vid=f06f3555-cfeb-4dfd-93c0-faeaa75a9ad2"},"vehicle_type_id":"4","last_reported":1732619308,"current_range_meters":32400,"station_id":"ce4bhbh2rcd13ifvqeqg","pricing_plan_id":"cebpf4jnsgd1na2vs0mg"},{"bike_id":"6a243988-d267-4e1e-bafc-c091870de6a8","system_id":"levelo_inurba_marseille","lat":43.24153,"lon":5.36425,"is_reserved":false,"is_disabled":false,"rental_uris":{"android":"levelo://app?vid=6a243988-d267-4e1e-bafc-c091870de6a8","ios":"levelo://app?vid=6a243988-d267-4e1e-bafc-c091870de6a8"},"vehicle_type_id":"4","last_reported":1732619308,"current_range_meters":38800,"station_id":"cpo36qri1sfpv3e86is0","pricing_plan_id":"cebpf4jnsgd1na2vs0mg"},{"bike_id":"052b3a9c-2e72-4a98-8e67-5a709fd41559","system_id":"levelo_inurba_marseille","lat":43.2791,"lon":5.39575,"is_reserved":false,"is_disabled":false,"rental_uris":{"android":"levelo://app?vid=052b3a9c-2e72-4a98-8e67-5a709fd41559","ios":"levelo://app?vid=052b3a9c-2e72-4a98-8e67-5a709fd41559"},"vehicle_type_id":"4","last_reported":1732619308,"current_range_meters":36000,"station_id":"ce4bhf92rcd13ifvqf40","pricing_plan_id":"cebpf4jnsgd1na2vs0mg"},{"bike_id":"e912d4e1-b5fc-45b6-8b52-36cd8918f5b5","system_id":"levelo_inurba_marseille","lat":43.24653,"lon":5.38892,"is_reserved":false,"is_disabled":false,"rental_uris":{"android":"levelo://app?vid=e912d4e1-b5fc-45b6-8b52-36cd8918f5b5","ios":"levelo://app?vid=e912d4e1-b5fc-45b6-8b52-36cd8918f5b5"},"vehicle_type_id":"4","last_reported":1732619308,"current_range_meters":38800,"station_id":"ce4bhg12rcd13ifvqf60","pricing_plan_id":"cebpf4jnsgd1na2vs0mg"},{"bike_id":"39b04c21-6a6a-40a7-a489-741c2b67c9bd","system_id":"levelo_inurba_marseille","lat":43.33726,"lon":5.39189,"is_reserved":false,"is_disabled":false,"rental_uris":{"android":"levelo://app?vid=39b04c21-6a6a-40a7-a489-741c2b67c9bd","ios":"levelo://app?vid=39b04c21-6a6a-40a7-a489-741c2b67c9bd"},"vehicle_type_id":"4","last_reported":1732619308,"current_range_meters":16800,"station_id":"ce4bhr92rcd13ifvqhsg","pricing_plan_id":"cebpf4jnsgd1na2vs0mg"},{"bike_id":"1313ded3-7b72-4b67-8c69-36652cb1007a","system_id":"levelo_inurba_marseille","lat":43.31484,"lon":5.37283,"is_reserved":false,"is_disabled":false,"rental_uris":{"android":"levelo://app?vid=1313ded3-7b72-4b67-8c69-36652cb1007a","ios":"levelo://app?vid=1313ded3-7b72-4b67-8c69-36652cb1007a"},"vehicle_type_id":"4","last_reported":1732619308,"current_range_meters":38800,"station_id":"ce4bgt12rcd13ifvqcd0","pricing_plan_id":"cebpf4jnsgd1na2vs0mg"},{"bike_id":"10add33f-4195-400b-a925-26d7fb4aa689","system_id":"levelo_inurba_marseille","lat":43.269439,"lon":5.402429,"is_reserved":false,"is_disabled":true,"rental_uris":{"android":"levelo://app?vid=10add33f-4195-400b-a925-26d7fb4aa689","ios":"levelo://app?vid=10add33f-4195-400b-a925-26d7fb4aa689"},"vehicle_type_id":"4","last_reported":1732619308,"current_range_meters":35200,"station_id":"cjm6bp8fraef2m0cb0m0","pricing_plan_id":"cebpf4jnsgd1na2vs0mg"},{"bike_id":"7736cedc-6cce-4c43-b969-af5898347462","system_id":"levelo_inurba_marseille","lat":43.30928,"lon":5.40144,"is_reserved":false,"is_disabled":false,"rental_uris":{"android":"levelo://app?vid=7736cedc-6cce-4c43-b969-af5898347462","ios":"levelo://app?vid=7736cedc-6cce-4c43-b969-af5898347462"},"vehicle_type_id":"4","last_reported":1732619308,"current_range_meters":38400,"station_id":"ce4bgvp2rcd13ifvqct0","pricing_plan_id":"cebpf4jnsgd1na2vs0mg"},{"bike_id":"931c6a54-27e0-42d0-9f39-e67185642883","system_id":"levelo_inurba_marseille","lat":43.3122,"lon":5.36866,"is_reserved":false,"is_disabled":false,"rental_uris":{"android":"levelo://app?vid=931c6a54-27e0-42d0-9f39-e67185642883","ios":"levelo://app?vid=931c6a54-27e0-42d0-9f39-e67185642883"},"vehicle_type_id":"4","last_reported":1732619308,"current_range_meters":38000,"station_id":"ce4bgl92rcd13ifvqbq0","pricing_plan_id":"cebpf4jnsgd1na2vs0mg"},{"bike_id":"df6dfede-364c-4a0e-8f22-cb21db50a29f","system_id":"levelo_inurba_marseille","lat":43.23185,"lon":5.39981,"is_reserved":false,"is_disabled":false,"rental_uris":{"android":"levelo://app?vid=df6dfede-364c-4a0e-8f22-cb21db50a29f","ios":"levelo://app?vid=df6dfede-364c-4a0e-8f22-cb21db50a29f"},"vehicle_type_id":"4","last_reported":1732619308,"current_range_meters":39200,"station_id":"ce4bhn12rcd13ifvqgqg","pricing_plan_id":"cebpf4jnsgd1na2vs0mg"},{"bike_id":"f322df79-0242-4db0-ac2e-452d61c9528e","system_id":"levelo_inurba_marseille","lat":43.25576,"lon":5.38238,"is_reserved":false,"is_disabled":true,"rental_uris":{"android":"levelo://app?vid=f322df79-0242-4db0-ac2e-452d61c9528e","ios":"levelo://app?vid=f322df79-0242-4db0-ac2e-452d61c9528e"},"vehicle_type_id":"4","last_reported":1732619308,"current_range_meters":38800,"station_id":"ce4bhih2rcd13ifvqfs0","pricing_plan_id":"cebpf4jnsgd1na2vs0mg"},{"bike_id":"120383cf-2453-4786-bbb8-39853ee211c7","system_id":"levelo_inurba_marseille","lat":43.2407,"lon":5.37766,"is_reserved":false,"is_disabled":false,"rental_uris":{"android":"levelo://app?vid=120383cf-2453-4786-bbb8-39853ee211c7","ios":"levelo://app?vid=120383cf-2453-4786-bbb8-39853ee211c7"},"vehicle_type_id":"4","last_reported":1732619308,"current_range_meters":38000,"station_id":"ce4bhnp2rcd13ifvqgvg","pricing_plan_id":"cebpf4jnsgd1na2vs0mg"},{"bike_id":"1f56c3ff-848d-4e1e-892f-a4b92e15a71f","system_id":"levelo_inurba_marseille","lat":43.30141,"lon":5.37415,"is_reserved":false,"is_disabled":false,"rental_uris":{"android":"levelo://app?vid=1f56c3ff-848d-4e1e-892f-a4b92e15a71f","ios":"levelo://app?vid=1f56c3ff-848d-4e1e-892f-a4b92e15a71f"},"vehicle_type_id":"4","last_reported":1732619308,"current_range_meters":26800,"station_id":"ce4bgs92rcd13ifvqcc0","pricing_plan_id":"cebpf4jnsgd1na2vs0mg"},{"bike_id":"2eac4057-9ce2-44e0-a14e-c9b3a1bde624","system_id":"levelo_inurba_marseille","lat":43.23196,"lon":5.35552,"is_reserved":false,"is_disabled":false,"rental_uris":{"android":"levelo://app?vid=2eac4057-9ce2-44e0-a14e-c9b3a1bde624","ios":"levelo://app?vid=2eac4057-9ce2-44e0-a14e-c9b3a1bde624"},"vehicle_type_id":"4","last_reported":1732619308,"current_range_meters":9600,"station_id":"ce4bhu92rcd13ifvqi70","pricing_plan_id":"cebpf4jnsgd1na2vs0mg"},{"bike_id":"36296f5c-0176-4be0-97c8-7930cda9c369","system_id":"levelo_inurba_marseille","lat":43.32105,"lon":5.3677,"is_reserved":false,"is_disabled":false,"rental_uris":{"android":"levelo://app?vid=36296f5c-0176-4be0-97c8-7930cda9c369","ios":"levelo://app?vid=36296f5c-0176-4be0-97c8-7930cda9c369"},"vehicle_type_id":"4","last_reported":1732619308,"current_range_meters":22800,"station_id":"ce4bhrh2rcd13ifvqhug","pricing_plan_id":"cebpf4jnsgd1na2vs0mg"},{"bike_id":"8bf835d4-5970-4ef0-bab0-f32916881577","system_id":"levelo_inurba_marseille","lat":43.30531,"lon":5.38417,"is_reserved":false,"is_disabled":false,"rental_uris":{"android":"levelo://app?vid=8bf835d4-5970-4ef0-bab0-f32916881577","ios":"levelo://app?vid=8bf835d4-5970-4ef0-bab0-f32916881577"},"vehicle_type_id":"4","last_reported":1732619308,"current_range_meters":14000,"station_id":"ce4bgg92rcd13ifvqb30","pricing_plan_id":"cebpf4jnsgd1na2vs0mg"},{"bike_id":"911f867a-00bb-4ac5-911e-12e41134a81b","system_id":"levelo_inurba_marseille","lat":43.32001,"lon":5.38148,"is_reserved":false,"is_disabled":false,"rental_uris":{"android":"levelo://app?vid=911f867a-00bb-4ac5-911e-12e41134a81b","ios":"levelo://app?vid=911f867a-00bb-4ac5-911e-12e41134a81b"},"vehicle_type_id":"4","last_reported":1732619308,"current_range_meters":38800,"station_id":"ce4bhr12rcd13ifvqhpg","pricing_plan_id":"cebpf4jnsgd1na2vs0mg"},{"bike_id":"b343861f-1589-4a40-afae-f909ffb05b2f","system_id":"levelo_inurba_marseille","lat":43.28001,"lon":5.41664,"is_reserved":false,"is_disabled":false,"rental_uris":{"android":"levelo://app?vid=b343861f-1589-4a40-afae-f909ffb05b2f","ios":"levelo://app?vid=b343861f-1589-4a40-afae-f909ffb05b2f"},"vehicle_type_id":"4","last_reported":1732619308,"current_range_meters":21600,"station_id":"ce4bho12rcd13ifvqh1g","pricing_plan_id":"cebpf4jnsgd1na2vs0mg"},{"bike_id":"ae97de34-d8c8-434e-85ec-003bf1023a27","system_id":"levelo_inurba_marseille","lat":43.27068,"lon":5.42275,"is_reserved":false,"is_disabled":false,"rental_uris":{"android":"levelo://app?vid=ae97de34-d8c8-434e-85ec-003bf1023a27","ios":"levelo://app?vid=ae97de34-d8c8-434e-85ec-003bf1023a27"},"vehicle_type_id":"4","last_reported":1732619308,"current_range_meters":16400,"station_id":"ce4bhk92rcd13ifvqgb0","pricing_plan_id":"cebpf4jnsgd1na2vs0mg"},{"bike_id":"1ebc2642-599e-41e5-89df-308a45bbfcfb","system_id":"levelo_inurba_marseille","lat":43.32106,"lon":5.36767,"is_reserved":false,"is_disabled":false,"rental_uris":{"android":"levelo://app?vid=1ebc2642-599e-41e5-89df-308a45bbfcfb","ios":"levelo://app?vid=1ebc2642-599e-41e5-89df-308a45bbfcfb"},"vehicle_type_id":"4","last_reported":1732619308,"current_range_meters":15200,"station_id":"ce4bhrh2rcd13ifvqhug","pricing_plan_id":"cebpf4jnsgd1na2vs0mg"},{"bike_id":"7185ef41-3a2b-447d-b041-2ae1094f59ec","system_id":"levelo_inurba_marseille","lat":43.30541,"lon":5.36683,"is_reserved":false,"is_disabled":false,"rental_uris":{"android":"levelo://app?vid=7185ef41-3a2b-447d-b041-2ae1094f59ec","ios":"levelo://app?vid=7185ef41-3a2b-447d-b041-2ae1094f59ec"},"vehicle_type_id":"4","last_reported":1732619308,"current_range_meters":31200,"station_id":"ce4bgrp2rcd13ifvqc9g","pricing_plan_id":"cebpf4jnsgd1na2vs0mg"},{"bike_id":"96ab67d7-31f8-416d-ac69-0c1c3ef969ce","system_id":"levelo_inurba_marseille","lat":43.313419,"lon":5.367373,"is_reserved":false,"is_disabled":false,"rental_uris":{"android":"levelo://app?vid=96ab67d7-31f8-416d-ac69-0c1c3ef969ce","ios":"levelo://app?vid=96ab67d7-31f8-416d-ac69-0c1c3ef969ce"},"vehicle_type_id":"4","last_reported":1732619308,"current_range_meters":36800,"station_id":"ce4bgr92rcd13ifvqc6g","pricing_plan_id":"cebpf4jnsgd1na2vs0mg"},{"bike_id":"38db1d85-6e42-49f8-b4df-8d8103213343","system_id":"levelo_inurba_marseille","lat":43.31756,"lon":5.39013,"is_reserved":false,"is_disabled":false,"rental_uris":{"android":"levelo://app?vid=38db1d85-6e42-49f8-b4df-8d8103213343","ios":"levelo://app?vid=38db1d85-6e42-49f8-b4df-8d8103213343"},"vehicle_type_id":"4","last_reported":1732619308,"current_range_meters":35600,"station_id":"ce4bhqp2rcd13ifvqhng","pricing_plan_id":"cebpf4jnsgd1na2vs0mg"},{"bike_id":"e8a12a11-eb94-43a1-89dc-1a990d2d11f4","system_id":"levelo_inurba_marseille","lat":43.23146,"lon":5.4372,"is_reserved":false,"is_disabled":false,"rental_uris":{"android":"levelo://app?vid=e8a12a11-eb94-43a1-89dc-1a990d2d11f4","ios":"levelo://app?vid=e8a12a11-eb94-43a1-89dc-1a990d2d11f4"},"vehicle_type_id":"4","last_reported":1732619308,"current_range_meters":38800,"station_id":"ce4bhmp2rcd13ifvqgog","pricing_plan_id":"cebpf4jnsgd1na2vs0mg"},{"bike_id":"bdafaf17-2ae4-4390-9f4f-e3398be00849","system_id":"levelo_inurba_marseille","lat":43.337444,"lon":5.374475,"is_reserved":false,"is_disabled":false,"rental_uris":{"android":"levelo://app?vid=bdafaf17-2ae4-4390-9f4f-e3398be00849","ios":"levelo://app?vid=bdafaf17-2ae4-4390-9f4f-e3398be00849"},"vehicle_type_id":"4","last_reported":1732619308,"current_range_meters":24800,"station_id":"","pricing_plan_id":"cebpf4jnsgd1na2vs0mg"},{"bike_id":"a0671414-075f-4c51-afa3-8a0544e0da0e","system_id":"levelo_inurba_marseille","lat":43.2407,"lon":5.3776,"is_reserved":false,"is_disabled":false,"rental_uris":{"android":"levelo://app?vid=a0671414-075f-4c51-afa3-8a0544e0da0e","ios":"levelo://app?vid=a0671414-075f-4c51-afa3-8a0544e0da0e"},"vehicle_type_id":"4","last_reported":1732619308,"current_range_meters":14000,"station_id":"ce4bhnp2rcd13ifvqgvg","pricing_plan_id":"cebpf4jnsgd1na2vs0mg"},{"bike_id":"4ac59aee-47e2-48b1-a8f3-9a3cea01b632","system_id":"levelo_inurba_marseille","lat":43.26199,"lon":5.37922,"is_reserved":false,"is_disabled":false,"rental_uris":{"android":"levelo://app?vid=4ac59aee-47e2-48b1-a8f3-9a3cea01b632","ios":"levelo://app?vid=4ac59aee-47e2-48b1-a8f3-9a3cea01b632"},"vehicle_type_id":"4","last_reported":1732619308,"current_range_meters":6000,"station_id":"ce4bhjp2rcd13ifvqg90","pricing_plan_id":"cebpf4jnsgd1na2vs0mg"},{"bike_id":"5e501ae5-644b-45f2-8a81-073cc9474b71","system_id":"levelo_inurba_marseille","lat":43.2319,"lon":5.39991,"is_reserved":false,"is_disabled":false,"rental_uris":{"android":"levelo://app?vid=5e501ae5-644b-45f2-8a81-073cc9474b71","ios":"levelo://app?vid=5e501ae5-644b-45f2-8a81-073cc9474b71"},"vehicle_type_id":"4","last_reported":1732619308,"current_range_meters":6400,"station_id":"ce4bhn12rcd13ifvqgqg","pricing_plan_id":"cebpf4jnsgd1na2vs0mg"},{"bike_id":"ecafbf04-e97c-486f-8502-ae4081837df7","system_id":"levelo_inurba_marseille","lat":43.25002,"lon":5.38927,"is_reserved":false,"is_disabled":false,"rental_uris":{"android":"levelo://app?vid=ecafbf04-e97c-486f-8502-ae4081837df7","ios":"levelo://app?vid=ecafbf04-e97c-486f-8502-ae4081837df7"},"vehicle_type_id":"4","last_reported":1732619308,"current_range_meters":38800,"station_id":"ce4bhgp2rcd13ifvqfd0","pricing_plan_id":"cebpf4jnsgd1na2vs0mg"},{"bike_id":"fedb2744-bf87-47ab-8927-29da8270b801","system_id":"levelo_inurba_marseille","lat":43.31371,"lon":5.38501,"is_reserved":false,"is_disabled":false,"rental_uris":{"android":"levelo://app?vid=fedb2744-bf87-47ab-8927-29da8270b801","ios":"levelo://app?vid=fedb2744-bf87-47ab-8927-29da8270b801"},"vehicle_type_id":"4","last_reported":1732619308,"current_range_meters":11200,"station_id":"ce4bgt92rcd13ifvqcf0","pricing_plan_id":"cebpf4jnsgd1na2vs0mg"},{"bike_id":"c6e67541-93f0-4a0f-a9ef-5e4af079d9e5","system_id":"levelo_inurba_marseille","lat":43.30539,"lon":5.36707,"is_reserved":false,"is_disabled":true,"rental_uris":{"android":"levelo://app?vid=c6e67541-93f0-4a0f-a9ef-5e4af079d9e5","ios":"levelo://app?vid=c6e67541-93f0-4a0f-a9ef-5e4af079d9e5"},"vehicle_type_id":"4","last_reported":1732619308,"current_range_meters":0,"station_id":"ce4bgrp2rcd13ifvqc9g","pricing_plan_id":"cebpf4jnsgd1na2vs0mg"},{"bike_id":"4ad4a3c5-92d2-4458-a848-002368dbf3c6","system_id":"levelo_inurba_marseille","lat":43.29195,"lon":5.35802,"is_reserved":false,"is_disabled":false,"rental_uris":{"android":"levelo://app?vid=4ad4a3c5-92d2-4458-a848-002368dbf3c6","ios":"levelo://app?vid=4ad4a3c5-92d2-4458-a848-002368dbf3c6"},"vehicle_type_id":"4","last_reported":1732619308,"current_range_meters":25200,"station_id":"ce4bhb12rcd13ifvqel0","pricing_plan_id":"cebpf4jnsgd1na2vs0mg"},{"bike_id":"da587ae6-9a09-4f1f-9801-49ebadd9eaba","system_id":"levelo_inurba_marseille","lat":43.27496,"lon":5.42455,"is_reserved":false,"is_disabled":true,"rental_uris":{"android":"levelo://app?vid=da587ae6-9a09-4f1f-9801-49ebadd9eaba","ios":"levelo://app?vid=da587ae6-9a09-4f1f-9801-49ebadd9eaba"},"vehicle_type_id":"4","last_reported":1732619308,"current_range_meters":8000,"station_id":"ce4bhn92rcd13ifvqgrg","pricing_plan_id":"cebpf4jnsgd1na2vs0mg"},{"bike_id":"64d99805-5c2f-4296-94ac-5ea41a4650e3","system_id":"levelo_inurba_marseille","lat":43.28153,"lon":5.42638,"is_reserved":false,"is_disabled":true,"rental_uris":{"android":"levelo://app?vid=64d99805-5c2f-4296-94ac-5ea41a4650e3","ios":"levelo://app?vid=64d99805-5c2f-4296-94ac-5ea41a4650e3"},"vehicle_type_id":"4","last_reported":1732619308,"current_range_meters":16800,"station_id":"ce4bhnh2rcd13ifvqgug","pricing_plan_id":"cebpf4jnsgd1na2vs0mg"},{"bike_id":"572435f9-42b4-4ff9-bb3e-bd7d048670e4","system_id":"levelo_inurba_marseille","lat":43.29003,"lon":5.35607,"is_reserved":false,"is_disabled":false,"rental_uris":{"android":"levelo://app?vid=572435f9-42b4-4ff9-bb3e-bd7d048670e4","ios":"levelo://app?vid=572435f9-42b4-4ff9-bb3e-bd7d048670e4"},"vehicle_type_id":"4","last_reported":1732619308,"current_range_meters":38800,"station_id":"ce4bhb92rcd13ifvqen0","pricing_plan_id":"cebpf4jnsgd1na2vs0mg"},{"bike_id":"ac3c6b0d-c4b9-4ff1-b1a2-8adea9f368fc","system_id":"levelo_inurba_marseille","lat":43.30193,"lon":5.36609,"is_reserved":false,"is_disabled":true,"rental_uris":{"android":"levelo://app?vid=ac3c6b0d-c4b9-4ff1-b1a2-8adea9f368fc","ios":"levelo://app?vid=ac3c6b0d-c4b9-4ff1-b1a2-8adea9f368fc"},"vehicle_type_id":"4","last_reported":1732619308,"current_range_meters":36800,"station_id":"ce4bgrh2rcd13ifvqc8g","pricing_plan_id":"cebpf4jnsgd1na2vs0mg"},{"bike_id":"8f95b22c-ec31-4dd2-83b6-0fb7f715f71c","system_id":"levelo_inurba_marseille","lat":43.32369,"lon":5.38886,"is_reserved":false,"is_disabled":false,"rental_uris":{"android":"levelo://app?vid=8f95b22c-ec31-4dd2-83b6-0fb7f715f71c","ios":"levelo://app?vid=8f95b22c-ec31-4dd2-83b6-0fb7f715f71c"},"vehicle_type_id":"4","last_reported":1732619308,"current_range_meters":25600,"station_id":"ce4bhqp2rcd13ifvqhog","pricing_plan_id":"cebpf4jnsgd1na2vs0mg"},{"bike_id":"002a8abb-fad3-4a02-a04c-ed4e75a95139","system_id":"levelo_inurba_marseille","lat":43.27979,"lon":5.41653,"is_reserved":false,"is_disabled":false,"rental_uris":{"android":"levelo://app?vid=002a8abb-fad3-4a02-a04c-ed4e75a95139","ios":"levelo://app?vid=002a8abb-fad3-4a02-a04c-ed4e75a95139"},"vehicle_type_id":"4","last_reported":1732619308,"current_range_meters":16000,"station_id":"ce4bho12rcd13ifvqh1g","pricing_plan_id":"cebpf4jnsgd1na2vs0mg"},{"bike_id":"85e24196-939c-4214-af6f-e532d656d87c","system_id":"levelo_inurba_marseille","lat":43.28081,"lon":5.39708,"is_reserved":false,"is_disabled":false,"rental_uris":{"android":"levelo://app?vid=85e24196-939c-4214-af6f-e532d656d87c","ios":"levelo://app?vid=85e24196-939c-4214-af6f-e532d656d87c"},"vehicle_type_id":"4","last_reported":1732619308,"current_range_meters":36800,"station_id":"ce4bho12rcd13ifvqh2g","pricing_plan_id":"cebpf4jnsgd1na2vs0mg"},{"bike_id":"eb2b1f53-4d57-499c-94f2-ec541a2a4bf4","system_id":"levelo_inurba_marseille","lat":43.27068,"lon":5.42281,"is_reserved":false,"is_disabled":false,"rental_uris":{"android":"levelo://app?vid=eb2b1f53-4d57-499c-94f2-ec541a2a4bf4","ios":"levelo://app?vid=eb2b1f53-4d57-499c-94f2-ec541a2a4bf4"},"vehicle_type_id":"4","last_reported":1732619308,"current_range_meters":28000,"station_id":"ce4bhk92rcd13ifvqgb0","pricing_plan_id":"cebpf4jnsgd1na2vs0mg"},{"bike_id":"edc4ec26-9586-43e2-8071-e01c01aa0cd4","system_id":"levelo_inurba_marseille","lat":43.24382,"lon":5.3705,"is_reserved":false,"is_disabled":false,"rental_uris":{"android":"levelo://app?vid=edc4ec26-9586-43e2-8071-e01c01aa0cd4","ios":"levelo://app?vid=edc4ec26-9586-43e2-8071-e01c01aa0cd4"},"vehicle_type_id":"4","last_reported":1732619308,"current_range_meters":27200,"station_id":"ce4bhhh2rcd13ifvqfk0","pricing_plan_id":"cebpf4jnsgd1na2vs0mg"},{"bike_id":"548ef624-6be8-4d1b-8570-89d6dd7d18ce","system_id":"levelo_inurba_marseille","lat":43.27999,"lon":5.41674,"is_reserved":false,"is_disabled":false,"rental_uris":{"android":"levelo://app?vid=548ef624-6be8-4d1b-8570-89d6dd7d18ce","ios":"levelo://app?vid=548ef624-6be8-4d1b-8570-89d6dd7d18ce"},"vehicle_type_id":"4","last_reported":1732619308,"current_range_meters":39200,"station_id":"ce4bho12rcd13ifvqh1g","pricing_plan_id":"cebpf4jnsgd1na2vs0mg"},{"bike_id":"7bfbb277-44eb-4760-8536-0af4008f60b8","system_id":"levelo_inurba_marseille","lat":43.26558,"lon":5.39015,"is_reserved":false,"is_disabled":false,"rental_uris":{"android":"levelo://app?vid=7bfbb277-44eb-4760-8536-0af4008f60b8","ios":"levelo://app?vid=7bfbb277-44eb-4760-8536-0af4008f60b8"},"vehicle_type_id":"4","last_reported":1732619308,"current_range_meters":38400,"station_id":"ce4bhe12rcd13ifvqf30","pricing_plan_id":"cebpf4jnsgd1na2vs0mg"},{"bike_id":"ed00ff1c-a428-4ce5-a455-260378e65da7","system_id":"levelo_inurba_marseille","lat":43.28798,"lon":5.40006,"is_reserved":false,"is_disabled":true,"rental_uris":{"android":"levelo://app?vid=ed00ff1c-a428-4ce5-a455-260378e65da7","ios":"levelo://app?vid=ed00ff1c-a428-4ce5-a455-260378e65da7"},"vehicle_type_id":"4","last_reported":1732619308,"current_range_meters":0,"station_id":"","pricing_plan_id":"cebpf4jnsgd1na2vs0mg"},{"bike_id":"9c9cda8c-65de-41ec-a6f6-ab7be57b8d59","system_id":"levelo_inurba_marseille","lat":43.27566,"lon":5.38421,"is_reserved":false,"is_disabled":false,"rental_uris":{"android":"levelo://app?vid=9c9cda8c-65de-41ec-a6f6-ab7be57b8d59","ios":"levelo://app?vid=9c9cda8c-65de-41ec-a6f6-ab7be57b8d59"},"vehicle_type_id":"4","last_reported":1732619308,"current_range_meters":20000,"station_id":"ce4bhh92rcd13ifvqfi0","pricing_plan_id":"cebpf4jnsgd1na2vs0mg"},{"bike_id":"858b65e1-94fc-4151-a71e-8b168cb19dcb","system_id":"levelo_inurba_marseille","lat":43.32249,"lon":5.39241,"is_reserved":false,"is_disabled":true,"rental_uris":{"android":"levelo://app?vid=858b65e1-94fc-4151-a71e-8b168cb19dcb","ios":"levelo://app?vid=858b65e1-94fc-4151-a71e-8b168cb19dcb"},"vehicle_type_id":"4","last_reported":1732619308,"current_range_meters":0,"station_id":"","pricing_plan_id":"cebpf4jnsgd1na2vs0mg"},{"bike_id":"2b5c534c-0551-4b66-b4eb-522aabd25a4c","system_id":"levelo_inurba_marseille","lat":43.27429,"lon":5.394213,"is_reserved":false,"is_disabled":false,"rental_uris":{"android":"levelo://app?vid=2b5c534c-0551-4b66-b4eb-522aabd25a4c","ios":"levelo://app?vid=2b5c534c-0551-4b66-b4eb-522aabd25a4c"},"vehicle_type_id":"4","last_reported":1732619308,"current_range_meters":20000,"station_id":"ce4bhdp2rcd13ifvqf20","pricing_plan_id":"cebpf4jnsgd1na2vs0mg"},{"bike_id":"e51b2acb-d883-446b-9ce9-347608453ece","system_id":"levelo_inurba_marseille","lat":43.22931,"lon":5.3536,"is_reserved":false,"is_disabled":false,"rental_uris":{"android":"levelo://app?vid=e51b2acb-d883-446b-9ce9-347608453ece","ios":"levelo://app?vid=e51b2acb-d883-446b-9ce9-347608453ece"},"vehicle_type_id":"4","last_reported":1732619308,"current_range_meters":30400,"station_id":"cpo3532slgdg3j2ikp40","pricing_plan_id":"cebpf4jnsgd1na2vs0mg"},{"bike_id":"9b363232-8f76-4870-a7c9-49c00e02e754","system_id":"levelo_inurba_marseille","lat":43.2796,"lon":5.41008,"is_reserved":false,"is_disabled":false,"rental_uris":{"android":"levelo://app?vid=9b363232-8f76-4870-a7c9-49c00e02e754","ios":"levelo://app?vid=9b363232-8f76-4870-a7c9-49c00e02e754"},"vehicle_type_id":"4","last_reported":1732619308,"current_range_meters":19200,"station_id":"ce4bhnp2rcd13ifvqh0g","pricing_plan_id":"cebpf4jnsgd1na2vs0mg"},{"bike_id":"fb6f267e-8f2f-4000-94c2-2899cf721536","system_id":"levelo_inurba_marseille","lat":43.30985,"lon":5.4054,"is_reserved":false,"is_disabled":false,"rental_uris":{"android":"levelo://app?vid=fb6f267e-8f2f-4000-94c2-2899cf721536","ios":"levelo://app?vid=fb6f267e-8f2f-4000-94c2-2899cf721536"},"vehicle_type_id":"4","last_reported":1732619308,"current_range_meters":7200,"station_id":"","pricing_plan_id":"cebpf4jnsgd1na2vs0mg"},{"bike_id":"40bb4f6d-f8a8-4930-b8fc-0de4ad47a792","system_id":"levelo_inurba_marseille","lat":43.3015,"lon":5.38076,"is_reserved":false,"is_disabled":true,"rental_uris":{"android":"levelo://app?vid=40bb4f6d-f8a8-4930-b8fc-0de4ad47a792","ios":"levelo://app?vid=40bb4f6d-f8a8-4930-b8fc-0de4ad47a792"},"vehicle_type_id":"4","last_reported":1732619308,"current_range_meters":0,"station_id":"ce4bgjp2rcd13ifvqbh0","pricing_plan_id":"cebpf4jnsgd1na2vs0mg"},{"bike_id":"c9d1d641-5872-4a29-a84c-91c2a26a7325","system_id":"levelo_inurba_marseille","lat":43.29099,"lon":5.38122,"is_reserved":false,"is_disabled":false,"rental_uris":{"android":"levelo://app?vid=c9d1d641-5872-4a29-a84c-91c2a26a7325","ios":"levelo://app?vid=c9d1d641-5872-4a29-a84c-91c2a26a7325"},"vehicle_type_id":"4","last_reported":1732619308,"current_range_meters":38000,"station_id":"ce4bh512rcd13ifvqe2g","pricing_plan_id":"cebpf4jnsgd1na2vs0mg"},{"bike_id":"bf931dd5-f51c-4e08-a215-d4b67ea18d16","system_id":"levelo_inurba_marseille","lat":43.27375,"lon":5.36254,"is_reserved":false,"is_disabled":false,"rental_uris":{"android":"levelo://app?vid=bf931dd5-f51c-4e08-a215-d4b67ea18d16","ios":"levelo://app?vid=bf931dd5-f51c-4e08-a215-d4b67ea18d16"},"vehicle_type_id":"4","last_reported":1732619308,"current_range_meters":32000,"station_id":"ce4bhbh2rcd13ifvqeo0","pricing_plan_id":"cebpf4jnsgd1na2vs0mg"},{"bike_id":"caba466c-fb33-41c1-b321-e57064717be7","system_id":"levelo_inurba_marseille","lat":43.32348,"lon":5.38885,"is_reserved":false,"is_disabled":false,"rental_uris":{"android":"levelo://app?vid=caba466c-fb33-41c1-b321-e57064717be7","ios":"levelo://app?vid=caba466c-fb33-41c1-b321-e57064717be7"},"vehicle_type_id":"4","last_reported":1732619308,"current_range_meters":3600,"station_id":"ce4bhqp2rcd13ifvqhog","pricing_plan_id":"cebpf4jnsgd1na2vs0mg"},{"bike_id":"0a933461-0d26-400f-ad9c-61e1b14bc8fe","system_id":"levelo_inurba_marseille","lat":43.23187,"lon":5.35548,"is_reserved":false,"is_disabled":true,"rental_uris":{"android":"levelo://app?vid=0a933461-0d26-400f-ad9c-61e1b14bc8fe","ios":"levelo://app?vid=0a933461-0d26-400f-ad9c-61e1b14bc8fe"},"vehicle_type_id":"4","last_reported":1732619308,"current_range_meters":0,"station_id":"ce4bhu92rcd13ifvqi70","pricing_plan_id":"cebpf4jnsgd1na2vs0mg"},{"bike_id":"3bd4e758-1aa1-43e4-bf3f-c7c2dd799e60","system_id":"levelo_inurba_marseille","lat":43.2314,"lon":5.43713,"is_reserved":false,"is_disabled":false,"rental_uris":{"android":"levelo://app?vid=3bd4e758-1aa1-43e4-bf3f-c7c2dd799e60","ios":"levelo://app?vid=3bd4e758-1aa1-43e4-bf3f-c7c2dd799e60"},"vehicle_type_id":"4","last_reported":1732619308,"current_range_meters":38800,"station_id":"ce4bhmp2rcd13ifvqgog","pricing_plan_id":"cebpf4jnsgd1na2vs0mg"},{"bike_id":"8ebb8631-c5f7-4e0e-a2fa-19149d081503","system_id":"levelo_inurba_marseille","lat":43.33776,"lon":5.37443,"is_reserved":false,"is_disabled":false,"rental_uris":{"android":"levelo://app?vid=8ebb8631-c5f7-4e0e-a2fa-19149d081503","ios":"levelo://app?vid=8ebb8631-c5f7-4e0e-a2fa-19149d081503"},"vehicle_type_id":"4","last_reported":1732619308,"current_range_meters":38000,"station_id":"","pricing_plan_id":"cebpf4jnsgd1na2vs0mg"},{"bike_id":"bc0c529a-a8e3-4d1e-b42d-04fd73268cf8","system_id":"levelo_inurba_marseille","lat":43.31677,"lon":5.3772,"is_reserved":false,"is_disabled":true,"rental_uris":{"android":"levelo://app?vid=bc0c529a-a8e3-4d1e-b42d-04fd73268cf8","ios":"levelo://app?vid=bc0c529a-a8e3-4d1e-b42d-04fd73268cf8"},"vehicle_type_id":"4","last_reported":1732619308,"current_range_meters":36000,"station_id":"ce4bgth2rcd13ifvqch0","pricing_plan_id":"cebpf4jnsgd1na2vs0mg"},{"bike_id":"19f546bc-503f-42bc-a2b9-f1b6a11194b2","system_id":"levelo_inurba_marseille","lat":43.33763,"lon":5.37478,"is_reserved":false,"is_disabled":true,"rental_uris":{"android":"levelo://app?vid=19f546bc-503f-42bc-a2b9-f1b6a11194b2","ios":"levelo://app?vid=19f546bc-503f-42bc-a2b9-f1b6a11194b2"},"vehicle_type_id":"4","last_reported":1732619308,"current_range_meters":23200,"station_id":"","pricing_plan_id":"cebpf4jnsgd1na2vs0mg"},{"bike_id":"ee8e9d94-a7b7-4009-8e30-c7193a0a4415","system_id":"levelo_inurba_marseille","lat":43.26684,"lon":5.38266,"is_reserved":false,"is_disabled":false,"rental_uris":{"android":"levelo://app?vid=ee8e9d94-a7b7-4009-8e30-c7193a0a4415","ios":"levelo://app?vid=ee8e9d94-a7b7-4009-8e30-c7193a0a4415"},"vehicle_type_id":"4","last_reported":1732619308,"current_range_meters":31200,"station_id":"ce4bhg92rcd13ifvqf90","pricing_plan_id":"cebpf4jnsgd1na2vs0mg"},{"bike_id":"f7f3756c-1ec7-4782-9c87-6273f87b6774","system_id":"levelo_inurba_marseille","lat":43.337444,"lon":5.374475,"is_reserved":false,"is_disabled":true,"rental_uris":{"android":"levelo://app?vid=f7f3756c-1ec7-4782-9c87-6273f87b6774","ios":"levelo://app?vid=f7f3756c-1ec7-4782-9c87-6273f87b6774"},"vehicle_type_id":"4","last_reported":1732619308,"current_range_meters":19600,"station_id":"","pricing_plan_id":"cebpf4jnsgd1na2vs0mg"},{"bike_id":"ae2c8652-39e6-4ecf-8f88-f95b2707669f","system_id":"levelo_inurba_marseille","lat":43.28721,"lon":5.37387,"is_reserved":false,"is_disabled":false,"rental_uris":{"android":"levelo://app?vid=ae2c8652-39e6-4ecf-8f88-f95b2707669f","ios":"levelo://app?vid=ae2c8652-39e6-4ecf-8f88-f95b2707669f"},"vehicle_type_id":"4","last_reported":1732619308,"current_range_meters":26000,"station_id":"ce4bh3p2rcd13ifvqdq0","pricing_plan_id":"cebpf4jnsgd1na2vs0mg"},{"bike_id":"ae78cd95-0524-4346-8c3e-35a78db9a346","system_id":"levelo_inurba_marseille","lat":43.26064,"lon":5.39396,"is_reserved":false,"is_disabled":false,"rental_uris":{"android":"levelo://app?vid=ae78cd95-0524-4346-8c3e-35a78db9a346","ios":"levelo://app?vid=ae78cd95-0524-4346-8c3e-35a78db9a346"},"vehicle_type_id":"4","last_reported":1732619308,"current_range_meters":15200,"station_id":"ce4bhh92rcd13ifvqfj0","pricing_plan_id":"cebpf4jnsgd1na2vs0mg"},{"bike_id":"11343529-edb8-44cb-ba9b-77bfd6346d35","system_id":"levelo_inurba_marseille","lat":43.30301,"lon":5.36889,"is_reserved":false,"is_disabled":false,"rental_uris":{"android":"levelo://app?vid=11343529-edb8-44cb-ba9b-77bfd6346d35","ios":"levelo://app?vid=11343529-edb8-44cb-ba9b-77bfd6346d35"},"vehicle_type_id":"4","last_reported":1732619308,"current_range_meters":38800,"station_id":"ce4bgqh2rcd13ifvqc5g","pricing_plan_id":"cebpf4jnsgd1na2vs0mg"},{"bike_id":"e46d83c8-bfb3-4318-90b6-eadb2c6da6da","system_id":"levelo_inurba_marseille","lat":43.31228,"lon":5.36859,"is_reserved":false,"is_disabled":false,"rental_uris":{"android":"levelo://app?vid=e46d83c8-bfb3-4318-90b6-eadb2c6da6da","ios":"levelo://app?vid=e46d83c8-bfb3-4318-90b6-eadb2c6da6da"},"vehicle_type_id":"4","last_reported":1732619308,"current_range_meters":38800,"station_id":"ce4bgl92rcd13ifvqbq0","pricing_plan_id":"cebpf4jnsgd1na2vs0mg"},{"bike_id":"14f3c269-ea7b-4aeb-9a6e-2af7df033998","system_id":"levelo_inurba_marseille","lat":43.26062,"lon":5.39392,"is_reserved":false,"is_disabled":true,"rental_uris":{"android":"levelo://app?vid=14f3c269-ea7b-4aeb-9a6e-2af7df033998","ios":"levelo://app?vid=14f3c269-ea7b-4aeb-9a6e-2af7df033998"},"vehicle_type_id":"4","last_reported":1732619308,"current_range_meters":38800,"station_id":"ce4bhh92rcd13ifvqfj0","pricing_plan_id":"cebpf4jnsgd1na2vs0mg"},{"bike_id":"5f06ef03-ebb5-4886-8bef-b480f51c91e0","system_id":"levelo_inurba_marseille","lat":43.30883,"lon":5.39656,"is_reserved":false,"is_disabled":false,"rental_uris":{"android":"levelo://app?vid=5f06ef03-ebb5-4886-8bef-b480f51c91e0","ios":"levelo://app?vid=5f06ef03-ebb5-4886-8bef-b480f51c91e0"},"vehicle_type_id":"4","last_reported":1732619308,"current_range_meters":28400,"station_id":"ce4bh012rcd13ifvqcv0","pricing_plan_id":"cebpf4jnsgd1na2vs0mg"},{"bike_id":"f5658b6b-05db-4270-b5a2-b12a283db2c3","system_id":"levelo_inurba_marseille","lat":43.32283,"lon":5.38263,"is_reserved":false,"is_disabled":false,"rental_uris":{"android":"levelo://app?vid=f5658b6b-05db-4270-b5a2-b12a283db2c3","ios":"levelo://app?vid=f5658b6b-05db-4270-b5a2-b12a283db2c3"},"vehicle_type_id":"4","last_reported":1732619308,"current_range_meters":38000,"station_id":"ce4bhr12rcd13ifvqhqg","pricing_plan_id":"cebpf4jnsgd1na2vs0mg"},{"bike_id":"f24e728b-95ac-413f-85a2-d1b4b3a2ffc3","system_id":"levelo_inurba_marseille","lat":43.28675,"lon":5.38672,"is_reserved":false,"is_disabled":false,"rental_uris":{"android":"levelo://app?vid=f24e728b-95ac-413f-85a2-d1b4b3a2ffc3","ios":"levelo://app?vid=f24e728b-95ac-413f-85a2-d1b4b3a2ffc3"},"vehicle_type_id":"4","last_reported":1732619308,"current_range_meters":5600,"station_id":"ce4bh492rcd13ifvqdug","pricing_plan_id":"cebpf4jnsgd1na2vs0mg"},{"bike_id":"a5909545-3e09-4859-9fda-9ffe4e6e4883","system_id":"levelo_inurba_marseille","lat":43.23065,"lon":5.35491,"is_reserved":false,"is_disabled":false,"rental_uris":{"android":"levelo://app?vid=a5909545-3e09-4859-9fda-9ffe4e6e4883","ios":"levelo://app?vid=a5909545-3e09-4859-9fda-9ffe4e6e4883"},"vehicle_type_id":"4","last_reported":1732619308,"current_range_meters":32000,"station_id":"cpo3342slgdg3j2ifvpg","pricing_plan_id":"cebpf4jnsgd1na2vs0mg"},{"bike_id":"17c860cd-9554-4821-900c-6cdf3f87de32","system_id":"levelo_inurba_marseille","lat":43.22934,"lon":5.35361,"is_reserved":false,"is_disabled":false,"rental_uris":{"android":"levelo://app?vid=17c860cd-9554-4821-900c-6cdf3f87de32","ios":"levelo://app?vid=17c860cd-9554-4821-900c-6cdf3f87de32"},"vehicle_type_id":"4","last_reported":1732619308,"current_range_meters":38800,"station_id":"cpo3532slgdg3j2ikp40","pricing_plan_id":"cebpf4jnsgd1na2vs0mg"},{"bike_id":"c6ebf3d4-bfbc-463a-84d1-84e4a5f78ee1","system_id":"levelo_inurba_marseille","lat":43.30187,"lon":5.36595,"is_reserved":false,"is_disabled":false,"rental_uris":{"android":"levelo://app?vid=c6ebf3d4-bfbc-463a-84d1-84e4a5f78ee1","ios":"levelo://app?vid=c6ebf3d4-bfbc-463a-84d1-84e4a5f78ee1"},"vehicle_type_id":"4","last_reported":1732619308,"current_range_meters":38800,"station_id":"ce4bgrh2rcd13ifvqc8g","pricing_plan_id":"cebpf4jnsgd1na2vs0mg"},{"bike_id":"8b855d86-2674-4484-ad52-bb485bad7ee1","system_id":"levelo_inurba_marseille","lat":43.30542,"lon":5.36532,"is_reserved":false,"is_disabled":false,"rental_uris":{"android":"levelo://app?vid=8b855d86-2674-4484-ad52-bb485bad7ee1","ios":"levelo://app?vid=8b855d86-2674-4484-ad52-bb485bad7ee1"},"vehicle_type_id":"4","last_reported":1732619308,"current_range_meters":31200,"station_id":"ce4bgs12rcd13ifvqcag","pricing_plan_id":"cebpf4jnsgd1na2vs0mg"},{"bike_id":"27e12a2b-9e4a-4894-b288-4eebd7ec2e20","system_id":"levelo_inurba_marseille","lat":43.29306,"lon":5.37173,"is_reserved":false,"is_disabled":false,"rental_uris":{"android":"levelo://app?vid=27e12a2b-9e4a-4894-b288-4eebd7ec2e20","ios":"levelo://app?vid=27e12a2b-9e4a-4894-b288-4eebd7ec2e20"},"vehicle_type_id":"4","last_reported":1732619308,"current_range_meters":21600,"station_id":"ce4bgh92rcd13ifvqb40","pricing_plan_id":"cebpf4jnsgd1na2vs0mg"},{"bike_id":"e55cb847-ae27-4fbd-b24c-f65df0e27256","system_id":"levelo_inurba_marseille","lat":43.28034,"lon":5.36942,"is_reserved":false,"is_disabled":true,"rental_uris":{"android":"levelo://app?vid=e55cb847-ae27-4fbd-b24c-f65df0e27256","ios":"levelo://app?vid=e55cb847-ae27-4fbd-b24c-f65df0e27256"},"vehicle_type_id":"4","last_reported":1732619308,"current_range_meters":25600,"station_id":"ce4bha12rcd13ifvqef0","pricing_plan_id":"cebpf4jnsgd1na2vs0mg"},{"bike_id":"e5951ee3-4a5a-4ebb-b469-096c5188dfa3","system_id":"levelo_inurba_marseille","lat":43.231883,"lon":5.35549,"is_reserved":false,"is_disabled":false,"rental_uris":{"android":"levelo://app?vid=e5951ee3-4a5a-4ebb-b469-096c5188dfa3","ios":"levelo://app?vid=e5951ee3-4a5a-4ebb-b469-096c5188dfa3"},"vehicle_type_id":"4","last_reported":1732619308,"current_range_meters":36800,"station_id":"ce4bhu92rcd13ifvqi70","pricing_plan_id":"cebpf4jnsgd1na2vs0mg"},{"bike_id":"e2104004-821b-4cd5-97bb-7c88e986d710","system_id":"levelo_inurba_marseille","lat":43.25111,"lon":5.40324,"is_reserved":false,"is_disabled":true,"rental_uris":{"android":"levelo://app?vid=e2104004-821b-4cd5-97bb-7c88e986d710","ios":"levelo://app?vid=e2104004-821b-4cd5-97bb-7c88e986d710"},"vehicle_type_id":"4","last_reported":1732619308,"current_range_meters":8400,"station_id":"ce4bhlh2rcd13ifvqgig","pricing_plan_id":"cebpf4jnsgd1na2vs0mg"},{"bike_id":"d4efb95d-d454-41b2-8a72-4ca7af2f3c03","system_id":"levelo_inurba_marseille","lat":43.27056,"lon":5.40259,"is_reserved":false,"is_disabled":false,"rental_uris":{"android":"levelo://app?vid=d4efb95d-d454-41b2-8a72-4ca7af2f3c03","ios":"levelo://app?vid=d4efb95d-d454-41b2-8a72-4ca7af2f3c03"},"vehicle_type_id":"4","last_reported":1732619308,"current_range_meters":24400,"station_id":"ce4bhk92rcd13ifvqgc0","pricing_plan_id":"cebpf4jnsgd1na2vs0mg"},{"bike_id":"66aad5d7-efa9-4543-8e11-bbf0af584fcf","system_id":"levelo_inurba_marseille","lat":43.27808,"lon":5.40713,"is_reserved":false,"is_disabled":false,"rental_uris":{"android":"levelo://app?vid=66aad5d7-efa9-4543-8e11-bbf0af584fcf","ios":"levelo://app?vid=66aad5d7-efa9-4543-8e11-bbf0af584fcf"},"vehicle_type_id":"4","last_reported":1732619308,"current_range_meters":38800,"station_id":"ce4bhnh2rcd13ifvqgtg","pricing_plan_id":"cebpf4jnsgd1na2vs0mg"},{"bike_id":"b390ab89-d25f-4885-b860-741b05d01f79","system_id":"levelo_inurba_marseille","lat":43.30353,"lon":5.41877,"is_reserved":false,"is_disabled":false,"rental_uris":{"android":"levelo://app?vid=b390ab89-d25f-4885-b860-741b05d01f79","ios":"levelo://app?vid=b390ab89-d25f-4885-b860-741b05d01f79"},"vehicle_type_id":"4","last_reported":1732619308,"current_range_meters":38800,"station_id":"ce4bhop2rcd13ifvqh7g","pricing_plan_id":"cebpf4jnsgd1na2vs0mg"},{"bike_id":"6c948e9c-d5b3-4fe5-a918-1bd2f7c83b02","system_id":"levelo_inurba_marseille","lat":43.32109,"lon":5.36776,"is_reserved":false,"is_disabled":false,"rental_uris":{"android":"levelo://app?vid=6c948e9c-d5b3-4fe5-a918-1bd2f7c83b02","ios":"levelo://app?vid=6c948e9c-d5b3-4fe5-a918-1bd2f7c83b02"},"vehicle_type_id":"4","last_reported":1732619308,"current_range_meters":18800,"station_id":"ce4bhrh2rcd13ifvqhug","pricing_plan_id":"cebpf4jnsgd1na2vs0mg"},{"bike_id":"9e620abf-d324-4f99-84fc-d67e71109f2a","system_id":"levelo_inurba_marseille","lat":43.31077,"lon":5.42435,"is_reserved":false,"is_disabled":true,"rental_uris":{"android":"levelo://app?vid=9e620abf-d324-4f99-84fc-d67e71109f2a","ios":"levelo://app?vid=9e620abf-d324-4f99-84fc-d67e71109f2a"},"vehicle_type_id":"4","last_reported":1732619308,"current_range_meters":0,"station_id":"ce4bhp92rcd13ifvqhag","pricing_plan_id":"cebpf4jnsgd1na2vs0mg"},{"bike_id":"de7004a3-b7db-49aa-9067-0b6ed2338314","system_id":"levelo_inurba_marseille","lat":43.31224,"lon":5.36864,"is_reserved":false,"is_disabled":false,"rental_uris":{"android":"levelo://app?vid=de7004a3-b7db-49aa-9067-0b6ed2338314","ios":"levelo://app?vid=de7004a3-b7db-49aa-9067-0b6ed2338314"},"vehicle_type_id":"4","last_reported":1732619308,"current_range_meters":26800,"station_id":"ce4bgl92rcd13ifvqbq0","pricing_plan_id":"cebpf4jnsgd1na2vs0mg"},{"bike_id":"5c53cfbd-2547-413a-b79a-f8cc3b1ca992","system_id":"levelo_inurba_marseille","lat":43.32108,"lon":5.36783,"is_reserved":false,"is_disabled":false,"rental_uris":{"android":"levelo://app?vid=5c53cfbd-2547-413a-b79a-f8cc3b1ca992","ios":"levelo://app?vid=5c53cfbd-2547-413a-b79a-f8cc3b1ca992"},"vehicle_type_id":"4","last_reported":1732619308,"current_range_meters":32400,"station_id":"ce4bhrh2rcd13ifvqhug","pricing_plan_id":"cebpf4jnsgd1na2vs0mg"},{"bike_id":"f112e5b5-0a6b-4ada-987d-265ef97159c6","system_id":"levelo_inurba_marseille","lat":43.29007,"lon":5.35611,"is_reserved":false,"is_disabled":false,"rental_uris":{"android":"levelo://app?vid=f112e5b5-0a6b-4ada-987d-265ef97159c6","ios":"levelo://app?vid=f112e5b5-0a6b-4ada-987d-265ef97159c6"},"vehicle_type_id":"4","last_reported":1732619308,"current_range_meters":32400,"station_id":"ce4bhb92rcd13ifvqen0","pricing_plan_id":"cebpf4jnsgd1na2vs0mg"},{"bike_id":"a533c993-8405-4b3a-938b-da087b2c2ce0","system_id":"levelo_inurba_marseille","lat":43.31491,"lon":5.37305,"is_reserved":false,"is_disabled":false,"rental_uris":{"android":"levelo://app?vid=a533c993-8405-4b3a-938b-da087b2c2ce0","ios":"levelo://app?vid=a533c993-8405-4b3a-938b-da087b2c2ce0"},"vehicle_type_id":"4","last_reported":1732619308,"current_range_meters":9200,"station_id":"ce4bgt12rcd13ifvqcd0","pricing_plan_id":"cebpf4jnsgd1na2vs0mg"},{"bike_id":"055ef52f-d4ea-4295-a3aa-4c1f0deccd17","system_id":"levelo_inurba_marseille","lat":43.30593,"lon":5.37214,"is_reserved":false,"is_disabled":false,"rental_uris":{"android":"levelo://app?vid=055ef52f-d4ea-4295-a3aa-4c1f0deccd17","ios":"levelo://app?vid=055ef52f-d4ea-4295-a3aa-4c1f0deccd17"},"vehicle_type_id":"4","last_reported":1732619308,"current_range_meters":38800,"station_id":"ce4bgqh2rcd13ifvqc4g","pricing_plan_id":"cebpf4jnsgd1na2vs0mg"},{"bike_id":"df773dc5-a184-4ebc-8085-dd9989ab64f4","system_id":"levelo_inurba_marseille","lat":43.23965,"lon":5.36631,"is_reserved":false,"is_disabled":false,"rental_uris":{"android":"levelo://app?vid=df773dc5-a184-4ebc-8085-dd9989ab64f4","ios":"levelo://app?vid=df773dc5-a184-4ebc-8085-dd9989ab64f4"},"vehicle_type_id":"4","last_reported":1732619308,"current_range_meters":6400,"station_id":"ce4bhi12rcd13ifvqfp0","pricing_plan_id":"cebpf4jnsgd1na2vs0mg"},{"bike_id":"e9ecf9f5-1e07-4dd5-a0ed-971e59ddf795","system_id":"levelo_inurba_marseille","lat":43.31354,"lon":5.36721,"is_reserved":false,"is_disabled":false,"rental_uris":{"android":"levelo://app?vid=e9ecf9f5-1e07-4dd5-a0ed-971e59ddf795","ios":"levelo://app?vid=e9ecf9f5-1e07-4dd5-a0ed-971e59ddf795"},"vehicle_type_id":"4","last_reported":1732619308,"current_range_meters":26800,"station_id":"ce4bgr92rcd13ifvqc6g","pricing_plan_id":"cebpf4jnsgd1na2vs0mg"},{"bike_id":"724b2726-ec37-4373-8564-3f84fc7f4774","system_id":"levelo_inurba_marseille","lat":43.30937,"lon":5.4014,"is_reserved":false,"is_disabled":false,"rental_uris":{"android":"levelo://app?vid=724b2726-ec37-4373-8564-3f84fc7f4774","ios":"levelo://app?vid=724b2726-ec37-4373-8564-3f84fc7f4774"},"vehicle_type_id":"4","last_reported":1732619308,"current_range_meters":36800,"station_id":"ce4bgvp2rcd13ifvqct0","pricing_plan_id":"cebpf4jnsgd1na2vs0mg"},{"bike_id":"afa8ef84-db7b-4458-a4c0-8b534f8c293c","system_id":"levelo_inurba_marseille","lat":43.30598,"lon":5.37225,"is_reserved":false,"is_disabled":false,"rental_uris":{"android":"levelo://app?vid=afa8ef84-db7b-4458-a4c0-8b534f8c293c","ios":"levelo://app?vid=afa8ef84-db7b-4458-a4c0-8b534f8c293c"},"vehicle_type_id":"4","last_reported":1732619308,"current_range_meters":33600,"station_id":"ce4bgqh2rcd13ifvqc4g","pricing_plan_id":"cebpf4jnsgd1na2vs0mg"},{"bike_id":"40c7ddb8-0e1a-4eb1-9e2f-d3bf1a0f9d1e","system_id":"levelo_inurba_marseille","lat":43.28272,"lon":5.35063,"is_reserved":false,"is_disabled":false,"rental_uris":{"android":"levelo://app?vid=40c7ddb8-0e1a-4eb1-9e2f-d3bf1a0f9d1e","ios":"levelo://app?vid=40c7ddb8-0e1a-4eb1-9e2f-d3bf1a0f9d1e"},"vehicle_type_id":"4","last_reported":1732619308,"current_range_meters":21600,"station_id":"ce4bhbp2rcd13ifvqerg","pricing_plan_id":"cebpf4jnsgd1na2vs0mg"},{"bike_id":"46ac22a8-6f10-4221-98a6-34eba5c97bfb","system_id":"levelo_inurba_marseille","lat":43.29188,"lon":5.37308,"is_reserved":false,"is_disabled":true,"rental_uris":{"android":"levelo://app?vid=46ac22a8-6f10-4221-98a6-34eba5c97bfb","ios":"levelo://app?vid=46ac22a8-6f10-4221-98a6-34eba5c97bfb"},"vehicle_type_id":"4","last_reported":1732619308,"current_range_meters":0,"station_id":"","pricing_plan_id":"cebpf4jnsgd1na2vs0mg"},{"bike_id":"cf4bab68-6cd8-44e8-a577-aac7e11232f4","system_id":"levelo_inurba_marseille","lat":43.3137,"lon":5.38488,"is_reserved":false,"is_disabled":false,"rental_uris":{"android":"levelo://app?vid=cf4bab68-6cd8-44e8-a577-aac7e11232f4","ios":"levelo://app?vid=cf4bab68-6cd8-44e8-a577-aac7e11232f4"},"vehicle_type_id":"4","last_reported":1732619308,"current_range_meters":33200,"station_id":"ce4bgt92rcd13ifvqcf0","pricing_plan_id":"cebpf4jnsgd1na2vs0mg"},{"bike_id":"43746d86-8a13-4845-9faf-ae69b548d714","system_id":"levelo_inurba_marseille","lat":43.29459,"lon":5.37917,"is_reserved":false,"is_disabled":true,"rental_uris":{"android":"levelo://app?vid=43746d86-8a13-4845-9faf-ae69b548d714","ios":"levelo://app?vid=43746d86-8a13-4845-9faf-ae69b548d714"},"vehicle_type_id":"4","last_reported":1732619308,"current_range_meters":0,"station_id":"","pricing_plan_id":"cebpf4jnsgd1na2vs0mg"},{"bike_id":"5678d3fa-7c1a-427d-86a2-7fa164fffbf3","system_id":"levelo_inurba_marseille","lat":43.26054,"lon":5.39392,"is_reserved":false,"is_disabled":false,"rental_uris":{"android":"levelo://app?vid=5678d3fa-7c1a-427d-86a2-7fa164fffbf3","ios":"levelo://app?vid=5678d3fa-7c1a-427d-86a2-7fa164fffbf3"},"vehicle_type_id":"4","last_reported":1732619308,"current_range_meters":23200,"station_id":"ce4bhh92rcd13ifvqfj0","pricing_plan_id":"cebpf4jnsgd1na2vs0mg"},{"bike_id":"9f6efdd3-526a-4d62-8bd8-dfd8c7de6d7c","system_id":"levelo_inurba_marseille","lat":43.33605,"lon":5.41038,"is_reserved":false,"is_disabled":false,"rental_uris":{"android":"levelo://app?vid=9f6efdd3-526a-4d62-8bd8-dfd8c7de6d7c","ios":"levelo://app?vid=9f6efdd3-526a-4d62-8bd8-dfd8c7de6d7c"},"vehicle_type_id":"4","last_reported":1732619308,"current_range_meters":31200,"station_id":"ce4bhqh2rcd13ifvqhmg","pricing_plan_id":"cebpf4jnsgd1na2vs0mg"},{"bike_id":"f971abee-70f8-43dc-afe4-4050ccc8c3f7","system_id":"levelo_inurba_marseille","lat":43.258595,"lon":5.398983,"is_reserved":false,"is_disabled":true,"rental_uris":{"android":"levelo://app?vid=f971abee-70f8-43dc-afe4-4050ccc8c3f7","ios":"levelo://app?vid=f971abee-70f8-43dc-afe4-4050ccc8c3f7"},"vehicle_type_id":"4","last_reported":1732619308,"current_range_meters":37600,"station_id":"ce4bhl92rcd13ifvqghg","pricing_plan_id":"cebpf4jnsgd1na2vs0mg"},{"bike_id":"e9077ff7-d50f-4185-b35f-09d20b4a6995","system_id":"levelo_inurba_marseille","lat":43.29194,"lon":5.39313,"is_reserved":false,"is_disabled":true,"rental_uris":{"android":"levelo://app?vid=e9077ff7-d50f-4185-b35f-09d20b4a6995","ios":"levelo://app?vid=e9077ff7-d50f-4185-b35f-09d20b4a6995"},"vehicle_type_id":"4","last_reported":1732619308,"current_range_meters":34800,"station_id":"ce4bh192rcd13ifvqdd0","pricing_plan_id":"cebpf4jnsgd1na2vs0mg"},{"bike_id":"04f19a2d-7f2b-41fd-b91c-946b14bc8598","system_id":"levelo_inurba_marseille","lat":43.29021,"lon":5.38133,"is_reserved":false,"is_disabled":false,"rental_uris":{"android":"levelo://app?vid=04f19a2d-7f2b-41fd-b91c-946b14bc8598","ios":"levelo://app?vid=04f19a2d-7f2b-41fd-b91c-946b14bc8598"},"vehicle_type_id":"4","last_reported":1732619308,"current_range_meters":39200,"station_id":"ce4bh4p2rcd13ifvqe1g","pricing_plan_id":"cebpf4jnsgd1na2vs0mg"},{"bike_id":"cc489206-92dc-4c55-9a61-6ab7dc0d0abe","system_id":"levelo_inurba_marseille","lat":43.24076,"lon":5.37753,"is_reserved":false,"is_disabled":false,"rental_uris":{"android":"levelo://app?vid=cc489206-92dc-4c55-9a61-6ab7dc0d0abe","ios":"levelo://app?vid=cc489206-92dc-4c55-9a61-6ab7dc0d0abe"},"vehicle_type_id":"4","last_reported":1732619308,"current_range_meters":39200,"station_id":"ce4bhnp2rcd13ifvqgvg","pricing_plan_id":"cebpf4jnsgd1na2vs0mg"},{"bike_id":"54420803-63af-4eb9-ae42-09fc71ac3b71","system_id":"levelo_inurba_marseille","lat":43.24179,"lon":5.39729,"is_reserved":false,"is_disabled":false,"rental_uris":{"android":"levelo://app?vid=54420803-63af-4eb9-ae42-09fc71ac3b71","ios":"levelo://app?vid=54420803-63af-4eb9-ae42-09fc71ac3b71"},"vehicle_type_id":"4","last_reported":1732619308,"current_range_meters":19600,"station_id":"ce4bhn12rcd13ifvqgpg","pricing_plan_id":"cebpf4jnsgd1na2vs0mg"},{"bike_id":"b9c2695d-397d-42b8-9037-6ec935848cb0","system_id":"levelo_inurba_marseille","lat":43.29293,"lon":5.40118,"is_reserved":false,"is_disabled":true,"rental_uris":{"android":"levelo://app?vid=b9c2695d-397d-42b8-9037-6ec935848cb0","ios":"levelo://app?vid=b9c2695d-397d-42b8-9037-6ec935848cb0"},"vehicle_type_id":"4","last_reported":1732619308,"current_range_meters":0,"station_id":"ce4bh312rcd13ifvqdk0","pricing_plan_id":"cebpf4jnsgd1na2vs0mg"},{"bike_id":"e3a9ff25-e192-4aec-af57-758c56bd5f8b","system_id":"levelo_inurba_marseille","lat":43.26033,"lon":5.37548,"is_reserved":false,"is_disabled":false,"rental_uris":{"android":"levelo://app?vid=e3a9ff25-e192-4aec-af57-758c56bd5f8b","ios":"levelo://app?vid=e3a9ff25-e192-4aec-af57-758c56bd5f8b"},"vehicle_type_id":"4","last_reported":1732619308,"current_range_meters":25200,"station_id":"ce4bhgh2rcd13ifvqfa0","pricing_plan_id":"cebpf4jnsgd1na2vs0mg"},{"bike_id":"a79097a6-c6c2-442a-9a18-50505a15e6cc","system_id":"levelo_inurba_marseille","lat":43.32478,"lon":5.36559,"is_reserved":false,"is_disabled":false,"rental_uris":{"android":"levelo://app?vid=a79097a6-c6c2-442a-9a18-50505a15e6cc","ios":"levelo://app?vid=a79097a6-c6c2-442a-9a18-50505a15e6cc"},"vehicle_type_id":"4","last_reported":1732619308,"current_range_meters":33200,"station_id":"ce4bhs12rcd13ifvqhvg","pricing_plan_id":"cebpf4jnsgd1na2vs0mg"},{"bike_id":"60366b91-dfba-451c-b2f1-0c2a18308bdf","system_id":"levelo_inurba_marseille","lat":43.22932,"lon":5.35377,"is_reserved":false,"is_disabled":false,"rental_uris":{"android":"levelo://app?vid=60366b91-dfba-451c-b2f1-0c2a18308bdf","ios":"levelo://app?vid=60366b91-dfba-451c-b2f1-0c2a18308bdf"},"vehicle_type_id":"4","last_reported":1732619308,"current_range_meters":28800,"station_id":"cpo3532slgdg3j2ikp40","pricing_plan_id":"cebpf4jnsgd1na2vs0mg"},{"bike_id":"9666ce30-5f2f-4332-a708-df17ba16a1d5","system_id":"levelo_inurba_marseille","lat":43.32482,"lon":5.3656,"is_reserved":false,"is_disabled":false,"rental_uris":{"android":"levelo://app?vid=9666ce30-5f2f-4332-a708-df17ba16a1d5","ios":"levelo://app?vid=9666ce30-5f2f-4332-a708-df17ba16a1d5"},"vehicle_type_id":"4","last_reported":1732619308,"current_range_meters":24000,"station_id":"ce4bhs12rcd13ifvqhvg","pricing_plan_id":"cebpf4jnsgd1na2vs0mg"},{"bike_id":"821bf144-3e04-433b-8fdc-df913ad0749b","system_id":"levelo_inurba_marseille","lat":43.316966,"lon":5.377427,"is_reserved":false,"is_disabled":false,"rental_uris":{"android":"levelo://app?vid=821bf144-3e04-433b-8fdc-df913ad0749b","ios":"levelo://app?vid=821bf144-3e04-433b-8fdc-df913ad0749b"},"vehicle_type_id":"4","last_reported":1732619308,"current_range_meters":30000,"station_id":"ce4bgth2rcd13ifvqch0","pricing_plan_id":"cebpf4jnsgd1na2vs0mg"},{"bike_id":"cf5ac559-543d-4771-9daf-20d793ce8192","system_id":"levelo_inurba_marseille","lat":43.26684,"lon":5.38271,"is_reserved":false,"is_disabled":false,"rental_uris":{"android":"levelo://app?vid=cf5ac559-543d-4771-9daf-20d793ce8192","ios":"levelo://app?vid=cf5ac559-543d-4771-9daf-20d793ce8192"},"vehicle_type_id":"4","last_reported":1732619308,"current_range_meters":30000,"station_id":"ce4bhg92rcd13ifvqf90","pricing_plan_id":"cebpf4jnsgd1na2vs0mg"},{"bike_id":"7e9061cd-5627-407a-8c6f-fcf878e75a40","system_id":"levelo_inurba_marseille","lat":43.2795,"lon":5.41048,"is_reserved":false,"is_disabled":true,"rental_uris":{"android":"levelo://app?vid=7e9061cd-5627-407a-8c6f-fcf878e75a40","ios":"levelo://app?vid=7e9061cd-5627-407a-8c6f-fcf878e75a40"},"vehicle_type_id":"4","last_reported":1732619308,"current_range_meters":0,"station_id":"ce4bhnp2rcd13ifvqh0g","pricing_plan_id":"cebpf4jnsgd1na2vs0mg"},{"bike_id":"009fe169-0c00-4962-9a5d-68dc5d216a87","system_id":"levelo_inurba_marseille","lat":43.32483,"lon":5.36569,"is_reserved":false,"is_disabled":false,"rental_uris":{"android":"levelo://app?vid=009fe169-0c00-4962-9a5d-68dc5d216a87","ios":"levelo://app?vid=009fe169-0c00-4962-9a5d-68dc5d216a87"},"vehicle_type_id":"4","last_reported":1732619308,"current_range_meters":27200,"station_id":"ce4bhs12rcd13ifvqhvg","pricing_plan_id":"cebpf4jnsgd1na2vs0mg"},{"bike_id":"c80ca3d0-f765-497c-a8e1-2232afa9396e","system_id":"levelo_inurba_marseille","lat":43.25088,"lon":5.3952,"is_reserved":false,"is_disabled":false,"rental_uris":{"android":"levelo://app?vid=c80ca3d0-f765-497c-a8e1-2232afa9396e","ios":"levelo://app?vid=c80ca3d0-f765-497c-a8e1-2232afa9396e"},"vehicle_type_id":"4","last_reported":1732619308,"current_range_meters":4400,"station_id":"ce4bhm12rcd13ifvqgkg","pricing_plan_id":"cebpf4jnsgd1na2vs0mg"},{"bike_id":"4039ea2a-36c3-48e9-84a9-1bd6dc4b83b9","system_id":"levelo_inurba_marseille","lat":43.31699,"lon":5.4046,"is_reserved":false,"is_disabled":true,"rental_uris":{"android":"levelo://app?vid=4039ea2a-36c3-48e9-84a9-1bd6dc4b83b9","ios":"levelo://app?vid=4039ea2a-36c3-48e9-84a9-1bd6dc4b83b9"},"vehicle_type_id":"4","last_reported":1732619308,"current_range_meters":16800,"station_id":"ce4bh012rcd13ifvqd00","pricing_plan_id":"cebpf4jnsgd1na2vs0mg"},{"bike_id":"5beafa7d-6817-4597-b774-4a95f6291579","system_id":"levelo_inurba_marseille","lat":43.30419,"lon":5.41279,"is_reserved":false,"is_disabled":false,"rental_uris":{"android":"levelo://app?vid=5beafa7d-6817-4597-b774-4a95f6291579","ios":"levelo://app?vid=5beafa7d-6817-4597-b774-4a95f6291579"},"vehicle_type_id":"4","last_reported":1732619308,"current_range_meters":37600,"station_id":"ce4bhop2rcd13ifvqh8g","pricing_plan_id":"cebpf4jnsgd1na2vs0mg"},{"bike_id":"3a19d45d-a757-417c-b54e-92314bcfae61","system_id":"levelo_inurba_marseille","lat":43.2695,"lon":5.38626,"is_reserved":false,"is_disabled":true,"rental_uris":{"android":"levelo://app?vid=3a19d45d-a757-417c-b54e-92314bcfae61","ios":"levelo://app?vid=3a19d45d-a757-417c-b54e-92314bcfae61"},"vehicle_type_id":"4","last_reported":1732619308,"current_range_meters":800,"station_id":"ce4bhh92rcd13ifvqfh0","pricing_plan_id":"cebpf4jnsgd1na2vs0mg"},{"bike_id":"f9c53800-2a55-4b84-aa63-177bb0d2f41e","system_id":"levelo_inurba_marseille","lat":43.30878,"lon":5.3719,"is_reserved":false,"is_disabled":false,"rental_uris":{"android":"levelo://app?vid=f9c53800-2a55-4b84-aa63-177bb0d2f41e","ios":"levelo://app?vid=f9c53800-2a55-4b84-aa63-177bb0d2f41e"},"vehicle_type_id":"4","last_reported":1732619308,"current_range_meters":38800,"station_id":"ce4bguh2rcd13ifvqckg","pricing_plan_id":"cebpf4jnsgd1na2vs0mg"},{"bike_id":"24bf6bdf-4e91-4743-8260-29fb497ab273","system_id":"levelo_inurba_marseille","lat":43.30144,"lon":5.3809,"is_reserved":false,"is_disabled":true,"rental_uris":{"android":"levelo://app?vid=24bf6bdf-4e91-4743-8260-29fb497ab273","ios":"levelo://app?vid=24bf6bdf-4e91-4743-8260-29fb497ab273"},"vehicle_type_id":"4","last_reported":1732619308,"current_range_meters":30000,"station_id":"ce4bgjp2rcd13ifvqbh0","pricing_plan_id":"cebpf4jnsgd1na2vs0mg"},{"bike_id":"a9063411-af81-45fb-9d2c-0bf6300803cf","system_id":"levelo_inurba_marseille","lat":43.26685,"lon":5.38263,"is_reserved":false,"is_disabled":false,"rental_uris":{"android":"levelo://app?vid=a9063411-af81-45fb-9d2c-0bf6300803cf","ios":"levelo://app?vid=a9063411-af81-45fb-9d2c-0bf6300803cf"},"vehicle_type_id":"4","last_reported":1732619308,"current_range_meters":38800,"station_id":"ce4bhg92rcd13ifvqf90","pricing_plan_id":"cebpf4jnsgd1na2vs0mg"},{"bike_id":"31fc5656-68b5-49fe-8d8c-fdd4c5c16385","system_id":"levelo_inurba_marseille","lat":43.23179,"lon":5.39986,"is_reserved":false,"is_disabled":false,"rental_uris":{"android":"levelo://app?vid=31fc5656-68b5-49fe-8d8c-fdd4c5c16385","ios":"levelo://app?vid=31fc5656-68b5-49fe-8d8c-fdd4c5c16385"},"vehicle_type_id":"4","last_reported":1732619308,"current_range_meters":17200,"station_id":"ce4bhn12rcd13ifvqgqg","pricing_plan_id":"cebpf4jnsgd1na2vs0mg"},{"bike_id":"b7253de9-6ec1-4db5-9737-385abac9855c","system_id":"levelo_inurba_marseille","lat":43.26673,"lon":5.39527,"is_reserved":false,"is_disabled":true,"rental_uris":{"android":"levelo://app?vid=b7253de9-6ec1-4db5-9737-385abac9855c","ios":"levelo://app?vid=b7253de9-6ec1-4db5-9737-385abac9855c"},"vehicle_type_id":"4","last_reported":1732619308,"current_range_meters":0,"station_id":"","pricing_plan_id":"cebpf4jnsgd1na2vs0mg"},{"bike_id":"35721010-0501-4d23-9637-688c6912beae","system_id":"levelo_inurba_marseille","lat":43.26208,"lon":5.37442,"is_reserved":false,"is_disabled":false,"rental_uris":{"android":"levelo://app?vid=35721010-0501-4d23-9637-688c6912beae","ios":"levelo://app?vid=35721010-0501-4d23-9637-688c6912beae"},"vehicle_type_id":"4","last_reported":1732619308,"current_range_meters":37600,"station_id":"ce4bhgp2rcd13ifvqfc0","pricing_plan_id":"cebpf4jnsgd1na2vs0mg"},{"bike_id":"7e04bb67-c24d-44da-93e9-2e0567bf10fa","system_id":"levelo_inurba_marseille","lat":43.23152,"lon":5.43713,"is_reserved":false,"is_disabled":true,"rental_uris":{"android":"levelo://app?vid=7e04bb67-c24d-44da-93e9-2e0567bf10fa","ios":"levelo://app?vid=7e04bb67-c24d-44da-93e9-2e0567bf10fa"},"vehicle_type_id":"4","last_reported":1732619308,"current_range_meters":0,"station_id":"ce4bhmp2rcd13ifvqgog","pricing_plan_id":"cebpf4jnsgd1na2vs0mg"},{"bike_id":"d134d118-2b17-43b4-8110-141ed3d15b95","system_id":"levelo_inurba_marseille","lat":43.31212,"lon":5.36836,"is_reserved":false,"is_disabled":false,"rental_uris":{"android":"levelo://app?vid=d134d118-2b17-43b4-8110-141ed3d15b95","ios":"levelo://app?vid=d134d118-2b17-43b4-8110-141ed3d15b95"},"vehicle_type_id":"4","last_reported":1732619308,"current_range_meters":39200,"station_id":"ce4bgl92rcd13ifvqbq0","pricing_plan_id":"cebpf4jnsgd1na2vs0mg"},{"bike_id":"062a09e4-d9f0-4789-84bb-cafe2b05c356","system_id":"levelo_inurba_marseille","lat":43.25005,"lon":5.38926,"is_reserved":false,"is_disabled":false,"rental_uris":{"android":"levelo://app?vid=062a09e4-d9f0-4789-84bb-cafe2b05c356","ios":"levelo://app?vid=062a09e4-d9f0-4789-84bb-cafe2b05c356"},"vehicle_type_id":"4","last_reported":1732619308,"current_range_meters":36000,"station_id":"ce4bhgp2rcd13ifvqfd0","pricing_plan_id":"cebpf4jnsgd1na2vs0mg"},{"bike_id":"d6a51aae-a313-47dc-801e-d3eb923dc9e5","system_id":"levelo_inurba_marseille","lat":43.27172,"lon":5.40994,"is_reserved":false,"is_disabled":false,"rental_uris":{"android":"levelo://app?vid=d6a51aae-a313-47dc-801e-d3eb923dc9e5","ios":"levelo://app?vid=d6a51aae-a313-47dc-801e-d3eb923dc9e5"},"vehicle_type_id":"4","last_reported":1732619308,"current_range_meters":33200,"station_id":"ce4bhl12rcd13ifvqgf0","pricing_plan_id":"cebpf4jnsgd1na2vs0mg"},{"bike_id":"e4395f26-4c0b-4bec-b10e-ec01132237c1","system_id":"levelo_inurba_marseille","lat":43.27171,"lon":5.410007,"is_reserved":false,"is_disabled":true,"rental_uris":{"android":"levelo://app?vid=e4395f26-4c0b-4bec-b10e-ec01132237c1","ios":"levelo://app?vid=e4395f26-4c0b-4bec-b10e-ec01132237c1"},"vehicle_type_id":"4","last_reported":1732619308,"current_range_meters":0,"station_id":"ce4bhl12rcd13ifvqgf0","pricing_plan_id":"cebpf4jnsgd1na2vs0mg"},{"bike_id":"31902d2a-c890-4157-8f73-a3a1119c5d03","system_id":"levelo_inurba_marseille","lat":43.23151,"lon":5.43715,"is_reserved":false,"is_disabled":true,"rental_uris":{"android":"levelo://app?vid=31902d2a-c890-4157-8f73-a3a1119c5d03","ios":"levelo://app?vid=31902d2a-c890-4157-8f73-a3a1119c5d03"},"vehicle_type_id":"4","last_reported":1732619308,"current_range_meters":0,"station_id":"ce4bhmp2rcd13ifvqgog","pricing_plan_id":"cebpf4jnsgd1na2vs0mg"},{"bike_id":"832acdd1-e3cc-4f85-b659-4259913b3799","system_id":"levelo_inurba_marseille","lat":43.23201,"lon":5.35545,"is_reserved":false,"is_disabled":false,"rental_uris":{"android":"levelo://app?vid=832acdd1-e3cc-4f85-b659-4259913b3799","ios":"levelo://app?vid=832acdd1-e3cc-4f85-b659-4259913b3799"},"vehicle_type_id":"4","last_reported":1732619308,"current_range_meters":25200,"station_id":"ce4bhu92rcd13ifvqi70","pricing_plan_id":"cebpf4jnsgd1na2vs0mg"},{"bike_id":"17f6ebf6-f95e-41b9-b06b-2c7e7af54367","system_id":"levelo_inurba_marseille","lat":43.28658,"lon":5.36361,"is_reserved":false,"is_disabled":true,"rental_uris":{"android":"levelo://app?vid=17f6ebf6-f95e-41b9-b06b-2c7e7af54367","ios":"levelo://app?vid=17f6ebf6-f95e-41b9-b06b-2c7e7af54367"},"vehicle_type_id":"4","last_reported":1732619308,"current_range_meters":38000,"station_id":"ce4bhah2rcd13ifvqej0","pricing_plan_id":"cebpf4jnsgd1na2vs0mg"},{"bike_id":"9d3a11db-2763-47ba-881f-b7761f741a97","system_id":"levelo_inurba_marseille","lat":43.31324,"lon":5.39698,"is_reserved":false,"is_disabled":false,"rental_uris":{"android":"levelo://app?vid=9d3a11db-2763-47ba-881f-b7761f741a97","ios":"levelo://app?vid=9d3a11db-2763-47ba-881f-b7761f741a97"},"vehicle_type_id":"4","last_reported":1732619308,"current_range_meters":20000,"station_id":"ce4bgvp2rcd13ifvqcu0","pricing_plan_id":"cebpf4jnsgd1na2vs0mg"},{"bike_id":"6d72fc65-834d-4b67-b303-f73a4cd5c9c2","system_id":"levelo_inurba_marseille","lat":43.27663,"lon":5.35772,"is_reserved":false,"is_disabled":false,"rental_uris":{"android":"levelo://app?vid=6d72fc65-834d-4b67-b303-f73a4cd5c9c2","ios":"levelo://app?vid=6d72fc65-834d-4b67-b303-f73a4cd5c9c2"},"vehicle_type_id":"4","last_reported":1732619308,"current_range_meters":16400,"station_id":"ce4bhap2rcd13ifvqek0","pricing_plan_id":"cebpf4jnsgd1na2vs0mg"},{"bike_id":"7fa2e0c4-93ef-4dd8-94bd-ece0f6fefe99","system_id":"levelo_inurba_marseille","lat":43.23154,"lon":5.4371,"is_reserved":false,"is_disabled":false,"rental_uris":{"android":"levelo://app?vid=7fa2e0c4-93ef-4dd8-94bd-ece0f6fefe99","ios":"levelo://app?vid=7fa2e0c4-93ef-4dd8-94bd-ece0f6fefe99"},"vehicle_type_id":"4","last_reported":1732619308,"current_range_meters":20800,"station_id":"ce4bhmp2rcd13ifvqgog","pricing_plan_id":"cebpf4jnsgd1na2vs0mg"},{"bike_id":"3629a32f-a709-4a11-9106-5e7f0ff28e81","system_id":"levelo_inurba_marseille","lat":43.27042,"lon":5.4071,"is_reserved":false,"is_disabled":true,"rental_uris":{"android":"levelo://app?vid=3629a32f-a709-4a11-9106-5e7f0ff28e81","ios":"levelo://app?vid=3629a32f-a709-4a11-9106-5e7f0ff28e81"},"vehicle_type_id":"4","last_reported":1732619308,"current_range_meters":0,"station_id":"","pricing_plan_id":"cebpf4jnsgd1na2vs0mg"},{"bike_id":"3134a51f-3cda-4fa8-a1df-60ac265d6122","system_id":"levelo_inurba_marseille","lat":43.29938,"lon":5.36558,"is_reserved":false,"is_disabled":false,"rental_uris":{"android":"levelo://app?vid=3134a51f-3cda-4fa8-a1df-60ac265d6122","ios":"levelo://app?vid=3134a51f-3cda-4fa8-a1df-60ac265d6122"},"vehicle_type_id":"4","last_reported":1732619308,"current_range_meters":38800,"station_id":"ce4bgm92rcd13ifvqbr0","pricing_plan_id":"cebpf4jnsgd1na2vs0mg"},{"bike_id":"c0b23385-0353-43b0-ad05-eb4c1a0ee65d","system_id":"levelo_inurba_marseille","lat":43.25579,"lon":5.3823,"is_reserved":false,"is_disabled":true,"rental_uris":{"android":"levelo://app?vid=c0b23385-0353-43b0-ad05-eb4c1a0ee65d","ios":"levelo://app?vid=c0b23385-0353-43b0-ad05-eb4c1a0ee65d"},"vehicle_type_id":"4","last_reported":1732619308,"current_range_meters":22400,"station_id":"ce4bhih2rcd13ifvqfs0","pricing_plan_id":"cebpf4jnsgd1na2vs0mg"},{"bike_id":"cdd4f8d9-bd5a-4896-97ae-a7584cd5a3d9","system_id":"levelo_inurba_marseille","lat":43.33027,"lon":5.39037,"is_reserved":false,"is_disabled":false,"rental_uris":{"android":"levelo://app?vid=cdd4f8d9-bd5a-4896-97ae-a7584cd5a3d9","ios":"levelo://app?vid=cdd4f8d9-bd5a-4896-97ae-a7584cd5a3d9"},"vehicle_type_id":"4","last_reported":1732619308,"current_range_meters":38400,"station_id":"ce4bhr92rcd13ifvqhrg","pricing_plan_id":"cebpf4jnsgd1na2vs0mg"},{"bike_id":"2afe7ac8-0ff6-42e7-9bab-920f3ff7da60","system_id":"levelo_inurba_marseille","lat":43.29791,"lon":5.37097,"is_reserved":false,"is_disabled":false,"rental_uris":{"android":"levelo://app?vid=2afe7ac8-0ff6-42e7-9bab-920f3ff7da60","ios":"levelo://app?vid=2afe7ac8-0ff6-42e7-9bab-920f3ff7da60"},"vehicle_type_id":"4","last_reported":1732619308,"current_range_meters":25600,"station_id":"ce4bgop2rcd13ifvqc1g","pricing_plan_id":"cebpf4jnsgd1na2vs0mg"},{"bike_id":"ef01e6ae-51af-450d-8416-86c90a14e523","system_id":"levelo_inurba_marseille","lat":43.25933,"lon":5.40914,"is_reserved":false,"is_disabled":false,"rental_uris":{"android":"levelo://app?vid=ef01e6ae-51af-450d-8416-86c90a14e523","ios":"levelo://app?vid=ef01e6ae-51af-450d-8416-86c90a14e523"},"vehicle_type_id":"4","last_reported":1732619308,"current_range_meters":36800,"station_id":"ce4bhm92rcd13ifvqglg","pricing_plan_id":"cebpf4jnsgd1na2vs0mg"},{"bike_id":"40cd5bfb-4da3-4e24-aca8-ee30822c1473","system_id":"levelo_inurba_marseille","lat":43.31358,"lon":5.38487,"is_reserved":false,"is_disabled":false,"rental_uris":{"android":"levelo://app?vid=40cd5bfb-4da3-4e24-aca8-ee30822c1473","ios":"levelo://app?vid=40cd5bfb-4da3-4e24-aca8-ee30822c1473"},"vehicle_type_id":"4","last_reported":1732619308,"current_range_meters":10000,"station_id":"ce4bgt92rcd13ifvqcf0","pricing_plan_id":"cebpf4jnsgd1na2vs0mg"},{"bike_id":"dc4c4e1a-2436-4bc7-81fd-70222ebce8a8","system_id":"levelo_inurba_marseille","lat":43.31171,"lon":5.38709,"is_reserved":false,"is_disabled":false,"rental_uris":{"android":"levelo://app?vid=dc4c4e1a-2436-4bc7-81fd-70222ebce8a8","ios":"levelo://app?vid=dc4c4e1a-2436-4bc7-81fd-70222ebce8a8"},"vehicle_type_id":"4","last_reported":1732619308,"current_range_meters":38800,"station_id":"ce4bgv12rcd13ifvqcp0","pricing_plan_id":"cebpf4jnsgd1na2vs0mg"},{"bike_id":"dc88f1cc-2899-4ac2-b303-7fc75bfac1fd","system_id":"levelo_inurba_marseille","lat":43.30548,"lon":5.36521,"is_reserved":false,"is_disabled":false,"rental_uris":{"android":"levelo://app?vid=dc88f1cc-2899-4ac2-b303-7fc75bfac1fd","ios":"levelo://app?vid=dc88f1cc-2899-4ac2-b303-7fc75bfac1fd"},"vehicle_type_id":"4","last_reported":1732619308,"current_range_meters":33200,"station_id":"ce4bgs12rcd13ifvqcag","pricing_plan_id":"cebpf4jnsgd1na2vs0mg"},{"bike_id":"4c586ed6-9be7-44d9-be82-96ff5190086e","system_id":"levelo_inurba_marseille","lat":43.230634,"lon":5.354969,"is_reserved":false,"is_disabled":false,"rental_uris":{"android":"levelo://app?vid=4c586ed6-9be7-44d9-be82-96ff5190086e","ios":"levelo://app?vid=4c586ed6-9be7-44d9-be82-96ff5190086e"},"vehicle_type_id":"4","last_reported":1732619308,"current_range_meters":36000,"station_id":"cpo3342slgdg3j2ifvpg","pricing_plan_id":"cebpf4jnsgd1na2vs0mg"},{"bike_id":"02acfe02-125b-44cb-a5ea-a9442bcf81ea","system_id":"levelo_inurba_marseille","lat":43.3247,"lon":5.36558,"is_reserved":false,"is_disabled":false,"rental_uris":{"android":"levelo://app?vid=02acfe02-125b-44cb-a5ea-a9442bcf81ea","ios":"levelo://app?vid=02acfe02-125b-44cb-a5ea-a9442bcf81ea"},"vehicle_type_id":"4","last_reported":1732619308,"current_range_meters":38800,"station_id":"ce4bhs12rcd13ifvqhvg","pricing_plan_id":"cebpf4jnsgd1na2vs0mg"},{"bike_id":"a6382a7c-de8b-40ea-8e8c-9b1074fc24b1","system_id":"levelo_inurba_marseille","lat":43.24548,"lon":5.39524,"is_reserved":false,"is_disabled":true,"rental_uris":{"android":"levelo://app?vid=a6382a7c-de8b-40ea-8e8c-9b1074fc24b1","ios":"levelo://app?vid=a6382a7c-de8b-40ea-8e8c-9b1074fc24b1"},"vehicle_type_id":"4","last_reported":1732619308,"current_range_meters":38800,"station_id":"ce4bhlp2rcd13ifvqgjg","pricing_plan_id":"cebpf4jnsgd1na2vs0mg"},{"bike_id":"8081eb18-0ea3-4c64-b0f2-c4bc4ed2147b","system_id":"levelo_inurba_marseille","lat":43.23155,"lon":5.43712,"is_reserved":false,"is_disabled":true,"rental_uris":{"android":"levelo://app?vid=8081eb18-0ea3-4c64-b0f2-c4bc4ed2147b","ios":"levelo://app?vid=8081eb18-0ea3-4c64-b0f2-c4bc4ed2147b"},"vehicle_type_id":"4","last_reported":1732619308,"current_range_meters":18800,"station_id":"ce4bhmp2rcd13ifvqgog","pricing_plan_id":"cebpf4jnsgd1na2vs0mg"},{"bike_id":"5545efff-bbbe-40ec-9e49-3705eef1a095","system_id":"levelo_inurba_marseille","lat":43.26209,"lon":5.37437,"is_reserved":false,"is_disabled":false,"rental_uris":{"android":"levelo://app?vid=5545efff-bbbe-40ec-9e49-3705eef1a095","ios":"levelo://app?vid=5545efff-bbbe-40ec-9e49-3705eef1a095"},"vehicle_type_id":"4","last_reported":1732619308,"current_range_meters":36800,"station_id":"ce4bhgp2rcd13ifvqfc0","pricing_plan_id":"cebpf4jnsgd1na2vs0mg"},{"bike_id":"4cdc5dec-262a-41f7-b5f6-add01165a02a","system_id":"levelo_inurba_marseille","lat":43.2957,"lon":5.37523,"is_reserved":false,"is_disabled":false,"rental_uris":{"android":"levelo://app?vid=4cdc5dec-262a-41f7-b5f6-add01165a02a","ios":"levelo://app?vid=4cdc5dec-262a-41f7-b5f6-add01165a02a"},"vehicle_type_id":"4","last_reported":1732619308,"current_range_meters":38000,"station_id":"ce4bgh92rcd13ifvqb50","pricing_plan_id":"cebpf4jnsgd1na2vs0mg"},{"bike_id":"dfe3010a-ce66-4da4-8d6e-3f71090fe980","system_id":"levelo_inurba_marseille","lat":43.25506,"lon":5.376473,"is_reserved":false,"is_disabled":false,"rental_uris":{"android":"levelo://app?vid=dfe3010a-ce66-4da4-8d6e-3f71090fe980","ios":"levelo://app?vid=dfe3010a-ce66-4da4-8d6e-3f71090fe980"},"vehicle_type_id":"4","last_reported":1732619308,"current_range_meters":38000,"station_id":"ce4bhh12rcd13ifvqff0","pricing_plan_id":"cebpf4jnsgd1na2vs0mg"},{"bike_id":"75ebc519-81b3-4dfc-a862-7284c315c5ac","system_id":"levelo_inurba_marseille","lat":43.33605,"lon":5.41036,"is_reserved":false,"is_disabled":false,"rental_uris":{"android":"levelo://app?vid=75ebc519-81b3-4dfc-a862-7284c315c5ac","ios":"levelo://app?vid=75ebc519-81b3-4dfc-a862-7284c315c5ac"},