{"last_updated":1736273568,"ttl":60,"version":"2.2","data":{"bikes":[{"bike_id":"89421f62-06fd-4b68-bcb1-b94fd7ea6d26","system_id":"levelo_inurba_marseille","lat":43.31306,"lon":5.40535,"is_reserved":false,"is_disabled":false,"rental_uris":{"android":"levelo://app?vid=89421f62-06fd-4b68-bcb1-b94fd7ea6d26","ios":"levelo://app?vid=89421f62-06fd-4b68-bcb1-b94fd7ea6d26"},"vehicle_type_id":"4","last_reported":1736273568,"current_range_meters":20800,"station_id":"","pricing_plan_id":"cebpf4jnsgd1na2vs0mg"},{"bike_id":"e5028c33-9f8e-4ac3-a14c-e67e8c232bdb","system_id":"levelo_inurba_marseille","lat":43.27813,"lon":5.40714,"is_reserved":false,"is_disabled":false,"rental_uris":{"android":"levelo://app?vid=e5028c33-9f8e-4ac3-a14c-e67e8c232bdb","ios":"levelo://app?vid=e5028c33-9f8e-4ac3-a14c-e67e8c232bdb"},"vehicle_type_id":"4","last_reported":1736273568,"current_range_meters":29600,"station_id":"ce4bhnh2rcd13ifvqgtg","pricing_plan_id":"cebpf4jnsgd1na2vs0mg"},{"bike_id":"72979f63-3265-4d89-bb93-bd4712c1536b","system_id":"levelo_inurba_marseille","lat":43.25716,"lon":5.41115,"is_reserved":false,"is_disabled":false,"rental_uris":{"android":"levelo://app?vid=72979f63-3265-4d89-bb93-bd4712c1536b","ios":"levelo://app?vid=72979f63-3265-4d89-bb93-bd4712c1536b"},"vehicle_type_id":"4","last_reported":1736273568,"current_range_meters":27600,"station_id":"ce4bhkp2rcd13ifvqgd0","pricing_plan_id":"cebpf4jnsgd1na2vs0mg"},{"bike_id":"fddc02d2-5a08-4027-9eb6-2c366912044d","system_id":"levelo_inurba_marseille","lat":43.29979,"lon":5.37188,"is_reserved":false,"is_disabled":false,"rental_uris":{"android":"levelo://app?vid=fddc02d2-5a08-4027-9eb6-2c366912044d","ios":"levelo://app?vid=fddc02d2-5a08-4027-9eb6-2c366912044d"},"vehicle_type_id":"4","last_reported":1736273568,"current_range_meters":17600,"station_id":"ce4bgr92rcd13ifvqc7g","pricing_plan_id":"cebpf4jnsgd1na2vs0mg"},{"bike_id":"f7a0935c-a901-4c48-8ba1-718524acd46d","system_id":"levelo_inurba_marseille","lat":43.31713,"lon":5.43705,"is_reserved":false,"is_disabled":false,"rental_uris":{"android":"levelo://app?vid=f7a0935c-a901-4c48-8ba1-718524acd46d","ios":"levelo://app?vid=f7a0935c-a901-4c48-8ba1-718524acd46d"},"vehicle_type_id":"4","last_reported":1736273568,"current_range_meters":17200,"station_id":"ce4bhp92rcd13ifvqhcg","pricing_plan_id":"cebpf4jnsgd1na2vs0mg"},{"bike_id":"1c2c3464-8b3a-4eab-9fdd-fd6c6e2d5657","system_id":"levelo_inurba_marseille","lat":43.2867,"lon":5.38628,"is_reserved":false,"is_disabled":false,"rental_uris":{"android":"levelo://app?vid=1c2c3464-8b3a-4eab-9fdd-fd6c6e2d5657","ios":"levelo://app?vid=1c2c3464-8b3a-4eab-9fdd-fd6c6e2d5657"},"vehicle_type_id":"4","last_reported":1736273568,"current_range_meters":38800,"station_id":"ce4bh492rcd13ifvqdug","pricing_plan_id":"cebpf4jnsgd1na2vs0mg"},{"bike_id":"a3e1a7c1-a955-433f-9559-57d67fb5adf7","system_id":"levelo_inurba_marseille","lat":43.24178,"lon":5.39727,"is_reserved":false,"is_disabled":false,"rental_uris":{"android":"levelo://app?vid=a3e1a7c1-a955-433f-9559-57d67fb5adf7","ios":"levelo://app?vid=a3e1a7c1-a955-433f-9559-57d67fb5adf7"},"vehicle_type_id":"4","last_reported":1736273568,"current_range_meters":15200,"station_id":"ce4bhn12rcd13ifvqgpg","pricing_plan_id":"cebpf4jnsgd1na2vs0mg"},{"bike_id":"eab2a828-9ecc-4dfb-9a1c-1f671724e4c8","system_id":"levelo_inurba_marseille","lat":43.31705,"lon":5.437,"is_reserved":false,"is_disabled":false,"rental_uris":{"android":"levelo://app?vid=eab2a828-9ecc-4dfb-9a1c-1f671724e4c8","ios":"levelo://app?vid=eab2a828-9ecc-4dfb-9a1c-1f671724e4c8"},"vehicle_type_id":"4","last_reported":1736273568,"current_range_meters":37600,"station_id":"ce4bhp92rcd13ifvqhcg","pricing_plan_id":"cebpf4jnsgd1na2vs0mg"},{"bike_id":"e8f7458c-cf19-43d7-a972-43547ad9fe30","system_id":"levelo_inurba_marseille","lat":43.27183,"lon":5.4101,"is_reserved":false,"is_disabled":false,"rental_uris":{"android":"levelo://app?vid=e8f7458c-cf19-43d7-a972-43547ad9fe30","ios":"levelo://app?vid=e8f7458c-cf19-43d7-a972-43547ad9fe30"},"vehicle_type_id":"4","last_reported":1736273568,"current_range_meters":2800,"station_id":"ce4bhl12rcd13ifvqgf0","pricing_plan_id":"cebpf4jnsgd1na2vs0mg"},{"bike_id":"05a2c15a-fb68-455c-8082-fdf747a62fe7","system_id":"levelo_inurba_marseille","lat":43.278168,"lon":5.407164,"is_reserved":false,"is_disabled":false,"rental_uris":{"android":"levelo://app?vid=05a2c15a-fb68-455c-8082-fdf747a62fe7","ios":"levelo://app?vid=05a2c15a-fb68-455c-8082-fdf747a62fe7"},"vehicle_type_id":"4","last_reported":1736273568,"current_range_meters":38800,"station_id":"ce4bhnh2rcd13ifvqgtg","pricing_plan_id":"cebpf4jnsgd1na2vs0mg"},{"bike_id":"baf2b7b5-3b65-4442-9ff7-329a7ba0f53f","system_id":"levelo_inurba_marseille","lat":43.29263,"lon":5.38444,"is_reserved":false,"is_disabled":false,"rental_uris":{"android":"levelo://app?vid=baf2b7b5-3b65-4442-9ff7-329a7ba0f53f","ios":"levelo://app?vid=baf2b7b5-3b65-4442-9ff7-329a7ba0f53f"},"vehicle_type_id":"4","last_reported":1736273568,"current_range_meters":32400,"station_id":"ce4bh692rcd13ifvqea0","pricing_plan_id":"cebpf4jnsgd1na2vs0mg"},{"bike_id":"2d8e34d9-b80c-45b2-a371-14e66d0ae48a","system_id":"levelo_inurba_marseille","lat":43.24168,"lon":5.39723,"is_reserved":false,"is_disabled":false,"rental_uris":{"android":"levelo://app?vid=2d8e34d9-b80c-45b2-a371-14e66d0ae48a","ios":"levelo://app?vid=2d8e34d9-b80c-45b2-a371-14e66d0ae48a"},"vehicle_type_id":"4","last_reported":1736273568,"current_range_meters":21600,"station_id":"ce4bhn12rcd13ifvqgpg","pricing_plan_id":"cebpf4jnsgd1na2vs0mg"},{"bike_id":"50533a2c-4234-479f-b2ab-d80d5f4d8494","system_id":"levelo_inurba_marseille","lat":43.2925,"lon":5.38449,"is_reserved":false,"is_disabled":false,"rental_uris":{"android":"levelo://app?vid=50533a2c-4234-479f-b2ab-d80d5f4d8494","ios":"levelo://app?vid=50533a2c-4234-479f-b2ab-d80d5f4d8494"},"vehicle_type_id":"4","last_reported":1736273568,"current_range_meters":32000,"station_id":"ce4bh692rcd13ifvqea0","pricing_plan_id":"cebpf4jnsgd1na2vs0mg"},{"bike_id":"2e3020fc-739e-484f-aff1-968aa18f2ac1","system_id":"levelo_inurba_marseille","lat":43.28008,"lon":5.41645,"is_reserved":false,"is_disabled":true,"rental_uris":{"android":"levelo://app?vid=2e3020fc-739e-484f-aff1-968aa18f2ac1","ios":"levelo://app?vid=2e3020fc-739e-484f-aff1-968aa18f2ac1"},"vehicle_type_id":"4","last_reported":1736273568,"current_range_meters":35200,"station_id":"ce4bho12rcd13ifvqh1g","pricing_plan_id":"cebpf4jnsgd1na2vs0mg"},{"bike_id":"07662c79-b5c1-456f-a9a8-8ffe4550c999","system_id":"levelo_inurba_marseille","lat":43.27923,"lon":5.3956,"is_reserved":false,"is_disabled":false,"rental_uris":{"android":"levelo://app?vid=07662c79-b5c1-456f-a9a8-8ffe4550c999","ios":"levelo://app?vid=07662c79-b5c1-456f-a9a8-8ffe4550c999"},"vehicle_type_id":"4","last_reported":1736273568,"current_range_meters":30000,"station_id":"ce4bhf92rcd13ifvqf40","pricing_plan_id":"cebpf4jnsgd1na2vs0mg"},{"bike_id":"0bce7a6a-e94c-4c7b-a4aa-1099a7128c10","system_id":"levelo_inurba_marseille","lat":43.29263,"lon":5.38442,"is_reserved":false,"is_disabled":false,"rental_uris":{"android":"levelo://app?vid=0bce7a6a-e94c-4c7b-a4aa-1099a7128c10","ios":"levelo://app?vid=0bce7a6a-e94c-4c7b-a4aa-1099a7128c10"},"vehicle_type_id":"4","last_reported":1736273568,"current_range_meters":19600,"station_id":"ce4bh692rcd13ifvqea0","pricing_plan_id":"cebpf4jnsgd1na2vs0mg"},{"bike_id":"57ce50fa-515e-4bf7-b5be-1c2cb14b05a4","system_id":"levelo_inurba_marseille","lat":43.28621,"lon":5.35113,"is_reserved":false,"is_disabled":false,"rental_uris":{"android":"levelo://app?vid=57ce50fa-515e-4bf7-b5be-1c2cb14b05a4","ios":"levelo://app?vid=57ce50fa-515e-4bf7-b5be-1c2cb14b05a4"},"vehicle_type_id":"4","last_reported":1736273568,"current_range_meters":8400,"station_id":"ce4bhch2rcd13ifvqeug","pricing_plan_id":"cebpf4jnsgd1na2vs0mg"},{"bike_id":"fa78f72f-84d0-4798-a73c-ad231d8a3407","system_id":"levelo_inurba_marseille","lat":43.30807,"lon":5.4352,"is_reserved":false,"is_disabled":false,"rental_uris":{"android":"levelo://app?vid=fa78f72f-84d0-4798-a73c-ad231d8a3407","ios":"levelo://app?vid=fa78f72f-84d0-4798-a73c-ad231d8a3407"},"vehicle_type_id":"4","last_reported":1736273568,"current_range_meters":32000,"station_id":"ce4bhph2rcd13ifvqheg","pricing_plan_id":"cebpf4jnsgd1na2vs0mg"},{"bike_id":"8b7b03a4-76c0-429d-86c4-2cba528f75db","system_id":"levelo_inurba_marseille","lat":43.32369,"lon":5.38877,"is_reserved":false,"is_disabled":true,"rental_uris":{"android":"levelo://app?vid=8b7b03a4-76c0-429d-86c4-2cba528f75db","ios":"levelo://app?vid=8b7b03a4-76c0-429d-86c4-2cba528f75db"},"vehicle_type_id":"4","last_reported":1736273568,"current_range_meters":0,"station_id":"ce4bhqp2rcd13ifvqhog","pricing_plan_id":"cebpf4jnsgd1na2vs0mg"},{"bike_id":"3dcc1c8e-6db9-4000-a7ee-f1b5b658ee7a","system_id":"levelo_inurba_marseille","lat":43.27169,"lon":5.40996,"is_reserved":false,"is_disabled":false,"rental_uris":{"android":"levelo://app?vid=3dcc1c8e-6db9-4000-a7ee-f1b5b658ee7a","ios":"levelo://app?vid=3dcc1c8e-6db9-4000-a7ee-f1b5b658ee7a"},"vehicle_type_id":"4","last_reported":1736273568,"current_range_meters":38800,"station_id":"ce4bhl12rcd13ifvqgf0","pricing_plan_id":"cebpf4jnsgd1na2vs0mg"},{"bike_id":"e1d67e76-e9ef-43a5-b307-2704c03519b0","system_id":"levelo_inurba_marseille","lat":43.28955,"lon":5.39679,"is_reserved":false,"is_disabled":false,"rental_uris":{"android":"levelo://app?vid=e1d67e76-e9ef-43a5-b307-2704c03519b0","ios":"levelo://app?vid=e1d67e76-e9ef-43a5-b307-2704c03519b0"},"vehicle_type_id":"4","last_reported":1736273568,"current_range_meters":22400,"station_id":"ce4bh3h2rcd13ifvqdn0","pricing_plan_id":"cebpf4jnsgd1na2vs0mg"},{"bike_id":"ad34d3c3-f703-46ca-92c3-8e056f95de84","system_id":"levelo_inurba_marseille","lat":43.28459,"lon":5.3589,"is_reserved":false,"is_disabled":false,"rental_uris":{"android":"levelo://app?vid=ad34d3c3-f703-46ca-92c3-8e056f95de84","ios":"levelo://app?vid=ad34d3c3-f703-46ca-92c3-8e056f95de84"},"vehicle_type_id":"4","last_reported":1736273568,"current_range_meters":12800,"station_id":"ce4bhah2rcd13ifvqei0","pricing_plan_id":"cebpf4jnsgd1na2vs0mg"},{"bike_id":"0f2cd1e2-9305-49c2-a840-192d1b810e9e","system_id":"levelo_inurba_marseille","lat":43.27169,"lon":5.39213,"is_reserved":false,"is_disabled":true,"rental_uris":{"android":"levelo://app?vid=0f2cd1e2-9305-49c2-a840-192d1b810e9e","ios":"levelo://app?vid=0f2cd1e2-9305-49c2-a840-192d1b810e9e"},"vehicle_type_id":"4","last_reported":1736273568,"current_range_meters":0,"station_id":"","pricing_plan_id":"cebpf4jnsgd1na2vs0mg"},{"bike_id":"f9af2b24-9bf6-497f-b409-d490cf2de712","system_id":"levelo_inurba_marseille","lat":43.28612,"lon":5.35114,"is_reserved":false,"is_disabled":false,"rental_uris":{"android":"levelo://app?vid=f9af2b24-9bf6-497f-b409-d490cf2de712","ios":"levelo://app?vid=f9af2b24-9bf6-497f-b409-d490cf2de712"},"vehicle_type_id":"4","last_reported":1736273568,"current_range_meters":30800,"station_id":"ce4bhch2rcd13ifvqeug","pricing_plan_id":"cebpf4jnsgd1na2vs0mg"},{"bike_id":"8a4c045a-dd75-4b08-85b8-01a9f1b5d499","system_id":"levelo_inurba_marseille","lat":43.31085,"lon":5.38379,"is_reserved":false,"is_disabled":false,"rental_uris":{"android":"levelo://app?vid=8a4c045a-dd75-4b08-85b8-01a9f1b5d499","ios":"levelo://app?vid=8a4c045a-dd75-4b08-85b8-01a9f1b5d499"},"vehicle_type_id":"4","last_reported":1736273568,"current_range_meters":22000,"station_id":"ce4bgv92rcd13ifvqcr0","pricing_plan_id":"cebpf4jnsgd1na2vs0mg"},{"bike_id":"8e69fd07-fa50-4941-a1e0-41e0e871c852","system_id":"levelo_inurba_marseille","lat":43.28424,"lon":5.3752,"is_reserved":false,"is_disabled":false,"rental_uris":{"android":"levelo://app?vid=8e69fd07-fa50-4941-a1e0-41e0e871c852","ios":"levelo://app?vid=8e69fd07-fa50-4941-a1e0-41e0e871c852"},"vehicle_type_id":"4","last_reported":1736273568,"current_range_meters":4400,"station_id":"ce4bh412rcd13ifvqds0","pricing_plan_id":"cebpf4jnsgd1na2vs0mg"},{"bike_id":"e234c05e-ad7c-4a80-b77e-0f5f2642c720","system_id":"levelo_inurba_marseille","lat":43.28449,"lon":5.35894,"is_reserved":false,"is_disabled":false,"rental_uris":{"android":"levelo://app?vid=e234c05e-ad7c-4a80-b77e-0f5f2642c720","ios":"levelo://app?vid=e234c05e-ad7c-4a80-b77e-0f5f2642c720"},"vehicle_type_id":"4","last_reported":1736273568,"current_range_meters":24000,"station_id":"ce4bhah2rcd13ifvqei0","pricing_plan_id":"cebpf4jnsgd1na2vs0mg"},{"bike_id":"c023aed8-c4af-47de-bf55-7ec6cfb1c879","system_id":"levelo_inurba_marseille","lat":43.26203,"lon":5.37458,"is_reserved":false,"is_disabled":true,"rental_uris":{"android":"levelo://app?vid=c023aed8-c4af-47de-bf55-7ec6cfb1c879","ios":"levelo://app?vid=c023aed8-c4af-47de-bf55-7ec6cfb1c879"},"vehicle_type_id":"4","last_reported":1736273568,"current_range_meters":26800,"station_id":"ce4bhgp2rcd13ifvqfc0","pricing_plan_id":"cebpf4jnsgd1na2vs0mg"},{"bike_id":"85a69695-8910-4e9b-be2e-1c4e4b65a0e7","system_id":"levelo_inurba_marseille","lat":43.24804,"lon":5.3746,"is_reserved":false,"is_disabled":false,"rental_uris":{"android":"levelo://app?vid=85a69695-8910-4e9b-be2e-1c4e4b65a0e7","ios":"levelo://app?vid=85a69695-8910-4e9b-be2e-1c4e4b65a0e7"},"vehicle_type_id":"4","last_reported":1736273568,"current_range_meters":10000,"station_id":"ce4bhg12rcd13ifvqf60","pricing_plan_id":"cebpf4jnsgd1na2vs0mg"},{"bike_id":"f5477bd9-ae2b-4f4a-90d2-43e1d2905a20","system_id":"levelo_inurba_marseille","lat":43.28383,"lon":5.34963,"is_reserved":false,"is_disabled":false,"rental_uris":{"android":"levelo://app?vid=f5477bd9-ae2b-4f4a-90d2-43e1d2905a20","ios":"levelo://app?vid=f5477bd9-ae2b-4f4a-90d2-43e1d2905a20"},"vehicle_type_id":"4","last_reported":1736273568,"current_range_meters":17600,"station_id":"ce4bhbh2rcd13ifvqepg","pricing_plan_id":"cebpf4jnsgd1na2vs0mg"},{"bike_id":"ad036647-e9f4-4246-953d-37ee6601db50","system_id":"levelo_inurba_marseille","lat":43.24663,"lon":5.38169,"is_reserved":false,"is_disabled":false,"rental_uris":{"android":"levelo://app?vid=ad036647-e9f4-4246-953d-37ee6601db50","ios":"levelo://app?vid=ad036647-e9f4-4246-953d-37ee6601db50"},"vehicle_type_id":"4","last_reported":1736273568,"current_range_meters":16000,"station_id":"ce4bhih2rcd13ifvqfr0","pricing_plan_id":"cebpf4jnsgd1na2vs0mg"},{"bike_id":"515fb29a-e725-42c4-b3fe-98f830e3054e","system_id":"levelo_inurba_marseille","lat":43.26568,"lon":5.37296,"is_reserved":false,"is_disabled":false,"rental_uris":{"android":"levelo://app?vid=515fb29a-e725-42c4-b3fe-98f830e3054e","ios":"levelo://app?vid=515fb29a-e725-42c4-b3fe-98f830e3054e"},"vehicle_type_id":"4","last_reported":1736273568,"current_range_meters":28400,"station_id":"ce4bhg12rcd13ifvqf70","pricing_plan_id":"cebpf4jnsgd1na2vs0mg"},{"bike_id":"dfcf855f-5812-4baf-aa89-8e83805791f7","system_id":"levelo_inurba_marseille","lat":43.27554,"lon":5.38414,"is_reserved":false,"is_disabled":false,"rental_uris":{"android":"levelo://app?vid=dfcf855f-5812-4baf-aa89-8e83805791f7","ios":"levelo://app?vid=dfcf855f-5812-4baf-aa89-8e83805791f7"},"vehicle_type_id":"4","last_reported":1736273568,"current_range_meters":22800,"station_id":"ce4bhh92rcd13ifvqfi0","pricing_plan_id":"cebpf4jnsgd1na2vs0mg"},{"bike_id":"4e1d194d-14c2-48f6-af04-ada4bb4abaa8","system_id":"levelo_inurba_marseille","lat":43.31116,"lon":5.37775,"is_reserved":false,"is_disabled":false,"rental_uris":{"android":"levelo://app?vid=4e1d194d-14c2-48f6-af04-ada4bb4abaa8","ios":"levelo://app?vid=4e1d194d-14c2-48f6-af04-ada4bb4abaa8"},"vehicle_type_id":"4","last_reported":1736273568,"current_range_meters":17600,"station_id":"ce4bgt92rcd13ifvqcg0","pricing_plan_id":"cebpf4jnsgd1na2vs0mg"},{"bike_id":"7ed6b1d7-c625-4660-be93-79f682be3518","system_id":"levelo_inurba_marseille","lat":43.29417,"lon":5.38621,"is_reserved":false,"is_disabled":false,"rental_uris":{"android":"levelo://app?vid=7ed6b1d7-c625-4660-be93-79f682be3518","ios":"levelo://app?vid=7ed6b1d7-c625-4660-be93-79f682be3518"},"vehicle_type_id":"4","last_reported":1736273568,"current_range_meters":8800,"station_id":"ce4bh2h2rcd13ifvqdh0","pricing_plan_id":"cebpf4jnsgd1na2vs0mg"},{"bike_id":"9580d200-7f33-49b0-8730-6a4664106576","system_id":"levelo_inurba_marseille","lat":43.29605,"lon":5.3811,"is_reserved":false,"is_disabled":false,"rental_uris":{"android":"levelo://app?vid=9580d200-7f33-49b0-8730-6a4664106576","ios":"levelo://app?vid=9580d200-7f33-49b0-8730-6a4664106576"},"vehicle_type_id":"4","last_reported":1736273568,"current_range_meters":19600,"station_id":"ce4bgl12rcd13ifvqbo0","pricing_plan_id":"cebpf4jnsgd1na2vs0mg"},{"bike_id":"c736efc7-bdd4-4760-a57b-96851815e95f","system_id":"levelo_inurba_marseille","lat":43.265,"lon":5.3955,"is_reserved":false,"is_disabled":true,"rental_uris":{"android":"levelo://app?vid=c736efc7-bdd4-4760-a57b-96851815e95f","ios":"levelo://app?vid=c736efc7-bdd4-4760-a57b-96851815e95f"},"vehicle_type_id":"4","last_reported":1736273568,"current_range_meters":38800,"station_id":"ce4bhi12rcd13ifvqfq0","pricing_plan_id":"cebpf4jnsgd1na2vs0mg"},{"bike_id":"a1ceaab5-cc98-4739-8fba-923512224dcf","system_id":"levelo_inurba_marseille","lat":43.23188,"lon":5.35558,"is_reserved":false,"is_disabled":false,"rental_uris":{"android":"levelo://app?vid=a1ceaab5-cc98-4739-8fba-923512224dcf","ios":"levelo://app?vid=a1ceaab5-cc98-4739-8fba-923512224dcf"},"vehicle_type_id":"4","last_reported":1736273568,"current_range_meters":24800,"station_id":"ce4bhu92rcd13ifvqi70","pricing_plan_id":"cebpf4jnsgd1na2vs0mg"},{"bike_id":"0b612a78-0339-4e70-8c85-f23f8ddd6228","system_id":"levelo_inurba_marseille","lat":43.26804,"lon":5.40269,"is_reserved":false,"is_disabled":false,"rental_uris":{"android":"levelo://app?vid=0b612a78-0339-4e70-8c85-f23f8ddd6228","ios":"levelo://app?vid=0b612a78-0339-4e70-8c85-f23f8ddd6228"},"vehicle_type_id":"4","last_reported":1736273568,"current_range_meters":38000,"station_id":"ce501612rcd8frsf0b60","pricing_plan_id":"cebpf4jnsgd1na2vs0mg"},{"bike_id":"c3b15153-f019-432b-89af-f6657ff93fcd","system_id":"levelo_inurba_marseille","lat":43.30145,"lon":5.39886,"is_reserved":false,"is_disabled":false,"rental_uris":{"android":"levelo://app?vid=c3b15153-f019-432b-89af-f6657ff93fcd","ios":"levelo://app?vid=c3b15153-f019-432b-89af-f6657ff93fcd"},"vehicle_type_id":"4","last_reported":1736273568,"current_range_meters":22800,"station_id":"ce4bh0h2rcd13ifvqd40","pricing_plan_id":"cebpf4jnsgd1na2vs0mg"},{"bike_id":"98e4abe9-268b-4ebe-b8a0-9d17e1060cf4","system_id":"levelo_inurba_marseille","lat":43.321037,"lon":5.367687,"is_reserved":false,"is_disabled":false,"rental_uris":{"android":"levelo://app?vid=98e4abe9-268b-4ebe-b8a0-9d17e1060cf4","ios":"levelo://app?vid=98e4abe9-268b-4ebe-b8a0-9d17e1060cf4"},"vehicle_type_id":"4","last_reported":1736273568,"current_range_meters":36800,"station_id":"ce4bhrh2rcd13ifvqhug","pricing_plan_id":"cebpf4jnsgd1na2vs0mg"},{"bike_id":"a6f55709-2b75-42c4-ac16-58df9ae72a98","system_id":"levelo_inurba_marseille","lat":43.31693,"lon":5.37768,"is_reserved":false,"is_disabled":false,"rental_uris":{"android":"levelo://app?vid=a6f55709-2b75-42c4-ac16-58df9ae72a98","ios":"levelo://app?vid=a6f55709-2b75-42c4-ac16-58df9ae72a98"},"vehicle_type_id":"4","last_reported":1736273568,"current_range_meters":19200,"station_id":"ce4bgth2rcd13ifvqch0","pricing_plan_id":"cebpf4jnsgd1na2vs0mg"},{"bike_id":"0d869571-702b-474e-9734-e51fa36b8db2","system_id":"levelo_inurba_marseille","lat":43.29201,"lon":5.39315,"is_reserved":false,"is_disabled":true,"rental_uris":{"android":"levelo://app?vid=0d869571-702b-474e-9734-e51fa36b8db2","ios":"levelo://app?vid=0d869571-702b-474e-9734-e51fa36b8db2"},"vehicle_type_id":"4","last_reported":1736273568,"current_range_meters":6800,"station_id":"ce4bh192rcd13ifvqdd0","pricing_plan_id":"cebpf4jnsgd1na2vs0mg"},{"bike_id":"a4bd2204-365a-4a7f-b914-f16fbbc10fcb","system_id":"levelo_inurba_marseille","lat":43.29005,"lon":5.35612,"is_reserved":false,"is_disabled":false,"rental_uris":{"android":"levelo://app?vid=a4bd2204-365a-4a7f-b914-f16fbbc10fcb","ios":"levelo://app?vid=a4bd2204-365a-4a7f-b914-f16fbbc10fcb"},"vehicle_type_id":"4","last_reported":1736273568,"current_range_meters":14400,"station_id":"ce4bhb92rcd13ifvqen0","pricing_plan_id":"cebpf4jnsgd1na2vs0mg"},{"bike_id":"bf0c6ad9-c4cf-463b-b1fc-ba54ae0a4483","system_id":"levelo_inurba_marseille","lat":43.2952,"lon":5.39408,"is_reserved":false,"is_disabled":false,"rental_uris":{"android":"levelo://app?vid=bf0c6ad9-c4cf-463b-b1fc-ba54ae0a4483","ios":"levelo://app?vid=bf0c6ad9-c4cf-463b-b1fc-ba54ae0a4483"},"vehicle_type_id":"4","last_reported":1736273568,"current_range_meters":4800,"station_id":"ce4bh292rcd13ifvqdf0","pricing_plan_id":"cebpf4jnsgd1na2vs0mg"},{"bike_id":"7a292a3e-bbd4-4102-bff2-7e918df8c57e","system_id":"levelo_inurba_marseille","lat":43.3089,"lon":5.37202,"is_reserved":false,"is_disabled":false,"rental_uris":{"android":"levelo://app?vid=7a292a3e-bbd4-4102-bff2-7e918df8c57e","ios":"levelo://app?vid=7a292a3e-bbd4-4102-bff2-7e918df8c57e"},"vehicle_type_id":"4","last_reported":1736273568,"current_range_meters":20000,"station_id":"ce4bguh2rcd13ifvqckg","pricing_plan_id":"cebpf4jnsgd1na2vs0mg"},{"bike_id":"cbac9c83-6f47-4597-8c7b-a621040c9482","system_id":"levelo_inurba_marseille","lat":43.26027,"lon":5.37546,"is_reserved":false,"is_disabled":true,"rental_uris":{"android":"levelo://app?vid=cbac9c83-6f47-4597-8c7b-a621040c9482","ios":"levelo://app?vid=cbac9c83-6f47-4597-8c7b-a621040c9482"},"vehicle_type_id":"4","last_reported":1736273568,"current_range_meters":0,"station_id":"ce4bhgh2rcd13ifvqfa0","pricing_plan_id":"cebpf4jnsgd1na2vs0mg"},{"bike_id":"62da1442-a209-4813-8388-00ffae0b2e41","system_id":"levelo_inurba_marseille","lat":43.28937,"lon":5.3963,"is_reserved":false,"is_disabled":false,"rental_uris":{"android":"levelo://app?vid=62da1442-a209-4813-8388-00ffae0b2e41","ios":"levelo://app?vid=62da1442-a209-4813-8388-00ffae0b2e41"},"vehicle_type_id":"4","last_reported":1736273568,"current_range_meters":18000,"station_id":"ce4bh3h2rcd13ifvqdn0","pricing_plan_id":"cebpf4jnsgd1na2vs0mg"},{"bike_id":"6ebaba3b-a1f7-47a9-8a13-a47e91f8a3d0","system_id":"levelo_inurba_marseille","lat":43.26033,"lon":5.37548,"is_reserved":false,"is_disabled":false,"rental_uris":{"android":"levelo://app?vid=6ebaba3b-a1f7-47a9-8a13-a47e91f8a3d0","ios":"levelo://app?vid=6ebaba3b-a1f7-47a9-8a13-a47e91f8a3d0"},"vehicle_type_id":"4","last_reported":1736273568,"current_range_meters":37600,"station_id":"ce4bhgh2rcd13ifvqfa0","pricing_plan_id":"cebpf4jnsgd1na2vs0mg"},{"bike_id":"a12c9b58-a360-49c6-b409-005c735d345e","system_id":"levelo_inurba_marseille","lat":43.29416,"lon":5.38629,"is_reserved":false,"is_disabled":false,"rental_uris":{"android":"levelo://app?vid=a12c9b58-a360-49c6-b409-005c735d345e","ios":"levelo://app?vid=a12c9b58-a360-49c6-b409-005c735d345e"},"vehicle_type_id":"4","last_reported":1736273568,"current_range_meters":30000,"station_id":"ce4bh2h2rcd13ifvqdh0","pricing_plan_id":"cebpf4jnsgd1na2vs0mg"},{"bike_id":"46ae6dad-0290-48f3-ad51-2c45e68adb90","system_id":"levelo_inurba_marseille","lat":43.29522,"lon":5.39413,"is_reserved":false,"is_disabled":false,"rental_uris":{"android":"levelo://app?vid=46ae6dad-0290-48f3-ad51-2c45e68adb90","ios":"levelo://app?vid=46ae6dad-0290-48f3-ad51-2c45e68adb90"},"vehicle_type_id":"4","last_reported":1736273568,"current_range_meters":34800,"station_id":"ce4bh292rcd13ifvqdf0","pricing_plan_id":"cebpf4jnsgd1na2vs0mg"},{"bike_id":"5cf5d467-316b-44fa-8fb8-856da6a44a4c","system_id":"levelo_inurba_marseille","lat":43.24647,"lon":5.37798,"is_reserved":false,"is_disabled":true,"rental_uris":{"android":"levelo://app?vid=5cf5d467-316b-44fa-8fb8-856da6a44a4c","ios":"levelo://app?vid=5cf5d467-316b-44fa-8fb8-856da6a44a4c"},"vehicle_type_id":"4","last_reported":1736273568,"current_range_meters":0,"station_id":"","pricing_plan_id":"cebpf4jnsgd1na2vs0mg"},{"bike_id":"37557093-6491-4690-b370-7a12c47f238b","system_id":"levelo_inurba_marseille","lat":43.27927,"lon":5.41052,"is_reserved":false,"is_disabled":false,"rental_uris":{"android":"levelo://app?vid=37557093-6491-4690-b370-7a12c47f238b","ios":"levelo://app?vid=37557093-6491-4690-b370-7a12c47f238b"},"vehicle_type_id":"4","last_reported":1736273568,"current_range_meters":8400,"station_id":"ce4bhnp2rcd13ifvqh0g","pricing_plan_id":"cebpf4jnsgd1na2vs0mg"},{"bike_id":"4627e9a0-8644-4796-96fd-d3570527e34b","system_id":"levelo_inurba_marseille","lat":43.26807,"lon":5.40274,"is_reserved":false,"is_disabled":false,"rental_uris":{"android":"levelo://app?vid=4627e9a0-8644-4796-96fd-d3570527e34b","ios":"levelo://app?vid=4627e9a0-8644-4796-96fd-d3570527e34b"},"vehicle_type_id":"4","last_reported":1736273568,"current_range_meters":27200,"station_id":"ce501612rcd8frsf0b60","pricing_plan_id":"cebpf4jnsgd1na2vs0mg"},{"bike_id":"a0d42074-b17d-4875-8789-fdd0d713de3a","system_id":"levelo_inurba_marseille","lat":43.29026,"lon":5.38618,"is_reserved":false,"is_disabled":false,"rental_uris":{"android":"levelo://app?vid=a0d42074-b17d-4875-8789-fdd0d713de3a","ios":"levelo://app?vid=a0d42074-b17d-4875-8789-fdd0d713de3a"},"vehicle_type_id":"4","last_reported":1736273568,"current_range_meters":30400,"station_id":"ce4bh4p2rcd13ifvqe0g","pricing_plan_id":"cebpf4jnsgd1na2vs0mg"},{"bike_id":"dc25f179-bf45-445f-8dad-6af233665a93","system_id":"levelo_inurba_marseille","lat":43.327367,"lon":5.413624,"is_reserved":false,"is_disabled":false,"rental_uris":{"android":"levelo://app?vid=dc25f179-bf45-445f-8dad-6af233665a93","ios":"levelo://app?vid=dc25f179-bf45-445f-8dad-6af233665a93"},"vehicle_type_id":"4","last_reported":1736273568,"current_range_meters":38000,"station_id":"ce4bhq12rcd13ifvqhhg","pricing_plan_id":"cebpf4jnsgd1na2vs0mg"},{"bike_id":"4c79f864-3da8-4813-a506-a9595819fe25","system_id":"levelo_inurba_marseille","lat":43.25872,"lon":5.39897,"is_reserved":false,"is_disabled":false,"rental_uris":{"android":"levelo://app?vid=4c79f864-3da8-4813-a506-a9595819fe25","ios":"levelo://app?vid=4c79f864-3da8-4813-a506-a9595819fe25"},"vehicle_type_id":"4","last_reported":1736273568,"current_range_meters":38800,"station_id":"ce4bhl92rcd13ifvqghg","pricing_plan_id":"cebpf4jnsgd1na2vs0mg"},{"bike_id":"840e3f90-17d0-4c94-88a0-c5120c40cdea","system_id":"levelo_inurba_marseille","lat":43.25748,"lon":5.41041,"is_reserved":false,"is_disabled":true,"rental_uris":{"android":"levelo://app?vid=840e3f90-17d0-4c94-88a0-c5120c40cdea","ios":"levelo://app?vid=840e3f90-17d0-4c94-88a0-c5120c40cdea"},"vehicle_type_id":"4","last_reported":1736273568,"current_range_meters":38800,"station_id":"","pricing_plan_id":"cebpf4jnsgd1na2vs0mg"},{"bike_id":"18989a28-842c-4216-9b41-9977ee09c012","system_id":"levelo_inurba_marseille","lat":43.27177,"lon":5.40995,"is_reserved":false,"is_disabled":false,"rental_uris":{"android":"levelo://app?vid=18989a28-842c-4216-9b41-9977ee09c012","ios":"levelo://app?vid=18989a28-842c-4216-9b41-9977ee09c012"},"vehicle_type_id":"4","last_reported":1736273568,"current_range_meters":11200,"station_id":"ce4bhl12rcd13ifvqgf0","pricing_plan_id":"cebpf4jnsgd1na2vs0mg"},{"bike_id":"2f68cdef-bffc-4037-b844-7b9747e6cb93","system_id":"levelo_inurba_marseille","lat":43.244,"lon":5.37038,"is_reserved":false,"is_disabled":false,"rental_uris":{"android":"levelo://app?vid=2f68cdef-bffc-4037-b844-7b9747e6cb93","ios":"levelo://app?vid=2f68cdef-bffc-4037-b844-7b9747e6cb93"},"vehicle_type_id":"4","last_reported":1736273568,"current_range_meters":38000,"station_id":"ce4bhhh2rcd13ifvqfk0","pricing_plan_id":"cebpf4jnsgd1na2vs0mg"},{"bike_id":"90f8216f-fbb9-4598-9bab-eadf2338867f","system_id":"levelo_inurba_marseille","lat":43.23966,"lon":5.36618,"is_reserved":false,"is_disabled":false,"rental_uris":{"android":"levelo://app?vid=90f8216f-fbb9-4598-9bab-eadf2338867f","ios":"levelo://app?vid=90f8216f-fbb9-4598-9bab-eadf2338867f"},"vehicle_type_id":"4","last_reported":1736273568,"current_range_meters":28400,"station_id":"ce4bhi12rcd13ifvqfp0","pricing_plan_id":"cebpf4jnsgd1na2vs0mg"},{"bike_id":"faba2462-b482-454d-9b9e-a4b3b379992b","system_id":"levelo_inurba_marseille","lat":43.24174,"lon":5.39719,"is_reserved":false,"is_disabled":false,"rental_uris":{"android":"levelo://app?vid=faba2462-b482-454d-9b9e-a4b3b379992b","ios":"levelo://app?vid=faba2462-b482-454d-9b9e-a4b3b379992b"},"vehicle_type_id":"4","last_reported":1736273568,"current_range_meters":11200,"station_id":"ce4bhn12rcd13ifvqgpg","pricing_plan_id":"cebpf4jnsgd1na2vs0mg"},{"bike_id":"e17ac5d8-0dad-428c-8e18-f61456c149f3","system_id":"levelo_inurba_marseille","lat":43.28456,"lon":5.35898,"is_reserved":false,"is_disabled":false,"rental_uris":{"android":"levelo://app?vid=e17ac5d8-0dad-428c-8e18-f61456c149f3","ios":"levelo://app?vid=e17ac5d8-0dad-428c-8e18-f61456c149f3"},"vehicle_type_id":"4","last_reported":1736273568,"current_range_meters":20000,"station_id":"ce4bhah2rcd13ifvqei0","pricing_plan_id":"cebpf4jnsgd1na2vs0mg"},{"bike_id":"f315f1f6-15a6-45f1-b66d-ebc071343df0","system_id":"levelo_inurba_marseille","lat":43.2936,"lon":5.37863,"is_reserved":false,"is_disabled":true,"rental_uris":{"android":"levelo://app?vid=f315f1f6-15a6-45f1-b66d-ebc071343df0","ios":"levelo://app?vid=f315f1f6-15a6-45f1-b66d-ebc071343df0"},"vehicle_type_id":"4","last_reported":1736273568,"current_range_meters":36000,"station_id":"ce4bgjh2rcd13ifvqbf0","pricing_plan_id":"cebpf4jnsgd1na2vs0mg"},{"bike_id":"e9fafa5e-362c-4044-9f54-41c4003bb2dc","system_id":"levelo_inurba_marseille","lat":43.28151,"lon":5.42633,"is_reserved":false,"is_disabled":false,"rental_uris":{"android":"levelo://app?vid=e9fafa5e-362c-4044-9f54-41c4003bb2dc","ios":"levelo://app?vid=e9fafa5e-362c-4044-9f54-41c4003bb2dc"},"vehicle_type_id":"4","last_reported":1736273568,"current_range_meters":6800,"station_id":"ce4bhnh2rcd13ifvqgug","pricing_plan_id":"cebpf4jnsgd1na2vs0mg"},{"bike_id":"502b9a2d-7119-4752-a288-d02d6d3527f6","system_id":"levelo_inurba_marseille","lat":43.284669,"lon":5.358822,"is_reserved":false,"is_disabled":false,"rental_uris":{"android":"levelo://app?vid=502b9a2d-7119-4752-a288-d02d6d3527f6","ios":"levelo://app?vid=502b9a2d-7119-4752-a288-d02d6d3527f6"},"vehicle_type_id":"4","last_reported":1736273568,"current_range_meters":28800,"station_id":"ce4bhah2rcd13ifvqei0","pricing_plan_id":"cebpf4jnsgd1na2vs0mg"},{"bike_id":"b3ef1b7d-c402-49b2-811b-db79b84dbe7f","system_id":"levelo_inurba_marseille","lat":43.31787,"lon":5.3758,"is_reserved":false,"is_disabled":false,"rental_uris":{"android":"levelo://app?vid=b3ef1b7d-c402-49b2-811b-db79b84dbe7f","ios":"levelo://app?vid=b3ef1b7d-c402-49b2-811b-db79b84dbe7f"},"vehicle_type_id":"4","last_reported":1736273568,"current_range_meters":20800,"station_id":"ce4bgkh2rcd13ifvqbl0","pricing_plan_id":"cebpf4jnsgd1na2vs0mg"},{"bike_id":"de77c04a-e189-4114-8dcf-0064c4147977","system_id":"levelo_inurba_marseille","lat":43.30411,"lon":5.4127,"is_reserved":false,"is_disabled":false,"rental_uris":{"android":"levelo://app?vid=de77c04a-e189-4114-8dcf-0064c4147977","ios":"levelo://app?vid=de77c04a-e189-4114-8dcf-0064c4147977"},"vehicle_type_id":"4","last_reported":1736273568,"current_range_meters":27600,"station_id":"ce4bhop2rcd13ifvqh8g","pricing_plan_id":"cebpf4jnsgd1na2vs0mg"},{"bike_id":"361efcc1-3361-48ba-b718-180186dd2a4b","system_id":"levelo_inurba_marseille","lat":43.28269,"lon":5.35055,"is_reserved":false,"is_disabled":false,"rental_uris":{"android":"levelo://app?vid=361efcc1-3361-48ba-b718-180186dd2a4b","ios":"levelo://app?vid=361efcc1-3361-48ba-b718-180186dd2a4b"},"vehicle_type_id":"4","last_reported":1736273568,"current_range_meters":21600,"station_id":"ce4bhbp2rcd13ifvqerg","pricing_plan_id":"cebpf4jnsgd1na2vs0mg"},{"bike_id":"570e232f-3d13-46ef-a056-25a31c330777","system_id":"levelo_inurba_marseille","lat":43.26217,"lon":5.37432,"is_reserved":false,"is_disabled":false,"rental_uris":{"android":"levelo://app?vid=570e232f-3d13-46ef-a056-25a31c330777","ios":"levelo://app?vid=570e232f-3d13-46ef-a056-25a31c330777"},"vehicle_type_id":"4","last_reported":1736273568,"current_range_meters":37600,"station_id":"ce4bhgp2rcd13ifvqfc0","pricing_plan_id":"cebpf4jnsgd1na2vs0mg"},{"bike_id":"bc86f23c-4371-4721-b514-43c753cee659","system_id":"levelo_inurba_marseille","lat":43.27998,"lon":5.40014,"is_reserved":false,"is_disabled":false,"rental_uris":{"android":"levelo://app?vid=bc86f23c-4371-4721-b514-43c753cee659","ios":"levelo://app?vid=bc86f23c-4371-4721-b514-43c753cee659"},"vehicle_type_id":"4","last_reported":1736273568,"current_range_meters":38000,"station_id":"ce4bho92rcd13ifvqh4g","pricing_plan_id":"cebpf4jnsgd1na2vs0mg"},{"bike_id":"ccefbdf4-df27-4947-9b01-eba3707af800","system_id":"levelo_inurba_marseille","lat":43.29542,"lon":5.38551,"is_reserved":false,"is_disabled":true,"rental_uris":{"android":"levelo://app?vid=ccefbdf4-df27-4947-9b01-eba3707af800","ios":"levelo://app?vid=ccefbdf4-df27-4947-9b01-eba3707af800"},"vehicle_type_id":"4","last_reported":1736273568,"current_range_meters":19200,"station_id":"ce4bgih2rcd13ifvqba0","pricing_plan_id":"cebpf4jnsgd1na2vs0mg"},{"bike_id":"ea60edce-76ab-4155-8e79-99022a30bcac","system_id":"levelo_inurba_marseille","lat":43.29552,"lon":5.42296,"is_reserved":false,"is_disabled":false,"rental_uris":{"android":"levelo://app?vid=ea60edce-76ab-4155-8e79-99022a30bcac","ios":"levelo://app?vid=ea60edce-76ab-4155-8e79-99022a30bcac"},"vehicle_type_id":"4","last_reported":1736273568,"current_range_meters":12400,"station_id":"ce4bhph2rcd13ifvqhdg","pricing_plan_id":"cebpf4jnsgd1na2vs0mg"},{"bike_id":"86fa72a5-2313-403c-a014-68810a328526","system_id":"levelo_inurba_marseille","lat":43.30234,"lon":5.39477,"is_reserved":false,"is_disabled":false,"rental_uris":{"android":"levelo://app?vid=86fa72a5-2313-403c-a014-68810a328526","ios":"levelo://app?vid=86fa72a5-2313-403c-a014-68810a328526"},"vehicle_type_id":"4","last_reported":1736273568,"current_range_meters":12800,"station_id":"ce4bh0p2rcd13ifvqd70","pricing_plan_id":"cebpf4jnsgd1na2vs0mg"},{"bike_id":"e4b8137b-17e4-4a1a-ba81-8a6fc936fb80","system_id":"levelo_inurba_marseille","lat":43.26498,"lon":5.39538,"is_reserved":false,"is_disabled":false,"rental_uris":{"android":"levelo://app?vid=e4b8137b-17e4-4a1a-ba81-8a6fc936fb80","ios":"levelo://app?vid=e4b8137b-17e4-4a1a-ba81-8a6fc936fb80"},"vehicle_type_id":"4","last_reported":1736273568,"current_range_meters":4800,"station_id":"ce4bhi12rcd13ifvqfq0","pricing_plan_id":"cebpf4jnsgd1na2vs0mg"},{"bike_id":"2caa7ff0-56a0-4a66-805c-847ccd11c31b","system_id":"levelo_inurba_marseille","lat":43.31317,"lon":5.39695,"is_reserved":false,"is_disabled":false,"rental_uris":{"android":"levelo://app?vid=2caa7ff0-56a0-4a66-805c-847ccd11c31b","ios":"levelo://app?vid=2caa7ff0-56a0-4a66-805c-847ccd11c31b"},"vehicle_type_id":"4","last_reported":1736273568,"current_range_meters":38800,"station_id":"ce4bgvp2rcd13ifvqcu0","pricing_plan_id":"cebpf4jnsgd1na2vs0mg"},{"bike_id":"9c26e84f-465f-480d-b29f-3363b7d2a874","system_id":"levelo_inurba_marseille","lat":43.30781,"lon":5.3766,"is_reserved":false,"is_disabled":false,"rental_uris":{"android":"levelo://app?vid=9c26e84f-465f-480d-b29f-3363b7d2a874","ios":"levelo://app?vid=9c26e84f-465f-480d-b29f-3363b7d2a874"},"vehicle_type_id":"4","last_reported":1736273568,"current_range_meters":15200,"station_id":"ce4bgv92rcd13ifvqcq0","pricing_plan_id":"cebpf4jnsgd1na2vs0mg"},{"bike_id":"637c9e25-6ec5-4d5c-9ec9-ed6c73dcb821","system_id":"levelo_inurba_marseille","lat":43.31686,"lon":5.37763,"is_reserved":false,"is_disabled":false,"rental_uris":{"android":"levelo://app?vid=637c9e25-6ec5-4d5c-9ec9-ed6c73dcb821","ios":"levelo://app?vid=637c9e25-6ec5-4d5c-9ec9-ed6c73dcb821"},"vehicle_type_id":"4","last_reported":1736273568,"current_range_meters":34800,"station_id":"ce4bgth2rcd13ifvqch0","pricing_plan_id":"cebpf4jnsgd1na2vs0mg"},{"bike_id":"348e1602-1bb0-4b51-9ba3-012118339c74","system_id":"levelo_inurba_marseille","lat":43.27165,"lon":5.41008,"is_reserved":false,"is_disabled":false,"rental_uris":{"android":"levelo://app?vid=348e1602-1bb0-4b51-9ba3-012118339c74","ios":"levelo://app?vid=348e1602-1bb0-4b51-9ba3-012118339c74"},"vehicle_type_id":"4","last_reported":1736273568,"current_range_meters":36000,"station_id":"ce4bhl12rcd13ifvqgf0","pricing_plan_id":"cebpf4jnsgd1na2vs0mg"},{"bike_id":"b02fab9b-85e2-4691-a949-9c3558950865","system_id":"levelo_inurba_marseille","lat":43.31332,"lon":5.39682,"is_reserved":false,"is_disabled":false,"rental_uris":{"android":"levelo://app?vid=b02fab9b-85e2-4691-a949-9c3558950865","ios":"levelo://app?vid=b02fab9b-85e2-4691-a949-9c3558950865"},"vehicle_type_id":"4","last_reported":1736273568,"current_range_meters":38400,"station_id":"ce4bgvp2rcd13ifvqcu0","pricing_plan_id":"cebpf4jnsgd1na2vs0mg"},{"bike_id":"5671a7cc-1094-4b46-906d-b97f733ad9e2","system_id":"levelo_inurba_marseille","lat":43.30324,"lon":5.40436,"is_reserved":false,"is_disabled":true,"rental_uris":{"android":"levelo://app?vid=5671a7cc-1094-4b46-906d-b97f733ad9e2","ios":"levelo://app?vid=5671a7cc-1094-4b46-906d-b97f733ad9e2"},"vehicle_type_id":"4","last_reported":1736273568,"current_range_meters":36400,"station_id":"ce4bh012rcd13ifvqd10","pricing_plan_id":"cebpf4jnsgd1na2vs0mg"},{"bike_id":"3c2251b6-c2a4-4848-ad0b-52a9ae8b7697","system_id":"levelo_inurba_marseille","lat":43.32334,"lon":5.40607,"is_reserved":false,"is_disabled":false,"rental_uris":{"android":"levelo://app?vid=3c2251b6-c2a4-4848-ad0b-52a9ae8b7697","ios":"levelo://app?vid=3c2251b6-c2a4-4848-ad0b-52a9ae8b7697"},"vehicle_type_id":"4","last_reported":1736273568,"current_range_meters":33600,"station_id":"ce4bhq92rcd13ifvqhjg","pricing_plan_id":"cebpf4jnsgd1na2vs0mg"},{"bike_id":"005c2044-0c78-410b-b1cd-e1e9feaa0e05","system_id":"levelo_inurba_marseille","lat":43.23976,"lon":5.36616,"is_reserved":false,"is_disabled":false,"rental_uris":{"android":"levelo://app?vid=005c2044-0c78-410b-b1cd-e1e9feaa0e05","ios":"levelo://app?vid=005c2044-0c78-410b-b1cd-e1e9feaa0e05"},"vehicle_type_id":"4","last_reported":1736273568,"current_range_meters":17200,"station_id":"ce4bhi12rcd13ifvqfp0","pricing_plan_id":"cebpf4jnsgd1na2vs0mg"},{"bike_id":"b0f664cb-2757-4491-bb9b-7e3c8155ca32","system_id":"levelo_inurba_marseille","lat":43.26503,"lon":5.39555,"is_reserved":false,"is_disabled":true,"rental_uris":{"android":"levelo://app?vid=b0f664cb-2757-4491-bb9b-7e3c8155ca32","ios":"levelo://app?vid=b0f664cb-2757-4491-bb9b-7e3c8155ca32"},"vehicle_type_id":"4","last_reported":1736273568,"current_range_meters":2000,"station_id":"ce4bhi12rcd13ifvqfq0","pricing_plan_id":"cebpf4jnsgd1na2vs0mg"},{"bike_id":"f978b948-6b87-4400-9603-341a57575ca1","system_id":"levelo_inurba_marseille","lat":43.298733,"lon":5.39734,"is_reserved":false,"is_disabled":false,"rental_uris":{"android":"levelo://app?vid=f978b948-6b87-4400-9603-341a57575ca1","ios":"levelo://app?vid=f978b948-6b87-4400-9603-341a57575ca1"},"vehicle_type_id":"4","last_reported":1736273568,"current_range_meters":38800,"station_id":"ce4bh0h2rcd13ifvqd50","pricing_plan_id":"cebpf4jnsgd1na2vs0mg"},{"bike_id":"94ae9d8d-339e-41f5-bf14-1e9df4322647","system_id":"levelo_inurba_marseille","lat":43.27495,"lon":5.42446,"is_reserved":false,"is_disabled":true,"rental_uris":{"android":"levelo://app?vid=94ae9d8d-339e-41f5-bf14-1e9df4322647","ios":"levelo://app?vid=94ae9d8d-339e-41f5-bf14-1e9df4322647"},"vehicle_type_id":"4","last_reported":1736273568,"current_range_meters":35600,"station_id":"ce4bhn92rcd13ifvqgrg","pricing_plan_id":"cebpf4jnsgd1na2vs0mg"},{"bike_id":"6a595de3-0911-46a9-bdbf-4cca5437105e","system_id":"levelo_inurba_marseille","lat":43.232066,"lon":5.355507,"is_reserved":false,"is_disabled":false,"rental_uris":{"android":"levelo://app?vid=6a595de3-0911-46a9-bdbf-4cca5437105e","ios":"levelo://app?vid=6a595de3-0911-46a9-bdbf-4cca5437105e"},"vehicle_type_id":"4","last_reported":1736273568,"current_range_meters":15200,"station_id":"ce4bhu92rcd13ifvqi70","pricing_plan_id":"cebpf4jnsgd1na2vs0mg"},{"bike_id":"641d8acc-50b2-4173-ab23-c70f2a11d28e","system_id":"levelo_inurba_marseille","lat":43.28158,"lon":5.42633,"is_reserved":false,"is_disabled":true,"rental_uris":{"android":"levelo://app?vid=641d8acc-50b2-4173-ab23-c70f2a11d28e","ios":"levelo://app?vid=641d8acc-50b2-4173-ab23-c70f2a11d28e"},"vehicle_type_id":"4","last_reported":1736273568,"current_range_meters":23200,"station_id":"ce4bhnh2rcd13ifvqgug","pricing_plan_id":"cebpf4jnsgd1na2vs0mg"},{"bike_id":"71070e26-a9d7-4eae-99da-f42f1907a4db","system_id":"levelo_inurba_marseille","lat":43.27561,"lon":5.38417,"is_reserved":false,"is_disabled":false,"rental_uris":{"android":"levelo://app?vid=71070e26-a9d7-4eae-99da-f42f1907a4db","ios":"levelo://app?vid=71070e26-a9d7-4eae-99da-f42f1907a4db"},"vehicle_type_id":"4","last_reported":1736273568,"current_range_meters":16400,"station_id":"ce4bhh92rcd13ifvqfi0","pricing_plan_id":"cebpf4jnsgd1na2vs0mg"},{"bike_id":"15e503f5-1d52-42d6-a98f-33a61fd8b554","system_id":"levelo_inurba_marseille","lat":43.28451,"lon":5.35908,"is_reserved":false,"is_disabled":true,"rental_uris":{"android":"levelo://app?vid=15e503f5-1d52-42d6-a98f-33a61fd8b554","ios":"levelo://app?vid=15e503f5-1d52-42d6-a98f-33a61fd8b554"},"vehicle_type_id":"4","last_reported":1736273568,"current_range_meters":15200,"station_id":"ce4bhah2rcd13ifvqei0","pricing_plan_id":"cebpf4jnsgd1na2vs0mg"},{"bike_id":"906ba4c5-6d28-4c00-a902-e1e32b51eb2d","system_id":"levelo_inurba_marseille","lat":43.3136,"lon":5.38492,"is_reserved":false,"is_disabled":false,"rental_uris":{"android":"levelo://app?vid=906ba4c5-6d28-4c00-a902-e1e32b51eb2d","ios":"levelo://app?vid=906ba4c5-6d28-4c00-a902-e1e32b51eb2d"},"vehicle_type_id":"4","last_reported":1736273568,"current_range_meters":11200,"station_id":"ce4bgt92rcd13ifvqcf0","pricing_plan_id":"cebpf4jnsgd1na2vs0mg"},{"bike_id":"71406c49-3cb5-4b46-a10a-964ddf1ffa7b","system_id":"levelo_inurba_marseille","lat":43.26792,"lon":5.39416,"is_reserved":false,"is_disabled":false,"rental_uris":{"android":"levelo://app?vid=71406c49-3cb5-4b46-a10a-964ddf1ffa7b","ios":"levelo://app?vid=71406c49-3cb5-4b46-a10a-964ddf1ffa7b"},"vehicle_type_id":"4","last_reported":1736273568,"current_range_meters":14400,"station_id":"ce4bhh12rcd13ifvqfg0","pricing_plan_id":"cebpf4jnsgd1na2vs0mg"},{"bike_id":"44ab28fa-0b3d-469d-97ff-06319e1159ef","system_id":"levelo_inurba_marseille","lat":43.2397,"lon":5.36633,"is_reserved":false,"is_disabled":false,"rental_uris":{"android":"levelo://app?vid=44ab28fa-0b3d-469d-97ff-06319e1159ef","ios":"levelo://app?vid=44ab28fa-0b3d-469d-97ff-06319e1159ef"},"vehicle_type_id":"4","last_reported":1736273568,"current_range_meters":18000,"station_id":"ce4bhi12rcd13ifvqfp0","pricing_plan_id":"cebpf4jnsgd1na2vs0mg"},{"bike_id":"e19ad727-da2c-46eb-ac93-1c81937e8468","system_id":"levelo_inurba_marseille","lat":43.27578,"lon":5.38446,"is_reserved":false,"is_disabled":false,"rental_uris":{"android":"levelo://app?vid=e19ad727-da2c-46eb-ac93-1c81937e8468","ios":"levelo://app?vid=e19ad727-da2c-46eb-ac93-1c81937e8468"},"vehicle_type_id":"4","last_reported":1736273568,"current_range_meters":38800,"station_id":"ce4bhh92rcd13ifvqfi0","pricing_plan_id":"cebpf4jnsgd1na2vs0mg"},{"bike_id":"60a5e792-6bdb-492a-a581-132c1000285c","system_id":"levelo_inurba_marseille","lat":43.29876,"lon":5.39736,"is_reserved":false,"is_disabled":false,"rental_uris":{"android":"levelo://app?vid=60a5e792-6bdb-492a-a581-132c1000285c","ios":"levelo://app?vid=60a5e792-6bdb-492a-a581-132c1000285c"},"vehicle_type_id":"4","last_reported":1736273568,"current_range_meters":8000,"station_id":"ce4bh0h2rcd13ifvqd50","pricing_plan_id":"cebpf4jnsgd1na2vs0mg"},{"bike_id":"21979858-6bd4-4623-93e3-10a15afddce5","system_id":"levelo_inurba_marseille","lat":43.292991,"lon":5.374633,"is_reserved":false,"is_disabled":true,"rental_uris":{"android":"levelo://app?vid=21979858-6bd4-4623-93e3-10a15afddce5","ios":"levelo://app?vid=21979858-6bd4-4623-93e3-10a15afddce5"},"vehicle_type_id":"4","last_reported":1736273568,"current_range_meters":35200,"station_id":"ce4bh5p2rcd13ifvqe4g","pricing_plan_id":"cebpf4jnsgd1na2vs0mg"},{"bike_id":"6d88bbf0-f428-4bd4-ab8a-2ee8d5e7c74e","system_id":"levelo_inurba_marseille","lat":43.23073,"lon":5.35487,"is_reserved":false,"is_disabled":false,"rental_uris":{"android":"levelo://app?vid=6d88bbf0-f428-4bd4-ab8a-2ee8d5e7c74e","ios":"levelo://app?vid=6d88bbf0-f428-4bd4-ab8a-2ee8d5e7c74e"},"vehicle_type_id":"4","last_reported":1736273568,"current_range_meters":37600,"station_id":"cpo3342slgdg3j2ifvpg","pricing_plan_id":"cebpf4jnsgd1na2vs0mg"},{"bike_id":"445226ef-d9e2-4d6e-b8c0-ee6f6e2dae36","system_id":"levelo_inurba_marseille","lat":43.29909,"lon":5.38153,"is_reserved":false,"is_disabled":false,"rental_uris":{"android":"levelo://app?vid=445226ef-d9e2-4d6e-b8c0-ee6f6e2dae36","ios":"levelo://app?vid=445226ef-d9e2-4d6e-b8c0-ee6f6e2dae36"},"vehicle_type_id":"4","last_reported":1736273568,"current_range_meters":14400,"station_id":"ce4bgj12rcd13ifvqbc0","pricing_plan_id":"cebpf4jnsgd1na2vs0mg"},{"bike_id":"fc28be46-23fe-4f09-821c-8a3bd21ca77c","system_id":"levelo_inurba_marseille","lat":43.25578,"lon":5.382347,"is_reserved":false,"is_disabled":false,"rental_uris":{"android":"levelo://app?vid=fc28be46-23fe-4f09-821c-8a3bd21ca77c","ios":"levelo://app?vid=fc28be46-23fe-4f09-821c-8a3bd21ca77c"},"vehicle_type_id":"4","last_reported":1736273568,"current_range_meters":38800,"station_id":"ce4bhih2rcd13ifvqfs0","pricing_plan_id":"cebpf4jnsgd1na2vs0mg"},{"bike_id":"7c9f63c8-242e-490b-8b7f-20e97721a8e4","system_id":"levelo_inurba_marseille","lat":43.26567,"lon":5.3901,"is_reserved":false,"is_disabled":false,"rental_uris":{"android":"levelo://app?vid=7c9f63c8-242e-490b-8b7f-20e97721a8e4","ios":"levelo://app?vid=7c9f63c8-242e-490b-8b7f-20e97721a8e4"},"vehicle_type_id":"4","last_reported":1736273568,"current_range_meters":33200,"station_id":"ce4bhe12rcd13ifvqf30","pricing_plan_id":"cebpf4jnsgd1na2vs0mg"},{"bike_id":"deb36ac4-7454-4248-a70d-1d87c937e94b","system_id":"levelo_inurba_marseille","lat":43.30878,"lon":5.39647,"is_reserved":false,"is_disabled":false,"rental_uris":{"android":"levelo://app?vid=deb36ac4-7454-4248-a70d-1d87c937e94b","ios":"levelo://app?vid=deb36ac4-7454-4248-a70d-1d87c937e94b"},"vehicle_type_id":"4","last_reported":1736273568,"current_range_meters":38400,"station_id":"ce4bh012rcd13ifvqcv0","pricing_plan_id":"cebpf4jnsgd1na2vs0mg"},{"bike_id":"74e3bbd3-099b-4ac7-89e3-a716c37edf5a","system_id":"levelo_inurba_marseille","lat":43.28453,"lon":5.35884,"is_reserved":false,"is_disabled":false,"rental_uris":{"android":"levelo://app?vid=74e3bbd3-099b-4ac7-89e3-a716c37edf5a","ios":"levelo://app?vid=74e3bbd3-099b-4ac7-89e3-a716c37edf5a"},"vehicle_type_id":"4","last_reported":1736273568,"current_range_meters":20000,"station_id":"ce4bhah2rcd13ifvqei0","pricing_plan_id":"cebpf4jnsgd1na2vs0mg"},{"bike_id":"f7b1b18b-fa25-4ae8-bfcd-3211de8388bf","system_id":"levelo_inurba_marseille","lat":43.29272,"lon":5.40135,"is_reserved":false,"is_disabled":false,"rental_uris":{"android":"levelo://app?vid=f7b1b18b-fa25-4ae8-bfcd-3211de8388bf","ios":"levelo://app?vid=f7b1b18b-fa25-4ae8-bfcd-3211de8388bf"},"vehicle_type_id":"4","last_reported":1736273568,"current_range_meters":25200,"station_id":"ce4bh312rcd13ifvqdk0","pricing_plan_id":"cebpf4jnsgd1na2vs0mg"},{"bike_id":"bce7eb3c-fcc5-4102-a74e-d0167d307166","system_id":"levelo_inurba_marseille","lat":43.3014,"lon":5.39871,"is_reserved":false,"is_disabled":false,"rental_uris":{"android":"levelo://app?vid=bce7eb3c-fcc5-4102-a74e-d0167d307166","ios":"levelo://app?vid=bce7eb3c-fcc5-4102-a74e-d0167d307166"},"vehicle_type_id":"4","last_reported":1736273568,"current_range_meters":12800,"station_id":"ce4bh0h2rcd13ifvqd40","pricing_plan_id":"cebpf4jnsgd1na2vs0mg"},{"bike_id":"f41e5a84-60d4-4405-a079-ae68e2ca0368","system_id":"levelo_inurba_marseille","lat":43.29524,"lon":5.39039,"is_reserved":false,"is_disabled":true,"rental_uris":{"android":"levelo://app?vid=f41e5a84-60d4-4405-a079-ae68e2ca0368","ios":"levelo://app?vid=f41e5a84-60d4-4405-a079-ae68e2ca0368"},"vehicle_type_id":"4","last_reported":1736273568,"current_range_meters":0,"station_id":"ce4bh3p2rcd13ifvqdp0","pricing_plan_id":"cebpf4jnsgd1na2vs0mg"},{"bike_id":"d0f7f7c9-5d11-43e5-ac3d-598fa4404ec8","system_id":"levelo_inurba_marseille","lat":43.23193,"lon":5.3998,"is_reserved":false,"is_disabled":false,"rental_uris":{"android":"levelo://app?vid=d0f7f7c9-5d11-43e5-ac3d-598fa4404ec8","ios":"levelo://app?vid=d0f7f7c9-5d11-43e5-ac3d-598fa4404ec8"},"vehicle_type_id":"4","last_reported":1736273568,"current_range_meters":22000,"station_id":"ce4bhn12rcd13ifvqgqg","pricing_plan_id":"cebpf4jnsgd1na2vs0mg"},{"bike_id":"22aff5ba-aa9a-4941-a8d3-4d2161121597","system_id":"levelo_inurba_marseille","lat":43.29265,"lon":5.38449,"is_reserved":false,"is_disabled":false,"rental_uris":{"android":"levelo://app?vid=22aff5ba-aa9a-4941-a8d3-4d2161121597","ios":"levelo://app?vid=22aff5ba-aa9a-4941-a8d3-4d2161121597"},"vehicle_type_id":"4","last_reported":1736273568,"current_range_meters":36000,"station_id":"ce4bh692rcd13ifvqea0","pricing_plan_id":"cebpf4jnsgd1na2vs0mg"},{"bike_id":"7cb6f5cc-452f-419e-9da1-f27fcae37391","system_id":"levelo_inurba_marseille","lat":43.28667,"lon":5.36337,"is_reserved":false,"is_disabled":false,"rental_uris":{"android":"levelo://app?vid=7cb6f5cc-452f-419e-9da1-f27fcae37391","ios":"levelo://app?vid=7cb6f5cc-452f-419e-9da1-f27fcae37391"},"vehicle_type_id":"4","last_reported":1736273568,"current_range_meters":4400,"station_id":"ce4bhah2rcd13ifvqej0","pricing_plan_id":"cebpf4jnsgd1na2vs0mg"},{"bike_id":"c1786205-12e0-4649-9e01-2a0dc8ff4685","system_id":"levelo_inurba_marseille","lat":43.30895,"lon":5.37205,"is_reserved":false,"is_disabled":false,"rental_uris":{"android":"levelo://app?vid=c1786205-12e0-4649-9e01-2a0dc8ff4685","ios":"levelo://app?vid=c1786205-12e0-4649-9e01-2a0dc8ff4685"},"vehicle_type_id":"4","last_reported":1736273568,"current_range_meters":18000,"station_id":"ce4bguh2rcd13ifvqckg","pricing_plan_id":"cebpf4jnsgd1na2vs0mg"},{"bike_id":"257c7a47-4074-4a91-b13c-b76f6fa570cc","system_id":"levelo_inurba_marseille","lat":43.2559,"lon":5.38233,"is_reserved":false,"is_disabled":false,"rental_uris":{"android":"levelo://app?vid=257c7a47-4074-4a91-b13c-b76f6fa570cc","ios":"levelo://app?vid=257c7a47-4074-4a91-b13c-b76f6fa570cc"},"vehicle_type_id":"4","last_reported":1736273568,"current_range_meters":30400,"station_id":"ce4bhih2rcd13ifvqfs0","pricing_plan_id":"cebpf4jnsgd1na2vs0mg"},{"bike_id":"cdfea266-e5fd-4018-a292-1ba3701f72dd","system_id":"levelo_inurba_marseille","lat":43.25508,"lon":5.37645,"is_reserved":false,"is_disabled":false,"rental_uris":{"android":"levelo://app?vid=cdfea266-e5fd-4018-a292-1ba3701f72dd","ios":"levelo://app?vid=cdfea266-e5fd-4018-a292-1ba3701f72dd"},"vehicle_type_id":"4","last_reported":1736273568,"current_range_meters":30800,"station_id":"ce4bhh12rcd13ifvqff0","pricing_plan_id":"cebpf4jnsgd1na2vs0mg"},{"bike_id":"67d1058b-5c38-4a0a-aa24-783a66cd9fd3","system_id":"levelo_inurba_marseille","lat":43.30412,"lon":5.41295,"is_reserved":false,"is_disabled":false,"rental_uris":{"android":"levelo://app?vid=67d1058b-5c38-4a0a-aa24-783a66cd9fd3","ios":"levelo://app?vid=67d1058b-5c38-4a0a-aa24-783a66cd9fd3"},"vehicle_type_id":"4","last_reported":1736273568,"current_range_meters":38000,"station_id":"ce4bhop2rcd13ifvqh8g","pricing_plan_id":"cebpf4jnsgd1na2vs0mg"},{"bike_id":"d17d631b-7434-4c3f-a667-cb43ae2fd84f","system_id":"levelo_inurba_marseille","lat":43.28837,"lon":5.35864,"is_reserved":false,"is_disabled":false,"rental_uris":{"android":"levelo://app?vid=d17d631b-7434-4c3f-a667-cb43ae2fd84f","ios":"levelo://app?vid=d17d631b-7434-4c3f-a667-cb43ae2fd84f"},"vehicle_type_id":"4","last_reported":1736273568,"current_range_meters":17600,"station_id":"ce4bhb12rcd13ifvqem0","pricing_plan_id":"cebpf4jnsgd1na2vs0mg"},{"bike_id":"cf55238d-3e2d-485d-8238-c5609593f49b","system_id":"levelo_inurba_marseille","lat":43.26684,"lon":5.38279,"is_reserved":false,"is_disabled":true,"rental_uris":{"android":"levelo://app?vid=cf55238d-3e2d-485d-8238-c5609593f49b","ios":"levelo://app?vid=cf55238d-3e2d-485d-8238-c5609593f49b"},"vehicle_type_id":"4","last_reported":1736273568,"current_range_meters":25600,"station_id":"ce4bhg92rcd13ifvqf90","pricing_plan_id":"cebpf4jnsgd1na2vs0mg"},{"bike_id":"3c96135c-be1c-48d4-af35-f77f88dd5989","system_id":"levelo_inurba_marseille","lat":43.29227,"lon":5.36047,"is_reserved":false,"is_disabled":true,"rental_uris":{"android":"levelo://app?vid=3c96135c-be1c-48d4-af35-f77f88dd5989","ios":"levelo://app?vid=3c96135c-be1c-48d4-af35-f77f88dd5989"},"vehicle_type_id":"4","last_reported":1736273568,"current_range_meters":29600,"station_id":"ce4bhbh2rcd13ifvqeqg","pricing_plan_id":"cebpf4jnsgd1na2vs0mg"},{"bike_id":"24256d41-739b-49e3-a206-1fcb5aadc92c","system_id":"levelo_inurba_marseille","lat":43.29264,"lon":5.38444,"is_reserved":false,"is_disabled":false,"rental_uris":{"android":"levelo://app?vid=24256d41-739b-49e3-a206-1fcb5aadc92c","ios":"levelo://app?vid=24256d41-739b-49e3-a206-1fcb5aadc92c"},"vehicle_type_id":"4","last_reported":1736273568,"current_range_meters":27200,"station_id":"ce4bh692rcd13ifvqea0","pricing_plan_id":"cebpf4jnsgd1na2vs0mg"},{"bike_id":"3ff9c962-f631-46df-af66-f752d02df5d5","system_id":"levelo_inurba_marseille","lat":43.30428,"lon":5.39749,"is_reserved":false,"is_disabled":false,"rental_uris":{"android":"levelo://app?vid=3ff9c962-f631-46df-af66-f752d02df5d5","ios":"levelo://app?vid=3ff9c962-f631-46df-af66-f752d02df5d5"},"vehicle_type_id":"4","last_reported":1736273568,"current_range_meters":4400,"station_id":"ce4bh092rcd13ifvqd20","pricing_plan_id":"cebpf4jnsgd1na2vs0mg"},{"bike_id":"c9613bbc-0c62-4088-9120-7dbf078aec3b","system_id":"levelo_inurba_marseille","lat":43.30923,"lon":5.40144,"is_reserved":false,"is_disabled":false,"rental_uris":{"android":"levelo://app?vid=c9613bbc-0c62-4088-9120-7dbf078aec3b","ios":"levelo://app?vid=c9613bbc-0c62-4088-9120-7dbf078aec3b"},"vehicle_type_id":"4","last_reported":1736273568,"current_range_meters":38800,"station_id":"ce4bgvp2rcd13ifvqct0","pricing_plan_id":"cebpf4jnsgd1na2vs0mg"},{"bike_id":"3b09c87e-cbc2-4176-bc1b-1b93a39221ad","system_id":"levelo_inurba_marseille","lat":43.33034,"lon":5.3903,"is_reserved":false,"is_disabled":false,"rental_uris":{"android":"levelo://app?vid=3b09c87e-cbc2-4176-bc1b-1b93a39221ad","ios":"levelo://app?vid=3b09c87e-cbc2-4176-bc1b-1b93a39221ad"},"vehicle_type_id":"4","last_reported":1736273568,"current_range_meters":36400,"station_id":"ce4bhr92rcd13ifvqhrg","pricing_plan_id":"cebpf4jnsgd1na2vs0mg"},{"bike_id":"fcd2c318-5c55-45fd-b389-48b39f003420","system_id":"levelo_inurba_marseille","lat":43.29525,"lon":5.38537,"is_reserved":false,"is_disabled":false,"rental_uris":{"android":"levelo://app?vid=fcd2c318-5c55-45fd-b389-48b39f003420","ios":"levelo://app?vid=fcd2c318-5c55-45fd-b389-48b39f003420"},"vehicle_type_id":"4","last_reported":1736273568,"current_range_meters":28800,"station_id":"ce4bgih2rcd13ifvqba0","pricing_plan_id":"cebpf4jnsgd1na2vs0mg"},{"bike_id":"d7a97757-eae4-460f-ac25-5fa6874f0302","system_id":"levelo_inurba_marseille","lat":43.29479,"lon":5.39728,"is_reserved":false,"is_disabled":false,"rental_uris":{"android":"levelo://app?vid=d7a97757-eae4-460f-ac25-5fa6874f0302","ios":"levelo://app?vid=d7a97757-eae4-460f-ac25-5fa6874f0302"},"vehicle_type_id":"4","last_reported":1736273568,"current_range_meters":22000,"station_id":"ce4bh3h2rcd13ifvqdo0","pricing_plan_id":"cebpf4jnsgd1na2vs0mg"},{"bike_id":"12195799-3bdd-4f45-bf33-c82043eac899","system_id":"levelo_inurba_marseille","lat":43.32035,"lon":5.40897,"is_reserved":false,"is_disabled":false,"rental_uris":{"android":"levelo://app?vid=12195799-3bdd-4f45-bf33-c82043eac899","ios":"levelo://app?vid=12195799-3bdd-4f45-bf33-c82043eac899"},"vehicle_type_id":"4","last_reported":1736273568,"current_range_meters":14000,"station_id":"ce4bhq12rcd13ifvqhig","pricing_plan_id":"cebpf4jnsgd1na2vs0mg"},{"bike_id":"e9fd63eb-105d-49d2-9427-6a6693a1ea03","system_id":"levelo_inurba_marseille","lat":43.29425,"lon":5.38608,"is_reserved":false,"is_disabled":false,"rental_uris":{"android":"levelo://app?vid=e9fd63eb-105d-49d2-9427-6a6693a1ea03","ios":"levelo://app?vid=e9fd63eb-105d-49d2-9427-6a6693a1ea03"},"vehicle_type_id":"4","last_reported":1736273568,"current_range_meters":27600,"station_id":"ce4bh2h2rcd13ifvqdh0","pricing_plan_id":"cebpf4jnsgd1na2vs0mg"},{"bike_id":"c46f3948-ea86-4253-9e26-c8d1825888dc","system_id":"levelo_inurba_marseille","lat":43.2944,"lon":5.39747,"is_reserved":false,"is_disabled":false,"rental_uris":{"android":"levelo://app?vid=c46f3948-ea86-4253-9e26-c8d1825888dc","ios":"levelo://app?vid=c46f3948-ea86-4253-9e26-c8d1825888dc"},"vehicle_type_id":"4","last_reported":1736273568,"current_range_meters":24000,"station_id":"ce4bh3h2rcd13ifvqdo0","pricing_plan_id":"cebpf4jnsgd1na2vs0mg"},{"bike_id":"a4dec33a-3574-46ab-bf07-5ce5a74a1fd6","system_id":"levelo_inurba_marseille","lat":43.28615,"lon":5.35107,"is_reserved":false,"is_disabled":false,"rental_uris":{"android":"levelo://app?vid=a4dec33a-3574-46ab-bf07-5ce5a74a1fd6","ios":"levelo://app?vid=a4dec33a-3574-46ab-bf07-5ce5a74a1fd6"},"vehicle_type_id":"4","last_reported":1736273568,"current_range_meters":29600,"station_id":"ce4bhch2rcd13ifvqeug","pricing_plan_id":"cebpf4jnsgd1na2vs0mg"},{"bike_id":"85e2625e-856f-4d87-a426-45410f1f2317","system_id":"levelo_inurba_marseille","lat":43.24069,"lon":5.37763,"is_reserved":false,"is_disabled":false,"rental_uris":{"android":"levelo://app?vid=85e2625e-856f-4d87-a426-45410f1f2317","ios":"levelo://app?vid=85e2625e-856f-4d87-a426-45410f1f2317"},"vehicle_type_id":"4","last_reported":1736273568,"current_range_meters":24400,"station_id":"ce4bhnp2rcd13ifvqgvg","pricing_plan_id":"cebpf4jnsgd1na2vs0mg"},{"bike_id":"1d03875c-4554-41c8-b3de-85c3c3990d32","system_id":"levelo_inurba_marseille","lat":43.28664,"lon":5.3635,"is_reserved":false,"is_disabled":false,"rental_uris":{"android":"levelo://app?vid=1d03875c-4554-41c8-b3de-85c3c3990d32","ios":"levelo://app?vid=1d03875c-4554-41c8-b3de-85c3c3990d32"},"vehicle_type_id":"4","last_reported":1736273568,"current_range_meters":21600,"station_id":"ce4bhah2rcd13ifvqej0","pricing_plan_id":"cebpf4jnsgd1na2vs0mg"},{"bike_id":"f3d1f244-18c3-434d-87c1-4500012e65af","system_id":"levelo_inurba_marseille","lat":43.337444,"lon":5.374475,"is_reserved":false,"is_disabled":false,"rental_uris":{"android":"levelo://app?vid=f3d1f244-18c3-434d-87c1-4500012e65af","ios":"levelo://app?vid=f3d1f244-18c3-434d-87c1-4500012e65af"},"vehicle_type_id":"4","last_reported":1736273568,"current_range_meters":26800,"station_id":"","pricing_plan_id":"cebpf4jnsgd1na2vs0mg"},{"bike_id":"1b8af136-9fba-443e-a47d-cfa836121aa4","system_id":"levelo_inurba_marseille","lat":43.28107,"lon":5.37838,"is_reserved":false,"is_disabled":false,"rental_uris":{"android":"levelo://app?vid=1b8af136-9fba-443e-a47d-cfa836121aa4","ios":"levelo://app?vid=1b8af136-9fba-443e-a47d-cfa836121aa4"},"vehicle_type_id":"4","last_reported":1736273568,"current_range_meters":27600,"station_id":"ce4bha12rcd13ifvqee0","pricing_plan_id":"cebpf4jnsgd1na2vs0mg"},{"bike_id":"30add41c-1c89-4c0e-8350-e2c7f794d882","system_id":"levelo_inurba_marseille","lat":43.28555,"lon":5.39477,"is_reserved":false,"is_disabled":false,"rental_uris":{"android":"levelo://app?vid=30add41c-1c89-4c0e-8350-e2c7f794d882","ios":"levelo://app?vid=30add41c-1c89-4c0e-8350-e2c7f794d882"},"vehicle_type_id":"4","last_reported":1736273568,"current_range_meters":3600,"station_id":"ce4bh292rcd13ifvqdg0","pricing_plan_id":"cebpf4jnsgd1na2vs0mg"},{"bike_id":"39a66161-6256-4a44-9ff8-9ec79f8478c8","system_id":"levelo_inurba_marseille","lat":43.28622,"lon":5.35098,"is_reserved":false,"is_disabled":false,"rental_uris":{"android":"levelo://app?vid=39a66161-6256-4a44-9ff8-9ec79f8478c8","ios":"levelo://app?vid=39a66161-6256-4a44-9ff8-9ec79f8478c8"},"vehicle_type_id":"4","last_reported":1736273568,"current_range_meters":20400,"station_id":"ce4bhch2rcd13ifvqeug","pricing_plan_id":"cebpf4jnsgd1na2vs0mg"},{"bike_id":"b39644bc-bc3d-44b9-9efd-ad39a82efd47","system_id":"levelo_inurba_marseille","lat":43.29209,"lon":5.39332,"is_reserved":false,"is_disabled":false,"rental_uris":{"android":"levelo://app?vid=b39644bc-bc3d-44b9-9efd-ad39a82efd47","ios":"levelo://app?vid=b39644bc-bc3d-44b9-9efd-ad39a82efd47"},"vehicle_type_id":"4","last_reported":1736273568,"current_range_meters":25600,"station_id":"ce4bh192rcd13ifvqdd0","pricing_plan_id":"cebpf4jnsgd1na2vs0mg"},{"bike_id":"d45d0089-5e8c-41ac-a04c-9866c8dc94cc","system_id":"levelo_inurba_marseille","lat":43.23208,"lon":5.35556,"is_reserved":false,"is_disabled":false,"rental_uris":{"android":"levelo://app?vid=d45d0089-5e8c-41ac-a04c-9866c8dc94cc","ios":"levelo://app?vid=d45d0089-5e8c-41ac-a04c-9866c8dc94cc"},"vehicle_type_id":"4","last_reported":1736273568,"current_range_meters":38400,"station_id":"ce4bhu92rcd13ifvqi70","pricing_plan_id":"cebpf4jnsgd1na2vs0mg"},{"bike_id":"318f78a8-0263-4834-ac39-be164f4831d1","system_id":"levelo_inurba_marseille","lat":43.262101,"lon":5.37439,"is_reserved":false,"is_disabled":false,"rental_uris":{"android":"levelo://app?vid=318f78a8-0263-4834-ac39-be164f4831d1","ios":"levelo://app?vid=318f78a8-0263-4834-ac39-be164f4831d1"},"vehicle_type_id":"4","last_reported":1736273568,"current_range_meters":16400,"station_id":"ce4bhgp2rcd13ifvqfc0","pricing_plan_id":"cebpf4jnsgd1na2vs0mg"},{"bike_id":"aa33a53e-f806-43a8-ad7e-8e2bd9644426","system_id":"levelo_inurba_marseille","lat":43.32345,"lon":5.40629,"is_reserved":false,"is_disabled":true,"rental_uris":{"android":"levelo://app?vid=aa33a53e-f806-43a8-ad7e-8e2bd9644426","ios":"levelo://app?vid=aa33a53e-f806-43a8-ad7e-8e2bd9644426"},"vehicle_type_id":"4","last_reported":1736273568,"current_range_meters":0,"station_id":"ce4bhq92rcd13ifvqhjg","pricing_plan_id":"cebpf4jnsgd1na2vs0mg"},{"bike_id":"0badc7c1-e770-46b9-b393-54a03ecdf3e3","system_id":"levelo_inurba_marseille","lat":43.29897,"lon":5.43667,"is_reserved":false,"is_disabled":false,"rental_uris":{"android":"levelo://app?vid=0badc7c1-e770-46b9-b393-54a03ecdf3e3","ios":"levelo://app?vid=0badc7c1-e770-46b9-b393-54a03ecdf3e3"},"vehicle_type_id":"4","last_reported":1736273568,"current_range_meters":19200,"station_id":"ce4bhpp2rcd13ifvqhfg","pricing_plan_id":"cebpf4jnsgd1na2vs0mg"},{"bike_id":"28706a8a-e4d8-40e9-a34b-f308bb4cb4ca","system_id":"levelo_inurba_marseille","lat":43.31326,"lon":5.39692,"is_reserved":false,"is_disabled":false,"rental_uris":{"android":"levelo://app?vid=28706a8a-e4d8-40e9-a34b-f308bb4cb4ca","ios":"levelo://app?vid=28706a8a-e4d8-40e9-a34b-f308bb4cb4ca"},"vehicle_type_id":"4","last_reported":1736273568,"current_range_meters":39200,"station_id":"ce4bgvp2rcd13ifvqcu0","pricing_plan_id":"cebpf4jnsgd1na2vs0mg"},{"bike_id":"ace170f3-b444-4266-9a7d-f91adb591006","system_id":"levelo_inurba_marseille","lat":43.30531,"lon":5.3672,"is_reserved":false,"is_disabled":true,"rental_uris":{"android":"levelo://app?vid=ace170f3-b444-4266-9a7d-f91adb591006","ios":"levelo://app?vid=ace170f3-b444-4266-9a7d-f91adb591006"},"vehicle_type_id":"4","last_reported":1736273568,"current_range_meters":0,"station_id":"ce4bgrp2rcd13ifvqc9g","pricing_plan_id":"cebpf4jnsgd1na2vs0mg"},{"bike_id":"be457d0e-e951-4c20-92b5-c162743063cd","system_id":"levelo_inurba_marseille","lat":43.33004,"lon":5.39041,"is_reserved":false,"is_disabled":false,"rental_uris":{"android":"levelo://app?vid=be457d0e-e951-4c20-92b5-c162743063cd","ios":"levelo://app?vid=be457d0e-e951-4c20-92b5-c162743063cd"},"vehicle_type_id":"4","last_reported":1736273568,"current_range_meters":16000,"station_id":"ce4bhr92rcd13ifvqhrg","pricing_plan_id":"cebpf4jnsgd1na2vs0mg"},{"bike_id":"77177f8a-71d5-4e1a-868f-582664cef4f6","system_id":"levelo_inurba_marseille","lat":43.30139,"lon":5.37449,"is_reserved":false,"is_disabled":true,"rental_uris":{"android":"levelo://app?vid=77177f8a-71d5-4e1a-868f-582664cef4f6","ios":"levelo://app?vid=77177f8a-71d5-4e1a-868f-582664cef4f6"},"vehicle_type_id":"4","last_reported":1736273568,"current_range_meters":38000,"station_id":"ce4bgs92rcd13ifvqcc0","pricing_plan_id":"cebpf4jnsgd1na2vs0mg"},{"bike_id":"d7ba9d49-d2e5-4e7d-84d3-3ac8f4900f75","system_id":"levelo_inurba_marseille","lat":43.26778,"lon":5.39417,"is_reserved":false,"is_disabled":false,"rental_uris":{"android":"levelo://app?vid=d7ba9d49-d2e5-4e7d-84d3-3ac8f4900f75","ios":"levelo://app?vid=d7ba9d49-d2e5-4e7d-84d3-3ac8f4900f75"},"vehicle_type_id":"4","last_reported":1736273568,"current_range_meters":13600,"station_id":"ce4bhh12rcd13ifvqfg0","pricing_plan_id":"cebpf4jnsgd1na2vs0mg"},{"bike_id":"5c990a4a-e037-4e8b-85a8-64502868377c","system_id":"levelo_inurba_marseille","lat":43.33036,"lon":5.39047,"is_reserved":false,"is_disabled":false,"rental_uris":{"android":"levelo://app?vid=5c990a4a-e037-4e8b-85a8-64502868377c","ios":"levelo://app?vid=5c990a4a-e037-4e8b-85a8-64502868377c"},"vehicle_type_id":"4","last_reported":1736273568,"current_range_meters":24400,"station_id":"ce4bhr92rcd13ifvqhrg","pricing_plan_id":"cebpf4jnsgd1na2vs0mg"},{"bike_id":"68485783-d7db-481e-81b0-ca5c3e3b32d4","system_id":"levelo_inurba_marseille","lat":43.33028,"lon":5.39036,"is_reserved":false,"is_disabled":false,"rental_uris":{"android":"levelo://app?vid=68485783-d7db-481e-81b0-ca5c3e3b32d4","ios":"levelo://app?vid=68485783-d7db-481e-81b0-ca5c3e3b32d4"},"vehicle_type_id":"4","last_reported":1736273568,"current_range_meters":29600,"station_id":"ce4bhr92rcd13ifvqhrg","pricing_plan_id":"cebpf4jnsgd1na2vs0mg"},{"bike_id":"d9d0ffde-9391-45f7-87f2-b2eb55ddba18","system_id":"levelo_inurba_marseille","lat":43.29623,"lon":5.37154,"is_reserved":false,"is_disabled":false,"rental_uris":{"android":"levelo://app?vid=d9d0ffde-9391-45f7-87f2-b2eb55ddba18","ios":"levelo://app?vid=d9d0ffde-9391-45f7-87f2-b2eb55ddba18"},"vehicle_type_id":"4","last_reported":1736273568,"current_range_meters":39200,"station_id":"ce4bgnh2rcd13ifvqc0g","pricing_plan_id":"cebpf4jnsgd1na2vs0mg"},{"bike_id":"bcd5d73a-cad9-490f-986b-c9592d2f2142","system_id":"levelo_inurba_marseille","lat":43.28154,"lon":5.42646,"is_reserved":false,"is_disabled":false,"rental_uris":{"android":"levelo://app?vid=bcd5d73a-cad9-490f-986b-c9592d2f2142","ios":"levelo://app?vid=bcd5d73a-cad9-490f-986b-c9592d2f2142"},"vehicle_type_id":"4","last_reported":1736273568,"current_range_meters":15200,"station_id":"ce4bhnh2rcd13ifvqgug","pricing_plan_id":"cebpf4jnsgd1na2vs0mg"},{"bike_id":"4063b34e-f483-4c10-bdad-a759b3d89011","system_id":"levelo_inurba_marseille","lat":43.27814,"lon":5.4072,"is_reserved":false,"is_disabled":false,"rental_uris":{"android":"levelo://app?vid=4063b34e-f483-4c10-bdad-a759b3d89011","ios":"levelo://app?vid=4063b34e-f483-4c10-bdad-a759b3d89011"},"vehicle_type_id":"4","last_reported":1736273568,"current_range_meters":12000,"station_id":"ce4bhnh2rcd13ifvqgtg","pricing_plan_id":"cebpf4jnsgd1na2vs0mg"},{"bike_id":"1e4b11b9-aef6-4e3d-9c15-1a4a39f3f31a","system_id":"levelo_inurba_marseille","lat":43.29814,"lon":5.38091,"is_reserved":false,"is_disabled":false,"rental_uris":{"android":"levelo://app?vid=1e4b11b9-aef6-4e3d-9c15-1a4a39f3f31a","ios":"levelo://app?vid=1e4b11b9-aef6-4e3d-9c15-1a4a39f3f31a"},"vehicle_type_id":"4","last_reported":1736273568,"current_range_meters":37600,"station_id":"ce4bgip2rcd13ifvqbb0","pricing_plan_id":"cebpf4jnsgd1na2vs0mg"},{"bike_id":"b032f087-ae0b-48d3-b5c3-86988b9a970e","system_id":"levelo_inurba_marseille","lat":43.30305,"lon":5.36656,"is_reserved":false,"is_disabled":false,"rental_uris":{"android":"levelo://app?vid=b032f087-ae0b-48d3-b5c3-86988b9a970e","ios":"levelo://app?vid=b032f087-ae0b-48d3-b5c3-86988b9a970e"},"vehicle_type_id":"4","last_reported":1736273568,"current_range_meters":22000,"station_id":"","pricing_plan_id":"cebpf4jnsgd1na2vs0mg"},{"bike_id":"3f86cc4e-c4fd-40a8-a7f2-03738bc004c2","system_id":"levelo_inurba_marseille","lat":43.28454,"lon":5.35887,"is_reserved":false,"is_disabled":false,"rental_uris":{"android":"levelo://app?vid=3f86cc4e-c4fd-40a8-a7f2-03738bc004c2","ios":"levelo://app?vid=3f86cc4e-c4fd-40a8-a7f2-03738bc004c2"},"vehicle_type_id":"4","last_reported":1736273568,"current_range_meters":38800,"station_id":"ce4bhah2rcd13ifvqei0","pricing_plan_id":"cebpf4jnsgd1na2vs0mg"},{"bike_id":"dfc57252-4608-4174-b055-24ad6127da7f","system_id":"levelo_inurba_marseille","lat":43.29531,"lon":5.39401,"is_reserved":false,"is_disabled":false,"rental_uris":{"android":"levelo://app?vid=dfc57252-4608-4174-b055-24ad6127da7f","ios":"levelo://app?vid=dfc57252-4608-4174-b055-24ad6127da7f"},"vehicle_type_id":"4","last_reported":1736273568,"current_range_meters":11200,"station_id":"ce4bh292rcd13ifvqdf0","pricing_plan_id":"cebpf4jnsgd1na2vs0mg"},{"bike_id":"bbf998ea-d252-4590-8711-16d78ff4b07c","system_id":"levelo_inurba_marseille","lat":43.24646,"lon":5.38908,"is_reserved":false,"is_disabled":false,"rental_uris":{"android":"levelo://app?vid=bbf998ea-d252-4590-8711-16d78ff4b07c","ios":"levelo://app?vid=bbf998ea-d252-4590-8711-16d78ff4b07c"},"vehicle_type_id":"4","last_reported":1736273568,"current_range_meters":25600,"station_id":"ce4bhg12rcd13ifvqf60","pricing_plan_id":"cebpf4jnsgd1na2vs0mg"},{"bike_id":"2c889d84-bd42-411e-9527-b3215cc58e68","system_id":"levelo_inurba_marseille","lat":43.279459,"lon":5.410466,"is_reserved":false,"is_disabled":false,"rental_uris":{"android":"levelo://app?vid=2c889d84-bd42-411e-9527-b3215cc58e68","ios":"levelo://app?vid=2c889d84-bd42-411e-9527-b3215cc58e68"},"vehicle_type_id":"4","last_reported":1736273568,"current_range_meters":18000,"station_id":"ce4bhnp2rcd13ifvqh0g","pricing_plan_id":"cebpf4jnsgd1na2vs0mg"},{"bike_id":"88a5d56b-c33b-4490-b029-7dac920ab5f6","system_id":"levelo_inurba_marseille","lat":43.26571,"lon":5.39019,"is_reserved":false,"is_disabled":false,"rental_uris":{"android":"levelo://app?vid=88a5d56b-c33b-4490-b029-7dac920ab5f6","ios":"levelo://app?vid=88a5d56b-c33b-4490-b029-7dac920ab5f6"},"vehicle_type_id":"4","last_reported":1736273568,"current_range_meters":30000,"station_id":"ce4bhe12rcd13ifvqf30","pricing_plan_id":"cebpf4jnsgd1na2vs0mg"},{"bike_id":"1f3279ad-7688-4d1e-817a-428a5253b908","system_id":"levelo_inurba_marseille","lat":43.31329,"lon":5.39686,"is_reserved":false,"is_disabled":false,"rental_uris":{"android":"levelo://app?vid=1f3279ad-7688-4d1e-817a-428a5253b908","ios":"levelo://app?vid=1f3279ad-7688-4d1e-817a-428a5253b908"},"vehicle_type_id":"4","last_reported":1736273568,"current_range_meters":33200,"station_id":"ce4bgvp2rcd13ifvqcu0","pricing_plan_id":"cebpf4jnsgd1na2vs0mg"},{"bike_id":"624f15d9-9a3b-4b46-8701-94197d3a8428","system_id":"levelo_inurba_marseille","lat":43.298737,"lon":5.389067,"is_reserved":false,"is_disabled":false,"rental_uris":{"android":"levelo://app?vid=624f15d9-9a3b-4b46-8701-94197d3a8428","ios":"levelo://app?vid=624f15d9-9a3b-4b46-8701-94197d3a8428"},"vehicle_type_id":"4","last_reported":1736273568,"current_range_meters":38800,"station_id":"ce4bh392rcd13ifvqdl0","pricing_plan_id":"cebpf4jnsgd1na2vs0mg"},{"bike_id":"545b15d6-1fe4-4802-847a-664daaa3d930","system_id":"levelo_inurba_marseille","lat":43.28107,"lon":5.37839,"is_reserved":false,"is_disabled":false,"rental_uris":{"android":"levelo://app?vid=545b15d6-1fe4-4802-847a-664daaa3d930","ios":"levelo://app?vid=545b15d6-1fe4-4802-847a-664daaa3d930"},"vehicle_type_id":"4","last_reported":1736273568,"current_range_meters":19600,"station_id":"ce4bha12rcd13ifvqee0","pricing_plan_id":"cebpf4jnsgd1na2vs0mg"},{"bike_id":"bc2873b0-9774-491c-a2de-b95e350f7bdb","system_id":"levelo_inurba_marseille","lat":43.27772,"lon":5.39899,"is_reserved":false,"is_disabled":true,"rental_uris":{"android":"levelo://app?vid=bc2873b0-9774-491c-a2de-b95e350f7bdb","ios":"levelo://app?vid=bc2873b0-9774-491c-a2de-b95e350f7bdb"},"vehicle_type_id":"4","last_reported":1736273568,"current_range_meters":2000,"station_id":"","pricing_plan_id":"cebpf4jnsgd1na2vs0mg"},{"bike_id":"49597cf1-abfa-471b-b4d2-12244bfc9378","system_id":"levelo_inurba_marseille","lat":43.29896,"lon":5.39743,"is_reserved":false,"is_disabled":false,"rental_uris":{"android":"levelo://app?vid=49597cf1-abfa-471b-b4d2-12244bfc9378","ios":"levelo://app?vid=49597cf1-abfa-471b-b4d2-12244bfc9378"},"vehicle_type_id":"4","last_reported":1736273568,"current_range_meters":38800,"station_id":"ce4bh0h2rcd13ifvqd50","pricing_plan_id":"cebpf4jnsgd1na2vs0mg"},{"bike_id":"d847a734-9354-4cc9-8d2f-db2f2456f2a9","system_id":"levelo_inurba_marseille","lat":43.29896,"lon":5.43667,"is_reserved":false,"is_disabled":false,"rental_uris":{"android":"levelo://app?vid=d847a734-9354-4cc9-8d2f-db2f2456f2a9","ios":"levelo://app?vid=d847a734-9354-4cc9-8d2f-db2f2456f2a9"},"vehicle_type_id":"4","last_reported":1736273568,"current_range_meters":5600,"station_id":"ce4bhpp2rcd13ifvqhfg","pricing_plan_id":"cebpf4jnsgd1na2vs0mg"},{"bike_id":"1e297576-65d7-4d7e-82e0-d872b833f39a","system_id":"levelo_inurba_marseille","lat":43.30876,"lon":5.36847,"is_reserved":false,"is_disabled":false,"rental_uris":{"android":"levelo://app?vid=1e297576-65d7-4d7e-82e0-d872b833f39a","ios":"levelo://app?vid=1e297576-65d7-4d7e-82e0-d872b833f39a"},"vehicle_type_id":"4","last_reported":1736273568,"current_range_meters":24400,"station_id":"ce4bgn92rcd13ifvqbvg","pricing_plan_id":"cebpf4jnsgd1na2vs0mg"},{"bike_id":"dc05b672-3694-44a5-80f7-8b52b23fe0ed","system_id":"levelo_inurba_marseille","lat":43.25588,"lon":5.38244,"is_reserved":false,"is_disabled":true,"rental_uris":{"android":"levelo://app?vid=dc05b672-3694-44a5-80f7-8b52b23fe0ed","ios":"levelo://app?vid=dc05b672-3694-44a5-80f7-8b52b23fe0ed"},"vehicle_type_id":"4","last_reported":1736273568,"current_range_meters":0,"station_id":"ce4bhih2rcd13ifvqfs0","pricing_plan_id":"cebpf4jnsgd1na2vs0mg"},{"bike_id":"e1795f68-382d-4f4c-9a5c-b53dd730120d","system_id":"levelo_inurba_marseille","lat":43.28718,"lon":5.37943,"is_reserved":false,"is_disabled":false,"rental_uris":{"android":"levelo://app?vid=e1795f68-382d-4f4c-9a5c-b53dd730120d","ios":"levelo://app?vid=e1795f68-382d-4f4c-9a5c-b53dd730120d"},"vehicle_type_id":"4","last_reported":1736273568,"current_range_meters":38400,"station_id":"ce4bh9p2rcd13ifvqec0","pricing_plan_id":"cebpf4jnsgd1na2vs0mg"},{"bike_id":"f3068faf-6ea3-45c0-943e-8f5eb9fecb3c","system_id":"levelo_inurba_marseille","lat":43.23976,"lon":5.36621,"is_reserved":false,"is_disabled":false,"rental_uris":{"android":"levelo://app?vid=f3068faf-6ea3-45c0-943e-8f5eb9fecb3c","ios":"levelo://app?vid=f3068faf-6ea3-45c0-943e-8f5eb9fecb3c"},"vehicle_type_id":"4","last_reported":1736273568,"current_range_meters":36800,"station_id":"ce4bhi12rcd13ifvqfp0","pricing_plan_id":"cebpf4jnsgd1na2vs0mg"},{"bike_id":"ca015be1-1700-4c7a-b093-fbabf0c9cdc0","system_id":"levelo_inurba_marseille","lat":43.2954,"lon":5.39404,"is_reserved":false,"is_disabled":true,"rental_uris":{"android":"levelo://app?vid=ca015be1-1700-4c7a-b093-fbabf0c9cdc0","ios":"levelo://app?vid=ca015be1-1700-4c7a-b093-fbabf0c9cdc0"},"vehicle_type_id":"4","last_reported":1736273568,"current_range_meters":0,"station_id":"ce4bh292rcd13ifvqdf0","pricing_plan_id":"cebpf4jnsgd1na2vs0mg"},{"bike_id":"23a66e3f-8e17-4ad8-b689-a42d7cb5191e","system_id":"levelo_inurba_marseille","lat":43.27845,"lon":5.39254,"is_reserved":false,"is_disabled":true,"rental_uris":{"android":"levelo://app?vid=23a66e3f-8e17-4ad8-b689-a42d7cb5191e","ios":"levelo://app?vid=23a66e3f-8e17-4ad8-b689-a42d7cb5191e"},"vehicle_type_id":"4","last_reported":1736273568,"current_range_meters":4400,"station_id":"","pricing_plan_id":"cebpf4jnsgd1na2vs0mg"},{"bike_id":"2937c8f0-6f06-4c7f-8240-41ad44bc55fa","system_id":"levelo_inurba_marseille","lat":43.23186,"lon":5.39989,"is_reserved":false,"is_disabled":false,"rental_uris":{"android":"levelo://app?vid=2937c8f0-6f06-4c7f-8240-41ad44bc55fa","ios":"levelo://app?vid=2937c8f0-6f06-4c7f-8240-41ad44bc55fa"},"vehicle_type_id":"4","last_reported":1736273568,"current_range_meters":9200,"station_id":"ce4bhn12rcd13ifvqgqg","pricing_plan_id":"cebpf4jnsgd1na2vs0mg"},{"bike_id":"34c643ba-9c32-48fb-b7a4-58a073ebe667","system_id":"levelo_inurba_marseille","lat":43.29643,"lon":5.40594,"is_reserved":false,"is_disabled":true,"rental_uris":{"android":"levelo://app?vid=34c643ba-9c32-48fb-b7a4-58a073ebe667","ios":"levelo://app?vid=34c643ba-9c32-48fb-b7a4-58a073ebe667"},"vehicle_type_id":"4","last_reported":1736273568,"current_range_meters":1200,"station_id":"ce4bh0h2rcd13ifvqd60","pricing_plan_id":"cebpf4jnsgd1na2vs0mg"},{"bike_id":"a922db1a-e7f7-468d-bd9f-ba12b812c160","system_id":"levelo_inurba_marseille","lat":43.28867,"lon":5.39317,"is_reserved":false,"is_disabled":false,"rental_uris":{"android":"levelo://app?vid=a922db1a-e7f7-468d-bd9f-ba12b812c160","ios":"levelo://app?vid=a922db1a-e7f7-468d-bd9f-ba12b812c160"},"vehicle_type_id":"4","last_reported":1736273568,"current_range_meters":16000,"station_id":"ce4bh2p2rcd13ifvqdi0","pricing_plan_id":"cebpf4jnsgd1na2vs0mg"},{"bike_id":"7d5a99cf-9c41-41c0-ad54-e5123f06a159","system_id":"levelo_inurba_marseille","lat":43.28983,"lon":5.37833,"is_reserved":false,"is_disabled":false,"rental_uris":{"android":"levelo://app?vid=7d5a99cf-9c41-41c0-ad54-e5123f06a159","ios":"levelo://app?vid=7d5a99cf-9c41-41c0-ad54-e5123f06a159"},"vehicle_type_id":"4","last_reported":1736273568,"current_range_meters":38000,"station_id":"ce4bh9p2rcd13ifvqed0","pricing_plan_id":"cebpf4jnsgd1na2vs0mg"},{"bike_id":"d014f699-d84d-436b-b3bf-8c059d18ea89","system_id":"levelo_inurba_marseille","lat":43.229267,"lon":5.353784,"is_reserved":false,"is_disabled":false,"rental_uris":{"android":"levelo://app?vid=d014f699-d84d-436b-b3bf-8c059d18ea89","ios":"levelo://app?vid=d014f699-d84d-436b-b3bf-8c059d18ea89"},"vehicle_type_id":"4","last_reported":1736273568,"current_range_meters":7200,"station_id":"cpo3532slgdg3j2ikp40","pricing_plan_id":"cebpf4jnsgd1na2vs0mg"},{"bike_id":"9862cc46-3096-4312-a8fd-b4a6e803a184","system_id":"levelo_inurba_marseille","lat":43.29848,"lon":5.36262,"is_reserved":false,"is_disabled":false,"rental_uris":{"android":"levelo://app?vid=9862cc46-3096-4312-a8fd-b4a6e803a184","ios":"levelo://app?vid=9862cc46-3096-4312-a8fd-b4a6e803a184"},"vehicle_type_id":"4","last_reported":1736273568,"current_range_meters":37600,"station_id":"ce4bgpp2rcd13ifvqc3g","pricing_plan_id":"cebpf4jnsgd1na2vs0mg"},{"bike_id":"8fa8b7f9-1a9a-4b12-8f46-a00de1a280d3","system_id":"levelo_inurba_marseille","lat":43.28415,"lon":5.34987,"is_reserved":false,"is_disabled":false,"rental_uris":{"android":"levelo://app?vid=8fa8b7f9-1a9a-4b12-8f46-a00de1a280d3","ios":"levelo://app?vid=8fa8b7f9-1a9a-4b12-8f46-a00de1a280d3"},"vehicle_type_id":"4","last_reported":1736273568,"current_range_meters":26800,"station_id":"ce4bhbh2rcd13ifvqepg","pricing_plan_id":"cebpf4jnsgd1na2vs0mg"},{"bike_id":"955387a8-4a47-4691-946f-78754c88504b","system_id":"levelo_inurba_marseille","lat":43.23197,"lon":5.35541,"is_reserved":false,"is_disabled":false,"rental_uris":{"android":"levelo://app?vid=955387a8-4a47-4691-946f-78754c88504b","ios":"levelo://app?vid=955387a8-4a47-4691-946f-78754c88504b"},"vehicle_type_id":"4","last_reported":1736273568,"current_range_meters":36400,"station_id":"ce4bhu92rcd13ifvqi70","pricing_plan_id":"cebpf4jnsgd1na2vs0mg"},{"bike_id":"ef72cdb4-465d-4178-b952-49906f159c48","system_id":"levelo_inurba_marseille","lat":43.2817,"lon":5.42634,"is_reserved":false,"is_disabled":false,"rental_uris":{"android":"levelo://app?vid=ef72cdb4-465d-4178-b952-49906f159c48","ios":"levelo://app?vid=ef72cdb4-465d-4178-b952-49906f159c48"},"vehicle_type_id":"4","last_reported":1736273568,"current_range_meters":35600,"station_id":"ce4bhnh2rcd13ifvqgug","pricing_plan_id":"cebpf4jnsgd1na2vs0mg"},{"bike_id":"f949af9a-2683-4ec9-b4bf-168b31b3bcb2","system_id":"levelo_inurba_marseille","lat":43.24654,"lon":5.38896,"is_reserved":false,"is_disabled":false,"rental_uris":{"android":"levelo://app?vid=f949af9a-2683-4ec9-b4bf-168b31b3bcb2","ios":"levelo://app?vid=f949af9a-2683-4ec9-b4bf-168b31b3bcb2"},"vehicle_type_id":"4","last_reported":1736273568,"current_range_meters":17600,"station_id":"ce4bhg12rcd13ifvqf60","pricing_plan_id":"cebpf4jnsgd1na2vs0mg"},{"bike_id":"783a4e6a-b2e5-4bb3-b469-3a64716ba325","system_id":"levelo_inurba_marseille","lat":43.28687,"lon":5.37392,"is_reserved":false,"is_disabled":false,"rental_uris":{"android":"levelo://app?vid=783a4e6a-b2e5-4bb3-b469-3a64716ba325","ios":"levelo://app?vid=783a4e6a-b2e5-4bb3-b469-3a64716ba325"},"vehicle_type_id":"4","last_reported":1736273568,"current_range_meters":36000,"station_id":"ce4bh3p2rcd13ifvqdq0","pricing_plan_id":"cebpf4jnsgd1na2vs0mg"},{"bike_id":"61b9ba19-004d-4f6c-b89b-a82ed0c64ef7","system_id":"levelo_inurba_marseille","lat":43.27912,"lon":5.39585,"is_reserved":false,"is_disabled":false,"rental_uris":{"android":"levelo://app?vid=61b9ba19-004d-4f6c-b89b-a82ed0c64ef7","ios":"levelo://app?vid=61b9ba19-004d-4f6c-b89b-a82ed0c64ef7"},"vehicle_type_id":"4","last_reported":1736273568,"current_range_meters":22800,"station_id":"ce4bhf92rcd13ifvqf40","pricing_plan_id":"cebpf4jnsgd1na2vs0mg"},{"bike_id":"93b566fe-93da-4003-b519-f3968b1281b1","system_id":"levelo_inurba_marseille","lat":43.28264,"lon":5.35084,"is_reserved":false,"is_disabled":false,"rental_uris":{"android":"levelo://app?vid=93b566fe-93da-4003-b519-f3968b1281b1","ios":"levelo://app?vid=93b566fe-93da-4003-b519-f3968b1281b1"},"vehicle_type_id":"4","last_reported":1736273568,"current_range_meters":35200,"station_id":"ce4bhah2rcd13ifvqei0","pricing_plan_id":"cebpf4jnsgd1na2vs0mg"},{"bike_id":"cbdf3781-699a-4f13-a34e-0797dbec3271","system_id":"levelo_inurba_marseille","lat":43.29229,"lon":5.3605,"is_reserved":false,"is_disabled":false,"rental_uris":{"android":"levelo://app?vid=cbdf3781-699a-4f13-a34e-0797dbec3271","ios":"levelo://app?vid=cbdf3781-699a-4f13-a34e-0797dbec3271"},"vehicle_type_id":"4","last_reported":1736273568,"current_range_meters":38000,"station_id":"ce4bhbh2rcd13ifvqeqg","pricing_plan_id":"cebpf4jnsgd1na2vs0mg"},{"bike_id":"a344e607-2212-45d5-b6de-a9033a6aa79f","system_id":"levelo_inurba_marseille","lat":43.2621,"lon":5.37915,"is_reserved":false,"is_disabled":false,"rental_uris":{"android":"levelo://app?vid=a344e607-2212-45d5-b6de-a9033a6aa79f","ios":"levelo://app?vid=a344e607-2212-45d5-b6de-a9033a6aa79f"},"vehicle_type_id":"4","last_reported":1736273568,"current_range_meters":38000,"station_id":"ce4bhjp2rcd13ifvqg90","pricing_plan_id":"cebpf4jnsgd1na2vs0mg"},{"bike_id":"d839aa41-4642-4a72-b184-8d9ade8183a8","system_id":"levelo_inurba_marseille","lat":43.28938,"lon":5.39635,"is_reserved":false,"is_disabled":false,"rental_uris":{"android":"levelo://app?vid=d839aa41-4642-4a72-b184-8d9ade8183a8","ios":"levelo://app?vid=d839aa41-4642-4a72-b184-8d9ade8183a8"},"vehicle_type_id":"4","last_reported":1736273568,"current_range_meters":38000,"station_id":"ce4bh3h2rcd13ifvqdn0","pricing_plan_id":"cebpf4jnsgd1na2vs0mg"},{"bike_id":"b5b67869-f06d-4d65-8b50-e23c241a7aa3","system_id":"levelo_inurba_marseille","lat":43.31758,"lon":5.39017,"is_reserved":false,"is_disabled":false,"rental_uris":{"android":"levelo://app?vid=b5b67869-f06d-4d65-8b50-e23c241a7aa3","ios":"levelo://app?vid=b5b67869-f06d-4d65-8b50-e23c241a7aa3"},"vehicle_type_id":"4","last_reported":1736273568,"current_range_meters":11200,"station_id":"ce4bhqp2rcd13ifvqhng","pricing_plan_id":"cebpf4jnsgd1na2vs0mg"},{"bike_id":"5c37e3aa-83ca-47da-b944-0d2c7ec60ce7","system_id":"levelo_inurba_marseille","lat":43.25082,"lon":5.39521,"is_reserved":false,"is_disabled":false,"rental_uris":{"android":"levelo://app?vid=5c37e3aa-83ca-47da-b944-0d2c7ec60ce7","ios":"levelo://app?vid=5c37e3aa-83ca-47da-b944-0d2c7ec60ce7"},"vehicle_type_id":"4","last_reported":1736273568,"current_range_meters":24000,"station_id":"ce4bhm12rcd13ifvqgkg","pricing_plan_id":"cebpf4jnsgd1na2vs0mg"},{"bike_id":"1f63a891-0f02-432d-9992-68e7c9736389","system_id":"levelo_inurba_marseille","lat":43.27834,"lon":5.39206,"is_reserved":false,"is_disabled":false,"rental_uris":{"android":"levelo://app?vid=1f63a891-0f02-432d-9992-68e7c9736389","ios":"levelo://app?vid=1f63a891-0f02-432d-9992-68e7c9736389"},"vehicle_type_id":"4","last_reported":1736273568,"current_range_meters":7200,"station_id":"ce4bhjp2rcd13ifvqga0","pricing_plan_id":"cebpf4jnsgd1na2vs0mg"},{"bike_id":"ebef3c2c-525d-4acb-b33c-022596666309","system_id":"levelo_inurba_marseille","lat":43.30807,"lon":5.43514,"is_reserved":false,"is_disabled":false,"rental_uris":{"android":"levelo://app?vid=ebef3c2c-525d-4acb-b33c-022596666309","ios":"levelo://app?vid=ebef3c2c-525d-4acb-b33c-022596666309"},"vehicle_type_id":"4","last_reported":1736273568,"current_range_meters":2800,"station_id":"ce4bhph2rcd13ifvqheg","pricing_plan_id":"cebpf4jnsgd1na2vs0mg"},{"bike_id":"578dc93c-9cb6-44e9-9674-3bdc3e25afad","system_id":"levelo_inurba_marseille","lat":43.30789,"lon":5.43517,"is_reserved":false,"is_disabled":false,"rental_uris":{"android":"levelo://app?vid=578dc93c-9cb6-44e9-9674-3bdc3e25afad","ios":"levelo://app?vid=578dc93c-9cb6-44e9-9674-3bdc3e25afad"},"vehicle_type_id":"4","last_reported":1736273568,"current_range_meters":22800,"station_id":"ce4bhph2rcd13ifvqheg","pricing_plan_id":"cebpf4jnsgd1na2vs0mg"},{"bike_id":"a0f6036a-5401-4667-beb1-c12911e1f446","system_id":"levelo_inurba_marseille","lat":43.28728,"lon":5.36077,"is_reserved":false,"is_disabled":false,"rental_uris":{"android":"levelo://app?vid=a0f6036a-5401-4667-beb1-c12911e1f446","ios":"levelo://app?vid=a0f6036a-5401-4667-beb1-c12911e1f446"},"vehicle_type_id":"4","last_reported":1736273568,"current_range_meters":22800,"station_id":"cki0cbj6b192h4jlfktg","pricing_plan_id":"cebpf4jnsgd1na2vs0mg"},{"bike_id":"29d46770-554c-4f41-9cfc-a4555de17c7f","system_id":"levelo_inurba_marseille","lat":43.309512,"lon":5.390298,"is_reserved":false,"is_disabled":false,"rental_uris":{"android":"levelo://app?vid=29d46770-554c-4f41-9cfc-a4555de17c7f","ios":"levelo://app?vid=29d46770-554c-4f41-9cfc-a4555de17c7f"},"vehicle_type_id":"4","last_reported":1736273568,"current_range_meters":35600,"station_id":"ce4bgup2rcd13ifvqco0","pricing_plan_id":"cebpf4jnsgd1na2vs0mg"},{"bike_id":"4349e322-e54f-4a7c-8de9-2ce06a16918d","system_id":"levelo_inurba_marseille","lat":43.27951,"lon":5.41044,"is_reserved":false,"is_disabled":false,"rental_uris":{"android":"levelo://app?vid=4349e322-e54f-4a7c-8de9-2ce06a16918d","ios":"levelo://app?vid=4349e322-e54f-4a7c-8de9-2ce06a16918d"},"vehicle_type_id":"4","last_reported":1736273568,"current_range_meters":38800,"station_id":"ce4bhnp2rcd13ifvqh0g","pricing_plan_id":"cebpf4jnsgd1na2vs0mg"},{"bike_id":"8d601397-a46c-42b4-b4d4-5570414bbfdc","system_id":"levelo_inurba_marseille","lat":43.31714,"lon":5.40443,"is_reserved":false,"is_disabled":true,"rental_uris":{"android":"levelo://app?vid=8d601397-a46c-42b4-b4d4-5570414bbfdc","ios":"levelo://app?vid=8d601397-a46c-42b4-b4d4-5570414bbfdc"},"vehicle_type_id":"4","last_reported":1736273568,"current_range_meters":32000,"station_id":"ce4bh012rcd13ifvqd00","pricing_plan_id":"cebpf4jnsgd1na2vs0mg"},{"bike_id":"c5cd14ba-a894-4df6-9c35-21af1d022402","system_id":"levelo_inurba_marseille","lat":43.29531,"lon":5.3855,"is_reserved":false,"is_disabled":false,"rental_uris":{"android":"levelo://app?vid=c5cd14ba-a894-4df6-9c35-21af1d022402","ios":"levelo://app?vid=c5cd14ba-a894-4df6-9c35-21af1d022402"},"vehicle_type_id":"4","last_reported":1736273568,"current_range_meters":30000,"station_id":"ce4bgih2rcd13ifvqba0","pricing_plan_id":"cebpf4jnsgd1na2vs0mg"},{"bike_id":"33439348-f220-47f0-b329-c76f0c216c1f","system_id":"levelo_inurba_marseille","lat":43.25873,"lon":5.39898,"is_reserved":false,"is_disabled":false,"rental_uris":{"android":"levelo://app?vid=33439348-f220-47f0-b329-c76f0c216c1f","ios":"levelo://app?vid=33439348-f220-47f0-b329-c76f0c216c1f"},"vehicle_type_id":"4","last_reported":1736273568,"current_range_meters":25600,"station_id":"ce4bhl92rcd13ifvqghg","pricing_plan_id":"cebpf4jnsgd1na2vs0mg"},{"bike_id":"07e6a187-707a-422d-b02c-d2c25576bb8c","system_id":"levelo_inurba_marseille","lat":43.32346,"lon":5.38892,"is_reserved":false,"is_disabled":false,"rental_uris":{"android":"levelo://app?vid=07e6a187-707a-422d-b02c-d2c25576bb8c","ios":"levelo://app?vid=07e6a187-707a-422d-b02c-d2c25576bb8c"},"vehicle_type_id":"4","last_reported":1736273568,"current_range_meters":15200,"station_id":"ce4bhqp2rcd13ifvqhog","pricing_plan_id":"cebpf4jnsgd1na2vs0mg"},{"bike_id":"d26d2a2b-6b23-4fc3-b931-56527ca935bc","system_id":"levelo_inurba_marseille","lat":43.31744,"lon":5.39003,"is_reserved":false,"is_disabled":false,"rental_uris":{"android":"levelo://app?vid=d26d2a2b-6b23-4fc3-b931-56527ca935bc","ios":"levelo://app?vid=d26d2a2b-6b23-4fc3-b931-56527ca935bc"},"vehicle_type_id":"4","last_reported":1736273568,"current_range_meters":18800,"station_id":"ce4bhqp2rcd13ifvqhng","pricing_plan_id":"cebpf4jnsgd1na2vs0mg"},{"bike_id":"51bc5de6-4fe5-4b26-87ea-d151c6fb650f","system_id":"levelo_inurba_marseille","lat":43.313333,"lon":5.396979,"is_reserved":false,"is_disabled":false,"rental_uris":{"android":"levelo://app?vid=51bc5de6-4fe5-4b26-87ea-d151c6fb650f","ios":"levelo://app?vid=51bc5de6-4fe5-4b26-87ea-d151c6fb650f"},"vehicle_type_id":"4","last_reported":1736273568,"current_range_meters":38800,"station_id":"ce4bgvp2rcd13ifvqcu0","pricing_plan_id":"cebpf4jnsgd1na2vs0mg"},{"bike_id":"1ef18e5f-6acf-4c4d-ba3a-8b6e0b65fd2b","system_id":"levelo_inurba_marseille","lat":43.29423,"lon":5.38623,"is_reserved":false,"is_disabled":false,"rental_uris":{"android":"levelo://app?vid=1ef18e5f-6acf-4c4d-ba3a-8b6e0b65fd2b","ios":"levelo://app?vid=1ef18e5f-6acf-4c4d-ba3a-8b6e0b65fd2b"},"vehicle_type_id":"4","last_reported":1736273568,"current_range_meters":39200,"station_id":"ce4bh2h2rcd13ifvqdh0","pricing_plan_id":"cebpf4jnsgd1na2vs0mg"},{"bike_id":"d704f0fd-27ed-49f5-b823-6db11240c9d1","system_id":"levelo_inurba_marseille","lat":43.310807,"lon":5.383587,"is_reserved":false,"is_disabled":true,"rental_uris":{"android":"levelo://app?vid=d704f0fd-27ed-49f5-b823-6db11240c9d1","ios":"levelo://app?vid=d704f0fd-27ed-49f5-b823-6db11240c9d1"},"vehicle_type_id":"4","last_reported":1736273568,"current_range_meters":0,"station_id":"ce4bgv92rcd13ifvqcr0","pricing_plan_id":"cebpf4jnsgd1na2vs0mg"},{"bike_id":"96897842-bf5c-49fd-a1a9-b462c0aebf11","system_id":"levelo_inurba_marseille","lat":43.28724,"lon":5.37951,"is_reserved":false,"is_disabled":false,"rental_uris":{"android":"levelo://app?vid=96897842-bf5c-49fd-a1a9-b462c0aebf11","ios":"levelo://app?vid=96897842-bf5c-49fd-a1a9-b462c0aebf11"},"vehicle_type_id":"4","last_reported":1736273568,"current_range_meters":38800,"station_id":"ce4bh9p2rcd13ifvqec0","pricing_plan_id":"cebpf4jnsgd1na2vs0mg"},{"bike_id":"aad4a535-b699-4598-8dc1-ecd244317ca1","system_id":"levelo_inurba_marseille","lat":43.23198,"lon":5.39966,"is_reserved":false,"is_disabled":false,"rental_uris":{"android":"levelo://app?vid=aad4a535-b699-4598-8dc1-ecd244317ca1","ios":"levelo://app?vid=aad4a535-b699-4598-8dc1-ecd244317ca1"},"vehicle_type_id":"4","last_reported":1736273568,"current_range_meters":8400,"station_id":"ce4bhn12rcd13ifvqgqg","pricing_plan_id":"cebpf4jnsgd1na2vs0mg"},{"bike_id":"c8d85fd6-0574-4450-8d8b-c4f78c874e02","system_id":"levelo_inurba_marseille","lat":43.28101,"lon":5.37845,"is_reserved":false,"is_disabled":false,"rental_uris":{"android":"levelo://app?vid=c8d85fd6-0574-4450-8d8b-c4f78c874e02","ios":"levelo://app?vid=c8d85fd6-0574-4450-8d8b-c4f78c874e02"},"vehicle_type_id":"4","last_reported":1736273568,"current_range_meters":26800,"station_id":"ce4bha12rcd13ifvqee0","pricing_plan_id":"cebpf4jnsgd1na2vs0mg"},{"bike_id":"97f20619-a150-4f4d-86ef-e272a6764007","system_id":"levelo_inurba_marseille","lat":43.30925,"lon":5.4015,"is_reserved":false,"is_disabled":false,"rental_uris":{"android":"levelo://app?vid=97f20619-a150-4f4d-86ef-e272a6764007","ios":"levelo://app?vid=97f20619-a150-4f4d-86ef-e272a6764007"},"vehicle_type_id":"4","last_reported":1736273568,"current_range_meters":9200,"station_id":"ce4bgvp2rcd13ifvqct0","pricing_plan_id":"cebpf4jnsgd1na2vs0mg"},{"bike_id":"28482e6f-ae8a-4886-bef1-8ce263870987","system_id":"levelo_inurba_marseille","lat":43.24804,"lon":5.37459,"is_reserved":false,"is_disabled":false,"rental_uris":{"android":"levelo://app?vid=28482e6f-ae8a-4886-bef1-8ce263870987","ios":"levelo://app?vid=28482e6f-ae8a-4886-bef1-8ce263870987"},"vehicle_type_id":"4","last_reported":1736273568,"current_range_meters":26800,"station_id":"ce4bhgh2rcd13ifvqfb0","pricing_plan_id":"cebpf4jnsgd1na2vs0mg"},{"bike_id":"2a75ae41-e300-40b0-b264-03221db0148f","system_id":"levelo_inurba_marseille","lat":43.30871,"lon":5.39602,"is_reserved":false,"is_disabled":false,"rental_uris":{"android":"levelo://app?vid=2a75ae41-e300-40b0-b264-03221db0148f","ios":"levelo://app?vid=2a75ae41-e300-40b0-b264-03221db0148f"},"vehicle_type_id":"4","last_reported":1736273568,"current_range_meters":38800,"station_id":"ce4bh012rcd13ifvqcv0","pricing_plan_id":"cebpf4jnsgd1na2vs0mg"},{"bike_id":"46a9ea14-704a-4553-9a12-95f212e6a1e6","system_id":"levelo_inurba_marseille","lat":43.29206,"lon":5.39335,"is_reserved":false,"is_disabled":false,"rental_uris":{"android":"levelo://app?vid=46a9ea14-704a-4553-9a12-95f212e6a1e6","ios":"levelo://app?vid=46a9ea14-704a-4553-9a12-95f212e6a1e6"},"vehicle_type_id":"4","last_reported":1736273568,"current_range_meters":22000,"station_id":"ce4bh192rcd13ifvqdd0","pricing_plan_id":"cebpf4jnsgd1na2vs0mg"},{"bike_id":"b210e670-04e4-4c2c-8f2a-43a3063e68eb","system_id":"levelo_inurba_marseille","lat":43.24004,"lon":5.37698,"is_reserved":false,"is_disabled":true,"rental_uris":{"android":"levelo://app?vid=b210e670-04e4-4c2c-8f2a-43a3063e68eb","ios":"levelo://app?vid=b210e670-04e4-4c2c-8f2a-43a3063e68eb"},"vehicle_type_id":"4","last_reported":1736273568,"current_range_meters":38000,"station_id":"","pricing_plan_id":"cebpf4jnsgd1na2vs0mg"},{"bike_id":"9f774c7f-5fb0-42c9-a788-72b08fc48690","system_id":"levelo_inurba_marseille","lat":43.25077,"lon":5.39504,"is_reserved":false,"is_disabled":true,"rental_uris":{"android":"levelo://app?vid=9f774c7f-5fb0-42c9-a788-72b08fc48690","ios":"levelo://app?vid=9f774c7f-5fb0-42c9-a788-72b08fc48690"},"vehicle_type_id":"4","last_reported":1736273568,"current_range_meters":800,"station_id":"ce4bhm12rcd13ifvqgkg","pricing_plan_id":"cebpf4jnsgd1na2vs0mg"},{"bike_id":"ecc8374c-b8cb-4853-8d6e-d7257dc123a6","system_id":"levelo_inurba_marseille","lat":43.296338,"lon":5.405995,"is_reserved":false,"is_disabled":true,"rental_uris":{"android":"levelo://app?vid=ecc8374c-b8cb-4853-8d6e-d7257dc123a6","ios":"levelo://app?vid=ecc8374c-b8cb-4853-8d6e-d7257dc123a6"},"vehicle_type_id":"4","last_reported":1736273568,"current_range_meters":0,"station_id":"ce4bh0h2rcd13ifvqd60","pricing_plan_id":"cebpf4jnsgd1na2vs0mg"},{"bike_id":"f781fd19-e79f-4ca4-8b7a-79aa2bab9d1e","system_id":"levelo_inurba_marseille","lat":43.29802,"lon":5.38114,"is_reserved":false,"is_disabled":false,"rental_uris":{"android":"levelo://app?vid=f781fd19-e79f-4ca4-8b7a-79aa2bab9d1e","ios":"levelo://app?vid=f781fd19-e79f-4ca4-8b7a-79aa2bab9d1e"},"vehicle_type_id":"4","last_reported":1736273568,"current_range_meters":8800,"station_id":"ce4bgip2rcd13ifvqbb0","pricing_plan_id":"cebpf4jnsgd1na2vs0mg"},{"bike_id":"676aa0ba-bff3-4634-b63b-31e6e47b9530","system_id":"levelo_inurba_marseille","lat":43.27631,"lon":5.36087,"is_reserved":false,"is_disabled":false,"rental_uris":{"android":"levelo://app?vid=676aa0ba-bff3-4634-b63b-31e6e47b9530","ios":"levelo://app?vid=676aa0ba-bff3-4634-b63b-31e6e47b9530"},"vehicle_type_id":"4","last_reported":1736273568,"current_range_meters":38800,"station_id":"ce4bgj92rcd13ifvqbe0","pricing_plan_id":"cebpf4jnsgd1na2vs0mg"},{"bike_id":"a8b6888e-d27e-40ac-990e-440f9348d454","system_id":"levelo_inurba_marseille","lat":43.28623,"lon":5.3507,"is_reserved":false,"is_disabled":true,"rental_uris":{"android":"levelo://app?vid=a8b6888e-d27e-40ac-990e-440f9348d454","ios":"levelo://app?vid=a8b6888e-d27e-40ac-990e-440f9348d454"},"vehicle_type_id":"4","last_reported":1736273568,"current_range_meters":1600,"station_id":"ce4bhch2rcd13ifvqeug","pricing_plan_id":"cebpf4jnsgd1na2vs0mg"},{"bike_id":"891b1386-0189-4da9-9c48-ffe4be0e1e4e","system_id":"levelo_inurba_marseille","lat":43.29054,"lon":5.37171,"is_reserved":false,"is_disabled":true,"rental_uris":{"android":"levelo://app?vid=891b1386-0189-4da9-9c48-ffe4be0e1e4e","ios":"levelo://app?vid=891b1386-0189-4da9-9c48-ffe4be0e1e4e"},"vehicle_type_id":"4","last_reported":1736273568,"current_range_meters":1200,"station_id":"ce4bh5p2rcd13ifvqe4g","pricing_plan_id":"cebpf4jnsgd1na2vs0mg"},{"bike_id":"b7f193ff-d9fe-43e0-bdc6-aff16c0c1376","system_id":"levelo_inurba_marseille","lat":43.26219,"lon":5.37445,"is_reserved":false,"is_disabled":false,"rental_uris":{"android":"levelo://app?vid=b7f193ff-d9fe-43e0-bdc6-aff16c0c1376","ios":"levelo://app?vid=b7f193ff-d9fe-43e0-bdc6-aff16c0c1376"},"vehicle_type_id":"4","last_reported":1736273568,"current_range_meters":33200,"station_id":"ce4bhgp2rcd13ifvqfc0","pricing_plan_id":"cebpf4jnsgd1na2vs0mg"},{"bike_id":"3f4e3fed-94f9-4b45-abb7-defd68c197ef","system_id":"levelo_inurba_marseille","lat":43.31319,"lon":5.39695,"is_reserved":false,"is_disabled":false,"rental_uris":{"android":"levelo://app?vid=3f4e3fed-94f9-4b45-abb7-defd68c197ef","ios":"levelo://app?vid=3f4e3fed-94f9-4b45-abb7-defd68c197ef"},"vehicle_type_id":"4","last_reported":1736273568,"current_range_meters":30800,"station_id":"ce4bgvp2rcd13ifvqcu0","pricing_plan_id":"cebpf4jnsgd1na2vs0mg"},{"bike_id":"06e93156-cf81-4c1b-914d-07721391dcff","system_id":"levelo_inurba_marseille","lat":43.300756,"lon":5.372922,"is_reserved":false,"is_disabled":false,"rental_uris":{"android":"levelo://app?vid=06e93156-cf81-4c1b-914d-07721391dcff","ios":"levelo://app?vid=06e93156-cf81-4c1b-914d-07721391dcff"},"vehicle_type_id":"4","last_reported":1736273568,"current_range_meters":22400,"station_id":"","pricing_plan_id":"cebpf4jnsgd1na2vs0mg"},{"bike_id":"c1b43e9f-cc91-4a6e-ab09-c797dfdc71e9","system_id":"levelo_inurba_marseille","lat":43.32349,"lon":5.38881,"is_reserved":false,"is_disabled":false,"rental_uris":{"android":"levelo://app?vid=c1b43e9f-cc91-4a6e-ab09-c797dfdc71e9","ios":"levelo://app?vid=c1b43e9f-cc91-4a6e-ab09-c797dfdc71e9"},"vehicle_type_id":"4","last_reported":1736273568,"current_range_meters":16000,"station_id":"ce4bhqp2rcd13ifvqhog","pricing_plan_id":"cebpf4jnsgd1na2vs0mg"},{"bike_id":"4dfe5d0d-f5c4-41db-bd06-de28b994dfc7","system_id":"levelo_inurba_marseille","lat":43.29704,"lon":5.3661,"is_reserved":false,"is_disabled":false,"rental_uris":{"android":"levelo://app?vid=4dfe5d0d-f5c4-41db-bd06-de28b994dfc7","ios":"levelo://app?vid=4dfe5d0d-f5c4-41db-bd06-de28b994dfc7"},"vehicle_type_id":"4","last_reported":1736273568,"current_range_meters":37600,"station_id":"ce4bgn12rcd13ifvqbt0","pricing_plan_id":"cebpf4jnsgd1na2vs0mg"},{"bike_id":"10521409-9484-42b3-9a53-a1a219d9413a","system_id":"levelo_inurba_marseille","lat":43.30887,"lon":5.39666,"is_reserved":false,"is_disabled":false,"rental_uris":{"android":"levelo://app?vid=10521409-9484-42b3-9a53-a1a219d9413a","ios":"levelo://app?vid=10521409-9484-42b3-9a53-a1a219d9413a"},"vehicle_type_id":"4","last_reported":1736273568,"current_range_meters":22400,"station_id":"ce4bh012rcd13ifvqcv0","pricing_plan_id":"cebpf4jnsgd1na2vs0mg"},{"bike_id":"390fabc0-1988-4707-88cb-f7876c15b1ca","system_id":"levelo_inurba_marseille","lat":43.2411,"lon":5.37731,"is_reserved":false,"is_disabled":true,"rental_uris":{"android":"levelo://app?vid=390fabc0-1988-4707-88cb-f7876c15b1ca","ios":"levelo://app?vid=390fabc0-1988-4707-88cb-f7876c15b1ca"},"vehicle_type_id":"4","last_reported":1736273568,"current_range_meters":16000,"station_id":"ce4bhnp2rcd13ifvqgvg","pricing_plan_id":"cebpf4jnsgd1na2vs0mg"},{"bike_id":"4a1c45d8-f616-45eb-a892-c93560e96620","system_id":"levelo_inurba_marseille","lat":43.2873,"lon":5.37961,"is_reserved":false,"is_disabled":false,"rental_uris":{"android":"levelo://app?vid=4a1c45d8-f616-45eb-a892-c93560e96620","ios":"levelo://app?vid=4a1c45d8-f616-45eb-a892-c93560e96620"},"vehicle_type_id":"4","last_reported":1736273568,"current_range_meters":11200,"station_id":"ce4bh9p2rcd13ifvqec0","pricing_plan_id":"cebpf4jnsgd1na2vs0mg"},