{"last_updated":1743520267,"ttl":60,"version":"2.2","data":{"bikes":[{"bike_id":"b6ed5f79-80e9-42ba-b74c-7b0efe09f09b","system_id":"levelo_inurba_marseille","lat":43.2293,"lon":5.35378,"is_reserved":false,"is_disabled":false,"rental_uris":{"android":"levelo://app?vid=b6ed5f79-80e9-42ba-b74c-7b0efe09f09b","ios":"levelo://app?vid=b6ed5f79-80e9-42ba-b74c-7b0efe09f09b"},"vehicle_type_id":"4","last_reported":1743520267,"current_range_meters":2800,"station_id":"cpo3532slgdg3j2ikp40","pricing_plan_id":"cebpf4jnsgd1na2vs0mg"},{"bike_id":"602edb72-ab27-4911-866f-bc6b0ed94ca8","system_id":"levelo_inurba_marseille","lat":43.24176,"lon":5.39715,"is_reserved":false,"is_disabled":false,"rental_uris":{"android":"levelo://app?vid=602edb72-ab27-4911-866f-bc6b0ed94ca8","ios":"levelo://app?vid=602edb72-ab27-4911-866f-bc6b0ed94ca8"},"vehicle_type_id":"4","last_reported":1743520267,"current_range_meters":2800,"station_id":"ce4bhn12rcd13ifvqgpg","pricing_plan_id":"cebpf4jnsgd1na2vs0mg"},{"bike_id":"65dd1d96-f80d-44e9-8a66-4e3954d57e48","system_id":"levelo_inurba_marseille","lat":43.24547,"lon":5.3732,"is_reserved":false,"is_disabled":false,"rental_uris":{"android":"levelo://app?vid=65dd1d96-f80d-44e9-8a66-4e3954d57e48","ios":"levelo://app?vid=65dd1d96-f80d-44e9-8a66-4e3954d57e48"},"vehicle_type_id":"4","last_reported":1743520267,"current_range_meters":2800,"station_id":"","pricing_plan_id":"cebpf4jnsgd1na2vs0mg"},{"bike_id":"4644cefd-c3fa-441e-9df3-f30d29e70c6a","system_id":"levelo_inurba_marseille","lat":43.30166,"lon":5.37411,"is_reserved":false,"is_disabled":false,"rental_uris":{"android":"levelo://app?vid=4644cefd-c3fa-441e-9df3-f30d29e70c6a","ios":"levelo://app?vid=4644cefd-c3fa-441e-9df3-f30d29e70c6a"},"vehicle_type_id":"4","last_reported":1743520267,"current_range_meters":2800,"station_id":"ce4bgs92rcd13ifvqcc0","pricing_plan_id":"cebpf4jnsgd1na2vs0mg"},{"bike_id":"330b5351-6d84-4604-bcc1-e04d25148677","system_id":"levelo_inurba_marseille","lat":43.296172,"lon":5.365177,"is_reserved":false,"is_disabled":false,"rental_uris":{"android":"levelo://app?vid=330b5351-6d84-4604-bcc1-e04d25148677","ios":"levelo://app?vid=330b5351-6d84-4604-bcc1-e04d25148677"},"vehicle_type_id":"4","last_reported":1743520267,"current_range_meters":2800,"station_id":"","pricing_plan_id":"cebpf4jnsgd1na2vs0mg"},{"bike_id":"0a198629-436d-45e3-b29f-f2c3bbcc0a19","system_id":"levelo_inurba_marseille","lat":43.31476,"lon":5.37303,"is_reserved":false,"is_disabled":false,"rental_uris":{"android":"levelo://app?vid=0a198629-436d-45e3-b29f-f2c3bbcc0a19","ios":"levelo://app?vid=0a198629-436d-45e3-b29f-f2c3bbcc0a19"},"vehicle_type_id":"4","last_reported":1743520267,"current_range_meters":3200,"station_id":"ce4bgt12rcd13ifvqcd0","pricing_plan_id":"cebpf4jnsgd1na2vs0mg"},{"bike_id":"ff5094e4-3cc7-4ca2-ae00-1dadc76387e6","system_id":"levelo_inurba_marseille","lat":43.24179,"lon":5.39729,"is_reserved":false,"is_disabled":false,"rental_uris":{"android":"levelo://app?vid=ff5094e4-3cc7-4ca2-ae00-1dadc76387e6","ios":"levelo://app?vid=ff5094e4-3cc7-4ca2-ae00-1dadc76387e6"},"vehicle_type_id":"4","last_reported":1743520267,"current_range_meters":3200,"station_id":"ce4bhn12rcd13ifvqgpg","pricing_plan_id":"cebpf4jnsgd1na2vs0mg"},{"bike_id":"be419e64-80d3-4770-b966-58654e701550","system_id":"levelo_inurba_marseille","lat":43.296698,"lon":5.387049,"is_reserved":false,"is_disabled":false,"rental_uris":{"android":"levelo://app?vid=be419e64-80d3-4770-b966-58654e701550","ios":"levelo://app?vid=be419e64-80d3-4770-b966-58654e701550"},"vehicle_type_id":"4","last_reported":1743520267,"current_range_meters":3200,"station_id":"ce4bgt92rcd13ifvqcg0","pricing_plan_id":"cebpf4jnsgd1na2vs0mg"},{"bike_id":"8cec7a90-a2f7-4330-95d5-bf73501dc6d4","system_id":"levelo_inurba_marseille","lat":43.29582,"lon":5.37513,"is_reserved":false,"is_disabled":false,"rental_uris":{"android":"levelo://app?vid=8cec7a90-a2f7-4330-95d5-bf73501dc6d4","ios":"levelo://app?vid=8cec7a90-a2f7-4330-95d5-bf73501dc6d4"},"vehicle_type_id":"4","last_reported":1743520267,"current_range_meters":3200,"station_id":"ce4bgh92rcd13ifvqb50","pricing_plan_id":"cebpf4jnsgd1na2vs0mg"},{"bike_id":"5d97d346-0dd7-4dd0-ab3d-190043490ddc","system_id":"levelo_inurba_marseille","lat":43.24665,"lon":5.38156,"is_reserved":false,"is_disabled":false,"rental_uris":{"android":"levelo://app?vid=5d97d346-0dd7-4dd0-ab3d-190043490ddc","ios":"levelo://app?vid=5d97d346-0dd7-4dd0-ab3d-190043490ddc"},"vehicle_type_id":"4","last_reported":1743520267,"current_range_meters":3200,"station_id":"ce4bhih2rcd13ifvqfr0","pricing_plan_id":"cebpf4jnsgd1na2vs0mg"},{"bike_id":"2bf31f9f-c5c0-434c-ab3b-b017d7dc966d","system_id":"levelo_inurba_marseille","lat":43.230538,"lon":5.354983,"is_reserved":false,"is_disabled":false,"rental_uris":{"android":"levelo://app?vid=2bf31f9f-c5c0-434c-ab3b-b017d7dc966d","ios":"levelo://app?vid=2bf31f9f-c5c0-434c-ab3b-b017d7dc966d"},"vehicle_type_id":"4","last_reported":1743520267,"current_range_meters":3200,"station_id":"cpo3342slgdg3j2ifvpg","pricing_plan_id":"cebpf4jnsgd1na2vs0mg"},{"bike_id":"1b46db70-e39c-4ab1-ba90-b97fb73c7c13","system_id":"levelo_inurba_marseille","lat":43.2737,"lon":5.36255,"is_reserved":false,"is_disabled":false,"rental_uris":{"android":"levelo://app?vid=1b46db70-e39c-4ab1-ba90-b97fb73c7c13","ios":"levelo://app?vid=1b46db70-e39c-4ab1-ba90-b97fb73c7c13"},"vehicle_type_id":"4","last_reported":1743520267,"current_range_meters":3200,"station_id":"ce4bhbh2rcd13ifvqeo0","pricing_plan_id":"cebpf4jnsgd1na2vs0mg"},{"bike_id":"3bb5642f-70be-40a6-b5ae-ca6868a03a8c","system_id":"levelo_inurba_marseille","lat":43.29258,"lon":5.37627,"is_reserved":false,"is_disabled":false,"rental_uris":{"android":"levelo://app?vid=3bb5642f-70be-40a6-b5ae-ca6868a03a8c","ios":"levelo://app?vid=3bb5642f-70be-40a6-b5ae-ca6868a03a8c"},"vehicle_type_id":"4","last_reported":1743520267,"current_range_meters":3200,"station_id":"ce4bgi12rcd13ifvqb80","pricing_plan_id":"cebpf4jnsgd1na2vs0mg"},{"bike_id":"88157338-7fb0-4399-bb57-79c881bdf07f","system_id":"levelo_inurba_marseille","lat":43.2721,"lon":5.39178,"is_reserved":false,"is_disabled":false,"rental_uris":{"android":"levelo://app?vid=88157338-7fb0-4399-bb57-79c881bdf07f","ios":"levelo://app?vid=88157338-7fb0-4399-bb57-79c881bdf07f"},"vehicle_type_id":"4","last_reported":1743520267,"current_range_meters":3600,"station_id":"ce4bhhp2rcd13ifvqfm0","pricing_plan_id":"cebpf4jnsgd1na2vs0mg"},{"bike_id":"c9a4bd97-3141-497b-b986-de9ad448a1a1","system_id":"levelo_inurba_marseille","lat":43.32842,"lon":5.39154,"is_reserved":false,"is_disabled":false,"rental_uris":{"android":"levelo://app?vid=c9a4bd97-3141-497b-b986-de9ad448a1a1","ios":"levelo://app?vid=c9a4bd97-3141-497b-b986-de9ad448a1a1"},"vehicle_type_id":"4","last_reported":1743520267,"current_range_meters":3600,"station_id":"","pricing_plan_id":"cebpf4jnsgd1na2vs0mg"},{"bike_id":"6d2ee296-fb02-427b-a018-386c7ad6095e","system_id":"levelo_inurba_marseille","lat":43.29521,"lon":5.39022,"is_reserved":false,"is_disabled":false,"rental_uris":{"android":"levelo://app?vid=6d2ee296-fb02-427b-a018-386c7ad6095e","ios":"levelo://app?vid=6d2ee296-fb02-427b-a018-386c7ad6095e"},"vehicle_type_id":"4","last_reported":1743520267,"current_range_meters":3600,"station_id":"ce4bh3p2rcd13ifvqdp0","pricing_plan_id":"cebpf4jnsgd1na2vs0mg"},{"bike_id":"1d88f4a3-9fba-48c8-a6c8-77657445585d","system_id":"levelo_inurba_marseille","lat":43.29905,"lon":5.43665,"is_reserved":false,"is_disabled":false,"rental_uris":{"android":"levelo://app?vid=1d88f4a3-9fba-48c8-a6c8-77657445585d","ios":"levelo://app?vid=1d88f4a3-9fba-48c8-a6c8-77657445585d"},"vehicle_type_id":"4","last_reported":1743520267,"current_range_meters":3600,"station_id":"ce4bhpp2rcd13ifvqhfg","pricing_plan_id":"cebpf4jnsgd1na2vs0mg"},{"bike_id":"21e754eb-444a-4618-aaa3-a0438a8ddbb0","system_id":"levelo_inurba_marseille","lat":43.251148,"lon":5.403119,"is_reserved":false,"is_disabled":false,"rental_uris":{"android":"levelo://app?vid=21e754eb-444a-4618-aaa3-a0438a8ddbb0","ios":"levelo://app?vid=21e754eb-444a-4618-aaa3-a0438a8ddbb0"},"vehicle_type_id":"4","last_reported":1743520267,"current_range_meters":3600,"station_id":"ce4bhlh2rcd13ifvqgig","pricing_plan_id":"cebpf4jnsgd1na2vs0mg"},{"bike_id":"dd2597f4-45c1-4124-9abe-507b28ca78c4","system_id":"levelo_inurba_marseille","lat":43.287128,"lon":5.379354,"is_reserved":false,"is_disabled":false,"rental_uris":{"android":"levelo://app?vid=dd2597f4-45c1-4124-9abe-507b28ca78c4","ios":"levelo://app?vid=dd2597f4-45c1-4124-9abe-507b28ca78c4"},"vehicle_type_id":"4","last_reported":1743520267,"current_range_meters":4000,"station_id":"ce4bh9p2rcd13ifvqec0","pricing_plan_id":"cebpf4jnsgd1na2vs0mg"},{"bike_id":"6395107a-4ef3-4397-b43c-dfdcfa092a71","system_id":"levelo_inurba_marseille","lat":43.29537,"lon":5.38543,"is_reserved":false,"is_disabled":false,"rental_uris":{"android":"levelo://app?vid=6395107a-4ef3-4397-b43c-dfdcfa092a71","ios":"levelo://app?vid=6395107a-4ef3-4397-b43c-dfdcfa092a71"},"vehicle_type_id":"4","last_reported":1743520267,"current_range_meters":4000,"station_id":"ce4bgih2rcd13ifvqba0","pricing_plan_id":"cebpf4jnsgd1na2vs0mg"},{"bike_id":"2e7516d6-cfda-4430-b5f7-a51811e1dba5","system_id":"levelo_inurba_marseille","lat":43.30605,"lon":5.39361,"is_reserved":false,"is_disabled":false,"rental_uris":{"android":"levelo://app?vid=2e7516d6-cfda-4430-b5f7-a51811e1dba5","ios":"levelo://app?vid=2e7516d6-cfda-4430-b5f7-a51811e1dba5"},"vehicle_type_id":"4","last_reported":1743520267,"current_range_meters":4400,"station_id":"ce4bh0p2rcd13ifvqd80","pricing_plan_id":"cebpf4jnsgd1na2vs0mg"},{"bike_id":"4b39ecf5-38cb-408b-8823-098d0675bdef","system_id":"levelo_inurba_marseille","lat":43.29512,"lon":5.3902,"is_reserved":false,"is_disabled":false,"rental_uris":{"android":"levelo://app?vid=4b39ecf5-38cb-408b-8823-098d0675bdef","ios":"levelo://app?vid=4b39ecf5-38cb-408b-8823-098d0675bdef"},"vehicle_type_id":"4","last_reported":1743520267,"current_range_meters":4800,"station_id":"ce4bh3p2rcd13ifvqdp0","pricing_plan_id":"cebpf4jnsgd1na2vs0mg"},{"bike_id":"af3cfe8c-ba88-488e-950b-915dc1379ac0","system_id":"levelo_inurba_marseille","lat":43.2737,"lon":5.3624,"is_reserved":false,"is_disabled":false,"rental_uris":{"android":"levelo://app?vid=af3cfe8c-ba88-488e-950b-915dc1379ac0","ios":"levelo://app?vid=af3cfe8c-ba88-488e-950b-915dc1379ac0"},"vehicle_type_id":"4","last_reported":1743520267,"current_range_meters":4800,"station_id":"ce4bhbh2rcd13ifvqeo0","pricing_plan_id":"cebpf4jnsgd1na2vs0mg"},{"bike_id":"f50dd1be-9ee4-480d-920f-0721f0997798","system_id":"levelo_inurba_marseille","lat":43.23193,"lon":5.3997,"is_reserved":false,"is_disabled":false,"rental_uris":{"android":"levelo://app?vid=f50dd1be-9ee4-480d-920f-0721f0997798","ios":"levelo://app?vid=f50dd1be-9ee4-480d-920f-0721f0997798"},"vehicle_type_id":"4","last_reported":1743520267,"current_range_meters":5600,"station_id":"ce4bhn12rcd13ifvqgqg","pricing_plan_id":"cebpf4jnsgd1na2vs0mg"},{"bike_id":"3da0e3cb-139a-44da-8203-1e769ca99208","system_id":"levelo_inurba_marseille","lat":43.27213,"lon":5.39183,"is_reserved":false,"is_disabled":false,"rental_uris":{"android":"levelo://app?vid=3da0e3cb-139a-44da-8203-1e769ca99208","ios":"levelo://app?vid=3da0e3cb-139a-44da-8203-1e769ca99208"},"vehicle_type_id":"4","last_reported":1743520267,"current_range_meters":4800,"station_id":"ce4bhhp2rcd13ifvqfm0","pricing_plan_id":"cebpf4jnsgd1na2vs0mg"},{"bike_id":"35a32384-1331-4344-87ec-7e385e28caed","system_id":"levelo_inurba_marseille","lat":43.33723,"lon":5.39181,"is_reserved":false,"is_disabled":false,"rental_uris":{"android":"levelo://app?vid=35a32384-1331-4344-87ec-7e385e28caed","ios":"levelo://app?vid=35a32384-1331-4344-87ec-7e385e28caed"},"vehicle_type_id":"4","last_reported":1743520267,"current_range_meters":5600,"station_id":"ce4bhr92rcd13ifvqhsg","pricing_plan_id":"cebpf4jnsgd1na2vs0mg"},{"bike_id":"077644b2-5122-4e42-9403-fd4b79f81841","system_id":"levelo_inurba_marseille","lat":43.23063,"lon":5.35493,"is_reserved":false,"is_disabled":false,"rental_uris":{"android":"levelo://app?vid=077644b2-5122-4e42-9403-fd4b79f81841","ios":"levelo://app?vid=077644b2-5122-4e42-9403-fd4b79f81841"},"vehicle_type_id":"4","last_reported":1743520267,"current_range_meters":5600,"station_id":"cpo3342slgdg3j2ifvpg","pricing_plan_id":"cebpf4jnsgd1na2vs0mg"},{"bike_id":"791f8b6d-c7b8-43a3-af53-554de4edbd8b","system_id":"levelo_inurba_marseille","lat":43.27057,"lon":5.40288,"is_reserved":false,"is_disabled":false,"rental_uris":{"android":"levelo://app?vid=791f8b6d-c7b8-43a3-af53-554de4edbd8b","ios":"levelo://app?vid=791f8b6d-c7b8-43a3-af53-554de4edbd8b"},"vehicle_type_id":"4","last_reported":1743520267,"current_range_meters":6000,"station_id":"ce4bhk92rcd13ifvqgc0","pricing_plan_id":"cebpf4jnsgd1na2vs0mg"},{"bike_id":"0c40db3f-32b6-4ea9-9b45-f4c085819df2","system_id":"levelo_inurba_marseille","lat":43.28345,"lon":5.38907,"is_reserved":false,"is_disabled":false,"rental_uris":{"android":"levelo://app?vid=0c40db3f-32b6-4ea9-9b45-f4c085819df2","ios":"levelo://app?vid=0c40db3f-32b6-4ea9-9b45-f4c085819df2"},"vehicle_type_id":"4","last_reported":1743520267,"current_range_meters":6000,"station_id":"","pricing_plan_id":"cebpf4jnsgd1na2vs0mg"},{"bike_id":"92c0d24c-ba56-42e7-a951-eb399f2ef400","system_id":"levelo_inurba_marseille","lat":43.29977,"lon":5.38492,"is_reserved":false,"is_disabled":false,"rental_uris":{"android":"levelo://app?vid=92c0d24c-ba56-42e7-a951-eb399f2ef400","ios":"levelo://app?vid=92c0d24c-ba56-42e7-a951-eb399f2ef400"},"vehicle_type_id":"4","last_reported":1743520267,"current_range_meters":6000,"station_id":"ce4bgj92rcd13ifvqbd0","pricing_plan_id":"cebpf4jnsgd1na2vs0mg"},{"bike_id":"1742e7d2-1423-4f2e-885b-116645f297b5","system_id":"levelo_inurba_marseille","lat":43.28623,"lon":5.351,"is_reserved":false,"is_disabled":false,"rental_uris":{"android":"levelo://app?vid=1742e7d2-1423-4f2e-885b-116645f297b5","ios":"levelo://app?vid=1742e7d2-1423-4f2e-885b-116645f297b5"},"vehicle_type_id":"4","last_reported":1743520267,"current_range_meters":6000,"station_id":"ce4bhch2rcd13ifvqeug","pricing_plan_id":"cebpf4jnsgd1na2vs0mg"},{"bike_id":"de0dd6e1-3f23-47a8-8956-9311eca0da6d","system_id":"levelo_inurba_marseille","lat":43.29723,"lon":5.37681,"is_reserved":false,"is_disabled":false,"rental_uris":{"android":"levelo://app?vid=de0dd6e1-3f23-47a8-8956-9311eca0da6d","ios":"levelo://app?vid=de0dd6e1-3f23-47a8-8956-9311eca0da6d"},"vehicle_type_id":"4","last_reported":1743520267,"current_range_meters":6000,"station_id":"ce4bgkh2rcd13ifvqbl0","pricing_plan_id":"cebpf4jnsgd1na2vs0mg"},{"bike_id":"677bdce1-f69d-4c38-be4e-26f42056c336","system_id":"levelo_inurba_marseille","lat":43.2971,"lon":5.37695,"is_reserved":false,"is_disabled":false,"rental_uris":{"android":"levelo://app?vid=677bdce1-f69d-4c38-be4e-26f42056c336","ios":"levelo://app?vid=677bdce1-f69d-4c38-be4e-26f42056c336"},"vehicle_type_id":"4","last_reported":1743520267,"current_range_meters":6000,"station_id":"ce4bgkh2rcd13ifvqbl0","pricing_plan_id":"cebpf4jnsgd1na2vs0mg"},{"bike_id":"7436ac52-c75b-4673-adea-3d64503cb4e7","system_id":"levelo_inurba_marseille","lat":43.251208,"lon":5.403295,"is_reserved":false,"is_disabled":false,"rental_uris":{"android":"levelo://app?vid=7436ac52-c75b-4673-adea-3d64503cb4e7","ios":"levelo://app?vid=7436ac52-c75b-4673-adea-3d64503cb4e7"},"vehicle_type_id":"4","last_reported":1743520267,"current_range_meters":6000,"station_id":"ce4bhlh2rcd13ifvqgig","pricing_plan_id":"cebpf4jnsgd1na2vs0mg"},{"bike_id":"f2828d04-cd94-438d-95e4-5e875fbcece0","system_id":"levelo_inurba_marseille","lat":43.29637,"lon":5.40599,"is_reserved":false,"is_disabled":false,"rental_uris":{"android":"levelo://app?vid=f2828d04-cd94-438d-95e4-5e875fbcece0","ios":"levelo://app?vid=f2828d04-cd94-438d-95e4-5e875fbcece0"},"vehicle_type_id":"4","last_reported":1743520267,"current_range_meters":5600,"station_id":"ce4bh0h2rcd13ifvqd60","pricing_plan_id":"cebpf4jnsgd1na2vs0mg"},{"bike_id":"3535136f-f4e3-497a-a19b-30057f8faa85","system_id":"levelo_inurba_marseille","lat":43.28442,"lon":5.39219,"is_reserved":false,"is_disabled":false,"rental_uris":{"android":"levelo://app?vid=3535136f-f4e3-497a-a19b-30057f8faa85","ios":"levelo://app?vid=3535136f-f4e3-497a-a19b-30057f8faa85"},"vehicle_type_id":"4","last_reported":1743520267,"current_range_meters":6000,"station_id":"ce4bhoh2rcd13ifvqh5g","pricing_plan_id":"cebpf4jnsgd1na2vs0mg"},{"bike_id":"121010d1-d0ea-475b-97a6-f9054736109c","system_id":"levelo_inurba_marseille","lat":43.23192,"lon":5.39985,"is_reserved":false,"is_disabled":false,"rental_uris":{"android":"levelo://app?vid=121010d1-d0ea-475b-97a6-f9054736109c","ios":"levelo://app?vid=121010d1-d0ea-475b-97a6-f9054736109c"},"vehicle_type_id":"4","last_reported":1743520267,"current_range_meters":6400,"station_id":"ce4bhn12rcd13ifvqgqg","pricing_plan_id":"cebpf4jnsgd1na2vs0mg"},{"bike_id":"175dfad3-e697-4eca-8343-8dd00d59fa41","system_id":"levelo_inurba_marseille","lat":43.26553,"lon":5.37282,"is_reserved":false,"is_disabled":false,"rental_uris":{"android":"levelo://app?vid=175dfad3-e697-4eca-8343-8dd00d59fa41","ios":"levelo://app?vid=175dfad3-e697-4eca-8343-8dd00d59fa41"},"vehicle_type_id":"4","last_reported":1743520267,"current_range_meters":6400,"station_id":"ce4bhg12rcd13ifvqf70","pricing_plan_id":"cebpf4jnsgd1na2vs0mg"},{"bike_id":"8410e920-904d-4a2a-9a14-ab8aa02d7a5b","system_id":"levelo_inurba_marseille","lat":43.24655,"lon":5.38887,"is_reserved":false,"is_disabled":false,"rental_uris":{"android":"levelo://app?vid=8410e920-904d-4a2a-9a14-ab8aa02d7a5b","ios":"levelo://app?vid=8410e920-904d-4a2a-9a14-ab8aa02d7a5b"},"vehicle_type_id":"4","last_reported":1743520267,"current_range_meters":6000,"station_id":"ce4bhg12rcd13ifvqf60","pricing_plan_id":"cebpf4jnsgd1na2vs0mg"},{"bike_id":"213abfbf-21b0-44f5-97e8-6852134cfd92","system_id":"levelo_inurba_marseille","lat":43.2989,"lon":5.38901,"is_reserved":false,"is_disabled":false,"rental_uris":{"android":"levelo://app?vid=213abfbf-21b0-44f5-97e8-6852134cfd92","ios":"levelo://app?vid=213abfbf-21b0-44f5-97e8-6852134cfd92"},"vehicle_type_id":"4","last_reported":1743520267,"current_range_meters":6400,"station_id":"ce4bh392rcd13ifvqdl0","pricing_plan_id":"cebpf4jnsgd1na2vs0mg"},{"bike_id":"350e4add-5173-4caf-add0-ebf12cef2a43","system_id":"levelo_inurba_marseille","lat":43.25586,"lon":5.38224,"is_reserved":false,"is_disabled":false,"rental_uris":{"android":"levelo://app?vid=350e4add-5173-4caf-add0-ebf12cef2a43","ios":"levelo://app?vid=350e4add-5173-4caf-add0-ebf12cef2a43"},"vehicle_type_id":"4","last_reported":1743520267,"current_range_meters":6400,"station_id":"ce4bhih2rcd13ifvqfs0","pricing_plan_id":"cebpf4jnsgd1na2vs0mg"},{"bike_id":"4f6db61e-8293-4a0d-bb9c-f9aae02e4996","system_id":"levelo_inurba_marseille","lat":43.25097,"lon":5.3948,"is_reserved":false,"is_disabled":false,"rental_uris":{"android":"levelo://app?vid=4f6db61e-8293-4a0d-bb9c-f9aae02e4996","ios":"levelo://app?vid=4f6db61e-8293-4a0d-bb9c-f9aae02e4996"},"vehicle_type_id":"4","last_reported":1743520267,"current_range_meters":6400,"station_id":"ce4bhm12rcd13ifvqgkg","pricing_plan_id":"cebpf4jnsgd1na2vs0mg"},{"bike_id":"5b7c0ed3-537f-41b2-89e8-32bbb93b57da","system_id":"levelo_inurba_marseille","lat":43.29536,"lon":5.39022,"is_reserved":false,"is_disabled":false,"rental_uris":{"android":"levelo://app?vid=5b7c0ed3-537f-41b2-89e8-32bbb93b57da","ios":"levelo://app?vid=5b7c0ed3-537f-41b2-89e8-32bbb93b57da"},"vehicle_type_id":"4","last_reported":1743520267,"current_range_meters":6400,"station_id":"ce4bh3p2rcd13ifvqdp0","pricing_plan_id":"cebpf4jnsgd1na2vs0mg"},{"bike_id":"71abf240-c8c4-4434-92de-b10f1d57efd4","system_id":"levelo_inurba_marseille","lat":43.26057,"lon":5.39395,"is_reserved":false,"is_disabled":false,"rental_uris":{"android":"levelo://app?vid=71abf240-c8c4-4434-92de-b10f1d57efd4","ios":"levelo://app?vid=71abf240-c8c4-4434-92de-b10f1d57efd4"},"vehicle_type_id":"4","last_reported":1743520267,"current_range_meters":6800,"station_id":"ce4bhh92rcd13ifvqfj0","pricing_plan_id":"cebpf4jnsgd1na2vs0mg"},{"bike_id":"1886761a-d428-4c75-8156-0f40c5c89d00","system_id":"levelo_inurba_marseille","lat":43.30142,"lon":5.398549,"is_reserved":false,"is_disabled":false,"rental_uris":{"android":"levelo://app?vid=1886761a-d428-4c75-8156-0f40c5c89d00","ios":"levelo://app?vid=1886761a-d428-4c75-8156-0f40c5c89d00"},"vehicle_type_id":"4","last_reported":1743520267,"current_range_meters":6800,"station_id":"ce4bh0h2rcd13ifvqd40","pricing_plan_id":"cebpf4jnsgd1na2vs0mg"},{"bike_id":"23a2997f-acca-44d1-a72c-cccdd94a796c","system_id":"levelo_inurba_marseille","lat":43.30907,"lon":5.40134,"is_reserved":false,"is_disabled":true,"rental_uris":{"android":"levelo://app?vid=23a2997f-acca-44d1-a72c-cccdd94a796c","ios":"levelo://app?vid=23a2997f-acca-44d1-a72c-cccdd94a796c"},"vehicle_type_id":"4","last_reported":1743520267,"current_range_meters":6800,"station_id":"ce4bgvp2rcd13ifvqct0","pricing_plan_id":"cebpf4jnsgd1na2vs0mg"},{"bike_id":"2e8d8654-23f7-434b-a09e-ae1e8d2abb71","system_id":"levelo_inurba_marseille","lat":43.251,"lon":5.3946,"is_reserved":false,"is_disabled":false,"rental_uris":{"android":"levelo://app?vid=2e8d8654-23f7-434b-a09e-ae1e8d2abb71","ios":"levelo://app?vid=2e8d8654-23f7-434b-a09e-ae1e8d2abb71"},"vehicle_type_id":"4","last_reported":1743520267,"current_range_meters":6800,"station_id":"ce4bhm12rcd13ifvqgkg","pricing_plan_id":"cebpf4jnsgd1na2vs0mg"},{"bike_id":"c2f6f228-5fc3-4e7f-b378-e511b97611d4","system_id":"levelo_inurba_marseille","lat":43.29421,"lon":5.3862,"is_reserved":false,"is_disabled":false,"rental_uris":{"android":"levelo://app?vid=c2f6f228-5fc3-4e7f-b378-e511b97611d4","ios":"levelo://app?vid=c2f6f228-5fc3-4e7f-b378-e511b97611d4"},"vehicle_type_id":"4","last_reported":1743520267,"current_range_meters":6800,"station_id":"ce4bh2h2rcd13ifvqdh0","pricing_plan_id":"cebpf4jnsgd1na2vs0mg"},{"bike_id":"2b928875-0c63-4cf2-8120-822516cb31b7","system_id":"levelo_inurba_marseille","lat":43.241814,"lon":5.376396,"is_reserved":false,"is_disabled":false,"rental_uris":{"android":"levelo://app?vid=2b928875-0c63-4cf2-8120-822516cb31b7","ios":"levelo://app?vid=2b928875-0c63-4cf2-8120-822516cb31b7"},"vehicle_type_id":"4","last_reported":1743520267,"current_range_meters":6400,"station_id":"ce4bhi12rcd13ifvqfp0","pricing_plan_id":"cebpf4jnsgd1na2vs0mg"},{"bike_id":"a4daa26c-9954-4668-a82e-c1c6aaf6d8a5","system_id":"levelo_inurba_marseille","lat":43.291009,"lon":5.381368,"is_reserved":false,"is_disabled":false,"rental_uris":{"android":"levelo://app?vid=a4daa26c-9954-4668-a82e-c1c6aaf6d8a5","ios":"levelo://app?vid=a4daa26c-9954-4668-a82e-c1c6aaf6d8a5"},"vehicle_type_id":"4","last_reported":1743520267,"current_range_meters":6800,"station_id":"ce4bgjh2rcd13ifvqbf0","pricing_plan_id":"cebpf4jnsgd1na2vs0mg"},{"bike_id":"e0c838b6-37f5-4b4f-bb89-487a0ae7ca4a","system_id":"levelo_inurba_marseille","lat":43.30734,"lon":5.42437,"is_reserved":false,"is_disabled":false,"rental_uris":{"android":"levelo://app?vid=e0c838b6-37f5-4b4f-bb89-487a0ae7ca4a","ios":"levelo://app?vid=e0c838b6-37f5-4b4f-bb89-487a0ae7ca4a"},"vehicle_type_id":"4","last_reported":1743520267,"current_range_meters":6800,"station_id":"st_cvj6ca6bvosntc0bfgr0","pricing_plan_id":"cebpf4jnsgd1na2vs0mg"},{"bike_id":"8b859e66-5896-49b9-936a-c18fe265f2c3","system_id":"levelo_inurba_marseille","lat":43.28491,"lon":5.38426,"is_reserved":false,"is_disabled":false,"rental_uris":{"android":"levelo://app?vid=8b859e66-5896-49b9-936a-c18fe265f2c3","ios":"levelo://app?vid=8b859e66-5896-49b9-936a-c18fe265f2c3"},"vehicle_type_id":"4","last_reported":1743520267,"current_range_meters":7200,"station_id":"ce4bh512rcd13ifvqe3g","pricing_plan_id":"cebpf4jnsgd1na2vs0mg"},{"bike_id":"c6438c46-204d-4a79-9a65-1f7b29c6cbc4","system_id":"levelo_inurba_marseille","lat":43.28429,"lon":5.3918,"is_reserved":false,"is_disabled":true,"rental_uris":{"android":"levelo://app?vid=c6438c46-204d-4a79-9a65-1f7b29c6cbc4","ios":"levelo://app?vid=c6438c46-204d-4a79-9a65-1f7b29c6cbc4"},"vehicle_type_id":"4","last_reported":1743520267,"current_range_meters":1600,"station_id":"ce4bhoh2rcd13ifvqh5g","pricing_plan_id":"cebpf4jnsgd1na2vs0mg"},{"bike_id":"f000d405-eb13-4e98-b2e0-59ad93025078","system_id":"levelo_inurba_marseille","lat":43.29276,"lon":5.38433,"is_reserved":false,"is_disabled":false,"rental_uris":{"android":"levelo://app?vid=f000d405-eb13-4e98-b2e0-59ad93025078","ios":"levelo://app?vid=f000d405-eb13-4e98-b2e0-59ad93025078"},"vehicle_type_id":"4","last_reported":1743520267,"current_range_meters":7200,"station_id":"ce4bh692rcd13ifvqea0","pricing_plan_id":"cebpf4jnsgd1na2vs0mg"},{"bike_id":"627317a6-7c8e-4b84-9108-64b8834011ec","system_id":"levelo_inurba_marseille","lat":43.23132,"lon":5.43749,"is_reserved":false,"is_disabled":false,"rental_uris":{"android":"levelo://app?vid=627317a6-7c8e-4b84-9108-64b8834011ec","ios":"levelo://app?vid=627317a6-7c8e-4b84-9108-64b8834011ec"},"vehicle_type_id":"4","last_reported":1743520267,"current_range_meters":7200,"station_id":"ce4bhmp2rcd13ifvqgog","pricing_plan_id":"cebpf4jnsgd1na2vs0mg"},{"bike_id":"c896d313-3fb7-4b5b-bf20-a2bffabcf5aa","system_id":"levelo_inurba_marseille","lat":43.29717,"lon":5.37689,"is_reserved":false,"is_disabled":false,"rental_uris":{"android":"levelo://app?vid=c896d313-3fb7-4b5b-bf20-a2bffabcf5aa","ios":"levelo://app?vid=c896d313-3fb7-4b5b-bf20-a2bffabcf5aa"},"vehicle_type_id":"4","last_reported":1743520267,"current_range_meters":7200,"station_id":"ce4bgkh2rcd13ifvqbl0","pricing_plan_id":"cebpf4jnsgd1na2vs0mg"},{"bike_id":"9e414957-74dc-4194-88c9-1ed380a0f974","system_id":"levelo_inurba_marseille","lat":43.24655,"lon":5.38902,"is_reserved":false,"is_disabled":false,"rental_uris":{"android":"levelo://app?vid=9e414957-74dc-4194-88c9-1ed380a0f974","ios":"levelo://app?vid=9e414957-74dc-4194-88c9-1ed380a0f974"},"vehicle_type_id":"4","last_reported":1743520267,"current_range_meters":7200,"station_id":"ce4bhg12rcd13ifvqf60","pricing_plan_id":"cebpf4jnsgd1na2vs0mg"},{"bike_id":"0cfca9e5-9dca-4ebd-873e-ce81be9f53ea","system_id":"levelo_inurba_marseille","lat":43.25095,"lon":5.40308,"is_reserved":false,"is_disabled":false,"rental_uris":{"android":"levelo://app?vid=0cfca9e5-9dca-4ebd-873e-ce81be9f53ea","ios":"levelo://app?vid=0cfca9e5-9dca-4ebd-873e-ce81be9f53ea"},"vehicle_type_id":"4","last_reported":1743520267,"current_range_meters":8000,"station_id":"ce4bhlh2rcd13ifvqgig","pricing_plan_id":"cebpf4jnsgd1na2vs0mg"},{"bike_id":"40a66e01-b594-43cc-80a6-bf33d148d0f5","system_id":"levelo_inurba_marseille","lat":43.25117,"lon":5.4032,"is_reserved":false,"is_disabled":false,"rental_uris":{"android":"levelo://app?vid=40a66e01-b594-43cc-80a6-bf33d148d0f5","ios":"levelo://app?vid=40a66e01-b594-43cc-80a6-bf33d148d0f5"},"vehicle_type_id":"4","last_reported":1743520267,"current_range_meters":8000,"station_id":"ce4bhlh2rcd13ifvqgig","pricing_plan_id":"cebpf4jnsgd1na2vs0mg"},{"bike_id":"fb629796-4122-466d-8c2d-0c99a5456dd9","system_id":"levelo_inurba_marseille","lat":43.28786,"lon":5.3585,"is_reserved":false,"is_disabled":false,"rental_uris":{"android":"levelo://app?vid=fb629796-4122-466d-8c2d-0c99a5456dd9","ios":"levelo://app?vid=fb629796-4122-466d-8c2d-0c99a5456dd9"},"vehicle_type_id":"4","last_reported":1743520267,"current_range_meters":8000,"station_id":"ce4bhb12rcd13ifvqem0","pricing_plan_id":"cebpf4jnsgd1na2vs0mg"},{"bike_id":"3d5279c8-bd1d-4653-a2cc-95d8cc98d103","system_id":"levelo_inurba_marseille","lat":43.30536,"lon":5.36537,"is_reserved":false,"is_disabled":false,"rental_uris":{"android":"levelo://app?vid=3d5279c8-bd1d-4653-a2cc-95d8cc98d103","ios":"levelo://app?vid=3d5279c8-bd1d-4653-a2cc-95d8cc98d103"},"vehicle_type_id":"4","last_reported":1743520267,"current_range_meters":8000,"station_id":"ce4bgs12rcd13ifvqcag","pricing_plan_id":"cebpf4jnsgd1na2vs0mg"},{"bike_id":"a597ac51-913b-4a61-a4c7-2e7ec0b60b03","system_id":"levelo_inurba_marseille","lat":43.258183,"lon":5.394373,"is_reserved":false,"is_disabled":false,"rental_uris":{"android":"levelo://app?vid=a597ac51-913b-4a61-a4c7-2e7ec0b60b03","ios":"levelo://app?vid=a597ac51-913b-4a61-a4c7-2e7ec0b60b03"},"vehicle_type_id":"4","last_reported":1743520267,"current_range_meters":8000,"station_id":"ce4bhl92rcd13ifvqghg","pricing_plan_id":"cebpf4jnsgd1na2vs0mg"},{"bike_id":"7dd7ee81-a831-4f52-af4f-f54818423ab3","system_id":"levelo_inurba_marseille","lat":43.28154,"lon":5.42639,"is_reserved":false,"is_disabled":false,"rental_uris":{"android":"levelo://app?vid=7dd7ee81-a831-4f52-af4f-f54818423ab3","ios":"levelo://app?vid=7dd7ee81-a831-4f52-af4f-f54818423ab3"},"vehicle_type_id":"4","last_reported":1743520267,"current_range_meters":8000,"station_id":"ce4bhnh2rcd13ifvqgug","pricing_plan_id":"cebpf4jnsgd1na2vs0mg"},{"bike_id":"abd2c5c3-f3df-4270-8cf3-dcd11a4317eb","system_id":"levelo_inurba_marseille","lat":43.28706,"lon":5.39984,"is_reserved":false,"is_disabled":false,"rental_uris":{"android":"levelo://app?vid=abd2c5c3-f3df-4270-8cf3-dcd11a4317eb","ios":"levelo://app?vid=abd2c5c3-f3df-4270-8cf3-dcd11a4317eb"},"vehicle_type_id":"4","last_reported":1743520267,"current_range_meters":8400,"station_id":"ce4bho92rcd13ifvqh3g","pricing_plan_id":"cebpf4jnsgd1na2vs0mg"},{"bike_id":"0ae48d51-36d7-48f8-82b5-ff9940abe2d7","system_id":"levelo_inurba_marseille","lat":43.305359,"lon":5.367166,"is_reserved":false,"is_disabled":false,"rental_uris":{"android":"levelo://app?vid=0ae48d51-36d7-48f8-82b5-ff9940abe2d7","ios":"levelo://app?vid=0ae48d51-36d7-48f8-82b5-ff9940abe2d7"},"vehicle_type_id":"4","last_reported":1743520267,"current_range_meters":8400,"station_id":"ce4bgrp2rcd13ifvqc9g","pricing_plan_id":"cebpf4jnsgd1na2vs0mg"},{"bike_id":"2415b9a1-037f-49be-900d-fc13885406eb","system_id":"levelo_inurba_marseille","lat":43.292022,"lon":5.393289,"is_reserved":false,"is_disabled":false,"rental_uris":{"android":"levelo://app?vid=2415b9a1-037f-49be-900d-fc13885406eb","ios":"levelo://app?vid=2415b9a1-037f-49be-900d-fc13885406eb"},"vehicle_type_id":"4","last_reported":1743520267,"current_range_meters":8400,"station_id":"ce4bh2h2rcd13ifvqdh0","pricing_plan_id":"cebpf4jnsgd1na2vs0mg"},{"bike_id":"58748b6d-4c3d-4ce8-9acf-5fbeb5bad12a","system_id":"levelo_inurba_marseille","lat":43.30848,"lon":5.36841,"is_reserved":false,"is_disabled":false,"rental_uris":{"android":"levelo://app?vid=58748b6d-4c3d-4ce8-9acf-5fbeb5bad12a","ios":"levelo://app?vid=58748b6d-4c3d-4ce8-9acf-5fbeb5bad12a"},"vehicle_type_id":"4","last_reported":1743520267,"current_range_meters":8400,"station_id":"","pricing_plan_id":"cebpf4jnsgd1na2vs0mg"},{"bike_id":"9c9586d4-89b2-477a-a299-450f69c2c7b0","system_id":"levelo_inurba_marseille","lat":43.28191,"lon":5.42611,"is_reserved":false,"is_disabled":false,"rental_uris":{"android":"levelo://app?vid=9c9586d4-89b2-477a-a299-450f69c2c7b0","ios":"levelo://app?vid=9c9586d4-89b2-477a-a299-450f69c2c7b0"},"vehicle_type_id":"4","last_reported":1743520267,"current_range_meters":8800,"station_id":"ce4bhnh2rcd13ifvqgug","pricing_plan_id":"cebpf4jnsgd1na2vs0mg"},{"bike_id":"2f04edae-9512-46d3-b068-1782d17c6e53","system_id":"levelo_inurba_marseille","lat":43.24405,"lon":5.37045,"is_reserved":false,"is_disabled":false,"rental_uris":{"android":"levelo://app?vid=2f04edae-9512-46d3-b068-1782d17c6e53","ios":"levelo://app?vid=2f04edae-9512-46d3-b068-1782d17c6e53"},"vehicle_type_id":"4","last_reported":1743520267,"current_range_meters":8400,"station_id":"ce4bhhh2rcd13ifvqfk0","pricing_plan_id":"cebpf4jnsgd1na2vs0mg"},{"bike_id":"544bb1a6-cb72-4e6c-9d20-009f5e6685aa","system_id":"levelo_inurba_marseille","lat":43.30543,"lon":5.3652,"is_reserved":false,"is_disabled":false,"rental_uris":{"android":"levelo://app?vid=544bb1a6-cb72-4e6c-9d20-009f5e6685aa","ios":"levelo://app?vid=544bb1a6-cb72-4e6c-9d20-009f5e6685aa"},"vehicle_type_id":"4","last_reported":1743520267,"current_range_meters":8800,"station_id":"ce4bgs12rcd13ifvqcag","pricing_plan_id":"cebpf4jnsgd1na2vs0mg"},{"bike_id":"9a8d9987-a8ad-412d-8f4d-a69badaf8bdd","system_id":"levelo_inurba_marseille","lat":43.30563,"lon":5.36547,"is_reserved":false,"is_disabled":false,"rental_uris":{"android":"levelo://app?vid=9a8d9987-a8ad-412d-8f4d-a69badaf8bdd","ios":"levelo://app?vid=9a8d9987-a8ad-412d-8f4d-a69badaf8bdd"},"vehicle_type_id":"4","last_reported":1743520267,"current_range_meters":8800,"station_id":"ce4bgs12rcd13ifvqcag","pricing_plan_id":"cebpf4jnsgd1na2vs0mg"},{"bike_id":"1167d76f-0701-42ca-9566-e6b8288b4501","system_id":"levelo_inurba_marseille","lat":43.282797,"lon":5.378657,"is_reserved":false,"is_disabled":false,"rental_uris":{"android":"levelo://app?vid=1167d76f-0701-42ca-9566-e6b8288b4501","ios":"levelo://app?vid=1167d76f-0701-42ca-9566-e6b8288b4501"},"vehicle_type_id":"4","last_reported":1743520267,"current_range_meters":8800,"station_id":"","pricing_plan_id":"cebpf4jnsgd1na2vs0mg"},{"bike_id":"2286499e-afb3-42f0-be29-239621d5e7b7","system_id":"levelo_inurba_marseille","lat":43.24185,"lon":5.39708,"is_reserved":false,"is_disabled":false,"rental_uris":{"android":"levelo://app?vid=2286499e-afb3-42f0-be29-239621d5e7b7","ios":"levelo://app?vid=2286499e-afb3-42f0-be29-239621d5e7b7"},"vehicle_type_id":"4","last_reported":1743520267,"current_range_meters":8800,"station_id":"ce4bhn12rcd13ifvqgpg","pricing_plan_id":"cebpf4jnsgd1na2vs0mg"},{"bike_id":"33b8dd29-56e2-488c-9bb6-7f788906afe5","system_id":"levelo_inurba_marseille","lat":43.3077,"lon":5.37259,"is_reserved":false,"is_disabled":false,"rental_uris":{"android":"levelo://app?vid=33b8dd29-56e2-488c-9bb6-7f788906afe5","ios":"levelo://app?vid=33b8dd29-56e2-488c-9bb6-7f788906afe5"},"vehicle_type_id":"4","last_reported":1743520267,"current_range_meters":8800,"station_id":"","pricing_plan_id":"cebpf4jnsgd1na2vs0mg"},{"bike_id":"a6db1337-7636-4483-8174-da9acb366bee","system_id":"levelo_inurba_marseille","lat":43.29546,"lon":5.39031,"is_reserved":false,"is_disabled":false,"rental_uris":{"android":"levelo://app?vid=a6db1337-7636-4483-8174-da9acb366bee","ios":"levelo://app?vid=a6db1337-7636-4483-8174-da9acb366bee"},"vehicle_type_id":"4","last_reported":1743520267,"current_range_meters":8800,"station_id":"ce4bh3p2rcd13ifvqdp0","pricing_plan_id":"cebpf4jnsgd1na2vs0mg"},{"bike_id":"3ef13689-5f30-4fe4-aaf6-0a94b95cd23a","system_id":"levelo_inurba_marseille","lat":43.306512,"lon":5.400687,"is_reserved":false,"is_disabled":false,"rental_uris":{"android":"levelo://app?vid=3ef13689-5f30-4fe4-aaf6-0a94b95cd23a","ios":"levelo://app?vid=3ef13689-5f30-4fe4-aaf6-0a94b95cd23a"},"vehicle_type_id":"4","last_reported":1743520267,"current_range_meters":8800,"station_id":"ce4bh112rcd13ifvqda0","pricing_plan_id":"cebpf4jnsgd1na2vs0mg"},{"bike_id":"11fb0821-8afa-433a-9d88-19545526da74","system_id":"levelo_inurba_marseille","lat":43.27908,"lon":5.37998,"is_reserved":false,"is_disabled":true,"rental_uris":{"android":"levelo://app?vid=11fb0821-8afa-433a-9d88-19545526da74","ios":"levelo://app?vid=11fb0821-8afa-433a-9d88-19545526da74"},"vehicle_type_id":"4","last_reported":1743520267,"current_range_meters":8800,"station_id":"ce4bhf92rcd13ifvqf50","pricing_plan_id":"cebpf4jnsgd1na2vs0mg"},{"bike_id":"e2a9d998-d526-41bb-a87d-3c01accdc80d","system_id":"levelo_inurba_marseille","lat":43.29864,"lon":5.37586,"is_reserved":false,"is_disabled":false,"rental_uris":{"android":"levelo://app?vid=e2a9d998-d526-41bb-a87d-3c01accdc80d","ios":"levelo://app?vid=e2a9d998-d526-41bb-a87d-3c01accdc80d"},"vehicle_type_id":"4","last_reported":1743520267,"current_range_meters":8800,"station_id":"","pricing_plan_id":"cebpf4jnsgd1na2vs0mg"},{"bike_id":"601e42aa-94d9-47fa-bdb5-6dbfe090c999","system_id":"levelo_inurba_marseille","lat":43.30141,"lon":5.39857,"is_reserved":false,"is_disabled":false,"rental_uris":{"android":"levelo://app?vid=601e42aa-94d9-47fa-bdb5-6dbfe090c999","ios":"levelo://app?vid=601e42aa-94d9-47fa-bdb5-6dbfe090c999"},"vehicle_type_id":"4","last_reported":1743520267,"current_range_meters":8800,"station_id":"ce4bh0h2rcd13ifvqd40","pricing_plan_id":"cebpf4jnsgd1na2vs0mg"},{"bike_id":"a98ca414-5a9d-44e4-9fe8-4c3a59245923","system_id":"levelo_inurba_marseille","lat":43.30815,"lon":5.43515,"is_reserved":false,"is_disabled":false,"rental_uris":{"android":"levelo://app?vid=a98ca414-5a9d-44e4-9fe8-4c3a59245923","ios":"levelo://app?vid=a98ca414-5a9d-44e4-9fe8-4c3a59245923"},"vehicle_type_id":"4","last_reported":1743520267,"current_range_meters":9200,"station_id":"ce4bhph2rcd13ifvqheg","pricing_plan_id":"cebpf4jnsgd1na2vs0mg"},{"bike_id":"131953cc-98dc-4b83-8dba-ebeea1f8c38f","system_id":"levelo_inurba_marseille","lat":43.26571,"lon":5.38991,"is_reserved":false,"is_disabled":false,"rental_uris":{"android":"levelo://app?vid=131953cc-98dc-4b83-8dba-ebeea1f8c38f","ios":"levelo://app?vid=131953cc-98dc-4b83-8dba-ebeea1f8c38f"},"vehicle_type_id":"4","last_reported":1743520267,"current_range_meters":9200,"station_id":"ce4bhe12rcd13ifvqf30","pricing_plan_id":"cebpf4jnsgd1na2vs0mg"},{"bike_id":"aa9df513-c122-455b-b429-7a882f68c760","system_id":"levelo_inurba_marseille","lat":43.24667,"lon":5.38161,"is_reserved":false,"is_disabled":false,"rental_uris":{"android":"levelo://app?vid=aa9df513-c122-455b-b429-7a882f68c760","ios":"levelo://app?vid=aa9df513-c122-455b-b429-7a882f68c760"},"vehicle_type_id":"4","last_reported":1743520267,"current_range_meters":9200,"station_id":"ce4bhih2rcd13ifvqfr0","pricing_plan_id":"cebpf4jnsgd1na2vs0mg"},{"bike_id":"1f5047f0-02ba-4584-b67e-fcd94b7ed81d","system_id":"levelo_inurba_marseille","lat":43.29777,"lon":5.37098,"is_reserved":false,"is_disabled":false,"rental_uris":{"android":"levelo://app?vid=1f5047f0-02ba-4584-b67e-fcd94b7ed81d","ios":"levelo://app?vid=1f5047f0-02ba-4584-b67e-fcd94b7ed81d"},"vehicle_type_id":"4","last_reported":1743520267,"current_range_meters":9200,"station_id":"ce4bgop2rcd13ifvqc1g","pricing_plan_id":"cebpf4jnsgd1na2vs0mg"},{"bike_id":"11989da7-291c-4a31-8a38-58465ed357ae","system_id":"levelo_inurba_marseille","lat":43.249602,"lon":5.396554,"is_reserved":false,"is_disabled":false,"rental_uris":{"android":"levelo://app?vid=11989da7-291c-4a31-8a38-58465ed357ae","ios":"levelo://app?vid=11989da7-291c-4a31-8a38-58465ed357ae"},"vehicle_type_id":"4","last_reported":1743520267,"current_range_meters":9200,"station_id":"ce4bhm12rcd13ifvqgkg","pricing_plan_id":"cebpf4jnsgd1na2vs0mg"},{"bike_id":"4ad73676-975d-4eb4-8ab0-34916f3a4594","system_id":"levelo_inurba_marseille","lat":43.30634,"lon":5.37134,"is_reserved":false,"is_disabled":false,"rental_uris":{"android":"levelo://app?vid=4ad73676-975d-4eb4-8ab0-34916f3a4594","ios":"levelo://app?vid=4ad73676-975d-4eb4-8ab0-34916f3a4594"},"vehicle_type_id":"4","last_reported":1743520267,"current_range_meters":9200,"station_id":"","pricing_plan_id":"cebpf4jnsgd1na2vs0mg"},{"bike_id":"2b9b31ad-6e45-403f-9450-a25bb8507203","system_id":"levelo_inurba_marseille","lat":43.32114,"lon":5.36741,"is_reserved":false,"is_disabled":false,"rental_uris":{"android":"levelo://app?vid=2b9b31ad-6e45-403f-9450-a25bb8507203","ios":"levelo://app?vid=2b9b31ad-6e45-403f-9450-a25bb8507203"},"vehicle_type_id":"4","last_reported":1743520267,"current_range_meters":9200,"station_id":"ce4bhrh2rcd13ifvqhug","pricing_plan_id":"cebpf4jnsgd1na2vs0mg"},{"bike_id":"63725668-0481-4d06-944c-5f9df798c4b4","system_id":"levelo_inurba_marseille","lat":43.23148,"lon":5.4372,"is_reserved":false,"is_disabled":false,"rental_uris":{"android":"levelo://app?vid=63725668-0481-4d06-944c-5f9df798c4b4","ios":"levelo://app?vid=63725668-0481-4d06-944c-5f9df798c4b4"},"vehicle_type_id":"4","last_reported":1743520267,"current_range_meters":9200,"station_id":"ce4bhmp2rcd13ifvqgog","pricing_plan_id":"cebpf4jnsgd1na2vs0mg"},{"bike_id":"f48f2f41-5eb3-48a8-a6f4-fb5b7b895709","system_id":"levelo_inurba_marseille","lat":43.29622,"lon":5.37163,"is_reserved":false,"is_disabled":false,"rental_uris":{"android":"levelo://app?vid=f48f2f41-5eb3-48a8-a6f4-fb5b7b895709","ios":"levelo://app?vid=f48f2f41-5eb3-48a8-a6f4-fb5b7b895709"},"vehicle_type_id":"4","last_reported":1743520267,"current_range_meters":9200,"station_id":"ce4bgnh2rcd13ifvqc0g","pricing_plan_id":"cebpf4jnsgd1na2vs0mg"},{"bike_id":"cae657b8-57bd-4485-98db-0c7e1139ed46","system_id":"levelo_inurba_marseille","lat":43.298698,"lon":5.397495,"is_reserved":false,"is_disabled":false,"rental_uris":{"android":"levelo://app?vid=cae657b8-57bd-4485-98db-0c7e1139ed46","ios":"levelo://app?vid=cae657b8-57bd-4485-98db-0c7e1139ed46"},"vehicle_type_id":"4","last_reported":1743520267,"current_range_meters":9200,"station_id":"ce4bh0h2rcd13ifvqd50","pricing_plan_id":"cebpf4jnsgd1na2vs0mg"},{"bike_id":"a65c60d0-9838-4fce-ab82-173f64a7b595","system_id":"levelo_inurba_marseille","lat":43.24182,"lon":5.3971,"is_reserved":false,"is_disabled":false,"rental_uris":{"android":"levelo://app?vid=a65c60d0-9838-4fce-ab82-173f64a7b595","ios":"levelo://app?vid=a65c60d0-9838-4fce-ab82-173f64a7b595"},"vehicle_type_id":"4","last_reported":1743520267,"current_range_meters":9600,"station_id":"ce4bhn12rcd13ifvqgpg","pricing_plan_id":"cebpf4jnsgd1na2vs0mg"},{"bike_id":"74388ea4-8fd0-4229-b6f3-200feeecd4e2","system_id":"levelo_inurba_marseille","lat":43.29031,"lon":5.38643,"is_reserved":false,"is_disabled":false,"rental_uris":{"android":"levelo://app?vid=74388ea4-8fd0-4229-b6f3-200feeecd4e2","ios":"levelo://app?vid=74388ea4-8fd0-4229-b6f3-200feeecd4e2"},"vehicle_type_id":"4","last_reported":1743520267,"current_range_meters":9600,"station_id":"ce4bh4p2rcd13ifvqe0g","pricing_plan_id":"cebpf4jnsgd1na2vs0mg"},{"bike_id":"bba1b8cd-f2fc-41bb-8318-28717b6a2a3c","system_id":"levelo_inurba_marseille","lat":43.32363,"lon":5.3889,"is_reserved":false,"is_disabled":false,"rental_uris":{"android":"levelo://app?vid=bba1b8cd-f2fc-41bb-8318-28717b6a2a3c","ios":"levelo://app?vid=bba1b8cd-f2fc-41bb-8318-28717b6a2a3c"},"vehicle_type_id":"4","last_reported":1743520267,"current_range_meters":9600,"station_id":"ce4bhqp2rcd13ifvqhog","pricing_plan_id":"cebpf4jnsgd1na2vs0mg"},{"bike_id":"6c7bc16d-334a-4008-96ac-86ab9a922877","system_id":"levelo_inurba_marseille","lat":43.28472,"lon":5.35884,"is_reserved":false,"is_disabled":false,"rental_uris":{"android":"levelo://app?vid=6c7bc16d-334a-4008-96ac-86ab9a922877","ios":"levelo://app?vid=6c7bc16d-334a-4008-96ac-86ab9a922877"},"vehicle_type_id":"4","last_reported":1743520267,"current_range_meters":9600,"station_id":"ce4bhah2rcd13ifvqei0","pricing_plan_id":"cebpf4jnsgd1na2vs0mg"},{"bike_id":"92a96564-2b78-4fc0-8756-3b3352f7cad0","system_id":"levelo_inurba_marseille","lat":43.30604,"lon":5.36564,"is_reserved":false,"is_disabled":false,"rental_uris":{"android":"levelo://app?vid=92a96564-2b78-4fc0-8756-3b3352f7cad0","ios":"levelo://app?vid=92a96564-2b78-4fc0-8756-3b3352f7cad0"},"vehicle_type_id":"4","last_reported":1743520267,"current_range_meters":9600,"station_id":"ce4bgs12rcd13ifvqcag","pricing_plan_id":"cebpf4jnsgd1na2vs0mg"},{"bike_id":"2c71dbe0-16ab-47d3-9fa0-70339ba2b072","system_id":"levelo_inurba_marseille","lat":43.29523,"lon":5.39048,"is_reserved":false,"is_disabled":false,"rental_uris":{"android":"levelo://app?vid=2c71dbe0-16ab-47d3-9fa0-70339ba2b072","ios":"levelo://app?vid=2c71dbe0-16ab-47d3-9fa0-70339ba2b072"},"vehicle_type_id":"4","last_reported":1743520267,"current_range_meters":9600,"station_id":"ce4bh3p2rcd13ifvqdp0","pricing_plan_id":"cebpf4jnsgd1na2vs0mg"},{"bike_id":"66a6759f-f104-404f-ba35-7dd5d87e6d0b","system_id":"levelo_inurba_marseille","lat":43.30148,"lon":5.37668,"is_reserved":false,"is_disabled":false,"rental_uris":{"android":"levelo://app?vid=66a6759f-f104-404f-ba35-7dd5d87e6d0b","ios":"levelo://app?vid=66a6759f-f104-404f-ba35-7dd5d87e6d0b"},"vehicle_type_id":"4","last_reported":1743520267,"current_range_meters":9600,"station_id":"","pricing_plan_id":"cebpf4jnsgd1na2vs0mg"},{"bike_id":"872105c5-874f-461c-811c-4aaf184fdeab","system_id":"levelo_inurba_marseille","lat":43.29897,"lon":5.38892,"is_reserved":false,"is_disabled":false,"rental_uris":{"android":"levelo://app?vid=872105c5-874f-461c-811c-4aaf184fdeab","ios":"levelo://app?vid=872105c5-874f-461c-811c-4aaf184fdeab"},"vehicle_type_id":"4","last_reported":1743520267,"current_range_meters":10000,"station_id":"ce4bh392rcd13ifvqdl0","pricing_plan_id":"cebpf4jnsgd1na2vs0mg"},{"bike_id":"18a6e933-3e63-47a0-94d7-b9e5b70c8aca","system_id":"levelo_inurba_marseille","lat":43.29615,"lon":5.40617,"is_reserved":false,"is_disabled":false,"rental_uris":{"android":"levelo://app?vid=18a6e933-3e63-47a0-94d7-b9e5b70c8aca","ios":"levelo://app?vid=18a6e933-3e63-47a0-94d7-b9e5b70c8aca"},"vehicle_type_id":"4","last_reported":1743520267,"current_range_meters":10000,"station_id":"ce4bh0h2rcd13ifvqd60","pricing_plan_id":"cebpf4jnsgd1na2vs0mg"},{"bike_id":"b81ab1ef-ebea-4d53-8b14-7d1ceed09555","system_id":"levelo_inurba_marseille","lat":43.23155,"lon":5.4372,"is_reserved":false,"is_disabled":false,"rental_uris":{"android":"levelo://app?vid=b81ab1ef-ebea-4d53-8b14-7d1ceed09555","ios":"levelo://app?vid=b81ab1ef-ebea-4d53-8b14-7d1ceed09555"},"vehicle_type_id":"4","last_reported":1743520267,"current_range_meters":10000,"station_id":"ce4bhmp2rcd13ifvqgog","pricing_plan_id":"cebpf4jnsgd1na2vs0mg"},{"bike_id":"0033090a-8982-4b60-8eda-d926f2d0df49","system_id":"levelo_inurba_marseille","lat":43.31074,"lon":5.38349,"is_reserved":false,"is_disabled":false,"rental_uris":{"android":"levelo://app?vid=0033090a-8982-4b60-8eda-d926f2d0df49","ios":"levelo://app?vid=0033090a-8982-4b60-8eda-d926f2d0df49"},"vehicle_type_id":"4","last_reported":1743520267,"current_range_meters":10000,"station_id":"ce4bgv92rcd13ifvqcr0","pricing_plan_id":"cebpf4jnsgd1na2vs0mg"},{"bike_id":"4339087d-4619-4085-a6c6-c2b9990d9b2e","system_id":"levelo_inurba_marseille","lat":43.31721,"lon":5.42404,"is_reserved":false,"is_disabled":false,"rental_uris":{"android":"levelo://app?vid=4339087d-4619-4085-a6c6-c2b9990d9b2e","ios":"levelo://app?vid=4339087d-4619-4085-a6c6-c2b9990d9b2e"},"vehicle_type_id":"4","last_reported":1743520267,"current_range_meters":10000,"station_id":"ce4bhp92rcd13ifvqhbg","pricing_plan_id":"cebpf4jnsgd1na2vs0mg"},{"bike_id":"e6928b84-bc47-4de0-8a23-14baa6be129c","system_id":"levelo_inurba_marseille","lat":43.30119,"lon":5.39932,"is_reserved":false,"is_disabled":true,"rental_uris":{"android":"levelo://app?vid=e6928b84-bc47-4de0-8a23-14baa6be129c","ios":"levelo://app?vid=e6928b84-bc47-4de0-8a23-14baa6be129c"},"vehicle_type_id":"4","last_reported":1743520267,"current_range_meters":10000,"station_id":"","pricing_plan_id":"cebpf4jnsgd1na2vs0mg"},{"bike_id":"a495ab47-72d1-4f9e-8b95-72d772792f33","system_id":"levelo_inurba_marseille","lat":43.30442,"lon":5.3685,"is_reserved":false,"is_disabled":false,"rental_uris":{"android":"levelo://app?vid=a495ab47-72d1-4f9e-8b95-72d772792f33","ios":"levelo://app?vid=a495ab47-72d1-4f9e-8b95-72d772792f33"},"vehicle_type_id":"4","last_reported":1743520267,"current_range_meters":10000,"station_id":"","pricing_plan_id":"cebpf4jnsgd1na2vs0mg"},{"bike_id":"e1186bff-f57d-48f6-9c59-5c66665c7e74","system_id":"levelo_inurba_marseille","lat":43.29424,"lon":5.38625,"is_reserved":false,"is_disabled":false,"rental_uris":{"android":"levelo://app?vid=e1186bff-f57d-48f6-9c59-5c66665c7e74","ios":"levelo://app?vid=e1186bff-f57d-48f6-9c59-5c66665c7e74"},"vehicle_type_id":"4","last_reported":1743520267,"current_range_meters":10000,"station_id":"ce4bh2h2rcd13ifvqdh0","pricing_plan_id":"cebpf4jnsgd1na2vs0mg"},{"bike_id":"d47ca5ac-a3e2-4cd1-82a3-e960af7da6da","system_id":"levelo_inurba_marseille","lat":43.25492,"lon":5.37643,"is_reserved":false,"is_disabled":false,"rental_uris":{"android":"levelo://app?vid=d47ca5ac-a3e2-4cd1-82a3-e960af7da6da","ios":"levelo://app?vid=d47ca5ac-a3e2-4cd1-82a3-e960af7da6da"},"vehicle_type_id":"4","last_reported":1743520267,"current_range_meters":10000,"station_id":"ce4bhh12rcd13ifvqff0","pricing_plan_id":"cebpf4jnsgd1na2vs0mg"},{"bike_id":"ab52962f-bc93-4ddd-be76-164eb31c1a2f","system_id":"levelo_inurba_marseille","lat":43.25003,"lon":5.38931,"is_reserved":false,"is_disabled":false,"rental_uris":{"android":"levelo://app?vid=ab52962f-bc93-4ddd-be76-164eb31c1a2f","ios":"levelo://app?vid=ab52962f-bc93-4ddd-be76-164eb31c1a2f"},"vehicle_type_id":"4","last_reported":1743520267,"current_range_meters":10000,"station_id":"ce4bhgp2rcd13ifvqfd0","pricing_plan_id":"cebpf4jnsgd1na2vs0mg"},{"bike_id":"2c567be4-626d-4614-8796-6c92d09d2fa1","system_id":"levelo_inurba_marseille","lat":43.29519,"lon":5.37445,"is_reserved":false,"is_disabled":false,"rental_uris":{"android":"levelo://app?vid=2c567be4-626d-4614-8796-6c92d09d2fa1","ios":"levelo://app?vid=2c567be4-626d-4614-8796-6c92d09d2fa1"},"vehicle_type_id":"4","last_reported":1743520267,"current_range_meters":10800,"station_id":"ce4bgkp2rcd13ifvqbmg","pricing_plan_id":"cebpf4jnsgd1na2vs0mg"},{"bike_id":"e47bc61d-df2d-41b3-b26b-dd94e6e5e301","system_id":"levelo_inurba_marseille","lat":43.26245,"lon":5.42126,"is_reserved":false,"is_disabled":false,"rental_uris":{"android":"levelo://app?vid=e47bc61d-df2d-41b3-b26b-dd94e6e5e301","ios":"levelo://app?vid=e47bc61d-df2d-41b3-b26b-dd94e6e5e301"},"vehicle_type_id":"4","last_reported":1743520267,"current_range_meters":10800,"station_id":"","pricing_plan_id":"cebpf4jnsgd1na2vs0mg"},{"bike_id":"27773214-4312-4127-aa54-e74cba3d6d07","system_id":"levelo_inurba_marseille","lat":43.27794,"lon":5.40728,"is_reserved":false,"is_disabled":false,"rental_uris":{"android":"levelo://app?vid=27773214-4312-4127-aa54-e74cba3d6d07","ios":"levelo://app?vid=27773214-4312-4127-aa54-e74cba3d6d07"},"vehicle_type_id":"4","last_reported":1743520267,"current_range_meters":10800,"station_id":"ce4bhnh2rcd13ifvqgtg","pricing_plan_id":"cebpf4jnsgd1na2vs0mg"},{"bike_id":"c339d295-565f-49eb-a7d6-8c3e4ef2a908","system_id":"levelo_inurba_marseille","lat":43.26809,"lon":5.40267,"is_reserved":false,"is_disabled":false,"rental_uris":{"android":"levelo://app?vid=c339d295-565f-49eb-a7d6-8c3e4ef2a908","ios":"levelo://app?vid=c339d295-565f-49eb-a7d6-8c3e4ef2a908"},"vehicle_type_id":"4","last_reported":1743520267,"current_range_meters":10800,"station_id":"ce501612rcd8frsf0b60","pricing_plan_id":"cebpf4jnsgd1na2vs0mg"},{"bike_id":"3e4050eb-21c2-4ce0-a8fa-e203ad314a56","system_id":"levelo_inurba_marseille","lat":43.26942,"lon":5.4025,"is_reserved":false,"is_disabled":false,"rental_uris":{"android":"levelo://app?vid=3e4050eb-21c2-4ce0-a8fa-e203ad314a56","ios":"levelo://app?vid=3e4050eb-21c2-4ce0-a8fa-e203ad314a56"},"vehicle_type_id":"4","last_reported":1743520267,"current_range_meters":10800,"station_id":"cjm6bp8fraef2m0cb0m0","pricing_plan_id":"cebpf4jnsgd1na2vs0mg"},{"bike_id":"93a428f6-6bad-4a02-8565-b91a2bee43a8","system_id":"levelo_inurba_marseille","lat":43.28404,"lon":5.37543,"is_reserved":false,"is_disabled":false,"rental_uris":{"android":"levelo://app?vid=93a428f6-6bad-4a02-8565-b91a2bee43a8","ios":"levelo://app?vid=93a428f6-6bad-4a02-8565-b91a2bee43a8"},"vehicle_type_id":"4","last_reported":1743520267,"current_range_meters":10800,"station_id":"ce4bh412rcd13ifvqds0","pricing_plan_id":"cebpf4jnsgd1na2vs0mg"},{"bike_id":"7917b5a9-ac06-48ea-9254-b1c0cca05a5a","system_id":"levelo_inurba_marseille","lat":43.31526,"lon":5.3804,"is_reserved":false,"is_disabled":false,"rental_uris":{"android":"levelo://app?vid=7917b5a9-ac06-48ea-9254-b1c0cca05a5a","ios":"levelo://app?vid=7917b5a9-ac06-48ea-9254-b1c0cca05a5a"},"vehicle_type_id":"4","last_reported":1743520267,"current_range_meters":10800,"station_id":"ce4bhsp2rcd13ifvqi50","pricing_plan_id":"cebpf4jnsgd1na2vs0mg"},{"bike_id":"16dd592e-7732-47c3-a664-305413913b8b","system_id":"levelo_inurba_marseille","lat":43.2849,"lon":5.35871,"is_reserved":false,"is_disabled":false,"rental_uris":{"android":"levelo://app?vid=16dd592e-7732-47c3-a664-305413913b8b","ios":"levelo://app?vid=16dd592e-7732-47c3-a664-305413913b8b"},"vehicle_type_id":"4","last_reported":1743520267,"current_range_meters":11200,"station_id":"ce4bhah2rcd13ifvqei0","pricing_plan_id":"cebpf4jnsgd1na2vs0mg"},{"bike_id":"1b63ccb2-1298-4d96-b7f3-6ad6cace00e9","system_id":"levelo_inurba_marseille","lat":43.26106,"lon":5.40032,"is_reserved":false,"is_disabled":false,"rental_uris":{"android":"levelo://app?vid=1b63ccb2-1298-4d96-b7f3-6ad6cace00e9","ios":"levelo://app?vid=1b63ccb2-1298-4d96-b7f3-6ad6cace00e9"},"vehicle_type_id":"4","last_reported":1743520267,"current_range_meters":11200,"station_id":"","pricing_plan_id":"cebpf4jnsgd1na2vs0mg"},{"bike_id":"b18d61be-1314-4787-bdc3-677619cdb9f9","system_id":"levelo_inurba_marseille","lat":43.29933,"lon":5.37037,"is_reserved":false,"is_disabled":false,"rental_uris":{"android":"levelo://app?vid=b18d61be-1314-4787-bdc3-677619cdb9f9","ios":"levelo://app?vid=b18d61be-1314-4787-bdc3-677619cdb9f9"},"vehicle_type_id":"4","last_reported":1743520267,"current_range_meters":11200,"station_id":"","pricing_plan_id":"cebpf4jnsgd1na2vs0mg"},{"bike_id":"f2dfd2a0-5846-4c43-9aae-f5b5157fea3b","system_id":"levelo_inurba_marseille","lat":43.28633,"lon":5.35102,"is_reserved":false,"is_disabled":false,"rental_uris":{"android":"levelo://app?vid=f2dfd2a0-5846-4c43-9aae-f5b5157fea3b","ios":"levelo://app?vid=f2dfd2a0-5846-4c43-9aae-f5b5157fea3b"},"vehicle_type_id":"4","last_reported":1743520267,"current_range_meters":11200,"station_id":"ce4bhch2rcd13ifvqeug","pricing_plan_id":"cebpf4jnsgd1na2vs0mg"},{"bike_id":"2b077733-2833-4ac8-b113-78ce737dcbd9","system_id":"levelo_inurba_marseille","lat":43.27981,"lon":5.40048,"is_reserved":false,"is_disabled":false,"rental_uris":{"android":"levelo://app?vid=2b077733-2833-4ac8-b113-78ce737dcbd9","ios":"levelo://app?vid=2b077733-2833-4ac8-b113-78ce737dcbd9"},"vehicle_type_id":"4","last_reported":1743520267,"current_range_meters":11600,"station_id":"ce4bho92rcd13ifvqh4g","pricing_plan_id":"cebpf4jnsgd1na2vs0mg"},{"bike_id":"34ead93f-0548-429e-a369-3703fc242f80","system_id":"levelo_inurba_marseille","lat":43.25583,"lon":5.38221,"is_reserved":false,"is_disabled":false,"rental_uris":{"android":"levelo://app?vid=34ead93f-0548-429e-a369-3703fc242f80","ios":"levelo://app?vid=34ead93f-0548-429e-a369-3703fc242f80"},"vehicle_type_id":"4","last_reported":1743520267,"current_range_meters":11600,"station_id":"ce4bhih2rcd13ifvqfs0","pricing_plan_id":"cebpf4jnsgd1na2vs0mg"},{"bike_id":"eae44260-fa89-4dde-bed2-9dc919403c58","system_id":"levelo_inurba_marseille","lat":43.27886,"lon":5.37998,"is_reserved":false,"is_disabled":false,"rental_uris":{"android":"levelo://app?vid=eae44260-fa89-4dde-bed2-9dc919403c58","ios":"levelo://app?vid=eae44260-fa89-4dde-bed2-9dc919403c58"},"vehicle_type_id":"4","last_reported":1743520267,"current_range_meters":11200,"station_id":"ce4bhf92rcd13ifvqf50","pricing_plan_id":"cebpf4jnsgd1na2vs0mg"},{"bike_id":"7d24f7f3-5a91-46ae-971d-a7a715309919","system_id":"levelo_inurba_marseille","lat":43.23203,"lon":5.39983,"is_reserved":false,"is_disabled":false,"rental_uris":{"android":"levelo://app?vid=7d24f7f3-5a91-46ae-971d-a7a715309919","ios":"levelo://app?vid=7d24f7f3-5a91-46ae-971d-a7a715309919"},"vehicle_type_id":"4","last_reported":1743520267,"current_range_meters":11600,"station_id":"ce4bhn12rcd13ifvqgqg","pricing_plan_id":"cebpf4jnsgd1na2vs0mg"},{"bike_id":"77b72a6c-bd1f-4a55-862e-df9a255ea549","system_id":"levelo_inurba_marseille","lat":43.280058,"lon":5.416558,"is_reserved":false,"is_disabled":false,"rental_uris":{"android":"levelo://app?vid=77b72a6c-bd1f-4a55-862e-df9a255ea549","ios":"levelo://app?vid=77b72a6c-bd1f-4a55-862e-df9a255ea549"},"vehicle_type_id":"4","last_reported":1743520267,"current_range_meters":11600,"station_id":"ce4bho12rcd13ifvqh1g","pricing_plan_id":"cebpf4jnsgd1na2vs0mg"},{"bike_id":"fd66516f-6086-4508-8306-935a33a744e2","system_id":"levelo_inurba_marseille","lat":43.27072,"lon":5.42276,"is_reserved":false,"is_disabled":false,"rental_uris":{"android":"levelo://app?vid=fd66516f-6086-4508-8306-935a33a744e2","ios":"levelo://app?vid=fd66516f-6086-4508-8306-935a33a744e2"},"vehicle_type_id":"4","last_reported":1743520267,"current_range_meters":11600,"station_id":"ce4bhk92rcd13ifvqgb0","pricing_plan_id":"cebpf4jnsgd1na2vs0mg"},{"bike_id":"3ba6ccff-1eda-46d4-acbd-01dbdd65bb76","system_id":"levelo_inurba_marseille","lat":43.29922,"lon":5.4368,"is_reserved":false,"is_disabled":false,"rental_uris":{"android":"levelo://app?vid=3ba6ccff-1eda-46d4-acbd-01dbdd65bb76","ios":"levelo://app?vid=3ba6ccff-1eda-46d4-acbd-01dbdd65bb76"},"vehicle_type_id":"4","last_reported":1743520267,"current_range_meters":11600,"station_id":"","pricing_plan_id":"cebpf4jnsgd1na2vs0mg"},{"bike_id":"c3742909-8ac1-45e8-bbc0-0a14494abaa8","system_id":"levelo_inurba_marseille","lat":43.246477,"lon":5.388913,"is_reserved":false,"is_disabled":false,"rental_uris":{"android":"levelo://app?vid=c3742909-8ac1-45e8-bbc0-0a14494abaa8","ios":"levelo://app?vid=c3742909-8ac1-45e8-bbc0-0a14494abaa8"},"vehicle_type_id":"4","last_reported":1743520267,"current_range_meters":12000,"station_id":"ce4bhg12rcd13ifvqf60","pricing_plan_id":"cebpf4jnsgd1na2vs0mg"},{"bike_id":"4220d26d-272d-4b23-9cec-a79c1d919b49","system_id":"levelo_inurba_marseille","lat":43.30556,"lon":5.37113,"is_reserved":false,"is_disabled":false,"rental_uris":{"android":"levelo://app?vid=4220d26d-272d-4b23-9cec-a79c1d919b49","ios":"levelo://app?vid=4220d26d-272d-4b23-9cec-a79c1d919b49"},"vehicle_type_id":"4","last_reported":1743520267,"current_range_meters":12000,"station_id":"","pricing_plan_id":"cebpf4jnsgd1na2vs0mg"},{"bike_id":"ae1b3b31-d47c-4edc-b983-0583bbc71886","system_id":"levelo_inurba_marseille","lat":43.28672,"lon":5.36352,"is_reserved":false,"is_disabled":false,"rental_uris":{"android":"levelo://app?vid=ae1b3b31-d47c-4edc-b983-0583bbc71886","ios":"levelo://app?vid=ae1b3b31-d47c-4edc-b983-0583bbc71886"},"vehicle_type_id":"4","last_reported":1743520267,"current_range_meters":12400,"station_id":"ce4bhah2rcd13ifvqej0","pricing_plan_id":"cebpf4jnsgd1na2vs0mg"},{"bike_id":"4c56fffc-ae3a-45ce-87a3-f2bc307be108","system_id":"levelo_inurba_marseille","lat":43.30913,"lon":5.36855,"is_reserved":false,"is_disabled":false,"rental_uris":{"android":"levelo://app?vid=4c56fffc-ae3a-45ce-87a3-f2bc307be108","ios":"levelo://app?vid=4c56fffc-ae3a-45ce-87a3-f2bc307be108"},"vehicle_type_id":"4","last_reported":1743520267,"current_range_meters":12400,"station_id":"ce4bgn92rcd13ifvqbvg","pricing_plan_id":"cebpf4jnsgd1na2vs0mg"},{"bike_id":"a0da4baf-c909-49d9-bd7b-5a273546fb7f","system_id":"levelo_inurba_marseille","lat":43.29258,"lon":5.37612,"is_reserved":false,"is_disabled":false,"rental_uris":{"android":"levelo://app?vid=a0da4baf-c909-49d9-bd7b-5a273546fb7f","ios":"levelo://app?vid=a0da4baf-c909-49d9-bd7b-5a273546fb7f"},"vehicle_type_id":"4","last_reported":1743520267,"current_range_meters":12400,"station_id":"ce4bgi12rcd13ifvqb80","pricing_plan_id":"cebpf4jnsgd1na2vs0mg"},{"bike_id":"955327db-b183-432f-9894-cfc207089444","system_id":"levelo_inurba_marseille","lat":43.28933,"lon":5.38398,"is_reserved":false,"is_disabled":false,"rental_uris":{"android":"levelo://app?vid=955327db-b183-432f-9894-cfc207089444","ios":"levelo://app?vid=955327db-b183-432f-9894-cfc207089444"},"vehicle_type_id":"4","last_reported":1743520267,"current_range_meters":12400,"station_id":"ce4bh612rcd13ifvqe6g","pricing_plan_id":"cebpf4jnsgd1na2vs0mg"},{"bike_id":"278a506b-3b1b-4d97-bb5e-5869d9c38046","system_id":"levelo_inurba_marseille","lat":43.31751,"lon":5.39004,"is_reserved":false,"is_disabled":false,"rental_uris":{"android":"levelo://app?vid=278a506b-3b1b-4d97-bb5e-5869d9c38046","ios":"levelo://app?vid=278a506b-3b1b-4d97-bb5e-5869d9c38046"},"vehicle_type_id":"4","last_reported":1743520267,"current_range_meters":12400,"station_id":"ce4bhqp2rcd13ifvqhng","pricing_plan_id":"cebpf4jnsgd1na2vs0mg"},{"bike_id":"5ecafc64-86c4-4df5-818d-7b60b3345ce1","system_id":"levelo_inurba_marseille","lat":43.28614,"lon":5.35101,"is_reserved":false,"is_disabled":false,"rental_uris":{"android":"levelo://app?vid=5ecafc64-86c4-4df5-818d-7b60b3345ce1","ios":"levelo://app?vid=5ecafc64-86c4-4df5-818d-7b60b3345ce1"},"vehicle_type_id":"4","last_reported":1743520267,"current_range_meters":12400,"station_id":"ce4bhch2rcd13ifvqeug","pricing_plan_id":"cebpf4jnsgd1na2vs0mg"},{"bike_id":"83cb3ea3-9b98-4515-a69c-f33206d6fc66","system_id":"levelo_inurba_marseille","lat":43.29258,"lon":5.38441,"is_reserved":false,"is_disabled":false,"rental_uris":{"android":"levelo://app?vid=83cb3ea3-9b98-4515-a69c-f33206d6fc66","ios":"levelo://app?vid=83cb3ea3-9b98-4515-a69c-f33206d6fc66"},"vehicle_type_id":"4","last_reported":1743520267,"current_range_meters":12400,"station_id":"ce4bh692rcd13ifvqea0","pricing_plan_id":"cebpf4jnsgd1na2vs0mg"},{"bike_id":"86354ae6-2ad3-4c03-a340-c661e15634b2","system_id":"levelo_inurba_marseille","lat":43.3014,"lon":5.37414,"is_reserved":false,"is_disabled":false,"rental_uris":{"android":"levelo://app?vid=86354ae6-2ad3-4c03-a340-c661e15634b2","ios":"levelo://app?vid=86354ae6-2ad3-4c03-a340-c661e15634b2"},"vehicle_type_id":"4","last_reported":1743520267,"current_range_meters":12800,"station_id":"ce4bgs92rcd13ifvqcc0","pricing_plan_id":"cebpf4jnsgd1na2vs0mg"},{"bike_id":"a9392c32-b8e3-41f9-ae3c-96f82eb8a90f","system_id":"levelo_inurba_marseille","lat":43.23061,"lon":5.35488,"is_reserved":false,"is_disabled":false,"rental_uris":{"android":"levelo://app?vid=a9392c32-b8e3-41f9-ae3c-96f82eb8a90f","ios":"levelo://app?vid=a9392c32-b8e3-41f9-ae3c-96f82eb8a90f"},"vehicle_type_id":"4","last_reported":1743520267,"current_range_meters":12800,"station_id":"cpo3342slgdg3j2ifvpg","pricing_plan_id":"cebpf4jnsgd1na2vs0mg"},{"bike_id":"223a1696-fac3-4b6c-b193-66de88dc7b6c","system_id":"levelo_inurba_marseille","lat":43.25497,"lon":5.37654,"is_reserved":false,"is_disabled":false,"rental_uris":{"android":"levelo://app?vid=223a1696-fac3-4b6c-b193-66de88dc7b6c","ios":"levelo://app?vid=223a1696-fac3-4b6c-b193-66de88dc7b6c"},"vehicle_type_id":"4","last_reported":1743520267,"current_range_meters":12800,"station_id":"ce4bhh12rcd13ifvqff0","pricing_plan_id":"cebpf4jnsgd1na2vs0mg"},{"bike_id":"2865802d-6d0f-4c1b-97c4-318c0edf92cb","system_id":"levelo_inurba_marseille","lat":43.29791,"lon":5.38096,"is_reserved":false,"is_disabled":false,"rental_uris":{"android":"levelo://app?vid=2865802d-6d0f-4c1b-97c4-318c0edf92cb","ios":"levelo://app?vid=2865802d-6d0f-4c1b-97c4-318c0edf92cb"},"vehicle_type_id":"4","last_reported":1743520267,"current_range_meters":12800,"station_id":"ce4bgip2rcd13ifvqbb0","pricing_plan_id":"cebpf4jnsgd1na2vs0mg"},{"bike_id":"c3a6b11b-c83a-4f84-b476-4c9bb6fce856","system_id":"levelo_inurba_marseille","lat":43.31165,"lon":5.38717,"is_reserved":false,"is_disabled":false,"rental_uris":{"android":"levelo://app?vid=c3a6b11b-c83a-4f84-b476-4c9bb6fce856","ios":"levelo://app?vid=c3a6b11b-c83a-4f84-b476-4c9bb6fce856"},"vehicle_type_id":"4","last_reported":1743520267,"current_range_meters":12800,"station_id":"ce4bgv12rcd13ifvqcp0","pricing_plan_id":"cebpf4jnsgd1na2vs0mg"},{"bike_id":"6e6a66e5-58ca-4db1-9695-b46ed5c28827","system_id":"levelo_inurba_marseille","lat":43.31802,"lon":5.36825,"is_reserved":false,"is_disabled":false,"rental_uris":{"android":"levelo://app?vid=6e6a66e5-58ca-4db1-9695-b46ed5c28827","ios":"levelo://app?vid=6e6a66e5-58ca-4db1-9695-b46ed5c28827"},"vehicle_type_id":"4","last_reported":1743520267,"current_range_meters":12800,"station_id":"","pricing_plan_id":"cebpf4jnsgd1na2vs0mg"},{"bike_id":"65b9ab0c-c752-46df-bfaa-2454bf0a71b4","system_id":"levelo_inurba_marseille","lat":43.29265,"lon":5.38425,"is_reserved":false,"is_disabled":false,"rental_uris":{"android":"levelo://app?vid=65b9ab0c-c752-46df-bfaa-2454bf0a71b4","ios":"levelo://app?vid=65b9ab0c-c752-46df-bfaa-2454bf0a71b4"},"vehicle_type_id":"4","last_reported":1743520267,"current_range_meters":12800,"station_id":"ce4bh692rcd13ifvqea0","pricing_plan_id":"cebpf4jnsgd1na2vs0mg"},{"bike_id":"6b8d5371-b5ab-4832-8c8e-12234f9dff78","system_id":"levelo_inurba_marseille","lat":43.31741,"lon":5.39024,"is_reserved":false,"is_disabled":false,"rental_uris":{"android":"levelo://app?vid=6b8d5371-b5ab-4832-8c8e-12234f9dff78","ios":"levelo://app?vid=6b8d5371-b5ab-4832-8c8e-12234f9dff78"},"vehicle_type_id":"4","last_reported":1743520267,"current_range_meters":12800,"station_id":"ce4bhqp2rcd13ifvqhng","pricing_plan_id":"cebpf4jnsgd1na2vs0mg"},{"bike_id":"cb045d3b-d223-4835-bc35-0ba841259e68","system_id":"levelo_inurba_marseille","lat":43.28161,"lon":5.42641,"is_reserved":false,"is_disabled":false,"rental_uris":{"android":"levelo://app?vid=cb045d3b-d223-4835-bc35-0ba841259e68","ios":"levelo://app?vid=cb045d3b-d223-4835-bc35-0ba841259e68"},"vehicle_type_id":"4","last_reported":1743520267,"current_range_meters":12800,"station_id":"ce4bhnh2rcd13ifvqgug","pricing_plan_id":"cebpf4jnsgd1na2vs0mg"},{"bike_id":"3867b296-f69e-4108-8db5-b4d0bbc1763b","system_id":"levelo_inurba_marseille","lat":43.29032,"lon":5.3865,"is_reserved":false,"is_disabled":false,"rental_uris":{"android":"levelo://app?vid=3867b296-f69e-4108-8db5-b4d0bbc1763b","ios":"levelo://app?vid=3867b296-f69e-4108-8db5-b4d0bbc1763b"},"vehicle_type_id":"4","last_reported":1743520267,"current_range_meters":12800,"station_id":"ce4bh4p2rcd13ifvqe0g","pricing_plan_id":"cebpf4jnsgd1na2vs0mg"},{"bike_id":"3ba4555a-ddaa-47a8-908e-92778bc9b324","system_id":"levelo_inurba_marseille","lat":43.30399,"lon":5.37746,"is_reserved":false,"is_disabled":false,"rental_uris":{"android":"levelo://app?vid=3ba4555a-ddaa-47a8-908e-92778bc9b324","ios":"levelo://app?vid=3ba4555a-ddaa-47a8-908e-92778bc9b324"},"vehicle_type_id":"4","last_reported":1743520267,"current_range_meters":13600,"station_id":"","pricing_plan_id":"cebpf4jnsgd1na2vs0mg"},{"bike_id":"7639c27d-3c77-4c31-9976-2b5e90d2465d","system_id":"levelo_inurba_marseille","lat":43.28076,"lon":5.39659,"is_reserved":false,"is_disabled":false,"rental_uris":{"android":"levelo://app?vid=7639c27d-3c77-4c31-9976-2b5e90d2465d","ios":"levelo://app?vid=7639c27d-3c77-4c31-9976-2b5e90d2465d"},"vehicle_type_id":"4","last_reported":1743520267,"current_range_meters":13600,"station_id":"ce4bho12rcd13ifvqh2g","pricing_plan_id":"cebpf4jnsgd1na2vs0mg"},{"bike_id":"f616f89a-6b5f-47f2-be4a-c1252268f5f4","system_id":"levelo_inurba_marseille","lat":43.29449,"lon":5.38581,"is_reserved":false,"is_disabled":true,"rental_uris":{"android":"levelo://app?vid=f616f89a-6b5f-47f2-be4a-c1252268f5f4","ios":"levelo://app?vid=f616f89a-6b5f-47f2-be4a-c1252268f5f4"},"vehicle_type_id":"4","last_reported":1743520267,"current_range_meters":13600,"station_id":"ce4bh2h2rcd13ifvqdh0","pricing_plan_id":"cebpf4jnsgd1na2vs0mg"},{"bike_id":"2c717184-900f-46c4-8a6a-9c532bd2a722","system_id":"levelo_inurba_marseille","lat":43.25583,"lon":5.38568,"is_reserved":false,"is_disabled":false,"rental_uris":{"android":"levelo://app?vid=2c717184-900f-46c4-8a6a-9c532bd2a722","ios":"levelo://app?vid=2c717184-900f-46c4-8a6a-9c532bd2a722"},"vehicle_type_id":"4","last_reported":1743520267,"current_range_meters":13600,"station_id":"","pricing_plan_id":"cebpf4jnsgd1na2vs0mg"},{"bike_id":"ba12d8cf-0134-44a7-8298-50ac5107d694","system_id":"levelo_inurba_marseille","lat":43.2998,"lon":5.37187,"is_reserved":false,"is_disabled":false,"rental_uris":{"android":"levelo://app?vid=ba12d8cf-0134-44a7-8298-50ac5107d694","ios":"levelo://app?vid=ba12d8cf-0134-44a7-8298-50ac5107d694"},"vehicle_type_id":"4","last_reported":1743520267,"current_range_meters":13600,"station_id":"ce4bgr92rcd13ifvqc7g","pricing_plan_id":"cebpf4jnsgd1na2vs0mg"},{"bike_id":"0955bcb1-f8dc-47f4-a135-54218809acb7","system_id":"levelo_inurba_marseille","lat":43.26557,"lon":5.37285,"is_reserved":false,"is_disabled":true,"rental_uris":{"android":"levelo://app?vid=0955bcb1-f8dc-47f4-a135-54218809acb7","ios":"levelo://app?vid=0955bcb1-f8dc-47f4-a135-54218809acb7"},"vehicle_type_id":"4","last_reported":1743520267,"current_range_meters":13600,"station_id":"ce4bhg12rcd13ifvqf70","pricing_plan_id":"cebpf4jnsgd1na2vs0mg"},{"bike_id":"71583079-eaec-4d35-a698-ada540432920","system_id":"levelo_inurba_marseille","lat":43.28463,"lon":5.35885,"is_reserved":false,"is_disabled":false,"rental_uris":{"android":"levelo://app?vid=71583079-eaec-4d35-a698-ada540432920","ios":"levelo://app?vid=71583079-eaec-4d35-a698-ada540432920"},"vehicle_type_id":"4","last_reported":1743520267,"current_range_meters":13600,"station_id":"ce4bhah2rcd13ifvqei0","pricing_plan_id":"cebpf4jnsgd1na2vs0mg"},{"bike_id":"bb962793-1631-49d8-a62d-89c39352b24b","system_id":"levelo_inurba_marseille","lat":43.30551,"lon":5.36699,"is_reserved":false,"is_disabled":false,"rental_uris":{"android":"levelo://app?vid=bb962793-1631-49d8-a62d-89c39352b24b","ios":"levelo://app?vid=bb962793-1631-49d8-a62d-89c39352b24b"},"vehicle_type_id":"4","last_reported":1743520267,"current_range_meters":13600,"station_id":"ce4bgrp2rcd13ifvqc9g","pricing_plan_id":"cebpf4jnsgd1na2vs0mg"},{"bike_id":"426fc6c1-d1aa-4d6f-a5cd-a408bc27bfc0","system_id":"levelo_inurba_marseille","lat":43.29532,"lon":5.38542,"is_reserved":false,"is_disabled":false,"rental_uris":{"android":"levelo://app?vid=426fc6c1-d1aa-4d6f-a5cd-a408bc27bfc0","ios":"levelo://app?vid=426fc6c1-d1aa-4d6f-a5cd-a408bc27bfc0"},"vehicle_type_id":"4","last_reported":1743520267,"current_range_meters":13600,"station_id":"ce4bgih2rcd13ifvqba0","pricing_plan_id":"cebpf4jnsgd1na2vs0mg"},{"bike_id":"4c564b34-6817-415a-8489-26db1ea03ff9","system_id":"levelo_inurba_marseille","lat":43.2316,"lon":5.43703,"is_reserved":false,"is_disabled":false,"rental_uris":{"android":"levelo://app?vid=4c564b34-6817-415a-8489-26db1ea03ff9","ios":"levelo://app?vid=4c564b34-6817-415a-8489-26db1ea03ff9"},"vehicle_type_id":"4","last_reported":1743520267,"current_range_meters":13600,"station_id":"ce4bhmp2rcd13ifvqgog","pricing_plan_id":"cebpf4jnsgd1na2vs0mg"},{"bike_id":"87ac0446-76c6-4cbf-9d33-c33a5ec7d106","system_id":"levelo_inurba_marseille","lat":43.280029,"lon":5.40016,"is_reserved":false,"is_disabled":false,"rental_uris":{"android":"levelo://app?vid=87ac0446-76c6-4cbf-9d33-c33a5ec7d106","ios":"levelo://app?vid=87ac0446-76c6-4cbf-9d33-c33a5ec7d106"},"vehicle_type_id":"4","last_reported":1743520267,"current_range_meters":13600,"station_id":"ce4bho92rcd13ifvqh4g","pricing_plan_id":"cebpf4jnsgd1na2vs0mg"},{"bike_id":"af94406d-ac87-4406-91e5-4230afe80c7e","system_id":"levelo_inurba_marseille","lat":43.29365,"lon":5.37854,"is_reserved":false,"is_disabled":false,"rental_uris":{"android":"levelo://app?vid=af94406d-ac87-4406-91e5-4230afe80c7e","ios":"levelo://app?vid=af94406d-ac87-4406-91e5-4230afe80c7e"},"vehicle_type_id":"4","last_reported":1743520267,"current_range_meters":14000,"station_id":"ce4bgjh2rcd13ifvqbf0","pricing_plan_id":"cebpf4jnsgd1na2vs0mg"},{"bike_id":"bf98cb9c-37fd-42e9-9af0-61b24e7e4022","system_id":"levelo_inurba_marseille","lat":43.290936,"lon":5.38145,"is_reserved":false,"is_disabled":false,"rental_uris":{"android":"levelo://app?vid=bf98cb9c-37fd-42e9-9af0-61b24e7e4022","ios":"levelo://app?vid=bf98cb9c-37fd-42e9-9af0-61b24e7e4022"},"vehicle_type_id":"4","last_reported":1743520267,"current_range_meters":14000,"station_id":"ce4bh512rcd13ifvqe2g","pricing_plan_id":"cebpf4jnsgd1na2vs0mg"},{"bike_id":"bad8b686-d4b1-4fd1-a906-eeff21f737a2","system_id":"levelo_inurba_marseille","lat":43.24179,"lon":5.39717,"is_reserved":false,"is_disabled":false,"rental_uris":{"android":"levelo://app?vid=bad8b686-d4b1-4fd1-a906-eeff21f737a2","ios":"levelo://app?vid=bad8b686-d4b1-4fd1-a906-eeff21f737a2"},"vehicle_type_id":"4","last_reported":1743520267,"current_range_meters":14000,"station_id":"ce4bhn12rcd13ifvqgpg","pricing_plan_id":"cebpf4jnsgd1na2vs0mg"},{"bike_id":"aa8771ef-1af5-43e9-82b2-4dd4cea52473","system_id":"levelo_inurba_marseille","lat":43.301523,"lon":5.380806,"is_reserved":false,"is_disabled":false,"rental_uris":{"android":"levelo://app?vid=aa8771ef-1af5-43e9-82b2-4dd4cea52473","ios":"levelo://app?vid=aa8771ef-1af5-43e9-82b2-4dd4cea52473"},"vehicle_type_id":"4","last_reported":1743520267,"current_range_meters":14000,"station_id":"ce4bgjp2rcd13ifvqbh0","pricing_plan_id":"cebpf4jnsgd1na2vs0mg"},{"bike_id":"6c6977b3-3a80-4c71-ba44-cec65b55bf9a","system_id":"levelo_inurba_marseille","lat":43.290781,"lon":5.38139,"is_reserved":false,"is_disabled":false,"rental_uris":{"android":"levelo://app?vid=6c6977b3-3a80-4c71-ba44-cec65b55bf9a","ios":"levelo://app?vid=6c6977b3-3a80-4c71-ba44-cec65b55bf9a"},"vehicle_type_id":"4","last_reported":1743520267,"current_range_meters":13600,"station_id":"ce4bh512rcd13ifvqe2g","pricing_plan_id":"cebpf4jnsgd1na2vs0mg"},{"bike_id":"ddeae4a1-6848-4797-a1fa-a0af6e11071f","system_id":"levelo_inurba_marseille","lat":43.24547,"lon":5.3952,"is_reserved":false,"is_disabled":false,"rental_uris":{"android":"levelo://app?vid=ddeae4a1-6848-4797-a1fa-a0af6e11071f","ios":"levelo://app?vid=ddeae4a1-6848-4797-a1fa-a0af6e11071f"},"vehicle_type_id":"4","last_reported":1743520267,"current_range_meters":14000,"station_id":"ce4bhlp2rcd13ifvqgjg","pricing_plan_id":"cebpf4jnsgd1na2vs0mg"},{"bike_id":"a68a4287-d9b3-4046-b771-eac8c6fe8605","system_id":"levelo_inurba_marseille","lat":43.32661,"lon":5.40989,"is_reserved":false,"is_disabled":false,"rental_uris":{"android":"levelo://app?vid=a68a4287-d9b3-4046-b771-eac8c6fe8605","ios":"levelo://app?vid=a68a4287-d9b3-4046-b771-eac8c6fe8605"},"vehicle_type_id":"4","last_reported":1743520267,"current_range_meters":14000,"station_id":"ce4bhpp2rcd13ifvqhgg","pricing_plan_id":"cebpf4jnsgd1na2vs0mg"},{"bike_id":"b691c59b-d5a5-46a9-8b9f-9566918bf42d","system_id":"levelo_inurba_marseille","lat":43.261456,"lon":5.393533,"is_reserved":false,"is_disabled":false,"rental_uris":{"android":"levelo://app?vid=b691c59b-d5a5-46a9-8b9f-9566918bf42d","ios":"levelo://app?vid=b691c59b-d5a5-46a9-8b9f-9566918bf42d"},"vehicle_type_id":"4","last_reported":1743520267,"current_range_meters":14000,"station_id":"ce4bhh92rcd13ifvqfj0","pricing_plan_id":"cebpf4jnsgd1na2vs0mg"},{"bike_id":"17011927-5eb5-4a38-a132-35a6858ea1fb","system_id":"levelo_inurba_marseille","lat":43.30302,"lon":5.39199,"is_reserved":false,"is_disabled":true,"rental_uris":{"android":"levelo://app?vid=17011927-5eb5-4a38-a132-35a6858ea1fb","ios":"levelo://app?vid=17011927-5eb5-4a38-a132-35a6858ea1fb"},"vehicle_type_id":"4","last_reported":1743520267,"current_range_meters":14000,"station_id":"ce4bgkh2rcd13ifvqbk0","pricing_plan_id":"cebpf4jnsgd1na2vs0mg"},{"bike_id":"3a780939-22f1-4aaa-9904-132d27e8140a","system_id":"levelo_inurba_marseille","lat":43.29981,"lon":5.38479,"is_reserved":false,"is_disabled":false,"rental_uris":{"android":"levelo://app?vid=3a780939-22f1-4aaa-9904-132d27e8140a","ios":"levelo://app?vid=3a780939-22f1-4aaa-9904-132d27e8140a"},"vehicle_type_id":"4","last_reported":1743520267,"current_range_meters":14400,"station_id":"ce4bgj92rcd13ifvqbd0","pricing_plan_id":"cebpf4jnsgd1na2vs0mg"},{"bike_id":"bf5acb91-a53a-4d92-8625-24b7e012fff0","system_id":"levelo_inurba_marseille","lat":43.27558,"lon":5.38418,"is_reserved":false,"is_disabled":false,"rental_uris":{"android":"levelo://app?vid=bf5acb91-a53a-4d92-8625-24b7e012fff0","ios":"levelo://app?vid=bf5acb91-a53a-4d92-8625-24b7e012fff0"},"vehicle_type_id":"4","last_reported":1743520267,"current_range_meters":14400,"station_id":"ce4bhh92rcd13ifvqfi0","pricing_plan_id":"cebpf4jnsgd1na2vs0mg"},{"bike_id":"54cdc43b-c4c8-4df5-9ec8-f5bbef2bf0bc","system_id":"levelo_inurba_marseille","lat":43.28572,"lon":5.39492,"is_reserved":false,"is_disabled":false,"rental_uris":{"android":"levelo://app?vid=54cdc43b-c4c8-4df5-9ec8-f5bbef2bf0bc","ios":"levelo://app?vid=54cdc43b-c4c8-4df5-9ec8-f5bbef2bf0bc"},"vehicle_type_id":"4","last_reported":1743520267,"current_range_meters":14000,"station_id":"ce4bh292rcd13ifvqdg0","pricing_plan_id":"cebpf4jnsgd1na2vs0mg"},{"bike_id":"9662d1d0-c8f9-4e8a-9e6c-a0c1575bddc7","system_id":"levelo_inurba_marseille","lat":43.30556,"lon":5.3669,"is_reserved":false,"is_disabled":false,"rental_uris":{"android":"levelo://app?vid=9662d1d0-c8f9-4e8a-9e6c-a0c1575bddc7","ios":"levelo://app?vid=9662d1d0-c8f9-4e8a-9e6c-a0c1575bddc7"},"vehicle_type_id":"4","last_reported":1743520267,"current_range_meters":14400,"station_id":"ce4bgrp2rcd13ifvqc9g","pricing_plan_id":"cebpf4jnsgd1na2vs0mg"},{"bike_id":"d662608d-504d-43ae-8d4a-6ba237d6c000","system_id":"levelo_inurba_marseille","lat":43.31073,"lon":5.40092,"is_reserved":false,"is_disabled":false,"rental_uris":{"android":"levelo://app?vid=d662608d-504d-43ae-8d4a-6ba237d6c000","ios":"levelo://app?vid=d662608d-504d-43ae-8d4a-6ba237d6c000"},"vehicle_type_id":"4","last_reported":1743520267,"current_range_meters":14400,"station_id":"","pricing_plan_id":"cebpf4jnsgd1na2vs0mg"},{"bike_id":"6d1c7a43-158f-449a-a166-535ade4584fe","system_id":"levelo_inurba_marseille","lat":43.29037,"lon":5.38643,"is_reserved":false,"is_disabled":false,"rental_uris":{"android":"levelo://app?vid=6d1c7a43-158f-449a-a166-535ade4584fe","ios":"levelo://app?vid=6d1c7a43-158f-449a-a166-535ade4584fe"},"vehicle_type_id":"4","last_reported":1743520267,"current_range_meters":14400,"station_id":"ce4bh4p2rcd13ifvqe0g","pricing_plan_id":"cebpf4jnsgd1na2vs0mg"},{"bike_id":"673cd2fb-9a5c-412d-a385-2a1c87de78c8","system_id":"levelo_inurba_marseille","lat":43.286133,"lon":5.370217,"is_reserved":false,"is_disabled":false,"rental_uris":{"android":"levelo://app?vid=673cd2fb-9a5c-412d-a385-2a1c87de78c8","ios":"levelo://app?vid=673cd2fb-9a5c-412d-a385-2a1c87de78c8"},"vehicle_type_id":"4","last_reported":1743520267,"current_range_meters":14400,"station_id":"ce4bh3p2rcd13ifvqdp0","pricing_plan_id":"cebpf4jnsgd1na2vs0mg"},{"bike_id":"cfcda72b-9d68-46b9-9a9f-e7328ad94eec","system_id":"levelo_inurba_marseille","lat":43.29423,"lon":5.38633,"is_reserved":false,"is_disabled":false,"rental_uris":{"android":"levelo://app?vid=cfcda72b-9d68-46b9-9a9f-e7328ad94eec","ios":"levelo://app?vid=cfcda72b-9d68-46b9-9a9f-e7328ad94eec"},"vehicle_type_id":"4","last_reported":1743520267,"current_range_meters":14400,"station_id":"ce4bh2h2rcd13ifvqdh0","pricing_plan_id":"cebpf4jnsgd1na2vs0mg"},{"bike_id":"5db7e296-5d14-4c12-ab3e-ebe1cea32dd7","system_id":"levelo_inurba_marseille","lat":43.30556,"lon":5.36546,"is_reserved":false,"is_disabled":false,"rental_uris":{"android":"levelo://app?vid=5db7e296-5d14-4c12-ab3e-ebe1cea32dd7","ios":"levelo://app?vid=5db7e296-5d14-4c12-ab3e-ebe1cea32dd7"},"vehicle_type_id":"4","last_reported":1743520267,"current_range_meters":14800,"station_id":"ce4bgs12rcd13ifvqcag","pricing_plan_id":"cebpf4jnsgd1na2vs0mg"},{"bike_id":"b80ee275-2592-4659-b2e9-175feb839700","system_id":"levelo_inurba_marseille","lat":43.23203,"lon":5.355428,"is_reserved":false,"is_disabled":false,"rental_uris":{"android":"levelo://app?vid=b80ee275-2592-4659-b2e9-175feb839700","ios":"levelo://app?vid=b80ee275-2592-4659-b2e9-175feb839700"},"vehicle_type_id":"4","last_reported":1743520267,"current_range_meters":14800,"station_id":"ce4bhu92rcd13ifvqi70","pricing_plan_id":"cebpf4jnsgd1na2vs0mg"},{"bike_id":"dd3db03f-0f43-4986-9ec8-2a76818fb28c","system_id":"levelo_inurba_marseille","lat":43.23204,"lon":5.35549,"is_reserved":false,"is_disabled":false,"rental_uris":{"android":"levelo://app?vid=dd3db03f-0f43-4986-9ec8-2a76818fb28c","ios":"levelo://app?vid=dd3db03f-0f43-4986-9ec8-2a76818fb28c"},"vehicle_type_id":"4","last_reported":1743520267,"current_range_meters":14800,"station_id":"ce4bhu92rcd13ifvqi70","pricing_plan_id":"cebpf4jnsgd1na2vs0mg"},{"bike_id":"89ed9502-d10a-46a6-bde2-6e8795497145","system_id":"levelo_inurba_marseille","lat":43.31436,"lon":5.37592,"is_reserved":false,"is_disabled":false,"rental_uris":{"android":"levelo://app?vid=89ed9502-d10a-46a6-bde2-6e8795497145","ios":"levelo://app?vid=89ed9502-d10a-46a6-bde2-6e8795497145"},"vehicle_type_id":"4","last_reported":1743520267,"current_range_meters":15200,"station_id":"","pricing_plan_id":"cebpf4jnsgd1na2vs0mg"},{"bike_id":"d4a0d068-eaeb-4183-b126-444ca87156db","system_id":"levelo_inurba_marseille","lat":43.30545,"lon":5.36535,"is_reserved":false,"is_disabled":false,"rental_uris":{"android":"levelo://app?vid=d4a0d068-eaeb-4183-b126-444ca87156db","ios":"levelo://app?vid=d4a0d068-eaeb-4183-b126-444ca87156db"},"vehicle_type_id":"4","last_reported":1743520267,"current_range_meters":14800,"station_id":"ce4bgs12rcd13ifvqcag","pricing_plan_id":"cebpf4jnsgd1na2vs0mg"},{"bike_id":"f243ee3c-9b98-451a-9f48-7ec3e30e2cbf","system_id":"levelo_inurba_marseille","lat":43.27925,"lon":5.39586,"is_reserved":false,"is_disabled":false,"rental_uris":{"android":"levelo://app?vid=f243ee3c-9b98-451a-9f48-7ec3e30e2cbf","ios":"levelo://app?vid=f243ee3c-9b98-451a-9f48-7ec3e30e2cbf"},"vehicle_type_id":"4","last_reported":1743520267,"current_range_meters":15200,"station_id":"ce4bhf92rcd13ifvqf40","pricing_plan_id":"cebpf4jnsgd1na2vs0mg"},{"bike_id":"865d2d6d-30a2-48cc-b8dd-280da1550100","system_id":"levelo_inurba_marseille","lat":43.2996,"lon":5.38505,"is_reserved":false,"is_disabled":false,"rental_uris":{"android":"levelo://app?vid=865d2d6d-30a2-48cc-b8dd-280da1550100","ios":"levelo://app?vid=865d2d6d-30a2-48cc-b8dd-280da1550100"},"vehicle_type_id":"4","last_reported":1743520267,"current_range_meters":15200,"station_id":"ce4bgj92rcd13ifvqbd0","pricing_plan_id":"cebpf4jnsgd1na2vs0mg"},{"bike_id":"4e4663bf-1006-4b6b-9af3-c27835a2a6b3","system_id":"levelo_inurba_marseille","lat":43.30798,"lon":5.381549,"is_reserved":false,"is_disabled":false,"rental_uris":{"android":"levelo://app?vid=4e4663bf-1006-4b6b-9af3-c27835a2a6b3","ios":"levelo://app?vid=4e4663bf-1006-4b6b-9af3-c27835a2a6b3"},"vehicle_type_id":"4","last_reported":1743520267,"current_range_meters":15200,"station_id":"ce4bgt12rcd13ifvqce0","pricing_plan_id":"cebpf4jnsgd1na2vs0mg"},{"bike_id":"1d4eb565-73cc-4084-9e0d-921f97151adc","system_id":"levelo_inurba_marseille","lat":43.28619,"lon":5.35105,"is_reserved":false,"is_disabled":false,"rental_uris":{"android":"levelo://app?vid=1d4eb565-73cc-4084-9e0d-921f97151adc","ios":"levelo://app?vid=1d4eb565-73cc-4084-9e0d-921f97151adc"},"vehicle_type_id":"4","last_reported":1743520267,"current_range_meters":15200,"station_id":"ce4bhch2rcd13ifvqeug","pricing_plan_id":"cebpf4jnsgd1na2vs0mg"},{"bike_id":"dbf44424-40eb-4643-ab42-d1c05cd0da2d","system_id":"levelo_inurba_marseille","lat":43.23968,"lon":5.36636,"is_reserved":false,"is_disabled":false,"rental_uris":{"android":"levelo://app?vid=dbf44424-40eb-4643-ab42-d1c05cd0da2d","ios":"levelo://app?vid=dbf44424-40eb-4643-ab42-d1c05cd0da2d"},"vehicle_type_id":"4","last_reported":1743520267,"current_range_meters":15200,"station_id":"ce4bhi12rcd13ifvqfp0","pricing_plan_id":"cebpf4jnsgd1na2vs0mg"},{"bike_id":"f141f78b-a8c3-4aeb-99e8-c113ed605085","system_id":"levelo_inurba_marseille","lat":43.29569,"lon":5.39982,"is_reserved":false,"is_disabled":false,"rental_uris":{"android":"levelo://app?vid=f141f78b-a8c3-4aeb-99e8-c113ed605085","ios":"levelo://app?vid=f141f78b-a8c3-4aeb-99e8-c113ed605085"},"vehicle_type_id":"4","last_reported":1743520267,"current_range_meters":15200,"station_id":"ce4bh312rcd13ifvqdj0","pricing_plan_id":"cebpf4jnsgd1na2vs0mg"},{"bike_id":"0ed80ee8-56b7-4580-8a94-56be39e58fa3","system_id":"levelo_inurba_marseille","lat":43.25583,"lon":5.38227,"is_reserved":false,"is_disabled":false,"rental_uris":{"android":"levelo://app?vid=0ed80ee8-56b7-4580-8a94-56be39e58fa3","ios":"levelo://app?vid=0ed80ee8-56b7-4580-8a94-56be39e58fa3"},"vehicle_type_id":"4","last_reported":1743520267,"current_range_meters":15200,"station_id":"ce4bhih2rcd13ifvqfs0","pricing_plan_id":"cebpf4jnsgd1na2vs0mg"},{"bike_id":"421b456e-1bcc-42e7-ac9c-b22f5870418c","system_id":"levelo_inurba_marseille","lat":43.30466,"lon":5.37906,"is_reserved":false,"is_disabled":false,"rental_uris":{"android":"levelo://app?vid=421b456e-1bcc-42e7-ac9c-b22f5870418c","ios":"levelo://app?vid=421b456e-1bcc-42e7-ac9c-b22f5870418c"},"vehicle_type_id":"4","last_reported":1743520267,"current_range_meters":16000,"station_id":"ce4bgup2rcd13ifvqcn0","pricing_plan_id":"cebpf4jnsgd1na2vs0mg"},{"bike_id":"7b869cea-1d61-42d2-b04b-29df5bd7497f","system_id":"levelo_inurba_marseille","lat":43.3209,"lon":5.36774,"is_reserved":false,"is_disabled":false,"rental_uris":{"android":"levelo://app?vid=7b869cea-1d61-42d2-b04b-29df5bd7497f","ios":"levelo://app?vid=7b869cea-1d61-42d2-b04b-29df5bd7497f"},"vehicle_type_id":"4","last_reported":1743520267,"current_range_meters":16000,"station_id":"ce4bhrh2rcd13ifvqhug","pricing_plan_id":"cebpf4jnsgd1na2vs0mg"},{"bike_id":"767a65e3-f833-4c22-9562-0785b4fb249d","system_id":"levelo_inurba_marseille","lat":43.31105,"lon":5.37779,"is_reserved":false,"is_disabled":false,"rental_uris":{"android":"levelo://app?vid=767a65e3-f833-4c22-9562-0785b4fb249d","ios":"levelo://app?vid=767a65e3-f833-4c22-9562-0785b4fb249d"},"vehicle_type_id":"4","last_reported":1743520267,"current_range_meters":16000,"station_id":"ce4bgt92rcd13ifvqcg0","pricing_plan_id":"cebpf4jnsgd1na2vs0mg"},{"bike_id":"b6ed527f-02a6-4a7c-b2cf-412cc7d320a8","system_id":"levelo_inurba_marseille","lat":43.311279,"lon":5.377689,"is_reserved":false,"is_disabled":false,"rental_uris":{"android":"levelo://app?vid=b6ed527f-02a6-4a7c-b2cf-412cc7d320a8","ios":"levelo://app?vid=b6ed527f-02a6-4a7c-b2cf-412cc7d320a8"},"vehicle_type_id":"4","last_reported":1743520267,"current_range_meters":16000,"station_id":"ce4bgt92rcd13ifvqcg0","pricing_plan_id":"cebpf4jnsgd1na2vs0mg"},{"bike_id":"dd8eb8ef-4e76-4e50-a068-19aab2791b35","system_id":"levelo_inurba_marseille","lat":43.3053,"lon":5.36548,"is_reserved":false,"is_disabled":false,"rental_uris":{"android":"levelo://app?vid=dd8eb8ef-4e76-4e50-a068-19aab2791b35","ios":"levelo://app?vid=dd8eb8ef-4e76-4e50-a068-19aab2791b35"},"vehicle_type_id":"4","last_reported":1743520267,"current_range_meters":16000,"station_id":"ce4bgs12rcd13ifvqcag","pricing_plan_id":"cebpf4jnsgd1na2vs0mg"},{"bike_id":"a5d49f2d-c255-4ef1-ad44-cf1078e1d369","system_id":"levelo_inurba_marseille","lat":43.29422,"lon":5.38634,"is_reserved":false,"is_disabled":false,"rental_uris":{"android":"levelo://app?vid=a5d49f2d-c255-4ef1-ad44-cf1078e1d369","ios":"levelo://app?vid=a5d49f2d-c255-4ef1-ad44-cf1078e1d369"},"vehicle_type_id":"4","last_reported":1743520267,"current_range_meters":16000,"station_id":"ce4bh2h2rcd13ifvqdh0","pricing_plan_id":"cebpf4jnsgd1na2vs0mg"},{"bike_id":"7be06644-e888-41f2-9c08-173a9a3965bc","system_id":"levelo_inurba_marseille","lat":43.23193,"lon":5.39988,"is_reserved":false,"is_disabled":false,"rental_uris":{"android":"levelo://app?vid=7be06644-e888-41f2-9c08-173a9a3965bc","ios":"levelo://app?vid=7be06644-e888-41f2-9c08-173a9a3965bc"},"vehicle_type_id":"4","last_reported":1743520267,"current_range_meters":16000,"station_id":"ce4bhn12rcd13ifvqgqg","pricing_plan_id":"cebpf4jnsgd1na2vs0mg"},{"bike_id":"f55695a6-b65f-4a30-99ab-94b2bfa63268","system_id":"levelo_inurba_marseille","lat":43.23199,"lon":5.35532,"is_reserved":false,"is_disabled":false,"rental_uris":{"android":"levelo://app?vid=f55695a6-b65f-4a30-99ab-94b2bfa63268","ios":"levelo://app?vid=f55695a6-b65f-4a30-99ab-94b2bfa63268"},"vehicle_type_id":"4","last_reported":1743520267,"current_range_meters":16000,"station_id":"ce4bhu92rcd13ifvqi70","pricing_plan_id":"cebpf4jnsgd1na2vs0mg"},{"bike_id":"a680fcef-3560-458d-9c46-af5039ad5317","system_id":"levelo_inurba_marseille","lat":43.26549,"lon":5.37299,"is_reserved":false,"is_disabled":false,"rental_uris":{"android":"levelo://app?vid=a680fcef-3560-458d-9c46-af5039ad5317","ios":"levelo://app?vid=a680fcef-3560-458d-9c46-af5039ad5317"},"vehicle_type_id":"4","last_reported":1743520267,"current_range_meters":16000,"station_id":"ce4bhg12rcd13ifvqf70","pricing_plan_id":"cebpf4jnsgd1na2vs0mg"},{"bike_id":"64d267a9-f77f-46f7-9279-a4d553f59527","system_id":"levelo_inurba_marseille","lat":43.28593,"lon":5.35122,"is_reserved":false,"is_disabled":false,"rental_uris":{"android":"levelo://app?vid=64d267a9-f77f-46f7-9279-a4d553f59527","ios":"levelo://app?vid=64d267a9-f77f-46f7-9279-a4d553f59527"},"vehicle_type_id":"4","last_reported":1743520267,"current_range_meters":16000,"station_id":"ce4bhch2rcd13ifvqeug","pricing_plan_id":"cebpf4jnsgd1na2vs0mg"},{"bike_id":"15cfc94c-e05e-4071-a1cb-1a05b0e34f97","system_id":"levelo_inurba_marseille","lat":43.33712,"lon":5.39174,"is_reserved":false,"is_disabled":false,"rental_uris":{"android":"levelo://app?vid=15cfc94c-e05e-4071-a1cb-1a05b0e34f97","ios":"levelo://app?vid=15cfc94c-e05e-4071-a1cb-1a05b0e34f97"},"vehicle_type_id":"4","last_reported":1743520267,"current_range_meters":16000,"station_id":"ce4bhr92rcd13ifvqhsg","pricing_plan_id":"cebpf4jnsgd1na2vs0mg"},{"bike_id":"52eed171-d991-442d-9aed-a52bb936dd5e","system_id":"levelo_inurba_marseille","lat":43.26687,"lon":5.38271,"is_reserved":false,"is_disabled":false,"rental_uris":{"android":"levelo://app?vid=52eed171-d991-442d-9aed-a52bb936dd5e","ios":"levelo://app?vid=52eed171-d991-442d-9aed-a52bb936dd5e"},"vehicle_type_id":"4","last_reported":1743520267,"current_range_meters":16000,"station_id":"ce4bhg92rcd13ifvqf90","pricing_plan_id":"cebpf4jnsgd1na2vs0mg"},{"bike_id":"75dae32f-059a-4b5b-a5e8-963c6eda2f66","system_id":"levelo_inurba_marseille","lat":43.27517,"lon":5.4105,"is_reserved":false,"is_disabled":false,"rental_uris":{"android":"levelo://app?vid=75dae32f-059a-4b5b-a5e8-963c6eda2f66","ios":"levelo://app?vid=75dae32f-059a-4b5b-a5e8-963c6eda2f66"},"vehicle_type_id":"4","last_reported":1743520267,"current_range_meters":16000,"station_id":"","pricing_plan_id":"cebpf4jnsgd1na2vs0mg"},{"bike_id":"efd8a7d0-f260-48f2-a96d-f5f6ab1ce17d","system_id":"levelo_inurba_marseille","lat":43.28689,"lon":5.37982,"is_reserved":false,"is_disabled":false,"rental_uris":{"android":"levelo://app?vid=efd8a7d0-f260-48f2-a96d-f5f6ab1ce17d","ios":"levelo://app?vid=efd8a7d0-f260-48f2-a96d-f5f6ab1ce17d"},"vehicle_type_id":"4","last_reported":1743520267,"current_range_meters":16400,"station_id":"ce4bh9p2rcd13ifvqec0","pricing_plan_id":"cebpf4jnsgd1na2vs0mg"},{"bike_id":"e45d2123-aa43-45f5-aabe-f8664cbd6d9b","system_id":"levelo_inurba_marseille","lat":43.29252,"lon":5.37619,"is_reserved":false,"is_disabled":false,"rental_uris":{"android":"levelo://app?vid=e45d2123-aa43-45f5-aabe-f8664cbd6d9b","ios":"levelo://app?vid=e45d2123-aa43-45f5-aabe-f8664cbd6d9b"},"vehicle_type_id":"4","last_reported":1743520267,"current_range_meters":16400,"station_id":"ce4bgi12rcd13ifvqb80","pricing_plan_id":"cebpf4jnsgd1na2vs0mg"},{"bike_id":"66d1c9ff-75f1-4388-a024-a1039a782e45","system_id":"levelo_inurba_marseille","lat":43.2928,"lon":5.40116,"is_reserved":false,"is_disabled":false,"rental_uris":{"android":"levelo://app?vid=66d1c9ff-75f1-4388-a024-a1039a782e45","ios":"levelo://app?vid=66d1c9ff-75f1-4388-a024-a1039a782e45"},"vehicle_type_id":"4","last_reported":1743520267,"current_range_meters":16400,"station_id":"ce4bh312rcd13ifvqdk0","pricing_plan_id":"cebpf4jnsgd1na2vs0mg"},{"bike_id":"048526f8-409c-4881-a29c-121d4afcd420","system_id":"levelo_inurba_marseille","lat":43.2987,"lon":5.39727,"is_reserved":false,"is_disabled":false,"rental_uris":{"android":"levelo://app?vid=048526f8-409c-4881-a29c-121d4afcd420","ios":"levelo://app?vid=048526f8-409c-4881-a29c-121d4afcd420"},"vehicle_type_id":"4","last_reported":1743520267,"current_range_meters":16400,"station_id":"ce4bh0h2rcd13ifvqd50","pricing_plan_id":"cebpf4jnsgd1na2vs0mg"},{"bike_id":"c76b601d-d944-4d77-bccb-9ea34cbb4e56","system_id":"levelo_inurba_marseille","lat":43.27316,"lon":5.39087,"is_reserved":false,"is_disabled":false,"rental_uris":{"android":"levelo://app?vid=c76b601d-d944-4d77-bccb-9ea34cbb4e56","ios":"levelo://app?vid=c76b601d-d944-4d77-bccb-9ea34cbb4e56"},"vehicle_type_id":"4","last_reported":1743520267,"current_range_meters":16400,"station_id":"ce4bhgp2rcd13ifvqfe0","pricing_plan_id":"cebpf4jnsgd1na2vs0mg"},{"bike_id":"d157a8ac-f1ea-480a-a1ee-9ac00962bb01","system_id":"levelo_inurba_marseille","lat":43.295522,"lon":5.422895,"is_reserved":false,"is_disabled":false,"rental_uris":{"android":"levelo://app?vid=d157a8ac-f1ea-480a-a1ee-9ac00962bb01","ios":"levelo://app?vid=d157a8ac-f1ea-480a-a1ee-9ac00962bb01"},"vehicle_type_id":"4","last_reported":1743520267,"current_range_meters":16400,"station_id":"ce4bhph2rcd13ifvqhdg","pricing_plan_id":"cebpf4jnsgd1na2vs0mg"},{"bike_id":"e0e415ae-6a6a-4c44-b06f-9885bebf472f","system_id":"levelo_inurba_marseille","lat":43.33024,"lon":5.39031,"is_reserved":false,"is_disabled":false,"rental_uris":{"android":"levelo://app?vid=e0e415ae-6a6a-4c44-b06f-9885bebf472f","ios":"levelo://app?vid=e0e415ae-6a6a-4c44-b06f-9885bebf472f"},"vehicle_type_id":"4","last_reported":1743520267,"current_range_meters":16400,"station_id":"ce4bhr92rcd13ifvqhrg","pricing_plan_id":"cebpf4jnsgd1na2vs0mg"},{"bike_id":"414b1618-8907-418c-9232-e3993fbc4299","system_id":"levelo_inurba_marseille","lat":43.31989,"lon":5.38124,"is_reserved":false,"is_disabled":false,"rental_uris":{"android":"levelo://app?vid=414b1618-8907-418c-9232-e3993fbc4299","ios":"levelo://app?vid=414b1618-8907-418c-9232-e3993fbc4299"},"vehicle_type_id":"4","last_reported":1743520267,"current_range_meters":16400,"station_id":"ce4bhr12rcd13ifvqhpg","pricing_plan_id":"cebpf4jnsgd1na2vs0mg"},{"bike_id":"ee8045b8-79f0-437a-8208-2821d28fa36d","system_id":"levelo_inurba_marseille","lat":43.28596,"lon":5.35097,"is_reserved":false,"is_disabled":false,"rental_uris":{"android":"levelo://app?vid=ee8045b8-79f0-437a-8208-2821d28fa36d","ios":"levelo://app?vid=ee8045b8-79f0-437a-8208-2821d28fa36d"},"vehicle_type_id":"4","last_reported":1743520267,"current_range_meters":16400,"station_id":"ce4bhch2rcd13ifvqeug","pricing_plan_id":"cebpf4jnsgd1na2vs0mg"},{"bike_id":"f899ef64-aace-4b57-9356-f065a26e49e1","system_id":"levelo_inurba_marseille","lat":43.29717,"lon":5.37688,"is_reserved":false,"is_disabled":false,"rental_uris":{"android":"levelo://app?vid=f899ef64-aace-4b57-9356-f065a26e49e1","ios":"levelo://app?vid=f899ef64-aace-4b57-9356-f065a26e49e1"},"vehicle_type_id":"4","last_reported":1743520267,"current_range_meters":16400,"station_id":"ce4bgkh2rcd13ifvqbl0","pricing_plan_id":"cebpf4jnsgd1na2vs0mg"},{"bike_id":"9127385f-82e5-4578-9579-24d9ef7bc5ef","system_id":"levelo_inurba_marseille","lat":43.29771,"lon":5.37642,"is_reserved":false,"is_disabled":false,"rental_uris":{"android":"levelo://app?vid=9127385f-82e5-4578-9579-24d9ef7bc5ef","ios":"levelo://app?vid=9127385f-82e5-4578-9579-24d9ef7bc5ef"},"vehicle_type_id":"4","last_reported":1743520267,"current_range_meters":16400,"station_id":"","pricing_plan_id":"cebpf4jnsgd1na2vs0mg"},{"bike_id":"20e37ee5-4144-46f6-ae82-ff86e3144909","system_id":"levelo_inurba_marseille","lat":43.30551,"lon":5.36657,"is_reserved":false,"is_disabled":false,"rental_uris":{"android":"levelo://app?vid=20e37ee5-4144-46f6-ae82-ff86e3144909","ios":"levelo://app?vid=20e37ee5-4144-46f6-ae82-ff86e3144909"},"vehicle_type_id":"4","last_reported":1743520267,"current_range_meters":16400,"station_id":"","pricing_plan_id":"cebpf4jnsgd1na2vs0mg"},{"bike_id":"065d1201-c2a1-4f7d-8453-bd79c93f4ef8","system_id":"levelo_inurba_marseille","lat":43.308231,"lon":5.374049,"is_reserved":false,"is_disabled":false,"rental_uris":{"android":"levelo://app?vid=065d1201-c2a1-4f7d-8453-bd79c93f4ef8","ios":"levelo://app?vid=065d1201-c2a1-4f7d-8453-bd79c93f4ef8"},"vehicle_type_id":"4","last_reported":1743520267,"current_range_meters":16400,"station_id":"ce4bgqh2rcd13ifvqc4g","pricing_plan_id":"cebpf4jnsgd1na2vs0mg"},{"bike_id":"53216b2f-57ba-4cbf-aa4a-1e4259a50f5b","system_id":"levelo_inurba_marseille","lat":43.25123,"lon":5.40317,"is_reserved":false,"is_disabled":false,"rental_uris":{"android":"levelo://app?vid=53216b2f-57ba-4cbf-aa4a-1e4259a50f5b","ios":"levelo://app?vid=53216b2f-57ba-4cbf-aa4a-1e4259a50f5b"},"vehicle_type_id":"4","last_reported":1743520267,"current_range_meters":16400,"station_id":"ce4bhlh2rcd13ifvqgig","pricing_plan_id":"cebpf4jnsgd1na2vs0mg"},{"bike_id":"26ae4f1f-a5e6-4144-9a77-7f2386a039ff","system_id":"levelo_inurba_marseille","lat":43.308,"lon":5.38152,"is_reserved":false,"is_disabled":false,"rental_uris":{"android":"levelo://app?vid=26ae4f1f-a5e6-4144-9a77-7f2386a039ff","ios":"levelo://app?vid=26ae4f1f-a5e6-4144-9a77-7f2386a039ff"},"vehicle_type_id":"4","last_reported":1743520267,"current_range_meters":16400,"station_id":"ce4bgt12rcd13ifvqce0","pricing_plan_id":"cebpf4jnsgd1na2vs0mg"},{"bike_id":"4045b47e-3190-4a55-bf65-7c5d295867ec","system_id":"levelo_inurba_marseille","lat":43.29437,"lon":5.39754,"is_reserved":false,"is_disabled":false,"rental_uris":{"android":"levelo://app?vid=4045b47e-3190-4a55-bf65-7c5d295867ec","ios":"levelo://app?vid=4045b47e-3190-4a55-bf65-7c5d295867ec"},"vehicle_type_id":"4","last_reported":1743520267,"current_range_meters":16400,"station_id":"ce4bh3h2rcd13ifvqdo0","pricing_plan_id":"cebpf4jnsgd1na2vs0mg"},{"bike_id":"5b58b7b3-bb2b-458e-93be-3f1c25fb220e","system_id":"levelo_inurba_marseille","lat":43.30788,"lon":5.37354,"is_reserved":false,"is_disabled":false,"rental_uris":{"android":"levelo://app?vid=5b58b7b3-bb2b-458e-93be-3f1c25fb220e","ios":"levelo://app?vid=5b58b7b3-bb2b-458e-93be-3f1c25fb220e"},"vehicle_type_id":"4","last_reported":1743520267,"current_range_meters":16800,"station_id":"","pricing_plan_id":"cebpf4jnsgd1na2vs0mg"},{"bike_id":"60565ac3-703a-4eb1-a913-a3096dad7e9b","system_id":"levelo_inurba_marseille","lat":43.323681,"lon":5.388861,"is_reserved":false,"is_disabled":false,"rental_uris":{"android":"levelo://app?vid=60565ac3-703a-4eb1-a913-a3096dad7e9b","ios":"levelo://app?vid=60565ac3-703a-4eb1-a913-a3096dad7e9b"},"vehicle_type_id":"4","last_reported":1743520267,"current_range_meters":16800,"station_id":"ce4bhqp2rcd13ifvqhog","pricing_plan_id":"cebpf4jnsgd1na2vs0mg"},{"bike_id":"1a346cc6-dc71-4bf1-9b80-dea4b47b07ad","system_id":"levelo_inurba_marseille","lat":43.27673,"lon":5.38882,"is_reserved":false,"is_disabled":true,"rental_uris":{"android":"levelo://app?vid=1a346cc6-dc71-4bf1-9b80-dea4b47b07ad","ios":"levelo://app?vid=1a346cc6-dc71-4bf1-9b80-dea4b47b07ad"},"vehicle_type_id":"4","last_reported":1743520267,"current_range_meters":16800,"station_id":"ce4bhi12rcd13ifvqfo0","pricing_plan_id":"cebpf4jnsgd1na2vs0mg"},{"bike_id":"6e181a7f-7c49-4d46-9c97-969ae7da340e","system_id":"levelo_inurba_marseille","lat":43.28409,"lon":5.34983,"is_reserved":false,"is_disabled":false,"rental_uris":{"android":"levelo://app?vid=6e181a7f-7c49-4d46-9c97-969ae7da340e","ios":"levelo://app?vid=6e181a7f-7c49-4d46-9c97-969ae7da340e"},"vehicle_type_id":"4","last_reported":1743520267,"current_range_meters":16800,"station_id":"ce4bhbh2rcd13ifvqepg","pricing_plan_id":"cebpf4jnsgd1na2vs0mg"},{"bike_id":"8cb59a05-731a-49f5-8956-2944877c4868","system_id":"levelo_inurba_marseille","lat":43.29534,"lon":5.38537,"is_reserved":false,"is_disabled":false,"rental_uris":{"android":"levelo://app?vid=8cb59a05-731a-49f5-8956-2944877c4868","ios":"levelo://app?vid=8cb59a05-731a-49f5-8956-2944877c4868"},"vehicle_type_id":"4","last_reported":1743520267,"current_range_meters":16800,"station_id":"ce4bgih2rcd13ifvqba0","pricing_plan_id":"cebpf4jnsgd1na2vs0mg"},{"bike_id":"0b5bf6c8-1851-4cf8-808e-45c272178225","system_id":"levelo_inurba_marseille","lat":43.30642,"lon":5.40104,"is_reserved":false,"is_disabled":false,"rental_uris":{"android":"levelo://app?vid=0b5bf6c8-1851-4cf8-808e-45c272178225","ios":"levelo://app?vid=0b5bf6c8-1851-4cf8-808e-45c272178225"},"vehicle_type_id":"4","last_reported":1743520267,"current_range_meters":16800,"station_id":"ce4bh112rcd13ifvqda0","pricing_plan_id":"cebpf4jnsgd1na2vs0mg"},{"bike_id":"07958e7d-5787-4c8a-a781-0ee21b7cb5ca","system_id":"levelo_inurba_marseille","lat":43.28109,"lon":5.37849,"is_reserved":false,"is_disabled":false,"rental_uris":{"android":"levelo://app?vid=07958e7d-5787-4c8a-a781-0ee21b7cb5ca","ios":"levelo://app?vid=07958e7d-5787-4c8a-a781-0ee21b7cb5ca"},"vehicle_type_id":"4","last_reported":1743520267,"current_range_meters":16800,"station_id":"ce4bha12rcd13ifvqee0","pricing_plan_id":"cebpf4jnsgd1na2vs0mg"},{"bike_id":"4bf12b29-c63b-470b-a8c1-5c43ba4a239a","system_id":"levelo_inurba_marseille","lat":43.31332,"lon":5.37274,"is_reserved":false,"is_disabled":false,"rental_uris":{"android":"levelo://app?vid=4bf12b29-c63b-470b-a8c1-5c43ba4a239a","ios":"levelo://app?vid=4bf12b29-c63b-470b-a8c1-5c43ba4a239a"},"vehicle_type_id":"4","last_reported":1743520267,"current_range_meters":16800,"station_id":"","pricing_plan_id":"cebpf4jnsgd1na2vs0mg"},