{"last_updated":1746512139,"ttl":60,"version":"2.2","data":{"bikes":[{"bike_id":"ac76b429-d2a6-4d3a-b2f6-48c266bb5cfe","system_id":"levelo_inurba_marseille","lat":43.27935,"lon":5.41055,"is_reserved":false,"is_disabled":false,"rental_uris":{"android":"levelo://app?vid=ac76b429-d2a6-4d3a-b2f6-48c266bb5cfe","ios":"levelo://app?vid=ac76b429-d2a6-4d3a-b2f6-48c266bb5cfe"},"vehicle_type_id":"4","last_reported":1746512139,"current_range_meters":3200,"station_id":"ce4bhnp2rcd13ifvqh0g","pricing_plan_id":"cebpf4jnsgd1na2vs0mg"},{"bike_id":"6ac59d20-89e4-4658-846e-2021130bc44e","system_id":"levelo_inurba_marseille","lat":43.28941,"lon":5.39625,"is_reserved":false,"is_disabled":false,"rental_uris":{"android":"levelo://app?vid=6ac59d20-89e4-4658-846e-2021130bc44e","ios":"levelo://app?vid=6ac59d20-89e4-4658-846e-2021130bc44e"},"vehicle_type_id":"4","last_reported":1746512139,"current_range_meters":3200,"station_id":"ce4bh3h2rcd13ifvqdn0","pricing_plan_id":"cebpf4jnsgd1na2vs0mg"},{"bike_id":"7c1e89e3-7249-4d74-ac43-c3c8532ba294","system_id":"levelo_inurba_marseille","lat":43.257349,"lon":5.411071,"is_reserved":false,"is_disabled":false,"rental_uris":{"android":"levelo://app?vid=7c1e89e3-7249-4d74-ac43-c3c8532ba294","ios":"levelo://app?vid=7c1e89e3-7249-4d74-ac43-c3c8532ba294"},"vehicle_type_id":"4","last_reported":1746512139,"current_range_meters":3200,"station_id":"ce4bhkp2rcd13ifvqgd0","pricing_plan_id":"cebpf4jnsgd1na2vs0mg"},{"bike_id":"2f51ff5b-9e12-4b6c-9106-9df85a9d5650","system_id":"levelo_inurba_marseille","lat":43.3014,"lon":5.37413,"is_reserved":false,"is_disabled":false,"rental_uris":{"android":"levelo://app?vid=2f51ff5b-9e12-4b6c-9106-9df85a9d5650","ios":"levelo://app?vid=2f51ff5b-9e12-4b6c-9106-9df85a9d5650"},"vehicle_type_id":"4","last_reported":1746512139,"current_range_meters":3200,"station_id":"ce4bgs92rcd13ifvqcc0","pricing_plan_id":"cebpf4jnsgd1na2vs0mg"},{"bike_id":"9f01c424-4638-437a-a2e3-5520607927b8","system_id":"levelo_inurba_marseille","lat":43.27496,"lon":5.42459,"is_reserved":false,"is_disabled":true,"rental_uris":{"android":"levelo://app?vid=9f01c424-4638-437a-a2e3-5520607927b8","ios":"levelo://app?vid=9f01c424-4638-437a-a2e3-5520607927b8"},"vehicle_type_id":"4","last_reported":1746512139,"current_range_meters":3200,"station_id":"ce4bhn92rcd13ifvqgrg","pricing_plan_id":"cebpf4jnsgd1na2vs0mg"},{"bike_id":"5aa20100-fffb-414f-85f8-7efd36dcf47f","system_id":"levelo_inurba_marseille","lat":43.23945,"lon":5.36661,"is_reserved":false,"is_disabled":false,"rental_uris":{"android":"levelo://app?vid=5aa20100-fffb-414f-85f8-7efd36dcf47f","ios":"levelo://app?vid=5aa20100-fffb-414f-85f8-7efd36dcf47f"},"vehicle_type_id":"4","last_reported":1746512139,"current_range_meters":3200,"station_id":"ce4bhi12rcd13ifvqfp0","pricing_plan_id":"cebpf4jnsgd1na2vs0mg"},{"bike_id":"3fccb781-d458-4ec1-b54b-12c0a65119d7","system_id":"levelo_inurba_marseille","lat":43.304626,"lon":5.379155,"is_reserved":false,"is_disabled":false,"rental_uris":{"android":"levelo://app?vid=3fccb781-d458-4ec1-b54b-12c0a65119d7","ios":"levelo://app?vid=3fccb781-d458-4ec1-b54b-12c0a65119d7"},"vehicle_type_id":"4","last_reported":1746512139,"current_range_meters":4000,"station_id":"ce4bgup2rcd13ifvqcn0","pricing_plan_id":"cebpf4jnsgd1na2vs0mg"},{"bike_id":"66b646b3-6352-44bb-9bfb-21570512e3e5","system_id":"levelo_inurba_marseille","lat":43.28122,"lon":5.403916,"is_reserved":false,"is_disabled":false,"rental_uris":{"android":"levelo://app?vid=66b646b3-6352-44bb-9bfb-21570512e3e5","ios":"levelo://app?vid=66b646b3-6352-44bb-9bfb-21570512e3e5"},"vehicle_type_id":"4","last_reported":1746512139,"current_range_meters":4400,"station_id":"","pricing_plan_id":"cebpf4jnsgd1na2vs0mg"},{"bike_id":"22146708-fd58-4f36-9d97-901be090fd06","system_id":"levelo_inurba_marseille","lat":43.26952,"lon":5.38638,"is_reserved":false,"is_disabled":false,"rental_uris":{"android":"levelo://app?vid=22146708-fd58-4f36-9d97-901be090fd06","ios":"levelo://app?vid=22146708-fd58-4f36-9d97-901be090fd06"},"vehicle_type_id":"4","last_reported":1746512139,"current_range_meters":4400,"station_id":"ce4bhh92rcd13ifvqfh0","pricing_plan_id":"cebpf4jnsgd1na2vs0mg"},{"bike_id":"ca054d1f-e0fe-405a-9cec-6c3b6b1b4f2f","system_id":"levelo_inurba_marseille","lat":43.262,"lon":5.37938,"is_reserved":false,"is_disabled":true,"rental_uris":{"android":"levelo://app?vid=ca054d1f-e0fe-405a-9cec-6c3b6b1b4f2f","ios":"levelo://app?vid=ca054d1f-e0fe-405a-9cec-6c3b6b1b4f2f"},"vehicle_type_id":"4","last_reported":1746512139,"current_range_meters":4400,"station_id":"ce4bhjp2rcd13ifvqg90","pricing_plan_id":"cebpf4jnsgd1na2vs0mg"},{"bike_id":"2c488c66-db1f-4eb1-b8a8-65da619378ac","system_id":"levelo_inurba_marseille","lat":43.29895,"lon":5.38131,"is_reserved":false,"is_disabled":true,"rental_uris":{"android":"levelo://app?vid=2c488c66-db1f-4eb1-b8a8-65da619378ac","ios":"levelo://app?vid=2c488c66-db1f-4eb1-b8a8-65da619378ac"},"vehicle_type_id":"4","last_reported":1746512139,"current_range_meters":4400,"station_id":"ce4bgj12rcd13ifvqbc0","pricing_plan_id":"cebpf4jnsgd1na2vs0mg"},{"bike_id":"6727bce5-ba02-44a4-9a8a-62fd50f4a9f8","system_id":"levelo_inurba_marseille","lat":43.28152,"lon":5.42644,"is_reserved":false,"is_disabled":false,"rental_uris":{"android":"levelo://app?vid=6727bce5-ba02-44a4-9a8a-62fd50f4a9f8","ios":"levelo://app?vid=6727bce5-ba02-44a4-9a8a-62fd50f4a9f8"},"vehicle_type_id":"4","last_reported":1746512139,"current_range_meters":4400,"station_id":"ce4bhnh2rcd13ifvqgug","pricing_plan_id":"cebpf4jnsgd1na2vs0mg"},{"bike_id":"f4058794-639c-4973-ab5d-8009a25ee731","system_id":"levelo_inurba_marseille","lat":43.23976,"lon":5.36635,"is_reserved":false,"is_disabled":false,"rental_uris":{"android":"levelo://app?vid=f4058794-639c-4973-ab5d-8009a25ee731","ios":"levelo://app?vid=f4058794-639c-4973-ab5d-8009a25ee731"},"vehicle_type_id":"4","last_reported":1746512139,"current_range_meters":4800,"station_id":"ce4bhi12rcd13ifvqfp0","pricing_plan_id":"cebpf4jnsgd1na2vs0mg"},{"bike_id":"973f1ea7-d851-44ed-a0b6-1a59d02e6355","system_id":"levelo_inurba_marseille","lat":43.23949,"lon":5.36664,"is_reserved":false,"is_disabled":false,"rental_uris":{"android":"levelo://app?vid=973f1ea7-d851-44ed-a0b6-1a59d02e6355","ios":"levelo://app?vid=973f1ea7-d851-44ed-a0b6-1a59d02e6355"},"vehicle_type_id":"4","last_reported":1746512139,"current_range_meters":4800,"station_id":"ce4bhi12rcd13ifvqfp0","pricing_plan_id":"cebpf4jnsgd1na2vs0mg"},{"bike_id":"4b77843a-ff9a-4042-9674-031f5be059ed","system_id":"levelo_inurba_marseille","lat":43.2528,"lon":5.4023,"is_reserved":false,"is_disabled":false,"rental_uris":{"android":"levelo://app?vid=4b77843a-ff9a-4042-9674-031f5be059ed","ios":"levelo://app?vid=4b77843a-ff9a-4042-9674-031f5be059ed"},"vehicle_type_id":"4","last_reported":1746512139,"current_range_meters":4800,"station_id":"","pricing_plan_id":"cebpf4jnsgd1na2vs0mg"},{"bike_id":"b9a946ed-10f8-4d6a-9138-6fdf1e06a0fa","system_id":"levelo_inurba_marseille","lat":43.31281,"lon":5.36752,"is_reserved":false,"is_disabled":false,"rental_uris":{"android":"levelo://app?vid=b9a946ed-10f8-4d6a-9138-6fdf1e06a0fa","ios":"levelo://app?vid=b9a946ed-10f8-4d6a-9138-6fdf1e06a0fa"},"vehicle_type_id":"4","last_reported":1746512139,"current_range_meters":4800,"station_id":"","pricing_plan_id":"cebpf4jnsgd1na2vs0mg"},{"bike_id":"c7569f25-9bc2-4a7b-94d5-25bad92fcfaa","system_id":"levelo_inurba_marseille","lat":43.27929,"lon":5.38248,"is_reserved":false,"is_disabled":false,"rental_uris":{"android":"levelo://app?vid=c7569f25-9bc2-4a7b-94d5-25bad92fcfaa","ios":"levelo://app?vid=c7569f25-9bc2-4a7b-94d5-25bad92fcfaa"},"vehicle_type_id":"4","last_reported":1746512139,"current_range_meters":4800,"station_id":"","pricing_plan_id":"cebpf4jnsgd1na2vs0mg"},{"bike_id":"5cbc2780-4be2-4f63-82b1-c973d7670cc9","system_id":"levelo_inurba_marseille","lat":43.29608,"lon":5.38102,"is_reserved":false,"is_disabled":false,"rental_uris":{"android":"levelo://app?vid=5cbc2780-4be2-4f63-82b1-c973d7670cc9","ios":"levelo://app?vid=5cbc2780-4be2-4f63-82b1-c973d7670cc9"},"vehicle_type_id":"4","last_reported":1746512139,"current_range_meters":4800,"station_id":"ce4bgl12rcd13ifvqbo0","pricing_plan_id":"cebpf4jnsgd1na2vs0mg"},{"bike_id":"ef79088c-27d6-4eae-9abc-ea97d02cf0e5","system_id":"levelo_inurba_marseille","lat":43.28976,"lon":5.37837,"is_reserved":false,"is_disabled":false,"rental_uris":{"android":"levelo://app?vid=ef79088c-27d6-4eae-9abc-ea97d02cf0e5","ios":"levelo://app?vid=ef79088c-27d6-4eae-9abc-ea97d02cf0e5"},"vehicle_type_id":"4","last_reported":1746512139,"current_range_meters":5600,"station_id":"ce4bh9p2rcd13ifvqed0","pricing_plan_id":"cebpf4jnsgd1na2vs0mg"},{"bike_id":"ac63e74b-4488-48c9-97a3-fa06519df3ef","system_id":"levelo_inurba_marseille","lat":43.3135,"lon":5.36713,"is_reserved":false,"is_disabled":false,"rental_uris":{"android":"levelo://app?vid=ac63e74b-4488-48c9-97a3-fa06519df3ef","ios":"levelo://app?vid=ac63e74b-4488-48c9-97a3-fa06519df3ef"},"vehicle_type_id":"4","last_reported":1746512139,"current_range_meters":5600,"station_id":"ce4bgr92rcd13ifvqc6g","pricing_plan_id":"cebpf4jnsgd1na2vs0mg"},{"bike_id":"3478a875-95b4-4294-8b2e-2ff4315d6ffe","system_id":"levelo_inurba_marseille","lat":43.24072,"lon":5.37757,"is_reserved":false,"is_disabled":false,"rental_uris":{"android":"levelo://app?vid=3478a875-95b4-4294-8b2e-2ff4315d6ffe","ios":"levelo://app?vid=3478a875-95b4-4294-8b2e-2ff4315d6ffe"},"vehicle_type_id":"4","last_reported":1746512139,"current_range_meters":5600,"station_id":"ce4bhnp2rcd13ifvqgvg","pricing_plan_id":"cebpf4jnsgd1na2vs0mg"},{"bike_id":"903ace5d-b1d6-4b6c-9fdc-25cc75342bd1","system_id":"levelo_inurba_marseille","lat":43.26569,"lon":5.39012,"is_reserved":false,"is_disabled":false,"rental_uris":{"android":"levelo://app?vid=903ace5d-b1d6-4b6c-9fdc-25cc75342bd1","ios":"levelo://app?vid=903ace5d-b1d6-4b6c-9fdc-25cc75342bd1"},"vehicle_type_id":"4","last_reported":1746512139,"current_range_meters":6000,"station_id":"ce4bhe12rcd13ifvqf30","pricing_plan_id":"cebpf4jnsgd1na2vs0mg"},{"bike_id":"7c2f5afe-2899-4e87-b420-99f07243e558","system_id":"levelo_inurba_marseille","lat":43.32107,"lon":5.36769,"is_reserved":false,"is_disabled":false,"rental_uris":{"android":"levelo://app?vid=7c2f5afe-2899-4e87-b420-99f07243e558","ios":"levelo://app?vid=7c2f5afe-2899-4e87-b420-99f07243e558"},"vehicle_type_id":"4","last_reported":1746512139,"current_range_meters":6000,"station_id":"ce4bhrh2rcd13ifvqhug","pricing_plan_id":"cebpf4jnsgd1na2vs0mg"},{"bike_id":"9560e695-2cb4-4bfb-b95c-1c8364f718f8","system_id":"levelo_inurba_marseille","lat":43.25813,"lon":5.39497,"is_reserved":false,"is_disabled":true,"rental_uris":{"android":"levelo://app?vid=9560e695-2cb4-4bfb-b95c-1c8364f718f8","ios":"levelo://app?vid=9560e695-2cb4-4bfb-b95c-1c8364f718f8"},"vehicle_type_id":"4","last_reported":1746512139,"current_range_meters":6000,"station_id":"ce4bhip2rcd13ifvqft0","pricing_plan_id":"cebpf4jnsgd1na2vs0mg"},{"bike_id":"d5b09c65-4037-4867-b034-d23af67b5b2b","system_id":"levelo_inurba_marseille","lat":43.27495,"lon":5.42453,"is_reserved":false,"is_disabled":false,"rental_uris":{"android":"levelo://app?vid=d5b09c65-4037-4867-b034-d23af67b5b2b","ios":"levelo://app?vid=d5b09c65-4037-4867-b034-d23af67b5b2b"},"vehicle_type_id":"4","last_reported":1746512139,"current_range_meters":6400,"station_id":"ce4bhn92rcd13ifvqgrg","pricing_plan_id":"cebpf4jnsgd1na2vs0mg"},{"bike_id":"8dee1e88-3632-418c-91c7-8c4ef79a44d3","system_id":"levelo_inurba_marseille","lat":43.30592,"lon":5.39356,"is_reserved":false,"is_disabled":false,"rental_uris":{"android":"levelo://app?vid=8dee1e88-3632-418c-91c7-8c4ef79a44d3","ios":"levelo://app?vid=8dee1e88-3632-418c-91c7-8c4ef79a44d3"},"vehicle_type_id":"4","last_reported":1746512139,"current_range_meters":6400,"station_id":"ce4bh0p2rcd13ifvqd80","pricing_plan_id":"cebpf4jnsgd1na2vs0mg"},{"bike_id":"00a6a85d-3bdb-4547-a892-00f0771486e9","system_id":"levelo_inurba_marseille","lat":43.32504,"lon":5.36534,"is_reserved":false,"is_disabled":true,"rental_uris":{"android":"levelo://app?vid=00a6a85d-3bdb-4547-a892-00f0771486e9","ios":"levelo://app?vid=00a6a85d-3bdb-4547-a892-00f0771486e9"},"vehicle_type_id":"4","last_reported":1746512139,"current_range_meters":6400,"station_id":"ce4bhs12rcd13ifvqhvg","pricing_plan_id":"cebpf4jnsgd1na2vs0mg"},{"bike_id":"10d563a4-424a-4a44-88bc-065a04b5247a","system_id":"levelo_inurba_marseille","lat":43.21784,"lon":5.34597,"is_reserved":false,"is_disabled":false,"rental_uris":{"android":"levelo://app?vid=10d563a4-424a-4a44-88bc-065a04b5247a","ios":"levelo://app?vid=10d563a4-424a-4a44-88bc-065a04b5247a"},"vehicle_type_id":"4","last_reported":1746512139,"current_range_meters":6400,"station_id":"","pricing_plan_id":"cebpf4jnsgd1na2vs0mg"},{"bike_id":"5c7249a3-596f-4101-8dbd-1087a1f3b438","system_id":"levelo_inurba_marseille","lat":43.23193,"lon":5.35534,"is_reserved":false,"is_disabled":false,"rental_uris":{"android":"levelo://app?vid=5c7249a3-596f-4101-8dbd-1087a1f3b438","ios":"levelo://app?vid=5c7249a3-596f-4101-8dbd-1087a1f3b438"},"vehicle_type_id":"4","last_reported":1746512139,"current_range_meters":6800,"station_id":"ce4bhu92rcd13ifvqi70","pricing_plan_id":"cebpf4jnsgd1na2vs0mg"},{"bike_id":"d08e881c-4ac2-413a-af9c-5ff0285ab7f6","system_id":"levelo_inurba_marseille","lat":43.27943,"lon":5.41057,"is_reserved":false,"is_disabled":false,"rental_uris":{"android":"levelo://app?vid=d08e881c-4ac2-413a-af9c-5ff0285ab7f6","ios":"levelo://app?vid=d08e881c-4ac2-413a-af9c-5ff0285ab7f6"},"vehicle_type_id":"4","last_reported":1746512139,"current_range_meters":6800,"station_id":"ce4bhnp2rcd13ifvqh0g","pricing_plan_id":"cebpf4jnsgd1na2vs0mg"},{"bike_id":"482344f1-460c-48ea-83dd-01b9a385e5cf","system_id":"levelo_inurba_marseille","lat":43.30676,"lon":5.36866,"is_reserved":false,"is_disabled":false,"rental_uris":{"android":"levelo://app?vid=482344f1-460c-48ea-83dd-01b9a385e5cf","ios":"levelo://app?vid=482344f1-460c-48ea-83dd-01b9a385e5cf"},"vehicle_type_id":"4","last_reported":1746512139,"current_range_meters":7200,"station_id":"","pricing_plan_id":"cebpf4jnsgd1na2vs0mg"},{"bike_id":"c96e65ae-0db7-41e9-b124-35b124c74127","system_id":"levelo_inurba_marseille","lat":43.26561,"lon":5.39007,"is_reserved":false,"is_disabled":false,"rental_uris":{"android":"levelo://app?vid=c96e65ae-0db7-41e9-b124-35b124c74127","ios":"levelo://app?vid=c96e65ae-0db7-41e9-b124-35b124c74127"},"vehicle_type_id":"4","last_reported":1746512139,"current_range_meters":7200,"station_id":"ce4bhe12rcd13ifvqf30","pricing_plan_id":"cebpf4jnsgd1na2vs0mg"},{"bike_id":"3060c5c1-2a54-4871-9a53-5d34aaf056e8","system_id":"levelo_inurba_marseille","lat":43.276211,"lon":5.36107,"is_reserved":false,"is_disabled":false,"rental_uris":{"android":"levelo://app?vid=3060c5c1-2a54-4871-9a53-5d34aaf056e8","ios":"levelo://app?vid=3060c5c1-2a54-4871-9a53-5d34aaf056e8"},"vehicle_type_id":"4","last_reported":1746512139,"current_range_meters":6800,"station_id":"ce4bgj92rcd13ifvqbe0","pricing_plan_id":"cebpf4jnsgd1na2vs0mg"},{"bike_id":"989604ee-b258-4ff0-9891-166040b7c944","system_id":"levelo_inurba_marseille","lat":43.262,"lon":5.37932,"is_reserved":false,"is_disabled":false,"rental_uris":{"android":"levelo://app?vid=989604ee-b258-4ff0-9891-166040b7c944","ios":"levelo://app?vid=989604ee-b258-4ff0-9891-166040b7c944"},"vehicle_type_id":"4","last_reported":1746512139,"current_range_meters":7200,"station_id":"ce4bhjp2rcd13ifvqg90","pricing_plan_id":"cebpf4jnsgd1na2vs0mg"},{"bike_id":"0abcae01-1862-4143-bdf4-a1c33ab44636","system_id":"levelo_inurba_marseille","lat":43.3254,"lon":5.41429,"is_reserved":false,"is_disabled":false,"rental_uris":{"android":"levelo://app?vid=0abcae01-1862-4143-bdf4-a1c33ab44636","ios":"levelo://app?vid=0abcae01-1862-4143-bdf4-a1c33ab44636"},"vehicle_type_id":"4","last_reported":1746512139,"current_range_meters":8000,"station_id":"ce4bhq12rcd13ifvqhhg","pricing_plan_id":"cebpf4jnsgd1na2vs0mg"},{"bike_id":"b73c5f22-57c3-42fb-a428-749049909d64","system_id":"levelo_inurba_marseille","lat":43.27931,"lon":5.41054,"is_reserved":false,"is_disabled":false,"rental_uris":{"android":"levelo://app?vid=b73c5f22-57c3-42fb-a428-749049909d64","ios":"levelo://app?vid=b73c5f22-57c3-42fb-a428-749049909d64"},"vehicle_type_id":"4","last_reported":1746512139,"current_range_meters":8000,"station_id":"ce4bhnp2rcd13ifvqh0g","pricing_plan_id":"cebpf4jnsgd1na2vs0mg"},{"bike_id":"2b31a7e3-ead1-4feb-9767-643cb0da2b19","system_id":"levelo_inurba_marseille","lat":43.24068,"lon":5.37774,"is_reserved":false,"is_disabled":false,"rental_uris":{"android":"levelo://app?vid=2b31a7e3-ead1-4feb-9767-643cb0da2b19","ios":"levelo://app?vid=2b31a7e3-ead1-4feb-9767-643cb0da2b19"},"vehicle_type_id":"4","last_reported":1746512139,"current_range_meters":8000,"station_id":"ce4bhnp2rcd13ifvqgvg","pricing_plan_id":"cebpf4jnsgd1na2vs0mg"},{"bike_id":"1e84e465-2e14-47ac-91f0-53a839d6422a","system_id":"levelo_inurba_marseille","lat":43.313689,"lon":5.384889,"is_reserved":false,"is_disabled":false,"rental_uris":{"android":"levelo://app?vid=1e84e465-2e14-47ac-91f0-53a839d6422a","ios":"levelo://app?vid=1e84e465-2e14-47ac-91f0-53a839d6422a"},"vehicle_type_id":"4","last_reported":1746512139,"current_range_meters":8000,"station_id":"ce4bgt92rcd13ifvqcf0","pricing_plan_id":"cebpf4jnsgd1na2vs0mg"},{"bike_id":"f31ec4a7-4190-4179-9df4-046f34d1f185","system_id":"levelo_inurba_marseille","lat":43.26564,"lon":5.38999,"is_reserved":false,"is_disabled":false,"rental_uris":{"android":"levelo://app?vid=f31ec4a7-4190-4179-9df4-046f34d1f185","ios":"levelo://app?vid=f31ec4a7-4190-4179-9df4-046f34d1f185"},"vehicle_type_id":"4","last_reported":1746512139,"current_range_meters":8400,"station_id":"ce4bhe12rcd13ifvqf30","pricing_plan_id":"cebpf4jnsgd1na2vs0mg"},{"bike_id":"04b4674b-4434-40e5-9e75-4a7229750edd","system_id":"levelo_inurba_marseille","lat":43.27939,"lon":5.41042,"is_reserved":false,"is_disabled":true,"rental_uris":{"android":"levelo://app?vid=04b4674b-4434-40e5-9e75-4a7229750edd","ios":"levelo://app?vid=04b4674b-4434-40e5-9e75-4a7229750edd"},"vehicle_type_id":"4","last_reported":1746512139,"current_range_meters":8400,"station_id":"ce4bhnp2rcd13ifvqh0g","pricing_plan_id":"cebpf4jnsgd1na2vs0mg"},{"bike_id":"90728acd-507e-4586-8514-7150be18c1a3","system_id":"levelo_inurba_marseille","lat":43.31983,"lon":5.38141,"is_reserved":false,"is_disabled":true,"rental_uris":{"android":"levelo://app?vid=90728acd-507e-4586-8514-7150be18c1a3","ios":"levelo://app?vid=90728acd-507e-4586-8514-7150be18c1a3"},"vehicle_type_id":"4","last_reported":1746512139,"current_range_meters":8400,"station_id":"ce4bhr12rcd13ifvqhpg","pricing_plan_id":"cebpf4jnsgd1na2vs0mg"},{"bike_id":"a105130d-2c0b-47d7-ad9e-26b35e0360b8","system_id":"levelo_inurba_marseille","lat":43.23998,"lon":5.36629,"is_reserved":false,"is_disabled":false,"rental_uris":{"android":"levelo://app?vid=a105130d-2c0b-47d7-ad9e-26b35e0360b8","ios":"levelo://app?vid=a105130d-2c0b-47d7-ad9e-26b35e0360b8"},"vehicle_type_id":"4","last_reported":1746512139,"current_range_meters":8400,"station_id":"","pricing_plan_id":"cebpf4jnsgd1na2vs0mg"},{"bike_id":"a1bb5b12-0748-49bc-b22e-ea6b1e97ef64","system_id":"levelo_inurba_marseille","lat":43.27498,"lon":5.42455,"is_reserved":false,"is_disabled":true,"rental_uris":{"android":"levelo://app?vid=a1bb5b12-0748-49bc-b22e-ea6b1e97ef64","ios":"levelo://app?vid=a1bb5b12-0748-49bc-b22e-ea6b1e97ef64"},"vehicle_type_id":"4","last_reported":1746512139,"current_range_meters":8400,"station_id":"ce4bhn92rcd13ifvqgrg","pricing_plan_id":"cebpf4jnsgd1na2vs0mg"},{"bike_id":"d9ebccfe-dd7b-4132-a6f6-002262765ed4","system_id":"levelo_inurba_marseille","lat":43.27997,"lon":5.40023,"is_reserved":false,"is_disabled":false,"rental_uris":{"android":"levelo://app?vid=d9ebccfe-dd7b-4132-a6f6-002262765ed4","ios":"levelo://app?vid=d9ebccfe-dd7b-4132-a6f6-002262765ed4"},"vehicle_type_id":"4","last_reported":1746512139,"current_range_meters":8400,"station_id":"ce4bho92rcd13ifvqh4g","pricing_plan_id":"cebpf4jnsgd1na2vs0mg"},{"bike_id":"7a2589c6-a8c1-46f5-a962-7daecd246db4","system_id":"levelo_inurba_marseille","lat":43.31539,"lon":5.38037,"is_reserved":false,"is_disabled":false,"rental_uris":{"android":"levelo://app?vid=7a2589c6-a8c1-46f5-a962-7daecd246db4","ios":"levelo://app?vid=7a2589c6-a8c1-46f5-a962-7daecd246db4"},"vehicle_type_id":"4","last_reported":1746512139,"current_range_meters":8400,"station_id":"ce4bhsp2rcd13ifvqi50","pricing_plan_id":"cebpf4jnsgd1na2vs0mg"},{"bike_id":"d792091c-3edc-4730-8f3d-da81c014d0ba","system_id":"levelo_inurba_marseille","lat":43.28346,"lon":5.38089,"is_reserved":false,"is_disabled":false,"rental_uris":{"android":"levelo://app?vid=d792091c-3edc-4730-8f3d-da81c014d0ba","ios":"levelo://app?vid=d792091c-3edc-4730-8f3d-da81c014d0ba"},"vehicle_type_id":"4","last_reported":1746512139,"current_range_meters":8400,"station_id":"ce4bh412rcd13ifvqdr0","pricing_plan_id":"cebpf4jnsgd1na2vs0mg"},{"bike_id":"9fc13afb-e947-475e-b143-9f3ee51b87b5","system_id":"levelo_inurba_marseille","lat":43.30311,"lon":5.39221,"is_reserved":false,"is_disabled":true,"rental_uris":{"android":"levelo://app?vid=9fc13afb-e947-475e-b143-9f3ee51b87b5","ios":"levelo://app?vid=9fc13afb-e947-475e-b143-9f3ee51b87b5"},"vehicle_type_id":"4","last_reported":1746512139,"current_range_meters":8800,"station_id":"ce4bgkh2rcd13ifvqbk0","pricing_plan_id":"cebpf4jnsgd1na2vs0mg"},{"bike_id":"0be7ec30-c0bd-4f11-a3e2-23b76ffbc5fe","system_id":"levelo_inurba_marseille","lat":43.24073,"lon":5.37759,"is_reserved":false,"is_disabled":false,"rental_uris":{"android":"levelo://app?vid=0be7ec30-c0bd-4f11-a3e2-23b76ffbc5fe","ios":"levelo://app?vid=0be7ec30-c0bd-4f11-a3e2-23b76ffbc5fe"},"vehicle_type_id":"4","last_reported":1746512139,"current_range_meters":8800,"station_id":"ce4bhnp2rcd13ifvqgvg","pricing_plan_id":"cebpf4jnsgd1na2vs0mg"},{"bike_id":"00204a25-822f-46ad-a3b5-67ebf267e47e","system_id":"levelo_inurba_marseille","lat":43.28252,"lon":5.35082,"is_reserved":false,"is_disabled":false,"rental_uris":{"android":"levelo://app?vid=00204a25-822f-46ad-a3b5-67ebf267e47e","ios":"levelo://app?vid=00204a25-822f-46ad-a3b5-67ebf267e47e"},"vehicle_type_id":"4","last_reported":1746512139,"current_range_meters":8800,"station_id":"ce4bhbp2rcd13ifvqerg","pricing_plan_id":"cebpf4jnsgd1na2vs0mg"},{"bike_id":"f9cec597-af13-4a8a-be1d-b7cf54819d4d","system_id":"levelo_inurba_marseille","lat":43.289631,"lon":5.407216,"is_reserved":false,"is_disabled":false,"rental_uris":{"android":"levelo://app?vid=f9cec597-af13-4a8a-be1d-b7cf54819d4d","ios":"levelo://app?vid=f9cec597-af13-4a8a-be1d-b7cf54819d4d"},"vehicle_type_id":"4","last_reported":1746512139,"current_range_meters":9200,"station_id":"","pricing_plan_id":"cebpf4jnsgd1na2vs0mg"},{"bike_id":"8d4be988-3950-4bb6-9b3b-d3a13607020e","system_id":"levelo_inurba_marseille","lat":43.27482,"lon":5.42436,"is_reserved":false,"is_disabled":false,"rental_uris":{"android":"levelo://app?vid=8d4be988-3950-4bb6-9b3b-d3a13607020e","ios":"levelo://app?vid=8d4be988-3950-4bb6-9b3b-d3a13607020e"},"vehicle_type_id":"4","last_reported":1746512139,"current_range_meters":9600,"station_id":"ce4bhn92rcd13ifvqgrg","pricing_plan_id":"cebpf4jnsgd1na2vs0mg"},{"bike_id":"a340f385-a1e7-485c-aa95-241503da679d","system_id":"levelo_inurba_marseille","lat":43.3137,"lon":5.38513,"is_reserved":false,"is_disabled":false,"rental_uris":{"android":"levelo://app?vid=a340f385-a1e7-485c-aa95-241503da679d","ios":"levelo://app?vid=a340f385-a1e7-485c-aa95-241503da679d"},"vehicle_type_id":"4","last_reported":1746512139,"current_range_meters":9600,"station_id":"ce4bgt92rcd13ifvqcf0","pricing_plan_id":"cebpf4jnsgd1na2vs0mg"},{"bike_id":"bd3a1393-ae2a-4966-9e2b-332e44180687","system_id":"levelo_inurba_marseille","lat":43.25119,"lon":5.40321,"is_reserved":false,"is_disabled":false,"rental_uris":{"android":"levelo://app?vid=bd3a1393-ae2a-4966-9e2b-332e44180687","ios":"levelo://app?vid=bd3a1393-ae2a-4966-9e2b-332e44180687"},"vehicle_type_id":"4","last_reported":1746512139,"current_range_meters":9600,"station_id":"ce4bhlh2rcd13ifvqgig","pricing_plan_id":"cebpf4jnsgd1na2vs0mg"},{"bike_id":"9d8f73eb-df09-4699-86a7-d631e2319093","system_id":"levelo_inurba_marseille","lat":43.26273,"lon":5.37454,"is_reserved":false,"is_disabled":false,"rental_uris":{"android":"levelo://app?vid=9d8f73eb-df09-4699-86a7-d631e2319093","ios":"levelo://app?vid=9d8f73eb-df09-4699-86a7-d631e2319093"},"vehicle_type_id":"4","last_reported":1746512139,"current_range_meters":9600,"station_id":"","pricing_plan_id":"cebpf4jnsgd1na2vs0mg"},{"bike_id":"62bfa9fa-531f-4d2b-9e57-eb50b2d48c8c","system_id":"levelo_inurba_marseille","lat":43.24286,"lon":5.37992,"is_reserved":false,"is_disabled":false,"rental_uris":{"android":"levelo://app?vid=62bfa9fa-531f-4d2b-9e57-eb50b2d48c8c","ios":"levelo://app?vid=62bfa9fa-531f-4d2b-9e57-eb50b2d48c8c"},"vehicle_type_id":"4","last_reported":1746512139,"current_range_meters":9600,"station_id":"","pricing_plan_id":"cebpf4jnsgd1na2vs0mg"},{"bike_id":"f6aaa213-9bb7-4b13-824c-e6011a655632","system_id":"levelo_inurba_marseille","lat":43.29197,"lon":5.44162,"is_reserved":false,"is_disabled":false,"rental_uris":{"android":"levelo://app?vid=f6aaa213-9bb7-4b13-824c-e6011a655632","ios":"levelo://app?vid=f6aaa213-9bb7-4b13-824c-e6011a655632"},"vehicle_type_id":"4","last_reported":1746512139,"current_range_meters":9600,"station_id":"","pricing_plan_id":"cebpf4jnsgd1na2vs0mg"},{"bike_id":"41aaa1ed-a708-4a9a-b5aa-450e891d24b0","system_id":"levelo_inurba_marseille","lat":43.26668,"lon":5.39052,"is_reserved":false,"is_disabled":false,"rental_uris":{"android":"levelo://app?vid=41aaa1ed-a708-4a9a-b5aa-450e891d24b0","ios":"levelo://app?vid=41aaa1ed-a708-4a9a-b5aa-450e891d24b0"},"vehicle_type_id":"4","last_reported":1746512139,"current_range_meters":9600,"station_id":"","pricing_plan_id":"cebpf4jnsgd1na2vs0mg"},{"bike_id":"e6e06448-99fd-45a8-b33d-f5b31d1986e2","system_id":"levelo_inurba_marseille","lat":43.301561,"lon":5.380811,"is_reserved":false,"is_disabled":false,"rental_uris":{"android":"levelo://app?vid=e6e06448-99fd-45a8-b33d-f5b31d1986e2","ios":"levelo://app?vid=e6e06448-99fd-45a8-b33d-f5b31d1986e2"},"vehicle_type_id":"4","last_reported":1746512139,"current_range_meters":10000,"station_id":"ce4bgjp2rcd13ifvqbh0","pricing_plan_id":"cebpf4jnsgd1na2vs0mg"},{"bike_id":"5c1f4415-cd4a-4608-8be5-cec948214d3c","system_id":"levelo_inurba_marseille","lat":43.23179,"lon":5.39978,"is_reserved":false,"is_disabled":false,"rental_uris":{"android":"levelo://app?vid=5c1f4415-cd4a-4608-8be5-cec948214d3c","ios":"levelo://app?vid=5c1f4415-cd4a-4608-8be5-cec948214d3c"},"vehicle_type_id":"4","last_reported":1746512139,"current_range_meters":10000,"station_id":"ce4bhn12rcd13ifvqgqg","pricing_plan_id":"cebpf4jnsgd1na2vs0mg"},{"bike_id":"268ac42a-67ca-41b9-962f-05154b271346","system_id":"levelo_inurba_marseille","lat":43.25826,"lon":5.39436,"is_reserved":false,"is_disabled":false,"rental_uris":{"android":"levelo://app?vid=268ac42a-67ca-41b9-962f-05154b271346","ios":"levelo://app?vid=268ac42a-67ca-41b9-962f-05154b271346"},"vehicle_type_id":"4","last_reported":1746512139,"current_range_meters":10000,"station_id":"ce4bhip2rcd13ifvqft0","pricing_plan_id":"cebpf4jnsgd1na2vs0mg"},{"bike_id":"0cb139c7-ebfc-4316-b1f8-0830598824b5","system_id":"levelo_inurba_marseille","lat":43.29784,"lon":5.39368,"is_reserved":false,"is_disabled":true,"rental_uris":{"android":"levelo://app?vid=0cb139c7-ebfc-4316-b1f8-0830598824b5","ios":"levelo://app?vid=0cb139c7-ebfc-4316-b1f8-0830598824b5"},"vehicle_type_id":"4","last_reported":1746512139,"current_range_meters":10000,"station_id":"chh1huq6cuj3fo74tm60","pricing_plan_id":"cebpf4jnsgd1na2vs0mg"},{"bike_id":"b2204296-bd18-4c59-b516-9148841bc713","system_id":"levelo_inurba_marseille","lat":43.266796,"lon":5.38267,"is_reserved":false,"is_disabled":false,"rental_uris":{"android":"levelo://app?vid=b2204296-bd18-4c59-b516-9148841bc713","ios":"levelo://app?vid=b2204296-bd18-4c59-b516-9148841bc713"},"vehicle_type_id":"4","last_reported":1746512139,"current_range_meters":9600,"station_id":"ce4bhg92rcd13ifvqf90","pricing_plan_id":"cebpf4jnsgd1na2vs0mg"},{"bike_id":"2fd37d1f-9af8-473c-8560-6bacb9c949ca","system_id":"levelo_inurba_marseille","lat":43.31683,"lon":5.40471,"is_reserved":false,"is_disabled":false,"rental_uris":{"android":"levelo://app?vid=2fd37d1f-9af8-473c-8560-6bacb9c949ca","ios":"levelo://app?vid=2fd37d1f-9af8-473c-8560-6bacb9c949ca"},"vehicle_type_id":"4","last_reported":1746512139,"current_range_meters":10000,"station_id":"ce4bh012rcd13ifvqd00","pricing_plan_id":"cebpf4jnsgd1na2vs0mg"},{"bike_id":"b486f5fd-1209-4352-985e-d268bb97a482","system_id":"levelo_inurba_marseille","lat":43.284284,"lon":5.349936,"is_reserved":false,"is_disabled":false,"rental_uris":{"android":"levelo://app?vid=b486f5fd-1209-4352-985e-d268bb97a482","ios":"levelo://app?vid=b486f5fd-1209-4352-985e-d268bb97a482"},"vehicle_type_id":"4","last_reported":1746512139,"current_range_meters":10000,"station_id":"ce4bhbh2rcd13ifvqepg","pricing_plan_id":"cebpf4jnsgd1na2vs0mg"},{"bike_id":"956500c4-d3dd-4eee-9629-9dfc2e7686d3","system_id":"levelo_inurba_marseille","lat":43.3037,"lon":5.42495,"is_reserved":false,"is_disabled":false,"rental_uris":{"android":"levelo://app?vid=956500c4-d3dd-4eee-9629-9dfc2e7686d3","ios":"levelo://app?vid=956500c4-d3dd-4eee-9629-9dfc2e7686d3"},"vehicle_type_id":"4","last_reported":1746512139,"current_range_meters":10000,"station_id":"ce4bhoh2rcd13ifvqh6g","pricing_plan_id":"cebpf4jnsgd1na2vs0mg"},{"bike_id":"fbda12d9-6999-44a5-a236-2a288c2ac07c","system_id":"levelo_inurba_marseille","lat":43.24051,"lon":5.37772,"is_reserved":false,"is_disabled":false,"rental_uris":{"android":"levelo://app?vid=fbda12d9-6999-44a5-a236-2a288c2ac07c","ios":"levelo://app?vid=fbda12d9-6999-44a5-a236-2a288c2ac07c"},"vehicle_type_id":"4","last_reported":1746512139,"current_range_meters":10800,"station_id":"ce4bhnp2rcd13ifvqgvg","pricing_plan_id":"cebpf4jnsgd1na2vs0mg"},{"bike_id":"b60c17f5-436e-489e-8f3c-790e6084ac64","system_id":"levelo_inurba_marseille","lat":43.211887,"lon":5.350835,"is_reserved":false,"is_disabled":false,"rental_uris":{"android":"levelo://app?vid=b60c17f5-436e-489e-8f3c-790e6084ac64","ios":"levelo://app?vid=b60c17f5-436e-489e-8f3c-790e6084ac64"},"vehicle_type_id":"4","last_reported":1746512139,"current_range_meters":10800,"station_id":"st_cvj6sg6p6f1abm77japg","pricing_plan_id":"cebpf4jnsgd1na2vs0mg"},{"bike_id":"8239823c-f77c-4bfc-abf5-f13f638de215","system_id":"levelo_inurba_marseille","lat":43.24072,"lon":5.37765,"is_reserved":false,"is_disabled":false,"rental_uris":{"android":"levelo://app?vid=8239823c-f77c-4bfc-abf5-f13f638de215","ios":"levelo://app?vid=8239823c-f77c-4bfc-abf5-f13f638de215"},"vehicle_type_id":"4","last_reported":1746512139,"current_range_meters":10800,"station_id":"ce4bhnp2rcd13ifvqgvg","pricing_plan_id":"cebpf4jnsgd1na2vs0mg"},{"bike_id":"0c377d9d-9a3a-47a7-9944-6039314b5e15","system_id":"levelo_inurba_marseille","lat":43.24593,"lon":5.4047,"is_reserved":false,"is_disabled":false,"rental_uris":{"android":"levelo://app?vid=0c377d9d-9a3a-47a7-9944-6039314b5e15","ios":"levelo://app?vid=0c377d9d-9a3a-47a7-9944-6039314b5e15"},"vehicle_type_id":"4","last_reported":1746512139,"current_range_meters":10800,"station_id":"","pricing_plan_id":"cebpf4jnsgd1na2vs0mg"},{"bike_id":"4180c385-8d0b-4e94-b0e3-3563a5995ff7","system_id":"levelo_inurba_marseille","lat":43.26565,"lon":5.39063,"is_reserved":false,"is_disabled":true,"rental_uris":{"android":"levelo://app?vid=4180c385-8d0b-4e94-b0e3-3563a5995ff7","ios":"levelo://app?vid=4180c385-8d0b-4e94-b0e3-3563a5995ff7"},"vehicle_type_id":"4","last_reported":1746512139,"current_range_meters":10800,"station_id":"ce4bhe12rcd13ifvqf30","pricing_plan_id":"cebpf4jnsgd1na2vs0mg"},{"bike_id":"05a84f69-0592-442a-b098-6253d0b70e9e","system_id":"levelo_inurba_marseille","lat":43.29996,"lon":5.37205,"is_reserved":false,"is_disabled":false,"rental_uris":{"android":"levelo://app?vid=05a84f69-0592-442a-b098-6253d0b70e9e","ios":"levelo://app?vid=05a84f69-0592-442a-b098-6253d0b70e9e"},"vehicle_type_id":"4","last_reported":1746512139,"current_range_meters":10800,"station_id":"ce4bgr92rcd13ifvqc7g","pricing_plan_id":"cebpf4jnsgd1na2vs0mg"},{"bike_id":"d690aaf7-832d-40b0-91ff-d0898ba3e8d4","system_id":"levelo_inurba_marseille","lat":43.26531,"lon":5.39061,"is_reserved":false,"is_disabled":false,"rental_uris":{"android":"levelo://app?vid=d690aaf7-832d-40b0-91ff-d0898ba3e8d4","ios":"levelo://app?vid=d690aaf7-832d-40b0-91ff-d0898ba3e8d4"},"vehicle_type_id":"4","last_reported":1746512139,"current_range_meters":10800,"station_id":"","pricing_plan_id":"cebpf4jnsgd1na2vs0mg"},{"bike_id":"a46b5721-597c-404e-8ddb-3ba6469f967d","system_id":"levelo_inurba_marseille","lat":43.23177,"lon":5.35573,"is_reserved":false,"is_disabled":false,"rental_uris":{"android":"levelo://app?vid=a46b5721-597c-404e-8ddb-3ba6469f967d","ios":"levelo://app?vid=a46b5721-597c-404e-8ddb-3ba6469f967d"},"vehicle_type_id":"4","last_reported":1746512139,"current_range_meters":11200,"station_id":"ce4bhu92rcd13ifvqi70","pricing_plan_id":"cebpf4jnsgd1na2vs0mg"},{"bike_id":"46515b8e-2c91-48c1-8869-455cffd3d0b7","system_id":"levelo_inurba_marseille","lat":43.27932,"lon":5.41061,"is_reserved":false,"is_disabled":false,"rental_uris":{"android":"levelo://app?vid=46515b8e-2c91-48c1-8869-455cffd3d0b7","ios":"levelo://app?vid=46515b8e-2c91-48c1-8869-455cffd3d0b7"},"vehicle_type_id":"4","last_reported":1746512139,"current_range_meters":11200,"station_id":"ce4bhnp2rcd13ifvqh0g","pricing_plan_id":"cebpf4jnsgd1na2vs0mg"},{"bike_id":"db607aba-0db6-423b-a818-c23224727203","system_id":"levelo_inurba_marseille","lat":43.231563,"lon":5.436973,"is_reserved":false,"is_disabled":false,"rental_uris":{"android":"levelo://app?vid=db607aba-0db6-423b-a818-c23224727203","ios":"levelo://app?vid=db607aba-0db6-423b-a818-c23224727203"},"vehicle_type_id":"4","last_reported":1746512139,"current_range_meters":11200,"station_id":"ce4bhmp2rcd13ifvqgog","pricing_plan_id":"cebpf4jnsgd1na2vs0mg"},{"bike_id":"e59f121e-ba4f-4890-a742-2d0c49eae7d8","system_id":"levelo_inurba_marseille","lat":43.315406,"lon":5.38033,"is_reserved":false,"is_disabled":false,"rental_uris":{"android":"levelo://app?vid=e59f121e-ba4f-4890-a742-2d0c49eae7d8","ios":"levelo://app?vid=e59f121e-ba4f-4890-a742-2d0c49eae7d8"},"vehicle_type_id":"4","last_reported":1746512139,"current_range_meters":11600,"station_id":"ce4bhsp2rcd13ifvqi50","pricing_plan_id":"cebpf4jnsgd1na2vs0mg"},{"bike_id":"9a2ff2d5-5449-4a3a-b062-5d50f352d08a","system_id":"levelo_inurba_marseille","lat":43.3133,"lon":5.39688,"is_reserved":false,"is_disabled":false,"rental_uris":{"android":"levelo://app?vid=9a2ff2d5-5449-4a3a-b062-5d50f352d08a","ios":"levelo://app?vid=9a2ff2d5-5449-4a3a-b062-5d50f352d08a"},"vehicle_type_id":"4","last_reported":1746512139,"current_range_meters":11600,"station_id":"ce4bgvp2rcd13ifvqcu0","pricing_plan_id":"cebpf4jnsgd1na2vs0mg"},{"bike_id":"adf5dfc5-5664-4b0f-8d86-0129f9858272","system_id":"levelo_inurba_marseille","lat":43.30776,"lon":5.37666,"is_reserved":false,"is_disabled":false,"rental_uris":{"android":"levelo://app?vid=adf5dfc5-5664-4b0f-8d86-0129f9858272","ios":"levelo://app?vid=adf5dfc5-5664-4b0f-8d86-0129f9858272"},"vehicle_type_id":"4","last_reported":1746512139,"current_range_meters":11600,"station_id":"ce4bgv92rcd13ifvqcq0","pricing_plan_id":"cebpf4jnsgd1na2vs0mg"},{"bike_id":"7e7dc147-9fb8-4df0-905e-a56344049728","system_id":"levelo_inurba_marseille","lat":43.28983,"lon":5.38665,"is_reserved":false,"is_disabled":true,"rental_uris":{"android":"levelo://app?vid=7e7dc147-9fb8-4df0-905e-a56344049728","ios":"levelo://app?vid=7e7dc147-9fb8-4df0-905e-a56344049728"},"vehicle_type_id":"4","last_reported":1746512139,"current_range_meters":11600,"station_id":"ce4bh4p2rcd13ifvqe0g","pricing_plan_id":"cebpf4jnsgd1na2vs0mg"},{"bike_id":"311ec4e0-482e-4b83-a693-e6b86a1abb04","system_id":"levelo_inurba_marseille","lat":43.33147,"lon":5.41414,"is_reserved":false,"is_disabled":false,"rental_uris":{"android":"levelo://app?vid=311ec4e0-482e-4b83-a693-e6b86a1abb04","ios":"levelo://app?vid=311ec4e0-482e-4b83-a693-e6b86a1abb04"},"vehicle_type_id":"4","last_reported":1746512139,"current_range_meters":11600,"station_id":"","pricing_plan_id":"cebpf4jnsgd1na2vs0mg"},{"bike_id":"44d1a496-4f16-46a6-b178-f49cec17003e","system_id":"levelo_inurba_marseille","lat":43.27184,"lon":5.40975,"is_reserved":false,"is_disabled":false,"rental_uris":{"android":"levelo://app?vid=44d1a496-4f16-46a6-b178-f49cec17003e","ios":"levelo://app?vid=44d1a496-4f16-46a6-b178-f49cec17003e"},"vehicle_type_id":"4","last_reported":1746512139,"current_range_meters":12000,"station_id":"ce4bhl12rcd13ifvqgf0","pricing_plan_id":"cebpf4jnsgd1na2vs0mg"},{"bike_id":"13fcfc94-37a5-49a8-a177-77725e8512b6","system_id":"levelo_inurba_marseille","lat":43.30474,"lon":5.37904,"is_reserved":false,"is_disabled":false,"rental_uris":{"android":"levelo://app?vid=13fcfc94-37a5-49a8-a177-77725e8512b6","ios":"levelo://app?vid=13fcfc94-37a5-49a8-a177-77725e8512b6"},"vehicle_type_id":"4","last_reported":1746512139,"current_range_meters":12000,"station_id":"ce4bgup2rcd13ifvqcn0","pricing_plan_id":"cebpf4jnsgd1na2vs0mg"},{"bike_id":"62ac1f64-a7b6-4272-a127-58b9d2c5a838","system_id":"levelo_inurba_marseille","lat":43.299072,"lon":5.381456,"is_reserved":false,"is_disabled":true,"rental_uris":{"android":"levelo://app?vid=62ac1f64-a7b6-4272-a127-58b9d2c5a838","ios":"levelo://app?vid=62ac1f64-a7b6-4272-a127-58b9d2c5a838"},"vehicle_type_id":"4","last_reported":1746512139,"current_range_meters":12000,"station_id":"","pricing_plan_id":"cebpf4jnsgd1na2vs0mg"},{"bike_id":"c9592205-9409-4f74-aed1-7c4141a58caa","system_id":"levelo_inurba_marseille","lat":43.2714,"lon":5.36355,"is_reserved":false,"is_disabled":false,"rental_uris":{"android":"levelo://app?vid=c9592205-9409-4f74-aed1-7c4141a58caa","ios":"levelo://app?vid=c9592205-9409-4f74-aed1-7c4141a58caa"},"vehicle_type_id":"4","last_reported":1746512139,"current_range_meters":12000,"station_id":"","pricing_plan_id":"cebpf4jnsgd1na2vs0mg"},{"bike_id":"2d3a4e18-5e5c-41fd-a652-c6f84f49b159","system_id":"levelo_inurba_marseille","lat":43.2937,"lon":5.37894,"is_reserved":false,"is_disabled":false,"rental_uris":{"android":"levelo://app?vid=2d3a4e18-5e5c-41fd-a652-c6f84f49b159","ios":"levelo://app?vid=2d3a4e18-5e5c-41fd-a652-c6f84f49b159"},"vehicle_type_id":"4","last_reported":1746512139,"current_range_meters":12000,"station_id":"ce4bgjh2rcd13ifvqbf0","pricing_plan_id":"cebpf4jnsgd1na2vs0mg"},{"bike_id":"814236a1-c992-43c2-9a9e-2999c41400d1","system_id":"levelo_inurba_marseille","lat":43.28938,"lon":5.39628,"is_reserved":false,"is_disabled":false,"rental_uris":{"android":"levelo://app?vid=814236a1-c992-43c2-9a9e-2999c41400d1","ios":"levelo://app?vid=814236a1-c992-43c2-9a9e-2999c41400d1"},"vehicle_type_id":"4","last_reported":1746512139,"current_range_meters":12000,"station_id":"ce4bh3h2rcd13ifvqdn0","pricing_plan_id":"cebpf4jnsgd1na2vs0mg"},{"bike_id":"e114ba8c-35c0-4509-9db3-41f868025b7b","system_id":"levelo_inurba_marseille","lat":43.28271,"lon":5.3507,"is_reserved":false,"is_disabled":false,"rental_uris":{"android":"levelo://app?vid=e114ba8c-35c0-4509-9db3-41f868025b7b","ios":"levelo://app?vid=e114ba8c-35c0-4509-9db3-41f868025b7b"},"vehicle_type_id":"4","last_reported":1746512139,"current_range_meters":12800,"station_id":"ce4bhbp2rcd13ifvqerg","pricing_plan_id":"cebpf4jnsgd1na2vs0mg"},{"bike_id":"ad5f8d36-d7d9-41ae-9bd2-f1f8920bde90","system_id":"levelo_inurba_marseille","lat":43.26243,"lon":5.38776,"is_reserved":false,"is_disabled":false,"rental_uris":{"android":"levelo://app?vid=ad5f8d36-d7d9-41ae-9bd2-f1f8920bde90","ios":"levelo://app?vid=ad5f8d36-d7d9-41ae-9bd2-f1f8920bde90"},"vehicle_type_id":"4","last_reported":1746512139,"current_range_meters":12800,"station_id":"","pricing_plan_id":"cebpf4jnsgd1na2vs0mg"},{"bike_id":"35a2f8d7-ca64-4840-b356-fa7c994f6a65","system_id":"levelo_inurba_marseille","lat":43.29522,"lon":5.394,"is_reserved":false,"is_disabled":false,"rental_uris":{"android":"levelo://app?vid=35a2f8d7-ca64-4840-b356-fa7c994f6a65","ios":"levelo://app?vid=35a2f8d7-ca64-4840-b356-fa7c994f6a65"},"vehicle_type_id":"4","last_reported":1746512139,"current_range_meters":12800,"station_id":"ce4bh292rcd13ifvqdf0","pricing_plan_id":"cebpf4jnsgd1na2vs0mg"},{"bike_id":"3f84d55c-f7b3-443f-a8ba-1f83ba8291a2","system_id":"levelo_inurba_marseille","lat":43.21186,"lon":5.35072,"is_reserved":false,"is_disabled":false,"rental_uris":{"android":"levelo://app?vid=3f84d55c-f7b3-443f-a8ba-1f83ba8291a2","ios":"levelo://app?vid=3f84d55c-f7b3-443f-a8ba-1f83ba8291a2"},"vehicle_type_id":"4","last_reported":1746512139,"current_range_meters":12800,"station_id":"st_cvj6sg6p6f1abm77japg","pricing_plan_id":"cebpf4jnsgd1na2vs0mg"},{"bike_id":"7ca09d8d-51db-4057-abe2-e9c1bdbcdfac","system_id":"levelo_inurba_marseille","lat":43.22952,"lon":5.35383,"is_reserved":false,"is_disabled":true,"rental_uris":{"android":"levelo://app?vid=7ca09d8d-51db-4057-abe2-e9c1bdbcdfac","ios":"levelo://app?vid=7ca09d8d-51db-4057-abe2-e9c1bdbcdfac"},"vehicle_type_id":"4","last_reported":1746512139,"current_range_meters":12800,"station_id":"cpo3532slgdg3j2ikp40","pricing_plan_id":"cebpf4jnsgd1na2vs0mg"},{"bike_id":"34b1efd4-48c2-4719-84d4-6a6a73d11d34","system_id":"levelo_inurba_marseille","lat":43.31473,"lon":5.37319,"is_reserved":false,"is_disabled":false,"rental_uris":{"android":"levelo://app?vid=34b1efd4-48c2-4719-84d4-6a6a73d11d34","ios":"levelo://app?vid=34b1efd4-48c2-4719-84d4-6a6a73d11d34"},"vehicle_type_id":"4","last_reported":1746512139,"current_range_meters":12800,"station_id":"ce4bgt12rcd13ifvqcd0","pricing_plan_id":"cebpf4jnsgd1na2vs0mg"},{"bike_id":"6a38e9ca-1902-4951-ba95-8f8d8390042b","system_id":"levelo_inurba_marseille","lat":43.26576,"lon":5.3905,"is_reserved":false,"is_disabled":false,"rental_uris":{"android":"levelo://app?vid=6a38e9ca-1902-4951-ba95-8f8d8390042b","ios":"levelo://app?vid=6a38e9ca-1902-4951-ba95-8f8d8390042b"},"vehicle_type_id":"4","last_reported":1746512139,"current_range_meters":12800,"station_id":"ce4bhe12rcd13ifvqf30","pricing_plan_id":"cebpf4jnsgd1na2vs0mg"},{"bike_id":"8dac27be-a00b-4425-aba9-9ad4ebb57a63","system_id":"levelo_inurba_marseille","lat":43.2867,"lon":5.38691,"is_reserved":false,"is_disabled":true,"rental_uris":{"android":"levelo://app?vid=8dac27be-a00b-4425-aba9-9ad4ebb57a63","ios":"levelo://app?vid=8dac27be-a00b-4425-aba9-9ad4ebb57a63"},"vehicle_type_id":"4","last_reported":1746512139,"current_range_meters":13600,"station_id":"ce4bh492rcd13ifvqdug","pricing_plan_id":"cebpf4jnsgd1na2vs0mg"},{"bike_id":"858bed88-3c9c-4c60-b913-cfc9a1021309","system_id":"levelo_inurba_marseille","lat":43.31763,"lon":5.39017,"is_reserved":false,"is_disabled":false,"rental_uris":{"android":"levelo://app?vid=858bed88-3c9c-4c60-b913-cfc9a1021309","ios":"levelo://app?vid=858bed88-3c9c-4c60-b913-cfc9a1021309"},"vehicle_type_id":"4","last_reported":1746512139,"current_range_meters":12800,"station_id":"ce4bhqp2rcd13ifvqhng","pricing_plan_id":"cebpf4jnsgd1na2vs0mg"},{"bike_id":"d7b1e4d8-f726-4ea7-bc51-7e6d351a33c5","system_id":"levelo_inurba_marseille","lat":43.24077,"lon":5.37761,"is_reserved":false,"is_disabled":false,"rental_uris":{"android":"levelo://app?vid=d7b1e4d8-f726-4ea7-bc51-7e6d351a33c5","ios":"levelo://app?vid=d7b1e4d8-f726-4ea7-bc51-7e6d351a33c5"},"vehicle_type_id":"4","last_reported":1746512139,"current_range_meters":13600,"station_id":"ce4bhnp2rcd13ifvqgvg","pricing_plan_id":"cebpf4jnsgd1na2vs0mg"},{"bike_id":"81843eb2-34db-4146-ab55-14ac68ee067b","system_id":"levelo_inurba_marseille","lat":43.28,"lon":5.40017,"is_reserved":false,"is_disabled":false,"rental_uris":{"android":"levelo://app?vid=81843eb2-34db-4146-ab55-14ac68ee067b","ios":"levelo://app?vid=81843eb2-34db-4146-ab55-14ac68ee067b"},"vehicle_type_id":"4","last_reported":1746512139,"current_range_meters":13600,"station_id":"ce4bho92rcd13ifvqh4g","pricing_plan_id":"cebpf4jnsgd1na2vs0mg"},{"bike_id":"d4b79a7e-fcd3-4d6e-b784-ac6a41323bfc","system_id":"levelo_inurba_marseille","lat":43.30948,"lon":5.39031,"is_reserved":false,"is_disabled":false,"rental_uris":{"android":"levelo://app?vid=d4b79a7e-fcd3-4d6e-b784-ac6a41323bfc","ios":"levelo://app?vid=d4b79a7e-fcd3-4d6e-b784-ac6a41323bfc"},"vehicle_type_id":"4","last_reported":1746512139,"current_range_meters":13600,"station_id":"ce4bgup2rcd13ifvqco0","pricing_plan_id":"cebpf4jnsgd1na2vs0mg"},{"bike_id":"e3bb4c0a-ea28-4d8b-a92a-340ecfdd5f1d","system_id":"levelo_inurba_marseille","lat":43.31036,"lon":5.37585,"is_reserved":false,"is_disabled":false,"rental_uris":{"android":"levelo://app?vid=e3bb4c0a-ea28-4d8b-a92a-340ecfdd5f1d","ios":"levelo://app?vid=e3bb4c0a-ea28-4d8b-a92a-340ecfdd5f1d"},"vehicle_type_id":"4","last_reported":1746512139,"current_range_meters":14000,"station_id":"","pricing_plan_id":"cebpf4jnsgd1na2vs0mg"},{"bike_id":"2df614bf-145f-44cd-b174-f8bd8326963c","system_id":"levelo_inurba_marseille","lat":43.31536,"lon":5.38037,"is_reserved":false,"is_disabled":false,"rental_uris":{"android":"levelo://app?vid=2df614bf-145f-44cd-b174-f8bd8326963c","ios":"levelo://app?vid=2df614bf-145f-44cd-b174-f8bd8326963c"},"vehicle_type_id":"4","last_reported":1746512139,"current_range_meters":14000,"station_id":"ce4bhsp2rcd13ifvqi50","pricing_plan_id":"cebpf4jnsgd1na2vs0mg"},{"bike_id":"99097e50-dd2e-47c3-a879-f48655baf4d9","system_id":"levelo_inurba_marseille","lat":43.24597,"lon":5.40835,"is_reserved":false,"is_disabled":false,"rental_uris":{"android":"levelo://app?vid=99097e50-dd2e-47c3-a879-f48655baf4d9","ios":"levelo://app?vid=99097e50-dd2e-47c3-a879-f48655baf4d9"},"vehicle_type_id":"4","last_reported":1746512139,"current_range_meters":14400,"station_id":"","pricing_plan_id":"cebpf4jnsgd1na2vs0mg"},{"bike_id":"5a7d2749-ecbc-4351-94f2-8339d95d4c06","system_id":"levelo_inurba_marseille","lat":43.3154,"lon":5.38035,"is_reserved":false,"is_disabled":true,"rental_uris":{"android":"levelo://app?vid=5a7d2749-ecbc-4351-94f2-8339d95d4c06","ios":"levelo://app?vid=5a7d2749-ecbc-4351-94f2-8339d95d4c06"},"vehicle_type_id":"4","last_reported":1746512139,"current_range_meters":14400,"station_id":"ce4bhsp2rcd13ifvqi50","pricing_plan_id":"cebpf4jnsgd1na2vs0mg"},{"bike_id":"5987d684-ebbc-4e3b-9225-d827a0b9ff39","system_id":"levelo_inurba_marseille","lat":43.23548,"lon":5.36246,"is_reserved":false,"is_disabled":false,"rental_uris":{"android":"levelo://app?vid=5987d684-ebbc-4e3b-9225-d827a0b9ff39","ios":"levelo://app?vid=5987d684-ebbc-4e3b-9225-d827a0b9ff39"},"vehicle_type_id":"4","last_reported":1746512139,"current_range_meters":14400,"station_id":"","pricing_plan_id":"cebpf4jnsgd1na2vs0mg"},{"bike_id":"741922f7-49ff-4751-a228-5a73f2c8c24d","system_id":"levelo_inurba_marseille","lat":43.24171,"lon":5.364,"is_reserved":false,"is_disabled":false,"rental_uris":{"android":"levelo://app?vid=741922f7-49ff-4751-a228-5a73f2c8c24d","ios":"levelo://app?vid=741922f7-49ff-4751-a228-5a73f2c8c24d"},"vehicle_type_id":"4","last_reported":1746512139,"current_range_meters":14400,"station_id":"cpo36qri1sfpv3e86is0","pricing_plan_id":"cebpf4jnsgd1na2vs0mg"},{"bike_id":"89d3f377-5a64-405e-ad75-45e8469ae3f6","system_id":"levelo_inurba_marseille","lat":43.26937,"lon":5.40301,"is_reserved":false,"is_disabled":true,"rental_uris":{"android":"levelo://app?vid=89d3f377-5a64-405e-ad75-45e8469ae3f6","ios":"levelo://app?vid=89d3f377-5a64-405e-ad75-45e8469ae3f6"},"vehicle_type_id":"4","last_reported":1746512139,"current_range_meters":14400,"station_id":"cjm6bp8fraef2m0cb0m0","pricing_plan_id":"cebpf4jnsgd1na2vs0mg"},{"bike_id":"c25acc94-2e6f-4a89-8ea3-9d8a1bb19038","system_id":"levelo_inurba_marseille","lat":43.24552,"lon":5.39527,"is_reserved":false,"is_disabled":false,"rental_uris":{"android":"levelo://app?vid=c25acc94-2e6f-4a89-8ea3-9d8a1bb19038","ios":"levelo://app?vid=c25acc94-2e6f-4a89-8ea3-9d8a1bb19038"},"vehicle_type_id":"4","last_reported":1746512139,"current_range_meters":14000,"station_id":"ce4bhlp2rcd13ifvqgjg","pricing_plan_id":"cebpf4jnsgd1na2vs0mg"},{"bike_id":"c50fe4de-a368-4384-8e2e-4cdc9d466278","system_id":"levelo_inurba_marseille","lat":43.28176,"lon":5.42629,"is_reserved":false,"is_disabled":false,"rental_uris":{"android":"levelo://app?vid=c50fe4de-a368-4384-8e2e-4cdc9d466278","ios":"levelo://app?vid=c50fe4de-a368-4384-8e2e-4cdc9d466278"},"vehicle_type_id":"4","last_reported":1746512139,"current_range_meters":14800,"station_id":"ce4bhnh2rcd13ifvqgug","pricing_plan_id":"cebpf4jnsgd1na2vs0mg"},{"bike_id":"4f854c95-b79a-4cd7-a7a1-f24f44dccb26","system_id":"levelo_inurba_marseille","lat":43.29313,"lon":5.37182,"is_reserved":false,"is_disabled":false,"rental_uris":{"android":"levelo://app?vid=4f854c95-b79a-4cd7-a7a1-f24f44dccb26","ios":"levelo://app?vid=4f854c95-b79a-4cd7-a7a1-f24f44dccb26"},"vehicle_type_id":"4","last_reported":1746512139,"current_range_meters":14800,"station_id":"ce4bgh92rcd13ifvqb40","pricing_plan_id":"cebpf4jnsgd1na2vs0mg"},{"bike_id":"f12a93c9-2728-4b09-bd3b-da3d1f2ec864","system_id":"levelo_inurba_marseille","lat":43.30203,"lon":5.3738,"is_reserved":false,"is_disabled":false,"rental_uris":{"android":"levelo://app?vid=f12a93c9-2728-4b09-bd3b-da3d1f2ec864","ios":"levelo://app?vid=f12a93c9-2728-4b09-bd3b-da3d1f2ec864"},"vehicle_type_id":"4","last_reported":1746512139,"current_range_meters":14800,"station_id":"ce4bgs92rcd13ifvqcc0","pricing_plan_id":"cebpf4jnsgd1na2vs0mg"},{"bike_id":"7de8d32f-4eff-4a4b-b4df-885daad904ff","system_id":"levelo_inurba_marseille","lat":43.32371,"lon":5.38882,"is_reserved":false,"is_disabled":false,"rental_uris":{"android":"levelo://app?vid=7de8d32f-4eff-4a4b-b4df-885daad904ff","ios":"levelo://app?vid=7de8d32f-4eff-4a4b-b4df-885daad904ff"},"vehicle_type_id":"4","last_reported":1746512139,"current_range_meters":14800,"station_id":"ce4bhqp2rcd13ifvqhog","pricing_plan_id":"cebpf4jnsgd1na2vs0mg"},{"bike_id":"e96aed38-4a0d-4978-b6c9-65d6ecdea43d","system_id":"levelo_inurba_marseille","lat":43.29422,"lon":5.37899,"is_reserved":false,"is_disabled":true,"rental_uris":{"android":"levelo://app?vid=e96aed38-4a0d-4978-b6c9-65d6ecdea43d","ios":"levelo://app?vid=e96aed38-4a0d-4978-b6c9-65d6ecdea43d"},"vehicle_type_id":"4","last_reported":1746512139,"current_range_meters":15200,"station_id":"","pricing_plan_id":"cebpf4jnsgd1na2vs0mg"},{"bike_id":"d80a186c-6cde-48d1-a6c4-cc1ccc278891","system_id":"levelo_inurba_marseille","lat":43.31705,"lon":5.437,"is_reserved":false,"is_disabled":true,"rental_uris":{"android":"levelo://app?vid=d80a186c-6cde-48d1-a6c4-cc1ccc278891","ios":"levelo://app?vid=d80a186c-6cde-48d1-a6c4-cc1ccc278891"},"vehicle_type_id":"4","last_reported":1746512139,"current_range_meters":16000,"station_id":"ce4bhp92rcd13ifvqhcg","pricing_plan_id":"cebpf4jnsgd1na2vs0mg"},{"bike_id":"06e3460e-1e91-48c6-9656-977cd75c9fce","system_id":"levelo_inurba_marseille","lat":43.30148,"lon":5.38074,"is_reserved":false,"is_disabled":false,"rental_uris":{"android":"levelo://app?vid=06e3460e-1e91-48c6-9656-977cd75c9fce","ios":"levelo://app?vid=06e3460e-1e91-48c6-9656-977cd75c9fce"},"vehicle_type_id":"4","last_reported":1746512139,"current_range_meters":16000,"station_id":"ce4bgjp2rcd13ifvqbh0","pricing_plan_id":"cebpf4jnsgd1na2vs0mg"},{"bike_id":"9abf2d7c-556b-4302-8913-d42c438a4606","system_id":"levelo_inurba_marseille","lat":43.27494,"lon":5.42448,"is_reserved":false,"is_disabled":false,"rental_uris":{"android":"levelo://app?vid=9abf2d7c-556b-4302-8913-d42c438a4606","ios":"levelo://app?vid=9abf2d7c-556b-4302-8913-d42c438a4606"},"vehicle_type_id":"4","last_reported":1746512139,"current_range_meters":16000,"station_id":"ce4bhn92rcd13ifvqgrg","pricing_plan_id":"cebpf4jnsgd1na2vs0mg"},{"bike_id":"60a32a35-facd-47f9-95cf-942e1651dc98","system_id":"levelo_inurba_marseille","lat":43.31364,"lon":5.38495,"is_reserved":false,"is_disabled":false,"rental_uris":{"android":"levelo://app?vid=60a32a35-facd-47f9-95cf-942e1651dc98","ios":"levelo://app?vid=60a32a35-facd-47f9-95cf-942e1651dc98"},"vehicle_type_id":"4","last_reported":1746512139,"current_range_meters":16000,"station_id":"ce4bgt92rcd13ifvqcf0","pricing_plan_id":"cebpf4jnsgd1na2vs0mg"},{"bike_id":"6ce81efa-e8f3-477a-b7a1-a1c58c727c56","system_id":"levelo_inurba_marseille","lat":43.211894,"lon":5.350923,"is_reserved":false,"is_disabled":false,"rental_uris":{"android":"levelo://app?vid=6ce81efa-e8f3-477a-b7a1-a1c58c727c56","ios":"levelo://app?vid=6ce81efa-e8f3-477a-b7a1-a1c58c727c56"},"vehicle_type_id":"4","last_reported":1746512139,"current_range_meters":16000,"station_id":"","pricing_plan_id":"cebpf4jnsgd1na2vs0mg"},{"bike_id":"cf1ca3eb-9212-4059-b7fc-03619a4c3f69","system_id":"levelo_inurba_marseille","lat":43.28462,"lon":5.35888,"is_reserved":false,"is_disabled":false,"rental_uris":{"android":"levelo://app?vid=cf1ca3eb-9212-4059-b7fc-03619a4c3f69","ios":"levelo://app?vid=cf1ca3eb-9212-4059-b7fc-03619a4c3f69"},"vehicle_type_id":"4","last_reported":1746512139,"current_range_meters":16400,"station_id":"ce4bhah2rcd13ifvqei0","pricing_plan_id":"cebpf4jnsgd1na2vs0mg"},{"bike_id":"03bb5049-51e5-461e-8353-3cc13edfbfb8","system_id":"levelo_inurba_marseille","lat":43.23966,"lon":5.36614,"is_reserved":false,"is_disabled":false,"rental_uris":{"android":"levelo://app?vid=03bb5049-51e5-461e-8353-3cc13edfbfb8","ios":"levelo://app?vid=03bb5049-51e5-461e-8353-3cc13edfbfb8"},"vehicle_type_id":"4","last_reported":1746512139,"current_range_meters":16400,"station_id":"ce4bhi12rcd13ifvqfp0","pricing_plan_id":"cebpf4jnsgd1na2vs0mg"},{"bike_id":"e0a0fb85-9539-4fb6-b21f-392540fb8a26","system_id":"levelo_inurba_marseille","lat":43.32355,"lon":5.36716,"is_reserved":false,"is_disabled":false,"rental_uris":{"android":"levelo://app?vid=e0a0fb85-9539-4fb6-b21f-392540fb8a26","ios":"levelo://app?vid=e0a0fb85-9539-4fb6-b21f-392540fb8a26"},"vehicle_type_id":"4","last_reported":1746512139,"current_range_meters":16400,"station_id":"ce4bhsh2rcd13ifvqi2g","pricing_plan_id":"cebpf4jnsgd1na2vs0mg"},{"bike_id":"a327ed7c-cb3d-44b1-bb3d-7951cd226f01","system_id":"levelo_inurba_marseille","lat":43.293396,"lon":5.371296,"is_reserved":false,"is_disabled":true,"rental_uris":{"android":"levelo://app?vid=a327ed7c-cb3d-44b1-bb3d-7951cd226f01","ios":"levelo://app?vid=a327ed7c-cb3d-44b1-bb3d-7951cd226f01"},"vehicle_type_id":"4","last_reported":1746512139,"current_range_meters":16400,"station_id":"","pricing_plan_id":"cebpf4jnsgd1na2vs0mg"},{"bike_id":"82f4dc22-101f-465e-a26a-59bc1ffb8cd4","system_id":"levelo_inurba_marseille","lat":43.28423,"lon":5.37539,"is_reserved":false,"is_disabled":false,"rental_uris":{"android":"levelo://app?vid=82f4dc22-101f-465e-a26a-59bc1ffb8cd4","ios":"levelo://app?vid=82f4dc22-101f-465e-a26a-59bc1ffb8cd4"},"vehicle_type_id":"4","last_reported":1746512139,"current_range_meters":16800,"station_id":"ce4bh412rcd13ifvqds0","pricing_plan_id":"cebpf4jnsgd1na2vs0mg"},{"bike_id":"ad3e95d1-33fd-4c52-8138-33e1a87f9b95","system_id":"levelo_inurba_marseille","lat":43.23199,"lon":5.35562,"is_reserved":false,"is_disabled":true,"rental_uris":{"android":"levelo://app?vid=ad3e95d1-33fd-4c52-8138-33e1a87f9b95","ios":"levelo://app?vid=ad3e95d1-33fd-4c52-8138-33e1a87f9b95"},"vehicle_type_id":"4","last_reported":1746512139,"current_range_meters":16800,"station_id":"ce4bhu92rcd13ifvqi70","pricing_plan_id":"cebpf4jnsgd1na2vs0mg"},{"bike_id":"27563f88-1268-4b98-bc06-44e98c7ca400","system_id":"levelo_inurba_marseille","lat":43.320828,"lon":5.44098,"is_reserved":false,"is_disabled":false,"rental_uris":{"android":"levelo://app?vid=27563f88-1268-4b98-bc06-44e98c7ca400","ios":"levelo://app?vid=27563f88-1268-4b98-bc06-44e98c7ca400"},"vehicle_type_id":"4","last_reported":1746512139,"current_range_meters":16800,"station_id":"","pricing_plan_id":"cebpf4jnsgd1na2vs0mg"},{"bike_id":"4d1aecb7-27e0-4993-aa24-6ac4a9411bac","system_id":"levelo_inurba_marseille","lat":43.28344,"lon":5.38106,"is_reserved":false,"is_disabled":false,"rental_uris":{"android":"levelo://app?vid=4d1aecb7-27e0-4993-aa24-6ac4a9411bac","ios":"levelo://app?vid=4d1aecb7-27e0-4993-aa24-6ac4a9411bac"},"vehicle_type_id":"4","last_reported":1746512139,"current_range_meters":16800,"station_id":"ce4bh412rcd13ifvqdr0","pricing_plan_id":"cebpf4jnsgd1na2vs0mg"},{"bike_id":"ceabe490-1f11-4366-85ad-8996dd4944f3","system_id":"levelo_inurba_marseille","lat":43.293,"lon":5.37186,"is_reserved":false,"is_disabled":true,"rental_uris":{"android":"levelo://app?vid=ceabe490-1f11-4366-85ad-8996dd4944f3","ios":"levelo://app?vid=ceabe490-1f11-4366-85ad-8996dd4944f3"},"vehicle_type_id":"4","last_reported":1746512139,"current_range_meters":16800,"station_id":"ce4bgh92rcd13ifvqb40","pricing_plan_id":"cebpf4jnsgd1na2vs0mg"},{"bike_id":"46a428a1-3a45-4310-8fc1-8ac5239110b0","system_id":"levelo_inurba_marseille","lat":43.25821,"lon":5.39429,"is_reserved":false,"is_disabled":false,"rental_uris":{"android":"levelo://app?vid=46a428a1-3a45-4310-8fc1-8ac5239110b0","ios":"levelo://app?vid=46a428a1-3a45-4310-8fc1-8ac5239110b0"},"vehicle_type_id":"4","last_reported":1746512139,"current_range_meters":16800,"station_id":"ce4bhip2rcd13ifvqft0","pricing_plan_id":"cebpf4jnsgd1na2vs0mg"},{"bike_id":"1ffefd3e-1f6c-4778-bb0f-e8bfa31144f3","system_id":"levelo_inurba_marseille","lat":43.28937,"lon":5.36638,"is_reserved":false,"is_disabled":false,"rental_uris":{"android":"levelo://app?vid=1ffefd3e-1f6c-4778-bb0f-e8bfa31144f3","ios":"levelo://app?vid=1ffefd3e-1f6c-4778-bb0f-e8bfa31144f3"},"vehicle_type_id":"4","last_reported":1746512139,"current_range_meters":16400,"station_id":"ce4bhap2rcd13ifvqek0","pricing_plan_id":"cebpf4jnsgd1na2vs0mg"},{"bike_id":"1900e395-19ba-404e-aa6a-262b7656599d","system_id":"levelo_inurba_marseille","lat":43.2888,"lon":5.43707,"is_reserved":false,"is_disabled":false,"rental_uris":{"android":"levelo://app?vid=1900e395-19ba-404e-aa6a-262b7656599d","ios":"levelo://app?vid=1900e395-19ba-404e-aa6a-262b7656599d"},"vehicle_type_id":"4","last_reported":1746512139,"current_range_meters":16800,"station_id":"","pricing_plan_id":"cebpf4jnsgd1na2vs0mg"},{"bike_id":"f2896b63-be3f-4a92-821e-32f3ff6f6c19","system_id":"levelo_inurba_marseille","lat":43.336,"lon":5.41033,"is_reserved":false,"is_disabled":false,"rental_uris":{"android":"levelo://app?vid=f2896b63-be3f-4a92-821e-32f3ff6f6c19","ios":"levelo://app?vid=f2896b63-be3f-4a92-821e-32f3ff6f6c19"},"vehicle_type_id":"4","last_reported":1746512139,"current_range_meters":17200,"station_id":"ce4bhqh2rcd13ifvqhmg","pricing_plan_id":"cebpf4jnsgd1na2vs0mg"},{"bike_id":"b4bac287-3615-423a-bca2-a11fb80cb066","system_id":"levelo_inurba_marseille","lat":43.230551,"lon":5.354986,"is_reserved":false,"is_disabled":false,"rental_uris":{"android":"levelo://app?vid=b4bac287-3615-423a-bca2-a11fb80cb066","ios":"levelo://app?vid=b4bac287-3615-423a-bca2-a11fb80cb066"},"vehicle_type_id":"4","last_reported":1746512139,"current_range_meters":17200,"station_id":"cpo3342slgdg3j2ifvpg","pricing_plan_id":"cebpf4jnsgd1na2vs0mg"},{"bike_id":"a7d9606f-bf69-4dd6-a39a-23fa9adab3b6","system_id":"levelo_inurba_marseille","lat":43.30591,"lon":5.39368,"is_reserved":false,"is_disabled":false,"rental_uris":{"android":"levelo://app?vid=a7d9606f-bf69-4dd6-a39a-23fa9adab3b6","ios":"levelo://app?vid=a7d9606f-bf69-4dd6-a39a-23fa9adab3b6"},"vehicle_type_id":"4","last_reported":1746512139,"current_range_meters":17200,"station_id":"ce4bh0p2rcd13ifvqd80","pricing_plan_id":"cebpf4jnsgd1na2vs0mg"},{"bike_id":"1abdb1e0-042f-4dc0-b48a-9227ded2b99d","system_id":"levelo_inurba_marseille","lat":43.27999,"lon":5.40018,"is_reserved":false,"is_disabled":false,"rental_uris":{"android":"levelo://app?vid=1abdb1e0-042f-4dc0-b48a-9227ded2b99d","ios":"levelo://app?vid=1abdb1e0-042f-4dc0-b48a-9227ded2b99d"},"vehicle_type_id":"4","last_reported":1746512139,"current_range_meters":17200,"station_id":"ce4bho92rcd13ifvqh4g","pricing_plan_id":"cebpf4jnsgd1na2vs0mg"},{"bike_id":"54dcec37-1bdf-46a7-904f-a53fbc2daecd","system_id":"levelo_inurba_marseille","lat":43.26568,"lon":5.39012,"is_reserved":false,"is_disabled":false,"rental_uris":{"android":"levelo://app?vid=54dcec37-1bdf-46a7-904f-a53fbc2daecd","ios":"levelo://app?vid=54dcec37-1bdf-46a7-904f-a53fbc2daecd"},"vehicle_type_id":"4","last_reported":1746512139,"current_range_meters":17200,"station_id":"ce4bhe12rcd13ifvqf30","pricing_plan_id":"cebpf4jnsgd1na2vs0mg"},{"bike_id":"13d72c90-097d-44e3-a161-c92142027aeb","system_id":"levelo_inurba_marseille","lat":43.321,"lon":5.36772,"is_reserved":false,"is_disabled":false,"rental_uris":{"android":"levelo://app?vid=13d72c90-097d-44e3-a161-c92142027aeb","ios":"levelo://app?vid=13d72c90-097d-44e3-a161-c92142027aeb"},"vehicle_type_id":"4","last_reported":1746512139,"current_range_meters":17200,"station_id":"ce4bhrh2rcd13ifvqhug","pricing_plan_id":"cebpf4jnsgd1na2vs0mg"},{"bike_id":"ad7d7f1c-c7f0-4c01-9cc8-0d2d18277437","system_id":"levelo_inurba_marseille","lat":43.30466,"lon":5.37906,"is_reserved":false,"is_disabled":false,"rental_uris":{"android":"levelo://app?vid=ad7d7f1c-c7f0-4c01-9cc8-0d2d18277437","ios":"levelo://app?vid=ad7d7f1c-c7f0-4c01-9cc8-0d2d18277437"},"vehicle_type_id":"4","last_reported":1746512139,"current_range_meters":17600,"station_id":"ce4bgup2rcd13ifvqcn0","pricing_plan_id":"cebpf4jnsgd1na2vs0mg"},{"bike_id":"bb57f667-396d-4003-ae12-13bf8f696902","system_id":"levelo_inurba_marseille","lat":43.2795,"lon":5.41067,"is_reserved":false,"is_disabled":false,"rental_uris":{"android":"levelo://app?vid=bb57f667-396d-4003-ae12-13bf8f696902","ios":"levelo://app?vid=bb57f667-396d-4003-ae12-13bf8f696902"},"vehicle_type_id":"4","last_reported":1746512139,"current_range_meters":17600,"station_id":"ce4bhnp2rcd13ifvqh0g","pricing_plan_id":"cebpf4jnsgd1na2vs0mg"},{"bike_id":"df36ab94-3cd6-4f70-99c6-faead7f0358f","system_id":"levelo_inurba_marseille","lat":43.29038,"lon":5.39968,"is_reserved":false,"is_disabled":false,"rental_uris":{"android":"levelo://app?vid=df36ab94-3cd6-4f70-99c6-faead7f0358f","ios":"levelo://app?vid=df36ab94-3cd6-4f70-99c6-faead7f0358f"},"vehicle_type_id":"4","last_reported":1746512139,"current_range_meters":17600,"station_id":"ce4bh392rcd13ifvqdm0","pricing_plan_id":"cebpf4jnsgd1na2vs0mg"},{"bike_id":"d0e17230-ce14-4bbf-8173-34c1444b9704","system_id":"levelo_inurba_marseille","lat":43.30131,"lon":5.39868,"is_reserved":false,"is_disabled":true,"rental_uris":{"android":"levelo://app?vid=d0e17230-ce14-4bbf-8173-34c1444b9704","ios":"levelo://app?vid=d0e17230-ce14-4bbf-8173-34c1444b9704"},"vehicle_type_id":"4","last_reported":1746512139,"current_range_meters":18000,"station_id":"ce4bh0h2rcd13ifvqd40","pricing_plan_id":"cebpf4jnsgd1na2vs0mg"},{"bike_id":"72ebbbdb-13e1-4c88-ab3c-b8b2bc65db3e","system_id":"levelo_inurba_marseille","lat":43.24071,"lon":5.37768,"is_reserved":false,"is_disabled":false,"rental_uris":{"android":"levelo://app?vid=72ebbbdb-13e1-4c88-ab3c-b8b2bc65db3e","ios":"levelo://app?vid=72ebbbdb-13e1-4c88-ab3c-b8b2bc65db3e"},"vehicle_type_id":"4","last_reported":1746512139,"current_range_meters":18000,"station_id":"ce4bhnp2rcd13ifvqgvg","pricing_plan_id":"cebpf4jnsgd1na2vs0mg"},{"bike_id":"c871eee8-0da6-4377-a846-0bf7400cb3c3","system_id":"levelo_inurba_marseille","lat":43.27831,"lon":5.40704,"is_reserved":false,"is_disabled":true,"rental_uris":{"android":"levelo://app?vid=c871eee8-0da6-4377-a846-0bf7400cb3c3","ios":"levelo://app?vid=c871eee8-0da6-4377-a846-0bf7400cb3c3"},"vehicle_type_id":"4","last_reported":1746512139,"current_range_meters":18000,"station_id":"ce4bhnh2rcd13ifvqgtg","pricing_plan_id":"cebpf4jnsgd1na2vs0mg"},{"bike_id":"2714f713-c769-4f6a-ac44-441a635e9cba","system_id":"levelo_inurba_marseille","lat":43.21603,"lon":5.34237,"is_reserved":false,"is_disabled":false,"rental_uris":{"android":"levelo://app?vid=2714f713-c769-4f6a-ac44-441a635e9cba","ios":"levelo://app?vid=2714f713-c769-4f6a-ac44-441a635e9cba"},"vehicle_type_id":"4","last_reported":1746512139,"current_range_meters":18000,"station_id":"","pricing_plan_id":"cebpf4jnsgd1na2vs0mg"},{"bike_id":"a33f7374-008e-4395-8a1d-ee5e34e44664","system_id":"levelo_inurba_marseille","lat":43.26569,"lon":5.39013,"is_reserved":false,"is_disabled":false,"rental_uris":{"android":"levelo://app?vid=a33f7374-008e-4395-8a1d-ee5e34e44664","ios":"levelo://app?vid=a33f7374-008e-4395-8a1d-ee5e34e44664"},"vehicle_type_id":"4","last_reported":1746512139,"current_range_meters":18800,"station_id":"ce4bhe12rcd13ifvqf30","pricing_plan_id":"cebpf4jnsgd1na2vs0mg"},{"bike_id":"2ecbd89d-7224-4d74-815e-f74b44d955d9","system_id":"levelo_inurba_marseille","lat":43.24075,"lon":5.37762,"is_reserved":false,"is_disabled":false,"rental_uris":{"android":"levelo://app?vid=2ecbd89d-7224-4d74-815e-f74b44d955d9","ios":"levelo://app?vid=2ecbd89d-7224-4d74-815e-f74b44d955d9"},"vehicle_type_id":"4","last_reported":1746512139,"current_range_meters":18800,"station_id":"ce4bhnp2rcd13ifvqgvg","pricing_plan_id":"cebpf4jnsgd1na2vs0mg"},{"bike_id":"37cb95bf-ed56-4ab4-a156-dbc654da35df","system_id":"levelo_inurba_marseille","lat":43.25939,"lon":5.40925,"is_reserved":false,"is_disabled":true,"rental_uris":{"android":"levelo://app?vid=37cb95bf-ed56-4ab4-a156-dbc654da35df","ios":"levelo://app?vid=37cb95bf-ed56-4ab4-a156-dbc654da35df"},"vehicle_type_id":"4","last_reported":1746512139,"current_range_meters":18800,"station_id":"ce4bhm92rcd13ifvqglg","pricing_plan_id":"cebpf4jnsgd1na2vs0mg"},{"bike_id":"4fd6bfff-2fba-4479-9355-04d32eaca128","system_id":"levelo_inurba_marseille","lat":43.231881,"lon":5.355638,"is_reserved":false,"is_disabled":false,"rental_uris":{"android":"levelo://app?vid=4fd6bfff-2fba-4479-9355-04d32eaca128","ios":"levelo://app?vid=4fd6bfff-2fba-4479-9355-04d32eaca128"},"vehicle_type_id":"4","last_reported":1746512139,"current_range_meters":18800,"station_id":"ce4bhu92rcd13ifvqi70","pricing_plan_id":"cebpf4jnsgd1na2vs0mg"},{"bike_id":"ce3e7f69-76d2-41ef-bb7a-3ba7e2418ca6","system_id":"levelo_inurba_marseille","lat":43.27175,"lon":5.4099,"is_reserved":false,"is_disabled":false,"rental_uris":{"android":"levelo://app?vid=ce3e7f69-76d2-41ef-bb7a-3ba7e2418ca6","ios":"levelo://app?vid=ce3e7f69-76d2-41ef-bb7a-3ba7e2418ca6"},"vehicle_type_id":"4","last_reported":1746512139,"current_range_meters":18800,"station_id":"ce4bhl12rcd13ifvqgf0","pricing_plan_id":"cebpf4jnsgd1na2vs0mg"},{"bike_id":"d6a23a09-0293-4029-b97f-0ca2171fabc6","system_id":"levelo_inurba_marseille","lat":43.305328,"lon":5.365553,"is_reserved":false,"is_disabled":false,"rental_uris":{"android":"levelo://app?vid=d6a23a09-0293-4029-b97f-0ca2171fabc6","ios":"levelo://app?vid=d6a23a09-0293-4029-b97f-0ca2171fabc6"},"vehicle_type_id":"4","last_reported":1746512139,"current_range_meters":18800,"station_id":"ce4bgs12rcd13ifvqcag","pricing_plan_id":"cebpf4jnsgd1na2vs0mg"},{"bike_id":"97b8ce8b-859e-4b39-9032-ec195fc5d85d","system_id":"levelo_inurba_marseille","lat":43.22931,"lon":5.35392,"is_reserved":false,"is_disabled":true,"rental_uris":{"android":"levelo://app?vid=97b8ce8b-859e-4b39-9032-ec195fc5d85d","ios":"levelo://app?vid=97b8ce8b-859e-4b39-9032-ec195fc5d85d"},"vehicle_type_id":"4","last_reported":1746512139,"current_range_meters":18800,"station_id":"cpo3532slgdg3j2ikp40","pricing_plan_id":"cebpf4jnsgd1na2vs0mg"},{"bike_id":"0a0d9773-2c8e-4202-915e-befc3928ea8c","system_id":"levelo_inurba_marseille","lat":43.28839,"lon":5.39356,"is_reserved":false,"is_disabled":true,"rental_uris":{"android":"levelo://app?vid=0a0d9773-2c8e-4202-915e-befc3928ea8c","ios":"levelo://app?vid=0a0d9773-2c8e-4202-915e-befc3928ea8c"},"vehicle_type_id":"4","last_reported":1746512139,"current_range_meters":19200,"station_id":"ce4bh2p2rcd13ifvqdi0","pricing_plan_id":"cebpf4jnsgd1na2vs0mg"},{"bike_id":"ec0050d0-63f3-4f09-9913-c57ae7ca7eda","system_id":"levelo_inurba_marseille","lat":43.29908,"lon":5.37401,"is_reserved":false,"is_disabled":true,"rental_uris":{"android":"levelo://app?vid=ec0050d0-63f3-4f09-9913-c57ae7ca7eda","ios":"levelo://app?vid=ec0050d0-63f3-4f09-9913-c57ae7ca7eda"},"vehicle_type_id":"4","last_reported":1746512139,"current_range_meters":19200,"station_id":"","pricing_plan_id":"cebpf4jnsgd1na2vs0mg"},{"bike_id":"ac700e2e-c129-4f82-a3c3-f628077933a6","system_id":"levelo_inurba_marseille","lat":43.21208,"lon":5.35058,"is_reserved":false,"is_disabled":false,"rental_uris":{"android":"levelo://app?vid=ac700e2e-c129-4f82-a3c3-f628077933a6","ios":"levelo://app?vid=ac700e2e-c129-4f82-a3c3-f628077933a6"},"vehicle_type_id":"4","last_reported":1746512139,"current_range_meters":19200,"station_id":"st_cvj6sg6p6f1abm77japg","pricing_plan_id":"cebpf4jnsgd1na2vs0mg"},{"bike_id":"b4216838-733b-46cd-aae7-8693e0287a61","system_id":"levelo_inurba_marseille","lat":43.22938,"lon":5.35369,"is_reserved":false,"is_disabled":false,"rental_uris":{"android":"levelo://app?vid=b4216838-733b-46cd-aae7-8693e0287a61","ios":"levelo://app?vid=b4216838-733b-46cd-aae7-8693e0287a61"},"vehicle_type_id":"4","last_reported":1746512139,"current_range_meters":19200,"station_id":"cpo3532slgdg3j2ikp40","pricing_plan_id":"cebpf4jnsgd1na2vs0mg"},{"bike_id":"9a815670-e042-4e15-ada9-ab54cb7addda","system_id":"levelo_inurba_marseille","lat":43.313435,"lon":5.367129,"is_reserved":false,"is_disabled":false,"rental_uris":{"android":"levelo://app?vid=9a815670-e042-4e15-ada9-ab54cb7addda","ios":"levelo://app?vid=9a815670-e042-4e15-ada9-ab54cb7addda"},"vehicle_type_id":"4","last_reported":1746512139,"current_range_meters":19200,"station_id":"","pricing_plan_id":"cebpf4jnsgd1na2vs0mg"},{"bike_id":"edc5a6ac-2051-4d3e-900e-6f774d20c63d","system_id":"levelo_inurba_marseille","lat":43.3012,"lon":5.387844,"is_reserved":false,"is_disabled":true,"rental_uris":{"android":"levelo://app?vid=edc5a6ac-2051-4d3e-900e-6f774d20c63d","ios":"levelo://app?vid=edc5a6ac-2051-4d3e-900e-6f774d20c63d"},"vehicle_type_id":"4","last_reported":1746512139,"current_range_meters":19200,"station_id":"","pricing_plan_id":"cebpf4jnsgd1na2vs0mg"},{"bike_id":"fbb2a51c-a0c6-4d89-a76d-22c142bf6c1b","system_id":"levelo_inurba_marseille","lat":43.24076,"lon":5.37761,"is_reserved":false,"is_disabled":false,"rental_uris":{"android":"levelo://app?vid=fbb2a51c-a0c6-4d89-a76d-22c142bf6c1b","ios":"levelo://app?vid=fbb2a51c-a0c6-4d89-a76d-22c142bf6c1b"},"vehicle_type_id":"4","last_reported":1746512139,"current_range_meters":19600,"station_id":"ce4bhnp2rcd13ifvqgvg","pricing_plan_id":"cebpf4jnsgd1na2vs0mg"},{"bike_id":"8fa70930-3d89-410a-8a0d-ae58e85113d9","system_id":"levelo_inurba_marseille","lat":43.33744,"lon":5.37485,"is_reserved":false,"is_disabled":false,"rental_uris":{"android":"levelo://app?vid=8fa70930-3d89-410a-8a0d-ae58e85113d9","ios":"levelo://app?vid=8fa70930-3d89-410a-8a0d-ae58e85113d9"},"vehicle_type_id":"4","last_reported":1746512139,"current_range_meters":19600,"station_id":"","pricing_plan_id":"cebpf4jnsgd1na2vs0mg"},{"bike_id":"2c96a47a-adf7-46ec-9b0d-4254ce7c8dba","system_id":"levelo_inurba_marseille","lat":43.2895,"lon":5.36416,"is_reserved":false,"is_disabled":false,"rental_uris":{"android":"levelo://app?vid=2c96a47a-adf7-46ec-9b0d-4254ce7c8dba","ios":"levelo://app?vid=2c96a47a-adf7-46ec-9b0d-4254ce7c8dba"},"vehicle_type_id":"4","last_reported":1746512139,"current_range_meters":20000,"station_id":"ce4bhc92rcd13ifvqetg","pricing_plan_id":"cebpf4jnsgd1na2vs0mg"},{"bike_id":"fa20efeb-3382-4d75-8dd6-553d2a8da076","system_id":"levelo_inurba_marseille","lat":43.28938,"lon":5.39633,"is_reserved":false,"is_disabled":false,"rental_uris":{"android":"levelo://app?vid=fa20efeb-3382-4d75-8dd6-553d2a8da076","ios":"levelo://app?vid=fa20efeb-3382-4d75-8dd6-553d2a8da076"},"vehicle_type_id":"4","last_reported":1746512139,"current_range_meters":20000,"station_id":"ce4bh3h2rcd13ifvqdn0","pricing_plan_id":"cebpf4jnsgd1na2vs0mg"},{"bike_id":"07d5ae82-fa22-45cd-9f2f-970b0a986eed","system_id":"levelo_inurba_marseille","lat":43.23156,"lon":5.43705,"is_reserved":false,"is_disabled":false,"rental_uris":{"android":"levelo://app?vid=07d5ae82-fa22-45cd-9f2f-970b0a986eed","ios":"levelo://app?vid=07d5ae82-fa22-45cd-9f2f-970b0a986eed"},"vehicle_type_id":"4","last_reported":1746512139,"current_range_meters":20000,"station_id":"ce4bhmp2rcd13ifvqgog","pricing_plan_id":"cebpf4jnsgd1na2vs0mg"},{"bike_id":"4e770f32-b7ab-441a-9222-ddd4f7fb01b1","system_id":"levelo_inurba_marseille","lat":43.31084,"lon":5.42428,"is_reserved":false,"is_disabled":false,"rental_uris":{"android":"levelo://app?vid=4e770f32-b7ab-441a-9222-ddd4f7fb01b1","ios":"levelo://app?vid=4e770f32-b7ab-441a-9222-ddd4f7fb01b1"},"vehicle_type_id":"4","last_reported":1746512139,"current_range_meters":20000,"station_id":"ce4bhp92rcd13ifvqhag","pricing_plan_id":"cebpf4jnsgd1na2vs0mg"},{"bike_id":"a3dc441c-3dd7-42dc-913a-7db783432e14","system_id":"levelo_inurba_marseille","lat":43.28592,"lon":5.37077,"is_reserved":false,"is_disabled":false,"rental_uris":{"android":"levelo://app?vid=a3dc441c-3dd7-42dc-913a-7db783432e14","ios":"levelo://app?vid=a3dc441c-3dd7-42dc-913a-7db783432e14"},"vehicle_type_id":"4","last_reported":1746512139,"current_range_meters":20000,"station_id":"ce4bht12rcd13ifvqi60","pricing_plan_id":"cebpf4jnsgd1na2vs0mg"},{"bike_id":"ea4762e8-256b-4c73-a917-b8c3e12612ed","system_id":"levelo_inurba_marseille","lat":43.26118,"lon":5.41472,"is_reserved":false,"is_disabled":false,"rental_uris":{"android":"levelo://app?vid=ea4762e8-256b-4c73-a917-b8c3e12612ed","ios":"levelo://app?vid=ea4762e8-256b-4c73-a917-b8c3e12612ed"},"vehicle_type_id":"4","last_reported":1746512139,"current_range_meters":20000,"station_id":"","pricing_plan_id":"cebpf4jnsgd1na2vs0mg"},{"bike_id":"13f156f4-61d5-46e6-9258-342550e5092f","system_id":"levelo_inurba_marseille","lat":43.27505,"lon":5.42458,"is_reserved":false,"is_disabled":false,"rental_uris":{"android":"levelo://app?vid=13f156f4-61d5-46e6-9258-342550e5092f","ios":"levelo://app?vid=13f156f4-61d5-46e6-9258-342550e5092f"},"vehicle_type_id":"4","last_reported":1746512139,"current_range_meters":20400,"station_id":"ce4bhn92rcd13ifvqgrg","pricing_plan_id":"cebpf4jnsgd1na2vs0mg"},{"bike_id":"9898ff4b-e01f-4144-93c1-f63d10376eb9","system_id":"levelo_inurba_marseille","lat":43.279965,"lon":5.40027,"is_reserved":false,"is_disabled":false,"rental_uris":{"android":"levelo://app?vid=9898ff4b-e01f-4144-93c1-f63d10376eb9","ios":"levelo://app?vid=9898ff4b-e01f-4144-93c1-f63d10376eb9"},"vehicle_type_id":"4","last_reported":1746512139,"current_range_meters":20400,"station_id":"ce4bho92rcd13ifvqh4g","pricing_plan_id":"cebpf4jnsgd1na2vs0mg"},{"bike_id":"0abb0a89-de5d-402b-a5dd-0f7d3cd93a0c","system_id":"levelo_inurba_marseille","lat":43.29959,"lon":5.41318,"is_reserved":false,"is_disabled":true,"rental_uris":{"android":"levelo://app?vid=0abb0a89-de5d-402b-a5dd-0f7d3cd93a0c","ios":"levelo://app?vid=0abb0a89-de5d-402b-a5dd-0f7d3cd93a0c"},"vehicle_type_id":"4","last_reported":1746512139,"current_range_meters":20400,"station_id":"ce4bhp12rcd13ifvqh9g","pricing_plan_id":"cebpf4jnsgd1na2vs0mg"},{"bike_id":"948efcf3-4226-4e5d-925b-ab858e26d6ec","system_id":"levelo_inurba_marseille","lat":43.24647,"lon":5.38891,"is_reserved":false,"is_disabled":true,"rental_uris":{"android":"levelo://app?vid=948efcf3-4226-4e5d-925b-ab858e26d6ec","ios":"levelo://app?vid=948efcf3-4226-4e5d-925b-ab858e26d6ec"},"vehicle_type_id":"4","last_reported":1746512139,"current_range_meters":20400,"station_id":"ce4bhg12rcd13ifvqf60","pricing_plan_id":"cebpf4jnsgd1na2vs0mg"},{"bike_id":"4fa44a4d-c738-41bc-9022-213fbeae4065","system_id":"levelo_inurba_marseille","lat":43.23176,"lon":5.40003,"is_reserved":false,"is_disabled":false,"rental_uris":{"android":"levelo://app?vid=4fa44a4d-c738-41bc-9022-213fbeae4065","ios":"levelo://app?vid=4fa44a4d-c738-41bc-9022-213fbeae4065"},"vehicle_type_id":"4","last_reported":1746512139,"current_range_meters":20400,"station_id":"ce4bhn12rcd13ifvqgqg","pricing_plan_id":"cebpf4jnsgd1na2vs0mg"},{"bike_id":"2fa0b816-7ec6-4882-9376-089f3a9e406c","system_id":"levelo_inurba_marseille","lat":43.33765,"lon":5.37445,"is_reserved":false,"is_disabled":false,"rental_uris":{"android":"levelo://app?vid=2fa0b816-7ec6-4882-9376-089f3a9e406c","ios":"levelo://app?vid=2fa0b816-7ec6-4882-9376-089f3a9e406c"},"vehicle_type_id":"4","last_reported":1746512139,"current_range_meters":20400,"station_id":"","pricing_plan_id":"cebpf4jnsgd1na2vs0mg"},{"bike_id":"0c141af3-cf9a-4f7a-b9d3-f13b0e12591e","system_id":"levelo_inurba_marseille","lat":43.27176,"lon":5.40992,"is_reserved":false,"is_disabled":false,"rental_uris":{"android":"levelo://app?vid=0c141af3-cf9a-4f7a-b9d3-f13b0e12591e","ios":"levelo://app?vid=0c141af3-cf9a-4f7a-b9d3-f13b0e12591e"},"vehicle_type_id":"4","last_reported":1746512139,"current_range_meters":20400,"station_id":"ce4bhl12rcd13ifvqgf0","pricing_plan_id":"cebpf4jnsgd1na2vs0mg"},{"bike_id":"5b42687b-5835-43aa-9c1a-2ebdff70e7c6","system_id":"levelo_inurba_marseille","lat":43.25582,"lon":5.38243,"is_reserved":false,"is_disabled":true,"rental_uris":{"android":"levelo://app?vid=5b42687b-5835-43aa-9c1a-2ebdff70e7c6","ios":"levelo://app?vid=5b42687b-5835-43aa-9c1a-2ebdff70e7c6"},"vehicle_type_id":"4","last_reported":1746512139,"current_range_meters":20800,"station_id":"ce4bhih2rcd13ifvqfs0","pricing_plan_id":"cebpf4jnsgd1na2vs0mg"},{"bike_id":"512faac5-1fd0-4642-bce3-426a0a7dc43d","system_id":"levelo_inurba_marseille","lat":43.27504,"lon":5.42459,"is_reserved":false,"is_disabled":false,"rental_uris":{"android":"levelo://app?vid=512faac5-1fd0-4642-bce3-426a0a7dc43d","ios":"levelo://app?vid=512faac5-1fd0-4642-bce3-426a0a7dc43d"},"vehicle_type_id":"4","last_reported":1746512139,"current_range_meters":20800,"station_id":"ce4bhn92rcd13ifvqgrg","pricing_plan_id":"cebpf4jnsgd1na2vs0mg"},{"bike_id":"8d5a3ed9-f4b8-4da0-a3eb-614c449d1e82","system_id":"levelo_inurba_marseille","lat":43.30462,"lon":5.37914,"is_reserved":false,"is_disabled":false,"rental_uris":{"android":"levelo://app?vid=8d5a3ed9-f4b8-4da0-a3eb-614c449d1e82","ios":"levelo://app?vid=8d5a3ed9-f4b8-4da0-a3eb-614c449d1e82"},"vehicle_type_id":"4","last_reported":1746512139,"current_range_meters":20800,"station_id":"ce4bgup2rcd13ifvqcn0","pricing_plan_id":"cebpf4jnsgd1na2vs0mg"},{"bike_id":"0f4be909-393d-425c-a9e3-8b5a3e3a9142","system_id":"levelo_inurba_marseille","lat":43.30952,"lon":5.39038,"is_reserved":false,"is_disabled":false,"rental_uris":{"android":"levelo://app?vid=0f4be909-393d-425c-a9e3-8b5a3e3a9142","ios":"levelo://app?vid=0f4be909-393d-425c-a9e3-8b5a3e3a9142"},"vehicle_type_id":"4","last_reported":1746512139,"current_range_meters":20800,"station_id":"ce4bgup2rcd13ifvqco0","pricing_plan_id":"cebpf4jnsgd1na2vs0mg"},{"bike_id":"eb4530fd-27a2-44aa-be4f-0ae2ee46c65c","system_id":"levelo_inurba_marseille","lat":43.27497,"lon":5.4245,"is_reserved":false,"is_disabled":false,"rental_uris":{"android":"levelo://app?vid=eb4530fd-27a2-44aa-be4f-0ae2ee46c65c","ios":"levelo://app?vid=eb4530fd-27a2-44aa-be4f-0ae2ee46c65c"},"vehicle_type_id":"4","last_reported":1746512139,"current_range_meters":20800,"station_id":"ce4bhn92rcd13ifvqgrg","pricing_plan_id":"cebpf4jnsgd1na2vs0mg"},{"bike_id":"4a4fc9b3-fdff-4da8-a3af-67e9da4bf8f9","system_id":"levelo_inurba_marseille","lat":43.24088,"lon":5.37757,"is_reserved":false,"is_disabled":false,"rental_uris":{"android":"levelo://app?vid=4a4fc9b3-fdff-4da8-a3af-67e9da4bf8f9","ios":"levelo://app?vid=4a4fc9b3-fdff-4da8-a3af-67e9da4bf8f9"},"vehicle_type_id":"4","last_reported":1746512139,"current_range_meters":21600,"station_id":"ce4bhnp2rcd13ifvqgvg","pricing_plan_id":"cebpf4jnsgd1na2vs0mg"},{"bike_id":"8a4b30e0-b491-4f8b-b56b-65294a62c555","system_id":"levelo_inurba_marseille","lat":43.25461,"lon":5.41892,"is_reserved":false,"is_disabled":false,"rental_uris":{"android":"levelo://app?vid=8a4b30e0-b491-4f8b-b56b-65294a62c555","ios":"levelo://app?vid=8a4b30e0-b491-4f8b-b56b-65294a62c555"},"vehicle_type_id":"4","last_reported":1746512139,"current_range_meters":21600,"station_id":"","pricing_plan_id":"cebpf4jnsgd1na2vs0mg"},{"bike_id":"3c8ebb17-77ee-4fc5-9cc3-cb97dfbe4bdb","system_id":"levelo_inurba_marseille","lat":43.3019,"lon":5.3663,"is_reserved":false,"is_disabled":false,"rental_uris":{"android":"levelo://app?vid=3c8ebb17-77ee-4fc5-9cc3-cb97dfbe4bdb","ios":"levelo://app?vid=3c8ebb17-77ee-4fc5-9cc3-cb97dfbe4bdb"},"vehicle_type_id":"4","last_reported":1746512139,"current_range_meters":21600,"station_id":"ce4bgrh2rcd13ifvqc8g","pricing_plan_id":"cebpf4jnsgd1na2vs0mg"},{"bike_id":"4cb897d4-7593-4a4f-9952-02dc8b791be9","system_id":"levelo_inurba_marseille","lat":43.29086,"lon":5.38148,"is_reserved":false,"is_disabled":true,"rental_uris":{"android":"levelo://app?vid=4cb897d4-7593-4a4f-9952-02dc8b791be9","ios":"levelo://app?vid=4cb897d4-7593-4a4f-9952-02dc8b791be9"},"vehicle_type_id":"4","last_reported":1746512139,"current_range_meters":22000,"station_id":"ce4bh512rcd13ifvqe2g","pricing_plan_id":"cebpf4jnsgd1na2vs0mg"},{"bike_id":"23b77e56-02cd-4338-917c-a93e4464a727","system_id":"levelo_inurba_marseille","lat":43.28714,"lon":5.38712,"is_reserved":false,"is_disabled":false,"rental_uris":{"android":"levelo://app?vid=23b77e56-02cd-4338-917c-a93e4464a727","ios":"levelo://app?vid=23b77e56-02cd-4338-917c-a93e4464a727"},"vehicle_type_id":"4","last_reported":1746512139,"current_range_meters":22000,"station_id":"","pricing_plan_id":"cebpf4jnsgd1na2vs0mg"},{"bike_id":"5b1f17ae-5a78-4b1e-8be6-f9efafc3f9dc","system_id":"levelo_inurba_marseille","lat":43.27542,"lon":5.42512,"is_reserved":false,"is_disabled":false,"rental_uris":{"android":"levelo://app?vid=5b1f17ae-5a78-4b1e-8be6-f9efafc3f9dc","ios":"levelo://app?vid=5b1f17ae-5a78-4b1e-8be6-f9efafc3f9dc"},"vehicle_type_id":"4","last_reported":1746512139,"current_range_meters":22400,"station_id":"","pricing_plan_id":"cebpf4jnsgd1na2vs0mg"},{"bike_id":"4137d782-8ede-47fd-9136-e06c2853969c","system_id":"levelo_inurba_marseille","lat":43.336,"lon":5.41021,"is_reserved":false,"is_disabled":false,"rental_uris":{"android":"levelo://app?vid=4137d782-8ede-47fd-9136-e06c2853969c","ios":"levelo://app?vid=4137d782-8ede-47fd-9136-e06c2853969c"},"vehicle_type_id":"4","last_reported":1746512139,"current_range_meters":22400,"station_id":"ce4bhqh2rcd13ifvqhmg","pricing_plan_id":"cebpf4jnsgd1na2vs0mg"},{"bike_id":"d46bfaa3-a862-4fc5-8b2f-4535f3a7e31d","system_id":"levelo_inurba_marseille","lat":43.2993,"lon":5.36552,"is_reserved":false,"is_disabled":false,"rental_uris":{"android":"levelo://app?vid=d46bfaa3-a862-4fc5-8b2f-4535f3a7e31d","ios":"levelo://app?vid=d46bfaa3-a862-4fc5-8b2f-4535f3a7e31d"},"vehicle_type_id":"4","last_reported":1746512139,"current_range_meters":22400,"station_id":"ce4bgm92rcd13ifvqbr0","pricing_plan_id":"cebpf4jnsgd1na2vs0mg"},{"bike_id":"840ca776-02a2-4365-8c5b-a86c03f6c347","system_id":"levelo_inurba_marseille","lat":43.264348,"lon":5.404013,"is_reserved":false,"is_disabled":false,"rental_uris":{"android":"levelo://app?vid=840ca776-02a2-4365-8c5b-a86c03f6c347","ios":"levelo://app?vid=840ca776-02a2-4365-8c5b-a86c03f6c347"},"vehicle_type_id":"4","last_reported":1746512139,"current_range_meters":22400,"station_id":"ce4bhk92rcd13ifvqgc0","pricing_plan_id":"cebpf4jnsgd1na2vs0mg"},{"bike_id":"2f42a6fc-b7d1-40cc-a917-ee7e0070d967","system_id":"levelo_inurba_marseille","lat":43.32357,"lon":5.36752,"is_reserved":false,"is_disabled":false,"rental_uris":{"android":"levelo://app?vid=2f42a6fc-b7d1-40cc-a917-ee7e0070d967","ios":"levelo://app?vid=2f42a6fc-b7d1-40cc-a917-ee7e0070d967"},"vehicle_type_id":"4","last_reported":1746512139,"current_range_meters":22800,"station_id":"ce4bhsh2rcd13ifvqi2g","pricing_plan_id":"cebpf4jnsgd1na2vs0mg"},{"bike_id":"13b72ed3-fa35-4338-b052-3d1a6b53b8c8","system_id":"levelo_inurba_marseille","lat":43.295546,"lon":5.422966,"is_reserved":false,"is_disabled":false,"rental_uris":{"android":"levelo://app?vid=13b72ed3-fa35-4338-b052-3d1a6b53b8c8","ios":"levelo://app?vid=13b72ed3-fa35-4338-b052-3d1a6b53b8c8"},"vehicle_type_id":"4","last_reported":1746512139,"current_range_meters":22400,"station_id":"ce4bhph2rcd13ifvqhdg","pricing_plan_id":"cebpf4jnsgd1na2vs0mg"},{"bike_id":"2a59d91b-ba01-4e11-b484-69155f455150","system_id":"levelo_inurba_marseille","lat":43.32329,"lon":5.40618,"is_reserved":false,"is_disabled":true,"rental_uris":{"android":"levelo://app?vid=2a59d91b-ba01-4e11-b484-69155f455150","ios":"levelo://app?vid=2a59d91b-ba01-4e11-b484-69155f455150"},"vehicle_type_id":"4","last_reported":1746512139,"current_range_meters":22800,"station_id":"ce4bhq92rcd13ifvqhjg","pricing_plan_id":"cebpf4jnsgd1na2vs0mg"},{"bike_id":"dbb47c27-7ce4-4cfe-b632-c85028837bd2","system_id":"levelo_inurba_marseille","lat":43.2904,"lon":5.39963,"is_reserved":false,"is_disabled":false,"rental_uris":{"android":"levelo://app?vid=dbb47c27-7ce4-4cfe-b632-c85028837bd2","ios":"levelo://app?vid=dbb47c27-7ce4-4cfe-b632-c85028837bd2"},"vehicle_type_id":"4","last_reported":1746512139,"current_range_meters":22800,"station_id":"ce4bh392rcd13ifvqdm0","pricing_plan_id":"cebpf4jnsgd1na2vs0mg"},{"bike_id":"319a2180-95f1-4e6a-8480-75981059b64b","system_id":"levelo_inurba_marseille","lat":43.30467,"lon":5.37913,"is_reserved":false,"is_disabled":false,"rental_uris":{"android":"levelo://app?vid=319a2180-95f1-4e6a-8480-75981059b64b","ios":"levelo://app?vid=319a2180-95f1-4e6a-8480-75981059b64b"},"vehicle_type_id":"4","last_reported":1746512139,"current_range_meters":22800,"station_id":"ce4bgup2rcd13ifvqcn0","pricing_plan_id":"cebpf4jnsgd1na2vs0mg"},{"bike_id":"db25b198-7357-4455-9f2c-d196f20cd460","system_id":"levelo_inurba_marseille","lat":43.27508,"lon":5.42454,"is_reserved":false,"is_disabled":false,"rental_uris":{"android":"levelo://app?vid=db25b198-7357-4455-9f2c-d196f20cd460","ios":"levelo://app?vid=db25b198-7357-4455-9f2c-d196f20cd460"},"vehicle_type_id":"4","last_reported":1746512139,"current_range_meters":23200,"station_id":"ce4bhn92rcd13ifvqgrg","pricing_plan_id":"cebpf4jnsgd1na2vs0mg"},{"bike_id":"4c92ddfb-82c6-411c-8a4c-50ec62be918b","system_id":"levelo_inurba_marseille","lat":43.24083,"lon":5.37752,"is_reserved":false,"is_disabled":false,"rental_uris":{"android":"levelo://app?vid=4c92ddfb-82c6-411c-8a4c-50ec62be918b","ios":"levelo://app?vid=4c92ddfb-82c6-411c-8a4c-50ec62be918b"},"vehicle_type_id":"4","last_reported":1746512139,"current_range_meters":23200,"station_id":"ce4bhnp2rcd13ifvqgvg","pricing_plan_id":"cebpf4jnsgd1na2vs0mg"},{"bike_id":"ebad895e-16ab-4861-af58-e61a781cbe8d","system_id":"levelo_inurba_marseille","lat":43.26042,"lon":5.39396,"is_reserved":false,"is_disabled":false,"rental_uris":{"android":"levelo://app?vid=ebad895e-16ab-4861-af58-e61a781cbe8d","ios":"levelo://app?vid=ebad895e-16ab-4861-af58-e61a781cbe8d"},"vehicle_type_id":"4","last_reported":1746512139,"current_range_meters":24000,"station_id":"ce4bhh92rcd13ifvqfj0","pricing_plan_id":"cebpf4jnsgd1na2vs0mg"},{"bike_id":"5c68f092-1f83-47ed-97d1-40ba4dcb6dfd","system_id":"levelo_inurba_marseille","lat":43.29283,"lon":5.36853,"is_reserved":false,"is_disabled":false,"rental_uris":{"android":"levelo://app?vid=5c68f092-1f83-47ed-97d1-40ba4dcb6dfd","ios":"levelo://app?vid=5c68f092-1f83-47ed-97d1-40ba4dcb6dfd"},"vehicle_type_id":"4","last_reported":1746512139,"current_range_meters":24000,"station_id":"ce4bhbp2rcd13ifvqesg","pricing_plan_id":"cebpf4jnsgd1na2vs0mg"},{"bike_id":"96175c6b-7676-4c4f-8523-d41df33ea507","system_id":"levelo_inurba_marseille","lat":43.24078,"lon":5.37758,"is_reserved":false,"is_disabled":false,"rental_uris":{"android":"levelo://app?vid=96175c6b-7676-4c4f-8523-d41df33ea507","ios":"levelo://app?vid=96175c6b-7676-4c4f-8523-d41df33ea507"},"vehicle_type_id":"4","last_reported":1746512139,"current_range_meters":24000,"station_id":"ce4bhnp2rcd13ifvqgvg","pricing_plan_id":"cebpf4jnsgd1na2vs0mg"},{"bike_id":"fd21ae1b-9075-4adb-ac2e-17067512c003","system_id":"levelo_inurba_marseille","lat":43.33606,"lon":5.41033,"is_reserved":false,"is_disabled":false,"rental_uris":{"android":"levelo://app?vid=fd21ae1b-9075-4adb-ac2e-17067512c003","ios":"levelo://app?vid=fd21ae1b-9075-4adb-ac2e-17067512c003"},"vehicle_type_id":"4","last_reported":1746512139,"current_range_meters":24000,"station_id":"ce4bhqh2rcd13ifvqhmg","pricing_plan_id":"cebpf4jnsgd1na2vs0mg"},{"bike_id":"31e9e2f4-12ed-450e-b640-68fc9719becf","system_id":"levelo_inurba_marseille","lat":43.284778,"lon":5.384144,"is_reserved":false,"is_disabled":false,"rental_uris":{"android":"levelo://app?vid=31e9e2f4-12ed-450e-b640-68fc9719becf","ios":"levelo://app?vid=31e9e2f4-12ed-450e-b640-68fc9719becf"},"vehicle_type_id":"4","last_reported":1746512139,"current_range_meters":24000,"station_id":"ce4bh512rcd13ifvqe3g","pricing_plan_id":"cebpf4jnsgd1na2vs0mg"},{"bike_id":"1057df73-4c4a-470d-8739-95739c87ed08","system_id":"levelo_inurba_marseille","lat":43.28844,"lon":5.39333,"is_reserved":false,"is_disabled":true,"rental_uris":{"android":"levelo://app?vid=1057df73-4c4a-470d-8739-95739c87ed08","ios":"levelo://app?vid=1057df73-4c4a-470d-8739-95739c87ed08"},"vehicle_type_id":"4","last_reported":1746512139,"current_range_meters":24000,"station_id":"ce4bh2p2rcd13ifvqdi0","pricing_plan_id":"cebpf4jnsgd1na2vs0mg"},{"bike_id":"0df3111c-fd99-4e63-915e-e7763d46bb1b","system_id":"levelo_inurba_marseille","lat":43.28515,"lon":5.37068,"is_reserved":false,"is_disabled":false,"rental_uris":{"android":"levelo://app?vid=0df3111c-fd99-4e63-915e-e7763d46bb1b","ios":"levelo://app?vid=0df3111c-fd99-4e63-915e-e7763d46bb1b"},"vehicle_type_id":"4","last_reported":1746512139,"current_range_meters":24400,"station_id":"","pricing_plan_id":"cebpf4jnsgd1na2vs0mg"},{"bike_id":"d60b5ff3-d886-4755-9de3-7142bffaad36","system_id":"levelo_inurba_marseille","lat":43.29518,"lon":5.39406,"is_reserved":false,"is_disabled":true,"rental_uris":{"android":"levelo://app?vid=d60b5ff3-d886-4755-9de3-7142bffaad36","ios":"levelo://app?vid=d60b5ff3-d886-4755-9de3-7142bffaad36"},"vehicle_type_id":"4","last_reported":1746512139,"current_range_meters":24400,"station_id":"","pricing_plan_id":"cebpf4jnsgd1na2vs0mg"},{"bike_id":"ec02ebf6-6632-4131-b7c9-fa20b573d647","system_id":"levelo_inurba_marseille","lat":43.27495,"lon":5.42454,"is_reserved":false,"is_disabled":false,"rental_uris":{"android":"levelo://app?vid=ec02ebf6-6632-4131-b7c9-fa20b573d647","ios":"levelo://app?vid=ec02ebf6-6632-4131-b7c9-fa20b573d647"},"vehicle_type_id":"4","last_reported":1746512139,"current_range_meters":24400,"station_id":"ce4bhn92rcd13ifvqgrg","pricing_plan_id":"cebpf4jnsgd1na2vs0mg"},{"bike_id":"f2f20b49-5753-41a7-9a99-b91c1354e912","system_id":"levelo_inurba_marseille","lat":43.2407,"lon":5.37765,"is_reserved":false,"is_disabled":false,"rental_uris":{"android":"levelo://app?vid=f2f20b49-5753-41a7-9a99-b91c1354e912","ios":"levelo://app?vid=f2f20b49-5753-41a7-9a99-b91c1354e912"},"vehicle_type_id":"4","last_reported":1746512139,"current_range_meters":24400,"station_id":"ce4bhnp2rcd13ifvqgvg","pricing_plan_id":"cebpf4jnsgd1na2vs0mg"},{"bike_id":"f337ae3b-9238-4523-b038-ffc2307dcf95","system_id":"levelo_inurba_marseille","lat":43.31532,"lon":5.37302,"is_reserved":false,"is_disabled":false,"rental_uris":{"android":"levelo://app?vid=f337ae3b-9238-4523-b038-ffc2307dcf95","ios":"levelo://app?vid=f337ae3b-9238-4523-b038-ffc2307dcf95"},"vehicle_type_id":"4","last_reported":1746512139,"current_range_meters":24400,"station_id":"","pricing_plan_id":"cebpf4jnsgd1na2vs0mg"},{"bike_id":"5d6101b2-e368-4fdd-8cf9-ae8e3b13da9e","system_id":"levelo_inurba_marseille","lat":43.30281,"lon":5.37715,"is_reserved":false,"is_disabled":false,"rental_uris":{"android":"levelo://app?vid=5d6101b2-e368-4fdd-8cf9-ae8e3b13da9e","ios":"levelo://app?vid=5d6101b2-e368-4fdd-8cf9-ae8e3b13da9e"},"vehicle_type_id":"4","last_reported":1746512139,"current_range_meters":25200,"station_id":"ce4bguh2rcd13ifvqcj0","pricing_plan_id":"cebpf4jnsgd1na2vs0mg"},{"bike_id":"c20bfe85-ff3c-47fb-ae80-8822c384f73a","system_id":"levelo_inurba_marseille","lat":43.27907,"lon":5.38008,"is_reserved":false,"is_disabled":false,"rental_uris":{"android":"levelo://app?vid=c20bfe85-ff3c-47fb-ae80-8822c384f73a","ios":"levelo://app?vid=c20bfe85-ff3c-47fb-ae80-8822c384f73a"},"vehicle_type_id":"4","last_reported":1746512139,"current_range_meters":24400,"station_id":"ce4bhf92rcd13ifvqf50","pricing_plan_id":"cebpf4jnsgd1na2vs0mg"},{"bike_id":"3b8aa92d-0390-40a2-9e65-3601529d0509","system_id":"levelo_inurba_marseille","lat":43.32537,"lon":5.41426,"is_reserved":false,"is_disabled":false,"rental_uris":{"android":"levelo://app?vid=3b8aa92d-0390-40a2-9e65-3601529d0509","ios":"levelo://app?vid=3b8aa92d-0390-40a2-9e65-3601529d0509"},"vehicle_type_id":"4","last_reported":1746512139,"current_range_meters":24400,"station_id":"ce4bhq12rcd13ifvqhhg","pricing_plan_id":"cebpf4jnsgd1na2vs0mg"},{"bike_id":"55a5a4bd-37b9-4fda-8803-a1ddb77974cd","system_id":"levelo_inurba_marseille","lat":43.31349,"lon":5.36707,"is_reserved":false,"is_disabled":false,"rental_uris":{"android":"levelo://app?vid=55a5a4bd-37b9-4fda-8803-a1ddb77974cd","ios":"levelo://app?vid=55a5a4bd-37b9-4fda-8803-a1ddb77974cd"},"vehicle_type_id":"4","last_reported":1746512139,"current_range_meters":24400,"station_id":"ce4bgr92rcd13ifvqc6g","pricing_plan_id":"cebpf4jnsgd1na2vs0mg"},{"bike_id":"bed177c0-937f-427c-a007-22d8aad60347","system_id":"levelo_inurba_marseille","lat":43.3377,"lon":5.37474,"is_reserved":false,"is_disabled":false,"rental_uris":{"android":"levelo://app?vid=bed177c0-937f-427c-a007-22d8aad60347","ios":"levelo://app?vid=bed177c0-937f-427c-a007-22d8aad60347"},"vehicle_type_id":"4","last_reported":1746512139,"current_range_meters":24800,"station_id":"","pricing_plan_id":"cebpf4jnsgd1na2vs0mg"},{"bike_id":"1af6d8ea-9710-4590-b5e5-5d2dc0bac9ee","system_id":"levelo_inurba_marseille","lat":43.27496,"lon":5.42454,"is_reserved":false,"is_disabled":false,"rental_uris":{"android":"levelo://app?vid=1af6d8ea-9710-4590-b5e5-5d2dc0bac9ee","ios":"levelo://app?vid=1af6d8ea-9710-4590-b5e5-5d2dc0bac9ee"},"vehicle_type_id":"4","last_reported":1746512139,"current_range_meters":24800,"station_id":"ce4bhn92rcd13ifvqgrg","pricing_plan_id":"cebpf4jnsgd1na2vs0mg"},{"bike_id":"95b366d1-da1b-45e6-9c37-82c0eebc9a6d","system_id":"levelo_inurba_marseille","lat":43.30884,"lon":5.37188,"is_reserved":false,"is_disabled":false,"rental_uris":{"android":"levelo://app?vid=95b366d1-da1b-45e6-9c37-82c0eebc9a6d","ios":"levelo://app?vid=95b366d1-da1b-45e6-9c37-82c0eebc9a6d"},"vehicle_type_id":"4","last_reported":1746512139,"current_range_meters":24800,"station_id":"ce4bguh2rcd13ifvqckg","pricing_plan_id":"cebpf4jnsgd1na2vs0mg"},{"bike_id":"71a10ff9-0c71-4d60-9b19-b51cc05bda26","system_id":"levelo_inurba_marseille","lat":43.30462,"lon":5.37909,"is_reserved":false,"is_disabled":true,"rental_uris":{"android":"levelo://app?vid=71a10ff9-0c71-4d60-9b19-b51cc05bda26","ios":"levelo://app?vid=71a10ff9-0c71-4d60-9b19-b51cc05bda26"},"vehicle_type_id":"4","last_reported":1746512139,"current_range_meters":24800,"station_id":"ce4bgup2rcd13ifvqcn0","pricing_plan_id":"cebpf4jnsgd1na2vs0mg"},{"bike_id":"bcabb148-5bfb-433e-827f-08657f347051","system_id":"levelo_inurba_marseille","lat":43.33593,"lon":5.41044,"is_reserved":false,"is_disabled":false,"rental_uris":{"android":"levelo://app?vid=bcabb148-5bfb-433e-827f-08657f347051","ios":"levelo://app?vid=bcabb148-5bfb-433e-827f-08657f347051"},"vehicle_type_id":"4","last_reported":1746512139,"current_range_meters":24800,"station_id":"ce4bhqh2rcd13ifvqhmg","pricing_plan_id":"cebpf4jnsgd1na2vs0mg"},{"bike_id":"f25529d9-01c7-416d-8936-45ebd4ac5ea3","system_id":"levelo_inurba_marseille","lat":43.2909,"lon":5.38165,"is_reserved":false,"is_disabled":true,"rental_uris":{"android":"levelo://app?vid=f25529d9-01c7-416d-8936-45ebd4ac5ea3","ios":"levelo://app?vid=f25529d9-01c7-416d-8936-45ebd4ac5ea3"},"vehicle_type_id":"4","last_reported":1746512139,"current_range_meters":24800,"station_id":"ce4bh512rcd13ifvqe2g","pricing_plan_id":"cebpf4jnsgd1na2vs0mg"},{"bike_id":"a3ae7e77-f952-4af0-b05a-aa8bd0c5a9ce","system_id":"levelo_inurba_marseille","lat":43.28155,"lon":5.42637,"is_reserved":false,"is_disabled":true,"rental_uris":{"android":"levelo://app?vid=a3ae7e77-f952-4af0-b05a-aa8bd0c5a9ce","ios":"levelo://app?vid=a3ae7e77-f952-4af0-b05a-aa8bd0c5a9ce"},"vehicle_type_id":"4","last_reported":1746512139,"current_range_meters":25200,"station_id":"ce4bhnh2rcd13ifvqgug","pricing_plan_id":"cebpf4jnsgd1na2vs0mg"},{"bike_id":"15a586ab-3bc5-4b7b-93e5-8254fdeef81c","system_id":"levelo_inurba_marseille","lat":43.3212,"lon":5.36791,"is_reserved":false,"is_disabled":false,"rental_uris":{"android":"levelo://app?vid=15a586ab-3bc5-4b7b-93e5-8254fdeef81c","ios":"levelo://app?vid=15a586ab-3bc5-4b7b-93e5-8254fdeef81c"},"vehicle_type_id":"4","last_reported":1746512139,"current_range_meters":25200,"station_id":"ce4bhrh2rcd13ifvqhug","pricing_plan_id":"cebpf4jnsgd1na2vs0mg"},{"bike_id":"86efce73-d764-463e-8080-c05d126201bb","system_id":"levelo_inurba_marseille","lat":43.23171,"lon":5.3999,"is_reserved":false,"is_disabled":false,"rental_uris":{"android":"levelo://app?vid=86efce73-d764-463e-8080-c05d126201bb","ios":"levelo://app?vid=86efce73-d764-463e-8080-c05d126201bb"},"vehicle_type_id":"4","last_reported":1746512139,"current_range_meters":25200,"station_id":"ce4bhn12rcd13ifvqgqg","pricing_plan_id":"cebpf4jnsgd1na2vs0mg"},{"bike_id":"08b0909a-f2aa-4032-806d-f1469d52a00d","system_id":"levelo_inurba_marseille","lat":43.239691,"lon":5.36633,"is_reserved":false,"is_disabled":false,"rental_uris":{"android":"levelo://app?vid=08b0909a-f2aa-4032-806d-f1469d52a00d","ios":"levelo://app?vid=08b0909a-f2aa-4032-806d-f1469d52a00d"},"vehicle_type_id":"4","last_reported":1746512139,"current_range_meters":25200,"station_id":"ce4bhi12rcd13ifvqfp0","pricing_plan_id":"cebpf4jnsgd1na2vs0mg"},{"bike_id":"8c536367-f52f-479a-8cf7-494e9fb1dc16","system_id":"levelo_inurba_marseille","lat":43.3019,"lon":5.36628,"is_reserved":false,"is_disabled":false,"rental_uris":{"android":"levelo://app?vid=8c536367-f52f-479a-8cf7-494e9fb1dc16","ios":"levelo://app?vid=8c536367-f52f-479a-8cf7-494e9fb1dc16"},"vehicle_type_id":"4","last_reported":1746512139,"current_range_meters":25200,"station_id":"ce4bgrh2rcd13ifvqc8g","pricing_plan_id":"cebpf4jnsgd1na2vs0mg"},{"bike_id":"e1af84df-3d5c-4099-beab-8242473e39ed","system_id":"levelo_inurba_marseille","lat":43.2661,"lon":5.39076,"is_reserved":false,"is_disabled":false,"rental_uris":{"android":"levelo://app?vid=e1af84df-3d5c-4099-beab-8242473e39ed","ios":"levelo://app?vid=e1af84df-3d5c-4099-beab-8242473e39ed"},"vehicle_type_id":"4","last_reported":1746512139,"current_range_meters":25200,"station_id":"ce4bhe12rcd13ifvqf30","pricing_plan_id":"cebpf4jnsgd1na2vs0mg"},{"bike_id":"3c962d76-f69b-42d3-85c7-7b9988c4f3f7","system_id":"levelo_inurba_marseille","lat":43.32291,"lon":5.38278,"is_reserved":false,"is_disabled":false,"rental_uris":{"android":"levelo://app?vid=3c962d76-f69b-42d3-85c7-7b9988c4f3f7","ios":"levelo://app?vid=3c962d76-f69b-42d3-85c7-7b9988c4f3f7"},"vehicle_type_id":"4","last_reported":1746512139,"current_range_meters":25600,"station_id":"ce4bhr12rcd13ifvqhqg","pricing_plan_id":"cebpf4jnsgd1na2vs0mg"},{"bike_id":"47ea6c46-5c8b-4d49-ba1b-c36ddb77ac5c","system_id":"levelo_inurba_marseille","lat":43.33088,"lon":5.40842,"is_reserved":false,"is_disabled":false,"rental_uris":{"android":"levelo://app?vid=47ea6c46-5c8b-4d49-ba1b-c36ddb77ac5c","ios":"levelo://app?vid=47ea6c46-5c8b-4d49-ba1b-c36ddb77ac5c"},"vehicle_type_id":"4","last_reported":1746512139,"current_range_meters":25600,"station_id":"","pricing_plan_id":"cebpf4jnsgd1na2vs0mg"},{"bike_id":"cf61fcaa-2e2f-4fa7-b900-81fda8423d1a","system_id":"levelo_inurba_marseille","lat":43.27979,"lon":5.38714,"is_reserved":false,"is_disabled":false,"rental_uris":{"android":"levelo://app?vid=cf61fcaa-2e2f-4fa7-b900-81fda8423d1a","ios":"levelo://app?vid=cf61fcaa-2e2f-4fa7-b900-81fda8423d1a"},"vehicle_type_id":"4","last_reported":1746512139,"current_range_meters":25600,"station_id":"ce4bhg12rcd13ifvqf80","pricing_plan_id":"cebpf4jnsgd1na2vs0mg"},{"bike_id":"49a238d1-5964-46c2-8c4d-a64d15d101fa","system_id":"levelo_inurba_marseille","lat":43.330242,"lon":5.390432,"is_reserved":false,"is_disabled":false,"rental_uris":{"android":"levelo://app?vid=49a238d1-5964-46c2-8c4d-a64d15d101fa","ios":"levelo://app?vid=49a238d1-5964-46c2-8c4d-a64d15d101fa"},