{"last_updated":1714907188,"ttl":30,"version":"2.2","data":{"bikes":[{"bike_id":"5843191e-d245-44ea-b69d-1115021b78de","system_id":"levelo_inurba_marseille","lat":43.313391,"lon":5.36706,"is_reserved":false,"is_disabled":false,"rental_uris":{"android":"levelo://app?vid=5843191e-d245-44ea-b69d-1115021b78de","ios":"levelo://app?vid=5843191e-d245-44ea-b69d-1115021b78de"},"vehicle_type_id":"4","last_reported":1714907188,"current_range_meters":30800,"station_id":"ce4bgr92rcd13ifvqc6g","pricing_plan_id":"cebpf4jnsgd1na2vs0mg"},{"bike_id":"4b055b05-165e-47d1-aba2-19d921b7a716","system_id":"levelo_inurba_marseille","lat":43.31341,"lon":5.367098,"is_reserved":false,"is_disabled":false,"rental_uris":{"android":"levelo://app?vid=4b055b05-165e-47d1-aba2-19d921b7a716","ios":"levelo://app?vid=4b055b05-165e-47d1-aba2-19d921b7a716"},"vehicle_type_id":"4","last_reported":1714907188,"current_range_meters":22000,"station_id":"ce4bgr92rcd13ifvqc6g","pricing_plan_id":"cebpf4jnsgd1na2vs0mg"},{"bike_id":"67cf63de-d9ac-4150-910e-ce3e93aafeb5","system_id":"levelo_inurba_marseille","lat":43.3122,"lon":5.36846,"is_reserved":false,"is_disabled":false,"rental_uris":{"android":"levelo://app?vid=67cf63de-d9ac-4150-910e-ce3e93aafeb5","ios":"levelo://app?vid=67cf63de-d9ac-4150-910e-ce3e93aafeb5"},"vehicle_type_id":"4","last_reported":1714907188,"current_range_meters":9600,"station_id":"ce4bgl92rcd13ifvqbq0","pricing_plan_id":"cebpf4jnsgd1na2vs0mg"},{"bike_id":"4b0bbf97-4b0e-4bc5-a9e7-ce85d6c2d8ec","system_id":"levelo_inurba_marseille","lat":43.31216,"lon":5.36845,"is_reserved":false,"is_disabled":false,"rental_uris":{"android":"levelo://app?vid=4b0bbf97-4b0e-4bc5-a9e7-ce85d6c2d8ec","ios":"levelo://app?vid=4b0bbf97-4b0e-4bc5-a9e7-ce85d6c2d8ec"},"vehicle_type_id":"4","last_reported":1714907188,"current_range_meters":31200,"station_id":"ce4bgl92rcd13ifvqbq0","pricing_plan_id":"cebpf4jnsgd1na2vs0mg"},{"bike_id":"f718eeed-5cee-4da2-a677-8dfbc94199d9","system_id":"levelo_inurba_marseille","lat":43.312239,"lon":5.368562,"is_reserved":false,"is_disabled":false,"rental_uris":{"android":"levelo://app?vid=f718eeed-5cee-4da2-a677-8dfbc94199d9","ios":"levelo://app?vid=f718eeed-5cee-4da2-a677-8dfbc94199d9"},"vehicle_type_id":"4","last_reported":1714907188,"current_range_meters":31200,"station_id":"ce4bgl92rcd13ifvqbq0","pricing_plan_id":"cebpf4jnsgd1na2vs0mg"},{"bike_id":"6220ab97-0774-424b-adaa-987407b4a004","system_id":"levelo_inurba_marseille","lat":43.31224,"lon":5.36858,"is_reserved":false,"is_disabled":false,"rental_uris":{"android":"levelo://app?vid=6220ab97-0774-424b-adaa-987407b4a004","ios":"levelo://app?vid=6220ab97-0774-424b-adaa-987407b4a004"},"vehicle_type_id":"4","last_reported":1714907188,"current_range_meters":0,"station_id":"ce4bgl92rcd13ifvqbq0","pricing_plan_id":"cebpf4jnsgd1na2vs0mg"},{"bike_id":"23a5c1aa-3dfe-43d4-93d3-f2a66f3933eb","system_id":"levelo_inurba_marseille","lat":43.312239,"lon":5.368562,"is_reserved":false,"is_disabled":false,"rental_uris":{"android":"levelo://app?vid=23a5c1aa-3dfe-43d4-93d3-f2a66f3933eb","ios":"levelo://app?vid=23a5c1aa-3dfe-43d4-93d3-f2a66f3933eb"},"vehicle_type_id":"4","last_reported":1714907188,"current_range_meters":17200,"station_id":"ce4bgl92rcd13ifvqbq0","pricing_plan_id":"cebpf4jnsgd1na2vs0mg"},{"bike_id":"49d09821-b852-4744-b2c6-ec4eaa8a5fa1","system_id":"levelo_inurba_marseille","lat":43.309076,"lon":5.368465,"is_reserved":false,"is_disabled":false,"rental_uris":{"android":"levelo://app?vid=49d09821-b852-4744-b2c6-ec4eaa8a5fa1","ios":"levelo://app?vid=49d09821-b852-4744-b2c6-ec4eaa8a5fa1"},"vehicle_type_id":"4","last_reported":1714907188,"current_range_meters":23600,"station_id":"ce4bgn92rcd13ifvqbvg","pricing_plan_id":"cebpf4jnsgd1na2vs0mg"},{"bike_id":"351d08a9-d035-41fb-800b-281ce4d05b92","system_id":"levelo_inurba_marseille","lat":43.309076,"lon":5.368465,"is_reserved":false,"is_disabled":false,"rental_uris":{"android":"levelo://app?vid=351d08a9-d035-41fb-800b-281ce4d05b92","ios":"levelo://app?vid=351d08a9-d035-41fb-800b-281ce4d05b92"},"vehicle_type_id":"4","last_reported":1714907188,"current_range_meters":31200,"station_id":"ce4bgn92rcd13ifvqbvg","pricing_plan_id":"cebpf4jnsgd1na2vs0mg"},{"bike_id":"e268f587-a92d-4371-9c1b-35153c8a6f64","system_id":"levelo_inurba_marseille","lat":43.309076,"lon":5.368465,"is_reserved":false,"is_disabled":false,"rental_uris":{"android":"levelo://app?vid=e268f587-a92d-4371-9c1b-35153c8a6f64","ios":"levelo://app?vid=e268f587-a92d-4371-9c1b-35153c8a6f64"},"vehicle_type_id":"4","last_reported":1714907188,"current_range_meters":24000,"station_id":"ce4bgn92rcd13ifvqbvg","pricing_plan_id":"cebpf4jnsgd1na2vs0mg"},{"bike_id":"d9d990db-99b1-44f0-b31f-3a6244327994","system_id":"levelo_inurba_marseille","lat":43.31483,"lon":5.37308,"is_reserved":false,"is_disabled":false,"rental_uris":{"android":"levelo://app?vid=d9d990db-99b1-44f0-b31f-3a6244327994","ios":"levelo://app?vid=d9d990db-99b1-44f0-b31f-3a6244327994"},"vehicle_type_id":"4","last_reported":1714907188,"current_range_meters":28000,"station_id":"ce4bgt12rcd13ifvqcd0","pricing_plan_id":"cebpf4jnsgd1na2vs0mg"},{"bike_id":"1e4c3073-6371-4d80-b897-bd697bcb091c","system_id":"levelo_inurba_marseille","lat":43.31488,"lon":5.37305,"is_reserved":false,"is_disabled":false,"rental_uris":{"android":"levelo://app?vid=1e4c3073-6371-4d80-b897-bd697bcb091c","ios":"levelo://app?vid=1e4c3073-6371-4d80-b897-bd697bcb091c"},"vehicle_type_id":"4","last_reported":1714907188,"current_range_meters":27200,"station_id":"ce4bgt12rcd13ifvqcd0","pricing_plan_id":"cebpf4jnsgd1na2vs0mg"},{"bike_id":"f37b6a0b-f8a3-4303-89bc-a712b27d0d14","system_id":"levelo_inurba_marseille","lat":43.314811,"lon":5.373103,"is_reserved":false,"is_disabled":false,"rental_uris":{"android":"levelo://app?vid=f37b6a0b-f8a3-4303-89bc-a712b27d0d14","ios":"levelo://app?vid=f37b6a0b-f8a3-4303-89bc-a712b27d0d14"},"vehicle_type_id":"4","last_reported":1714907188,"current_range_meters":21200,"station_id":"ce4bgt12rcd13ifvqcd0","pricing_plan_id":"cebpf4jnsgd1na2vs0mg"},{"bike_id":"e6fb531b-dcf9-46c1-857b-7e75b7c3393d","system_id":"levelo_inurba_marseille","lat":43.3149,"lon":5.37305,"is_reserved":false,"is_disabled":false,"rental_uris":{"android":"levelo://app?vid=e6fb531b-dcf9-46c1-857b-7e75b7c3393d","ios":"levelo://app?vid=e6fb531b-dcf9-46c1-857b-7e75b7c3393d"},"vehicle_type_id":"4","last_reported":1714907188,"current_range_meters":29200,"station_id":"ce4bgt12rcd13ifvqcd0","pricing_plan_id":"cebpf4jnsgd1na2vs0mg"},{"bike_id":"9cf79116-6a55-43c8-88a1-e457ba43dfd7","system_id":"levelo_inurba_marseille","lat":43.31495,"lon":5.373051,"is_reserved":false,"is_disabled":false,"rental_uris":{"android":"levelo://app?vid=9cf79116-6a55-43c8-88a1-e457ba43dfd7","ios":"levelo://app?vid=9cf79116-6a55-43c8-88a1-e457ba43dfd7"},"vehicle_type_id":"4","last_reported":1714907188,"current_range_meters":10800,"station_id":"ce4bgt12rcd13ifvqcd0","pricing_plan_id":"cebpf4jnsgd1na2vs0mg"},{"bike_id":"9468ad7e-a811-45d2-89b6-d99127b3b267","system_id":"levelo_inurba_marseille","lat":43.314811,"lon":5.373104,"is_reserved":false,"is_disabled":false,"rental_uris":{"android":"levelo://app?vid=9468ad7e-a811-45d2-89b6-d99127b3b267","ios":"levelo://app?vid=9468ad7e-a811-45d2-89b6-d99127b3b267"},"vehicle_type_id":"4","last_reported":1714907188,"current_range_meters":30000,"station_id":"ce4bgt12rcd13ifvqcd0","pricing_plan_id":"cebpf4jnsgd1na2vs0mg"},{"bike_id":"a23f635b-a167-4dad-a8ca-6c5d6ad0e791","system_id":"levelo_inurba_marseille","lat":43.3149,"lon":5.37312,"is_reserved":false,"is_disabled":false,"rental_uris":{"android":"levelo://app?vid=a23f635b-a167-4dad-a8ca-6c5d6ad0e791","ios":"levelo://app?vid=a23f635b-a167-4dad-a8ca-6c5d6ad0e791"},"vehicle_type_id":"4","last_reported":1714907188,"current_range_meters":28400,"station_id":"ce4bgt12rcd13ifvqcd0","pricing_plan_id":"cebpf4jnsgd1na2vs0mg"},{"bike_id":"22ac855c-d935-46a7-b535-f749ccc48ae4","system_id":"levelo_inurba_marseille","lat":43.314811,"lon":5.373104,"is_reserved":false,"is_disabled":false,"rental_uris":{"android":"levelo://app?vid=22ac855c-d935-46a7-b535-f749ccc48ae4","ios":"levelo://app?vid=22ac855c-d935-46a7-b535-f749ccc48ae4"},"vehicle_type_id":"4","last_reported":1714907188,"current_range_meters":12800,"station_id":"ce4bgt12rcd13ifvqcd0","pricing_plan_id":"cebpf4jnsgd1na2vs0mg"},{"bike_id":"2d5ff0ce-8f36-43be-a58c-fa1cf0b2e917","system_id":"levelo_inurba_marseille","lat":43.31494,"lon":5.37312,"is_reserved":false,"is_disabled":false,"rental_uris":{"android":"levelo://app?vid=2d5ff0ce-8f36-43be-a58c-fa1cf0b2e917","ios":"levelo://app?vid=2d5ff0ce-8f36-43be-a58c-fa1cf0b2e917"},"vehicle_type_id":"4","last_reported":1714907188,"current_range_meters":0,"station_id":"ce4bgt12rcd13ifvqcd0","pricing_plan_id":"cebpf4jnsgd1na2vs0mg"},{"bike_id":"fc21a2b7-7799-4b13-a0c8-d5c8217c7e7f","system_id":"levelo_inurba_marseille","lat":43.314811,"lon":5.373104,"is_reserved":false,"is_disabled":false,"rental_uris":{"android":"levelo://app?vid=fc21a2b7-7799-4b13-a0c8-d5c8217c7e7f","ios":"levelo://app?vid=fc21a2b7-7799-4b13-a0c8-d5c8217c7e7f"},"vehicle_type_id":"4","last_reported":1714907188,"current_range_meters":30000,"station_id":"ce4bgt12rcd13ifvqcd0","pricing_plan_id":"cebpf4jnsgd1na2vs0mg"},{"bike_id":"8ce6722d-5e10-46c2-a0e6-c4b9454aeb06","system_id":"levelo_inurba_marseille","lat":43.314811,"lon":5.373104,"is_reserved":false,"is_disabled":false,"rental_uris":{"android":"levelo://app?vid=8ce6722d-5e10-46c2-a0e6-c4b9454aeb06","ios":"levelo://app?vid=8ce6722d-5e10-46c2-a0e6-c4b9454aeb06"},"vehicle_type_id":"4","last_reported":1714907188,"current_range_meters":31200,"station_id":"ce4bgt12rcd13ifvqcd0","pricing_plan_id":"cebpf4jnsgd1na2vs0mg"},{"bike_id":"efe2c2dd-8027-40e5-a4d3-509126c3c72d","system_id":"levelo_inurba_marseille","lat":43.309039,"lon":5.371797,"is_reserved":false,"is_disabled":false,"rental_uris":{"android":"levelo://app?vid=efe2c2dd-8027-40e5-a4d3-509126c3c72d","ios":"levelo://app?vid=efe2c2dd-8027-40e5-a4d3-509126c3c72d"},"vehicle_type_id":"4","last_reported":1714907188,"current_range_meters":25200,"station_id":"ce4bguh2rcd13ifvqckg","pricing_plan_id":"cebpf4jnsgd1na2vs0mg"},{"bike_id":"3be40518-a23c-4420-b0d7-3d5cfcdb0f98","system_id":"levelo_inurba_marseille","lat":43.309039,"lon":5.371797,"is_reserved":false,"is_disabled":false,"rental_uris":{"android":"levelo://app?vid=3be40518-a23c-4420-b0d7-3d5cfcdb0f98","ios":"levelo://app?vid=3be40518-a23c-4420-b0d7-3d5cfcdb0f98"},"vehicle_type_id":"4","last_reported":1714907188,"current_range_meters":21200,"station_id":"ce4bguh2rcd13ifvqckg","pricing_plan_id":"cebpf4jnsgd1na2vs0mg"},{"bike_id":"ea3a02f6-2885-4c22-a31e-47e0e78ec5b5","system_id":"levelo_inurba_marseille","lat":43.309034,"lon":5.371783,"is_reserved":false,"is_disabled":false,"rental_uris":{"android":"levelo://app?vid=ea3a02f6-2885-4c22-a31e-47e0e78ec5b5","ios":"levelo://app?vid=ea3a02f6-2885-4c22-a31e-47e0e78ec5b5"},"vehicle_type_id":"4","last_reported":1714907188,"current_range_meters":22000,"station_id":"ce4bguh2rcd13ifvqckg","pricing_plan_id":"cebpf4jnsgd1na2vs0mg"},{"bike_id":"e86f8a67-10d7-4577-a1aa-8771047b9f3e","system_id":"levelo_inurba_marseille","lat":43.305368,"lon":5.367343,"is_reserved":false,"is_disabled":false,"rental_uris":{"android":"levelo://app?vid=e86f8a67-10d7-4577-a1aa-8771047b9f3e","ios":"levelo://app?vid=e86f8a67-10d7-4577-a1aa-8771047b9f3e"},"vehicle_type_id":"4","last_reported":1714907188,"current_range_meters":31200,"station_id":"ce4bgrp2rcd13ifvqc9g","pricing_plan_id":"cebpf4jnsgd1na2vs0mg"},{"bike_id":"5f3793f7-403b-4630-85ef-6c490f59cf19","system_id":"levelo_inurba_marseille","lat":43.305714,"lon":5.365633,"is_reserved":false,"is_disabled":false,"rental_uris":{"android":"levelo://app?vid=5f3793f7-403b-4630-85ef-6c490f59cf19","ios":"levelo://app?vid=5f3793f7-403b-4630-85ef-6c490f59cf19"},"vehicle_type_id":"4","last_reported":1714907188,"current_range_meters":7200,"station_id":"ce4bgs12rcd13ifvqcag","pricing_plan_id":"cebpf4jnsgd1na2vs0mg"},{"bike_id":"98b649dc-ddd0-49c7-af90-88dfde302d52","system_id":"levelo_inurba_marseille","lat":43.305714,"lon":5.365633,"is_reserved":false,"is_disabled":false,"rental_uris":{"android":"levelo://app?vid=98b649dc-ddd0-49c7-af90-88dfde302d52","ios":"levelo://app?vid=98b649dc-ddd0-49c7-af90-88dfde302d52"},"vehicle_type_id":"4","last_reported":1714907188,"current_range_meters":1600,"station_id":"ce4bgs12rcd13ifvqcag","pricing_plan_id":"cebpf4jnsgd1na2vs0mg"},{"bike_id":"39871519-3d5f-42a8-8bc1-bd71714b88e9","system_id":"levelo_inurba_marseille","lat":43.30538,"lon":5.36683,"is_reserved":false,"is_disabled":false,"rental_uris":{"android":"levelo://app?vid=39871519-3d5f-42a8-8bc1-bd71714b88e9","ios":"levelo://app?vid=39871519-3d5f-42a8-8bc1-bd71714b88e9"},"vehicle_type_id":"4","last_reported":1714907188,"current_range_meters":31200,"station_id":"ce4bgrp2rcd13ifvqc9g","pricing_plan_id":"cebpf4jnsgd1na2vs0mg"},{"bike_id":"b2483ac3-65ea-43dd-8f53-191f28af8682","system_id":"levelo_inurba_marseille","lat":43.305714,"lon":5.365633,"is_reserved":false,"is_disabled":false,"rental_uris":{"android":"levelo://app?vid=b2483ac3-65ea-43dd-8f53-191f28af8682","ios":"levelo://app?vid=b2483ac3-65ea-43dd-8f53-191f28af8682"},"vehicle_type_id":"4","last_reported":1714907188,"current_range_meters":10800,"station_id":"ce4bgs12rcd13ifvqcag","pricing_plan_id":"cebpf4jnsgd1na2vs0mg"},{"bike_id":"5b4fa69e-cf5f-440d-914e-f7ad92f2f119","system_id":"levelo_inurba_marseille","lat":43.30537,"lon":5.367345,"is_reserved":false,"is_disabled":false,"rental_uris":{"android":"levelo://app?vid=5b4fa69e-cf5f-440d-914e-f7ad92f2f119","ios":"levelo://app?vid=5b4fa69e-cf5f-440d-914e-f7ad92f2f119"},"vehicle_type_id":"4","last_reported":1714907188,"current_range_meters":25600,"station_id":"ce4bgrp2rcd13ifvqc9g","pricing_plan_id":"cebpf4jnsgd1na2vs0mg"},{"bike_id":"c58ed7bc-5e2e-46bd-b63b-c60a8d89998e","system_id":"levelo_inurba_marseille","lat":43.305368,"lon":5.367343,"is_reserved":false,"is_disabled":false,"rental_uris":{"android":"levelo://app?vid=c58ed7bc-5e2e-46bd-b63b-c60a8d89998e","ios":"levelo://app?vid=c58ed7bc-5e2e-46bd-b63b-c60a8d89998e"},"vehicle_type_id":"4","last_reported":1714907188,"current_range_meters":15600,"station_id":"ce4bgrp2rcd13ifvqc9g","pricing_plan_id":"cebpf4jnsgd1na2vs0mg"},{"bike_id":"098ca026-98f8-4ec7-973e-5c9f2d0abd15","system_id":"levelo_inurba_marseille","lat":43.32006,"lon":5.36547,"is_reserved":false,"is_disabled":false,"rental_uris":{"android":"levelo://app?vid=098ca026-98f8-4ec7-973e-5c9f2d0abd15","ios":"levelo://app?vid=098ca026-98f8-4ec7-973e-5c9f2d0abd15"},"vehicle_type_id":"4","last_reported":1714907188,"current_range_meters":16000,"station_id":"","pricing_plan_id":"cebpf4jnsgd1na2vs0mg"},{"bike_id":"f0120ac3-6800-413a-b299-f522215ac34f","system_id":"levelo_inurba_marseille","lat":43.305714,"lon":5.365633,"is_reserved":false,"is_disabled":false,"rental_uris":{"android":"levelo://app?vid=f0120ac3-6800-413a-b299-f522215ac34f","ios":"levelo://app?vid=f0120ac3-6800-413a-b299-f522215ac34f"},"vehicle_type_id":"4","last_reported":1714907188,"current_range_meters":31600,"station_id":"ce4bgs12rcd13ifvqcag","pricing_plan_id":"cebpf4jnsgd1na2vs0mg"},{"bike_id":"71ae2363-0102-4b55-9c11-0aed919275b2","system_id":"levelo_inurba_marseille","lat":43.305989,"lon":5.37225,"is_reserved":false,"is_disabled":false,"rental_uris":{"android":"levelo://app?vid=71ae2363-0102-4b55-9c11-0aed919275b2","ios":"levelo://app?vid=71ae2363-0102-4b55-9c11-0aed919275b2"},"vehicle_type_id":"4","last_reported":1714907188,"current_range_meters":22400,"station_id":"ce4bgqh2rcd13ifvqc4g","pricing_plan_id":"cebpf4jnsgd1na2vs0mg"},{"bike_id":"cc734e21-2242-482f-a4fa-3b4522abc6e4","system_id":"levelo_inurba_marseille","lat":43.311131,"lon":5.377651,"is_reserved":false,"is_disabled":false,"rental_uris":{"android":"levelo://app?vid=cc734e21-2242-482f-a4fa-3b4522abc6e4","ios":"levelo://app?vid=cc734e21-2242-482f-a4fa-3b4522abc6e4"},"vehicle_type_id":"4","last_reported":1714907188,"current_range_meters":26800,"station_id":"ce4bgt92rcd13ifvqcg0","pricing_plan_id":"cebpf4jnsgd1na2vs0mg"},{"bike_id":"367aa0b1-62e9-494b-a747-4308c60353b6","system_id":"levelo_inurba_marseille","lat":43.311131,"lon":5.377651,"is_reserved":false,"is_disabled":false,"rental_uris":{"android":"levelo://app?vid=367aa0b1-62e9-494b-a747-4308c60353b6","ios":"levelo://app?vid=367aa0b1-62e9-494b-a747-4308c60353b6"},"vehicle_type_id":"4","last_reported":1714907188,"current_range_meters":29200,"station_id":"ce4bgt92rcd13ifvqcg0","pricing_plan_id":"cebpf4jnsgd1na2vs0mg"},{"bike_id":"a5bbab5b-6278-4635-9666-2d18657fe469","system_id":"levelo_inurba_marseille","lat":43.307945,"lon":5.376487,"is_reserved":false,"is_disabled":false,"rental_uris":{"android":"levelo://app?vid=a5bbab5b-6278-4635-9666-2d18657fe469","ios":"levelo://app?vid=a5bbab5b-6278-4635-9666-2d18657fe469"},"vehicle_type_id":"4","last_reported":1714907188,"current_range_meters":21600,"station_id":"ce4bgv92rcd13ifvqcq0","pricing_plan_id":"cebpf4jnsgd1na2vs0mg"},{"bike_id":"0a77ca22-02dc-4955-aa84-16c121e1039b","system_id":"levelo_inurba_marseille","lat":43.30781,"lon":5.376617,"is_reserved":false,"is_disabled":false,"rental_uris":{"android":"levelo://app?vid=0a77ca22-02dc-4955-aa84-16c121e1039b","ios":"levelo://app?vid=0a77ca22-02dc-4955-aa84-16c121e1039b"},"vehicle_type_id":"4","last_reported":1714907188,"current_range_meters":0,"station_id":"ce4bgv92rcd13ifvqcq0","pricing_plan_id":"cebpf4jnsgd1na2vs0mg"},{"bike_id":"6f32f720-8952-4191-8f95-2b3f5de41e17","system_id":"levelo_inurba_marseille","lat":43.317075,"lon":5.377367,"is_reserved":false,"is_disabled":false,"rental_uris":{"android":"levelo://app?vid=6f32f720-8952-4191-8f95-2b3f5de41e17","ios":"levelo://app?vid=6f32f720-8952-4191-8f95-2b3f5de41e17"},"vehicle_type_id":"4","last_reported":1714907188,"current_range_meters":30400,"station_id":"ce4bgth2rcd13ifvqch0","pricing_plan_id":"cebpf4jnsgd1na2vs0mg"},{"bike_id":"2c7a1916-afec-4f5b-8339-b889a3477dcc","system_id":"levelo_inurba_marseille","lat":43.317075,"lon":5.377367,"is_reserved":false,"is_disabled":false,"rental_uris":{"android":"levelo://app?vid=2c7a1916-afec-4f5b-8339-b889a3477dcc","ios":"levelo://app?vid=2c7a1916-afec-4f5b-8339-b889a3477dcc"},"vehicle_type_id":"4","last_reported":1714907188,"current_range_meters":0,"station_id":"ce4bgth2rcd13ifvqch0","pricing_plan_id":"cebpf4jnsgd1na2vs0mg"},{"bike_id":"99e868c0-7b59-439b-b0f5-d685b850c670","system_id":"levelo_inurba_marseille","lat":43.30489,"lon":5.37371,"is_reserved":false,"is_disabled":false,"rental_uris":{"android":"levelo://app?vid=99e868c0-7b59-439b-b0f5-d685b850c670","ios":"levelo://app?vid=99e868c0-7b59-439b-b0f5-d685b850c670"},"vehicle_type_id":"4","last_reported":1714907188,"current_range_meters":26000,"station_id":"","pricing_plan_id":"cebpf4jnsgd1na2vs0mg"},{"bike_id":"4ab5672d-b6a8-4cf0-8451-386f2f7f2b6a","system_id":"levelo_inurba_marseille","lat":43.312507,"lon":5.379788,"is_reserved":false,"is_disabled":false,"rental_uris":{"android":"levelo://app?vid=4ab5672d-b6a8-4cf0-8451-386f2f7f2b6a","ios":"levelo://app?vid=4ab5672d-b6a8-4cf0-8451-386f2f7f2b6a"},"vehicle_type_id":"4","last_reported":1714907188,"current_range_meters":4000,"station_id":"","pricing_plan_id":"cebpf4jnsgd1na2vs0mg"},{"bike_id":"1e999e1d-d869-422e-8f78-6edb5e60f5cd","system_id":"levelo_inurba_marseille","lat":43.30304,"lon":5.368987,"is_reserved":false,"is_disabled":false,"rental_uris":{"android":"levelo://app?vid=1e999e1d-d869-422e-8f78-6edb5e60f5cd","ios":"levelo://app?vid=1e999e1d-d869-422e-8f78-6edb5e60f5cd"},"vehicle_type_id":"4","last_reported":1714907188,"current_range_meters":22000,"station_id":"ce4bgqh2rcd13ifvqc5g","pricing_plan_id":"cebpf4jnsgd1na2vs0mg"},{"bike_id":"7ba1853f-f6f2-4c4f-8e82-ee00e9b62840","system_id":"levelo_inurba_marseille","lat":43.301939,"lon":5.366286,"is_reserved":false,"is_disabled":false,"rental_uris":{"android":"levelo://app?vid=7ba1853f-f6f2-4c4f-8e82-ee00e9b62840","ios":"levelo://app?vid=7ba1853f-f6f2-4c4f-8e82-ee00e9b62840"},"vehicle_type_id":"4","last_reported":1714907188,"current_range_meters":0,"station_id":"ce4bgrh2rcd13ifvqc8g","pricing_plan_id":"cebpf4jnsgd1na2vs0mg"},{"bike_id":"2acf405e-24e0-4088-a209-46377716e7df","system_id":"levelo_inurba_marseille","lat":43.301939,"lon":5.366286,"is_reserved":false,"is_disabled":false,"rental_uris":{"android":"levelo://app?vid=2acf405e-24e0-4088-a209-46377716e7df","ios":"levelo://app?vid=2acf405e-24e0-4088-a209-46377716e7df"},"vehicle_type_id":"4","last_reported":1714907188,"current_range_meters":24800,"station_id":"ce4bgrh2rcd13ifvqc8g","pricing_plan_id":"cebpf4jnsgd1na2vs0mg"},{"bike_id":"1282e605-45a9-4305-ba6d-1a5fb5a759ea","system_id":"levelo_inurba_marseille","lat":43.308012,"lon":5.381511,"is_reserved":false,"is_disabled":false,"rental_uris":{"android":"levelo://app?vid=1282e605-45a9-4305-ba6d-1a5fb5a759ea","ios":"levelo://app?vid=1282e605-45a9-4305-ba6d-1a5fb5a759ea"},"vehicle_type_id":"4","last_reported":1714907188,"current_range_meters":26000,"station_id":"ce4bgt12rcd13ifvqce0","pricing_plan_id":"cebpf4jnsgd1na2vs0mg"},{"bike_id":"9ace493f-445e-4e1c-bda0-40f8b68ee736","system_id":"levelo_inurba_marseille","lat":43.304606,"lon":5.379026,"is_reserved":false,"is_disabled":false,"rental_uris":{"android":"levelo://app?vid=9ace493f-445e-4e1c-bda0-40f8b68ee736","ios":"levelo://app?vid=9ace493f-445e-4e1c-bda0-40f8b68ee736"},"vehicle_type_id":"4","last_reported":1714907188,"current_range_meters":30000,"station_id":"ce4bgup2rcd13ifvqcn0","pricing_plan_id":"cebpf4jnsgd1na2vs0mg"},{"bike_id":"ae6f42cb-76ef-45d1-94b5-8c52bbd5e3b1","system_id":"levelo_inurba_marseille","lat":43.304606,"lon":5.379026,"is_reserved":false,"is_disabled":false,"rental_uris":{"android":"levelo://app?vid=ae6f42cb-76ef-45d1-94b5-8c52bbd5e3b1","ios":"levelo://app?vid=ae6f42cb-76ef-45d1-94b5-8c52bbd5e3b1"},"vehicle_type_id":"4","last_reported":1714907188,"current_range_meters":21200,"station_id":"ce4bgup2rcd13ifvqcn0","pricing_plan_id":"cebpf4jnsgd1na2vs0mg"},{"bike_id":"e5611b6e-c4d2-4f3d-a9ca-84d69e17d16e","system_id":"levelo_inurba_marseille","lat":43.304606,"lon":5.379026,"is_reserved":false,"is_disabled":false,"rental_uris":{"android":"levelo://app?vid=e5611b6e-c4d2-4f3d-a9ca-84d69e17d16e","ios":"levelo://app?vid=e5611b6e-c4d2-4f3d-a9ca-84d69e17d16e"},"vehicle_type_id":"4","last_reported":1714907188,"current_range_meters":26000,"station_id":"ce4bgup2rcd13ifvqcn0","pricing_plan_id":"cebpf4jnsgd1na2vs0mg"},{"bike_id":"8a8b0ccb-ec4d-4b68-b8e2-9254ae8e32f3","system_id":"levelo_inurba_marseille","lat":43.32484,"lon":5.36572,"is_reserved":false,"is_disabled":false,"rental_uris":{"android":"levelo://app?vid=8a8b0ccb-ec4d-4b68-b8e2-9254ae8e32f3","ios":"levelo://app?vid=8a8b0ccb-ec4d-4b68-b8e2-9254ae8e32f3"},"vehicle_type_id":"4","last_reported":1714907188,"current_range_meters":0,"station_id":"ce4bhs12rcd13ifvqhvg","pricing_plan_id":"cebpf4jnsgd1na2vs0mg"},{"bike_id":"10a284ad-b3d6-4450-b65c-707a7d0dfb1d","system_id":"levelo_inurba_marseille","lat":43.302784,"lon":5.377158,"is_reserved":false,"is_disabled":false,"rental_uris":{"android":"levelo://app?vid=10a284ad-b3d6-4450-b65c-707a7d0dfb1d","ios":"levelo://app?vid=10a284ad-b3d6-4450-b65c-707a7d0dfb1d"},"vehicle_type_id":"4","last_reported":1714907188,"current_range_meters":28800,"station_id":"ce4bguh2rcd13ifvqcj0","pricing_plan_id":"cebpf4jnsgd1na2vs0mg"},{"bike_id":"bdd82144-8ef6-4ef3-878e-85c91702f95f","system_id":"levelo_inurba_marseille","lat":43.302784,"lon":5.377158,"is_reserved":false,"is_disabled":false,"rental_uris":{"android":"levelo://app?vid=bdd82144-8ef6-4ef3-878e-85c91702f95f","ios":"levelo://app?vid=bdd82144-8ef6-4ef3-878e-85c91702f95f"},"vehicle_type_id":"4","last_reported":1714907188,"current_range_meters":25200,"station_id":"ce4bguh2rcd13ifvqcj0","pricing_plan_id":"cebpf4jnsgd1na2vs0mg"},{"bike_id":"2b065fd9-f4f9-4b72-b5a4-e0518270092a","system_id":"levelo_inurba_marseille","lat":43.30143,"lon":5.37413,"is_reserved":false,"is_disabled":false,"rental_uris":{"android":"levelo://app?vid=2b065fd9-f4f9-4b72-b5a4-e0518270092a","ios":"levelo://app?vid=2b065fd9-f4f9-4b72-b5a4-e0518270092a"},"vehicle_type_id":"4","last_reported":1714907188,"current_range_meters":6800,"station_id":"ce4bgs92rcd13ifvqcc0","pricing_plan_id":"cebpf4jnsgd1na2vs0mg"},{"bike_id":"88d10ddb-a37f-40fa-9635-e3d03a3875cd","system_id":"levelo_inurba_marseille","lat":43.313571,"lon":5.384829,"is_reserved":false,"is_disabled":false,"rental_uris":{"android":"levelo://app?vid=88d10ddb-a37f-40fa-9635-e3d03a3875cd","ios":"levelo://app?vid=88d10ddb-a37f-40fa-9635-e3d03a3875cd"},"vehicle_type_id":"4","last_reported":1714907188,"current_range_meters":30000,"station_id":"ce4bgt92rcd13ifvqcf0","pricing_plan_id":"cebpf4jnsgd1na2vs0mg"},{"bike_id":"6a2b2282-d7fe-4d01-a0e5-d1966e120349","system_id":"levelo_inurba_marseille","lat":43.299222,"lon":5.365554,"is_reserved":false,"is_disabled":false,"rental_uris":{"android":"levelo://app?vid=6a2b2282-d7fe-4d01-a0e5-d1966e120349","ios":"levelo://app?vid=6a2b2282-d7fe-4d01-a0e5-d1966e120349"},"vehicle_type_id":"4","last_reported":1714907188,"current_range_meters":17200,"station_id":"ce4bgm92rcd13ifvqbr0","pricing_plan_id":"cebpf4jnsgd1na2vs0mg"},{"bike_id":"d10ebd8b-e3b8-45f9-a1b2-eb06420158e6","system_id":"levelo_inurba_marseille","lat":43.299222,"lon":5.365554,"is_reserved":false,"is_disabled":false,"rental_uris":{"android":"levelo://app?vid=d10ebd8b-e3b8-45f9-a1b2-eb06420158e6","ios":"levelo://app?vid=d10ebd8b-e3b8-45f9-a1b2-eb06420158e6"},"vehicle_type_id":"4","last_reported":1714907188,"current_range_meters":26000,"station_id":"ce4bgm92rcd13ifvqbr0","pricing_plan_id":"cebpf4jnsgd1na2vs0mg"},{"bike_id":"d94ad271-ca7b-47f3-8193-853869dfaf90","system_id":"levelo_inurba_marseille","lat":43.299222,"lon":5.365554,"is_reserved":false,"is_disabled":false,"rental_uris":{"android":"levelo://app?vid=d94ad271-ca7b-47f3-8193-853869dfaf90","ios":"levelo://app?vid=d94ad271-ca7b-47f3-8193-853869dfaf90"},"vehicle_type_id":"4","last_reported":1714907188,"current_range_meters":21200,"station_id":"ce4bgm92rcd13ifvqbr0","pricing_plan_id":"cebpf4jnsgd1na2vs0mg"},{"bike_id":"eb7aab52-b004-4e74-8336-766fec72f5b8","system_id":"levelo_inurba_marseille","lat":43.299222,"lon":5.365554,"is_reserved":false,"is_disabled":false,"rental_uris":{"android":"levelo://app?vid=eb7aab52-b004-4e74-8336-766fec72f5b8","ios":"levelo://app?vid=eb7aab52-b004-4e74-8336-766fec72f5b8"},"vehicle_type_id":"4","last_reported":1714907188,"current_range_meters":19200,"station_id":"ce4bgm92rcd13ifvqbr0","pricing_plan_id":"cebpf4jnsgd1na2vs0mg"},{"bike_id":"08082998-64d5-40aa-9012-b0a1789630c7","system_id":"levelo_inurba_marseille","lat":43.311722,"lon":5.387247,"is_reserved":false,"is_disabled":false,"rental_uris":{"android":"levelo://app?vid=08082998-64d5-40aa-9012-b0a1789630c7","ios":"levelo://app?vid=08082998-64d5-40aa-9012-b0a1789630c7"},"vehicle_type_id":"4","last_reported":1714907188,"current_range_meters":1600,"station_id":"ce4bgv12rcd13ifvqcp0","pricing_plan_id":"cebpf4jnsgd1na2vs0mg"},{"bike_id":"e1742739-a520-4ae2-8c98-ed9d45aba45f","system_id":"levelo_inurba_marseille","lat":43.29855,"lon":5.36291,"is_reserved":false,"is_disabled":false,"rental_uris":{"android":"levelo://app?vid=e1742739-a520-4ae2-8c98-ed9d45aba45f","ios":"levelo://app?vid=e1742739-a520-4ae2-8c98-ed9d45aba45f"},"vehicle_type_id":"4","last_reported":1714907188,"current_range_meters":31200,"station_id":"ce4bgpp2rcd13ifvqc3g","pricing_plan_id":"cebpf4jnsgd1na2vs0mg"},{"bike_id":"6843c2c2-6999-4fe8-b140-37c07a7b7a65","system_id":"levelo_inurba_marseille","lat":43.29854,"lon":5.362867,"is_reserved":false,"is_disabled":false,"rental_uris":{"android":"levelo://app?vid=6843c2c2-6999-4fe8-b140-37c07a7b7a65","ios":"levelo://app?vid=6843c2c2-6999-4fe8-b140-37c07a7b7a65"},"vehicle_type_id":"4","last_reported":1714907188,"current_range_meters":13200,"station_id":"ce4bgpp2rcd13ifvqc3g","pricing_plan_id":"cebpf4jnsgd1na2vs0mg"},{"bike_id":"a97ef268-8cef-4c9d-a279-a33087ee9ac3","system_id":"levelo_inurba_marseille","lat":43.29852,"lon":5.36285,"is_reserved":false,"is_disabled":false,"rental_uris":{"android":"levelo://app?vid=a97ef268-8cef-4c9d-a279-a33087ee9ac3","ios":"levelo://app?vid=a97ef268-8cef-4c9d-a279-a33087ee9ac3"},"vehicle_type_id":"4","last_reported":1714907188,"current_range_meters":13200,"station_id":"ce4bgpp2rcd13ifvqc3g","pricing_plan_id":"cebpf4jnsgd1na2vs0mg"},{"bike_id":"37b4ebf2-5307-4d18-8e11-c83aa683e9b7","system_id":"levelo_inurba_marseille","lat":43.29851,"lon":5.36289,"is_reserved":false,"is_disabled":false,"rental_uris":{"android":"levelo://app?vid=37b4ebf2-5307-4d18-8e11-c83aa683e9b7","ios":"levelo://app?vid=37b4ebf2-5307-4d18-8e11-c83aa683e9b7"},"vehicle_type_id":"4","last_reported":1714907188,"current_range_meters":0,"station_id":"ce4bgpp2rcd13ifvqc3g","pricing_plan_id":"cebpf4jnsgd1na2vs0mg"},{"bike_id":"83da84fa-c840-4665-9bf7-6d5f6a291778","system_id":"levelo_inurba_marseille","lat":43.29851,"lon":5.36288,"is_reserved":false,"is_disabled":false,"rental_uris":{"android":"levelo://app?vid=83da84fa-c840-4665-9bf7-6d5f6a291778","ios":"levelo://app?vid=83da84fa-c840-4665-9bf7-6d5f6a291778"},"vehicle_type_id":"4","last_reported":1714907188,"current_range_meters":28000,"station_id":"ce4bgpp2rcd13ifvqc3g","pricing_plan_id":"cebpf4jnsgd1na2vs0mg"},{"bike_id":"9ac26592-a02e-4ce3-8a7b-8cd9143c28ab","system_id":"levelo_inurba_marseille","lat":43.2985,"lon":5.36292,"is_reserved":false,"is_disabled":false,"rental_uris":{"android":"levelo://app?vid=9ac26592-a02e-4ce3-8a7b-8cd9143c28ab","ios":"levelo://app?vid=9ac26592-a02e-4ce3-8a7b-8cd9143c28ab"},"vehicle_type_id":"4","last_reported":1714907188,"current_range_meters":11200,"station_id":"ce4bgpp2rcd13ifvqc3g","pricing_plan_id":"cebpf4jnsgd1na2vs0mg"},{"bike_id":"adbde1a5-550e-44b3-baa4-e55b9e2c7246","system_id":"levelo_inurba_marseille","lat":43.2985,"lon":5.36281,"is_reserved":false,"is_disabled":false,"rental_uris":{"android":"levelo://app?vid=adbde1a5-550e-44b3-baa4-e55b9e2c7246","ios":"levelo://app?vid=adbde1a5-550e-44b3-baa4-e55b9e2c7246"},"vehicle_type_id":"4","last_reported":1714907188,"current_range_meters":8400,"station_id":"ce4bgpp2rcd13ifvqc3g","pricing_plan_id":"cebpf4jnsgd1na2vs0mg"},{"bike_id":"f44d1534-5782-491c-b622-ea2f17575bcf","system_id":"levelo_inurba_marseille","lat":43.29849,"lon":5.36285,"is_reserved":false,"is_disabled":false,"rental_uris":{"android":"levelo://app?vid=f44d1534-5782-491c-b622-ea2f17575bcf","ios":"levelo://app?vid=f44d1534-5782-491c-b622-ea2f17575bcf"},"vehicle_type_id":"4","last_reported":1714907188,"current_range_meters":28800,"station_id":"ce4bgpp2rcd13ifvqc3g","pricing_plan_id":"cebpf4jnsgd1na2vs0mg"},{"bike_id":"4c904a3f-d878-4b2d-8958-ce3ba5cf3d05","system_id":"levelo_inurba_marseille","lat":43.29848,"lon":5.36284,"is_reserved":false,"is_disabled":false,"rental_uris":{"android":"levelo://app?vid=4c904a3f-d878-4b2d-8958-ce3ba5cf3d05","ios":"levelo://app?vid=4c904a3f-d878-4b2d-8958-ce3ba5cf3d05"},"vehicle_type_id":"4","last_reported":1714907188,"current_range_meters":28400,"station_id":"ce4bgpp2rcd13ifvqc3g","pricing_plan_id":"cebpf4jnsgd1na2vs0mg"},{"bike_id":"67f80e94-1671-485d-a709-a66bf91f5d56","system_id":"levelo_inurba_marseille","lat":43.29847,"lon":5.36282,"is_reserved":false,"is_disabled":false,"rental_uris":{"android":"levelo://app?vid=67f80e94-1671-485d-a709-a66bf91f5d56","ios":"levelo://app?vid=67f80e94-1671-485d-a709-a66bf91f5d56"},"vehicle_type_id":"4","last_reported":1714907188,"current_range_meters":4800,"station_id":"ce4bgpp2rcd13ifvqc3g","pricing_plan_id":"cebpf4jnsgd1na2vs0mg"},{"bike_id":"b3010231-02c1-4110-955a-2b23564ae776","system_id":"levelo_inurba_marseille","lat":43.29847,"lon":5.36282,"is_reserved":false,"is_disabled":false,"rental_uris":{"android":"levelo://app?vid=b3010231-02c1-4110-955a-2b23564ae776","ios":"levelo://app?vid=b3010231-02c1-4110-955a-2b23564ae776"},"vehicle_type_id":"4","last_reported":1714907188,"current_range_meters":8400,"station_id":"ce4bgpp2rcd13ifvqc3g","pricing_plan_id":"cebpf4jnsgd1na2vs0mg"},{"bike_id":"ff769fa2-8a06-4a33-8262-f8f3ebef77c5","system_id":"levelo_inurba_marseille","lat":43.29845,"lon":5.36286,"is_reserved":false,"is_disabled":false,"rental_uris":{"android":"levelo://app?vid=ff769fa2-8a06-4a33-8262-f8f3ebef77c5","ios":"levelo://app?vid=ff769fa2-8a06-4a33-8262-f8f3ebef77c5"},"vehicle_type_id":"4","last_reported":1714907188,"current_range_meters":31200,"station_id":"ce4bgpp2rcd13ifvqc3g","pricing_plan_id":"cebpf4jnsgd1na2vs0mg"},{"bike_id":"5ed2bce1-1352-466e-bcfc-dea62c458593","system_id":"levelo_inurba_marseille","lat":43.305364,"lon":5.384119,"is_reserved":false,"is_disabled":false,"rental_uris":{"android":"levelo://app?vid=5ed2bce1-1352-466e-bcfc-dea62c458593","ios":"levelo://app?vid=5ed2bce1-1352-466e-bcfc-dea62c458593"},"vehicle_type_id":"4","last_reported":1714907188,"current_range_meters":8000,"station_id":"ce4bgg92rcd13ifvqb30","pricing_plan_id":"cebpf4jnsgd1na2vs0mg"},{"bike_id":"511939a0-b888-4328-b638-2b9ae473654e","system_id":"levelo_inurba_marseille","lat":43.29845,"lon":5.36275,"is_reserved":false,"is_disabled":false,"rental_uris":{"android":"levelo://app?vid=511939a0-b888-4328-b638-2b9ae473654e","ios":"levelo://app?vid=511939a0-b888-4328-b638-2b9ae473654e"},"vehicle_type_id":"4","last_reported":1714907188,"current_range_meters":31200,"station_id":"ce4bgpp2rcd13ifvqc3g","pricing_plan_id":"cebpf4jnsgd1na2vs0mg"},{"bike_id":"f7bce734-f1ec-4d5d-948f-4c902e0b4cc7","system_id":"levelo_inurba_marseille","lat":43.29842,"lon":5.36278,"is_reserved":false,"is_disabled":false,"rental_uris":{"android":"levelo://app?vid=f7bce734-f1ec-4d5d-948f-4c902e0b4cc7","ios":"levelo://app?vid=f7bce734-f1ec-4d5d-948f-4c902e0b4cc7"},"vehicle_type_id":"4","last_reported":1714907188,"current_range_meters":26000,"station_id":"ce4bgpp2rcd13ifvqc3g","pricing_plan_id":"cebpf4jnsgd1na2vs0mg"},{"bike_id":"c791cb3d-0567-4fa8-bab4-849fa32294ab","system_id":"levelo_inurba_marseille","lat":43.298415,"lon":5.362798,"is_reserved":false,"is_disabled":false,"rental_uris":{"android":"levelo://app?vid=c791cb3d-0567-4fa8-bab4-849fa32294ab","ios":"levelo://app?vid=c791cb3d-0567-4fa8-bab4-849fa32294ab"},"vehicle_type_id":"4","last_reported":1714907188,"current_range_meters":31200,"station_id":"ce4bgpp2rcd13ifvqc3g","pricing_plan_id":"cebpf4jnsgd1na2vs0mg"},{"bike_id":"5a270cf1-b518-43a1-88a6-d5a16a40a478","system_id":"levelo_inurba_marseille","lat":43.29842,"lon":5.36276,"is_reserved":false,"is_disabled":false,"rental_uris":{"android":"levelo://app?vid=5a270cf1-b518-43a1-88a6-d5a16a40a478","ios":"levelo://app?vid=5a270cf1-b518-43a1-88a6-d5a16a40a478"},"vehicle_type_id":"4","last_reported":1714907188,"current_range_meters":24000,"station_id":"ce4bgpp2rcd13ifvqc3g","pricing_plan_id":"cebpf4jnsgd1na2vs0mg"},{"bike_id":"cc593e27-6c21-481b-b091-f635cb8358ea","system_id":"levelo_inurba_marseille","lat":43.29841,"lon":5.36279,"is_reserved":false,"is_disabled":false,"rental_uris":{"android":"levelo://app?vid=cc593e27-6c21-481b-b091-f635cb8358ea","ios":"levelo://app?vid=cc593e27-6c21-481b-b091-f635cb8358ea"},"vehicle_type_id":"4","last_reported":1714907188,"current_range_meters":28400,"station_id":"ce4bgpp2rcd13ifvqc3g","pricing_plan_id":"cebpf4jnsgd1na2vs0mg"},{"bike_id":"4eb80c13-68eb-4a89-aa81-765334a56231","system_id":"levelo_inurba_marseille","lat":43.29842,"lon":5.36271,"is_reserved":false,"is_disabled":false,"rental_uris":{"android":"levelo://app?vid=4eb80c13-68eb-4a89-aa81-765334a56231","ios":"levelo://app?vid=4eb80c13-68eb-4a89-aa81-765334a56231"},"vehicle_type_id":"4","last_reported":1714907188,"current_range_meters":20400,"station_id":"ce4bgpp2rcd13ifvqc3g","pricing_plan_id":"cebpf4jnsgd1na2vs0mg"},{"bike_id":"f4b81c11-0175-4821-9903-42f6019fccd3","system_id":"levelo_inurba_marseille","lat":43.298433,"lon":5.362774,"is_reserved":false,"is_disabled":false,"rental_uris":{"android":"levelo://app?vid=f4b81c11-0175-4821-9903-42f6019fccd3","ios":"levelo://app?vid=f4b81c11-0175-4821-9903-42f6019fccd3"},"vehicle_type_id":"4","last_reported":1714907188,"current_range_meters":23600,"station_id":"ce4bgpp2rcd13ifvqc3g","pricing_plan_id":"cebpf4jnsgd1na2vs0mg"},{"bike_id":"c8fd365d-8f5b-4a11-8a3a-a1ddb82ec353","system_id":"levelo_inurba_marseille","lat":43.305364,"lon":5.384119,"is_reserved":false,"is_disabled":false,"rental_uris":{"android":"levelo://app?vid=c8fd365d-8f5b-4a11-8a3a-a1ddb82ec353","ios":"levelo://app?vid=c8fd365d-8f5b-4a11-8a3a-a1ddb82ec353"},"vehicle_type_id":"4","last_reported":1714907188,"current_range_meters":20800,"station_id":"ce4bgg92rcd13ifvqb30","pricing_plan_id":"cebpf4jnsgd1na2vs0mg"},{"bike_id":"2d18849e-032d-4d81-b5a4-9ad147339139","system_id":"levelo_inurba_marseille","lat":43.29815,"lon":5.36245,"is_reserved":false,"is_disabled":false,"rental_uris":{"android":"levelo://app?vid=2d18849e-032d-4d81-b5a4-9ad147339139","ios":"levelo://app?vid=2d18849e-032d-4d81-b5a4-9ad147339139"},"vehicle_type_id":"4","last_reported":1714907188,"current_range_meters":14000,"station_id":"ce4bgpp2rcd13ifvqc3g","pricing_plan_id":"cebpf4jnsgd1na2vs0mg"},{"bike_id":"7dba6b37-e663-401a-b6e2-f2b9f86f6927","system_id":"levelo_inurba_marseille","lat":43.297163,"lon":5.365866,"is_reserved":false,"is_disabled":false,"rental_uris":{"android":"levelo://app?vid=7dba6b37-e663-401a-b6e2-f2b9f86f6927","ios":"levelo://app?vid=7dba6b37-e663-401a-b6e2-f2b9f86f6927"},"vehicle_type_id":"4","last_reported":1714907188,"current_range_meters":13200,"station_id":"ce4bgn12rcd13ifvqbt0","pricing_plan_id":"cebpf4jnsgd1na2vs0mg"},{"bike_id":"7614b7ce-5caa-4011-aecd-f77eaa117cbe","system_id":"levelo_inurba_marseille","lat":43.297163,"lon":5.365866,"is_reserved":false,"is_disabled":false,"rental_uris":{"android":"levelo://app?vid=7614b7ce-5caa-4011-aecd-f77eaa117cbe","ios":"levelo://app?vid=7614b7ce-5caa-4011-aecd-f77eaa117cbe"},"vehicle_type_id":"4","last_reported":1714907188,"current_range_meters":20400,"station_id":"ce4bgn12rcd13ifvqbt0","pricing_plan_id":"cebpf4jnsgd1na2vs0mg"},{"bike_id":"a5d151a4-4e28-4433-a27b-544ded128b2a","system_id":"levelo_inurba_marseille","lat":43.31511,"lon":5.38948,"is_reserved":false,"is_disabled":false,"rental_uris":{"android":"levelo://app?vid=a5d151a4-4e28-4433-a27b-544ded128b2a","ios":"levelo://app?vid=a5d151a4-4e28-4433-a27b-544ded128b2a"},"vehicle_type_id":"4","last_reported":1714907188,"current_range_meters":7600,"station_id":"","pricing_plan_id":"cebpf4jnsgd1na2vs0mg"},{"bike_id":"ae819adc-853d-40b2-9a9c-3850291be6be","system_id":"levelo_inurba_marseille","lat":43.29573,"lon":5.367355,"is_reserved":false,"is_disabled":false,"rental_uris":{"android":"levelo://app?vid=ae819adc-853d-40b2-9a9c-3850291be6be","ios":"levelo://app?vid=ae819adc-853d-40b2-9a9c-3850291be6be"},"vehicle_type_id":"4","last_reported":1714907188,"current_range_meters":11600,"station_id":"ce4bgph2rcd13ifvqc2g","pricing_plan_id":"cebpf4jnsgd1na2vs0mg"},{"bike_id":"6a0c63f1-ad20-47a3-a187-78d0edfe435a","system_id":"levelo_inurba_marseille","lat":43.296131,"lon":5.370791,"is_reserved":false,"is_disabled":false,"rental_uris":{"android":"levelo://app?vid=6a0c63f1-ad20-47a3-a187-78d0edfe435a","ios":"levelo://app?vid=6a0c63f1-ad20-47a3-a187-78d0edfe435a"},"vehicle_type_id":"4","last_reported":1714907188,"current_range_meters":4800,"station_id":"ce4bgnh2rcd13ifvqc0g","pricing_plan_id":"cebpf4jnsgd1na2vs0mg"},{"bike_id":"4caaa23d-c6ef-4170-8f69-6a1e427fffd3","system_id":"levelo_inurba_marseille","lat":43.296129,"lon":5.370777,"is_reserved":false,"is_disabled":false,"rental_uris":{"android":"levelo://app?vid=4caaa23d-c6ef-4170-8f69-6a1e427fffd3","ios":"levelo://app?vid=4caaa23d-c6ef-4170-8f69-6a1e427fffd3"},"vehicle_type_id":"4","last_reported":1714907188,"current_range_meters":29600,"station_id":"ce4bgnh2rcd13ifvqc0g","pricing_plan_id":"cebpf4jnsgd1na2vs0mg"},{"bike_id":"026dcdd3-fbd2-4553-ada0-8e6c37d44753","system_id":"levelo_inurba_marseille","lat":43.29573,"lon":5.367355,"is_reserved":false,"is_disabled":false,"rental_uris":{"android":"levelo://app?vid=026dcdd3-fbd2-4553-ada0-8e6c37d44753","ios":"levelo://app?vid=026dcdd3-fbd2-4553-ada0-8e6c37d44753"},"vehicle_type_id":"4","last_reported":1714907188,"current_range_meters":26800,"station_id":"ce4bgph2rcd13ifvqc2g","pricing_plan_id":"cebpf4jnsgd1na2vs0mg"},{"bike_id":"ba399405-9a98-418d-9ad4-c18e87d07b1d","system_id":"levelo_inurba_marseille","lat":43.29573,"lon":5.367355,"is_reserved":false,"is_disabled":false,"rental_uris":{"android":"levelo://app?vid=ba399405-9a98-418d-9ad4-c18e87d07b1d","ios":"levelo://app?vid=ba399405-9a98-418d-9ad4-c18e87d07b1d"},"vehicle_type_id":"4","last_reported":1714907188,"current_range_meters":28000,"station_id":"ce4bgph2rcd13ifvqc2g","pricing_plan_id":"cebpf4jnsgd1na2vs0mg"},{"bike_id":"c76bd1ad-1472-4d0e-98fa-728d94512902","system_id":"levelo_inurba_marseille","lat":43.29573,"lon":5.367355,"is_reserved":false,"is_disabled":false,"rental_uris":{"android":"levelo://app?vid=c76bd1ad-1472-4d0e-98fa-728d94512902","ios":"levelo://app?vid=c76bd1ad-1472-4d0e-98fa-728d94512902"},"vehicle_type_id":"4","last_reported":1714907188,"current_range_meters":14800,"station_id":"ce4bgph2rcd13ifvqc2g","pricing_plan_id":"cebpf4jnsgd1na2vs0mg"},{"bike_id":"6a658815-1117-4f23-8d0e-8f22130549c8","system_id":"levelo_inurba_marseille","lat":43.296131,"lon":5.370791,"is_reserved":false,"is_disabled":false,"rental_uris":{"android":"levelo://app?vid=6a658815-1117-4f23-8d0e-8f22130549c8","ios":"levelo://app?vid=6a658815-1117-4f23-8d0e-8f22130549c8"},"vehicle_type_id":"4","last_reported":1714907188,"current_range_meters":22800,"station_id":"ce4bgnh2rcd13ifvqc0g","pricing_plan_id":"cebpf4jnsgd1na2vs0mg"},{"bike_id":"6a1da8fe-09f6-4bb5-9a17-a8e6580b1a05","system_id":"levelo_inurba_marseille","lat":43.296129,"lon":5.370777,"is_reserved":false,"is_disabled":false,"rental_uris":{"android":"levelo://app?vid=6a1da8fe-09f6-4bb5-9a17-a8e6580b1a05","ios":"levelo://app?vid=6a1da8fe-09f6-4bb5-9a17-a8e6580b1a05"},"vehicle_type_id":"4","last_reported":1714907188,"current_range_meters":22000,"station_id":"ce4bgnh2rcd13ifvqc0g","pricing_plan_id":"cebpf4jnsgd1na2vs0mg"},{"bike_id":"032feddc-fa3a-4c94-a5d0-2652524bfe64","system_id":"levelo_inurba_marseille","lat":43.29573,"lon":5.367355,"is_reserved":false,"is_disabled":false,"rental_uris":{"android":"levelo://app?vid=032feddc-fa3a-4c94-a5d0-2652524bfe64","ios":"levelo://app?vid=032feddc-fa3a-4c94-a5d0-2652524bfe64"},"vehicle_type_id":"4","last_reported":1714907188,"current_range_meters":8800,"station_id":"ce4bgph2rcd13ifvqc2g","pricing_plan_id":"cebpf4jnsgd1na2vs0mg"},{"bike_id":"972ce52f-e2e6-4d6f-82f0-a67f3272953b","system_id":"levelo_inurba_marseille","lat":43.29573,"lon":5.367355,"is_reserved":false,"is_disabled":false,"rental_uris":{"android":"levelo://app?vid=972ce52f-e2e6-4d6f-82f0-a67f3272953b","ios":"levelo://app?vid=972ce52f-e2e6-4d6f-82f0-a67f3272953b"},"vehicle_type_id":"4","last_reported":1714907188,"current_range_meters":6800,"station_id":"ce4bgph2rcd13ifvqc2g","pricing_plan_id":"cebpf4jnsgd1na2vs0mg"},{"bike_id":"470cc0fd-f851-48cf-910b-547abaca8916","system_id":"levelo_inurba_marseille","lat":43.29573,"lon":5.367355,"is_reserved":false,"is_disabled":false,"rental_uris":{"android":"levelo://app?vid=470cc0fd-f851-48cf-910b-547abaca8916","ios":"levelo://app?vid=470cc0fd-f851-48cf-910b-547abaca8916"},"vehicle_type_id":"4","last_reported":1714907188,"current_range_meters":20000,"station_id":"ce4bgph2rcd13ifvqc2g","pricing_plan_id":"cebpf4jnsgd1na2vs0mg"},{"bike_id":"0588f0b7-3d9f-499d-814d-9932f207cb03","system_id":"levelo_inurba_marseille","lat":43.295793,"lon":5.367489,"is_reserved":false,"is_disabled":false,"rental_uris":{"android":"levelo://app?vid=0588f0b7-3d9f-499d-814d-9932f207cb03","ios":"levelo://app?vid=0588f0b7-3d9f-499d-814d-9932f207cb03"},"vehicle_type_id":"4","last_reported":1714907188,"current_range_meters":26800,"station_id":"","pricing_plan_id":"cebpf4jnsgd1na2vs0mg"},{"bike_id":"67e12af6-f233-47a5-aca5-5fb4062f2436","system_id":"levelo_inurba_marseille","lat":43.29573,"lon":5.367355,"is_reserved":false,"is_disabled":false,"rental_uris":{"android":"levelo://app?vid=67e12af6-f233-47a5-aca5-5fb4062f2436","ios":"levelo://app?vid=67e12af6-f233-47a5-aca5-5fb4062f2436"},"vehicle_type_id":"4","last_reported":1714907188,"current_range_meters":24400,"station_id":"ce4bgph2rcd13ifvqc2g","pricing_plan_id":"cebpf4jnsgd1na2vs0mg"},{"bike_id":"88fcc298-9ed7-48e0-bba8-421252c3d41a","system_id":"levelo_inurba_marseille","lat":43.29573,"lon":5.367355,"is_reserved":false,"is_disabled":false,"rental_uris":{"android":"levelo://app?vid=88fcc298-9ed7-48e0-bba8-421252c3d41a","ios":"levelo://app?vid=88fcc298-9ed7-48e0-bba8-421252c3d41a"},"vehicle_type_id":"4","last_reported":1714907188,"current_range_meters":19600,"station_id":"ce4bgph2rcd13ifvqc2g","pricing_plan_id":"cebpf4jnsgd1na2vs0mg"},{"bike_id":"ed71304c-0c23-4c8b-a29b-9d9143970309","system_id":"levelo_inurba_marseille","lat":43.29573,"lon":5.367355,"is_reserved":false,"is_disabled":false,"rental_uris":{"android":"levelo://app?vid=ed71304c-0c23-4c8b-a29b-9d9143970309","ios":"levelo://app?vid=ed71304c-0c23-4c8b-a29b-9d9143970309"},"vehicle_type_id":"4","last_reported":1714907188,"current_range_meters":26400,"station_id":"ce4bgph2rcd13ifvqc2g","pricing_plan_id":"cebpf4jnsgd1na2vs0mg"},{"bike_id":"73862993-0a1f-4d3e-a47e-353d7c40159a","system_id":"levelo_inurba_marseille","lat":43.29573,"lon":5.367355,"is_reserved":false,"is_disabled":false,"rental_uris":{"android":"levelo://app?vid=73862993-0a1f-4d3e-a47e-353d7c40159a","ios":"levelo://app?vid=73862993-0a1f-4d3e-a47e-353d7c40159a"},"vehicle_type_id":"4","last_reported":1714907188,"current_range_meters":17600,"station_id":"ce4bgph2rcd13ifvqc2g","pricing_plan_id":"cebpf4jnsgd1na2vs0mg"},{"bike_id":"94d530c9-1f55-4002-99ca-e32b3a7371fb","system_id":"levelo_inurba_marseille","lat":43.29573,"lon":5.367355,"is_reserved":false,"is_disabled":false,"rental_uris":{"android":"levelo://app?vid=94d530c9-1f55-4002-99ca-e32b3a7371fb","ios":"levelo://app?vid=94d530c9-1f55-4002-99ca-e32b3a7371fb"},"vehicle_type_id":"4","last_reported":1714907188,"current_range_meters":24000,"station_id":"ce4bgph2rcd13ifvqc2g","pricing_plan_id":"cebpf4jnsgd1na2vs0mg"},{"bike_id":"549f1603-ae58-4591-a68c-01de1d03b3f3","system_id":"levelo_inurba_marseille","lat":43.29573,"lon":5.367355,"is_reserved":false,"is_disabled":false,"rental_uris":{"android":"levelo://app?vid=549f1603-ae58-4591-a68c-01de1d03b3f3","ios":"levelo://app?vid=549f1603-ae58-4591-a68c-01de1d03b3f3"},"vehicle_type_id":"4","last_reported":1714907188,"current_range_meters":26800,"station_id":"ce4bgph2rcd13ifvqc2g","pricing_plan_id":"cebpf4jnsgd1na2vs0mg"},{"bike_id":"40520c53-2e7d-4557-8c3a-2274bf8edcac","system_id":"levelo_inurba_marseille","lat":43.29573,"lon":5.367355,"is_reserved":false,"is_disabled":false,"rental_uris":{"android":"levelo://app?vid=40520c53-2e7d-4557-8c3a-2274bf8edcac","ios":"levelo://app?vid=40520c53-2e7d-4557-8c3a-2274bf8edcac"},"vehicle_type_id":"4","last_reported":1714907188,"current_range_meters":21600,"station_id":"ce4bgph2rcd13ifvqc2g","pricing_plan_id":"cebpf4jnsgd1na2vs0mg"},{"bike_id":"07bdbe1a-ffbb-49dc-9afc-3b7a14a6e92e","system_id":"levelo_inurba_marseille","lat":43.29573,"lon":5.367355,"is_reserved":false,"is_disabled":false,"rental_uris":{"android":"levelo://app?vid=07bdbe1a-ffbb-49dc-9afc-3b7a14a6e92e","ios":"levelo://app?vid=07bdbe1a-ffbb-49dc-9afc-3b7a14a6e92e"},"vehicle_type_id":"4","last_reported":1714907188,"current_range_meters":16400,"station_id":"ce4bgph2rcd13ifvqc2g","pricing_plan_id":"cebpf4jnsgd1na2vs0mg"},{"bike_id":"c59c0341-4bde-4326-ac5c-23ebb683cda7","system_id":"levelo_inurba_marseille","lat":43.29573,"lon":5.367355,"is_reserved":false,"is_disabled":false,"rental_uris":{"android":"levelo://app?vid=c59c0341-4bde-4326-ac5c-23ebb683cda7","ios":"levelo://app?vid=c59c0341-4bde-4326-ac5c-23ebb683cda7"},"vehicle_type_id":"4","last_reported":1714907188,"current_range_meters":22000,"station_id":"ce4bgph2rcd13ifvqc2g","pricing_plan_id":"cebpf4jnsgd1na2vs0mg"},{"bike_id":"70387633-17ea-4b87-b9e9-f1a226deb4eb","system_id":"levelo_inurba_marseille","lat":43.299028,"lon":5.381509,"is_reserved":false,"is_disabled":false,"rental_uris":{"android":"levelo://app?vid=70387633-17ea-4b87-b9e9-f1a226deb4eb","ios":"levelo://app?vid=70387633-17ea-4b87-b9e9-f1a226deb4eb"},"vehicle_type_id":"4","last_reported":1714907188,"current_range_meters":6800,"station_id":"ce4bgj12rcd13ifvqbc0","pricing_plan_id":"cebpf4jnsgd1na2vs0mg"},{"bike_id":"c3b3661f-0b81-4c3f-ba2f-aa7662ecb131","system_id":"levelo_inurba_marseille","lat":43.309589,"lon":5.390258,"is_reserved":false,"is_disabled":false,"rental_uris":{"android":"levelo://app?vid=c3b3661f-0b81-4c3f-ba2f-aa7662ecb131","ios":"levelo://app?vid=c3b3661f-0b81-4c3f-ba2f-aa7662ecb131"},"vehicle_type_id":"4","last_reported":1714907188,"current_range_meters":27200,"station_id":"ce4bgup2rcd13ifvqco0","pricing_plan_id":"cebpf4jnsgd1na2vs0mg"},{"bike_id":"b12c4ad5-5150-47ef-b577-add0d2c84f6d","system_id":"levelo_inurba_marseille","lat":43.299028,"lon":5.381509,"is_reserved":false,"is_disabled":false,"rental_uris":{"android":"levelo://app?vid=b12c4ad5-5150-47ef-b577-add0d2c84f6d","ios":"levelo://app?vid=b12c4ad5-5150-47ef-b577-add0d2c84f6d"},"vehicle_type_id":"4","last_reported":1714907188,"current_range_meters":0,"station_id":"ce4bgj12rcd13ifvqbc0","pricing_plan_id":"cebpf4jnsgd1na2vs0mg"},{"bike_id":"49144b57-230e-4bcc-b1fc-88e68bb37e85","system_id":"levelo_inurba_marseille","lat":43.309589,"lon":5.390258,"is_reserved":false,"is_disabled":false,"rental_uris":{"android":"levelo://app?vid=49144b57-230e-4bcc-b1fc-88e68bb37e85","ios":"levelo://app?vid=49144b57-230e-4bcc-b1fc-88e68bb37e85"},"vehicle_type_id":"4","last_reported":1714907188,"current_range_meters":26400,"station_id":"ce4bgup2rcd13ifvqco0","pricing_plan_id":"cebpf4jnsgd1na2vs0mg"},{"bike_id":"31f2409a-c307-485b-a504-d78d58ea6aea","system_id":"levelo_inurba_marseille","lat":43.309589,"lon":5.390258,"is_reserved":false,"is_disabled":false,"rental_uris":{"android":"levelo://app?vid=31f2409a-c307-485b-a504-d78d58ea6aea","ios":"levelo://app?vid=31f2409a-c307-485b-a504-d78d58ea6aea"},"vehicle_type_id":"4","last_reported":1714907188,"current_range_meters":17200,"station_id":"ce4bgup2rcd13ifvqco0","pricing_plan_id":"cebpf4jnsgd1na2vs0mg"},{"bike_id":"f1e0669a-159f-4430-a911-4b6b63c9f108","system_id":"levelo_inurba_marseille","lat":43.309589,"lon":5.390258,"is_reserved":false,"is_disabled":false,"rental_uris":{"android":"levelo://app?vid=f1e0669a-159f-4430-a911-4b6b63c9f108","ios":"levelo://app?vid=f1e0669a-159f-4430-a911-4b6b63c9f108"},"vehicle_type_id":"4","last_reported":1714907188,"current_range_meters":20400,"station_id":"ce4bgup2rcd13ifvqco0","pricing_plan_id":"cebpf4jnsgd1na2vs0mg"},{"bike_id":"3a57ef19-b2a4-4c2e-a6ba-f602554b5a29","system_id":"levelo_inurba_marseille","lat":43.309589,"lon":5.390258,"is_reserved":false,"is_disabled":false,"rental_uris":{"android":"levelo://app?vid=3a57ef19-b2a4-4c2e-a6ba-f602554b5a29","ios":"levelo://app?vid=3a57ef19-b2a4-4c2e-a6ba-f602554b5a29"},"vehicle_type_id":"4","last_reported":1714907188,"current_range_meters":14800,"station_id":"ce4bgup2rcd13ifvqco0","pricing_plan_id":"cebpf4jnsgd1na2vs0mg"},{"bike_id":"491008a8-c641-4bd8-af7c-530256ffc7bb","system_id":"levelo_inurba_marseille","lat":43.317557,"lon":5.390173,"is_reserved":false,"is_disabled":false,"rental_uris":{"android":"levelo://app?vid=491008a8-c641-4bd8-af7c-530256ffc7bb","ios":"levelo://app?vid=491008a8-c641-4bd8-af7c-530256ffc7bb"},"vehicle_type_id":"4","last_reported":1714907188,"current_range_meters":26800,"station_id":"ce4bhqp2rcd13ifvqhng","pricing_plan_id":"cebpf4jnsgd1na2vs0mg"},{"bike_id":"35b70ffc-51ea-402e-93f7-932f466d751f","system_id":"levelo_inurba_marseille","lat":43.317557,"lon":5.390173,"is_reserved":false,"is_disabled":false,"rental_uris":{"android":"levelo://app?vid=35b70ffc-51ea-402e-93f7-932f466d751f","ios":"levelo://app?vid=35b70ffc-51ea-402e-93f7-932f466d751f"},"vehicle_type_id":"4","last_reported":1714907188,"current_range_meters":30400,"station_id":"ce4bhqp2rcd13ifvqhng","pricing_plan_id":"cebpf4jnsgd1na2vs0mg"},{"bike_id":"2a092cda-43c3-4b9e-ac48-58746290e56a","system_id":"levelo_inurba_marseille","lat":43.317557,"lon":5.390173,"is_reserved":false,"is_disabled":false,"rental_uris":{"android":"levelo://app?vid=2a092cda-43c3-4b9e-ac48-58746290e56a","ios":"levelo://app?vid=2a092cda-43c3-4b9e-ac48-58746290e56a"},"vehicle_type_id":"4","last_reported":1714907188,"current_range_meters":16800,"station_id":"ce4bhqp2rcd13ifvqhng","pricing_plan_id":"cebpf4jnsgd1na2vs0mg"},{"bike_id":"c58a4015-7899-4290-b6ce-bdd18dae2013","system_id":"levelo_inurba_marseille","lat":43.29581,"lon":5.37513,"is_reserved":false,"is_disabled":false,"rental_uris":{"android":"levelo://app?vid=c58a4015-7899-4290-b6ce-bdd18dae2013","ios":"levelo://app?vid=c58a4015-7899-4290-b6ce-bdd18dae2013"},"vehicle_type_id":"4","last_reported":1714907188,"current_range_meters":20800,"station_id":"ce4bgh92rcd13ifvqb50","pricing_plan_id":"cebpf4jnsgd1na2vs0mg"},{"bike_id":"84abab1e-4f4e-4971-8e38-94a0d3773f3a","system_id":"levelo_inurba_marseille","lat":43.29574,"lon":5.37502,"is_reserved":false,"is_disabled":false,"rental_uris":{"android":"levelo://app?vid=84abab1e-4f4e-4971-8e38-94a0d3773f3a","ios":"levelo://app?vid=84abab1e-4f4e-4971-8e38-94a0d3773f3a"},"vehicle_type_id":"4","last_reported":1714907188,"current_range_meters":26000,"station_id":"ce4bgh92rcd13ifvqb50","pricing_plan_id":"cebpf4jnsgd1na2vs0mg"},{"bike_id":"08e31eb2-e428-4d56-b807-6043656cfd9a","system_id":"levelo_inurba_marseille","lat":43.29572,"lon":5.37504,"is_reserved":false,"is_disabled":false,"rental_uris":{"android":"levelo://app?vid=08e31eb2-e428-4d56-b807-6043656cfd9a","ios":"levelo://app?vid=08e31eb2-e428-4d56-b807-6043656cfd9a"},"vehicle_type_id":"4","last_reported":1714907188,"current_range_meters":2800,"station_id":"ce4bgh92rcd13ifvqb50","pricing_plan_id":"cebpf4jnsgd1na2vs0mg"},{"bike_id":"5ef9b428-62c0-455c-b416-678e2a585a3f","system_id":"levelo_inurba_marseille","lat":43.298037,"lon":5.381066,"is_reserved":false,"is_disabled":false,"rental_uris":{"android":"levelo://app?vid=5ef9b428-62c0-455c-b416-678e2a585a3f","ios":"levelo://app?vid=5ef9b428-62c0-455c-b416-678e2a585a3f"},"vehicle_type_id":"4","last_reported":1714907188,"current_range_meters":13600,"station_id":"ce4bgip2rcd13ifvqbb0","pricing_plan_id":"cebpf4jnsgd1na2vs0mg"},{"bike_id":"8fd51eba-fa84-4e41-a9f1-f54cbcb132ac","system_id":"levelo_inurba_marseille","lat":43.296263,"lon":5.377094,"is_reserved":false,"is_disabled":false,"rental_uris":{"android":"levelo://app?vid=8fd51eba-fa84-4e41-a9f1-f54cbcb132ac","ios":"levelo://app?vid=8fd51eba-fa84-4e41-a9f1-f54cbcb132ac"},"vehicle_type_id":"4","last_reported":1714907188,"current_range_meters":0,"station_id":"ce4bgi92rcd13ifvqb90","pricing_plan_id":"cebpf4jnsgd1na2vs0mg"},{"bike_id":"430bfa5a-24d3-4d29-8047-4799281a221e","system_id":"levelo_inurba_marseille","lat":43.295748,"lon":5.37522,"is_reserved":false,"is_disabled":false,"rental_uris":{"android":"levelo://app?vid=430bfa5a-24d3-4d29-8047-4799281a221e","ios":"levelo://app?vid=430bfa5a-24d3-4d29-8047-4799281a221e"},"vehicle_type_id":"4","last_reported":1714907188,"current_range_meters":0,"station_id":"ce4bgh92rcd13ifvqb50","pricing_plan_id":"cebpf4jnsgd1na2vs0mg"},{"bike_id":"b484a4f9-1ecd-466e-b6ec-84234f5e6c19","system_id":"levelo_inurba_marseille","lat":43.29595,"lon":5.37718,"is_reserved":false,"is_disabled":false,"rental_uris":{"android":"levelo://app?vid=b484a4f9-1ecd-466e-b6ec-84234f5e6c19","ios":"levelo://app?vid=b484a4f9-1ecd-466e-b6ec-84234f5e6c19"},"vehicle_type_id":"4","last_reported":1714907188,"current_range_meters":0,"station_id":"ce4bgi92rcd13ifvqb90","pricing_plan_id":"cebpf4jnsgd1na2vs0mg"},{"bike_id":"4073d24a-e8f9-41f7-b5d0-869c216807b2","system_id":"levelo_inurba_marseille","lat":43.295281,"lon":5.374995,"is_reserved":false,"is_disabled":false,"rental_uris":{"android":"levelo://app?vid=4073d24a-e8f9-41f7-b5d0-869c216807b2","ios":"levelo://app?vid=4073d24a-e8f9-41f7-b5d0-869c216807b2"},"vehicle_type_id":"4","last_reported":1714907188,"current_range_meters":31200,"station_id":"ce4bgkp2rcd13ifvqbmg","pricing_plan_id":"cebpf4jnsgd1na2vs0mg"},{"bike_id":"0875537d-4279-461c-9d5a-6f15cc8cc48a","system_id":"levelo_inurba_marseille","lat":43.295277,"lon":5.375,"is_reserved":false,"is_disabled":false,"rental_uris":{"android":"levelo://app?vid=0875537d-4279-461c-9d5a-6f15cc8cc48a","ios":"levelo://app?vid=0875537d-4279-461c-9d5a-6f15cc8cc48a"},"vehicle_type_id":"4","last_reported":1714907188,"current_range_meters":12000,"station_id":"ce4bgkp2rcd13ifvqbmg","pricing_plan_id":"cebpf4jnsgd1na2vs0mg"},{"bike_id":"5a450c04-7228-459b-bcfa-ab80d0ceff5a","system_id":"levelo_inurba_marseille","lat":43.296263,"lon":5.377094,"is_reserved":false,"is_disabled":false,"rental_uris":{"android":"levelo://app?vid=5a450c04-7228-459b-bcfa-ab80d0ceff5a","ios":"levelo://app?vid=5a450c04-7228-459b-bcfa-ab80d0ceff5a"},"vehicle_type_id":"4","last_reported":1714907188,"current_range_meters":0,"station_id":"ce4bgi92rcd13ifvqb90","pricing_plan_id":"cebpf4jnsgd1na2vs0mg"},{"bike_id":"4c5dc4ba-112a-4986-9167-50ad9f5302ae","system_id":"levelo_inurba_marseille","lat":43.32358,"lon":5.38875,"is_reserved":false,"is_disabled":false,"rental_uris":{"android":"levelo://app?vid=4c5dc4ba-112a-4986-9167-50ad9f5302ae","ios":"levelo://app?vid=4c5dc4ba-112a-4986-9167-50ad9f5302ae"},"vehicle_type_id":"4","last_reported":1714907188,"current_range_meters":14000,"station_id":"ce4bhqp2rcd13ifvqhog","pricing_plan_id":"cebpf4jnsgd1na2vs0mg"},{"bike_id":"6aaabb0f-0774-47ca-9aa4-f53315c64dfb","system_id":"levelo_inurba_marseille","lat":43.32364,"lon":5.38878,"is_reserved":false,"is_disabled":false,"rental_uris":{"android":"levelo://app?vid=6aaabb0f-0774-47ca-9aa4-f53315c64dfb","ios":"levelo://app?vid=6aaabb0f-0774-47ca-9aa4-f53315c64dfb"},"vehicle_type_id":"4","last_reported":1714907188,"current_range_meters":26400,"station_id":"ce4bhqp2rcd13ifvqhog","pricing_plan_id":"cebpf4jnsgd1na2vs0mg"},{"bike_id":"4176ad1d-d0ba-4624-b243-38b4c50f7116","system_id":"levelo_inurba_marseille","lat":43.32361,"lon":5.38881,"is_reserved":false,"is_disabled":false,"rental_uris":{"android":"levelo://app?vid=4176ad1d-d0ba-4624-b243-38b4c50f7116","ios":"levelo://app?vid=4176ad1d-d0ba-4624-b243-38b4c50f7116"},"vehicle_type_id":"4","last_reported":1714907188,"current_range_meters":1200,"station_id":"ce4bhqp2rcd13ifvqhog","pricing_plan_id":"cebpf4jnsgd1na2vs0mg"},{"bike_id":"4d13baf3-5537-4de4-849c-1bfc5b652b2e","system_id":"levelo_inurba_marseille","lat":43.32358,"lon":5.38887,"is_reserved":false,"is_disabled":false,"rental_uris":{"android":"levelo://app?vid=4d13baf3-5537-4de4-849c-1bfc5b652b2e","ios":"levelo://app?vid=4d13baf3-5537-4de4-849c-1bfc5b652b2e"},"vehicle_type_id":"4","last_reported":1714907188,"current_range_meters":31200,"station_id":"ce4bhqp2rcd13ifvqhog","pricing_plan_id":"cebpf4jnsgd1na2vs0mg"},{"bike_id":"55cb142b-1da9-46ae-a1ea-cecda90e660d","system_id":"levelo_inurba_marseille","lat":43.32367,"lon":5.388836,"is_reserved":false,"is_disabled":false,"rental_uris":{"android":"levelo://app?vid=55cb142b-1da9-46ae-a1ea-cecda90e660d","ios":"levelo://app?vid=55cb142b-1da9-46ae-a1ea-cecda90e660d"},"vehicle_type_id":"4","last_reported":1714907188,"current_range_meters":11200,"station_id":"ce4bhqp2rcd13ifvqhog","pricing_plan_id":"cebpf4jnsgd1na2vs0mg"},{"bike_id":"b11db906-28de-42cd-b6c4-7a2b7a5989ab","system_id":"levelo_inurba_marseille","lat":43.32369,"lon":5.38881,"is_reserved":false,"is_disabled":false,"rental_uris":{"android":"levelo://app?vid=b11db906-28de-42cd-b6c4-7a2b7a5989ab","ios":"levelo://app?vid=b11db906-28de-42cd-b6c4-7a2b7a5989ab"},"vehicle_type_id":"4","last_reported":1714907188,"current_range_meters":0,"station_id":"ce4bhqp2rcd13ifvqhog","pricing_plan_id":"cebpf4jnsgd1na2vs0mg"},{"bike_id":"aa338cf5-8be0-45db-8732-a80ac32e310e","system_id":"levelo_inurba_marseille","lat":43.32367,"lon":5.388836,"is_reserved":false,"is_disabled":false,"rental_uris":{"android":"levelo://app?vid=aa338cf5-8be0-45db-8732-a80ac32e310e","ios":"levelo://app?vid=aa338cf5-8be0-45db-8732-a80ac32e310e"},"vehicle_type_id":"4","last_reported":1714907188,"current_range_meters":27200,"station_id":"ce4bhqp2rcd13ifvqhog","pricing_plan_id":"cebpf4jnsgd1na2vs0mg"},{"bike_id":"b33dfd30-62c1-4245-ac29-f3d4d7da3d1f","system_id":"levelo_inurba_marseille","lat":43.32368,"lon":5.38886,"is_reserved":false,"is_disabled":false,"rental_uris":{"android":"levelo://app?vid=b33dfd30-62c1-4245-ac29-f3d4d7da3d1f","ios":"levelo://app?vid=b33dfd30-62c1-4245-ac29-f3d4d7da3d1f"},"vehicle_type_id":"4","last_reported":1714907188,"current_range_meters":13600,"station_id":"ce4bhqp2rcd13ifvqhog","pricing_plan_id":"cebpf4jnsgd1na2vs0mg"},{"bike_id":"1804da54-e1dc-419b-b151-7c8da01cb26c","system_id":"levelo_inurba_marseille","lat":43.32367,"lon":5.388836,"is_reserved":false,"is_disabled":false,"rental_uris":{"android":"levelo://app?vid=1804da54-e1dc-419b-b151-7c8da01cb26c","ios":"levelo://app?vid=1804da54-e1dc-419b-b151-7c8da01cb26c"},"vehicle_type_id":"4","last_reported":1714907188,"current_range_meters":400,"station_id":"ce4bhqp2rcd13ifvqhog","pricing_plan_id":"cebpf4jnsgd1na2vs0mg"},{"bike_id":"32d828bc-19b3-45fe-a928-3e938da9cf6d","system_id":"levelo_inurba_marseille","lat":43.29606,"lon":5.38104,"is_reserved":false,"is_disabled":false,"rental_uris":{"android":"levelo://app?vid=32d828bc-19b3-45fe-a928-3e938da9cf6d","ios":"levelo://app?vid=32d828bc-19b3-45fe-a928-3e938da9cf6d"},"vehicle_type_id":"4","last_reported":1714907188,"current_range_meters":0,"station_id":"ce4bgl12rcd13ifvqbo0","pricing_plan_id":"cebpf4jnsgd1na2vs0mg"},{"bike_id":"bca4ba47-ecbf-4a6d-b41d-073731c4640a","system_id":"levelo_inurba_marseille","lat":43.29602,"lon":5.381084,"is_reserved":false,"is_disabled":false,"rental_uris":{"android":"levelo://app?vid=bca4ba47-ecbf-4a6d-b41d-073731c4640a","ios":"levelo://app?vid=bca4ba47-ecbf-4a6d-b41d-073731c4640a"},"vehicle_type_id":"4","last_reported":1714907188,"current_range_meters":24000,"station_id":"ce4bgl12rcd13ifvqbo0","pricing_plan_id":"cebpf4jnsgd1na2vs0mg"},{"bike_id":"076c6e88-56a3-40e8-ac49-c0f6c5e21b34","system_id":"levelo_inurba_marseille","lat":43.29602,"lon":5.381084,"is_reserved":false,"is_disabled":false,"rental_uris":{"android":"levelo://app?vid=076c6e88-56a3-40e8-ac49-c0f6c5e21b34","ios":"levelo://app?vid=076c6e88-56a3-40e8-ac49-c0f6c5e21b34"},"vehicle_type_id":"4","last_reported":1714907188,"current_range_meters":16800,"station_id":"ce4bgl12rcd13ifvqbo0","pricing_plan_id":"cebpf4jnsgd1na2vs0mg"},{"bike_id":"b554d2b3-90c1-4d40-9949-38152e0a4cfe","system_id":"levelo_inurba_marseille","lat":43.293259,"lon":5.371586,"is_reserved":false,"is_disabled":false,"rental_uris":{"android":"levelo://app?vid=b554d2b3-90c1-4d40-9949-38152e0a4cfe","ios":"levelo://app?vid=b554d2b3-90c1-4d40-9949-38152e0a4cfe"},"vehicle_type_id":"4","last_reported":1714907188,"current_range_meters":23200,"station_id":"ce4bgh92rcd13ifvqb40","pricing_plan_id":"cebpf4jnsgd1na2vs0mg"},{"bike_id":"79575e7b-2132-4168-a701-a8fcd5a16d50","system_id":"levelo_inurba_marseille","lat":43.29275,"lon":5.36845,"is_reserved":false,"is_disabled":false,"rental_uris":{"android":"levelo://app?vid=79575e7b-2132-4168-a701-a8fcd5a16d50","ios":"levelo://app?vid=79575e7b-2132-4168-a701-a8fcd5a16d50"},"vehicle_type_id":"4","last_reported":1714907188,"current_range_meters":26000,"station_id":"ce4bhbp2rcd13ifvqesg","pricing_plan_id":"cebpf4jnsgd1na2vs0mg"},{"bike_id":"2b2b694d-42ba-4ec5-8b1d-5af4158b3cc0","system_id":"levelo_inurba_marseille","lat":43.29274,"lon":5.36839,"is_reserved":false,"is_disabled":false,"rental_uris":{"android":"levelo://app?vid=2b2b694d-42ba-4ec5-8b1d-5af4158b3cc0","ios":"levelo://app?vid=2b2b694d-42ba-4ec5-8b1d-5af4158b3cc0"},"vehicle_type_id":"4","last_reported":1714907188,"current_range_meters":0,"station_id":"ce4bhbp2rcd13ifvqesg","pricing_plan_id":"cebpf4jnsgd1na2vs0mg"},{"bike_id":"09f7cb5d-9edd-47d2-a04e-f1b90dc48fc4","system_id":"levelo_inurba_marseille","lat":43.29273,"lon":5.36841,"is_reserved":false,"is_disabled":false,"rental_uris":{"android":"levelo://app?vid=09f7cb5d-9edd-47d2-a04e-f1b90dc48fc4","ios":"levelo://app?vid=09f7cb5d-9edd-47d2-a04e-f1b90dc48fc4"},"vehicle_type_id":"4","last_reported":1714907188,"current_range_meters":21600,"station_id":"ce4bhbp2rcd13ifvqesg","pricing_plan_id":"cebpf4jnsgd1na2vs0mg"},{"bike_id":"758ed300-8998-448c-b22f-dd33e6c58f39","system_id":"levelo_inurba_marseille","lat":43.29309,"lon":5.3747,"is_reserved":false,"is_disabled":false,"rental_uris":{"android":"levelo://app?vid=758ed300-8998-448c-b22f-dd33e6c58f39","ios":"levelo://app?vid=758ed300-8998-448c-b22f-dd33e6c58f39"},"vehicle_type_id":"4","last_reported":1714907188,"current_range_meters":28400,"station_id":"ce4bgi12rcd13ifvqb70","pricing_plan_id":"cebpf4jnsgd1na2vs0mg"},{"bike_id":"ad2e056b-80c2-47e0-8b3a-3b861e34bdf6","system_id":"levelo_inurba_marseille","lat":43.293009,"lon":5.374584,"is_reserved":false,"is_disabled":false,"rental_uris":{"android":"levelo://app?vid=ad2e056b-80c2-47e0-8b3a-3b861e34bdf6","ios":"levelo://app?vid=ad2e056b-80c2-47e0-8b3a-3b861e34bdf6"},"vehicle_type_id":"4","last_reported":1714907188,"current_range_meters":16400,"station_id":"ce4bgi12rcd13ifvqb70","pricing_plan_id":"cebpf4jnsgd1na2vs0mg"},{"bike_id":"53918bfd-24db-4e21-b20c-58b096d90985","system_id":"levelo_inurba_marseille","lat":43.29306,"lon":5.37462,"is_reserved":false,"is_disabled":false,"rental_uris":{"android":"levelo://app?vid=53918bfd-24db-4e21-b20c-58b096d90985","ios":"levelo://app?vid=53918bfd-24db-4e21-b20c-58b096d90985"},"vehicle_type_id":"4","last_reported":1714907188,"current_range_meters":25600,"station_id":"ce4bgi12rcd13ifvqb70","pricing_plan_id":"cebpf4jnsgd1na2vs0mg"},{"bike_id":"10fbbe52-1a1f-409d-8a9f-71f7fdc2e3ad","system_id":"levelo_inurba_marseille","lat":43.29301,"lon":5.37462,"is_reserved":false,"is_disabled":false,"rental_uris":{"android":"levelo://app?vid=10fbbe52-1a1f-409d-8a9f-71f7fdc2e3ad","ios":"levelo://app?vid=10fbbe52-1a1f-409d-8a9f-71f7fdc2e3ad"},"vehicle_type_id":"4","last_reported":1714907188,"current_range_meters":8400,"station_id":"ce4bgi12rcd13ifvqb70","pricing_plan_id":"cebpf4jnsgd1na2vs0mg"},{"bike_id":"7bd723e9-c280-45c2-b39d-091fca686e3b","system_id":"levelo_inurba_marseille","lat":43.29298,"lon":5.37459,"is_reserved":false,"is_disabled":false,"rental_uris":{"android":"levelo://app?vid=7bd723e9-c280-45c2-b39d-091fca686e3b","ios":"levelo://app?vid=7bd723e9-c280-45c2-b39d-091fca686e3b"},"vehicle_type_id":"4","last_reported":1714907188,"current_range_meters":12400,"station_id":"ce4bgi12rcd13ifvqb70","pricing_plan_id":"cebpf4jnsgd1na2vs0mg"},{"bike_id":"e64a83ac-8279-4744-afd9-ee73c5764721","system_id":"levelo_inurba_marseille","lat":43.292935,"lon":5.3745,"is_reserved":false,"is_disabled":false,"rental_uris":{"android":"levelo://app?vid=e64a83ac-8279-4744-afd9-ee73c5764721","ios":"levelo://app?vid=e64a83ac-8279-4744-afd9-ee73c5764721"},"vehicle_type_id":"4","last_reported":1714907188,"current_range_meters":8000,"station_id":"ce4bgi12rcd13ifvqb70","pricing_plan_id":"cebpf4jnsgd1na2vs0mg"},{"bike_id":"f2fd4a3e-facc-4c9f-9d09-cd236a64fbc1","system_id":"levelo_inurba_marseille","lat":43.305994,"lon":5.393687,"is_reserved":false,"is_disabled":false,"rental_uris":{"android":"levelo://app?vid=f2fd4a3e-facc-4c9f-9d09-cd236a64fbc1","ios":"levelo://app?vid=f2fd4a3e-facc-4c9f-9d09-cd236a64fbc1"},"vehicle_type_id":"4","last_reported":1714907188,"current_range_meters":13200,"station_id":"ce4bh0p2rcd13ifvqd80","pricing_plan_id":"cebpf4jnsgd1na2vs0mg"},{"bike_id":"81442ce2-c5cb-4c6b-af0a-a9af21eaf366","system_id":"levelo_inurba_marseille","lat":43.303002,"lon":5.392142,"is_reserved":false,"is_disabled":false,"rental_uris":{"android":"levelo://app?vid=81442ce2-c5cb-4c6b-af0a-a9af21eaf366","ios":"levelo://app?vid=81442ce2-c5cb-4c6b-af0a-a9af21eaf366"},"vehicle_type_id":"4","last_reported":1714907188,"current_range_meters":6400,"station_id":"ce4bgkh2rcd13ifvqbk0","pricing_plan_id":"cebpf4jnsgd1na2vs0mg"},{"bike_id":"4b075a78-9a26-42bf-954e-9d3a7f7f1da0","system_id":"levelo_inurba_marseille","lat":43.292313,"lon":5.36101,"is_reserved":false,"is_disabled":false,"rental_uris":{"android":"levelo://app?vid=4b075a78-9a26-42bf-954e-9d3a7f7f1da0","ios":"levelo://app?vid=4b075a78-9a26-42bf-954e-9d3a7f7f1da0"},"vehicle_type_id":"4","last_reported":1714907188,"current_range_meters":21200,"station_id":"ce4bhbh2rcd13ifvqeqg","pricing_plan_id":"cebpf4jnsgd1na2vs0mg"},{"bike_id":"f302f1a4-2a32-413a-a9a5-21b723753e62","system_id":"levelo_inurba_marseille","lat":43.30085,"lon":5.390856,"is_reserved":false,"is_disabled":false,"rental_uris":{"android":"levelo://app?vid=f302f1a4-2a32-413a-a9a5-21b723753e62","ios":"levelo://app?vid=f302f1a4-2a32-413a-a9a5-21b723753e62"},"vehicle_type_id":"4","last_reported":1714907188,"current_range_meters":11600,"station_id":"ce4bh192rcd13ifvqdb0","pricing_plan_id":"cebpf4jnsgd1na2vs0mg"},{"bike_id":"89c5e6f3-f1cb-4c0f-ad56-d8e9ed2317dd","system_id":"levelo_inurba_marseille","lat":43.29227,"lon":5.360871,"is_reserved":false,"is_disabled":false,"rental_uris":{"android":"levelo://app?vid=89c5e6f3-f1cb-4c0f-ad56-d8e9ed2317dd","ios":"levelo://app?vid=89c5e6f3-f1cb-4c0f-ad56-d8e9ed2317dd"},"vehicle_type_id":"4","last_reported":1714907188,"current_range_meters":2400,"station_id":"ce4bhbh2rcd13ifvqeqg","pricing_plan_id":"cebpf4jnsgd1na2vs0mg"},{"bike_id":"8d25e5b9-d78f-49fd-89f6-d9e5e800f390","system_id":"levelo_inurba_marseille","lat":43.29226,"lon":5.36081,"is_reserved":false,"is_disabled":false,"rental_uris":{"android":"levelo://app?vid=8d25e5b9-d78f-49fd-89f6-d9e5e800f390","ios":"levelo://app?vid=8d25e5b9-d78f-49fd-89f6-d9e5e800f390"},"vehicle_type_id":"4","last_reported":1714907188,"current_range_meters":13600,"station_id":"ce4bhbh2rcd13ifvqeqg","pricing_plan_id":"cebpf4jnsgd1na2vs0mg"},{"bike_id":"0cc95b09-7a95-4772-8bcf-f1b4e7cebc0a","system_id":"levelo_inurba_marseille","lat":43.29229,"lon":5.36061,"is_reserved":false,"is_disabled":false,"rental_uris":{"android":"levelo://app?vid=0cc95b09-7a95-4772-8bcf-f1b4e7cebc0a","ios":"levelo://app?vid=0cc95b09-7a95-4772-8bcf-f1b4e7cebc0a"},"vehicle_type_id":"4","last_reported":1714907188,"current_range_meters":4800,"station_id":"ce4bhbh2rcd13ifvqeqg","pricing_plan_id":"cebpf4jnsgd1na2vs0mg"},{"bike_id":"5546d2f2-e533-44a5-a683-12f604cb3f98","system_id":"levelo_inurba_marseille","lat":43.29227,"lon":5.36071,"is_reserved":false,"is_disabled":false,"rental_uris":{"android":"levelo://app?vid=5546d2f2-e533-44a5-a683-12f604cb3f98","ios":"levelo://app?vid=5546d2f2-e533-44a5-a683-12f604cb3f98"},"vehicle_type_id":"4","last_reported":1714907188,"current_range_meters":24400,"station_id":"ce4bhbh2rcd13ifvqeqg","pricing_plan_id":"cebpf4jnsgd1na2vs0mg"},{"bike_id":"bbd8cd4f-cf34-4d8b-9028-950a5174f25d","system_id":"levelo_inurba_marseille","lat":43.29228,"lon":5.36061,"is_reserved":false,"is_disabled":false,"rental_uris":{"android":"levelo://app?vid=bbd8cd4f-cf34-4d8b-9028-950a5174f25d","ios":"levelo://app?vid=bbd8cd4f-cf34-4d8b-9028-950a5174f25d"},"vehicle_type_id":"4","last_reported":1714907188,"current_range_meters":22000,"station_id":"ce4bhbh2rcd13ifvqeqg","pricing_plan_id":"cebpf4jnsgd1na2vs0mg"},{"bike_id":"e5c59af3-2831-4e88-a289-c84d5280581f","system_id":"levelo_inurba_marseille","lat":43.292311,"lon":5.360731,"is_reserved":false,"is_disabled":false,"rental_uris":{"android":"levelo://app?vid=e5c59af3-2831-4e88-a289-c84d5280581f","ios":"levelo://app?vid=e5c59af3-2831-4e88-a289-c84d5280581f"},"vehicle_type_id":"4","last_reported":1714907188,"current_range_meters":29200,"station_id":"ce4bhbh2rcd13ifvqeqg","pricing_plan_id":"cebpf4jnsgd1na2vs0mg"},{"bike_id":"546f0609-d213-483e-ae97-1ddec15c75c4","system_id":"levelo_inurba_marseille","lat":43.29226,"lon":5.3607,"is_reserved":false,"is_disabled":false,"rental_uris":{"android":"levelo://app?vid=546f0609-d213-483e-ae97-1ddec15c75c4","ios":"levelo://app?vid=546f0609-d213-483e-ae97-1ddec15c75c4"},"vehicle_type_id":"4","last_reported":1714907188,"current_range_meters":12000,"station_id":"ce4bhbh2rcd13ifvqeqg","pricing_plan_id":"cebpf4jnsgd1na2vs0mg"},{"bike_id":"85c856a1-6291-4ebe-bb55-0611eae512db","system_id":"levelo_inurba_marseille","lat":43.292271,"lon":5.360569,"is_reserved":false,"is_disabled":false,"rental_uris":{"android":"levelo://app?vid=85c856a1-6291-4ebe-bb55-0611eae512db","ios":"levelo://app?vid=85c856a1-6291-4ebe-bb55-0611eae512db"},"vehicle_type_id":"4","last_reported":1714907188,"current_range_meters":23200,"station_id":"ce4bhbh2rcd13ifvqeqg","pricing_plan_id":"cebpf4jnsgd1na2vs0mg"},{"bike_id":"64eb749f-f799-4185-ad0d-095b8e029e4f","system_id":"levelo_inurba_marseille","lat":43.29225,"lon":5.36069,"is_reserved":false,"is_disabled":false,"rental_uris":{"android":"levelo://app?vid=64eb749f-f799-4185-ad0d-095b8e029e4f","ios":"levelo://app?vid=64eb749f-f799-4185-ad0d-095b8e029e4f"},"vehicle_type_id":"4","last_reported":1714907188,"current_range_meters":0,"station_id":"ce4bhbh2rcd13ifvqeqg","pricing_plan_id":"cebpf4jnsgd1na2vs0mg"},{"bike_id":"aff80167-d076-436d-8795-06acaba3b37c","system_id":"levelo_inurba_marseille","lat":43.292246,"lon":5.360713,"is_reserved":false,"is_disabled":false,"rental_uris":{"android":"levelo://app?vid=aff80167-d076-436d-8795-06acaba3b37c","ios":"levelo://app?vid=aff80167-d076-436d-8795-06acaba3b37c"},"vehicle_type_id":"4","last_reported":1714907188,"current_range_meters":10000,"station_id":"ce4bhbh2rcd13ifvqeqg","pricing_plan_id":"cebpf4jnsgd1na2vs0mg"},{"bike_id":"1c49310d-a1c0-440c-bd6c-63de4e74f250","system_id":"levelo_inurba_marseille","lat":43.292259,"lon":5.360616,"is_reserved":false,"is_disabled":false,"rental_uris":{"android":"levelo://app?vid=1c49310d-a1c0-440c-bd6c-63de4e74f250","ios":"levelo://app?vid=1c49310d-a1c0-440c-bd6c-63de4e74f250"},"vehicle_type_id":"4","last_reported":1714907188,"current_range_meters":18000,"station_id":"ce4bhbh2rcd13ifvqeqg","pricing_plan_id":"cebpf4jnsgd1na2vs0mg"},{"bike_id":"013aafc2-a01d-4665-bc56-a9428643a247","system_id":"levelo_inurba_marseille","lat":43.29224,"lon":5.36069,"is_reserved":false,"is_disabled":false,"rental_uris":{"android":"levelo://app?vid=013aafc2-a01d-4665-bc56-a9428643a247","ios":"levelo://app?vid=013aafc2-a01d-4665-bc56-a9428643a247"},"vehicle_type_id":"4","last_reported":1714907188,"current_range_meters":12000,"station_id":"ce4bhbh2rcd13ifvqeqg","pricing_plan_id":"cebpf4jnsgd1na2vs0mg"},{"bike_id":"edafedd0-b7be-44df-b3f4-ccb641f3d24f","system_id":"levelo_inurba_marseille","lat":43.29225,"lon":5.36058,"is_reserved":false,"is_disabled":false,"rental_uris":{"android":"levelo://app?vid=edafedd0-b7be-44df-b3f4-ccb641f3d24f","ios":"levelo://app?vid=edafedd0-b7be-44df-b3f4-ccb641f3d24f"},"vehicle_type_id":"4","last_reported":1714907188,"current_range_meters":27600,"station_id":"ce4bhbh2rcd13ifvqeqg","pricing_plan_id":"cebpf4jnsgd1na2vs0mg"},{"bike_id":"024882ca-7ac8-47aa-9543-cf0d237bf28b","system_id":"levelo_inurba_marseille","lat":43.29222,"lon":5.36071,"is_reserved":false,"is_disabled":false,"rental_uris":{"android":"levelo://app?vid=024882ca-7ac8-47aa-9543-cf0d237bf28b","ios":"levelo://app?vid=024882ca-7ac8-47aa-9543-cf0d237bf28b"},"vehicle_type_id":"4","last_reported":1714907188,"current_range_meters":19200,"station_id":"ce4bhbh2rcd13ifvqeqg","pricing_plan_id":"cebpf4jnsgd1na2vs0mg"},{"bike_id":"856c3009-cc9f-405c-85da-7b4e9c193e44","system_id":"levelo_inurba_marseille","lat":43.29222,"lon":5.36067,"is_reserved":false,"is_disabled":false,"rental_uris":{"android":"levelo://app?vid=856c3009-cc9f-405c-85da-7b4e9c193e44","ios":"levelo://app?vid=856c3009-cc9f-405c-85da-7b4e9c193e44"},"vehicle_type_id":"4","last_reported":1714907188,"current_range_meters":10000,"station_id":"ce4bhbh2rcd13ifvqeqg","pricing_plan_id":"cebpf4jnsgd1na2vs0mg"},{"bike_id":"ea1c2cd4-c7ad-479c-b110-7c3d3e288e1a","system_id":"levelo_inurba_marseille","lat":43.29221,"lon":5.36072,"is_reserved":false,"is_disabled":false,"rental_uris":{"android":"levelo://app?vid=ea1c2cd4-c7ad-479c-b110-7c3d3e288e1a","ios":"levelo://app?vid=ea1c2cd4-c7ad-479c-b110-7c3d3e288e1a"},"vehicle_type_id":"4","last_reported":1714907188,"current_range_meters":26400,"station_id":"ce4bhbh2rcd13ifvqeqg","pricing_plan_id":"cebpf4jnsgd1na2vs0mg"},{"bike_id":"e07f07de-aaad-4bcb-855c-dd955590f0d6","system_id":"levelo_inurba_marseille","lat":43.2922,"lon":5.360757,"is_reserved":false,"is_disabled":false,"rental_uris":{"android":"levelo://app?vid=e07f07de-aaad-4bcb-855c-dd955590f0d6","ios":"levelo://app?vid=e07f07de-aaad-4bcb-855c-dd955590f0d6"},"vehicle_type_id":"4","last_reported":1714907188,"current_range_meters":30400,"station_id":"ce4bhbh2rcd13ifvqeqg","pricing_plan_id":"cebpf4jnsgd1na2vs0mg"},{"bike_id":"cc8cd7f8-98ba-4104-8a86-b04eae8945c1","system_id":"levelo_inurba_marseille","lat":43.29222,"lon":5.3606,"is_reserved":false,"is_disabled":false,"rental_uris":{"android":"levelo://app?vid=cc8cd7f8-98ba-4104-8a86-b04eae8945c1","ios":"levelo://app?vid=cc8cd7f8-98ba-4104-8a86-b04eae8945c1"},"vehicle_type_id":"4","last_reported":1714907188,"current_range_meters":25200,"station_id":"ce4bhbh2rcd13ifvqeqg","pricing_plan_id":"cebpf4jnsgd1na2vs0mg"},{"bike_id":"5bc4dfd7-ca23-4532-9f52-b2c771c5690d","system_id":"levelo_inurba_marseille","lat":43.29221,"lon":5.36064,"is_reserved":false,"is_disabled":false,"rental_uris":{"android":"levelo://app?vid=5bc4dfd7-ca23-4532-9f52-b2c771c5690d","ios":"levelo://app?vid=5bc4dfd7-ca23-4532-9f52-b2c771c5690d"},"vehicle_type_id":"4","last_reported":1714907188,"current_range_meters":26400,"station_id":"ce4bhbh2rcd13ifvqeqg","pricing_plan_id":"cebpf4jnsgd1na2vs0mg"},{"bike_id":"b219026a-b6e8-42d8-9117-1fb32c61f771","system_id":"levelo_inurba_marseille","lat":43.29218,"lon":5.36072,"is_reserved":false,"is_disabled":false,"rental_uris":{"android":"levelo://app?vid=b219026a-b6e8-42d8-9117-1fb32c61f771","ios":"levelo://app?vid=b219026a-b6e8-42d8-9117-1fb32c61f771"},"vehicle_type_id":"4","last_reported":1714907188,"current_range_meters":20400,"station_id":"ce4bhbh2rcd13ifvqeqg","pricing_plan_id":"cebpf4jnsgd1na2vs0mg"},{"bike_id":"d62ea83d-44a3-4f78-bc82-25d8aa769e90","system_id":"levelo_inurba_marseille","lat":43.29218,"lon":5.36069,"is_reserved":false,"is_disabled":false,"rental_uris":{"android":"levelo://app?vid=d62ea83d-44a3-4f78-bc82-25d8aa769e90","ios":"levelo://app?vid=d62ea83d-44a3-4f78-bc82-25d8aa769e90"},"vehicle_type_id":"4","last_reported":1714907188,"current_range_meters":25600,"station_id":"ce4bhbh2rcd13ifvqeqg","pricing_plan_id":"cebpf4jnsgd1na2vs0mg"},{"bike_id":"fd5d6575-6b80-4b6b-b1b3-402e63c9fb12","system_id":"levelo_inurba_marseille","lat":43.29215,"lon":5.36083,"is_reserved":false,"is_disabled":false,"rental_uris":{"android":"levelo://app?vid=fd5d6575-6b80-4b6b-b1b3-402e63c9fb12","ios":"levelo://app?vid=fd5d6575-6b80-4b6b-b1b3-402e63c9fb12"},"vehicle_type_id":"4","last_reported":1714907188,"current_range_meters":4000,"station_id":"ce4bhbh2rcd13ifvqeqg","pricing_plan_id":"cebpf4jnsgd1na2vs0mg"},{"bike_id":"ba603a1c-1a7c-41a2-9b07-7a254f9e0799","system_id":"levelo_inurba_marseille","lat":43.29216,"lon":5.36044,"is_reserved":false,"is_disabled":false,"rental_uris":{"android":"levelo://app?vid=ba603a1c-1a7c-41a2-9b07-7a254f9e0799","ios":"levelo://app?vid=ba603a1c-1a7c-41a2-9b07-7a254f9e0799"},"vehicle_type_id":"4","last_reported":1714907188,"current_range_meters":26800,"station_id":"ce4bhbh2rcd13ifvqeqg","pricing_plan_id":"cebpf4jnsgd1na2vs0mg"},{"bike_id":"4728f5ef-43cf-4050-86b9-1f1a03fe00b3","system_id":"levelo_inurba_marseille","lat":43.29216,"lon":5.3604,"is_reserved":false,"is_disabled":false,"rental_uris":{"android":"levelo://app?vid=4728f5ef-43cf-4050-86b9-1f1a03fe00b3","ios":"levelo://app?vid=4728f5ef-43cf-4050-86b9-1f1a03fe00b3"},"vehicle_type_id":"4","last_reported":1714907188,"current_range_meters":27200,"station_id":"ce4bhbh2rcd13ifvqeqg","pricing_plan_id":"cebpf4jnsgd1na2vs0mg"},{"bike_id":"ca25fe81-b11b-4ed7-b89a-43142029765a","system_id":"levelo_inurba_marseille","lat":43.298764,"lon":5.388973,"is_reserved":false,"is_disabled":false,"rental_uris":{"android":"levelo://app?vid=ca25fe81-b11b-4ed7-b89a-43142029765a","ios":"levelo://app?vid=ca25fe81-b11b-4ed7-b89a-43142029765a"},"vehicle_type_id":"4","last_reported":1714907188,"current_range_meters":26000,"station_id":"ce4bh392rcd13ifvqdl0","pricing_plan_id":"cebpf4jnsgd1na2vs0mg"},{"bike_id":"050984ee-bbac-4502-b6ae-911546a6dddd","system_id":"levelo_inurba_marseille","lat":43.291994,"lon":5.357886,"is_reserved":false,"is_disabled":false,"rental_uris":{"android":"levelo://app?vid=050984ee-bbac-4502-b6ae-911546a6dddd","ios":"levelo://app?vid=050984ee-bbac-4502-b6ae-911546a6dddd"},"vehicle_type_id":"4","last_reported":1714907188,"current_range_meters":24400,"station_id":"ce4bhb12rcd13ifvqel0","pricing_plan_id":"cebpf4jnsgd1na2vs0mg"},{"bike_id":"dca78a00-5a95-4e43-bcdc-bae37bc9ee40","system_id":"levelo_inurba_marseille","lat":43.291671,"lon":5.371575,"is_reserved":false,"is_disabled":false,"rental_uris":{"android":"levelo://app?vid=dca78a00-5a95-4e43-bcdc-bae37bc9ee40","ios":"levelo://app?vid=dca78a00-5a95-4e43-bcdc-bae37bc9ee40"},"vehicle_type_id":"4","last_reported":1714907188,"current_range_meters":25600,"station_id":"ce4bha92rcd13ifvqeh0","pricing_plan_id":"cebpf4jnsgd1na2vs0mg"},{"bike_id":"ab7fd5af-6453-4581-aefe-333603da66e9","system_id":"levelo_inurba_marseille","lat":43.292005,"lon":5.357875,"is_reserved":false,"is_disabled":false,"rental_uris":{"android":"levelo://app?vid=ab7fd5af-6453-4581-aefe-333603da66e9","ios":"levelo://app?vid=ab7fd5af-6453-4581-aefe-333603da66e9"},"vehicle_type_id":"4","last_reported":1714907188,"current_range_meters":20000,"station_id":"ce4bhb12rcd13ifvqel0","pricing_plan_id":"cebpf4jnsgd1na2vs0mg"},{"bike_id":"e2b56432-88cf-46b3-bb71-d9d18a076d0d","system_id":"levelo_inurba_marseille","lat":43.292005,"lon":5.357875,"is_reserved":false,"is_disabled":false,"rental_uris":{"android":"levelo://app?vid=e2b56432-88cf-46b3-bb71-d9d18a076d0d","ios":"levelo://app?vid=e2b56432-88cf-46b3-bb71-d9d18a076d0d"},"vehicle_type_id":"4","last_reported":1714907188,"current_range_meters":27200,"station_id":"ce4bhb12rcd13ifvqel0","pricing_plan_id":"cebpf4jnsgd1na2vs0mg"},{"bike_id":"e22e94d7-cc62-447f-b487-7cd4b5fa01f7","system_id":"levelo_inurba_marseille","lat":43.29195,"lon":5.35802,"is_reserved":false,"is_disabled":false,"rental_uris":{"android":"levelo://app?vid=e22e94d7-cc62-447f-b487-7cd4b5fa01f7","ios":"levelo://app?vid=e22e94d7-cc62-447f-b487-7cd4b5fa01f7"},"vehicle_type_id":"4","last_reported":1714907188,"current_range_meters":18400,"station_id":"ce4bhb12rcd13ifvqel0","pricing_plan_id":"cebpf4jnsgd1na2vs0mg"},{"bike_id":"c8254cce-3c39-40cd-94e1-40cf8ceaca34","system_id":"levelo_inurba_marseille","lat":43.31323,"lon":5.39686,"is_reserved":false,"is_disabled":false,"rental_uris":{"android":"levelo://app?vid=c8254cce-3c39-40cd-94e1-40cf8ceaca34","ios":"levelo://app?vid=c8254cce-3c39-40cd-94e1-40cf8ceaca34"},"vehicle_type_id":"4","last_reported":1714907188,"current_range_meters":31200,"station_id":"ce4bgvp2rcd13ifvqcu0","pricing_plan_id":"cebpf4jnsgd1na2vs0mg"},{"bike_id":"eab74d71-ef39-48b4-b3fd-140429c4ccae","system_id":"levelo_inurba_marseille","lat":43.292005,"lon":5.357875,"is_reserved":false,"is_disabled":false,"rental_uris":{"android":"levelo://app?vid=eab74d71-ef39-48b4-b3fd-140429c4ccae","ios":"levelo://app?vid=eab74d71-ef39-48b4-b3fd-140429c4ccae"},"vehicle_type_id":"4","last_reported":1714907188,"current_range_meters":31600,"station_id":"ce4bhb12rcd13ifvqel0","pricing_plan_id":"cebpf4jnsgd1na2vs0mg"},{"bike_id":"58e19ca6-86af-4cc4-960e-eca456207049","system_id":"levelo_inurba_marseille","lat":43.29192,"lon":5.35806,"is_reserved":false,"is_disabled":false,"rental_uris":{"android":"levelo://app?vid=58e19ca6-86af-4cc4-960e-eca456207049","ios":"levelo://app?vid=58e19ca6-86af-4cc4-960e-eca456207049"},"vehicle_type_id":"4","last_reported":1714907188,"current_range_meters":20400,"station_id":"ce4bhb12rcd13ifvqel0","pricing_plan_id":"cebpf4jnsgd1na2vs0mg"},{"bike_id":"d41d279e-91b0-47f9-9310-29a43d77dad4","system_id":"levelo_inurba_marseille","lat":43.291994,"lon":5.357886,"is_reserved":false,"is_disabled":false,"rental_uris":{"android":"levelo://app?vid=d41d279e-91b0-47f9-9310-29a43d77dad4","ios":"levelo://app?vid=d41d279e-91b0-47f9-9310-29a43d77dad4"},"vehicle_type_id":"4","last_reported":1714907188,"current_range_meters":31600,"station_id":"ce4bhb12rcd13ifvqel0","pricing_plan_id":"cebpf4jnsgd1na2vs0mg"},{"bike_id":"4bed9ae9-c5cc-49bb-8939-796b698ab913","system_id":"levelo_inurba_marseille","lat":43.313291,"lon":5.396838,"is_reserved":false,"is_disabled":false,"rental_uris":{"android":"levelo://app?vid=4bed9ae9-c5cc-49bb-8939-796b698ab913","ios":"levelo://app?vid=4bed9ae9-c5cc-49bb-8939-796b698ab913"},"vehicle_type_id":"4","last_reported":1714907188,"current_range_meters":29600,"station_id":"ce4bgvp2rcd13ifvqcu0","pricing_plan_id":"cebpf4jnsgd1na2vs0mg"},{"bike_id":"44ba6f54-92fc-4ee8-b329-8dac88c6b546","system_id":"levelo_inurba_marseille","lat":43.313291,"lon":5.396838,"is_reserved":false,"is_disabled":false,"rental_uris":{"android":"levelo://app?vid=44ba6f54-92fc-4ee8-b329-8dac88c6b546","ios":"levelo://app?vid=44ba6f54-92fc-4ee8-b329-8dac88c6b546"},"vehicle_type_id":"4","last_reported":1714907188,"current_range_meters":17600,"station_id":"ce4bgvp2rcd13ifvqcu0","pricing_plan_id":"cebpf4jnsgd1na2vs0mg"},{"bike_id":"e851ff4b-5f52-4ab0-a7ba-ec4f3e0adc03","system_id":"levelo_inurba_marseille","lat":43.313291,"lon":5.396838,"is_reserved":false,"is_disabled":false,"rental_uris":{"android":"levelo://app?vid=e851ff4b-5f52-4ab0-a7ba-ec4f3e0adc03","ios":"levelo://app?vid=e851ff4b-5f52-4ab0-a7ba-ec4f3e0adc03"},"vehicle_type_id":"4","last_reported":1714907188,"current_range_meters":16800,"station_id":"ce4bgvp2rcd13ifvqcu0","pricing_plan_id":"cebpf4jnsgd1na2vs0mg"},{"bike_id":"b549f5d8-9c06-4457-a7d5-64a0b9a7e837","system_id":"levelo_inurba_marseille","lat":43.291994,"lon":5.357886,"is_reserved":false,"is_disabled":false,"rental_uris":{"android":"levelo://app?vid=b549f5d8-9c06-4457-a7d5-64a0b9a7e837","ios":"levelo://app?vid=b549f5d8-9c06-4457-a7d5-64a0b9a7e837"},"vehicle_type_id":"4","last_reported":1714907188,"current_range_meters":23600,"station_id":"ce4bhb12rcd13ifvqel0","pricing_plan_id":"cebpf4jnsgd1na2vs0mg"},{"bike_id":"47ccd980-5b13-4cba-89ea-97950eded989","system_id":"levelo_inurba_marseille","lat":43.291883,"lon":5.358003,"is_reserved":false,"is_disabled":false,"rental_uris":{"android":"levelo://app?vid=47ccd980-5b13-4cba-89ea-97950eded989","ios":"levelo://app?vid=47ccd980-5b13-4cba-89ea-97950eded989"},"vehicle_type_id":"4","last_reported":1714907188,"current_range_meters":28800,"station_id":"ce4bhb12rcd13ifvqel0","pricing_plan_id":"cebpf4jnsgd1na2vs0mg"},{"bike_id":"ea406b84-d859-456c-b8f5-fb0ac987536d","system_id":"levelo_inurba_marseille","lat":43.292005,"lon":5.357875,"is_reserved":false,"is_disabled":false,"rental_uris":{"android":"levelo://app?vid=ea406b84-d859-456c-b8f5-fb0ac987536d","ios":"levelo://app?vid=ea406b84-d859-456c-b8f5-fb0ac987536d"},"vehicle_type_id":"4","last_reported":1714907188,"current_range_meters":18000,"station_id":"ce4bhb12rcd13ifvqel0","pricing_plan_id":"cebpf4jnsgd1na2vs0mg"},{"bike_id":"a6186023-4465-45a8-8be7-55d1bb10b843","system_id":"levelo_inurba_marseille","lat":43.30893,"lon":5.396515,"is_reserved":false,"is_disabled":false,"rental_uris":{"android":"levelo://app?vid=a6186023-4465-45a8-8be7-55d1bb10b843","ios":"levelo://app?vid=a6186023-4465-45a8-8be7-55d1bb10b843"},"vehicle_type_id":"4","last_reported":1714907188,"current_range_meters":31200,"station_id":"ce4bh012rcd13ifvqcv0","pricing_plan_id":"cebpf4jnsgd1na2vs0mg"},{"bike_id":"42a6818d-3ae9-4700-abfd-c8f19f7b542d","system_id":"levelo_inurba_marseille","lat":43.313291,"lon":5.396838,"is_reserved":false,"is_disabled":false,"rental_uris":{"android":"levelo://app?vid=42a6818d-3ae9-4700-abfd-c8f19f7b542d","ios":"levelo://app?vid=42a6818d-3ae9-4700-abfd-c8f19f7b542d"},"vehicle_type_id":"4","last_reported":1714907188,"current_range_meters":31600,"station_id":"ce4bgvp2rcd13ifvqcu0","pricing_plan_id":"cebpf4jnsgd1na2vs0mg"},{"bike_id":"661cde4f-6c43-4b3a-a06a-6c98cbfe2fcf","system_id":"levelo_inurba_marseille","lat":43.31334,"lon":5.39697,"is_reserved":false,"is_disabled":false,"rental_uris":{"android":"levelo://app?vid=661cde4f-6c43-4b3a-a06a-6c98cbfe2fcf","ios":"levelo://app?vid=661cde4f-6c43-4b3a-a06a-6c98cbfe2fcf"},"vehicle_type_id":"4","last_reported":1714907188,"current_range_meters":21600,"station_id":"ce4bgvp2rcd13ifvqcu0","pricing_plan_id":"cebpf4jnsgd1na2vs0mg"},{"bike_id":"47d7daef-2639-45ad-838a-65954fe0e043","system_id":"levelo_inurba_marseille","lat":43.31323,"lon":5.39706,"is_reserved":false,"is_disabled":false,"rental_uris":{"android":"levelo://app?vid=47d7daef-2639-45ad-838a-65954fe0e043","ios":"levelo://app?vid=47d7daef-2639-45ad-838a-65954fe0e043"},"vehicle_type_id":"4","last_reported":1714907188,"current_range_meters":26000,"station_id":"ce4bgvp2rcd13ifvqcu0","pricing_plan_id":"cebpf4jnsgd1na2vs0mg"},{"bike_id":"bbcf39f1-5cd4-4219-80dc-44d10c6fe13e","system_id":"levelo_inurba_marseille","lat":43.294162,"lon":5.386292,"is_reserved":false,"is_disabled":false,"rental_uris":{"android":"levelo://app?vid=bbcf39f1-5cd4-4219-80dc-44d10c6fe13e","ios":"levelo://app?vid=bbcf39f1-5cd4-4219-80dc-44d10c6fe13e"},"vehicle_type_id":"4","last_reported":1714907188,"current_range_meters":12400,"station_id":"ce4bh2h2rcd13ifvqdh0","pricing_plan_id":"cebpf4jnsgd1na2vs0mg"},{"bike_id":"e4fe2958-3578-4723-ace3-05c4b15f3eae","system_id":"levelo_inurba_marseille","lat":43.313291,"lon":5.396838,"is_reserved":false,"is_disabled":false,"rental_uris":{"android":"levelo://app?vid=e4fe2958-3578-4723-ace3-05c4b15f3eae","ios":"levelo://app?vid=e4fe2958-3578-4723-ace3-05c4b15f3eae"},"vehicle_type_id":"4","last_reported":1714907188,"current_range_meters":4800,"station_id":"ce4bgvp2rcd13ifvqcu0","pricing_plan_id":"cebpf4jnsgd1na2vs0mg"},{"bike_id":"90bb6ff2-4bb7-453a-99b2-ad1d4cbc4688","system_id":"levelo_inurba_marseille","lat":43.29529,"lon":5.385581,"is_reserved":false,"is_disabled":false,"rental_uris":{"android":"levelo://app?vid=90bb6ff2-4bb7-453a-99b2-ad1d4cbc4688","ios":"levelo://app?vid=90bb6ff2-4bb7-453a-99b2-ad1d4cbc4688"},"vehicle_type_id":"4","last_reported":1714907188,"current_range_meters":27200,"station_id":"ce4bgih2rcd13ifvqba0","pricing_plan_id":"cebpf4jnsgd1na2vs0mg"},{"bike_id":"3adeda67-9fb6-4901-b39c-fce41ffea002","system_id":"levelo_inurba_marseille","lat":43.29529,"lon":5.385581,"is_reserved":false,"is_disabled":false,"rental_uris":{"android":"levelo://app?vid=3adeda67-9fb6-4901-b39c-fce41ffea002","ios":"levelo://app?vid=3adeda67-9fb6-4901-b39c-fce41ffea002"},"vehicle_type_id":"4","last_reported":1714907188,"current_range_meters":14000,"station_id":"ce4bgih2rcd13ifvqba0","pricing_plan_id":"cebpf4jnsgd1na2vs0mg"},{"bike_id":"80ca5652-f662-4868-9ec8-6edea7658c5f","system_id":"levelo_inurba_marseille","lat":43.290779,"lon":5.371482,"is_reserved":false,"is_disabled":false,"rental_uris":{"android":"levelo://app?vid=80ca5652-f662-4868-9ec8-6edea7658c5f","ios":"levelo://app?vid=80ca5652-f662-4868-9ec8-6edea7658c5f"},"vehicle_type_id":"4","last_reported":1714907188,"current_range_meters":29600,"station_id":"ce4bh5p2rcd13ifvqe4g","pricing_plan_id":"cebpf4jnsgd1na2vs0mg"},{"bike_id":"6b542cbe-c162-4b27-b499-1e69953ae9a5","system_id":"levelo_inurba_marseille","lat":43.290779,"lon":5.371482,"is_reserved":false,"is_disabled":false,"rental_uris":{"android":"levelo://app?vid=6b542cbe-c162-4b27-b499-1e69953ae9a5","ios":"levelo://app?vid=6b542cbe-c162-4b27-b499-1e69953ae9a5"},"vehicle_type_id":"4","last_reported":1714907188,"current_range_meters":24400,"station_id":"ce4bh5p2rcd13ifvqe4g","pricing_plan_id":"cebpf4jnsgd1na2vs0mg"},{"bike_id":"49fc69fc-c2fe-4b5a-8f84-9da09f4a88b5","system_id":"levelo_inurba_marseille","lat":43.302008,"lon":5.394694,"is_reserved":false,"is_disabled":false,"rental_uris":{"android":"levelo://app?vid=49fc69fc-c2fe-4b5a-8f84-9da09f4a88b5","ios":"levelo://app?vid=49fc69fc-c2fe-4b5a-8f84-9da09f4a88b5"},"vehicle_type_id":"4","last_reported":1714907188,"current_range_meters":12000,"station_id":"ce4bh0p2rcd13ifvqd70","pricing_plan_id":"cebpf4jnsgd1na2vs0mg"},{"bike_id":"27a262f0-9175-476b-826c-ab3a1e2bed56","system_id":"levelo_inurba_marseille","lat":43.290624,"lon":5.359245,"is_reserved":false,"is_disabled":false,"rental_uris":{"android":"levelo://app?vid=27a262f0-9175-476b-826c-ab3a1e2bed56","ios":"levelo://app?vid=27a262f0-9175-476b-826c-ab3a1e2bed56"},"vehicle_type_id":"4","last_reported":1714907188,"current_range_meters":31200,"station_id":"ce4bha92rcd13ifvqeg0","pricing_plan_id":"cebpf4jnsgd1na2vs0mg"},{"bike_id":"f8ea10b1-d25c-4588-ba54-c71f0652fe4a","system_id":"levelo_inurba_marseille","lat":43.290624,"lon":5.359245,"is_reserved":false,"is_disabled":false,"rental_uris":{"android":"levelo://app?vid=f8ea10b1-d25c-4588-ba54-c71f0652fe4a","ios":"levelo://app?vid=f8ea10b1-d25c-4588-ba54-c71f0652fe4a"},"vehicle_type_id":"4","last_reported":1714907188,"current_range_meters":30400,"station_id":"ce4bha92rcd13ifvqeg0","pricing_plan_id":"cebpf4jnsgd1na2vs0mg"},{"bike_id":"5d0b135f-edb9-4713-a835-11ed0a27f4e8","system_id":"levelo_inurba_marseille","lat":43.290103,"lon":5.372473,"is_reserved":false,"is_disabled":false,"rental_uris":{"android":"levelo://app?vid=5d0b135f-edb9-4713-a835-11ed0a27f4e8","ios":"levelo://app?vid=5d0b135f-edb9-4713-a835-11ed0a27f4e8"},"vehicle_type_id":"4","last_reported":1714907188,"current_range_meters":25200,"station_id":"","pricing_plan_id":"cebpf4jnsgd1na2vs0mg"},{"bike_id":"47238aeb-a29a-41ee-b8e6-c531aa4f19d2","system_id":"levelo_inurba_marseille","lat":43.290631,"lon":5.359244,"is_reserved":false,"is_disabled":false,"rental_uris":{"android":"levelo://app?vid=47238aeb-a29a-41ee-b8e6-c531aa4f19d2","ios":"levelo://app?vid=47238aeb-a29a-41ee-b8e6-c531aa4f19d2"},"vehicle_type_id":"4","last_reported":1714907188,"current_range_meters":26400,"station_id":"ce4bha92rcd13ifvqeg0","pricing_plan_id":"cebpf4jnsgd1na2vs0mg"},{"bike_id":"d608af47-7df7-44ec-8f4b-579e11738c36","system_id":"levelo_inurba_marseille","lat":43.290631,"lon":5.359244,"is_reserved":false,"is_disabled":false,"rental_uris":{"android":"levelo://app?vid=d608af47-7df7-44ec-8f4b-579e11738c36","ios":"levelo://app?vid=d608af47-7df7-44ec-8f4b-579e11738c36"},"vehicle_type_id":"4","last_reported":1714907188,"current_range_meters":26400,"station_id":"ce4bha92rcd13ifvqeg0","pricing_plan_id":"cebpf4jnsgd1na2vs0mg"},{"bike_id":"5a417f17-6e4a-4e4a-b21c-29a428a53c11","system_id":"levelo_inurba_marseille","lat":43.290631,"lon":5.359244,"is_reserved":false,"is_disabled":false,"rental_uris":{"android":"levelo://app?vid=5a417f17-6e4a-4e4a-b21c-29a428a53c11","ios":"levelo://app?vid=5a417f17-6e4a-4e4a-b21c-29a428a53c11"},"vehicle_type_id":"4","last_reported":1714907188,"current_range_meters":27600,"station_id":"ce4bha92rcd13ifvqeg0","pricing_plan_id":"cebpf4jnsgd1na2vs0mg"},{"bike_id":"e01fd536-31dd-46c1-bcfa-47116aa9404d","system_id":"levelo_inurba_marseille","lat":43.294153,"lon":5.386305,"is_reserved":false,"is_disabled":false,"rental_uris":{"android":"levelo://app?vid=e01fd536-31dd-46c1-bcfa-47116aa9404d","ios":"levelo://app?vid=e01fd536-31dd-46c1-bcfa-47116aa9404d"},"vehicle_type_id":"4","last_reported":1714907188,"current_range_meters":1600,"station_id":"ce4bh2h2rcd13ifvqdh0","pricing_plan_id":"cebpf4jnsgd1na2vs0mg"},{"bike_id":"7ad26ee2-3b14-4c97-b808-607af89e341b","system_id":"levelo_inurba_marseille","lat":43.290319,"lon":5.375732,"is_reserved":false,"is_disabled":false,"rental_uris":{"android":"levelo://app?vid=7ad26ee2-3b14-4c97-b808-607af89e341b","ios":"levelo://app?vid=7ad26ee2-3b14-4c97-b808-607af89e341b"},"vehicle_type_id":"4","last_reported":1714907188,"current_range_meters":18800,"station_id":"ce4bh692rcd13ifvqe90","pricing_plan_id":"cebpf4jnsgd1na2vs0mg"},{"bike_id":"976abb9a-75ce-4e70-8231-4109e6e31bd0","system_id":"levelo_inurba_marseille","lat":43.290319,"lon":5.375732,"is_reserved":false,"is_disabled":false,"rental_uris":{"android":"levelo://app?vid=976abb9a-75ce-4e70-8231-4109e6e31bd0","ios":"levelo://app?vid=976abb9a-75ce-4e70-8231-4109e6e31bd0"},"vehicle_type_id":"4","last_reported":1714907188,"current_range_meters":30800,"station_id":"ce4bh692rcd13ifvqe90","pricing_plan_id":"cebpf4jnsgd1na2vs0mg"},{"bike_id":"e0f8da86-9bf9-4fa7-9e7a-4b7bb14c63e1","system_id":"levelo_inurba_marseille","lat":43.289184,"lon":5.366408,"is_reserved":false,"is_disabled":false,"rental_uris":{"android":"levelo://app?vid=e0f8da86-9bf9-4fa7-9e7a-4b7bb14c63e1","ios":"levelo://app?vid=e0f8da86-9bf9-4fa7-9e7a-4b7bb14c63e1"},"vehicle_type_id":"4","last_reported":1714907188,"current_range_meters":24000,"station_id":"ce4bhap2rcd13ifvqek0","pricing_plan_id":"cebpf4jnsgd1na2vs0mg"},{"bike_id":"5ee356ed-3a61-4ce1-9834-041686b63582","system_id":"levelo_inurba_marseille","lat":43.289465,"lon":5.366383,"is_reserved":false,"is_disabled":false,"rental_uris":{"android":"levelo://app?vid=5ee356ed-3a61-4ce1-9834-041686b63582","ios":"levelo://app?vid=5ee356ed-3a61-4ce1-9834-041686b63582"},"vehicle_type_id":"4","last_reported":1714907188,"current_range_meters":27200,"station_id":"ce4bhap2rcd13ifvqek0","pricing_plan_id":"cebpf4jnsgd1na2vs0mg"},{"bike_id":"6ae4e477-d077-45c9-b0f1-786b35ebb895","system_id":"levelo_inurba_marseille","lat":43.289184,"lon":5.366408,"is_reserved":false,"is_disabled":false,"rental_uris":{"android":"levelo://app?vid=6ae4e477-d077-45c9-b0f1-786b35ebb895","ios":"levelo://app?vid=6ae4e477-d077-45c9-b0f1-786b35ebb895"},"vehicle_type_id":"4","last_reported":1714907188,"current_range_meters":30000,"station_id":"ce4bhap2rcd13ifvqek0","pricing_plan_id":"cebpf4jnsgd1na2vs0mg"},{"bike_id":"9f0f963e-e4d3-470c-b9f0-d49a4f5d5c38","system_id":"levelo_inurba_marseille","lat":43.289184,"lon":5.366408,"is_reserved":false,"is_disabled":false,"rental_uris":{"android":"levelo://app?vid=9f0f963e-e4d3-470c-b9f0-d49a4f5d5c38","ios":"levelo://app?vid=9f0f963e-e4d3-470c-b9f0-d49a4f5d5c38"},"vehicle_type_id":"4","last_reported":1714907188,"current_range_meters":0,"station_id":"ce4bhap2rcd13ifvqek0","pricing_plan_id":"cebpf4jnsgd1na2vs0mg"},{"bike_id":"a1d52da9-139e-433d-bc1d-7929cf84d3fe","system_id":"levelo_inurba_marseille","lat":43.294162,"lon":5.386292,"is_reserved":false,"is_disabled":false,"rental_uris":{"android":"levelo://app?vid=a1d52da9-139e-433d-bc1d-7929cf84d3fe","ios":"levelo://app?vid=a1d52da9-139e-433d-bc1d-7929cf84d3fe"},"vehicle_type_id":"4","last_reported":1714907188,"current_range_meters":20400,"station_id":"ce4bh2h2rcd13ifvqdh0","pricing_plan_id":"cebpf4jnsgd1na2vs0mg"},{"bike_id":"c1fe59f9-500c-4f9d-b9f8-87b9a380803a","system_id":"levelo_inurba_marseille","lat":43.28943,"lon":5.366328,"is_reserved":false,"is_disabled":false,"rental_uris":{"android":"levelo://app?vid=c1fe59f9-500c-4f9d-b9f8-87b9a380803a","ios":"levelo://app?vid=c1fe59f9-500c-4f9d-b9f8-87b9a380803a"},"vehicle_type_id":"4","last_reported":1714907188,"current_range_meters":12800,"station_id":"ce4bhap2rcd13ifvqek0","pricing_plan_id":"cebpf4jnsgd1na2vs0mg"},{"bike_id":"17d537a3-ea65-426f-8b7b-8d391f1e8d02","system_id":"levelo_inurba_marseille","lat":43.289184,"lon":5.366408,"is_reserved":false,"is_disabled":false,"rental_uris":{"android":"levelo://app?vid=17d537a3-ea65-426f-8b7b-8d391f1e8d02","ios":"levelo://app?vid=17d537a3-ea65-426f-8b7b-8d391f1e8d02"},"vehicle_type_id":"4","last_reported":1714907188,"current_range_meters":22400,"station_id":"ce4bhap2rcd13ifvqek0","pricing_plan_id":"cebpf4jnsgd1na2vs0mg"},