{"last_updated":1752549801,"ttl":60,"version":"2.2","data":{"bikes":[{"bike_id":"feb1ed1d-b0db-45cc-9e1b-7311a8d72058","system_id":"levelo_inurba_marseille","lat":43.33747,"lon":5.37463,"is_reserved":false,"is_disabled":false,"rental_uris":{"android":"levelo://app?vid=feb1ed1d-b0db-45cc-9e1b-7311a8d72058","ios":"levelo://app?vid=feb1ed1d-b0db-45cc-9e1b-7311a8d72058"},"vehicle_type_id":"1","last_reported":1752549801,"current_range_meters":35200,"station_id":"","pricing_plan_id":"cebpf4jnsgd1na2vs0mg"},{"bike_id":"cba969e3-31b6-4926-86e0-7a31e9c2c61a","system_id":"levelo_inurba_marseille","lat":43.30431,"lon":5.38919,"is_reserved":false,"is_disabled":true,"rental_uris":{"android":"levelo://app?vid=cba969e3-31b6-4926-86e0-7a31e9c2c61a","ios":"levelo://app?vid=cba969e3-31b6-4926-86e0-7a31e9c2c61a"},"vehicle_type_id":"4","last_reported":1752549801,"current_range_meters":2800,"station_id":"ce4bgk12rcd13ifvqbi0","pricing_plan_id":"cebpf4jnsgd1na2vs0mg"},{"bike_id":"470d1e9d-8c05-40b8-a6b2-039f183b9f6a","system_id":"levelo_inurba_marseille","lat":43.231891,"lon":5.355544,"is_reserved":false,"is_disabled":true,"rental_uris":{"android":"levelo://app?vid=470d1e9d-8c05-40b8-a6b2-039f183b9f6a","ios":"levelo://app?vid=470d1e9d-8c05-40b8-a6b2-039f183b9f6a"},"vehicle_type_id":"4","last_reported":1752549801,"current_range_meters":2800,"station_id":"ce4bhu92rcd13ifvqi70","pricing_plan_id":"cebpf4jnsgd1na2vs0mg"},{"bike_id":"9efb8360-8563-45b9-96b2-a06e314abdb2","system_id":"levelo_inurba_marseille","lat":43.211804,"lon":5.350873,"is_reserved":false,"is_disabled":false,"rental_uris":{"android":"levelo://app?vid=9efb8360-8563-45b9-96b2-a06e314abdb2","ios":"levelo://app?vid=9efb8360-8563-45b9-96b2-a06e314abdb2"},"vehicle_type_id":"4","last_reported":1752549801,"current_range_meters":2800,"station_id":"st_cvj6sg6p6f1abm77japg","pricing_plan_id":"cebpf4jnsgd1na2vs0mg"},{"bike_id":"44dd919c-32df-4fe9-8b1c-c9988fb68d5b","system_id":"levelo_inurba_marseille","lat":43.269498,"lon":5.402751,"is_reserved":false,"is_disabled":true,"rental_uris":{"android":"levelo://app?vid=44dd919c-32df-4fe9-8b1c-c9988fb68d5b","ios":"levelo://app?vid=44dd919c-32df-4fe9-8b1c-c9988fb68d5b"},"vehicle_type_id":"4","last_reported":1752549801,"current_range_meters":3200,"station_id":"cjm6bp8fraef2m0cb0m0","pricing_plan_id":"cebpf4jnsgd1na2vs0mg"},{"bike_id":"54f3a525-dce7-4ee6-b304-381ba6c067cc","system_id":"levelo_inurba_marseille","lat":43.25727,"lon":5.41113,"is_reserved":false,"is_disabled":false,"rental_uris":{"android":"levelo://app?vid=54f3a525-dce7-4ee6-b304-381ba6c067cc","ios":"levelo://app?vid=54f3a525-dce7-4ee6-b304-381ba6c067cc"},"vehicle_type_id":"4","last_reported":1752549801,"current_range_meters":3200,"station_id":"ce4bhkp2rcd13ifvqgd0","pricing_plan_id":"cebpf4jnsgd1na2vs0mg"},{"bike_id":"6e0e2f23-6c02-4390-9409-f61e67d0abc9","system_id":"levelo_inurba_marseille","lat":43.28542,"lon":5.37144,"is_reserved":false,"is_disabled":false,"rental_uris":{"android":"levelo://app?vid=6e0e2f23-6c02-4390-9409-f61e67d0abc9","ios":"levelo://app?vid=6e0e2f23-6c02-4390-9409-f61e67d0abc9"},"vehicle_type_id":"4","last_reported":1752549801,"current_range_meters":3200,"station_id":"","pricing_plan_id":"cebpf4jnsgd1na2vs0mg"},{"bike_id":"1fd2524f-9b09-4e73-9a57-7d7f00cae3b6","system_id":"levelo_inurba_marseille","lat":43.28422,"lon":5.34989,"is_reserved":false,"is_disabled":false,"rental_uris":{"android":"levelo://app?vid=1fd2524f-9b09-4e73-9a57-7d7f00cae3b6","ios":"levelo://app?vid=1fd2524f-9b09-4e73-9a57-7d7f00cae3b6"},"vehicle_type_id":"4","last_reported":1752549801,"current_range_meters":3600,"station_id":"ce4bhbh2rcd13ifvqepg","pricing_plan_id":"cebpf4jnsgd1na2vs0mg"},{"bike_id":"a9dc6b5c-66c6-469c-8b2a-d14693b17d11","system_id":"levelo_inurba_marseille","lat":43.3042,"lon":5.397425,"is_reserved":false,"is_disabled":false,"rental_uris":{"android":"levelo://app?vid=a9dc6b5c-66c6-469c-8b2a-d14693b17d11","ios":"levelo://app?vid=a9dc6b5c-66c6-469c-8b2a-d14693b17d11"},"vehicle_type_id":"4","last_reported":1752549801,"current_range_meters":3600,"station_id":"ce4bh092rcd13ifvqd20","pricing_plan_id":"cebpf4jnsgd1na2vs0mg"},{"bike_id":"c5fe914d-a9c4-4784-aa86-5f55fad6ba5d","system_id":"levelo_inurba_marseille","lat":43.310636,"lon":5.38357,"is_reserved":false,"is_disabled":true,"rental_uris":{"android":"levelo://app?vid=c5fe914d-a9c4-4784-aa86-5f55fad6ba5d","ios":"levelo://app?vid=c5fe914d-a9c4-4784-aa86-5f55fad6ba5d"},"vehicle_type_id":"4","last_reported":1752549801,"current_range_meters":5600,"station_id":"ce4bgv92rcd13ifvqcr0","pricing_plan_id":"cebpf4jnsgd1na2vs0mg"},{"bike_id":"14654183-f437-4ab0-ad09-836c2d963eb1","system_id":"levelo_inurba_marseille","lat":43.29505,"lon":5.42425,"is_reserved":false,"is_disabled":false,"rental_uris":{"android":"levelo://app?vid=14654183-f437-4ab0-ad09-836c2d963eb1","ios":"levelo://app?vid=14654183-f437-4ab0-ad09-836c2d963eb1"},"vehicle_type_id":"4","last_reported":1752549801,"current_range_meters":5600,"station_id":"","pricing_plan_id":"cebpf4jnsgd1na2vs0mg"},{"bike_id":"f23760ff-ab61-4853-aa67-28aac93822c1","system_id":"levelo_inurba_marseille","lat":43.337444,"lon":5.374475,"is_reserved":false,"is_disabled":false,"rental_uris":{"android":"levelo://app?vid=f23760ff-ab61-4853-aa67-28aac93822c1","ios":"levelo://app?vid=f23760ff-ab61-4853-aa67-28aac93822c1"},"vehicle_type_id":"4","last_reported":1752549801,"current_range_meters":5600,"station_id":"","pricing_plan_id":"cebpf4jnsgd1na2vs0mg"},{"bike_id":"3e820b7c-4efa-4d5e-b32a-9c7ac21cf446","system_id":"levelo_inurba_marseille","lat":43.28698,"lon":5.39982,"is_reserved":false,"is_disabled":false,"rental_uris":{"android":"levelo://app?vid=3e820b7c-4efa-4d5e-b32a-9c7ac21cf446","ios":"levelo://app?vid=3e820b7c-4efa-4d5e-b32a-9c7ac21cf446"},"vehicle_type_id":"4","last_reported":1752549801,"current_range_meters":6000,"station_id":"ce4bho92rcd13ifvqh3g","pricing_plan_id":"cebpf4jnsgd1na2vs0mg"},{"bike_id":"6f603e6b-5437-434c-9780-f1082a040efa","system_id":"levelo_inurba_marseille","lat":43.256053,"lon":5.38707,"is_reserved":false,"is_disabled":false,"rental_uris":{"android":"levelo://app?vid=6f603e6b-5437-434c-9780-f1082a040efa","ios":"levelo://app?vid=6f603e6b-5437-434c-9780-f1082a040efa"},"vehicle_type_id":"4","last_reported":1752549801,"current_range_meters":6000,"station_id":"","pricing_plan_id":"cebpf4jnsgd1na2vs0mg"},{"bike_id":"7e435c41-890e-4d23-9c5f-05a7d0e68433","system_id":"levelo_inurba_marseille","lat":43.29646,"lon":5.40603,"is_reserved":false,"is_disabled":false,"rental_uris":{"android":"levelo://app?vid=7e435c41-890e-4d23-9c5f-05a7d0e68433","ios":"levelo://app?vid=7e435c41-890e-4d23-9c5f-05a7d0e68433"},"vehicle_type_id":"4","last_reported":1752549801,"current_range_meters":6000,"station_id":"ce4bh0h2rcd13ifvqd60","pricing_plan_id":"cebpf4jnsgd1na2vs0mg"},{"bike_id":"73b3baa8-4dcc-4f51-ab6d-fe0b2dbcac4d","system_id":"levelo_inurba_marseille","lat":43.27122,"lon":5.41774,"is_reserved":false,"is_disabled":false,"rental_uris":{"android":"levelo://app?vid=73b3baa8-4dcc-4f51-ab6d-fe0b2dbcac4d","ios":"levelo://app?vid=73b3baa8-4dcc-4f51-ab6d-fe0b2dbcac4d"},"vehicle_type_id":"4","last_reported":1752549801,"current_range_meters":6400,"station_id":"","pricing_plan_id":"cebpf4jnsgd1na2vs0mg"},{"bike_id":"50f053d7-690e-4467-b1df-2a04d6e9d256","system_id":"levelo_inurba_marseille","lat":43.29295,"lon":5.40153,"is_reserved":false,"is_disabled":false,"rental_uris":{"android":"levelo://app?vid=50f053d7-690e-4467-b1df-2a04d6e9d256","ios":"levelo://app?vid=50f053d7-690e-4467-b1df-2a04d6e9d256"},"vehicle_type_id":"4","last_reported":1752549801,"current_range_meters":6400,"station_id":"ce4bh312rcd13ifvqdk0","pricing_plan_id":"cebpf4jnsgd1na2vs0mg"},{"bike_id":"4d18ba2d-b3fa-4c4b-ac39-68af46cce78a","system_id":"levelo_inurba_marseille","lat":43.3053,"lon":5.36723,"is_reserved":false,"is_disabled":false,"rental_uris":{"android":"levelo://app?vid=4d18ba2d-b3fa-4c4b-ac39-68af46cce78a","ios":"levelo://app?vid=4d18ba2d-b3fa-4c4b-ac39-68af46cce78a"},"vehicle_type_id":"4","last_reported":1752549801,"current_range_meters":6400,"station_id":"ce4bgrp2rcd13ifvqc9g","pricing_plan_id":"cebpf4jnsgd1na2vs0mg"},{"bike_id":"958a80c8-4ef3-4722-8fab-8b7900193b39","system_id":"levelo_inurba_marseille","lat":43.318955,"lon":5.407475,"is_reserved":false,"is_disabled":true,"rental_uris":{"android":"levelo://app?vid=958a80c8-4ef3-4722-8fab-8b7900193b39","ios":"levelo://app?vid=958a80c8-4ef3-4722-8fab-8b7900193b39"},"vehicle_type_id":"4","last_reported":1752549801,"current_range_meters":6400,"station_id":"ce4bhq12rcd13ifvqhig","pricing_plan_id":"cebpf4jnsgd1na2vs0mg"},{"bike_id":"becd11bd-7272-4eb9-9dce-5acbefea57c1","system_id":"levelo_inurba_marseille","lat":43.30593,"lon":5.37226,"is_reserved":false,"is_disabled":false,"rental_uris":{"android":"levelo://app?vid=becd11bd-7272-4eb9-9dce-5acbefea57c1","ios":"levelo://app?vid=becd11bd-7272-4eb9-9dce-5acbefea57c1"},"vehicle_type_id":"4","last_reported":1752549801,"current_range_meters":6800,"station_id":"ce4bgqh2rcd13ifvqc4g","pricing_plan_id":"cebpf4jnsgd1na2vs0mg"},{"bike_id":"97116945-f406-4dcc-971e-deff2ff8d4fa","system_id":"levelo_inurba_marseille","lat":43.3236,"lon":5.36745,"is_reserved":false,"is_disabled":false,"rental_uris":{"android":"levelo://app?vid=97116945-f406-4dcc-971e-deff2ff8d4fa","ios":"levelo://app?vid=97116945-f406-4dcc-971e-deff2ff8d4fa"},"vehicle_type_id":"4","last_reported":1752549801,"current_range_meters":7200,"station_id":"ce4bhsh2rcd13ifvqi2g","pricing_plan_id":"cebpf4jnsgd1na2vs0mg"},{"bike_id":"7203c0d5-ea15-46c1-805c-8ecc9fe7f557","system_id":"levelo_inurba_marseille","lat":43.22506,"lon":5.34792,"is_reserved":false,"is_disabled":false,"rental_uris":{"android":"levelo://app?vid=7203c0d5-ea15-46c1-805c-8ecc9fe7f557","ios":"levelo://app?vid=7203c0d5-ea15-46c1-805c-8ecc9fe7f557"},"vehicle_type_id":"4","last_reported":1752549801,"current_range_meters":7200,"station_id":"st_cvj5dfep6f1abm77gieg","pricing_plan_id":"cebpf4jnsgd1na2vs0mg"},{"bike_id":"093d88b0-c884-4b3d-9c85-70f15b88a520","system_id":"levelo_inurba_marseille","lat":43.28681,"lon":5.41267,"is_reserved":false,"is_disabled":true,"rental_uris":{"android":"levelo://app?vid=093d88b0-c884-4b3d-9c85-70f15b88a520","ios":"levelo://app?vid=093d88b0-c884-4b3d-9c85-70f15b88a520"},"vehicle_type_id":"4","last_reported":1752549801,"current_range_meters":8000,"station_id":"","pricing_plan_id":"cebpf4jnsgd1na2vs0mg"},{"bike_id":"0179bf21-e753-4323-a63e-d69b5b2b3879","system_id":"levelo_inurba_marseille","lat":43.246462,"lon":5.388929,"is_reserved":false,"is_disabled":true,"rental_uris":{"android":"levelo://app?vid=0179bf21-e753-4323-a63e-d69b5b2b3879","ios":"levelo://app?vid=0179bf21-e753-4323-a63e-d69b5b2b3879"},"vehicle_type_id":"4","last_reported":1752549801,"current_range_meters":8000,"station_id":"ce4bhg12rcd13ifvqf60","pricing_plan_id":"cebpf4jnsgd1na2vs0mg"},{"bike_id":"6c28151a-b15f-4acc-9efc-89400b21dfe1","system_id":"levelo_inurba_marseille","lat":43.26041,"lon":5.37558,"is_reserved":false,"is_disabled":true,"rental_uris":{"android":"levelo://app?vid=6c28151a-b15f-4acc-9efc-89400b21dfe1","ios":"levelo://app?vid=6c28151a-b15f-4acc-9efc-89400b21dfe1"},"vehicle_type_id":"4","last_reported":1752549801,"current_range_meters":8400,"station_id":"ce4bhgh2rcd13ifvqfa0","pricing_plan_id":"cebpf4jnsgd1na2vs0mg"},{"bike_id":"07b80ba8-94f7-4006-b883-d44157aa02a8","system_id":"levelo_inurba_marseille","lat":43.21195,"lon":5.35058,"is_reserved":false,"is_disabled":false,"rental_uris":{"android":"levelo://app?vid=07b80ba8-94f7-4006-b883-d44157aa02a8","ios":"levelo://app?vid=07b80ba8-94f7-4006-b883-d44157aa02a8"},"vehicle_type_id":"4","last_reported":1752549801,"current_range_meters":8400,"station_id":"st_cvj6sg6p6f1abm77japg","pricing_plan_id":"cebpf4jnsgd1na2vs0mg"},{"bike_id":"a95c6fdc-3c4d-46b1-8a87-d88e273d71b1","system_id":"levelo_inurba_marseille","lat":43.28941,"lon":5.36383,"is_reserved":false,"is_disabled":true,"rental_uris":{"android":"levelo://app?vid=a95c6fdc-3c4d-46b1-8a87-d88e273d71b1","ios":"levelo://app?vid=a95c6fdc-3c4d-46b1-8a87-d88e273d71b1"},"vehicle_type_id":"4","last_reported":1752549801,"current_range_meters":8400,"station_id":"ce4bhc92rcd13ifvqetg","pricing_plan_id":"cebpf4jnsgd1na2vs0mg"},{"bike_id":"58375fde-ca97-4dab-be52-59caf98323d3","system_id":"levelo_inurba_marseille","lat":43.26579,"lon":5.37301,"is_reserved":false,"is_disabled":true,"rental_uris":{"android":"levelo://app?vid=58375fde-ca97-4dab-be52-59caf98323d3","ios":"levelo://app?vid=58375fde-ca97-4dab-be52-59caf98323d3"},"vehicle_type_id":"4","last_reported":1752549801,"current_range_meters":8400,"station_id":"ce4bhg12rcd13ifvqf70","pricing_plan_id":"cebpf4jnsgd1na2vs0mg"},{"bike_id":"930c144e-fb2b-4526-9386-3ed01e1c6cca","system_id":"levelo_inurba_marseille","lat":43.29651,"lon":5.40608,"is_reserved":false,"is_disabled":false,"rental_uris":{"android":"levelo://app?vid=930c144e-fb2b-4526-9386-3ed01e1c6cca","ios":"levelo://app?vid=930c144e-fb2b-4526-9386-3ed01e1c6cca"},"vehicle_type_id":"4","last_reported":1752549801,"current_range_meters":8400,"station_id":"ce4bh0h2rcd13ifvqd60","pricing_plan_id":"cebpf4jnsgd1na2vs0mg"},{"bike_id":"dd1a4540-9453-46fa-8bec-0189465084ce","system_id":"levelo_inurba_marseille","lat":43.28405,"lon":5.37511,"is_reserved":false,"is_disabled":false,"rental_uris":{"android":"levelo://app?vid=dd1a4540-9453-46fa-8bec-0189465084ce","ios":"levelo://app?vid=dd1a4540-9453-46fa-8bec-0189465084ce"},"vehicle_type_id":"4","last_reported":1752549801,"current_range_meters":8800,"station_id":"ce4bh412rcd13ifvqds0","pricing_plan_id":"cebpf4jnsgd1na2vs0mg"},{"bike_id":"ea07ccd5-4bc0-429f-86b0-041e02908e66","system_id":"levelo_inurba_marseille","lat":43.29287,"lon":5.40146,"is_reserved":false,"is_disabled":false,"rental_uris":{"android":"levelo://app?vid=ea07ccd5-4bc0-429f-86b0-041e02908e66","ios":"levelo://app?vid=ea07ccd5-4bc0-429f-86b0-041e02908e66"},"vehicle_type_id":"4","last_reported":1752549801,"current_range_meters":8800,"station_id":"ce4bh312rcd13ifvqdk0","pricing_plan_id":"cebpf4jnsgd1na2vs0mg"},{"bike_id":"7b7fb125-1e21-4d9b-b9b6-967459d426be","system_id":"levelo_inurba_marseille","lat":43.303241,"lon":5.40437,"is_reserved":false,"is_disabled":false,"rental_uris":{"android":"levelo://app?vid=7b7fb125-1e21-4d9b-b9b6-967459d426be","ios":"levelo://app?vid=7b7fb125-1e21-4d9b-b9b6-967459d426be"},"vehicle_type_id":"4","last_reported":1752549801,"current_range_meters":8800,"station_id":"ce4bh012rcd13ifvqd10","pricing_plan_id":"cebpf4jnsgd1na2vs0mg"},{"bike_id":"d916aace-830c-451e-a376-c1312f1fc6af","system_id":"levelo_inurba_marseille","lat":43.22515,"lon":5.34808,"is_reserved":false,"is_disabled":false,"rental_uris":{"android":"levelo://app?vid=d916aace-830c-451e-a376-c1312f1fc6af","ios":"levelo://app?vid=d916aace-830c-451e-a376-c1312f1fc6af"},"vehicle_type_id":"4","last_reported":1752549801,"current_range_meters":8800,"station_id":"st_cvj5dfep6f1abm77gieg","pricing_plan_id":"cebpf4jnsgd1na2vs0mg"},{"bike_id":"2c66c6a3-c3a9-4faf-bc13-2dec19484e98","system_id":"levelo_inurba_marseille","lat":43.30376,"lon":5.42484,"is_reserved":false,"is_disabled":false,"rental_uris":{"android":"levelo://app?vid=2c66c6a3-c3a9-4faf-bc13-2dec19484e98","ios":"levelo://app?vid=2c66c6a3-c3a9-4faf-bc13-2dec19484e98"},"vehicle_type_id":"4","last_reported":1752549801,"current_range_meters":8800,"station_id":"","pricing_plan_id":"cebpf4jnsgd1na2vs0mg"},{"bike_id":"b7d5c750-8708-423a-b8b3-ae93cb7d60e1","system_id":"levelo_inurba_marseille","lat":43.30438,"lon":5.39741,"is_reserved":false,"is_disabled":false,"rental_uris":{"android":"levelo://app?vid=b7d5c750-8708-423a-b8b3-ae93cb7d60e1","ios":"levelo://app?vid=b7d5c750-8708-423a-b8b3-ae93cb7d60e1"},"vehicle_type_id":"4","last_reported":1752549801,"current_range_meters":8800,"station_id":"ce4bh092rcd13ifvqd20","pricing_plan_id":"cebpf4jnsgd1na2vs0mg"},{"bike_id":"836f0452-2f55-420e-b798-3ab37d104d0e","system_id":"levelo_inurba_marseille","lat":43.33604,"lon":5.410235,"is_reserved":false,"is_disabled":false,"rental_uris":{"android":"levelo://app?vid=836f0452-2f55-420e-b798-3ab37d104d0e","ios":"levelo://app?vid=836f0452-2f55-420e-b798-3ab37d104d0e"},"vehicle_type_id":"4","last_reported":1752549801,"current_range_meters":9200,"station_id":"ce4bhqh2rcd13ifvqhmg","pricing_plan_id":"cebpf4jnsgd1na2vs0mg"},{"bike_id":"a6177175-8e64-4752-9094-36de58f53c1d","system_id":"levelo_inurba_marseille","lat":43.320421,"lon":5.41551,"is_reserved":false,"is_disabled":false,"rental_uris":{"android":"levelo://app?vid=a6177175-8e64-4752-9094-36de58f53c1d","ios":"levelo://app?vid=a6177175-8e64-4752-9094-36de58f53c1d"},"vehicle_type_id":"4","last_reported":1752549801,"current_range_meters":9600,"station_id":"ce4bhq92rcd13ifvqhkg","pricing_plan_id":"cebpf4jnsgd1na2vs0mg"},{"bike_id":"1fbaf219-67be-45b8-aacc-64d6722df546","system_id":"levelo_inurba_marseille","lat":43.290284,"lon":5.386366,"is_reserved":false,"is_disabled":true,"rental_uris":{"android":"levelo://app?vid=1fbaf219-67be-45b8-aacc-64d6722df546","ios":"levelo://app?vid=1fbaf219-67be-45b8-aacc-64d6722df546"},"vehicle_type_id":"4","last_reported":1752549801,"current_range_meters":9600,"station_id":"ce4bh4p2rcd13ifvqe0g","pricing_plan_id":"cebpf4jnsgd1na2vs0mg"},{"bike_id":"0c293337-481a-4856-9010-47007468e0fd","system_id":"levelo_inurba_marseille","lat":43.36652,"lon":5.34798,"is_reserved":false,"is_disabled":false,"rental_uris":{"android":"levelo://app?vid=0c293337-481a-4856-9010-47007468e0fd","ios":"levelo://app?vid=0c293337-481a-4856-9010-47007468e0fd"},"vehicle_type_id":"4","last_reported":1752549801,"current_range_meters":9600,"station_id":"","pricing_plan_id":"cebpf4jnsgd1na2vs0mg"},{"bike_id":"8d1bc449-714a-4b80-9e09-9fdc174b15aa","system_id":"levelo_inurba_marseille","lat":43.29367,"lon":5.37852,"is_reserved":false,"is_disabled":true,"rental_uris":{"android":"levelo://app?vid=8d1bc449-714a-4b80-9e09-9fdc174b15aa","ios":"levelo://app?vid=8d1bc449-714a-4b80-9e09-9fdc174b15aa"},"vehicle_type_id":"4","last_reported":1752549801,"current_range_meters":9600,"station_id":"ce4bgjh2rcd13ifvqbf0","pricing_plan_id":"cebpf4jnsgd1na2vs0mg"},{"bike_id":"c14947c2-7b5b-4c03-b04b-d7f22fccfd67","system_id":"levelo_inurba_marseille","lat":43.211903,"lon":5.350794,"is_reserved":false,"is_disabled":false,"rental_uris":{"android":"levelo://app?vid=c14947c2-7b5b-4c03-b04b-d7f22fccfd67","ios":"levelo://app?vid=c14947c2-7b5b-4c03-b04b-d7f22fccfd67"},"vehicle_type_id":"4","last_reported":1752549801,"current_range_meters":9600,"station_id":"st_cvj6sg6p6f1abm77japg","pricing_plan_id":"cebpf4jnsgd1na2vs0mg"},{"bike_id":"e94e06d6-22a3-4df7-8c57-e2705164b058","system_id":"levelo_inurba_marseille","lat":43.30799,"lon":5.381492,"is_reserved":false,"is_disabled":false,"rental_uris":{"android":"levelo://app?vid=e94e06d6-22a3-4df7-8c57-e2705164b058","ios":"levelo://app?vid=e94e06d6-22a3-4df7-8c57-e2705164b058"},"vehicle_type_id":"4","last_reported":1752549801,"current_range_meters":9600,"station_id":"ce4bgt12rcd13ifvqce0","pricing_plan_id":"cebpf4jnsgd1na2vs0mg"},{"bike_id":"59a860e9-cc23-49cc-9147-79034be56af1","system_id":"levelo_inurba_marseille","lat":43.29301,"lon":5.3746,"is_reserved":false,"is_disabled":true,"rental_uris":{"android":"levelo://app?vid=59a860e9-cc23-49cc-9147-79034be56af1","ios":"levelo://app?vid=59a860e9-cc23-49cc-9147-79034be56af1"},"vehicle_type_id":"4","last_reported":1752549801,"current_range_meters":9600,"station_id":"ce4bgi12rcd13ifvqb70","pricing_plan_id":"cebpf4jnsgd1na2vs0mg"},{"bike_id":"39f26311-25a3-44ef-8923-c453831dd27b","system_id":"levelo_inurba_marseille","lat":43.29644,"lon":5.40602,"is_reserved":false,"is_disabled":false,"rental_uris":{"android":"levelo://app?vid=39f26311-25a3-44ef-8923-c453831dd27b","ios":"levelo://app?vid=39f26311-25a3-44ef-8923-c453831dd27b"},"vehicle_type_id":"4","last_reported":1752549801,"current_range_meters":10000,"station_id":"ce4bh0h2rcd13ifvqd60","pricing_plan_id":"cebpf4jnsgd1na2vs0mg"},{"bike_id":"41741c14-a7e3-48b9-bd26-6edbb117228a","system_id":"levelo_inurba_marseille","lat":43.30425,"lon":5.39759,"is_reserved":false,"is_disabled":false,"rental_uris":{"android":"levelo://app?vid=41741c14-a7e3-48b9-bd26-6edbb117228a","ios":"levelo://app?vid=41741c14-a7e3-48b9-bd26-6edbb117228a"},"vehicle_type_id":"4","last_reported":1752549801,"current_range_meters":10000,"station_id":"ce4bh092rcd13ifvqd20","pricing_plan_id":"cebpf4jnsgd1na2vs0mg"},{"bike_id":"d960247e-fcb0-4551-a66f-dd83895a31f6","system_id":"levelo_inurba_marseille","lat":43.32282,"lon":5.38262,"is_reserved":false,"is_disabled":true,"rental_uris":{"android":"levelo://app?vid=d960247e-fcb0-4551-a66f-dd83895a31f6","ios":"levelo://app?vid=d960247e-fcb0-4551-a66f-dd83895a31f6"},"vehicle_type_id":"4","last_reported":1752549801,"current_range_meters":10000,"station_id":"ce4bhr12rcd13ifvqhqg","pricing_plan_id":"cebpf4jnsgd1na2vs0mg"},{"bike_id":"8a01e88a-8371-4085-9838-47ae11897cd3","system_id":"levelo_inurba_marseille","lat":43.28141,"lon":5.42629,"is_reserved":false,"is_disabled":true,"rental_uris":{"android":"levelo://app?vid=8a01e88a-8371-4085-9838-47ae11897cd3","ios":"levelo://app?vid=8a01e88a-8371-4085-9838-47ae11897cd3"},"vehicle_type_id":"4","last_reported":1752549801,"current_range_meters":10000,"station_id":"ce4bhnh2rcd13ifvqgug","pricing_plan_id":"cebpf4jnsgd1na2vs0mg"},{"bike_id":"088e6b1d-8a81-47e0-9ad0-36233ed399c0","system_id":"levelo_inurba_marseille","lat":43.27923,"lon":5.395826,"is_reserved":false,"is_disabled":true,"rental_uris":{"android":"levelo://app?vid=088e6b1d-8a81-47e0-9ad0-36233ed399c0","ios":"levelo://app?vid=088e6b1d-8a81-47e0-9ad0-36233ed399c0"},"vehicle_type_id":"4","last_reported":1752549801,"current_range_meters":10000,"station_id":"ce4bhf92rcd13ifvqf40","pricing_plan_id":"cebpf4jnsgd1na2vs0mg"},{"bike_id":"ffa5ccb4-905c-4e50-802b-1c1f9b2cbe03","system_id":"levelo_inurba_marseille","lat":43.211901,"lon":5.350769,"is_reserved":false,"is_disabled":false,"rental_uris":{"android":"levelo://app?vid=ffa5ccb4-905c-4e50-802b-1c1f9b2cbe03","ios":"levelo://app?vid=ffa5ccb4-905c-4e50-802b-1c1f9b2cbe03"},"vehicle_type_id":"4","last_reported":1752549801,"current_range_meters":10800,"station_id":"","pricing_plan_id":"cebpf4jnsgd1na2vs0mg"},{"bike_id":"4026c91c-d6e8-4686-b762-11d3714cecf8","system_id":"levelo_inurba_marseille","lat":43.292,"lon":5.35925,"is_reserved":false,"is_disabled":true,"rental_uris":{"android":"levelo://app?vid=4026c91c-d6e8-4686-b762-11d3714cecf8","ios":"levelo://app?vid=4026c91c-d6e8-4686-b762-11d3714cecf8"},"vehicle_type_id":"4","last_reported":1752549801,"current_range_meters":10800,"station_id":"","pricing_plan_id":"cebpf4jnsgd1na2vs0mg"},{"bike_id":"cb1abd3f-3245-4f1e-b552-4df7e6cd8d8b","system_id":"levelo_inurba_marseille","lat":43.28695,"lon":5.40003,"is_reserved":false,"is_disabled":false,"rental_uris":{"android":"levelo://app?vid=cb1abd3f-3245-4f1e-b552-4df7e6cd8d8b","ios":"levelo://app?vid=cb1abd3f-3245-4f1e-b552-4df7e6cd8d8b"},"vehicle_type_id":"4","last_reported":1752549801,"current_range_meters":10800,"station_id":"ce4bho92rcd13ifvqh3g","pricing_plan_id":"cebpf4jnsgd1na2vs0mg"},{"bike_id":"a4d07f45-19f9-4df9-9728-be6623530a64","system_id":"levelo_inurba_marseille","lat":43.23722,"lon":5.38828,"is_reserved":false,"is_disabled":false,"rental_uris":{"android":"levelo://app?vid=a4d07f45-19f9-4df9-9728-be6623530a64","ios":"levelo://app?vid=a4d07f45-19f9-4df9-9728-be6623530a64"},"vehicle_type_id":"4","last_reported":1752549801,"current_range_meters":10800,"station_id":"","pricing_plan_id":"cebpf4jnsgd1na2vs0mg"},{"bike_id":"e91ced2f-2041-4b38-8446-0d5d97adec95","system_id":"levelo_inurba_marseille","lat":43.255796,"lon":5.382415,"is_reserved":false,"is_disabled":true,"rental_uris":{"android":"levelo://app?vid=e91ced2f-2041-4b38-8446-0d5d97adec95","ios":"levelo://app?vid=e91ced2f-2041-4b38-8446-0d5d97adec95"},"vehicle_type_id":"4","last_reported":1752549801,"current_range_meters":10800,"station_id":"ce4bhih2rcd13ifvqfs0","pricing_plan_id":"cebpf4jnsgd1na2vs0mg"},{"bike_id":"856f2d23-2d4b-4e7d-9b18-dff24c595dd3","system_id":"levelo_inurba_marseille","lat":43.26782,"lon":5.394206,"is_reserved":false,"is_disabled":true,"rental_uris":{"android":"levelo://app?vid=856f2d23-2d4b-4e7d-9b18-dff24c595dd3","ios":"levelo://app?vid=856f2d23-2d4b-4e7d-9b18-dff24c595dd3"},"vehicle_type_id":"4","last_reported":1752549801,"current_range_meters":10800,"station_id":"ce4bhh12rcd13ifvqfg0","pricing_plan_id":"cebpf4jnsgd1na2vs0mg"},{"bike_id":"c8c4de1a-846f-4f5b-aace-9fb14bf7ad52","system_id":"levelo_inurba_marseille","lat":43.21193,"lon":5.35067,"is_reserved":false,"is_disabled":false,"rental_uris":{"android":"levelo://app?vid=c8c4de1a-846f-4f5b-aace-9fb14bf7ad52","ios":"levelo://app?vid=c8c4de1a-846f-4f5b-aace-9fb14bf7ad52"},"vehicle_type_id":"4","last_reported":1752549801,"current_range_meters":10800,"station_id":"st_cvj6sg6p6f1abm77japg","pricing_plan_id":"cebpf4jnsgd1na2vs0mg"},{"bike_id":"a177b2a8-881b-40e0-8b5a-a85ce51b5706","system_id":"levelo_inurba_marseille","lat":43.30939,"lon":5.40141,"is_reserved":false,"is_disabled":false,"rental_uris":{"android":"levelo://app?vid=a177b2a8-881b-40e0-8b5a-a85ce51b5706","ios":"levelo://app?vid=a177b2a8-881b-40e0-8b5a-a85ce51b5706"},"vehicle_type_id":"4","last_reported":1752549801,"current_range_meters":10800,"station_id":"ce4bgvp2rcd13ifvqct0","pricing_plan_id":"cebpf4jnsgd1na2vs0mg"},{"bike_id":"697d5fc4-b988-4a4e-8323-c1ce5ed61a61","system_id":"levelo_inurba_marseille","lat":43.211928,"lon":5.350753,"is_reserved":false,"is_disabled":false,"rental_uris":{"android":"levelo://app?vid=697d5fc4-b988-4a4e-8323-c1ce5ed61a61","ios":"levelo://app?vid=697d5fc4-b988-4a4e-8323-c1ce5ed61a61"},"vehicle_type_id":"4","last_reported":1752549801,"current_range_meters":11200,"station_id":"st_cvj6sg6p6f1abm77japg","pricing_plan_id":"cebpf4jnsgd1na2vs0mg"},{"bike_id":"9b1afee0-5d71-42b1-bfb3-0f11fa1e097d","system_id":"levelo_inurba_marseille","lat":43.292534,"lon":5.376396,"is_reserved":false,"is_disabled":false,"rental_uris":{"android":"levelo://app?vid=9b1afee0-5d71-42b1-bfb3-0f11fa1e097d","ios":"levelo://app?vid=9b1afee0-5d71-42b1-bfb3-0f11fa1e097d"},"vehicle_type_id":"4","last_reported":1752549801,"current_range_meters":11200,"station_id":"","pricing_plan_id":"cebpf4jnsgd1na2vs0mg"},{"bike_id":"4a19e4ee-cbbe-4fd8-9e6c-310afa6ee6c9","system_id":"levelo_inurba_marseille","lat":43.23194,"lon":5.3999,"is_reserved":false,"is_disabled":true,"rental_uris":{"android":"levelo://app?vid=4a19e4ee-cbbe-4fd8-9e6c-310afa6ee6c9","ios":"levelo://app?vid=4a19e4ee-cbbe-4fd8-9e6c-310afa6ee6c9"},"vehicle_type_id":"4","last_reported":1752549801,"current_range_meters":11200,"station_id":"ce4bhn12rcd13ifvqgqg","pricing_plan_id":"cebpf4jnsgd1na2vs0mg"},{"bike_id":"e1442ff3-c767-4bb3-901d-e5f60873ad13","system_id":"levelo_inurba_marseille","lat":43.23189,"lon":5.39979,"is_reserved":false,"is_disabled":false,"rental_uris":{"android":"levelo://app?vid=e1442ff3-c767-4bb3-901d-e5f60873ad13","ios":"levelo://app?vid=e1442ff3-c767-4bb3-901d-e5f60873ad13"},"vehicle_type_id":"4","last_reported":1752549801,"current_range_meters":11200,"station_id":"ce4bhn12rcd13ifvqgqg","pricing_plan_id":"cebpf4jnsgd1na2vs0mg"},{"bike_id":"f5a47db5-6fb2-46bd-a2de-efa4ad13bf60","system_id":"levelo_inurba_marseille","lat":43.21198,"lon":5.35053,"is_reserved":false,"is_disabled":false,"rental_uris":{"android":"levelo://app?vid=f5a47db5-6fb2-46bd-a2de-efa4ad13bf60","ios":"levelo://app?vid=f5a47db5-6fb2-46bd-a2de-efa4ad13bf60"},"vehicle_type_id":"4","last_reported":1752549801,"current_range_meters":11200,"station_id":"st_cvj6sg6p6f1abm77japg","pricing_plan_id":"cebpf4jnsgd1na2vs0mg"},{"bike_id":"125295be-927c-4ab8-91c1-8b56fb75816d","system_id":"levelo_inurba_marseille","lat":43.28921,"lon":5.3662,"is_reserved":false,"is_disabled":false,"rental_uris":{"android":"levelo://app?vid=125295be-927c-4ab8-91c1-8b56fb75816d","ios":"levelo://app?vid=125295be-927c-4ab8-91c1-8b56fb75816d"},"vehicle_type_id":"4","last_reported":1752549801,"current_range_meters":11200,"station_id":"ce4bhap2rcd13ifvqek0","pricing_plan_id":"cebpf4jnsgd1na2vs0mg"},{"bike_id":"f3256df6-398a-4a96-8c4c-7c9d76a1146d","system_id":"levelo_inurba_marseille","lat":43.27072,"lon":5.42272,"is_reserved":false,"is_disabled":false,"rental_uris":{"android":"levelo://app?vid=f3256df6-398a-4a96-8c4c-7c9d76a1146d","ios":"levelo://app?vid=f3256df6-398a-4a96-8c4c-7c9d76a1146d"},"vehicle_type_id":"4","last_reported":1752549801,"current_range_meters":11200,"station_id":"ce4bhk92rcd13ifvqgb0","pricing_plan_id":"cebpf4jnsgd1na2vs0mg"},{"bike_id":"2a0aedde-7f30-493f-9aae-d292c759cf7c","system_id":"levelo_inurba_marseille","lat":43.27914,"lon":5.39584,"is_reserved":false,"is_disabled":false,"rental_uris":{"android":"levelo://app?vid=2a0aedde-7f30-493f-9aae-d292c759cf7c","ios":"levelo://app?vid=2a0aedde-7f30-493f-9aae-d292c759cf7c"},"vehicle_type_id":"4","last_reported":1752549801,"current_range_meters":11200,"station_id":"ce4bhf92rcd13ifvqf40","pricing_plan_id":"cebpf4jnsgd1na2vs0mg"},{"bike_id":"df737b47-6e09-4542-8d35-f3681d0e6a4d","system_id":"levelo_inurba_marseille","lat":43.27616,"lon":5.36103,"is_reserved":false,"is_disabled":true,"rental_uris":{"android":"levelo://app?vid=df737b47-6e09-4542-8d35-f3681d0e6a4d","ios":"levelo://app?vid=df737b47-6e09-4542-8d35-f3681d0e6a4d"},"vehicle_type_id":"4","last_reported":1752549801,"current_range_meters":11600,"station_id":"ce4bgj92rcd13ifvqbe0","pricing_plan_id":"cebpf4jnsgd1na2vs0mg"},{"bike_id":"6ac174d4-75c5-4a9c-9699-97cd631c6e65","system_id":"levelo_inurba_marseille","lat":43.25482,"lon":5.39896,"is_reserved":false,"is_disabled":false,"rental_uris":{"android":"levelo://app?vid=6ac174d4-75c5-4a9c-9699-97cd631c6e65","ios":"levelo://app?vid=6ac174d4-75c5-4a9c-9699-97cd631c6e65"},"vehicle_type_id":"4","last_reported":1752549801,"current_range_meters":11600,"station_id":"","pricing_plan_id":"cebpf4jnsgd1na2vs0mg"},{"bike_id":"08dbf31c-b540-4ca6-b57d-3481ea73d97b","system_id":"levelo_inurba_marseille","lat":43.22505,"lon":5.34785,"is_reserved":false,"is_disabled":false,"rental_uris":{"android":"levelo://app?vid=08dbf31c-b540-4ca6-b57d-3481ea73d97b","ios":"levelo://app?vid=08dbf31c-b540-4ca6-b57d-3481ea73d97b"},"vehicle_type_id":"4","last_reported":1752549801,"current_range_meters":11600,"station_id":"st_cvj5dfep6f1abm77gieg","pricing_plan_id":"cebpf4jnsgd1na2vs0mg"},{"bike_id":"ed74f810-226b-4edb-a7d8-2c9a86d071a4","system_id":"levelo_inurba_marseille","lat":43.21193,"lon":5.35075,"is_reserved":false,"is_disabled":false,"rental_uris":{"android":"levelo://app?vid=ed74f810-226b-4edb-a7d8-2c9a86d071a4","ios":"levelo://app?vid=ed74f810-226b-4edb-a7d8-2c9a86d071a4"},"vehicle_type_id":"4","last_reported":1752549801,"current_range_meters":11600,"station_id":"st_cvj6sg6p6f1abm77japg","pricing_plan_id":"cebpf4jnsgd1na2vs0mg"},{"bike_id":"3a1914e6-7029-4cd8-a2c3-276afac483b1","system_id":"levelo_inurba_marseille","lat":43.30816,"lon":5.38143,"is_reserved":false,"is_disabled":false,"rental_uris":{"android":"levelo://app?vid=3a1914e6-7029-4cd8-a2c3-276afac483b1","ios":"levelo://app?vid=3a1914e6-7029-4cd8-a2c3-276afac483b1"},"vehicle_type_id":"4","last_reported":1752549801,"current_range_meters":11600,"station_id":"ce4bgt12rcd13ifvqce0","pricing_plan_id":"cebpf4jnsgd1na2vs0mg"},{"bike_id":"39bda38f-2629-4ae3-89b7-a0cdea6bdae8","system_id":"levelo_inurba_marseille","lat":43.279146,"lon":5.395829,"is_reserved":false,"is_disabled":false,"rental_uris":{"android":"levelo://app?vid=39bda38f-2629-4ae3-89b7-a0cdea6bdae8","ios":"levelo://app?vid=39bda38f-2629-4ae3-89b7-a0cdea6bdae8"},"vehicle_type_id":"4","last_reported":1752549801,"current_range_meters":12000,"station_id":"ce4bhf92rcd13ifvqf40","pricing_plan_id":"cebpf4jnsgd1na2vs0mg"},{"bike_id":"37cf8e09-e87a-4191-8687-e4c6c10aabb8","system_id":"levelo_inurba_marseille","lat":43.24806,"lon":5.37454,"is_reserved":false,"is_disabled":true,"rental_uris":{"android":"levelo://app?vid=37cf8e09-e87a-4191-8687-e4c6c10aabb8","ios":"levelo://app?vid=37cf8e09-e87a-4191-8687-e4c6c10aabb8"},"vehicle_type_id":"4","last_reported":1752549801,"current_range_meters":12000,"station_id":"ce4bhgh2rcd13ifvqfb0","pricing_plan_id":"cebpf4jnsgd1na2vs0mg"},{"bike_id":"58b5bc37-eacc-47e6-ab27-354309eb9582","system_id":"levelo_inurba_marseille","lat":43.29282,"lon":5.40138,"is_reserved":false,"is_disabled":false,"rental_uris":{"android":"levelo://app?vid=58b5bc37-eacc-47e6-ab27-354309eb9582","ios":"levelo://app?vid=58b5bc37-eacc-47e6-ab27-354309eb9582"},"vehicle_type_id":"4","last_reported":1752549801,"current_range_meters":12000,"station_id":"ce4bh312rcd13ifvqdk0","pricing_plan_id":"cebpf4jnsgd1na2vs0mg"},{"bike_id":"e39d72a8-1c3e-4dce-a3c9-7069cc0fb06f","system_id":"levelo_inurba_marseille","lat":43.2796,"lon":5.41026,"is_reserved":false,"is_disabled":false,"rental_uris":{"android":"levelo://app?vid=e39d72a8-1c3e-4dce-a3c9-7069cc0fb06f","ios":"levelo://app?vid=e39d72a8-1c3e-4dce-a3c9-7069cc0fb06f"},"vehicle_type_id":"4","last_reported":1752549801,"current_range_meters":12000,"station_id":"ce4bhnp2rcd13ifvqh0g","pricing_plan_id":"cebpf4jnsgd1na2vs0mg"},{"bike_id":"7ea577e7-1080-4e3d-9ece-a825e8e18d5b","system_id":"levelo_inurba_marseille","lat":43.306473,"lon":5.40079,"is_reserved":false,"is_disabled":false,"rental_uris":{"android":"levelo://app?vid=7ea577e7-1080-4e3d-9ece-a825e8e18d5b","ios":"levelo://app?vid=7ea577e7-1080-4e3d-9ece-a825e8e18d5b"},"vehicle_type_id":"4","last_reported":1752549801,"current_range_meters":12000,"station_id":"ce4bh112rcd13ifvqda0","pricing_plan_id":"cebpf4jnsgd1na2vs0mg"},{"bike_id":"affb3f7a-a227-4528-9d14-09d0b60aecf5","system_id":"levelo_inurba_marseille","lat":43.30393,"lon":5.42455,"is_reserved":false,"is_disabled":false,"rental_uris":{"android":"levelo://app?vid=affb3f7a-a227-4528-9d14-09d0b60aecf5","ios":"levelo://app?vid=affb3f7a-a227-4528-9d14-09d0b60aecf5"},"vehicle_type_id":"4","last_reported":1752549801,"current_range_meters":12400,"station_id":"ce4bhoh2rcd13ifvqh6g","pricing_plan_id":"cebpf4jnsgd1na2vs0mg"},{"bike_id":"68271f2c-d116-4bee-8e06-9f87e5a7a022","system_id":"levelo_inurba_marseille","lat":43.29281,"lon":5.40141,"is_reserved":false,"is_disabled":false,"rental_uris":{"android":"levelo://app?vid=68271f2c-d116-4bee-8e06-9f87e5a7a022","ios":"levelo://app?vid=68271f2c-d116-4bee-8e06-9f87e5a7a022"},"vehicle_type_id":"4","last_reported":1752549801,"current_range_meters":12400,"station_id":"ce4bh312rcd13ifvqdk0","pricing_plan_id":"cebpf4jnsgd1na2vs0mg"},{"bike_id":"f83ab5f8-537f-4add-838c-741a759ed6a0","system_id":"levelo_inurba_marseille","lat":43.27553,"lon":5.38409,"is_reserved":false,"is_disabled":false,"rental_uris":{"android":"levelo://app?vid=f83ab5f8-537f-4add-838c-741a759ed6a0","ios":"levelo://app?vid=f83ab5f8-537f-4add-838c-741a759ed6a0"},"vehicle_type_id":"4","last_reported":1752549801,"current_range_meters":12400,"station_id":"ce4bhh92rcd13ifvqfi0","pricing_plan_id":"cebpf4jnsgd1na2vs0mg"},{"bike_id":"51cd20e2-eeba-4787-b9f9-634f599370d2","system_id":"levelo_inurba_marseille","lat":43.313402,"lon":5.397137,"is_reserved":false,"is_disabled":false,"rental_uris":{"android":"levelo://app?vid=51cd20e2-eeba-4787-b9f9-634f599370d2","ios":"levelo://app?vid=51cd20e2-eeba-4787-b9f9-634f599370d2"},"vehicle_type_id":"4","last_reported":1752549801,"current_range_meters":12400,"station_id":"ce4bgvp2rcd13ifvqcu0","pricing_plan_id":"cebpf4jnsgd1na2vs0mg"},{"bike_id":"8053f077-b52b-4691-8d72-af68fa753bbf","system_id":"levelo_inurba_marseille","lat":43.30243,"lon":5.40055,"is_reserved":false,"is_disabled":false,"rental_uris":{"android":"levelo://app?vid=8053f077-b52b-4691-8d72-af68fa753bbf","ios":"levelo://app?vid=8053f077-b52b-4691-8d72-af68fa753bbf"},"vehicle_type_id":"4","last_reported":1752549801,"current_range_meters":12800,"station_id":"ce4bgvh2rcd13ifvqcs0","pricing_plan_id":"cebpf4jnsgd1na2vs0mg"},{"bike_id":"41e47ab4-31d6-4e54-b9bb-9741e0f94162","system_id":"levelo_inurba_marseille","lat":43.2294,"lon":5.35383,"is_reserved":false,"is_disabled":false,"rental_uris":{"android":"levelo://app?vid=41e47ab4-31d6-4e54-b9bb-9741e0f94162","ios":"levelo://app?vid=41e47ab4-31d6-4e54-b9bb-9741e0f94162"},"vehicle_type_id":"4","last_reported":1752549801,"current_range_meters":12800,"station_id":"cpo3532slgdg3j2ikp40","pricing_plan_id":"cebpf4jnsgd1na2vs0mg"},{"bike_id":"444a2545-9fe1-4670-a5c2-0b973281bb2b","system_id":"levelo_inurba_marseille","lat":43.302601,"lon":5.400805,"is_reserved":false,"is_disabled":false,"rental_uris":{"android":"levelo://app?vid=444a2545-9fe1-4670-a5c2-0b973281bb2b","ios":"levelo://app?vid=444a2545-9fe1-4670-a5c2-0b973281bb2b"},"vehicle_type_id":"4","last_reported":1752549801,"current_range_meters":12800,"station_id":"ce4bgvh2rcd13ifvqcs0","pricing_plan_id":"cebpf4jnsgd1na2vs0mg"},{"bike_id":"af1eb9db-514d-4b8f-85e5-450ef4483445","system_id":"levelo_inurba_marseille","lat":43.29581,"lon":5.39083,"is_reserved":false,"is_disabled":false,"rental_uris":{"android":"levelo://app?vid=af1eb9db-514d-4b8f-85e5-450ef4483445","ios":"levelo://app?vid=af1eb9db-514d-4b8f-85e5-450ef4483445"},"vehicle_type_id":"4","last_reported":1752549801,"current_range_meters":12800,"station_id":"","pricing_plan_id":"cebpf4jnsgd1na2vs0mg"},{"bike_id":"f9934618-8c45-4e8c-abb6-b76f1793039b","system_id":"levelo_inurba_marseille","lat":43.24066,"lon":5.37762,"is_reserved":false,"is_disabled":false,"rental_uris":{"android":"levelo://app?vid=f9934618-8c45-4e8c-abb6-b76f1793039b","ios":"levelo://app?vid=f9934618-8c45-4e8c-abb6-b76f1793039b"},"vehicle_type_id":"4","last_reported":1752549801,"current_range_meters":12800,"station_id":"ce4bhnp2rcd13ifvqgvg","pricing_plan_id":"cebpf4jnsgd1na2vs0mg"},{"bike_id":"92abda49-3ab7-4993-a4ee-dad11c1651fb","system_id":"levelo_inurba_marseille","lat":43.27829,"lon":5.40709,"is_reserved":false,"is_disabled":false,"rental_uris":{"android":"levelo://app?vid=92abda49-3ab7-4993-a4ee-dad11c1651fb","ios":"levelo://app?vid=92abda49-3ab7-4993-a4ee-dad11c1651fb"},"vehicle_type_id":"4","last_reported":1752549801,"current_range_meters":12800,"station_id":"ce4bhnh2rcd13ifvqgtg","pricing_plan_id":"cebpf4jnsgd1na2vs0mg"},{"bike_id":"47be2d0f-247f-4168-8434-9c41a69e5f6f","system_id":"levelo_inurba_marseille","lat":43.258642,"lon":5.398999,"is_reserved":false,"is_disabled":false,"rental_uris":{"android":"levelo://app?vid=47be2d0f-247f-4168-8434-9c41a69e5f6f","ios":"levelo://app?vid=47be2d0f-247f-4168-8434-9c41a69e5f6f"},"vehicle_type_id":"4","last_reported":1752549801,"current_range_meters":12800,"station_id":"ce4bhl92rcd13ifvqghg","pricing_plan_id":"cebpf4jnsgd1na2vs0mg"},{"bike_id":"44e10618-e1b8-4569-bc24-980853c4bf04","system_id":"levelo_inurba_marseille","lat":43.22947,"lon":5.35377,"is_reserved":false,"is_disabled":true,"rental_uris":{"android":"levelo://app?vid=44e10618-e1b8-4569-bc24-980853c4bf04","ios":"levelo://app?vid=44e10618-e1b8-4569-bc24-980853c4bf04"},"vehicle_type_id":"4","last_reported":1752549801,"current_range_meters":13600,"station_id":"cpo3532slgdg3j2ikp40","pricing_plan_id":"cebpf4jnsgd1na2vs0mg"},{"bike_id":"c4394d8c-8102-4300-bdb5-758262918af2","system_id":"levelo_inurba_marseille","lat":43.30936,"lon":5.40144,"is_reserved":false,"is_disabled":true,"rental_uris":{"android":"levelo://app?vid=c4394d8c-8102-4300-bdb5-758262918af2","ios":"levelo://app?vid=c4394d8c-8102-4300-bdb5-758262918af2"},"vehicle_type_id":"4","last_reported":1752549801,"current_range_meters":13600,"station_id":"ce4bgvp2rcd13ifvqct0","pricing_plan_id":"cebpf4jnsgd1na2vs0mg"},{"bike_id":"70b4ffb5-edda-4ad2-b17f-168b7d57906f","system_id":"levelo_inurba_marseille","lat":43.31695,"lon":5.376464,"is_reserved":false,"is_disabled":false,"rental_uris":{"android":"levelo://app?vid=70b4ffb5-edda-4ad2-b17f-168b7d57906f","ios":"levelo://app?vid=70b4ffb5-edda-4ad2-b17f-168b7d57906f"},"vehicle_type_id":"4","last_reported":1752549801,"current_range_meters":13600,"station_id":"","pricing_plan_id":"cebpf4jnsgd1na2vs0mg"},{"bike_id":"96404d04-512d-4e45-b57c-350a79134d38","system_id":"levelo_inurba_marseille","lat":43.21189,"lon":5.3507,"is_reserved":false,"is_disabled":false,"rental_uris":{"android":"levelo://app?vid=96404d04-512d-4e45-b57c-350a79134d38","ios":"levelo://app?vid=96404d04-512d-4e45-b57c-350a79134d38"},"vehicle_type_id":"4","last_reported":1752549801,"current_range_meters":13600,"station_id":"st_cvj6sg6p6f1abm77japg","pricing_plan_id":"cebpf4jnsgd1na2vs0mg"},{"bike_id":"c8fc0d4f-f5e3-43b6-bbb9-d36f0cddea1e","system_id":"levelo_inurba_marseille","lat":43.31075,"lon":5.38352,"is_reserved":false,"is_disabled":false,"rental_uris":{"android":"levelo://app?vid=c8fc0d4f-f5e3-43b6-bbb9-d36f0cddea1e","ios":"levelo://app?vid=c8fc0d4f-f5e3-43b6-bbb9-d36f0cddea1e"},"vehicle_type_id":"4","last_reported":1752549801,"current_range_meters":13600,"station_id":"ce4bgv92rcd13ifvqcr0","pricing_plan_id":"cebpf4jnsgd1na2vs0mg"},{"bike_id":"5b4907f8-5f47-4ce5-ab03-6f51d8f8736a","system_id":"levelo_inurba_marseille","lat":43.255022,"lon":5.376487,"is_reserved":false,"is_disabled":false,"rental_uris":{"android":"levelo://app?vid=5b4907f8-5f47-4ce5-ab03-6f51d8f8736a","ios":"levelo://app?vid=5b4907f8-5f47-4ce5-ab03-6f51d8f8736a"},"vehicle_type_id":"4","last_reported":1752549801,"current_range_meters":13600,"station_id":"ce4bhih2rcd13ifvqfs0","pricing_plan_id":"cebpf4jnsgd1na2vs0mg"},{"bike_id":"1e893d1c-0142-4ecb-aff9-46308c98c984","system_id":"levelo_inurba_marseille","lat":43.28435,"lon":5.39194,"is_reserved":false,"is_disabled":false,"rental_uris":{"android":"levelo://app?vid=1e893d1c-0142-4ecb-aff9-46308c98c984","ios":"levelo://app?vid=1e893d1c-0142-4ecb-aff9-46308c98c984"},"vehicle_type_id":"4","last_reported":1752549801,"current_range_meters":14000,"station_id":"ce4bhoh2rcd13ifvqh5g","pricing_plan_id":"cebpf4jnsgd1na2vs0mg"},{"bike_id":"7da72a15-d4a5-40d8-9205-78a0a34f5247","system_id":"levelo_inurba_marseille","lat":43.248391,"lon":5.425258,"is_reserved":false,"is_disabled":false,"rental_uris":{"android":"levelo://app?vid=7da72a15-d4a5-40d8-9205-78a0a34f5247","ios":"levelo://app?vid=7da72a15-d4a5-40d8-9205-78a0a34f5247"},"vehicle_type_id":"4","last_reported":1752549801,"current_range_meters":14000,"station_id":"","pricing_plan_id":"cebpf4jnsgd1na2vs0mg"},{"bike_id":"040071ac-8221-44b8-9802-a9a819218150","system_id":"levelo_inurba_marseille","lat":43.269331,"lon":5.4026,"is_reserved":false,"is_disabled":false,"rental_uris":{"android":"levelo://app?vid=040071ac-8221-44b8-9802-a9a819218150","ios":"levelo://app?vid=040071ac-8221-44b8-9802-a9a819218150"},"vehicle_type_id":"4","last_reported":1752549801,"current_range_meters":14000,"station_id":"cjm6bp8fraef2m0cb0m0","pricing_plan_id":"cebpf4jnsgd1na2vs0mg"},{"bike_id":"d0f90c24-dd03-411b-9731-55305f76b7c8","system_id":"levelo_inurba_marseille","lat":43.21199,"lon":5.3507,"is_reserved":false,"is_disabled":false,"rental_uris":{"android":"levelo://app?vid=d0f90c24-dd03-411b-9731-55305f76b7c8","ios":"levelo://app?vid=d0f90c24-dd03-411b-9731-55305f76b7c8"},"vehicle_type_id":"4","last_reported":1752549801,"current_range_meters":14000,"station_id":"st_cvj6sg6p6f1abm77japg","pricing_plan_id":"cebpf4jnsgd1na2vs0mg"},{"bike_id":"aac218cd-f764-48c5-a074-bf8aa6e2343a","system_id":"levelo_inurba_marseille","lat":43.231488,"lon":5.437078,"is_reserved":false,"is_disabled":false,"rental_uris":{"android":"levelo://app?vid=aac218cd-f764-48c5-a074-bf8aa6e2343a","ios":"levelo://app?vid=aac218cd-f764-48c5-a074-bf8aa6e2343a"},"vehicle_type_id":"4","last_reported":1752549801,"current_range_meters":14000,"station_id":"ce4bhmp2rcd13ifvqgog","pricing_plan_id":"cebpf4jnsgd1na2vs0mg"},{"bike_id":"1fee386a-4b32-4a67-9474-f50b228f909b","system_id":"levelo_inurba_marseille","lat":43.31171,"lon":5.38711,"is_reserved":false,"is_disabled":false,"rental_uris":{"android":"levelo://app?vid=1fee386a-4b32-4a67-9474-f50b228f909b","ios":"levelo://app?vid=1fee386a-4b32-4a67-9474-f50b228f909b"},"vehicle_type_id":"4","last_reported":1752549801,"current_range_meters":14000,"station_id":"ce4bgv12rcd13ifvqcp0","pricing_plan_id":"cebpf4jnsgd1na2vs0mg"},{"bike_id":"7cbad297-5ffd-4c4b-942f-f29161424c4d","system_id":"levelo_inurba_marseille","lat":43.279397,"lon":5.410475,"is_reserved":false,"is_disabled":false,"rental_uris":{"android":"levelo://app?vid=7cbad297-5ffd-4c4b-942f-f29161424c4d","ios":"levelo://app?vid=7cbad297-5ffd-4c4b-942f-f29161424c4d"},"vehicle_type_id":"4","last_reported":1752549801,"current_range_meters":14000,"station_id":"ce4bhnp2rcd13ifvqh0g","pricing_plan_id":"cebpf4jnsgd1na2vs0mg"},{"bike_id":"459f21fb-410d-45c7-bf60-9f57d1ac5b1b","system_id":"levelo_inurba_marseille","lat":43.31295,"lon":5.4012,"is_reserved":false,"is_disabled":false,"rental_uris":{"android":"levelo://app?vid=459f21fb-410d-45c7-bf60-9f57d1ac5b1b","ios":"levelo://app?vid=459f21fb-410d-45c7-bf60-9f57d1ac5b1b"},"vehicle_type_id":"4","last_reported":1752549801,"current_range_meters":14000,"station_id":"","pricing_plan_id":"cebpf4jnsgd1na2vs0mg"},{"bike_id":"bfd767b4-91ae-42f6-b36e-cd64a9008542","system_id":"levelo_inurba_marseille","lat":43.30167,"lon":5.38086,"is_reserved":false,"is_disabled":false,"rental_uris":{"android":"levelo://app?vid=bfd767b4-91ae-42f6-b36e-cd64a9008542","ios":"levelo://app?vid=bfd767b4-91ae-42f6-b36e-cd64a9008542"},"vehicle_type_id":"4","last_reported":1752549801,"current_range_meters":14400,"station_id":"ce4bgjp2rcd13ifvqbh0","pricing_plan_id":"cebpf4jnsgd1na2vs0mg"},{"bike_id":"a6161f00-9567-4b39-be88-00a6c8170cb7","system_id":"levelo_inurba_marseille","lat":43.29286,"lon":5.37453,"is_reserved":false,"is_disabled":true,"rental_uris":{"android":"levelo://app?vid=a6161f00-9567-4b39-be88-00a6c8170cb7","ios":"levelo://app?vid=a6161f00-9567-4b39-be88-00a6c8170cb7"},"vehicle_type_id":"4","last_reported":1752549801,"current_range_meters":14400,"station_id":"ce4bgi12rcd13ifvqb70","pricing_plan_id":"cebpf4jnsgd1na2vs0mg"},{"bike_id":"8a03bb38-8a60-494a-992c-4f369a92fc55","system_id":"levelo_inurba_marseille","lat":43.30411,"lon":5.41293,"is_reserved":false,"is_disabled":false,"rental_uris":{"android":"levelo://app?vid=8a03bb38-8a60-494a-992c-4f369a92fc55","ios":"levelo://app?vid=8a03bb38-8a60-494a-992c-4f369a92fc55"},"vehicle_type_id":"4","last_reported":1752549801,"current_range_meters":14400,"station_id":"ce4bhop2rcd13ifvqh8g","pricing_plan_id":"cebpf4jnsgd1na2vs0mg"},{"bike_id":"48a72147-d63a-4fad-9403-9184689656c8","system_id":"levelo_inurba_marseille","lat":43.2439,"lon":5.37055,"is_reserved":false,"is_disabled":true,"rental_uris":{"android":"levelo://app?vid=48a72147-d63a-4fad-9403-9184689656c8","ios":"levelo://app?vid=48a72147-d63a-4fad-9403-9184689656c8"},"vehicle_type_id":"4","last_reported":1752549801,"current_range_meters":14400,"station_id":"ce4bhhh2rcd13ifvqfk0","pricing_plan_id":"cebpf4jnsgd1na2vs0mg"},{"bike_id":"01beb3f2-c54f-4f68-af15-b28ae7c75196","system_id":"levelo_inurba_marseille","lat":43.301267,"lon":5.398898,"is_reserved":false,"is_disabled":true,"rental_uris":{"android":"levelo://app?vid=01beb3f2-c54f-4f68-af15-b28ae7c75196","ios":"levelo://app?vid=01beb3f2-c54f-4f68-af15-b28ae7c75196"},"vehicle_type_id":"4","last_reported":1752549801,"current_range_meters":14800,"station_id":"ce4bh0h2rcd13ifvqd40","pricing_plan_id":"cebpf4jnsgd1na2vs0mg"},{"bike_id":"86f04e14-74b3-421f-ae8d-8a505fd64d75","system_id":"levelo_inurba_marseille","lat":43.28688,"lon":5.39975,"is_reserved":false,"is_disabled":false,"rental_uris":{"android":"levelo://app?vid=86f04e14-74b3-421f-ae8d-8a505fd64d75","ios":"levelo://app?vid=86f04e14-74b3-421f-ae8d-8a505fd64d75"},"vehicle_type_id":"4","last_reported":1752549801,"current_range_meters":14800,"station_id":"ce4bho92rcd13ifvqh3g","pricing_plan_id":"cebpf4jnsgd1na2vs0mg"},{"bike_id":"6c6d4d9a-6141-481c-9c1a-8e61054bdc43","system_id":"levelo_inurba_marseille","lat":43.247855,"lon":5.418036,"is_reserved":false,"is_disabled":false,"rental_uris":{"android":"levelo://app?vid=6c6d4d9a-6141-481c-9c1a-8e61054bdc43","ios":"levelo://app?vid=6c6d4d9a-6141-481c-9c1a-8e61054bdc43"},"vehicle_type_id":"4","last_reported":1752549801,"current_range_meters":14800,"station_id":"","pricing_plan_id":"cebpf4jnsgd1na2vs0mg"},{"bike_id":"f10941ce-d19a-4475-b0ba-1c38d332727e","system_id":"levelo_inurba_marseille","lat":43.32156,"lon":5.38712,"is_reserved":false,"is_disabled":false,"rental_uris":{"android":"levelo://app?vid=f10941ce-d19a-4475-b0ba-1c38d332727e","ios":"levelo://app?vid=f10941ce-d19a-4475-b0ba-1c38d332727e"},"vehicle_type_id":"4","last_reported":1752549801,"current_range_meters":14800,"station_id":"","pricing_plan_id":"cebpf4jnsgd1na2vs0mg"},{"bike_id":"9abe87a0-4ff8-4da3-9ef8-ba0f0e19ecb1","system_id":"levelo_inurba_marseille","lat":43.302521,"lon":5.400704,"is_reserved":false,"is_disabled":false,"rental_uris":{"android":"levelo://app?vid=9abe87a0-4ff8-4da3-9ef8-ba0f0e19ecb1","ios":"levelo://app?vid=9abe87a0-4ff8-4da3-9ef8-ba0f0e19ecb1"},"vehicle_type_id":"4","last_reported":1752549801,"current_range_meters":14800,"station_id":"ce4bgvh2rcd13ifvqcs0","pricing_plan_id":"cebpf4jnsgd1na2vs0mg"},{"bike_id":"e604067d-3800-4ac2-9860-8fea46e837e8","system_id":"levelo_inurba_marseille","lat":43.265566,"lon":5.403342,"is_reserved":false,"is_disabled":true,"rental_uris":{"android":"levelo://app?vid=e604067d-3800-4ac2-9860-8fea46e837e8","ios":"levelo://app?vid=e604067d-3800-4ac2-9860-8fea46e837e8"},"vehicle_type_id":"4","last_reported":1752549801,"current_range_meters":14800,"station_id":"","pricing_plan_id":"cebpf4jnsgd1na2vs0mg"},{"bike_id":"eed1cff4-06e3-49f8-94e7-01af05866813","system_id":"levelo_inurba_marseille","lat":43.29638,"lon":5.40602,"is_reserved":false,"is_disabled":false,"rental_uris":{"android":"levelo://app?vid=eed1cff4-06e3-49f8-94e7-01af05866813","ios":"levelo://app?vid=eed1cff4-06e3-49f8-94e7-01af05866813"},"vehicle_type_id":"4","last_reported":1752549801,"current_range_meters":15200,"station_id":"ce4bh0h2rcd13ifvqd60","pricing_plan_id":"cebpf4jnsgd1na2vs0mg"},{"bike_id":"0d5129b0-0718-4a13-8059-32a7a02292cc","system_id":"levelo_inurba_marseille","lat":43.30465,"lon":5.37902,"is_reserved":false,"is_disabled":false,"rental_uris":{"android":"levelo://app?vid=0d5129b0-0718-4a13-8059-32a7a02292cc","ios":"levelo://app?vid=0d5129b0-0718-4a13-8059-32a7a02292cc"},"vehicle_type_id":"4","last_reported":1752549801,"current_range_meters":15200,"station_id":"ce4bgup2rcd13ifvqcn0","pricing_plan_id":"cebpf4jnsgd1na2vs0mg"},{"bike_id":"d7112c54-f9dc-425f-acf8-196623bf4ba2","system_id":"levelo_inurba_marseille","lat":43.240648,"lon":5.377652,"is_reserved":false,"is_disabled":false,"rental_uris":{"android":"levelo://app?vid=d7112c54-f9dc-425f-acf8-196623bf4ba2","ios":"levelo://app?vid=d7112c54-f9dc-425f-acf8-196623bf4ba2"},"vehicle_type_id":"4","last_reported":1752549801,"current_range_meters":15200,"station_id":"ce4bhnp2rcd13ifvqgvg","pricing_plan_id":"cebpf4jnsgd1na2vs0mg"},{"bike_id":"e4cc9422-b66a-4b54-b535-b17a3b695b97","system_id":"levelo_inurba_marseille","lat":43.28362,"lon":5.37389,"is_reserved":false,"is_disabled":false,"rental_uris":{"android":"levelo://app?vid=e4cc9422-b66a-4b54-b535-b17a3b695b97","ios":"levelo://app?vid=e4cc9422-b66a-4b54-b535-b17a3b695b97"},"vehicle_type_id":"4","last_reported":1752549801,"current_range_meters":15200,"station_id":"","pricing_plan_id":"cebpf4jnsgd1na2vs0mg"},{"bike_id":"c3eb31c9-e106-4cd2-bb91-f2d0ee3e7a6f","system_id":"levelo_inurba_marseille","lat":43.24025,"lon":5.36246,"is_reserved":false,"is_disabled":false,"rental_uris":{"android":"levelo://app?vid=c3eb31c9-e106-4cd2-bb91-f2d0ee3e7a6f","ios":"levelo://app?vid=c3eb31c9-e106-4cd2-bb91-f2d0ee3e7a6f"},"vehicle_type_id":"4","last_reported":1752549801,"current_range_meters":15200,"station_id":"","pricing_plan_id":"cebpf4jnsgd1na2vs0mg"},{"bike_id":"69b858da-be64-415e-b050-fb498189d3c3","system_id":"levelo_inurba_marseille","lat":43.24551,"lon":5.39517,"is_reserved":false,"is_disabled":false,"rental_uris":{"android":"levelo://app?vid=69b858da-be64-415e-b050-fb498189d3c3","ios":"levelo://app?vid=69b858da-be64-415e-b050-fb498189d3c3"},"vehicle_type_id":"4","last_reported":1752549801,"current_range_meters":16000,"station_id":"ce4bhlp2rcd13ifvqgjg","pricing_plan_id":"cebpf4jnsgd1na2vs0mg"},{"bike_id":"8017085f-d27f-49fc-a294-412551452c92","system_id":"levelo_inurba_marseille","lat":43.24644,"lon":5.38886,"is_reserved":false,"is_disabled":false,"rental_uris":{"android":"levelo://app?vid=8017085f-d27f-49fc-a294-412551452c92","ios":"levelo://app?vid=8017085f-d27f-49fc-a294-412551452c92"},"vehicle_type_id":"4","last_reported":1752549801,"current_range_meters":16000,"station_id":"ce4bhg12rcd13ifvqf60","pricing_plan_id":"cebpf4jnsgd1na2vs0mg"},{"bike_id":"f4a31c7a-7463-4205-aa02-aaaaf824cb91","system_id":"levelo_inurba_marseille","lat":43.30418,"lon":5.39767,"is_reserved":false,"is_disabled":false,"rental_uris":{"android":"levelo://app?vid=f4a31c7a-7463-4205-aa02-aaaaf824cb91","ios":"levelo://app?vid=f4a31c7a-7463-4205-aa02-aaaaf824cb91"},"vehicle_type_id":"4","last_reported":1752549801,"current_range_meters":16000,"station_id":"ce4bh092rcd13ifvqd20","pricing_plan_id":"cebpf4jnsgd1na2vs0mg"},{"bike_id":"a72d9231-baa1-4fa7-bcc4-da211e370fd2","system_id":"levelo_inurba_marseille","lat":43.303218,"lon":5.404476,"is_reserved":false,"is_disabled":false,"rental_uris":{"android":"levelo://app?vid=a72d9231-baa1-4fa7-bcc4-da211e370fd2","ios":"levelo://app?vid=a72d9231-baa1-4fa7-bcc4-da211e370fd2"},"vehicle_type_id":"4","last_reported":1752549801,"current_range_meters":16000,"station_id":"ce4bh012rcd13ifvqd10","pricing_plan_id":"cebpf4jnsgd1na2vs0mg"},{"bike_id":"00c03d2c-c3d1-457c-84f6-45dff552e5ca","system_id":"levelo_inurba_marseille","lat":43.30326,"lon":5.404501,"is_reserved":false,"is_disabled":false,"rental_uris":{"android":"levelo://app?vid=00c03d2c-c3d1-457c-84f6-45dff552e5ca","ios":"levelo://app?vid=00c03d2c-c3d1-457c-84f6-45dff552e5ca"},"vehicle_type_id":"4","last_reported":1752549801,"current_range_meters":16000,"station_id":"ce4bh012rcd13ifvqd10","pricing_plan_id":"cebpf4jnsgd1na2vs0mg"},{"bike_id":"2a74c118-5915-42ae-a5b6-acad51f5ceb5","system_id":"levelo_inurba_marseille","lat":43.275671,"lon":5.384331,"is_reserved":false,"is_disabled":true,"rental_uris":{"android":"levelo://app?vid=2a74c118-5915-42ae-a5b6-acad51f5ceb5","ios":"levelo://app?vid=2a74c118-5915-42ae-a5b6-acad51f5ceb5"},"vehicle_type_id":"4","last_reported":1752549801,"current_range_meters":16000,"station_id":"ce4bhh92rcd13ifvqfi0","pricing_plan_id":"cebpf4jnsgd1na2vs0mg"},{"bike_id":"4a5d9d05-48ae-40f2-bd5d-7eaf0f868d5e","system_id":"levelo_inurba_marseille","lat":43.28735,"lon":5.39969,"is_reserved":false,"is_disabled":false,"rental_uris":{"android":"levelo://app?vid=4a5d9d05-48ae-40f2-bd5d-7eaf0f868d5e","ios":"levelo://app?vid=4a5d9d05-48ae-40f2-bd5d-7eaf0f868d5e"},"vehicle_type_id":"4","last_reported":1752549801,"current_range_meters":16000,"station_id":"ce4bho92rcd13ifvqh3g","pricing_plan_id":"cebpf4jnsgd1na2vs0mg"},{"bike_id":"e7694aae-87cd-4d01-8385-5e25413145a6","system_id":"levelo_inurba_marseille","lat":43.31278,"lon":5.40177,"is_reserved":false,"is_disabled":false,"rental_uris":{"android":"levelo://app?vid=e7694aae-87cd-4d01-8385-5e25413145a6","ios":"levelo://app?vid=e7694aae-87cd-4d01-8385-5e25413145a6"},"vehicle_type_id":"4","last_reported":1752549801,"current_range_meters":16400,"station_id":"ce4bh092rcd13ifvqd30","pricing_plan_id":"cebpf4jnsgd1na2vs0mg"},{"bike_id":"d199b05c-bf49-40ff-8185-8d98f4140722","system_id":"levelo_inurba_marseille","lat":43.331476,"lon":5.381716,"is_reserved":false,"is_disabled":false,"rental_uris":{"android":"levelo://app?vid=d199b05c-bf49-40ff-8185-8d98f4140722","ios":"levelo://app?vid=d199b05c-bf49-40ff-8185-8d98f4140722"},"vehicle_type_id":"4","last_reported":1752549801,"current_range_meters":16400,"station_id":"","pricing_plan_id":"cebpf4jnsgd1na2vs0mg"},{"bike_id":"80cb9c3f-167c-4e69-b11a-2c005b78e2dd","system_id":"levelo_inurba_marseille","lat":43.246635,"lon":5.381668,"is_reserved":false,"is_disabled":false,"rental_uris":{"android":"levelo://app?vid=80cb9c3f-167c-4e69-b11a-2c005b78e2dd","ios":"levelo://app?vid=80cb9c3f-167c-4e69-b11a-2c005b78e2dd"},"vehicle_type_id":"4","last_reported":1752549801,"current_range_meters":16400,"station_id":"ce4bhih2rcd13ifvqfr0","pricing_plan_id":"cebpf4jnsgd1na2vs0mg"},{"bike_id":"9c6b3a09-9422-4986-a81f-a7a9a126b0ad","system_id":"levelo_inurba_marseille","lat":43.23146,"lon":5.43713,"is_reserved":false,"is_disabled":false,"rental_uris":{"android":"levelo://app?vid=9c6b3a09-9422-4986-a81f-a7a9a126b0ad","ios":"levelo://app?vid=9c6b3a09-9422-4986-a81f-a7a9a126b0ad"},"vehicle_type_id":"4","last_reported":1752549801,"current_range_meters":16400,"station_id":"ce4bhmp2rcd13ifvqgog","pricing_plan_id":"cebpf4jnsgd1na2vs0mg"},{"bike_id":"3be7fe04-c061-4e14-8732-723ce4fb3a5e","system_id":"levelo_inurba_marseille","lat":43.302431,"lon":5.400636,"is_reserved":false,"is_disabled":false,"rental_uris":{"android":"levelo://app?vid=3be7fe04-c061-4e14-8732-723ce4fb3a5e","ios":"levelo://app?vid=3be7fe04-c061-4e14-8732-723ce4fb3a5e"},"vehicle_type_id":"4","last_reported":1752549801,"current_range_meters":16400,"station_id":"ce4bgvh2rcd13ifvqcs0","pricing_plan_id":"cebpf4jnsgd1na2vs0mg"},{"bike_id":"6a5bdfb5-44e8-42af-a1d8-aada0ea5cffd","system_id":"levelo_inurba_marseille","lat":43.29269,"lon":5.40146,"is_reserved":false,"is_disabled":false,"rental_uris":{"android":"levelo://app?vid=6a5bdfb5-44e8-42af-a1d8-aada0ea5cffd","ios":"levelo://app?vid=6a5bdfb5-44e8-42af-a1d8-aada0ea5cffd"},"vehicle_type_id":"4","last_reported":1752549801,"current_range_meters":16400,"station_id":"ce4bh312rcd13ifvqdk0","pricing_plan_id":"cebpf4jnsgd1na2vs0mg"},{"bike_id":"9401489b-1dbd-41fd-bf28-67219a0b7501","system_id":"levelo_inurba_marseille","lat":43.27849,"lon":5.392139,"is_reserved":false,"is_disabled":false,"rental_uris":{"android":"levelo://app?vid=9401489b-1dbd-41fd-bf28-67219a0b7501","ios":"levelo://app?vid=9401489b-1dbd-41fd-bf28-67219a0b7501"},"vehicle_type_id":"4","last_reported":1752549801,"current_range_meters":16400,"station_id":"ce4bhjp2rcd13ifvqga0","pricing_plan_id":"cebpf4jnsgd1na2vs0mg"},{"bike_id":"d7159adf-94a3-498c-948b-458c9b026277","system_id":"levelo_inurba_marseille","lat":43.22541,"lon":5.34769,"is_reserved":false,"is_disabled":false,"rental_uris":{"android":"levelo://app?vid=d7159adf-94a3-498c-948b-458c9b026277","ios":"levelo://app?vid=d7159adf-94a3-498c-948b-458c9b026277"},"vehicle_type_id":"4","last_reported":1752549801,"current_range_meters":16400,"station_id":"","pricing_plan_id":"cebpf4jnsgd1na2vs0mg"},{"bike_id":"6b665749-5d83-4001-bfa6-ddbce97a8df7","system_id":"levelo_inurba_marseille","lat":43.23961,"lon":5.36631,"is_reserved":false,"is_disabled":false,"rental_uris":{"android":"levelo://app?vid=6b665749-5d83-4001-bfa6-ddbce97a8df7","ios":"levelo://app?vid=6b665749-5d83-4001-bfa6-ddbce97a8df7"},"vehicle_type_id":"4","last_reported":1752549801,"current_range_meters":16400,"station_id":"ce4bhi12rcd13ifvqfp0","pricing_plan_id":"cebpf4jnsgd1na2vs0mg"},{"bike_id":"b9ef5644-3552-4bd7-b115-207a87496a46","system_id":"levelo_inurba_marseille","lat":43.290421,"lon":5.359118,"is_reserved":false,"is_disabled":false,"rental_uris":{"android":"levelo://app?vid=b9ef5644-3552-4bd7-b115-207a87496a46","ios":"levelo://app?vid=b9ef5644-3552-4bd7-b115-207a87496a46"},"vehicle_type_id":"4","last_reported":1752549801,"current_range_meters":16400,"station_id":"","pricing_plan_id":"cebpf4jnsgd1na2vs0mg"},{"bike_id":"91f2e64c-5e58-4cbe-bcb8-ad381a890820","system_id":"levelo_inurba_marseille","lat":43.28708,"lon":5.39989,"is_reserved":false,"is_disabled":false,"rental_uris":{"android":"levelo://app?vid=91f2e64c-5e58-4cbe-bcb8-ad381a890820","ios":"levelo://app?vid=91f2e64c-5e58-4cbe-bcb8-ad381a890820"},"vehicle_type_id":"4","last_reported":1752549801,"current_range_meters":16000,"station_id":"ce4bho92rcd13ifvqh3g","pricing_plan_id":"cebpf4jnsgd1na2vs0mg"},{"bike_id":"403880bc-8bea-46f6-8a81-b7f6860118ac","system_id":"levelo_inurba_marseille","lat":43.29256,"lon":5.38451,"is_reserved":false,"is_disabled":true,"rental_uris":{"android":"levelo://app?vid=403880bc-8bea-46f6-8a81-b7f6860118ac","ios":"levelo://app?vid=403880bc-8bea-46f6-8a81-b7f6860118ac"},"vehicle_type_id":"4","last_reported":1752549801,"current_range_meters":16400,"station_id":"ce4bh692rcd13ifvqea0","pricing_plan_id":"cebpf4jnsgd1na2vs0mg"},{"bike_id":"de3c7479-ad03-448f-a78e-88898eddd51a","system_id":"levelo_inurba_marseille","lat":43.329655,"lon":5.397446,"is_reserved":false,"is_disabled":false,"rental_uris":{"android":"levelo://app?vid=de3c7479-ad03-448f-a78e-88898eddd51a","ios":"levelo://app?vid=de3c7479-ad03-448f-a78e-88898eddd51a"},"vehicle_type_id":"4","last_reported":1752549801,"current_range_meters":16800,"station_id":"","pricing_plan_id":"cebpf4jnsgd1na2vs0mg"},{"bike_id":"903197e4-3da2-471b-9537-d88bae7e31c4","system_id":"levelo_inurba_marseille","lat":43.26489,"lon":5.39547,"is_reserved":false,"is_disabled":true,"rental_uris":{"android":"levelo://app?vid=903197e4-3da2-471b-9537-d88bae7e31c4","ios":"levelo://app?vid=903197e4-3da2-471b-9537-d88bae7e31c4"},"vehicle_type_id":"4","last_reported":1752549801,"current_range_meters":16800,"station_id":"ce4bhi12rcd13ifvqfq0","pricing_plan_id":"cebpf4jnsgd1na2vs0mg"},{"bike_id":"8c13824d-337d-4a6c-afdf-ac2b2456af5d","system_id":"levelo_inurba_marseille","lat":43.279179,"lon":5.395806,"is_reserved":false,"is_disabled":false,"rental_uris":{"android":"levelo://app?vid=8c13824d-337d-4a6c-afdf-ac2b2456af5d","ios":"levelo://app?vid=8c13824d-337d-4a6c-afdf-ac2b2456af5d"},"vehicle_type_id":"4","last_reported":1752549801,"current_range_meters":16800,"station_id":"ce4bhf92rcd13ifvqf40","pricing_plan_id":"cebpf4jnsgd1na2vs0mg"},{"bike_id":"90d8578f-7619-4279-84b6-4ed88aa377e2","system_id":"levelo_inurba_marseille","lat":43.21188,"lon":5.35084,"is_reserved":false,"is_disabled":false,"rental_uris":{"android":"levelo://app?vid=90d8578f-7619-4279-84b6-4ed88aa377e2","ios":"levelo://app?vid=90d8578f-7619-4279-84b6-4ed88aa377e2"},"vehicle_type_id":"4","last_reported":1752549801,"current_range_meters":16800,"station_id":"st_cvj6sg6p6f1abm77japg","pricing_plan_id":"cebpf4jnsgd1na2vs0mg"},{"bike_id":"590e8a59-7dcc-42c4-80cd-31312d6a701b","system_id":"levelo_inurba_marseille","lat":43.23193,"lon":5.35552,"is_reserved":false,"is_disabled":true,"rental_uris":{"android":"levelo://app?vid=590e8a59-7dcc-42c4-80cd-31312d6a701b","ios":"levelo://app?vid=590e8a59-7dcc-42c4-80cd-31312d6a701b"},"vehicle_type_id":"4","last_reported":1752549801,"current_range_meters":16800,"station_id":"ce4bhu92rcd13ifvqi70","pricing_plan_id":"cebpf4jnsgd1na2vs0mg"},{"bike_id":"da29be3c-81ee-41d8-95eb-47bda3d4de6c","system_id":"levelo_inurba_marseille","lat":43.27549,"lon":5.3844,"is_reserved":false,"is_disabled":false,"rental_uris":{"android":"levelo://app?vid=da29be3c-81ee-41d8-95eb-47bda3d4de6c","ios":"levelo://app?vid=da29be3c-81ee-41d8-95eb-47bda3d4de6c"},"vehicle_type_id":"4","last_reported":1752549801,"current_range_meters":16800,"station_id":"ce4bhh92rcd13ifvqfi0","pricing_plan_id":"cebpf4jnsgd1na2vs0mg"},{"bike_id":"7bce7a34-5113-458d-9330-3d00164f4612","system_id":"levelo_inurba_marseille","lat":43.21196,"lon":5.35064,"is_reserved":false,"is_disabled":false,"rental_uris":{"android":"levelo://app?vid=7bce7a34-5113-458d-9330-3d00164f4612","ios":"levelo://app?vid=7bce7a34-5113-458d-9330-3d00164f4612"},"vehicle_type_id":"4","last_reported":1752549801,"current_range_meters":16800,"station_id":"st_cvj6sg6p6f1abm77japg","pricing_plan_id":"cebpf4jnsgd1na2vs0mg"},{"bike_id":"df0527da-c1eb-410d-9133-b6454f909497","system_id":"levelo_inurba_marseille","lat":43.279527,"lon":5.391683,"is_reserved":false,"is_disabled":false,"rental_uris":{"android":"levelo://app?vid=df0527da-c1eb-410d-9133-b6454f909497","ios":"levelo://app?vid=df0527da-c1eb-410d-9133-b6454f909497"},"vehicle_type_id":"4","last_reported":1752549801,"current_range_meters":16800,"station_id":"","pricing_plan_id":"cebpf4jnsgd1na2vs0mg"},{"bike_id":"2bcc0ed5-261b-4e84-bfe4-ce2479b810f6","system_id":"levelo_inurba_marseille","lat":43.284114,"lon":5.375229,"is_reserved":false,"is_disabled":true,"rental_uris":{"android":"levelo://app?vid=2bcc0ed5-261b-4e84-bfe4-ce2479b810f6","ios":"levelo://app?vid=2bcc0ed5-261b-4e84-bfe4-ce2479b810f6"},"vehicle_type_id":"4","last_reported":1752549801,"current_range_meters":16800,"station_id":"ce4bh412rcd13ifvqds0","pricing_plan_id":"cebpf4jnsgd1na2vs0mg"},{"bike_id":"a77a1055-66ff-4dd7-9fc9-75ab162615db","system_id":"levelo_inurba_marseille","lat":43.25118,"lon":5.4032,"is_reserved":false,"is_disabled":false,"rental_uris":{"android":"levelo://app?vid=a77a1055-66ff-4dd7-9fc9-75ab162615db","ios":"levelo://app?vid=a77a1055-66ff-4dd7-9fc9-75ab162615db"},"vehicle_type_id":"4","last_reported":1752549801,"current_range_meters":16800,"station_id":"ce4bhlh2rcd13ifvqgig","pricing_plan_id":"cebpf4jnsgd1na2vs0mg"},{"bike_id":"36fe69a3-bcb1-4181-8ed6-b93e807e4e94","system_id":"levelo_inurba_marseille","lat":43.31687,"lon":5.40465,"is_reserved":false,"is_disabled":false,"rental_uris":{"android":"levelo://app?vid=36fe69a3-bcb1-4181-8ed6-b93e807e4e94","ios":"levelo://app?vid=36fe69a3-bcb1-4181-8ed6-b93e807e4e94"},"vehicle_type_id":"4","last_reported":1752549801,"current_range_meters":16800,"station_id":"ce4bh012rcd13ifvqd00","pricing_plan_id":"cebpf4jnsgd1na2vs0mg"},{"bike_id":"a043714e-0ca7-4bd2-9fac-0a949ab5c01f","system_id":"levelo_inurba_marseille","lat":43.28182,"lon":5.42351,"is_reserved":false,"is_disabled":false,"rental_uris":{"android":"levelo://app?vid=a043714e-0ca7-4bd2-9fac-0a949ab5c01f","ios":"levelo://app?vid=a043714e-0ca7-4bd2-9fac-0a949ab5c01f"},"vehicle_type_id":"4","last_reported":1752549801,"current_range_meters":16800,"station_id":"","pricing_plan_id":"cebpf4jnsgd1na2vs0mg"},{"bike_id":"277581c9-02e8-4d56-838d-c73954e3b9c5","system_id":"levelo_inurba_marseille","lat":43.27002,"lon":5.38752,"is_reserved":false,"is_disabled":false,"rental_uris":{"android":"levelo://app?vid=277581c9-02e8-4d56-838d-c73954e3b9c5","ios":"levelo://app?vid=277581c9-02e8-4d56-838d-c73954e3b9c5"},"vehicle_type_id":"4","last_reported":1752549801,"current_range_meters":16800,"station_id":"","pricing_plan_id":"cebpf4jnsgd1na2vs0mg"},{"bike_id":"fe38fcda-be18-4a6d-9386-5071ca1609b6","system_id":"levelo_inurba_marseille","lat":43.231867,"lon":5.355682,"is_reserved":false,"is_disabled":true,"rental_uris":{"android":"levelo://app?vid=fe38fcda-be18-4a6d-9386-5071ca1609b6","ios":"levelo://app?vid=fe38fcda-be18-4a6d-9386-5071ca1609b6"},"vehicle_type_id":"4","last_reported":1752549801,"current_range_meters":16800,"station_id":"ce4bhu92rcd13ifvqi70","pricing_plan_id":"cebpf4jnsgd1na2vs0mg"},{"bike_id":"c306374e-01c3-4238-8942-74ee598c6413","system_id":"levelo_inurba_marseille","lat":43.28717,"lon":5.37385,"is_reserved":false,"is_disabled":false,"rental_uris":{"android":"levelo://app?vid=c306374e-01c3-4238-8942-74ee598c6413","ios":"levelo://app?vid=c306374e-01c3-4238-8942-74ee598c6413"},"vehicle_type_id":"4","last_reported":1752549801,"current_range_meters":17200,"station_id":"ce4bh3p2rcd13ifvqdq0","pricing_plan_id":"cebpf4jnsgd1na2vs0mg"},{"bike_id":"8a9f8ceb-0274-4ada-8a43-1bc35cd2deb7","system_id":"levelo_inurba_marseille","lat":43.28945,"lon":5.36622,"is_reserved":false,"is_disabled":true,"rental_uris":{"android":"levelo://app?vid=8a9f8ceb-0274-4ada-8a43-1bc35cd2deb7","ios":"levelo://app?vid=8a9f8ceb-0274-4ada-8a43-1bc35cd2deb7"},"vehicle_type_id":"4","last_reported":1752549801,"current_range_meters":17200,"station_id":"ce4bhap2rcd13ifvqek0","pricing_plan_id":"cebpf4jnsgd1na2vs0mg"},{"bike_id":"c26b5803-1934-443f-a178-b5a6c19165be","system_id":"levelo_inurba_marseille","lat":43.29912,"lon":5.38127,"is_reserved":false,"is_disabled":true,"rental_uris":{"android":"levelo://app?vid=c26b5803-1934-443f-a178-b5a6c19165be","ios":"levelo://app?vid=c26b5803-1934-443f-a178-b5a6c19165be"},"vehicle_type_id":"4","last_reported":1752549801,"current_range_meters":17200,"station_id":"ce4bgj12rcd13ifvqbc0","pricing_plan_id":"cebpf4jnsgd1na2vs0mg"},{"bike_id":"474d0eb6-38ba-4a3d-b185-eec1551078f4","system_id":"levelo_inurba_marseille","lat":43.27603,"lon":5.36108,"is_reserved":false,"is_disabled":true,"rental_uris":{"android":"levelo://app?vid=474d0eb6-38ba-4a3d-b185-eec1551078f4","ios":"levelo://app?vid=474d0eb6-38ba-4a3d-b185-eec1551078f4"},"vehicle_type_id":"4","last_reported":1752549801,"current_range_meters":17200,"station_id":"ce4bgj92rcd13ifvqbe0","pricing_plan_id":"cebpf4jnsgd1na2vs0mg"},{"bike_id":"e5efa8ab-520d-4d7d-b449-17ab56a985cc","system_id":"levelo_inurba_marseille","lat":43.278343,"lon":5.392041,"is_reserved":false,"is_disabled":false,"rental_uris":{"android":"levelo://app?vid=e5efa8ab-520d-4d7d-b449-17ab56a985cc","ios":"levelo://app?vid=e5efa8ab-520d-4d7d-b449-17ab56a985cc"},"vehicle_type_id":"4","last_reported":1752549801,"current_range_meters":17200,"station_id":"ce4bhjp2rcd13ifvqga0","pricing_plan_id":"cebpf4jnsgd1na2vs0mg"},{"bike_id":"18059574-f419-4b53-987d-800aa8e823e7","system_id":"levelo_inurba_marseille","lat":43.30939,"lon":5.40143,"is_reserved":false,"is_disabled":false,"rental_uris":{"android":"levelo://app?vid=18059574-f419-4b53-987d-800aa8e823e7","ios":"levelo://app?vid=18059574-f419-4b53-987d-800aa8e823e7"},"vehicle_type_id":"4","last_reported":1752549801,"current_range_meters":17200,"station_id":"ce4bgvp2rcd13ifvqct0","pricing_plan_id":"cebpf4jnsgd1na2vs0mg"},{"bike_id":"cc23e393-90a1-41a8-a961-60a5347dd9e2","system_id":"levelo_inurba_marseille","lat":43.28842,"lon":5.393,"is_reserved":false,"is_disabled":false,"rental_uris":{"android":"levelo://app?vid=cc23e393-90a1-41a8-a961-60a5347dd9e2","ios":"levelo://app?vid=cc23e393-90a1-41a8-a961-60a5347dd9e2"},"vehicle_type_id":"4","last_reported":1752549801,"current_range_meters":17200,"station_id":"ce4bh2p2rcd13ifvqdi0","pricing_plan_id":"cebpf4jnsgd1na2vs0mg"},{"bike_id":"09a93a64-fbb1-49a9-be1f-f86a34310e71","system_id":"levelo_inurba_marseille","lat":43.21204,"lon":5.35077,"is_reserved":false,"is_disabled":false,"rental_uris":{"android":"levelo://app?vid=09a93a64-fbb1-49a9-be1f-f86a34310e71","ios":"levelo://app?vid=09a93a64-fbb1-49a9-be1f-f86a34310e71"},"vehicle_type_id":"4","last_reported":1752549801,"current_range_meters":17200,"station_id":"st_cvj6sg6p6f1abm77japg","pricing_plan_id":"cebpf4jnsgd1na2vs0mg"},{"bike_id":"cfa68595-02e7-4f65-aba7-e332f020a561","system_id":"levelo_inurba_marseille","lat":43.31891,"lon":5.40738,"is_reserved":false,"is_disabled":false,"rental_uris":{"android":"levelo://app?vid=cfa68595-02e7-4f65-aba7-e332f020a561","ios":"levelo://app?vid=cfa68595-02e7-4f65-aba7-e332f020a561"},"vehicle_type_id":"4","last_reported":1752549801,"current_range_meters":16800,"station_id":"ce4bhq12rcd13ifvqhig","pricing_plan_id":"cebpf4jnsgd1na2vs0mg"},{"bike_id":"ac928612-476b-4e4b-8c2b-a3f75e53d945","system_id":"levelo_inurba_marseille","lat":43.22514,"lon":5.34782,"is_reserved":false,"is_disabled":false,"rental_uris":{"android":"levelo://app?vid=ac928612-476b-4e4b-8c2b-a3f75e53d945","ios":"levelo://app?vid=ac928612-476b-4e4b-8c2b-a3f75e53d945"},"vehicle_type_id":"4","last_reported":1752549801,"current_range_meters":17600,"station_id":"st_cvj5dfep6f1abm77gieg","pricing_plan_id":"cebpf4jnsgd1na2vs0mg"},{"bike_id":"64a13226-d056-45f1-8b29-c54a0d4b2b5d","system_id":"levelo_inurba_marseille","lat":43.26952,"lon":5.40267,"is_reserved":false,"is_disabled":false,"rental_uris":{"android":"levelo://app?vid=64a13226-d056-45f1-8b29-c54a0d4b2b5d","ios":"levelo://app?vid=64a13226-d056-45f1-8b29-c54a0d4b2b5d"},"vehicle_type_id":"4","last_reported":1752549801,"current_range_meters":17600,"station_id":"cjm6bp8fraef2m0cb0m0","pricing_plan_id":"cebpf4jnsgd1na2vs0mg"},{"bike_id":"aec9db2e-4845-41fc-aafd-403f46ae808c","system_id":"levelo_inurba_marseille","lat":43.28617,"lon":5.35103,"is_reserved":false,"is_disabled":false,"rental_uris":{"android":"levelo://app?vid=aec9db2e-4845-41fc-aafd-403f46ae808c","ios":"levelo://app?vid=aec9db2e-4845-41fc-aafd-403f46ae808c"},"vehicle_type_id":"4","last_reported":1752549801,"current_range_meters":17600,"station_id":"ce4bhch2rcd13ifvqeug","pricing_plan_id":"cebpf4jnsgd1na2vs0mg"},{"bike_id":"ce23b02e-6d65-4c0d-9e4c-0269a519d803","system_id":"levelo_inurba_marseille","lat":43.24168,"lon":5.39726,"is_reserved":false,"is_disabled":false,"rental_uris":{"android":"levelo://app?vid=ce23b02e-6d65-4c0d-9e4c-0269a519d803","ios":"levelo://app?vid=ce23b02e-6d65-4c0d-9e4c-0269a519d803"},"vehicle_type_id":"4","last_reported":1752549801,"current_range_meters":17600,"station_id":"ce4bhn12rcd13ifvqgpg","pricing_plan_id":"cebpf4jnsgd1na2vs0mg"},{"bike_id":"202e7e2e-075f-420c-b3a2-8fce4649d1bc","system_id":"levelo_inurba_marseille","lat":43.28353,"lon":5.38104,"is_reserved":false,"is_disabled":true,"rental_uris":{"android":"levelo://app?vid=202e7e2e-075f-420c-b3a2-8fce4649d1bc","ios":"levelo://app?vid=202e7e2e-075f-420c-b3a2-8fce4649d1bc"},"vehicle_type_id":"4","last_reported":1752549801,"current_range_meters":17600,"station_id":"ce4bh412rcd13ifvqdr0","pricing_plan_id":"cebpf4jnsgd1na2vs0mg"},{"bike_id":"6a1ecfeb-f7e8-43b9-bcfb-6e79409a1ae0","system_id":"levelo_inurba_marseille","lat":43.29047,"lon":5.399588,"is_reserved":false,"is_disabled":false,"rental_uris":{"android":"levelo://app?vid=6a1ecfeb-f7e8-43b9-bcfb-6e79409a1ae0","ios":"levelo://app?vid=6a1ecfeb-f7e8-43b9-bcfb-6e79409a1ae0"},"vehicle_type_id":"4","last_reported":1752549801,"current_range_meters":17600,"station_id":"ce4bh392rcd13ifvqdm0","pricing_plan_id":"cebpf4jnsgd1na2vs0mg"},{"bike_id":"b8f44701-91b9-4924-b05f-953a1869dcff","system_id":"levelo_inurba_marseille","lat":43.313231,"lon":5.397056,"is_reserved":false,"is_disabled":false,"rental_uris":{"android":"levelo://app?vid=b8f44701-91b9-4924-b05f-953a1869dcff","ios":"levelo://app?vid=b8f44701-91b9-4924-b05f-953a1869dcff"},"vehicle_type_id":"4","last_reported":1752549801,"current_range_meters":17600,"station_id":"ce4bgvp2rcd13ifvqcu0","pricing_plan_id":"cebpf4jnsgd1na2vs0mg"},{"bike_id":"97669a37-e194-4a77-b20b-b50734761c8f","system_id":"levelo_inurba_marseille","lat":43.24663,"lon":5.38159,"is_reserved":false,"is_disabled":false,"rental_uris":{"android":"levelo://app?vid=97669a37-e194-4a77-b20b-b50734761c8f","ios":"levelo://app?vid=97669a37-e194-4a77-b20b-b50734761c8f"},"vehicle_type_id":"4","last_reported":1752549801,"current_range_meters":18000,"station_id":"ce4bhih2rcd13ifvqfr0","pricing_plan_id":"cebpf4jnsgd1na2vs0mg"},{"bike_id":"7e296367-f9dc-4f6b-a050-e61b373d7f1d","system_id":"levelo_inurba_marseille","lat":43.297801,"lon":5.371023,"is_reserved":false,"is_disabled":true,"rental_uris":{"android":"levelo://app?vid=7e296367-f9dc-4f6b-a050-e61b373d7f1d","ios":"levelo://app?vid=7e296367-f9dc-4f6b-a050-e61b373d7f1d"},"vehicle_type_id":"4","last_reported":1752549801,"current_range_meters":18000,"station_id":"","pricing_plan_id":"cebpf4jnsgd1na2vs0mg"},{"bike_id":"f8d47e1d-8349-4acb-a664-87af8563f727","system_id":"levelo_inurba_marseille","lat":43.31699,"lon":5.40468,"is_reserved":false,"is_disabled":false,"rental_uris":{"android":"levelo://app?vid=f8d47e1d-8349-4acb-a664-87af8563f727","ios":"levelo://app?vid=f8d47e1d-8349-4acb-a664-87af8563f727"},"vehicle_type_id":"4","last_reported":1752549801,"current_range_meters":18000,"station_id":"ce4bh012rcd13ifvqd00","pricing_plan_id":"cebpf4jnsgd1na2vs0mg"},{"bike_id":"c309d99f-7052-4794-a5d6-573c7c711a4d","system_id":"levelo_inurba_marseille","lat":43.32486,"lon":5.36563,"is_reserved":false,"is_disabled":false,"rental_uris":{"android":"levelo://app?vid=c309d99f-7052-4794-a5d6-573c7c711a4d","ios":"levelo://app?vid=c309d99f-7052-4794-a5d6-573c7c711a4d"},"vehicle_type_id":"4","last_reported":1752549801,"current_range_meters":18000,"station_id":"ce4bhs12rcd13ifvqhvg","pricing_plan_id":"cebpf4jnsgd1na2vs0mg"},{"bike_id":"8bd2104e-1bce-449c-ba40-a9db5ef29bd9","system_id":"levelo_inurba_marseille","lat":43.3129,"lon":5.40167,"is_reserved":false,"is_disabled":false,"rental_uris":{"android":"levelo://app?vid=8bd2104e-1bce-449c-ba40-a9db5ef29bd9","ios":"levelo://app?vid=8bd2104e-1bce-449c-ba40-a9db5ef29bd9"},"vehicle_type_id":"4","last_reported":1752549801,"current_range_meters":18000,"station_id":"ce4bh092rcd13ifvqd30","pricing_plan_id":"cebpf4jnsgd1na2vs0mg"},{"bike_id":"5f67488b-1144-439d-9f2f-c2b297dc02e6","system_id":"levelo_inurba_marseille","lat":43.31998,"lon":5.38139,"is_reserved":false,"is_disabled":false,"rental_uris":{"android":"levelo://app?vid=5f67488b-1144-439d-9f2f-c2b297dc02e6","ios":"levelo://app?vid=5f67488b-1144-439d-9f2f-c2b297dc02e6"},"vehicle_type_id":"4","last_reported":1752549801,"current_range_meters":18000,"station_id":"ce4bhr12rcd13ifvqhpg","pricing_plan_id":"cebpf4jnsgd1na2vs0mg"},{"bike_id":"14bd22b7-20e9-4d3b-9beb-1729b4d55a13","system_id":"levelo_inurba_marseille","lat":43.30327,"lon":5.40429,"is_reserved":false,"is_disabled":false,"rental_uris":{"android":"levelo://app?vid=14bd22b7-20e9-4d3b-9beb-1729b4d55a13","ios":"levelo://app?vid=14bd22b7-20e9-4d3b-9beb-1729b4d55a13"},"vehicle_type_id":"4","last_reported":1752549801,"current_range_meters":18000,"station_id":"ce4bh012rcd13ifvqd10","pricing_plan_id":"cebpf4jnsgd1na2vs0mg"},{"bike_id":"017c98d1-1d69-4a95-ad74-f4742bc3a2bb","system_id":"levelo_inurba_marseille","lat":43.28342,"lon":5.38115,"is_reserved":false,"is_disabled":false,"rental_uris":{"android":"levelo://app?vid=017c98d1-1d69-4a95-ad74-f4742bc3a2bb","ios":"levelo://app?vid=017c98d1-1d69-4a95-ad74-f4742bc3a2bb"},"vehicle_type_id":"4","last_reported":1752549801,"current_range_meters":18000,"station_id":"ce4bh412rcd13ifvqdr0","pricing_plan_id":"cebpf4jnsgd1na2vs0mg"},{"bike_id":"cc078f22-342f-4a6e-b156-6dbca5db6df2","system_id":"levelo_inurba_marseille","lat":43.25109,"lon":5.40369,"is_reserved":false,"is_disabled":false,"rental_uris":{"android":"levelo://app?vid=cc078f22-342f-4a6e-b156-6dbca5db6df2","ios":"levelo://app?vid=cc078f22-342f-4a6e-b156-6dbca5db6df2"},"vehicle_type_id":"4","last_reported":1752549801,"current_range_meters":18800,"station_id":"ce4bhlh2rcd13ifvqgig","pricing_plan_id":"cebpf4jnsgd1na2vs0mg"},{"bike_id":"22ccfe7f-b8aa-475d-8f58-a670cd3948b4","system_id":"levelo_inurba_marseille","lat":43.32993,"lon":5.38999,"is_reserved":false,"is_disabled":false,"rental_uris":{"android":"levelo://app?vid=22ccfe7f-b8aa-475d-8f58-a670cd3948b4","ios":"levelo://app?vid=22ccfe7f-b8aa-475d-8f58-a670cd3948b4"},"vehicle_type_id":"4","last_reported":1752549801,"current_range_meters":18800,"station_id":"ce4bhr92rcd13ifvqhrg","pricing_plan_id":"cebpf4jnsgd1na2vs0mg"},{"bike_id":"2cd7e0a4-d08b-4068-aee0-815ec0d61e4c","system_id":"levelo_inurba_marseille","lat":43.30412,"lon":5.40578,"is_reserved":false,"is_disabled":false,"rental_uris":{"android":"levelo://app?vid=2cd7e0a4-d08b-4068-aee0-815ec0d61e4c","ios":"levelo://app?vid=2cd7e0a4-d08b-4068-aee0-815ec0d61e4c"},"vehicle_type_id":"4","last_reported":1752549801,"current_range_meters":18800,"station_id":"","pricing_plan_id":"cebpf4jnsgd1na2vs0mg"},{"bike_id":"aaffeafc-b726-4eeb-93a4-95bb0be1eec2","system_id":"levelo_inurba_marseille","lat":43.24174,"lon":5.397175,"is_reserved":false,"is_disabled":true,"rental_uris":{"android":"levelo://app?vid=aaffeafc-b726-4eeb-93a4-95bb0be1eec2","ios":"levelo://app?vid=aaffeafc-b726-4eeb-93a4-95bb0be1eec2"},"vehicle_type_id":"4","last_reported":1752549801,"current_range_meters":18800,"station_id":"ce4bhn12rcd13ifvqgpg","pricing_plan_id":"cebpf4jnsgd1na2vs0mg"},{"bike_id":"68c3cd12-30dd-461a-bc78-0c7437ce93a5","system_id":"levelo_inurba_marseille","lat":43.319958,"lon":5.381621,"is_reserved":false,"is_disabled":false,"rental_uris":{"android":"levelo://app?vid=68c3cd12-30dd-461a-bc78-0c7437ce93a5","ios":"levelo://app?vid=68c3cd12-30dd-461a-bc78-0c7437ce93a5"},"vehicle_type_id":"4","last_reported":1752549801,"current_range_meters":18800,"station_id":"ce4bhr12rcd13ifvqhpg","pricing_plan_id":"cebpf4jnsgd1na2vs0mg"},{"bike_id":"b7546be7-59d7-4f54-a6a3-f99ba20b4adf","system_id":"levelo_inurba_marseille","lat":43.29042,"lon":5.399709,"is_reserved":false,"is_disabled":false,"rental_uris":{"android":"levelo://app?vid=b7546be7-59d7-4f54-a6a3-f99ba20b4adf","ios":"levelo://app?vid=b7546be7-59d7-4f54-a6a3-f99ba20b4adf"},"vehicle_type_id":"4","last_reported":1752549801,"current_range_meters":18800,"station_id":"ce4bh392rcd13ifvqdm0","pricing_plan_id":"cebpf4jnsgd1na2vs0mg"},{"bike_id":"e875ba05-0311-438b-a1ff-af174969b660","system_id":"levelo_inurba_marseille","lat":43.279526,"lon":5.41053,"is_reserved":false,"is_disabled":true,"rental_uris":{"android":"levelo://app?vid=e875ba05-0311-438b-a1ff-af174969b660","ios":"levelo://app?vid=e875ba05-0311-438b-a1ff-af174969b660"},"vehicle_type_id":"4","last_reported":1752549801,"current_range_meters":18800,"station_id":"ce4bhnp2rcd13ifvqh0g","pricing_plan_id":"cebpf4jnsgd1na2vs0mg"},{"bike_id":"68b80ee6-4d11-4c99-98ee-a41219149f8c","system_id":"levelo_inurba_marseille","lat":43.28701,"lon":5.39972,"is_reserved":false,"is_disabled":false,"rental_uris":{"android":"levelo://app?vid=68b80ee6-4d11-4c99-98ee-a41219149f8c","ios":"levelo://app?vid=68b80ee6-4d11-4c99-98ee-a41219149f8c"},"vehicle_type_id":"4","last_reported":1752549801,"current_range_meters":18800,"station_id":"ce4bho92rcd13ifvqh3g","pricing_plan_id":"cebpf4jnsgd1na2vs0mg"},{"bike_id":"11fc2fff-b33a-4b47-883b-847e3f7dfd10","system_id":"levelo_inurba_marseille","lat":43.287,"lon":5.40004,"is_reserved":false,"is_disabled":false,"rental_uris":{"android":"levelo://app?vid=11fc2fff-b33a-4b47-883b-847e3f7dfd10","ios":"levelo://app?vid=11fc2fff-b33a-4b47-883b-847e3f7dfd10"},"vehicle_type_id":"4","last_reported":1752549801,"current_range_meters":18800,"station_id":"ce4bho92rcd13ifvqh3g","pricing_plan_id":"cebpf4jnsgd1na2vs0mg"},{"bike_id":"5fb0415f-3225-48f5-a206-9a04e2987ff7","system_id":"levelo_inurba_marseille","lat":43.31692,"lon":5.40468,"is_reserved":false,"is_disabled":false,"rental_uris":{"android":"levelo://app?vid=5fb0415f-3225-48f5-a206-9a04e2987ff7","ios":"levelo://app?vid=5fb0415f-3225-48f5-a206-9a04e2987ff7"},"vehicle_type_id":"4","last_reported":1752549801,"current_range_meters":18800,"station_id":"ce4bh012rcd13ifvqd00","pricing_plan_id":"cebpf4jnsgd1na2vs0mg"},{"bike_id":"0da36d1c-3ba1-49df-9c20-f86f1bf9eb74","system_id":"levelo_inurba_marseille","lat":43.2796,"lon":5.41057,"is_reserved":false,"is_disabled":false,"rental_uris":{"android":"levelo://app?vid=0da36d1c-3ba1-49df-9c20-f86f1bf9eb74","ios":"levelo://app?vid=0da36d1c-3ba1-49df-9c20-f86f1bf9eb74"},"vehicle_type_id":"4","last_reported":1752549801,"current_range_meters":18800,"station_id":"ce4bhnp2rcd13ifvqh0g","pricing_plan_id":"cebpf4jnsgd1na2vs0mg"},{"bike_id":"2d65b583-39d0-45fd-8638-d56b87571939","system_id":"levelo_inurba_marseille","lat":43.30377,"lon":5.42479,"is_reserved":false,"is_disabled":false,"rental_uris":{"android":"levelo://app?vid=2d65b583-39d0-45fd-8638-d56b87571939","ios":"levelo://app?vid=2d65b583-39d0-45fd-8638-d56b87571939"},"vehicle_type_id":"4","last_reported":1752549801,"current_range_meters":19200,"station_id":"ce4bhoh2rcd13ifvqh6g","pricing_plan_id":"cebpf4jnsgd1na2vs0mg"},{"bike_id":"56ab7976-2404-43ff-adb5-af81ded6987e","system_id":"levelo_inurba_marseille","lat":43.314406,"lon":5.404362,"is_reserved":false,"is_disabled":false,"rental_uris":{"android":"levelo://app?vid=56ab7976-2404-43ff-adb5-af81ded6987e","ios":"levelo://app?vid=56ab7976-2404-43ff-adb5-af81ded6987e"},"vehicle_type_id":"4","last_reported":1752549801,"current_range_meters":19200,"station_id":"","pricing_plan_id":"cebpf4jnsgd1na2vs0mg"},{"bike_id":"3efaa20b-1a13-47ff-8c60-3e16a3212d4b","system_id":"levelo_inurba_marseille","lat":43.30255,"lon":5.40048,"is_reserved":false,"is_disabled":false,"rental_uris":{"android":"levelo://app?vid=3efaa20b-1a13-47ff-8c60-3e16a3212d4b","ios":"levelo://app?vid=3efaa20b-1a13-47ff-8c60-3e16a3212d4b"},"vehicle_type_id":"4","last_reported":1752549801,"current_range_meters":19200,"station_id":"ce4bgvh2rcd13ifvqcs0","pricing_plan_id":"cebpf4jnsgd1na2vs0mg"},{"bike_id":"c5b4c9fc-2f46-4903-9bd5-3b80e4e030c8","system_id":"levelo_inurba_marseille","lat":43.2807,"lon":5.39642,"is_reserved":false,"is_disabled":false,"rental_uris":{"android":"levelo://app?vid=c5b4c9fc-2f46-4903-9bd5-3b80e4e030c8","ios":"levelo://app?vid=c5b4c9fc-2f46-4903-9bd5-3b80e4e030c8"},"vehicle_type_id":"4","last_reported":1752549801,"current_range_meters":19200,"station_id":"ce4bho12rcd13ifvqh2g","pricing_plan_id":"cebpf4jnsgd1na2vs0mg"},{"bike_id":"0d140a81-3bf4-4753-8204-348faa1afef7","system_id":"levelo_inurba_marseille","lat":43.276783,"lon":5.389071,"is_reserved":false,"is_disabled":true,"rental_uris":{"android":"levelo://app?vid=0d140a81-3bf4-4753-8204-348faa1afef7","ios":"levelo://app?vid=0d140a81-3bf4-4753-8204-348faa1afef7"},"vehicle_type_id":"4","last_reported":1752549801,"current_range_meters":19200,"station_id":"ce4bhi12rcd13ifvqfo0","pricing_plan_id":"cebpf4jnsgd1na2vs0mg"},{"bike_id":"8a3c7a9b-da04-4232-b94d-88afe10b78aa","system_id":"levelo_inurba_marseille","lat":43.24243,"lon":5.36927,"is_reserved":false,"is_disabled":false,"rental_uris":{"android":"levelo://app?vid=8a3c7a9b-da04-4232-b94d-88afe10b78aa","ios":"levelo://app?vid=8a3c7a9b-da04-4232-b94d-88afe10b78aa"},"vehicle_type_id":"4","last_reported":1752549801,"current_range_meters":19200,"station_id":"","pricing_plan_id":"cebpf4jnsgd1na2vs0mg"},{"bike_id":"69470280-c898-4c61-913d-814206528e10","system_id":"levelo_inurba_marseille","lat":43.2119,"lon":5.35068,"is_reserved":false,"is_disabled":false,"rental_uris":{"android":"levelo://app?vid=69470280-c898-4c61-913d-814206528e10","ios":"levelo://app?vid=69470280-c898-4c61-913d-814206528e10"},"vehicle_type_id":"4","last_reported":1752549801,"current_range_meters":19200,"station_id":"st_cvj6sg6p6f1abm77japg","pricing_plan_id":"cebpf4jnsgd1na2vs0mg"},{"bike_id":"39d38ba2-6d5f-4df4-9024-d61840474270","system_id":"levelo_inurba_marseille","lat":43.31283,"lon":5.40146,"is_reserved":false,"is_disabled":false,"rental_uris":{"android":"levelo://app?vid=39d38ba2-6d5f-4df4-9024-d61840474270","ios":"levelo://app?vid=39d38ba2-6d5f-4df4-9024-d61840474270"},"vehicle_type_id":"4","last_reported":1752549801,"current_range_meters":19200,"station_id":"ce4bh092rcd13ifvqd30","pricing_plan_id":"cebpf4jnsgd1na2vs0mg"},{"bike_id":"37f393c5-717a-4601-ac3d-e99cf486af7b","system_id":"levelo_inurba_marseille","lat":43.28354,"lon":5.38629,"is_reserved":false,"is_disabled":true,"rental_uris":{"android":"levelo://app?vid=37f393c5-717a-4601-ac3d-e99cf486af7b","ios":"levelo://app?vid=37f393c5-717a-4601-ac3d-e99cf486af7b"},"vehicle_type_id":"4","last_reported":1752549801,"current_range_meters":19200,"station_id":"ce4bh492rcd13ifvqdvg","pricing_plan_id":"cebpf4jnsgd1na2vs0mg"},{"bike_id":"967624da-8d3b-48f4-8ccf-a306ea43f76d","system_id":"levelo_inurba_marseille","lat":43.31285,"lon":5.40154,"is_reserved":false,"is_disabled":false,"rental_uris":{"android":"levelo://app?vid=967624da-8d3b-48f4-8ccf-a306ea43f76d","ios":"levelo://app?vid=967624da-8d3b-48f4-8ccf-a306ea43f76d"},"vehicle_type_id":"4","last_reported":1752549801,"current_range_meters":19200,"station_id":"ce4bh092rcd13ifvqd30","pricing_plan_id":"cebpf4jnsgd1na2vs0mg"},{"bike_id":"93704d8a-5411-444e-be27-0f37f240bc95","system_id":"levelo_inurba_marseille","lat":43.29044,"lon":5.39934,"is_reserved":false,"is_disabled":false,"rental_uris":{"android":"levelo://app?vid=93704d8a-5411-444e-be27-0f37f240bc95","ios":"levelo://app?vid=93704d8a-5411-444e-be27-0f37f240bc95"},"vehicle_type_id":"4","last_reported":1752549801,"current_range_meters":19600,"station_id":"ce4bh392rcd13ifvqdm0","pricing_plan_id":"cebpf4jnsgd1na2vs0mg"},{"bike_id":"111689b3-8a45-4b5f-8470-811fcbda968a","system_id":"levelo_inurba_marseille","lat":43.27941,"lon":5.4104,"is_reserved":false,"is_disabled":false,"rental_uris":{"android":"levelo://app?vid=111689b3-8a45-4b5f-8470-811fcbda968a","ios":"levelo://app?vid=111689b3-8a45-4b5f-8470-811fcbda968a"},"vehicle_type_id":"4","last_reported":1752549801,"current_range_meters":19600,"station_id":"ce4bhnp2rcd13ifvqh0g","pricing_plan_id":"cebpf4jnsgd1na2vs0mg"},{"bike_id":"acea0d95-3622-4981-b315-d1078b503b06","system_id":"levelo_inurba_marseille","lat":43.28923,"lon":5.38374,"is_reserved":false,"is_disabled":true,"rental_uris":{"android":"levelo://app?vid=acea0d95-3622-4981-b315-d1078b503b06","ios":"levelo://app?vid=acea0d95-3622-4981-b315-d1078b503b06"},"vehicle_type_id":"4","last_reported":1752549801,"current_range_meters":19600,"station_id":"ce4bh612rcd13ifvqe6g","pricing_plan_id":"cebpf4jnsgd1na2vs0mg"},{"bike_id":"174a6198-1582-408b-9661-126b7b4cc765","system_id":"levelo_inurba_marseille","lat":43.29287,"lon":5.40115,"is_reserved":false,"is_disabled":false,"rental_uris":{"android":"levelo://app?vid=174a6198-1582-408b-9661-126b7b4cc765","ios":"levelo://app?vid=174a6198-1582-408b-9661-126b7b4cc765"},"vehicle_type_id":"4","last_reported":1752549801,"current_range_meters":19600,"station_id":"ce4bh312rcd13ifvqdk0","pricing_plan_id":"cebpf4jnsgd1na2vs0mg"},{"bike_id":"463309de-7201-4f1b-9198-96de35067348","system_id":"levelo_inurba_marseille","lat":43.28079,"lon":5.39662,"is_reserved":false,"is_disabled":false,"rental_uris":{"android":"levelo://app?vid=463309de-7201-4f1b-9198-96de35067348","ios":"levelo://app?vid=463309de-7201-4f1b-9198-96de35067348"},"vehicle_type_id":"4","last_reported":1752549801,"current_range_meters":19600,"station_id":"ce4bho12rcd13ifvqh2g","pricing_plan_id":"cebpf4jnsgd1na2vs0mg"},{"bike_id":"33134a80-38af-4759-a83b-eb44ea22bcb9","system_id":"levelo_inurba_marseille","lat":43.27815,"lon":5.40722,"is_reserved":false,"is_disabled":true,"rental_uris":{"android":"levelo://app?vid=33134a80-38af-4759-a83b-eb44ea22bcb9","ios":"levelo://app?vid=33134a80-38af-4759-a83b-eb44ea22bcb9"},"vehicle_type_id":"4","last_reported":1752549801,"current_range_meters":19600,"station_id":"ce4bhnh2rcd13ifvqgtg","pricing_plan_id":"cebpf4jnsgd1na2vs0mg"},{"bike_id":"40baa39f-8ac8-4825-91c0-44c8123073c1","system_id":"levelo_inurba_marseille","lat":43.31142,"lon":5.37756,"is_reserved":false,"is_disabled":false,"rental_uris":{"android":"levelo://app?vid=40baa39f-8ac8-4825-91c0-44c8123073c1","ios":"levelo://app?vid=40baa39f-8ac8-4825-91c0-44c8123073c1"},"vehicle_type_id":"4","last_reported":1752549801,"current_range_meters":19600,"station_id":"ce4bgt92rcd13ifvqcg0","pricing_plan_id":"cebpf4jnsgd1na2vs0mg"},{"bike_id":"3669464d-4cf5-4251-b5a6-ab26db4cf8f5","system_id":"levelo_inurba_marseille","lat":43.290789,"lon":5.371493,"is_reserved":false,"is_disabled":true,"rental_uris":{"android":"levelo://app?vid=3669464d-4cf5-4251-b5a6-ab26db4cf8f5","ios":"levelo://app?vid=3669464d-4cf5-4251-b5a6-ab26db4cf8f5"},"vehicle_type_id":"4","last_reported":1752549801,"current_range_meters":19600,"station_id":"ce4bh5p2rcd13ifvqe4g","pricing_plan_id":"cebpf4jnsgd1na2vs0mg"},{"bike_id":"f84b1dd0-1623-4e4c-9af9-f1ba75567f78","system_id":"levelo_inurba_marseille","lat":43.29289,"lon":5.40127,"is_reserved":false,"is_disabled":false,"rental_uris":{"android":"levelo://app?vid=f84b1dd0-1623-4e4c-9af9-f1ba75567f78","ios":"levelo://app?vid=f84b1dd0-1623-4e4c-9af9-f1ba75567f78"},"vehicle_type_id":"4","last_reported":1752549801,"current_range_meters":19600,"station_id":"ce4bh312rcd13ifvqdk0","pricing_plan_id":"cebpf4jnsgd1na2vs0mg"},{"bike_id":"486c36cd-bb8d-435f-a933-802c2d5d2447","system_id":"levelo_inurba_marseille","lat":43.211941,"lon":5.350795,"is_reserved":false,"is_disabled":false,"rental_uris":{"android":"levelo://app?vid=486c36cd-bb8d-435f-a933-802c2d5d2447","ios":"levelo://app?vid=486c36cd-bb8d-435f-a933-802c2d5d2447"},"vehicle_type_id":"4","last_reported":1752549801,"current_range_meters":19600,"station_id":"st_cvj6sg6p6f1abm77japg","pricing_plan_id":"cebpf4jnsgd1na2vs0mg"},{"bike_id":"d4421e5e-036a-4f47-910c-963e61cea4c3","system_id":"levelo_inurba_marseille","lat":43.27916,"lon":5.3801,"is_reserved":false,"is_disabled":false,"rental_uris":{"android":"levelo://app?vid=d4421e5e-036a-4f47-910c-963e61cea4c3","ios":"levelo://app?vid=d4421e5e-036a-4f47-910c-963e61cea4c3"},"vehicle_type_id":"4","last_reported":1752549801,"current_range_meters":20000,"station_id":"ce4bhf92rcd13ifvqf50","pricing_plan_id":"cebpf4jnsgd1na2vs0mg"},{"bike_id":"ce791da0-f78e-4bf6-b645-6d210341d4d0","system_id":"levelo_inurba_marseille","lat":43.239606,"lon":5.36632,"is_reserved":false,"is_disabled":false,"rental_uris":{"android":"levelo://app?vid=ce791da0-f78e-4bf6-b645-6d210341d4d0","ios":"levelo://app?vid=ce791da0-f78e-4bf6-b645-6d210341d4d0"},"vehicle_type_id":"4","last_reported":1752549801,"current_range_meters":20000,"station_id":"ce4bhi12rcd13ifvqfp0","pricing_plan_id":"cebpf4jnsgd1na2vs0mg"},{"bike_id":"69a98ef8-9b4f-490a-b1e7-11ae49fc387b","system_id":"levelo_inurba_marseille","lat":43.21189,"lon":5.35077,"is_reserved":false,"is_disabled":false,"rental_uris":{"android":"levelo://app?vid=69a98ef8-9b4f-490a-b1e7-11ae49fc387b","ios":"levelo://app?vid=69a98ef8-9b4f-490a-b1e7-11ae49fc387b"},"vehicle_type_id":"4","last_reported":1752549801,"current_range_meters":20000,"station_id":"st_cvj6sg6p6f1abm77japg","pricing_plan_id":"cebpf4jnsgd1na2vs0mg"},{"bike_id":"607692d7-92f3-464d-9130-5e688d0416e7","system_id":"levelo_inurba_marseille","lat":43.30154,"lon":5.39882,"is_reserved":false,"is_disabled":true,"rental_uris":{"android":"levelo://app?vid=607692d7-92f3-464d-9130-5e688d0416e7","ios":"levelo://app?vid=607692d7-92f3-464d-9130-5e688d0416e7"},"vehicle_type_id":"4","last_reported":1752549801,"current_range_meters":20000,"station_id":"ce4bh0h2rcd13ifvqd40","pricing_plan_id":"cebpf4jnsgd1na2vs0mg"},{"bike_id":"9d598979-7e11-49a5-8ad4-7cf6c3eaf48c","system_id":"levelo_inurba_marseille","lat":43.31129,"lon":5.37749,"is_reserved":false,"is_disabled":false,"rental_uris":{"android":"levelo://app?vid=9d598979-7e11-49a5-8ad4-7cf6c3eaf48c","ios":"levelo://app?vid=9d598979-7e11-49a5-8ad4-7cf6c3eaf48c"},"vehicle_type_id":"4","last_reported":1752549801,"current_range_meters":20000,"station_id":"ce4bgt92rcd13ifvqcg0","pricing_plan_id":"cebpf4jnsgd1na2vs0mg"},{"bike_id":"0888a42d-f8f5-4432-96f6-c0578e5ed28c","system_id":"levelo_inurba_marseille","lat":43.24661,"lon":5.38148,"is_reserved":false,"is_disabled":false,"rental_uris":{"android":"levelo://app?vid=0888a42d-f8f5-4432-96f6-c0578e5ed28c","ios":"levelo://app?vid=0888a42d-f8f5-4432-96f6-c0578e5ed28c"},"vehicle_type_id":"4","last_reported":1752549801,"current_range_meters":20000,"station_id":"ce4bhih2rcd13ifvqfr0","pricing_plan_id":"cebpf4jnsgd1na2vs0mg"},{"bike_id":"d8d60ab6-c488-42ca-96e4-553e790a9162","system_id":"levelo_inurba_marseille","lat":43.21197,"lon":5.35063,"is_reserved":false,"is_disabled":false,"rental_uris":{"android":"levelo://app?vid=d8d60ab6-c488-42ca-96e4-553e790a9162","ios":"levelo://app?vid=d8d60ab6-c488-42ca-96e4-553e790a9162"},"vehicle_type_id":"4","last_reported":1752549801,"current_range_meters":20000,"station_id":"st_cvj6sg6p6f1abm77japg","pricing_plan_id":"cebpf4jnsgd1na2vs0mg"},{"bike_id":"f3cfb888-bf4d-437c-a471-c7ce7321ebf9","system_id":"levelo_inurba_marseille","lat":43.26222,"lon":5.40452,"is_reserved":false,"is_disabled":false,"rental_uris":{"android":"levelo://app?vid=f3cfb888-bf4d-437c-a471-c7ce7321ebf9","ios":"levelo://app?vid=f3cfb888-bf4d-437c-a471-c7ce7321ebf9"},"vehicle_type_id":"4","last_reported":1752549801,"current_range_meters":20000,"station_id":"ce4bhmh2rcd13ifvqgmg","pricing_plan_id":"cebpf4jnsgd1na2vs0mg"},{"bike_id":"b433af72-b4f5-4f79-ad97-b03c22bf68a5","system_id":"levelo_inurba_marseille","lat":43.25905,"lon":5.40897,"is_reserved":false,"is_disabled":false,"rental_uris":{"android":"levelo://app?vid=b433af72-b4f5-4f79-ad97-b03c22bf68a5","ios":"levelo://app?vid=b433af72-b4f5-4f79-ad97-b03c22bf68a5"},"vehicle_type_id":"4","last_reported":1752549801,"current_range_meters":20400,"station_id":"ce4bhm92rcd13ifvqglg","pricing_plan_id":"cebpf4jnsgd1na2vs0mg"},{"bike_id":"3000ee5e-2404-46b0-b30c-b8b49f3a14ce","system_id":"levelo_inurba_marseille","lat":43.30161,"lon":5.3807,"is_reserved":false,"is_disabled":false,"rental_uris":{"android":"levelo://app?vid=3000ee5e-2404-46b0-b30c-b8b49f3a14ce","ios":"levelo://app?vid=3000ee5e-2404-46b0-b30c-b8b49f3a14ce"},"vehicle_type_id":"4","last_reported":1752549801,"current_range_meters":20400,"station_id":"ce4bgjp2rcd13ifvqbh0","pricing_plan_id":"cebpf4jnsgd1na2vs0mg"},{"bike_id":"55591a03-9ac2-442c-ae5e-ebeb8edb45d4","system_id":"levelo_inurba_marseille","lat":43.319919,"lon":5.381629,"is_reserved":false,"is_disabled":false,"rental_uris":{"android":"levelo://app?vid=55591a03-9ac2-442c-ae5e-ebeb8edb45d4","ios":"levelo://app?vid=55591a03-9ac2-442c-ae5e-ebeb8edb45d4"},"vehicle_type_id":"4","last_reported":1752549801,"current_range_meters":20400,"station_id":"ce4bhr12rcd13ifvqhpg","pricing_plan_id":"cebpf4jnsgd1na2vs0mg"},{"bike_id":"c1c4142c-7dc9-4807-b6c5-ee0b843cddb7","system_id":"levelo_inurba_marseille","lat":43.337444,"lon":5.374475,"is_reserved":false,"is_disabled":false,"rental_uris":{"android":"levelo://app?vid=c1c4142c-7dc9-4807-b6c5-ee0b843cddb7","ios":"levelo://app?vid=c1c4142c-7dc9-4807-b6c5-ee0b843cddb7"},"vehicle_type_id":"4","last_reported":1752549801,"current_range_meters":20400,"station_id":"","pricing_plan_id":"cebpf4jnsgd1na2vs0mg"},{"bike_id":"b48f57f0-17b8-4ef7-b5bd-d346997719e9","system_id":"levelo_inurba_marseille","lat":43.30416,"lon":5.41262,"is_reserved":false,"is_disabled":false,"rental_uris":{"android":"levelo://app?vid=b48f57f0-17b8-4ef7-b5bd-d346997719e9","ios":"levelo://app?vid=b48f57f0-17b8-4ef7-b5bd-d346997719e9"},"vehicle_type_id":"4","last_reported":1752549801,"current_range_meters":20400,"station_id":"ce4bhop2rcd13ifvqh8g","pricing_plan_id":"cebpf4jnsgd1na2vs0mg"},{"bike_id":"0d68ece9-d421-4de0-88bb-464e887e7c5f","system_id":"levelo_inurba_marseille","lat":43.3125,"lon":5.38135,"is_reserved":false,"is_disabled":false,"rental_uris":{"android":"levelo://app?vid=0d68ece9-d421-4de0-88bb-464e887e7c5f","ios":"levelo://app?vid=0d68ece9-d421-4de0-88bb-464e887e7c5f"},"vehicle_type_id":"4","last_reported":1752549801,"current_range_meters":20400,"station_id":"","pricing_plan_id":"cebpf4jnsgd1na2vs0mg"},{"bike_id":"8fd72403-f6be-4cee-97aa-9dd54933902e","system_id":"levelo_inurba_marseille","lat":43.24184,"lon":5.39726,"is_reserved":false,"is_disabled":false,"rental_uris":{"android":"levelo://app?vid=8fd72403-f6be-4cee-97aa-9dd54933902e","ios":"levelo://app?vid=8fd72403-f6be-4cee-97aa-9dd54933902e"},"vehicle_type_id":"4","last_reported":1752549801,"current_range_meters":20800,"station_id":"ce4bhn12rcd13ifvqgpg","pricing_plan_id":"cebpf4jnsgd1na2vs0mg"},{"bike_id":"f3e4a14e-8992-4198-9f2a-7d57a260053a","system_id":"levelo_inurba_marseille","lat":43.28,"lon":5.416527,"is_reserved":false,"is_disabled":false,"rental_uris":{"android":"levelo://app?vid=f3e4a14e-8992-4198-9f2a-7d57a260053a","ios":"levelo://app?vid=f3e4a14e-8992-4198-9f2a-7d57a260053a"},"vehicle_type_id":"4","last_reported":1752549801,"current_range_meters":20800,"station_id":"ce4bho12rcd13ifvqh1g","pricing_plan_id":"cebpf4jnsgd1na2vs0mg"},{"bike_id":"19823d55-298f-43fa-822b-5e840f9e714a","system_id":"levelo_inurba_marseille","lat":43.295232,"lon":5.394075,"is_reserved":false,"is_disabled":false,"rental_uris":{"android":"levelo://app?vid=19823d55-298f-43fa-822b-5e840f9e714a","ios":"levelo://app?vid=19823d55-298f-43fa-822b-5e840f9e714a"},"vehicle_type_id":"4","last_reported":1752549801,"current_range_meters":20800,"station_id":"","pricing_plan_id":"cebpf4jnsgd1na2vs0mg"},{"bike_id":"3673bafc-0594-4f62-8c0b-43b0b6ac7a94","system_id":"levelo_inurba_marseille","lat":43.29252,"lon":5.40905,"is_reserved":false,"is_disabled":false,"rental_uris":{"android":"levelo://app?vid=3673bafc-0594-4f62-8c0b-43b0b6ac7a94","ios":"levelo://app?vid=3673bafc-0594-4f62-8c0b-43b0b6ac7a94"},"vehicle_type_id":"4","last_reported":1752549801,"current_range_meters":20800,"station_id":"ce4bh192rcd13ifvqdc0","pricing_plan_id":"cebpf4jnsgd1na2vs0mg"},