{"last_updated":1777062905,"ttl":60,"version":"2.2","data":{"bikes":[{"bike_id":"2270c834-d8c9-4d4c-946a-7742ecbf16a4","system_id":"levelo_inurba_marseille","lat":43.30733,"lon":5.42455,"is_reserved":false,"is_disabled":false,"rental_uris":{"android":"levelo://app?vid=2270c834-d8c9-4d4c-946a-7742ecbf16a4","ios":"levelo://app?vid=2270c834-d8c9-4d4c-946a-7742ecbf16a4"},"vehicle_type_id":"4","last_reported":1777062906,"current_range_meters":2800,"station_id":"st_cvj6ca6bvosntc0bfgr0","pricing_plan_id":"cebpf4jnsgd1na2vs0mg"},{"bike_id":"ea4f8e7e-1810-4cbe-af6e-b93b97482b8d","system_id":"levelo_inurba_marseille","lat":43.28017,"lon":5.36927,"is_reserved":false,"is_disabled":false,"rental_uris":{"android":"levelo://app?vid=ea4f8e7e-1810-4cbe-af6e-b93b97482b8d","ios":"levelo://app?vid=ea4f8e7e-1810-4cbe-af6e-b93b97482b8d"},"vehicle_type_id":"4","last_reported":1777062906,"current_range_meters":2800,"station_id":"ce4bha12rcd13ifvqef0","pricing_plan_id":"cebpf4jnsgd1na2vs0mg"},{"bike_id":"792b325f-be7a-46e0-8104-b99169df7ce1","system_id":"levelo_inurba_marseille","lat":43.29267,"lon":5.38437,"is_reserved":false,"is_disabled":false,"rental_uris":{"android":"levelo://app?vid=792b325f-be7a-46e0-8104-b99169df7ce1","ios":"levelo://app?vid=792b325f-be7a-46e0-8104-b99169df7ce1"},"vehicle_type_id":"4","last_reported":1777062906,"current_range_meters":2800,"station_id":"ce4bh692rcd13ifvqea0","pricing_plan_id":"cebpf4jnsgd1na2vs0mg"},{"bike_id":"834b42dd-c834-4d07-8472-508d0f1414b8","system_id":"levelo_inurba_marseille","lat":43.28859,"lon":5.39313,"is_reserved":false,"is_disabled":false,"rental_uris":{"android":"levelo://app?vid=834b42dd-c834-4d07-8472-508d0f1414b8","ios":"levelo://app?vid=834b42dd-c834-4d07-8472-508d0f1414b8"},"vehicle_type_id":"4","last_reported":1777062906,"current_range_meters":2800,"station_id":"ce4bh2p2rcd13ifvqdi0","pricing_plan_id":"cebpf4jnsgd1na2vs0mg"},{"bike_id":"fab422c3-3e71-460a-9231-398cabf4cd0f","system_id":"levelo_inurba_marseille","lat":43.23179,"lon":5.35548,"is_reserved":false,"is_disabled":true,"rental_uris":{"android":"levelo://app?vid=fab422c3-3e71-460a-9231-398cabf4cd0f","ios":"levelo://app?vid=fab422c3-3e71-460a-9231-398cabf4cd0f"},"vehicle_type_id":"4","last_reported":1777062906,"current_range_meters":2800,"station_id":"ce4bhu92rcd13ifvqi70","pricing_plan_id":"cebpf4jnsgd1na2vs0mg"},{"bike_id":"adcf4ce1-d1e6-4939-8827-1b39fbd4d052","system_id":"levelo_inurba_marseille","lat":43.25572,"lon":5.38241,"is_reserved":false,"is_disabled":false,"rental_uris":{"android":"levelo://app?vid=adcf4ce1-d1e6-4939-8827-1b39fbd4d052","ios":"levelo://app?vid=adcf4ce1-d1e6-4939-8827-1b39fbd4d052"},"vehicle_type_id":"4","last_reported":1777062906,"current_range_meters":2800,"station_id":"ce4bhih2rcd13ifvqfs0","pricing_plan_id":"cebpf4jnsgd1na2vs0mg"},{"bike_id":"a0d0e132-b7e3-4cb7-9265-dbbb8cb21677","system_id":"levelo_inurba_marseille","lat":43.31155,"lon":5.38712,"is_reserved":false,"is_disabled":false,"rental_uris":{"android":"levelo://app?vid=a0d0e132-b7e3-4cb7-9265-dbbb8cb21677","ios":"levelo://app?vid=a0d0e132-b7e3-4cb7-9265-dbbb8cb21677"},"vehicle_type_id":"4","last_reported":1777062906,"current_range_meters":2800,"station_id":"ce4bgv12rcd13ifvqcp0","pricing_plan_id":"cebpf4jnsgd1na2vs0mg"},{"bike_id":"5a65e4ce-6ae9-46a9-8b43-4807dee35377","system_id":"levelo_inurba_marseille","lat":43.29931,"lon":5.36534,"is_reserved":false,"is_disabled":false,"rental_uris":{"android":"levelo://app?vid=5a65e4ce-6ae9-46a9-8b43-4807dee35377","ios":"levelo://app?vid=5a65e4ce-6ae9-46a9-8b43-4807dee35377"},"vehicle_type_id":"4","last_reported":1777062906,"current_range_meters":2800,"station_id":"ce4bgm92rcd13ifvqbr0","pricing_plan_id":"cebpf4jnsgd1na2vs0mg"},{"bike_id":"df45da96-46bb-4239-aac8-8fc8ff9a4728","system_id":"levelo_inurba_marseille","lat":43.27457,"lon":5.39381,"is_reserved":false,"is_disabled":true,"rental_uris":{"android":"levelo://app?vid=df45da96-46bb-4239-aac8-8fc8ff9a4728","ios":"levelo://app?vid=df45da96-46bb-4239-aac8-8fc8ff9a4728"},"vehicle_type_id":"4","last_reported":1777062906,"current_range_meters":2800,"station_id":"ce4bhdp2rcd13ifvqf20","pricing_plan_id":"cebpf4jnsgd1na2vs0mg"},{"bike_id":"db0ff27f-e077-4267-b357-03f136bb3c7d","system_id":"levelo_inurba_marseille","lat":43.29372,"lon":5.37848,"is_reserved":false,"is_disabled":false,"rental_uris":{"android":"levelo://app?vid=db0ff27f-e077-4267-b357-03f136bb3c7d","ios":"levelo://app?vid=db0ff27f-e077-4267-b357-03f136bb3c7d"},"vehicle_type_id":"4","last_reported":1777062906,"current_range_meters":2800,"station_id":"ce4bgjh2rcd13ifvqbf0","pricing_plan_id":"cebpf4jnsgd1na2vs0mg"},{"bike_id":"9c3677d0-627f-49f8-bd9c-64ba96ef4fce","system_id":"levelo_inurba_marseille","lat":43.28465,"lon":5.48397,"is_reserved":false,"is_disabled":false,"rental_uris":{"android":"levelo://app?vid=9c3677d0-627f-49f8-bd9c-64ba96ef4fce","ios":"levelo://app?vid=9c3677d0-627f-49f8-bd9c-64ba96ef4fce"},"vehicle_type_id":"4","last_reported":1777062906,"current_range_meters":2800,"station_id":"","pricing_plan_id":"cebpf4jnsgd1na2vs0mg"},{"bike_id":"5f4d22fe-104c-4f36-a551-988d331d9f95","system_id":"levelo_inurba_marseille","lat":43.30147,"lon":5.37419,"is_reserved":false,"is_disabled":false,"rental_uris":{"android":"levelo://app?vid=5f4d22fe-104c-4f36-a551-988d331d9f95","ios":"levelo://app?vid=5f4d22fe-104c-4f36-a551-988d331d9f95"},"vehicle_type_id":"4","last_reported":1777062906,"current_range_meters":2800,"station_id":"ce4bgs92rcd13ifvqcc0","pricing_plan_id":"cebpf4jnsgd1na2vs0mg"},{"bike_id":"5fc78bc2-0815-473f-b2c6-82fcecae2baa","system_id":"levelo_inurba_marseille","lat":43.26555,"lon":5.37294,"is_reserved":false,"is_disabled":true,"rental_uris":{"android":"levelo://app?vid=5fc78bc2-0815-473f-b2c6-82fcecae2baa","ios":"levelo://app?vid=5fc78bc2-0815-473f-b2c6-82fcecae2baa"},"vehicle_type_id":"4","last_reported":1777062906,"current_range_meters":2800,"station_id":"ce4bhg12rcd13ifvqf70","pricing_plan_id":"cebpf4jnsgd1na2vs0mg"},{"bike_id":"c59a7a60-f651-4671-8de2-660e65458e3b","system_id":"levelo_inurba_marseille","lat":43.286993,"lon":5.399792,"is_reserved":false,"is_disabled":false,"rental_uris":{"android":"levelo://app?vid=c59a7a60-f651-4671-8de2-660e65458e3b","ios":"levelo://app?vid=c59a7a60-f651-4671-8de2-660e65458e3b"},"vehicle_type_id":"4","last_reported":1777062906,"current_range_meters":2800,"station_id":"ce4bho92rcd13ifvqh3g","pricing_plan_id":"cebpf4jnsgd1na2vs0mg"},{"bike_id":"77bae04d-b155-4a06-9049-fda6a4b9e974","system_id":"levelo_inurba_marseille","lat":43.29147,"lon":5.42616,"is_reserved":false,"is_disabled":false,"rental_uris":{"android":"levelo://app?vid=77bae04d-b155-4a06-9049-fda6a4b9e974","ios":"levelo://app?vid=77bae04d-b155-4a06-9049-fda6a4b9e974"},"vehicle_type_id":"4","last_reported":1777062906,"current_range_meters":3200,"station_id":"","pricing_plan_id":"cebpf4jnsgd1na2vs0mg"},{"bike_id":"1aaf0100-915b-4670-a711-1dd0c7417865","system_id":"levelo_inurba_marseille","lat":43.24067,"lon":5.3776,"is_reserved":false,"is_disabled":false,"rental_uris":{"android":"levelo://app?vid=1aaf0100-915b-4670-a711-1dd0c7417865","ios":"levelo://app?vid=1aaf0100-915b-4670-a711-1dd0c7417865"},"vehicle_type_id":"4","last_reported":1777062906,"current_range_meters":3200,"station_id":"ce4bhnp2rcd13ifvqgvg","pricing_plan_id":"cebpf4jnsgd1na2vs0mg"},{"bike_id":"87cdb95c-813f-44ea-8261-e58ae463baf5","system_id":"levelo_inurba_marseille","lat":43.27896,"lon":5.38019,"is_reserved":false,"is_disabled":false,"rental_uris":{"android":"levelo://app?vid=87cdb95c-813f-44ea-8261-e58ae463baf5","ios":"levelo://app?vid=87cdb95c-813f-44ea-8261-e58ae463baf5"},"vehicle_type_id":"4","last_reported":1777062906,"current_range_meters":3200,"station_id":"ce4bhf92rcd13ifvqf50","pricing_plan_id":"cebpf4jnsgd1na2vs0mg"},{"bike_id":"8f975cf4-69f4-4fd4-8c34-d7df8df21514","system_id":"levelo_inurba_marseille","lat":43.33778,"lon":5.37498,"is_reserved":false,"is_disabled":false,"rental_uris":{"android":"levelo://app?vid=8f975cf4-69f4-4fd4-8c34-d7df8df21514","ios":"levelo://app?vid=8f975cf4-69f4-4fd4-8c34-d7df8df21514"},"vehicle_type_id":"4","last_reported":1777062906,"current_range_meters":3200,"station_id":"st_d46cu089ee8s73dldbu0","pricing_plan_id":"cebpf4jnsgd1na2vs0mg"},{"bike_id":"6427a36d-bd65-4569-afff-fc093fbf88c0","system_id":"levelo_inurba_marseille","lat":43.29028,"lon":5.38111,"is_reserved":false,"is_disabled":false,"rental_uris":{"android":"levelo://app?vid=6427a36d-bd65-4569-afff-fc093fbf88c0","ios":"levelo://app?vid=6427a36d-bd65-4569-afff-fc093fbf88c0"},"vehicle_type_id":"4","last_reported":1777062906,"current_range_meters":3200,"station_id":"ce4bh4p2rcd13ifvqe1g","pricing_plan_id":"cebpf4jnsgd1na2vs0mg"},{"bike_id":"5b6b783e-0d52-4bbd-b5a7-c33df0c76194","system_id":"levelo_inurba_marseille","lat":43.28213,"lon":5.37029,"is_reserved":false,"is_disabled":false,"rental_uris":{"android":"levelo://app?vid=5b6b783e-0d52-4bbd-b5a7-c33df0c76194","ios":"levelo://app?vid=5b6b783e-0d52-4bbd-b5a7-c33df0c76194"},"vehicle_type_id":"4","last_reported":1777062906,"current_range_meters":3200,"station_id":"","pricing_plan_id":"cebpf4jnsgd1na2vs0mg"},{"bike_id":"a767dc6e-2f51-4d71-9e29-f318a1beff69","system_id":"levelo_inurba_marseille","lat":43.30081,"lon":5.36566,"is_reserved":false,"is_disabled":false,"rental_uris":{"android":"levelo://app?vid=a767dc6e-2f51-4d71-9e29-f318a1beff69","ios":"levelo://app?vid=a767dc6e-2f51-4d71-9e29-f318a1beff69"},"vehicle_type_id":"4","last_reported":1777062906,"current_range_meters":3200,"station_id":"","pricing_plan_id":"cebpf4jnsgd1na2vs0mg"},{"bike_id":"fe79e90d-69ff-47a1-a6bd-fc4fa72d4272","system_id":"levelo_inurba_marseille","lat":43.27196,"lon":5.392,"is_reserved":false,"is_disabled":false,"rental_uris":{"android":"levelo://app?vid=fe79e90d-69ff-47a1-a6bd-fc4fa72d4272","ios":"levelo://app?vid=fe79e90d-69ff-47a1-a6bd-fc4fa72d4272"},"vehicle_type_id":"4","last_reported":1777062906,"current_range_meters":3200,"station_id":"ce4bhhp2rcd13ifvqfm0","pricing_plan_id":"cebpf4jnsgd1na2vs0mg"},{"bike_id":"1e5b6ad9-2241-4d06-9e8a-ce375e9dc4f3","system_id":"levelo_inurba_marseille","lat":43.279958,"lon":5.400108,"is_reserved":false,"is_disabled":false,"rental_uris":{"android":"levelo://app?vid=1e5b6ad9-2241-4d06-9e8a-ce375e9dc4f3","ios":"levelo://app?vid=1e5b6ad9-2241-4d06-9e8a-ce375e9dc4f3"},"vehicle_type_id":"4","last_reported":1777062906,"current_range_meters":3200,"station_id":"ce4bho92rcd13ifvqh4g","pricing_plan_id":"cebpf4jnsgd1na2vs0mg"},{"bike_id":"0753aa32-7d13-4cf4-860d-f0311d56e151","system_id":"levelo_inurba_marseille","lat":43.31475,"lon":5.3731,"is_reserved":false,"is_disabled":false,"rental_uris":{"android":"levelo://app?vid=0753aa32-7d13-4cf4-860d-f0311d56e151","ios":"levelo://app?vid=0753aa32-7d13-4cf4-860d-f0311d56e151"},"vehicle_type_id":"4","last_reported":1777062906,"current_range_meters":3200,"station_id":"ce4bgt12rcd13ifvqcd0","pricing_plan_id":"cebpf4jnsgd1na2vs0mg"},{"bike_id":"c996df70-a5a0-469d-8a53-7078b74997aa","system_id":"levelo_inurba_marseille","lat":43.308016,"lon":5.381593,"is_reserved":false,"is_disabled":false,"rental_uris":{"android":"levelo://app?vid=c996df70-a5a0-469d-8a53-7078b74997aa","ios":"levelo://app?vid=c996df70-a5a0-469d-8a53-7078b74997aa"},"vehicle_type_id":"4","last_reported":1777062906,"current_range_meters":3600,"station_id":"ce4bgt12rcd13ifvqce0","pricing_plan_id":"cebpf4jnsgd1na2vs0mg"},{"bike_id":"998d8e4e-7e93-494d-adb3-57b994dc7798","system_id":"levelo_inurba_marseille","lat":43.27354,"lon":5.36238,"is_reserved":false,"is_disabled":true,"rental_uris":{"android":"levelo://app?vid=998d8e4e-7e93-494d-adb3-57b994dc7798","ios":"levelo://app?vid=998d8e4e-7e93-494d-adb3-57b994dc7798"},"vehicle_type_id":"4","last_reported":1777062906,"current_range_meters":3600,"station_id":"ce4bhbh2rcd13ifvqeo0","pricing_plan_id":"cebpf4jnsgd1na2vs0mg"},{"bike_id":"be3395ac-ccc9-4697-8504-3a4d24ca70ac","system_id":"levelo_inurba_marseille","lat":43.29679,"lon":5.3662,"is_reserved":false,"is_disabled":false,"rental_uris":{"android":"levelo://app?vid=be3395ac-ccc9-4697-8504-3a4d24ca70ac","ios":"levelo://app?vid=be3395ac-ccc9-4697-8504-3a4d24ca70ac"},"vehicle_type_id":"4","last_reported":1777062906,"current_range_meters":3600,"station_id":"ce4bgn12rcd13ifvqbt0","pricing_plan_id":"cebpf4jnsgd1na2vs0mg"},{"bike_id":"1e459870-22cf-4913-9639-b338816afd22","system_id":"levelo_inurba_marseille","lat":43.29544,"lon":5.38543,"is_reserved":false,"is_disabled":false,"rental_uris":{"android":"levelo://app?vid=1e459870-22cf-4913-9639-b338816afd22","ios":"levelo://app?vid=1e459870-22cf-4913-9639-b338816afd22"},"vehicle_type_id":"4","last_reported":1777062906,"current_range_meters":3600,"station_id":"ce4bgih2rcd13ifvqba0","pricing_plan_id":"cebpf4jnsgd1na2vs0mg"},{"bike_id":"ecdd1e60-1fc1-490d-889b-d83c1e7933b8","system_id":"levelo_inurba_marseille","lat":43.23957,"lon":5.36639,"is_reserved":false,"is_disabled":false,"rental_uris":{"android":"levelo://app?vid=ecdd1e60-1fc1-490d-889b-d83c1e7933b8","ios":"levelo://app?vid=ecdd1e60-1fc1-490d-889b-d83c1e7933b8"},"vehicle_type_id":"4","last_reported":1777062906,"current_range_meters":4000,"station_id":"ce4bhi12rcd13ifvqfp0","pricing_plan_id":"cebpf4jnsgd1na2vs0mg"},{"bike_id":"20c3670a-57f9-4aca-b674-acf22d26b0f8","system_id":"levelo_inurba_marseille","lat":43.23962,"lon":5.36624,"is_reserved":false,"is_disabled":true,"rental_uris":{"android":"levelo://app?vid=20c3670a-57f9-4aca-b674-acf22d26b0f8","ios":"levelo://app?vid=20c3670a-57f9-4aca-b674-acf22d26b0f8"},"vehicle_type_id":"4","last_reported":1777062906,"current_range_meters":4000,"station_id":"ce4bhi12rcd13ifvqfp0","pricing_plan_id":"cebpf4jnsgd1na2vs0mg"},{"bike_id":"ea3c1786-161a-49ba-9999-4db433e959c3","system_id":"levelo_inurba_marseille","lat":43.2446,"lon":5.40898,"is_reserved":false,"is_disabled":false,"rental_uris":{"android":"levelo://app?vid=ea3c1786-161a-49ba-9999-4db433e959c3","ios":"levelo://app?vid=ea3c1786-161a-49ba-9999-4db433e959c3"},"vehicle_type_id":"4","last_reported":1777062906,"current_range_meters":4000,"station_id":"","pricing_plan_id":"cebpf4jnsgd1na2vs0mg"},{"bike_id":"764ec0c1-3a77-48f8-9987-91f818bdaa8b","system_id":"levelo_inurba_marseille","lat":43.2847,"lon":5.38417,"is_reserved":false,"is_disabled":false,"rental_uris":{"android":"levelo://app?vid=764ec0c1-3a77-48f8-9987-91f818bdaa8b","ios":"levelo://app?vid=764ec0c1-3a77-48f8-9987-91f818bdaa8b"},"vehicle_type_id":"4","last_reported":1777062906,"current_range_meters":4000,"station_id":"ce4bh512rcd13ifvqe3g","pricing_plan_id":"cebpf4jnsgd1na2vs0mg"},{"bike_id":"69acbd92-9477-4652-a135-80d94514811f","system_id":"levelo_inurba_marseille","lat":43.293,"lon":5.37459,"is_reserved":false,"is_disabled":false,"rental_uris":{"android":"levelo://app?vid=69acbd92-9477-4652-a135-80d94514811f","ios":"levelo://app?vid=69acbd92-9477-4652-a135-80d94514811f"},"vehicle_type_id":"4","last_reported":1777062906,"current_range_meters":4000,"station_id":"ce4bgi12rcd13ifvqb70","pricing_plan_id":"cebpf4jnsgd1na2vs0mg"},{"bike_id":"8cface65-b4eb-461b-bfbf-47e7ffe88fe6","system_id":"levelo_inurba_marseille","lat":43.27455,"lon":5.43886,"is_reserved":false,"is_disabled":false,"rental_uris":{"android":"levelo://app?vid=8cface65-b4eb-461b-bfbf-47e7ffe88fe6","ios":"levelo://app?vid=8cface65-b4eb-461b-bfbf-47e7ffe88fe6"},"vehicle_type_id":"4","last_reported":1777062906,"current_range_meters":4000,"station_id":"","pricing_plan_id":"cebpf4jnsgd1na2vs0mg"},{"bike_id":"79dd9a77-c442-4f8d-8010-bcc63037b679","system_id":"levelo_inurba_marseille","lat":43.2667,"lon":5.38298,"is_reserved":false,"is_disabled":false,"rental_uris":{"android":"levelo://app?vid=79dd9a77-c442-4f8d-8010-bcc63037b679","ios":"levelo://app?vid=79dd9a77-c442-4f8d-8010-bcc63037b679"},"vehicle_type_id":"4","last_reported":1777062906,"current_range_meters":4000,"station_id":"ce4bhg92rcd13ifvqf90","pricing_plan_id":"cebpf4jnsgd1na2vs0mg"},{"bike_id":"29ed82ef-9912-4a6f-b24d-e9a33ce9f16c","system_id":"levelo_inurba_marseille","lat":43.29936,"lon":5.36545,"is_reserved":false,"is_disabled":false,"rental_uris":{"android":"levelo://app?vid=29ed82ef-9912-4a6f-b24d-e9a33ce9f16c","ios":"levelo://app?vid=29ed82ef-9912-4a6f-b24d-e9a33ce9f16c"},"vehicle_type_id":"4","last_reported":1777062906,"current_range_meters":4000,"station_id":"ce4bgm92rcd13ifvqbr0","pricing_plan_id":"cebpf4jnsgd1na2vs0mg"},{"bike_id":"e596e608-f85e-4fc0-9be5-0ba85c066bb6","system_id":"levelo_inurba_marseille","lat":43.27508,"lon":5.4244,"is_reserved":false,"is_disabled":false,"rental_uris":{"android":"levelo://app?vid=e596e608-f85e-4fc0-9be5-0ba85c066bb6","ios":"levelo://app?vid=e596e608-f85e-4fc0-9be5-0ba85c066bb6"},"vehicle_type_id":"4","last_reported":1777062906,"current_range_meters":4000,"station_id":"ce4bhn92rcd13ifvqgrg","pricing_plan_id":"cebpf4jnsgd1na2vs0mg"},{"bike_id":"40c1815e-7f94-4a71-a786-6fdbbf279016","system_id":"levelo_inurba_marseille","lat":43.32108,"lon":5.36765,"is_reserved":false,"is_disabled":false,"rental_uris":{"android":"levelo://app?vid=40c1815e-7f94-4a71-a786-6fdbbf279016","ios":"levelo://app?vid=40c1815e-7f94-4a71-a786-6fdbbf279016"},"vehicle_type_id":"4","last_reported":1777062906,"current_range_meters":4000,"station_id":"ce4bhrh2rcd13ifvqhug","pricing_plan_id":"cebpf4jnsgd1na2vs0mg"},{"bike_id":"99778d35-0f2a-4171-908b-e4860bced3d7","system_id":"levelo_inurba_marseille","lat":43.29273,"lon":5.37633,"is_reserved":false,"is_disabled":false,"rental_uris":{"android":"levelo://app?vid=99778d35-0f2a-4171-908b-e4860bced3d7","ios":"levelo://app?vid=99778d35-0f2a-4171-908b-e4860bced3d7"},"vehicle_type_id":"4","last_reported":1777062906,"current_range_meters":4000,"station_id":"ce4bgi12rcd13ifvqb80","pricing_plan_id":"cebpf4jnsgd1na2vs0mg"},{"bike_id":"f4d9ef01-6b22-4474-afe1-c4f05b6d6ca5","system_id":"levelo_inurba_marseille","lat":43.27102,"lon":5.42293,"is_reserved":false,"is_disabled":false,"rental_uris":{"android":"levelo://app?vid=f4d9ef01-6b22-4474-afe1-c4f05b6d6ca5","ios":"levelo://app?vid=f4d9ef01-6b22-4474-afe1-c4f05b6d6ca5"},"vehicle_type_id":"4","last_reported":1777062906,"current_range_meters":4000,"station_id":"ce4bhk92rcd13ifvqgb0","pricing_plan_id":"cebpf4jnsgd1na2vs0mg"},{"bike_id":"22d9132b-22f3-4512-a4d9-79ff1dc35cb4","system_id":"levelo_inurba_marseille","lat":43.2293,"lon":5.35373,"is_reserved":false,"is_disabled":false,"rental_uris":{"android":"levelo://app?vid=22d9132b-22f3-4512-a4d9-79ff1dc35cb4","ios":"levelo://app?vid=22d9132b-22f3-4512-a4d9-79ff1dc35cb4"},"vehicle_type_id":"4","last_reported":1777062906,"current_range_meters":4000,"station_id":"cpo3532slgdg3j2ikp40","pricing_plan_id":"cebpf4jnsgd1na2vs0mg"},{"bike_id":"52aa945e-ce19-49e8-b6bb-cf6758b69c7c","system_id":"levelo_inurba_marseille","lat":43.30144,"lon":5.38086,"is_reserved":false,"is_disabled":false,"rental_uris":{"android":"levelo://app?vid=52aa945e-ce19-49e8-b6bb-cf6758b69c7c","ios":"levelo://app?vid=52aa945e-ce19-49e8-b6bb-cf6758b69c7c"},"vehicle_type_id":"4","last_reported":1777062906,"current_range_meters":4400,"station_id":"ce4bgjp2rcd13ifvqbh0","pricing_plan_id":"cebpf4jnsgd1na2vs0mg"},{"bike_id":"5b13cc4a-0e06-49e9-bfaf-fe74923049b9","system_id":"levelo_inurba_marseille","lat":43.29494,"lon":5.37514,"is_reserved":false,"is_disabled":false,"rental_uris":{"android":"levelo://app?vid=5b13cc4a-0e06-49e9-bfaf-fe74923049b9","ios":"levelo://app?vid=5b13cc4a-0e06-49e9-bfaf-fe74923049b9"},"vehicle_type_id":"4","last_reported":1777062906,"current_range_meters":4400,"station_id":"ce4bgkp2rcd13ifvqbmg","pricing_plan_id":"cebpf4jnsgd1na2vs0mg"},{"bike_id":"67cea062-d66f-4a7a-9c0a-41e54e217db1","system_id":"levelo_inurba_marseille","lat":43.29604,"lon":5.38974,"is_reserved":false,"is_disabled":false,"rental_uris":{"android":"levelo://app?vid=67cea062-d66f-4a7a-9c0a-41e54e217db1","ios":"levelo://app?vid=67cea062-d66f-4a7a-9c0a-41e54e217db1"},"vehicle_type_id":"4","last_reported":1777062906,"current_range_meters":4800,"station_id":"","pricing_plan_id":"cebpf4jnsgd1na2vs0mg"},{"bike_id":"f8a83fb6-7d2a-428c-bd05-e015e93a936e","system_id":"levelo_inurba_marseille","lat":43.29871,"lon":5.38908,"is_reserved":false,"is_disabled":false,"rental_uris":{"android":"levelo://app?vid=f8a83fb6-7d2a-428c-bd05-e015e93a936e","ios":"levelo://app?vid=f8a83fb6-7d2a-428c-bd05-e015e93a936e"},"vehicle_type_id":"4","last_reported":1777062906,"current_range_meters":4800,"station_id":"ce4bh392rcd13ifvqdl0","pricing_plan_id":"cebpf4jnsgd1na2vs0mg"},{"bike_id":"53d0b464-9d84-4ebb-a788-233487c8451c","system_id":"levelo_inurba_marseille","lat":43.33261,"lon":5.37783,"is_reserved":false,"is_disabled":false,"rental_uris":{"android":"levelo://app?vid=53d0b464-9d84-4ebb-a788-233487c8451c","ios":"levelo://app?vid=53d0b464-9d84-4ebb-a788-233487c8451c"},"vehicle_type_id":"4","last_reported":1777062906,"current_range_meters":4800,"station_id":"","pricing_plan_id":"cebpf4jnsgd1na2vs0mg"},{"bike_id":"f7d2c842-67cc-480e-93ef-1402adc37955","system_id":"levelo_inurba_marseille","lat":43.28937,"lon":5.36638,"is_reserved":false,"is_disabled":false,"rental_uris":{"android":"levelo://app?vid=f7d2c842-67cc-480e-93ef-1402adc37955","ios":"levelo://app?vid=f7d2c842-67cc-480e-93ef-1402adc37955"},"vehicle_type_id":"4","last_reported":1777062906,"current_range_meters":4800,"station_id":"ce4bhap2rcd13ifvqek0","pricing_plan_id":"cebpf4jnsgd1na2vs0mg"},{"bike_id":"fd8d4b90-85c6-45fd-adb3-215c68fcfe63","system_id":"levelo_inurba_marseille","lat":43.29976,"lon":5.38488,"is_reserved":false,"is_disabled":false,"rental_uris":{"android":"levelo://app?vid=fd8d4b90-85c6-45fd-adb3-215c68fcfe63","ios":"levelo://app?vid=fd8d4b90-85c6-45fd-adb3-215c68fcfe63"},"vehicle_type_id":"4","last_reported":1777062906,"current_range_meters":4800,"station_id":"ce4bgj92rcd13ifvqbd0","pricing_plan_id":"cebpf4jnsgd1na2vs0mg"},{"bike_id":"416a18e8-cfad-45f6-9579-0f51ebff9cdb","system_id":"levelo_inurba_marseille","lat":43.2953,"lon":5.38549,"is_reserved":false,"is_disabled":false,"rental_uris":{"android":"levelo://app?vid=416a18e8-cfad-45f6-9579-0f51ebff9cdb","ios":"levelo://app?vid=416a18e8-cfad-45f6-9579-0f51ebff9cdb"},"vehicle_type_id":"4","last_reported":1777062906,"current_range_meters":4800,"station_id":"","pricing_plan_id":"cebpf4jnsgd1na2vs0mg"},{"bike_id":"26a0d0f8-1e0f-4634-b2bb-e08eb029d97b","system_id":"levelo_inurba_marseille","lat":43.30604,"lon":5.37227,"is_reserved":false,"is_disabled":false,"rental_uris":{"android":"levelo://app?vid=26a0d0f8-1e0f-4634-b2bb-e08eb029d97b","ios":"levelo://app?vid=26a0d0f8-1e0f-4634-b2bb-e08eb029d97b"},"vehicle_type_id":"4","last_reported":1777062906,"current_range_meters":5600,"station_id":"ce4bgqh2rcd13ifvqc4g","pricing_plan_id":"cebpf4jnsgd1na2vs0mg"},{"bike_id":"54a75b0a-08ed-4f39-98a6-ead70631a9f0","system_id":"levelo_inurba_marseille","lat":43.26946,"lon":5.40254,"is_reserved":false,"is_disabled":false,"rental_uris":{"android":"levelo://app?vid=54a75b0a-08ed-4f39-98a6-ead70631a9f0","ios":"levelo://app?vid=54a75b0a-08ed-4f39-98a6-ead70631a9f0"},"vehicle_type_id":"4","last_reported":1777062906,"current_range_meters":5600,"station_id":"cjm6bp8fraef2m0cb0m0","pricing_plan_id":"cebpf4jnsgd1na2vs0mg"},{"bike_id":"acf82efa-a92d-4180-88e8-85e89186a378","system_id":"levelo_inurba_marseille","lat":43.269333,"lon":5.402513,"is_reserved":false,"is_disabled":false,"rental_uris":{"android":"levelo://app?vid=acf82efa-a92d-4180-88e8-85e89186a378","ios":"levelo://app?vid=acf82efa-a92d-4180-88e8-85e89186a378"},"vehicle_type_id":"4","last_reported":1777062906,"current_range_meters":5600,"station_id":"cjm6bp8fraef2m0cb0m0","pricing_plan_id":"cebpf4jnsgd1na2vs0mg"},{"bike_id":"2d42be0a-583e-4a67-ad38-b849541c12ba","system_id":"levelo_inurba_marseille","lat":43.28948,"lon":5.36397,"is_reserved":false,"is_disabled":false,"rental_uris":{"android":"levelo://app?vid=2d42be0a-583e-4a67-ad38-b849541c12ba","ios":"levelo://app?vid=2d42be0a-583e-4a67-ad38-b849541c12ba"},"vehicle_type_id":"4","last_reported":1777062906,"current_range_meters":5600,"station_id":"ce4bhc92rcd13ifvqetg","pricing_plan_id":"cebpf4jnsgd1na2vs0mg"},{"bike_id":"146def8f-c25a-4a36-bb78-c0e04f65294e","system_id":"levelo_inurba_marseille","lat":43.28878,"lon":5.43038,"is_reserved":false,"is_disabled":false,"rental_uris":{"android":"levelo://app?vid=146def8f-c25a-4a36-bb78-c0e04f65294e","ios":"levelo://app?vid=146def8f-c25a-4a36-bb78-c0e04f65294e"},"vehicle_type_id":"4","last_reported":1777062906,"current_range_meters":5600,"station_id":"","pricing_plan_id":"cebpf4jnsgd1na2vs0mg"},{"bike_id":"0c22485a-a711-4725-8592-dab240ed7b73","system_id":"levelo_inurba_marseille","lat":43.23964,"lon":5.36624,"is_reserved":false,"is_disabled":false,"rental_uris":{"android":"levelo://app?vid=0c22485a-a711-4725-8592-dab240ed7b73","ios":"levelo://app?vid=0c22485a-a711-4725-8592-dab240ed7b73"},"vehicle_type_id":"4","last_reported":1777062906,"current_range_meters":5600,"station_id":"ce4bhi12rcd13ifvqfp0","pricing_plan_id":"cebpf4jnsgd1na2vs0mg"},{"bike_id":"001ed0b6-f80d-40bc-93ea-a2f882ed6577","system_id":"levelo_inurba_marseille","lat":43.31113,"lon":5.37771,"is_reserved":false,"is_disabled":true,"rental_uris":{"android":"levelo://app?vid=001ed0b6-f80d-40bc-93ea-a2f882ed6577","ios":"levelo://app?vid=001ed0b6-f80d-40bc-93ea-a2f882ed6577"},"vehicle_type_id":"4","last_reported":1777062906,"current_range_meters":5600,"station_id":"ce4bgt92rcd13ifvqcg0","pricing_plan_id":"cebpf4jnsgd1na2vs0mg"},{"bike_id":"89cb976b-df3a-46fc-a9ef-0025de561630","system_id":"levelo_inurba_marseille","lat":43.29441,"lon":5.43378,"is_reserved":false,"is_disabled":false,"rental_uris":{"android":"levelo://app?vid=89cb976b-df3a-46fc-a9ef-0025de561630","ios":"levelo://app?vid=89cb976b-df3a-46fc-a9ef-0025de561630"},"vehicle_type_id":"4","last_reported":1777062906,"current_range_meters":5600,"station_id":"","pricing_plan_id":"cebpf4jnsgd1na2vs0mg"},{"bike_id":"16303f13-7b85-46f0-a736-bb7238c3ce51","system_id":"levelo_inurba_marseille","lat":43.30593,"lon":5.37219,"is_reserved":false,"is_disabled":false,"rental_uris":{"android":"levelo://app?vid=16303f13-7b85-46f0-a736-bb7238c3ce51","ios":"levelo://app?vid=16303f13-7b85-46f0-a736-bb7238c3ce51"},"vehicle_type_id":"4","last_reported":1777062906,"current_range_meters":5600,"station_id":"ce4bgqh2rcd13ifvqc4g","pricing_plan_id":"cebpf4jnsgd1na2vs0mg"},{"bike_id":"250b15a8-ae72-4a04-beeb-15324439784f","system_id":"levelo_inurba_marseille","lat":43.31471,"lon":5.3731,"is_reserved":false,"is_disabled":false,"rental_uris":{"android":"levelo://app?vid=250b15a8-ae72-4a04-beeb-15324439784f","ios":"levelo://app?vid=250b15a8-ae72-4a04-beeb-15324439784f"},"vehicle_type_id":"4","last_reported":1777062906,"current_range_meters":5600,"station_id":"ce4bgt12rcd13ifvqcd0","pricing_plan_id":"cebpf4jnsgd1na2vs0mg"},{"bike_id":"4e792e19-7973-4766-b248-14fc3cd2dc95","system_id":"levelo_inurba_marseille","lat":43.24393,"lon":5.3707,"is_reserved":false,"is_disabled":false,"rental_uris":{"android":"levelo://app?vid=4e792e19-7973-4766-b248-14fc3cd2dc95","ios":"levelo://app?vid=4e792e19-7973-4766-b248-14fc3cd2dc95"},"vehicle_type_id":"4","last_reported":1777062906,"current_range_meters":5600,"station_id":"ce4bhhh2rcd13ifvqfk0","pricing_plan_id":"cebpf4jnsgd1na2vs0mg"},{"bike_id":"2a92dd89-d84c-4dbf-aad7-01f998eb74ae","system_id":"levelo_inurba_marseille","lat":43.2996,"lon":5.41318,"is_reserved":false,"is_disabled":false,"rental_uris":{"android":"levelo://app?vid=2a92dd89-d84c-4dbf-aad7-01f998eb74ae","ios":"levelo://app?vid=2a92dd89-d84c-4dbf-aad7-01f998eb74ae"},"vehicle_type_id":"4","last_reported":1777062906,"current_range_meters":5600,"station_id":"ce4bhp12rcd13ifvqh9g","pricing_plan_id":"cebpf4jnsgd1na2vs0mg"},{"bike_id":"79a24085-4359-4240-9f3a-3aaf16d39769","system_id":"levelo_inurba_marseille","lat":43.2996,"lon":5.38509,"is_reserved":false,"is_disabled":false,"rental_uris":{"android":"levelo://app?vid=79a24085-4359-4240-9f3a-3aaf16d39769","ios":"levelo://app?vid=79a24085-4359-4240-9f3a-3aaf16d39769"},"vehicle_type_id":"4","last_reported":1777062906,"current_range_meters":5600,"station_id":"ce4bgj92rcd13ifvqbd0","pricing_plan_id":"cebpf4jnsgd1na2vs0mg"},{"bike_id":"2f5837b5-417d-4465-9514-c2e400d5dd41","system_id":"levelo_inurba_marseille","lat":43.25346,"lon":5.42173,"is_reserved":false,"is_disabled":false,"rental_uris":{"android":"levelo://app?vid=2f5837b5-417d-4465-9514-c2e400d5dd41","ios":"levelo://app?vid=2f5837b5-417d-4465-9514-c2e400d5dd41"},"vehicle_type_id":"4","last_reported":1777062906,"current_range_meters":5600,"station_id":"st_d2m65c5bi1j21697t3ng","pricing_plan_id":"cebpf4jnsgd1na2vs0mg"},{"bike_id":"ab48882c-9141-4360-92a5-c588dab21e41","system_id":"levelo_inurba_marseille","lat":43.28339,"lon":5.38113,"is_reserved":false,"is_disabled":false,"rental_uris":{"android":"levelo://app?vid=ab48882c-9141-4360-92a5-c588dab21e41","ios":"levelo://app?vid=ab48882c-9141-4360-92a5-c588dab21e41"},"vehicle_type_id":"4","last_reported":1777062906,"current_range_meters":5600,"station_id":"ce4bh412rcd13ifvqdr0","pricing_plan_id":"cebpf4jnsgd1na2vs0mg"},{"bike_id":"71e32b23-6473-49a7-84f1-d3b88c27d1f4","system_id":"levelo_inurba_marseille","lat":43.23966,"lon":5.36631,"is_reserved":false,"is_disabled":false,"rental_uris":{"android":"levelo://app?vid=71e32b23-6473-49a7-84f1-d3b88c27d1f4","ios":"levelo://app?vid=71e32b23-6473-49a7-84f1-d3b88c27d1f4"},"vehicle_type_id":"4","last_reported":1777062906,"current_range_meters":6000,"station_id":"ce4bhi12rcd13ifvqfp0","pricing_plan_id":"cebpf4jnsgd1na2vs0mg"},{"bike_id":"66cc7df0-e04c-43bc-96f4-f5d8be3baa28","system_id":"levelo_inurba_marseille","lat":43.30921,"lon":5.39633,"is_reserved":false,"is_disabled":false,"rental_uris":{"android":"levelo://app?vid=66cc7df0-e04c-43bc-96f4-f5d8be3baa28","ios":"levelo://app?vid=66cc7df0-e04c-43bc-96f4-f5d8be3baa28"},"vehicle_type_id":"4","last_reported":1777062906,"current_range_meters":6000,"station_id":"ce4bh012rcd13ifvqcv0","pricing_plan_id":"cebpf4jnsgd1na2vs0mg"},{"bike_id":"aa897415-67a0-4b07-b64e-cbc8da7d4792","system_id":"levelo_inurba_marseille","lat":43.24173,"lon":5.364,"is_reserved":false,"is_disabled":false,"rental_uris":{"android":"levelo://app?vid=aa897415-67a0-4b07-b64e-cbc8da7d4792","ios":"levelo://app?vid=aa897415-67a0-4b07-b64e-cbc8da7d4792"},"vehicle_type_id":"4","last_reported":1777062906,"current_range_meters":6000,"station_id":"cpo36qri1sfpv3e86is0","pricing_plan_id":"cebpf4jnsgd1na2vs0mg"},{"bike_id":"bf941743-da61-4fe3-9e32-46f004a7578b","system_id":"levelo_inurba_marseille","lat":43.28626,"lon":5.37066,"is_reserved":false,"is_disabled":false,"rental_uris":{"android":"levelo://app?vid=bf941743-da61-4fe3-9e32-46f004a7578b","ios":"levelo://app?vid=bf941743-da61-4fe3-9e32-46f004a7578b"},"vehicle_type_id":"4","last_reported":1777062906,"current_range_meters":6000,"station_id":"ce4bht12rcd13ifvqi60","pricing_plan_id":"cebpf4jnsgd1na2vs0mg"},{"bike_id":"d6547d7c-22de-4211-8570-dad16c77ec67","system_id":"levelo_inurba_marseille","lat":43.27719,"lon":5.3892,"is_reserved":false,"is_disabled":false,"rental_uris":{"android":"levelo://app?vid=d6547d7c-22de-4211-8570-dad16c77ec67","ios":"levelo://app?vid=d6547d7c-22de-4211-8570-dad16c77ec67"},"vehicle_type_id":"4","last_reported":1777062906,"current_range_meters":6000,"station_id":"ce4bhi12rcd13ifvqfo0","pricing_plan_id":"cebpf4jnsgd1na2vs0mg"},{"bike_id":"0802d81a-fc51-4a40-b8bd-5dbd8906e7aa","system_id":"levelo_inurba_marseille","lat":43.30948,"lon":5.39044,"is_reserved":false,"is_disabled":false,"rental_uris":{"android":"levelo://app?vid=0802d81a-fc51-4a40-b8bd-5dbd8906e7aa","ios":"levelo://app?vid=0802d81a-fc51-4a40-b8bd-5dbd8906e7aa"},"vehicle_type_id":"4","last_reported":1777062906,"current_range_meters":6000,"station_id":"ce4bgup2rcd13ifvqco0","pricing_plan_id":"cebpf4jnsgd1na2vs0mg"},{"bike_id":"81aac9ff-484f-4851-bab4-3dd3b4973c75","system_id":"levelo_inurba_marseille","lat":43.260631,"lon":5.393994,"is_reserved":false,"is_disabled":false,"rental_uris":{"android":"levelo://app?vid=81aac9ff-484f-4851-bab4-3dd3b4973c75","ios":"levelo://app?vid=81aac9ff-484f-4851-bab4-3dd3b4973c75"},"vehicle_type_id":"4","last_reported":1777062906,"current_range_meters":6000,"station_id":"ce4bhh92rcd13ifvqfj0","pricing_plan_id":"cebpf4jnsgd1na2vs0mg"},{"bike_id":"eb54d19c-192d-4b9f-8d7f-dd3accd1602e","system_id":"levelo_inurba_marseille","lat":43.24828,"lon":5.37434,"is_reserved":false,"is_disabled":false,"rental_uris":{"android":"levelo://app?vid=eb54d19c-192d-4b9f-8d7f-dd3accd1602e","ios":"levelo://app?vid=eb54d19c-192d-4b9f-8d7f-dd3accd1602e"},"vehicle_type_id":"4","last_reported":1777062906,"current_range_meters":6000,"station_id":"ce4bhgh2rcd13ifvqfb0","pricing_plan_id":"cebpf4jnsgd1na2vs0mg"},{"bike_id":"8c1a2ef2-c087-437f-a16e-f54651ee67d6","system_id":"levelo_inurba_marseille","lat":43.2533,"lon":5.42164,"is_reserved":false,"is_disabled":false,"rental_uris":{"android":"levelo://app?vid=8c1a2ef2-c087-437f-a16e-f54651ee67d6","ios":"levelo://app?vid=8c1a2ef2-c087-437f-a16e-f54651ee67d6"},"vehicle_type_id":"4","last_reported":1777062906,"current_range_meters":6000,"station_id":"st_d2m65c5bi1j21697t3ng","pricing_plan_id":"cebpf4jnsgd1na2vs0mg"},{"bike_id":"50b3537d-0369-460e-8281-426df86e0856","system_id":"levelo_inurba_marseille","lat":43.30071,"lon":5.36431,"is_reserved":false,"is_disabled":false,"rental_uris":{"android":"levelo://app?vid=50b3537d-0369-460e-8281-426df86e0856","ios":"levelo://app?vid=50b3537d-0369-460e-8281-426df86e0856"},"vehicle_type_id":"4","last_reported":1777062906,"current_range_meters":6000,"station_id":"","pricing_plan_id":"cebpf4jnsgd1na2vs0mg"},{"bike_id":"c025fe4d-f167-4f80-bde7-0dfb9be7b37b","system_id":"levelo_inurba_marseille","lat":43.28489,"lon":5.48387,"is_reserved":false,"is_disabled":false,"rental_uris":{"android":"levelo://app?vid=c025fe4d-f167-4f80-bde7-0dfb9be7b37b","ios":"levelo://app?vid=c025fe4d-f167-4f80-bde7-0dfb9be7b37b"},"vehicle_type_id":"4","last_reported":1777062906,"current_range_meters":6000,"station_id":"","pricing_plan_id":"cebpf4jnsgd1na2vs0mg"},{"bike_id":"cc6d4929-8f81-46f1-be08-ec8940872d17","system_id":"levelo_inurba_marseille","lat":43.24807,"lon":5.37459,"is_reserved":false,"is_disabled":false,"rental_uris":{"android":"levelo://app?vid=cc6d4929-8f81-46f1-be08-ec8940872d17","ios":"levelo://app?vid=cc6d4929-8f81-46f1-be08-ec8940872d17"},"vehicle_type_id":"4","last_reported":1777062906,"current_range_meters":6000,"station_id":"ce4bhgh2rcd13ifvqfb0","pricing_plan_id":"cebpf4jnsgd1na2vs0mg"},{"bike_id":"6a979988-2dd0-41f2-9c5f-0c6cc10fba5f","system_id":"levelo_inurba_marseille","lat":43.24162,"lon":5.36405,"is_reserved":false,"is_disabled":false,"rental_uris":{"android":"levelo://app?vid=6a979988-2dd0-41f2-9c5f-0c6cc10fba5f","ios":"levelo://app?vid=6a979988-2dd0-41f2-9c5f-0c6cc10fba5f"},"vehicle_type_id":"4","last_reported":1777062906,"current_range_meters":6000,"station_id":"cpo36qri1sfpv3e86is0","pricing_plan_id":"cebpf4jnsgd1na2vs0mg"},{"bike_id":"3fa30b84-5358-48dc-9a44-74188662e445","system_id":"levelo_inurba_marseille","lat":43.27206,"lon":5.39182,"is_reserved":false,"is_disabled":false,"rental_uris":{"android":"levelo://app?vid=3fa30b84-5358-48dc-9a44-74188662e445","ios":"levelo://app?vid=3fa30b84-5358-48dc-9a44-74188662e445"},"vehicle_type_id":"4","last_reported":1777062906,"current_range_meters":6000,"station_id":"ce4bhhp2rcd13ifvqfm0","pricing_plan_id":"cebpf4jnsgd1na2vs0mg"},{"bike_id":"30096d7e-50dc-46ab-863d-777f5c866e7e","system_id":"levelo_inurba_marseille","lat":43.30327,"lon":5.40437,"is_reserved":false,"is_disabled":false,"rental_uris":{"android":"levelo://app?vid=30096d7e-50dc-46ab-863d-777f5c866e7e","ios":"levelo://app?vid=30096d7e-50dc-46ab-863d-777f5c866e7e"},"vehicle_type_id":"4","last_reported":1777062906,"current_range_meters":6000,"station_id":"ce4bh012rcd13ifvqd10","pricing_plan_id":"cebpf4jnsgd1na2vs0mg"},{"bike_id":"3c117dfa-60ac-4ace-8301-74fbc90cd767","system_id":"levelo_inurba_marseille","lat":43.30143,"lon":5.38057,"is_reserved":false,"is_disabled":false,"rental_uris":{"android":"levelo://app?vid=3c117dfa-60ac-4ace-8301-74fbc90cd767","ios":"levelo://app?vid=3c117dfa-60ac-4ace-8301-74fbc90cd767"},"vehicle_type_id":"4","last_reported":1777062906,"current_range_meters":6000,"station_id":"ce4bgjp2rcd13ifvqbh0","pricing_plan_id":"cebpf4jnsgd1na2vs0mg"},{"bike_id":"4453c01c-b844-4c68-8e60-1655e94625b7","system_id":"levelo_inurba_marseille","lat":43.27454,"lon":5.43905,"is_reserved":false,"is_disabled":false,"rental_uris":{"android":"levelo://app?vid=4453c01c-b844-4c68-8e60-1655e94625b7","ios":"levelo://app?vid=4453c01c-b844-4c68-8e60-1655e94625b7"},"vehicle_type_id":"4","last_reported":1777062906,"current_range_meters":6000,"station_id":"","pricing_plan_id":"cebpf4jnsgd1na2vs0mg"},{"bike_id":"1f3906dd-948e-4d18-9bb2-b2fc350fa481","system_id":"levelo_inurba_marseille","lat":43.27417,"lon":5.39388,"is_reserved":false,"is_disabled":true,"rental_uris":{"android":"levelo://app?vid=1f3906dd-948e-4d18-9bb2-b2fc350fa481","ios":"levelo://app?vid=1f3906dd-948e-4d18-9bb2-b2fc350fa481"},"vehicle_type_id":"4","last_reported":1777062906,"current_range_meters":6000,"station_id":"ce4bhdp2rcd13ifvqf20","pricing_plan_id":"cebpf4jnsgd1na2vs0mg"},{"bike_id":"e00985dd-0b9c-4883-8a91-d09e406e1f1d","system_id":"levelo_inurba_marseille","lat":43.28838,"lon":5.39325,"is_reserved":false,"is_disabled":false,"rental_uris":{"android":"levelo://app?vid=e00985dd-0b9c-4883-8a91-d09e406e1f1d","ios":"levelo://app?vid=e00985dd-0b9c-4883-8a91-d09e406e1f1d"},"vehicle_type_id":"4","last_reported":1777062906,"current_range_meters":6000,"station_id":"ce4bh2p2rcd13ifvqdi0","pricing_plan_id":"cebpf4jnsgd1na2vs0mg"},{"bike_id":"e5e63193-5312-4d1c-a6cc-0cc819f9cd6b","system_id":"levelo_inurba_marseille","lat":43.27058,"lon":5.38312,"is_reserved":false,"is_disabled":false,"rental_uris":{"android":"levelo://app?vid=e5e63193-5312-4d1c-a6cc-0cc819f9cd6b","ios":"levelo://app?vid=e5e63193-5312-4d1c-a6cc-0cc819f9cd6b"},"vehicle_type_id":"4","last_reported":1777062906,"current_range_meters":6000,"station_id":"st_d3n2fo6cfp8s73cte1j0","pricing_plan_id":"cebpf4jnsgd1na2vs0mg"},{"bike_id":"42b7c4cf-0acd-4821-8b50-2b6df3e9c52a","system_id":"levelo_inurba_marseille","lat":43.29634,"lon":5.3772,"is_reserved":false,"is_disabled":false,"rental_uris":{"android":"levelo://app?vid=42b7c4cf-0acd-4821-8b50-2b6df3e9c52a","ios":"levelo://app?vid=42b7c4cf-0acd-4821-8b50-2b6df3e9c52a"},"vehicle_type_id":"4","last_reported":1777062906,"current_range_meters":6400,"station_id":"ce4bgi92rcd13ifvqb90","pricing_plan_id":"cebpf4jnsgd1na2vs0mg"},{"bike_id":"03d50329-e768-413f-8f2a-24897a3a945b","system_id":"levelo_inurba_marseille","lat":43.24807,"lon":5.3745,"is_reserved":false,"is_disabled":false,"rental_uris":{"android":"levelo://app?vid=03d50329-e768-413f-8f2a-24897a3a945b","ios":"levelo://app?vid=03d50329-e768-413f-8f2a-24897a3a945b"},"vehicle_type_id":"4","last_reported":1777062906,"current_range_meters":6400,"station_id":"ce4bhgh2rcd13ifvqfb0","pricing_plan_id":"cebpf4jnsgd1na2vs0mg"},{"bike_id":"be0930f3-9e0a-47a5-bdbd-77b334870bac","system_id":"levelo_inurba_marseille","lat":43.28939,"lon":5.36627,"is_reserved":false,"is_disabled":false,"rental_uris":{"android":"levelo://app?vid=be0930f3-9e0a-47a5-bdbd-77b334870bac","ios":"levelo://app?vid=be0930f3-9e0a-47a5-bdbd-77b334870bac"},"vehicle_type_id":"4","last_reported":1777062906,"current_range_meters":6400,"station_id":"ce4bhap2rcd13ifvqek0","pricing_plan_id":"cebpf4jnsgd1na2vs0mg"},{"bike_id":"26e311ec-734f-477f-9bdc-cee009d68abe","system_id":"levelo_inurba_marseille","lat":43.33545,"lon":5.37465,"is_reserved":false,"is_disabled":false,"rental_uris":{"android":"levelo://app?vid=26e311ec-734f-477f-9bdc-cee009d68abe","ios":"levelo://app?vid=26e311ec-734f-477f-9bdc-cee009d68abe"},"vehicle_type_id":"4","last_reported":1777062906,"current_range_meters":6400,"station_id":"st_d46tts09ee8s73dlu43g","pricing_plan_id":"cebpf4jnsgd1na2vs0mg"},{"bike_id":"e8d6ce3d-1aa9-47ef-9b48-93862ee5f7fd","system_id":"levelo_inurba_marseille","lat":43.21297,"lon":5.35407,"is_reserved":false,"is_disabled":false,"rental_uris":{"android":"levelo://app?vid=e8d6ce3d-1aa9-47ef-9b48-93862ee5f7fd","ios":"levelo://app?vid=e8d6ce3d-1aa9-47ef-9b48-93862ee5f7fd"},"vehicle_type_id":"4","last_reported":1777062906,"current_range_meters":6400,"station_id":"","pricing_plan_id":"cebpf4jnsgd1na2vs0mg"},{"bike_id":"55489fe9-a91e-44b1-8204-b20940debb4b","system_id":"levelo_inurba_marseille","lat":43.28936,"lon":5.36634,"is_reserved":false,"is_disabled":false,"rental_uris":{"android":"levelo://app?vid=55489fe9-a91e-44b1-8204-b20940debb4b","ios":"levelo://app?vid=55489fe9-a91e-44b1-8204-b20940debb4b"},"vehicle_type_id":"4","last_reported":1777062906,"current_range_meters":6400,"station_id":"ce4bhap2rcd13ifvqek0","pricing_plan_id":"cebpf4jnsgd1na2vs0mg"},{"bike_id":"339f9ed8-fef7-4ead-8058-6522b87b475d","system_id":"levelo_inurba_marseille","lat":43.28724,"lon":5.3794,"is_reserved":false,"is_disabled":false,"rental_uris":{"android":"levelo://app?vid=339f9ed8-fef7-4ead-8058-6522b87b475d","ios":"levelo://app?vid=339f9ed8-fef7-4ead-8058-6522b87b475d"},"vehicle_type_id":"4","last_reported":1777062906,"current_range_meters":6400,"station_id":"ce4bh9p2rcd13ifvqec0","pricing_plan_id":"cebpf4jnsgd1na2vs0mg"},{"bike_id":"500c3cdf-5e69-46f4-9694-d063e2b1b8f7","system_id":"levelo_inurba_marseille","lat":43.31336,"lon":5.397,"is_reserved":false,"is_disabled":false,"rental_uris":{"android":"levelo://app?vid=500c3cdf-5e69-46f4-9694-d063e2b1b8f7","ios":"levelo://app?vid=500c3cdf-5e69-46f4-9694-d063e2b1b8f7"},"vehicle_type_id":"4","last_reported":1777062906,"current_range_meters":6400,"station_id":"ce4bgvp2rcd13ifvqcu0","pricing_plan_id":"cebpf4jnsgd1na2vs0mg"},{"bike_id":"b368c110-d0d2-4b4f-b409-b59532cc65bc","system_id":"levelo_inurba_marseille","lat":43.29049,"lon":5.39954,"is_reserved":false,"is_disabled":false,"rental_uris":{"android":"levelo://app?vid=b368c110-d0d2-4b4f-b409-b59532cc65bc","ios":"levelo://app?vid=b368c110-d0d2-4b4f-b409-b59532cc65bc"},"vehicle_type_id":"4","last_reported":1777062906,"current_range_meters":6400,"station_id":"ce4bh392rcd13ifvqdm0","pricing_plan_id":"cebpf4jnsgd1na2vs0mg"},{"bike_id":"dd2047c2-bb91-49cf-b349-a50990a16979","system_id":"levelo_inurba_marseille","lat":43.29031,"lon":5.3811,"is_reserved":false,"is_disabled":true,"rental_uris":{"android":"levelo://app?vid=dd2047c2-bb91-49cf-b349-a50990a16979","ios":"levelo://app?vid=dd2047c2-bb91-49cf-b349-a50990a16979"},"vehicle_type_id":"4","last_reported":1777062906,"current_range_meters":6400,"station_id":"ce4bh4p2rcd13ifvqe1g","pricing_plan_id":"cebpf4jnsgd1na2vs0mg"},{"bike_id":"90fac789-06e9-4c33-94b9-e82543e03c21","system_id":"levelo_inurba_marseille","lat":43.2738,"lon":5.36257,"is_reserved":false,"is_disabled":true,"rental_uris":{"android":"levelo://app?vid=90fac789-06e9-4c33-94b9-e82543e03c21","ios":"levelo://app?vid=90fac789-06e9-4c33-94b9-e82543e03c21"},"vehicle_type_id":"4","last_reported":1777062906,"current_range_meters":6400,"station_id":"ce4bhbh2rcd13ifvqeo0","pricing_plan_id":"cebpf4jnsgd1na2vs0mg"},{"bike_id":"2cfc41f8-4c9e-4983-b2b2-db59471dc99d","system_id":"levelo_inurba_marseille","lat":43.28422,"lon":5.34987,"is_reserved":false,"is_disabled":false,"rental_uris":{"android":"levelo://app?vid=2cfc41f8-4c9e-4983-b2b2-db59471dc99d","ios":"levelo://app?vid=2cfc41f8-4c9e-4983-b2b2-db59471dc99d"},"vehicle_type_id":"4","last_reported":1777062906,"current_range_meters":6400,"station_id":"ce4bhbh2rcd13ifvqepg","pricing_plan_id":"cebpf4jnsgd1na2vs0mg"},{"bike_id":"815dd24c-6bc3-404e-ae21-da40af49d8c8","system_id":"levelo_inurba_marseille","lat":43.28031,"lon":5.36947,"is_reserved":false,"is_disabled":false,"rental_uris":{"android":"levelo://app?vid=815dd24c-6bc3-404e-ae21-da40af49d8c8","ios":"levelo://app?vid=815dd24c-6bc3-404e-ae21-da40af49d8c8"},"vehicle_type_id":"4","last_reported":1777062906,"current_range_meters":6400,"station_id":"ce4bha12rcd13ifvqef0","pricing_plan_id":"cebpf4jnsgd1na2vs0mg"},{"bike_id":"91a0131b-f3ba-41c1-9cf2-9122fb1ca495","system_id":"levelo_inurba_marseille","lat":43.31226,"lon":5.36868,"is_reserved":false,"is_disabled":false,"rental_uris":{"android":"levelo://app?vid=91a0131b-f3ba-41c1-9cf2-9122fb1ca495","ios":"levelo://app?vid=91a0131b-f3ba-41c1-9cf2-9122fb1ca495"},"vehicle_type_id":"4","last_reported":1777062906,"current_range_meters":6400,"station_id":"ce4bgl92rcd13ifvqbq0","pricing_plan_id":"cebpf4jnsgd1na2vs0mg"},{"bike_id":"adf70f3f-288e-4b0f-99ca-00acc618ea11","system_id":"levelo_inurba_marseille","lat":43.28611,"lon":5.39879,"is_reserved":false,"is_disabled":false,"rental_uris":{"android":"levelo://app?vid=adf70f3f-288e-4b0f-99ca-00acc618ea11","ios":"levelo://app?vid=adf70f3f-288e-4b0f-99ca-00acc618ea11"},"vehicle_type_id":"4","last_reported":1777062906,"current_range_meters":6400,"station_id":"st_d4a7ka997mjs738ck50g","pricing_plan_id":"cebpf4jnsgd1na2vs0mg"},{"bike_id":"8ee0a40d-124f-4413-9074-6911095dcd65","system_id":"levelo_inurba_marseille","lat":43.26546,"lon":5.37285,"is_reserved":false,"is_disabled":false,"rental_uris":{"android":"levelo://app?vid=8ee0a40d-124f-4413-9074-6911095dcd65","ios":"levelo://app?vid=8ee0a40d-124f-4413-9074-6911095dcd65"},"vehicle_type_id":"4","last_reported":1777062906,"current_range_meters":6800,"station_id":"ce4bhg12rcd13ifvqf70","pricing_plan_id":"cebpf4jnsgd1na2vs0mg"},{"bike_id":"c4a6cf3f-a5b9-43d7-91d0-4da564433a66","system_id":"levelo_inurba_marseille","lat":43.30123,"lon":5.37428,"is_reserved":false,"is_disabled":false,"rental_uris":{"android":"levelo://app?vid=c4a6cf3f-a5b9-43d7-91d0-4da564433a66","ios":"levelo://app?vid=c4a6cf3f-a5b9-43d7-91d0-4da564433a66"},"vehicle_type_id":"4","last_reported":1777062906,"current_range_meters":6800,"station_id":"ce4bgs92rcd13ifvqcc0","pricing_plan_id":"cebpf4jnsgd1na2vs0mg"},{"bike_id":"3762a15a-49a2-4fc6-b2e6-a79b5f91a12f","system_id":"levelo_inurba_marseille","lat":43.28477,"lon":5.48398,"is_reserved":false,"is_disabled":false,"rental_uris":{"android":"levelo://app?vid=3762a15a-49a2-4fc6-b2e6-a79b5f91a12f","ios":"levelo://app?vid=3762a15a-49a2-4fc6-b2e6-a79b5f91a12f"},"vehicle_type_id":"4","last_reported":1777062906,"current_range_meters":6800,"station_id":"st_d3svhcjqgbts73a3dn0g","pricing_plan_id":"cebpf4jnsgd1na2vs0mg"},{"bike_id":"61153f64-2219-4f2d-a3e7-3066e588ef14","system_id":"levelo_inurba_marseille","lat":43.29525,"lon":5.38541,"is_reserved":false,"is_disabled":false,"rental_uris":{"android":"levelo://app?vid=61153f64-2219-4f2d-a3e7-3066e588ef14","ios":"levelo://app?vid=61153f64-2219-4f2d-a3e7-3066e588ef14"},"vehicle_type_id":"4","last_reported":1777062906,"current_range_meters":6800,"station_id":"ce4bgih2rcd13ifvqba0","pricing_plan_id":"cebpf4jnsgd1na2vs0mg"},{"bike_id":"8a4d316b-7dfb-42df-8aea-4c7d58210d7a","system_id":"levelo_inurba_marseille","lat":43.31318,"lon":5.43149,"is_reserved":false,"is_disabled":false,"rental_uris":{"android":"levelo://app?vid=8a4d316b-7dfb-42df-8aea-4c7d58210d7a","ios":"levelo://app?vid=8a4d316b-7dfb-42df-8aea-4c7d58210d7a"},"vehicle_type_id":"4","last_reported":1777062906,"current_range_meters":6800,"station_id":"","pricing_plan_id":"cebpf4jnsgd1na2vs0mg"},{"bike_id":"bdded4c0-5a8a-41c5-a064-70a96de3d186","system_id":"levelo_inurba_marseille","lat":43.29277,"lon":5.40109,"is_reserved":false,"is_disabled":false,"rental_uris":{"android":"levelo://app?vid=bdded4c0-5a8a-41c5-a064-70a96de3d186","ios":"levelo://app?vid=bdded4c0-5a8a-41c5-a064-70a96de3d186"},"vehicle_type_id":"4","last_reported":1777062906,"current_range_meters":6800,"station_id":"ce4bh312rcd13ifvqdk0","pricing_plan_id":"cebpf4jnsgd1na2vs0mg"},{"bike_id":"cd21f6c1-a1f8-4978-8025-1d254a6bf514","system_id":"levelo_inurba_marseille","lat":43.28473,"lon":5.48389,"is_reserved":false,"is_disabled":false,"rental_uris":{"android":"levelo://app?vid=cd21f6c1-a1f8-4978-8025-1d254a6bf514","ios":"levelo://app?vid=cd21f6c1-a1f8-4978-8025-1d254a6bf514"},"vehicle_type_id":"4","last_reported":1777062906,"current_range_meters":6800,"station_id":"st_d3svhcjqgbts73a3dn0g","pricing_plan_id":"cebpf4jnsgd1na2vs0mg"},{"bike_id":"b38d89b8-c3c9-4fae-b6f2-09980d89f2e9","system_id":"levelo_inurba_marseille","lat":43.28476,"lon":5.48407,"is_reserved":false,"is_disabled":false,"rental_uris":{"android":"levelo://app?vid=b38d89b8-c3c9-4fae-b6f2-09980d89f2e9","ios":"levelo://app?vid=b38d89b8-c3c9-4fae-b6f2-09980d89f2e9"},"vehicle_type_id":"4","last_reported":1777062906,"current_range_meters":6800,"station_id":"st_d3svhcjqgbts73a3dn0g","pricing_plan_id":"cebpf4jnsgd1na2vs0mg"},{"bike_id":"3806eb63-4038-466d-ac03-ee4e2f1be1a5","system_id":"levelo_inurba_marseille","lat":43.28493,"lon":5.38445,"is_reserved":false,"is_disabled":false,"rental_uris":{"android":"levelo://app?vid=3806eb63-4038-466d-ac03-ee4e2f1be1a5","ios":"levelo://app?vid=3806eb63-4038-466d-ac03-ee4e2f1be1a5"},"vehicle_type_id":"4","last_reported":1777062906,"current_range_meters":6800,"station_id":"ce4bh512rcd13ifvqe3g","pricing_plan_id":"cebpf4jnsgd1na2vs0mg"},{"bike_id":"06edec6a-5805-469e-9aae-fb51ca9b0dbc","system_id":"levelo_inurba_marseille","lat":43.31987,"lon":5.38117,"is_reserved":false,"is_disabled":false,"rental_uris":{"android":"levelo://app?vid=06edec6a-5805-469e-9aae-fb51ca9b0dbc","ios":"levelo://app?vid=06edec6a-5805-469e-9aae-fb51ca9b0dbc"},"vehicle_type_id":"4","last_reported":1777062906,"current_range_meters":6800,"station_id":"ce4bhr12rcd13ifvqhpg","pricing_plan_id":"cebpf4jnsgd1na2vs0mg"},{"bike_id":"f635884f-b385-419a-a193-8933ec3342b5","system_id":"levelo_inurba_marseille","lat":43.29967,"lon":5.38502,"is_reserved":false,"is_disabled":false,"rental_uris":{"android":"levelo://app?vid=f635884f-b385-419a-a193-8933ec3342b5","ios":"levelo://app?vid=f635884f-b385-419a-a193-8933ec3342b5"},"vehicle_type_id":"4","last_reported":1777062906,"current_range_meters":6800,"station_id":"ce4bgj92rcd13ifvqbd0","pricing_plan_id":"cebpf4jnsgd1na2vs0mg"},{"bike_id":"0af1cd3a-885a-4fc7-93fc-6a150f8d6765","system_id":"levelo_inurba_marseille","lat":43.29202,"lon":5.39311,"is_reserved":false,"is_disabled":false,"rental_uris":{"android":"levelo://app?vid=0af1cd3a-885a-4fc7-93fc-6a150f8d6765","ios":"levelo://app?vid=0af1cd3a-885a-4fc7-93fc-6a150f8d6765"},"vehicle_type_id":"4","last_reported":1777062906,"current_range_meters":6800,"station_id":"ce4bh192rcd13ifvqdd0","pricing_plan_id":"cebpf4jnsgd1na2vs0mg"},{"bike_id":"c5144401-e972-4445-9dc7-2e728caa9411","system_id":"levelo_inurba_marseille","lat":43.23165,"lon":5.40011,"is_reserved":false,"is_disabled":false,"rental_uris":{"android":"levelo://app?vid=c5144401-e972-4445-9dc7-2e728caa9411","ios":"levelo://app?vid=c5144401-e972-4445-9dc7-2e728caa9411"},"vehicle_type_id":"4","last_reported":1777062906,"current_range_meters":6800,"station_id":"ce4bhn12rcd13ifvqgqg","pricing_plan_id":"cebpf4jnsgd1na2vs0mg"},{"bike_id":"e5351f5d-750e-4125-8c39-ab705504929d","system_id":"levelo_inurba_marseille","lat":43.29541,"lon":5.38551,"is_reserved":false,"is_disabled":false,"rental_uris":{"android":"levelo://app?vid=e5351f5d-750e-4125-8c39-ab705504929d","ios":"levelo://app?vid=e5351f5d-750e-4125-8c39-ab705504929d"},"vehicle_type_id":"4","last_reported":1777062906,"current_range_meters":6800,"station_id":"ce4bgih2rcd13ifvqba0","pricing_plan_id":"cebpf4jnsgd1na2vs0mg"},{"bike_id":"7d84ddb3-748e-4f77-9ad4-ce79510747ad","system_id":"levelo_inurba_marseille","lat":43.28613,"lon":5.39873,"is_reserved":false,"is_disabled":false,"rental_uris":{"android":"levelo://app?vid=7d84ddb3-748e-4f77-9ad4-ce79510747ad","ios":"levelo://app?vid=7d84ddb3-748e-4f77-9ad4-ce79510747ad"},"vehicle_type_id":"4","last_reported":1777062906,"current_range_meters":6800,"station_id":"st_d4a7ka997mjs738ck50g","pricing_plan_id":"cebpf4jnsgd1na2vs0mg"},{"bike_id":"7e26327c-b51f-4a0c-8642-a9b92f586618","system_id":"levelo_inurba_marseille","lat":43.29303,"lon":5.37466,"is_reserved":false,"is_disabled":false,"rental_uris":{"android":"levelo://app?vid=7e26327c-b51f-4a0c-8642-a9b92f586618","ios":"levelo://app?vid=7e26327c-b51f-4a0c-8642-a9b92f586618"},"vehicle_type_id":"4","last_reported":1777062906,"current_range_meters":6800,"station_id":"ce4bgi12rcd13ifvqb70","pricing_plan_id":"cebpf4jnsgd1na2vs0mg"},{"bike_id":"f3b66ab9-5402-4a54-abb4-bb6d93771ba9","system_id":"levelo_inurba_marseille","lat":43.29266,"lon":5.3844,"is_reserved":false,"is_disabled":false,"rental_uris":{"android":"levelo://app?vid=f3b66ab9-5402-4a54-abb4-bb6d93771ba9","ios":"levelo://app?vid=f3b66ab9-5402-4a54-abb4-bb6d93771ba9"},"vehicle_type_id":"4","last_reported":1777062906,"current_range_meters":6800,"station_id":"ce4bh692rcd13ifvqea0","pricing_plan_id":"cebpf4jnsgd1na2vs0mg"},{"bike_id":"cc9f0ce0-9b9f-41e6-9596-2b52efb5db4f","system_id":"levelo_inurba_marseille","lat":43.29962,"lon":5.38502,"is_reserved":false,"is_disabled":false,"rental_uris":{"android":"levelo://app?vid=cc9f0ce0-9b9f-41e6-9596-2b52efb5db4f","ios":"levelo://app?vid=cc9f0ce0-9b9f-41e6-9596-2b52efb5db4f"},"vehicle_type_id":"4","last_reported":1777062906,"current_range_meters":6800,"station_id":"ce4bgj92rcd13ifvqbd0","pricing_plan_id":"cebpf4jnsgd1na2vs0mg"},{"bike_id":"53aeb38e-59c1-4137-85f3-7a206400b26b","system_id":"levelo_inurba_marseille","lat":43.29095,"lon":5.38135,"is_reserved":false,"is_disabled":false,"rental_uris":{"android":"levelo://app?vid=53aeb38e-59c1-4137-85f3-7a206400b26b","ios":"levelo://app?vid=53aeb38e-59c1-4137-85f3-7a206400b26b"},"vehicle_type_id":"4","last_reported":1777062906,"current_range_meters":6800,"station_id":"ce4bh512rcd13ifvqe2g","pricing_plan_id":"cebpf4jnsgd1na2vs0mg"},{"bike_id":"7ab9e9d2-55c6-492f-8e60-126c7a6965ab","system_id":"levelo_inurba_marseille","lat":43.27949,"lon":5.37042,"is_reserved":false,"is_disabled":false,"rental_uris":{"android":"levelo://app?vid=7ab9e9d2-55c6-492f-8e60-126c7a6965ab","ios":"levelo://app?vid=7ab9e9d2-55c6-492f-8e60-126c7a6965ab"},"vehicle_type_id":"4","last_reported":1777062906,"current_range_meters":6800,"station_id":"","pricing_plan_id":"cebpf4jnsgd1na2vs0mg"},{"bike_id":"1de90efd-3453-45b4-a9aa-8e7d20e09835","system_id":"levelo_inurba_marseille","lat":43.27914,"lon":5.39571,"is_reserved":false,"is_disabled":false,"rental_uris":{"android":"levelo://app?vid=1de90efd-3453-45b4-a9aa-8e7d20e09835","ios":"levelo://app?vid=1de90efd-3453-45b4-a9aa-8e7d20e09835"},"vehicle_type_id":"4","last_reported":1777062906,"current_range_meters":6800,"station_id":"ce4bhf92rcd13ifvqf40","pricing_plan_id":"cebpf4jnsgd1na2vs0mg"},{"bike_id":"783c184a-b441-48fa-8c33-a402db65b787","system_id":"levelo_inurba_marseille","lat":43.29251,"lon":5.38435,"is_reserved":false,"is_disabled":false,"rental_uris":{"android":"levelo://app?vid=783c184a-b441-48fa-8c33-a402db65b787","ios":"levelo://app?vid=783c184a-b441-48fa-8c33-a402db65b787"},"vehicle_type_id":"4","last_reported":1777062906,"current_range_meters":6800,"station_id":"ce4bh692rcd13ifvqea0","pricing_plan_id":"cebpf4jnsgd1na2vs0mg"},{"bike_id":"1f582608-2655-4ba4-b095-16566a7cd559","system_id":"levelo_inurba_marseille","lat":43.3182,"lon":5.44545,"is_reserved":false,"is_disabled":false,"rental_uris":{"android":"levelo://app?vid=1f582608-2655-4ba4-b095-16566a7cd559","ios":"levelo://app?vid=1f582608-2655-4ba4-b095-16566a7cd559"},"vehicle_type_id":"4","last_reported":1777062906,"current_range_meters":6800,"station_id":"","pricing_plan_id":"cebpf4jnsgd1na2vs0mg"},{"bike_id":"f8b71621-9ee0-4284-b9b2-be8fa047ba8a","system_id":"levelo_inurba_marseille","lat":43.30128,"lon":5.43097,"is_reserved":false,"is_disabled":false,"rental_uris":{"android":"levelo://app?vid=f8b71621-9ee0-4284-b9b2-be8fa047ba8a","ios":"levelo://app?vid=f8b71621-9ee0-4284-b9b2-be8fa047ba8a"},"vehicle_type_id":"4","last_reported":1777062906,"current_range_meters":6800,"station_id":"st_d3js3co5814s73ftftug","pricing_plan_id":"cebpf4jnsgd1na2vs0mg"},{"bike_id":"27c42ac1-b3ae-44d2-a7ac-ec95314cb289","system_id":"levelo_inurba_marseille","lat":43.28404,"lon":5.35008,"is_reserved":false,"is_disabled":false,"rental_uris":{"android":"levelo://app?vid=27c42ac1-b3ae-44d2-a7ac-ec95314cb289","ios":"levelo://app?vid=27c42ac1-b3ae-44d2-a7ac-ec95314cb289"},"vehicle_type_id":"4","last_reported":1777062906,"current_range_meters":7200,"station_id":"ce4bhbh2rcd13ifvqepg","pricing_plan_id":"cebpf4jnsgd1na2vs0mg"},{"bike_id":"27cd71a7-0940-4415-a67f-21597fbf1cd9","system_id":"levelo_inurba_marseille","lat":43.33015,"lon":5.39049,"is_reserved":false,"is_disabled":false,"rental_uris":{"android":"levelo://app?vid=27cd71a7-0940-4415-a67f-21597fbf1cd9","ios":"levelo://app?vid=27cd71a7-0940-4415-a67f-21597fbf1cd9"},"vehicle_type_id":"4","last_reported":1777062906,"current_range_meters":7200,"station_id":"ce4bhr92rcd13ifvqhrg","pricing_plan_id":"cebpf4jnsgd1na2vs0mg"},{"bike_id":"732477f8-f155-4d59-a54d-b8bf4e772643","system_id":"levelo_inurba_marseille","lat":43.30141,"lon":5.38113,"is_reserved":false,"is_disabled":false,"rental_uris":{"android":"levelo://app?vid=732477f8-f155-4d59-a54d-b8bf4e772643","ios":"levelo://app?vid=732477f8-f155-4d59-a54d-b8bf4e772643"},"vehicle_type_id":"4","last_reported":1777062906,"current_range_meters":7200,"station_id":"ce4bgjp2rcd13ifvqbh0","pricing_plan_id":"cebpf4jnsgd1na2vs0mg"},{"bike_id":"fb93bd36-038c-4126-b4c7-0614be0975b4","system_id":"levelo_inurba_marseille","lat":43.28416,"lon":5.34991,"is_reserved":false,"is_disabled":false,"rental_uris":{"android":"levelo://app?vid=fb93bd36-038c-4126-b4c7-0614be0975b4","ios":"levelo://app?vid=fb93bd36-038c-4126-b4c7-0614be0975b4"},"vehicle_type_id":"4","last_reported":1777062906,"current_range_meters":7200,"station_id":"ce4bhbh2rcd13ifvqepg","pricing_plan_id":"cebpf4jnsgd1na2vs0mg"},{"bike_id":"40457f83-17ec-403e-b602-4d357d73bc74","system_id":"levelo_inurba_marseille","lat":43.2928,"lon":5.37459,"is_reserved":false,"is_disabled":false,"rental_uris":{"android":"levelo://app?vid=40457f83-17ec-403e-b602-4d357d73bc74","ios":"levelo://app?vid=40457f83-17ec-403e-b602-4d357d73bc74"},"vehicle_type_id":"4","last_reported":1777062906,"current_range_meters":7200,"station_id":"ce4bgi12rcd13ifvqb70","pricing_plan_id":"cebpf4jnsgd1na2vs0mg"},{"bike_id":"aa65a205-4a73-4ed3-aa15-5e199161459f","system_id":"levelo_inurba_marseille","lat":43.30133,"lon":5.39881,"is_reserved":false,"is_disabled":false,"rental_uris":{"android":"levelo://app?vid=aa65a205-4a73-4ed3-aa15-5e199161459f","ios":"levelo://app?vid=aa65a205-4a73-4ed3-aa15-5e199161459f"},"vehicle_type_id":"4","last_reported":1777062906,"current_range_meters":7200,"station_id":"ce4bh0h2rcd13ifvqd40","pricing_plan_id":"cebpf4jnsgd1na2vs0mg"},{"bike_id":"e8d002b1-199e-4516-8ed6-821a0c98040c","system_id":"levelo_inurba_marseille","lat":43.33774,"lon":5.37479,"is_reserved":false,"is_disabled":false,"rental_uris":{"android":"levelo://app?vid=e8d002b1-199e-4516-8ed6-821a0c98040c","ios":"levelo://app?vid=e8d002b1-199e-4516-8ed6-821a0c98040c"},"vehicle_type_id":"4","last_reported":1777062906,"current_range_meters":7200,"station_id":"st_d46cu089ee8s73dldbu0","pricing_plan_id":"cebpf4jnsgd1na2vs0mg"},{"bike_id":"8fb84350-1a94-4bc1-975c-56b8215e2ec6","system_id":"levelo_inurba_marseille","lat":43.27463,"lon":5.43882,"is_reserved":false,"is_disabled":false,"rental_uris":{"android":"levelo://app?vid=8fb84350-1a94-4bc1-975c-56b8215e2ec6","ios":"levelo://app?vid=8fb84350-1a94-4bc1-975c-56b8215e2ec6"},"vehicle_type_id":"4","last_reported":1777062906,"current_range_meters":7200,"station_id":"","pricing_plan_id":"cebpf4jnsgd1na2vs0mg"},{"bike_id":"a7b87245-c28d-4f8d-becb-31bbaad379e8","system_id":"levelo_inurba_marseille","lat":43.28365,"lon":5.38639,"is_reserved":false,"is_disabled":true,"rental_uris":{"android":"levelo://app?vid=a7b87245-c28d-4f8d-becb-31bbaad379e8","ios":"levelo://app?vid=a7b87245-c28d-4f8d-becb-31bbaad379e8"},"vehicle_type_id":"4","last_reported":1777062906,"current_range_meters":7200,"station_id":"ce4bh492rcd13ifvqdvg","pricing_plan_id":"cebpf4jnsgd1na2vs0mg"},{"bike_id":"af90c466-cef3-4445-831a-c5b87271128f","system_id":"levelo_inurba_marseille","lat":43.24549,"lon":5.39523,"is_reserved":false,"is_disabled":false,"rental_uris":{"android":"levelo://app?vid=af90c466-cef3-4445-831a-c5b87271128f","ios":"levelo://app?vid=af90c466-cef3-4445-831a-c5b87271128f"},"vehicle_type_id":"4","last_reported":1777062906,"current_range_meters":7200,"station_id":"ce4bhlp2rcd13ifvqgjg","pricing_plan_id":"cebpf4jnsgd1na2vs0mg"},{"bike_id":"bab7cad4-d1a4-434a-ada5-56f652707f0f","system_id":"levelo_inurba_marseille","lat":43.29304,"lon":5.37167,"is_reserved":false,"is_disabled":false,"rental_uris":{"android":"levelo://app?vid=bab7cad4-d1a4-434a-ada5-56f652707f0f","ios":"levelo://app?vid=bab7cad4-d1a4-434a-ada5-56f652707f0f"},"vehicle_type_id":"4","last_reported":1777062906,"current_range_meters":7200,"station_id":"ce4bgh92rcd13ifvqb40","pricing_plan_id":"cebpf4jnsgd1na2vs0mg"},{"bike_id":"ea4e001a-09d6-4f9d-8d3d-9f93e3b94c6f","system_id":"levelo_inurba_marseille","lat":43.28477,"lon":5.38419,"is_reserved":false,"is_disabled":false,"rental_uris":{"android":"levelo://app?vid=ea4e001a-09d6-4f9d-8d3d-9f93e3b94c6f","ios":"levelo://app?vid=ea4e001a-09d6-4f9d-8d3d-9f93e3b94c6f"},"vehicle_type_id":"4","last_reported":1777062906,"current_range_meters":7200,"station_id":"ce4bh512rcd13ifvqe3g","pricing_plan_id":"cebpf4jnsgd1na2vs0mg"},{"bike_id":"fbf8807f-c70c-4070-a509-f8fc45c2a6a9","system_id":"levelo_inurba_marseille","lat":43.2931,"lon":5.37453,"is_reserved":false,"is_disabled":false,"rental_uris":{"android":"levelo://app?vid=fbf8807f-c70c-4070-a509-f8fc45c2a6a9","ios":"levelo://app?vid=fbf8807f-c70c-4070-a509-f8fc45c2a6a9"},"vehicle_type_id":"4","last_reported":1777062906,"current_range_meters":7200,"station_id":"ce4bgi12rcd13ifvqb70","pricing_plan_id":"cebpf4jnsgd1na2vs0mg"},{"bike_id":"ec19aaad-2410-439f-9123-e83fa1c535f8","system_id":"levelo_inurba_marseille","lat":43.28279,"lon":5.37913,"is_reserved":false,"is_disabled":false,"rental_uris":{"android":"levelo://app?vid=ec19aaad-2410-439f-9123-e83fa1c535f8","ios":"levelo://app?vid=ec19aaad-2410-439f-9123-e83fa1c535f8"},"vehicle_type_id":"4","last_reported":1777062906,"current_range_meters":7200,"station_id":"","pricing_plan_id":"cebpf4jnsgd1na2vs0mg"},{"bike_id":"511a07b4-6464-4c78-9aa6-e1013bbe91a1","system_id":"levelo_inurba_marseille","lat":43.32105,"lon":5.36759,"is_reserved":false,"is_disabled":false,"rental_uris":{"android":"levelo://app?vid=511a07b4-6464-4c78-9aa6-e1013bbe91a1","ios":"levelo://app?vid=511a07b4-6464-4c78-9aa6-e1013bbe91a1"},"vehicle_type_id":"4","last_reported":1777062906,"current_range_meters":7200,"station_id":"ce4bhrh2rcd13ifvqhug","pricing_plan_id":"cebpf4jnsgd1na2vs0mg"},{"bike_id":"1310833f-04fc-4de9-bf9f-f70fba0daa0f","system_id":"levelo_inurba_marseille","lat":43.28726,"lon":5.37932,"is_reserved":false,"is_disabled":false,"rental_uris":{"android":"levelo://app?vid=1310833f-04fc-4de9-bf9f-f70fba0daa0f","ios":"levelo://app?vid=1310833f-04fc-4de9-bf9f-f70fba0daa0f"},"vehicle_type_id":"4","last_reported":1777062906,"current_range_meters":7200,"station_id":"ce4bh9p2rcd13ifvqec0","pricing_plan_id":"cebpf4jnsgd1na2vs0mg"},{"bike_id":"0a2c3ee0-2eb4-4c02-acef-ac7cd4527f8d","system_id":"levelo_inurba_marseille","lat":43.29517,"lon":5.38551,"is_reserved":false,"is_disabled":false,"rental_uris":{"android":"levelo://app?vid=0a2c3ee0-2eb4-4c02-acef-ac7cd4527f8d","ios":"levelo://app?vid=0a2c3ee0-2eb4-4c02-acef-ac7cd4527f8d"},"vehicle_type_id":"4","last_reported":1777062906,"current_range_meters":8000,"station_id":"ce4bgih2rcd13ifvqba0","pricing_plan_id":"cebpf4jnsgd1na2vs0mg"},{"bike_id":"ad83e282-7c09-41db-9596-ee52fa33ff34","system_id":"levelo_inurba_marseille","lat":43.30801,"lon":5.38148,"is_reserved":false,"is_disabled":false,"rental_uris":{"android":"levelo://app?vid=ad83e282-7c09-41db-9596-ee52fa33ff34","ios":"levelo://app?vid=ad83e282-7c09-41db-9596-ee52fa33ff34"},"vehicle_type_id":"4","last_reported":1777062906,"current_range_meters":8000,"station_id":"ce4bgt12rcd13ifvqce0","pricing_plan_id":"cebpf4jnsgd1na2vs0mg"},{"bike_id":"eb0bc669-27ac-4a41-b200-c9414b34635e","system_id":"levelo_inurba_marseille","lat":43.29253,"lon":5.40929,"is_reserved":false,"is_disabled":true,"rental_uris":{"android":"levelo://app?vid=eb0bc669-27ac-4a41-b200-c9414b34635e","ios":"levelo://app?vid=eb0bc669-27ac-4a41-b200-c9414b34635e"},"vehicle_type_id":"4","last_reported":1777062906,"current_range_meters":8000,"station_id":"ce4bh192rcd13ifvqdc0","pricing_plan_id":"cebpf4jnsgd1na2vs0mg"},{"bike_id":"3d157094-1633-4b6b-b41f-2648a50f3eee","system_id":"levelo_inurba_marseille","lat":43.31487,"lon":5.37309,"is_reserved":false,"is_disabled":false,"rental_uris":{"android":"levelo://app?vid=3d157094-1633-4b6b-b41f-2648a50f3eee","ios":"levelo://app?vid=3d157094-1633-4b6b-b41f-2648a50f3eee"},"vehicle_type_id":"4","last_reported":1777062906,"current_range_meters":8000,"station_id":"ce4bgt12rcd13ifvqcd0","pricing_plan_id":"cebpf4jnsgd1na2vs0mg"},{"bike_id":"f9c28b33-e7ba-4f82-bdba-494d269ab6b2","system_id":"levelo_inurba_marseille","lat":43.29186,"lon":5.39329,"is_reserved":false,"is_disabled":false,"rental_uris":{"android":"levelo://app?vid=f9c28b33-e7ba-4f82-bdba-494d269ab6b2","ios":"levelo://app?vid=f9c28b33-e7ba-4f82-bdba-494d269ab6b2"},"vehicle_type_id":"4","last_reported":1777062906,"current_range_meters":8000,"station_id":"ce4bh192rcd13ifvqdd0","pricing_plan_id":"cebpf4jnsgd1na2vs0mg"},{"bike_id":"929ec495-3063-4e3b-9b6e-b622e307d6fd","system_id":"levelo_inurba_marseille","lat":43.29523,"lon":5.3857,"is_reserved":false,"is_disabled":false,"rental_uris":{"android":"levelo://app?vid=929ec495-3063-4e3b-9b6e-b622e307d6fd","ios":"levelo://app?vid=929ec495-3063-4e3b-9b6e-b622e307d6fd"},"vehicle_type_id":"4","last_reported":1777062906,"current_range_meters":8000,"station_id":"ce4bgih2rcd13ifvqba0","pricing_plan_id":"cebpf4jnsgd1na2vs0mg"},{"bike_id":"eeac2ee0-be9f-48ee-a8da-259774c71024","system_id":"levelo_inurba_marseille","lat":43.28419,"lon":5.35006,"is_reserved":false,"is_disabled":false,"rental_uris":{"android":"levelo://app?vid=eeac2ee0-be9f-48ee-a8da-259774c71024","ios":"levelo://app?vid=eeac2ee0-be9f-48ee-a8da-259774c71024"},"vehicle_type_id":"4","last_reported":1777062906,"current_range_meters":8000,"station_id":"ce4bhbh2rcd13ifvqepg","pricing_plan_id":"cebpf4jnsgd1na2vs0mg"},{"bike_id":"a3dee876-3af2-46d4-9131-1dd0997e500a","system_id":"levelo_inurba_marseille","lat":43.24392,"lon":5.37072,"is_reserved":false,"is_disabled":true,"rental_uris":{"android":"levelo://app?vid=a3dee876-3af2-46d4-9131-1dd0997e500a","ios":"levelo://app?vid=a3dee876-3af2-46d4-9131-1dd0997e500a"},"vehicle_type_id":"4","last_reported":1777062906,"current_range_meters":8000,"station_id":"ce4bhhh2rcd13ifvqfk0","pricing_plan_id":"cebpf4jnsgd1na2vs0mg"},{"bike_id":"18ee4449-686a-4257-a830-821bcc128ad8","system_id":"levelo_inurba_marseille","lat":43.29545,"lon":5.38549,"is_reserved":false,"is_disabled":false,"rental_uris":{"android":"levelo://app?vid=18ee4449-686a-4257-a830-821bcc128ad8","ios":"levelo://app?vid=18ee4449-686a-4257-a830-821bcc128ad8"},"vehicle_type_id":"4","last_reported":1777062906,"current_range_meters":8000,"station_id":"ce4bgih2rcd13ifvqba0","pricing_plan_id":"cebpf4jnsgd1na2vs0mg"},{"bike_id":"60be4b0d-4c83-4300-8220-7b23e159ba6b","system_id":"levelo_inurba_marseille","lat":43.24798,"lon":5.37446,"is_reserved":false,"is_disabled":false,"rental_uris":{"android":"levelo://app?vid=60be4b0d-4c83-4300-8220-7b23e159ba6b","ios":"levelo://app?vid=60be4b0d-4c83-4300-8220-7b23e159ba6b"},"vehicle_type_id":"4","last_reported":1777062906,"current_range_meters":8000,"station_id":"ce4bhgh2rcd13ifvqfb0","pricing_plan_id":"cebpf4jnsgd1na2vs0mg"},{"bike_id":"7615b581-cda4-4a3c-be59-c04cb3e93e24","system_id":"levelo_inurba_marseille","lat":43.29315,"lon":5.3745,"is_reserved":false,"is_disabled":false,"rental_uris":{"android":"levelo://app?vid=7615b581-cda4-4a3c-be59-c04cb3e93e24","ios":"levelo://app?vid=7615b581-cda4-4a3c-be59-c04cb3e93e24"},"vehicle_type_id":"4","last_reported":1777062906,"current_range_meters":8000,"station_id":"ce4bgi12rcd13ifvqb70","pricing_plan_id":"cebpf4jnsgd1na2vs0mg"},{"bike_id":"05483cf0-c1ae-4465-a083-0bc3c7400548","system_id":"levelo_inurba_marseille","lat":43.27668,"lon":5.38925,"is_reserved":false,"is_disabled":true,"rental_uris":{"android":"levelo://app?vid=05483cf0-c1ae-4465-a083-0bc3c7400548","ios":"levelo://app?vid=05483cf0-c1ae-4465-a083-0bc3c7400548"},"vehicle_type_id":"4","last_reported":1777062906,"current_range_meters":8000,"station_id":"ce4bhi12rcd13ifvqfo0","pricing_plan_id":"cebpf4jnsgd1na2vs0mg"},{"bike_id":"33b474e7-79ff-4803-b72e-82f4ac2d8854","system_id":"levelo_inurba_marseille","lat":43.30883,"lon":5.39641,"is_reserved":false,"is_disabled":false,"rental_uris":{"android":"levelo://app?vid=33b474e7-79ff-4803-b72e-82f4ac2d8854","ios":"levelo://app?vid=33b474e7-79ff-4803-b72e-82f4ac2d8854"},"vehicle_type_id":"4","last_reported":1777062906,"current_range_meters":8000,"station_id":"ce4bh012rcd13ifvqcv0","pricing_plan_id":"cebpf4jnsgd1na2vs0mg"},{"bike_id":"6c2019b5-6e47-44ca-a26e-08c0e5a63863","system_id":"levelo_inurba_marseille","lat":43.29062,"lon":5.37172,"is_reserved":false,"is_disabled":false,"rental_uris":{"android":"levelo://app?vid=6c2019b5-6e47-44ca-a26e-08c0e5a63863","ios":"levelo://app?vid=6c2019b5-6e47-44ca-a26e-08c0e5a63863"},"vehicle_type_id":"4","last_reported":1777062906,"current_range_meters":8000,"station_id":"ce4bh5p2rcd13ifvqe4g","pricing_plan_id":"cebpf4jnsgd1na2vs0mg"},{"bike_id":"a49cc85a-db02-4da4-9fff-21ab4ec25f52","system_id":"levelo_inurba_marseille","lat":43.23173,"lon":5.35549,"is_reserved":false,"is_disabled":false,"rental_uris":{"android":"levelo://app?vid=a49cc85a-db02-4da4-9fff-21ab4ec25f52","ios":"levelo://app?vid=a49cc85a-db02-4da4-9fff-21ab4ec25f52"},"vehicle_type_id":"4","last_reported":1777062906,"current_range_meters":8000,"station_id":"ce4bhu92rcd13ifvqi70","pricing_plan_id":"cebpf4jnsgd1na2vs0mg"},{"bike_id":"8b8b5db3-e95a-497f-b84a-b89a12682ca4","system_id":"levelo_inurba_marseille","lat":43.29817,"lon":5.44075,"is_reserved":false,"is_disabled":false,"rental_uris":{"android":"levelo://app?vid=8b8b5db3-e95a-497f-b84a-b89a12682ca4","ios":"levelo://app?vid=8b8b5db3-e95a-497f-b84a-b89a12682ca4"},"vehicle_type_id":"4","last_reported":1777062906,"current_range_meters":8000,"station_id":"st_d3jp68qikq2c7381ktn0","pricing_plan_id":"cebpf4jnsgd1na2vs0mg"},{"bike_id":"ba91578f-7f51-4950-b60f-8143dfcb6ad4","system_id":"levelo_inurba_marseille","lat":43.29526,"lon":5.38591,"is_reserved":false,"is_disabled":false,"rental_uris":{"android":"levelo://app?vid=ba91578f-7f51-4950-b60f-8143dfcb6ad4","ios":"levelo://app?vid=ba91578f-7f51-4950-b60f-8143dfcb6ad4"},"vehicle_type_id":"4","last_reported":1777062906,"current_range_meters":8000,"station_id":"ce4bgih2rcd13ifvqba0","pricing_plan_id":"cebpf4jnsgd1na2vs0mg"},{"bike_id":"3120cf36-eeb2-4dc8-9aa4-11b363b39bad","system_id":"levelo_inurba_marseille","lat":43.284758,"lon":5.384122,"is_reserved":false,"is_disabled":false,"rental_uris":{"android":"levelo://app?vid=3120cf36-eeb2-4dc8-9aa4-11b363b39bad","ios":"levelo://app?vid=3120cf36-eeb2-4dc8-9aa4-11b363b39bad"},"vehicle_type_id":"4","last_reported":1777062906,"current_range_meters":8000,"station_id":"ce4bhi12rcd13ifvqfq0","pricing_plan_id":"cebpf4jnsgd1na2vs0mg"},{"bike_id":"68385ad1-5a71-4622-9ac2-dcc837084f17","system_id":"levelo_inurba_marseille","lat":43.24073,"lon":5.37751,"is_reserved":false,"is_disabled":false,"rental_uris":{"android":"levelo://app?vid=68385ad1-5a71-4622-9ac2-dcc837084f17","ios":"levelo://app?vid=68385ad1-5a71-4622-9ac2-dcc837084f17"},"vehicle_type_id":"4","last_reported":1777062906,"current_range_meters":8000,"station_id":"ce4bhnp2rcd13ifvqgvg","pricing_plan_id":"cebpf4jnsgd1na2vs0mg"},{"bike_id":"a7398d3c-309c-40e4-8059-f2e4acd33fe1","system_id":"levelo_inurba_marseille","lat":43.31992,"lon":5.38156,"is_reserved":false,"is_disabled":false,"rental_uris":{"android":"levelo://app?vid=a7398d3c-309c-40e4-8059-f2e4acd33fe1","ios":"levelo://app?vid=a7398d3c-309c-40e4-8059-f2e4acd33fe1"},"vehicle_type_id":"4","last_reported":1777062906,"current_range_meters":8000,"station_id":"ce4bhr12rcd13ifvqhpg","pricing_plan_id":"cebpf4jnsgd1na2vs0mg"},{"bike_id":"c153b3f7-0c39-4669-87ba-aeaabe7d058a","system_id":"levelo_inurba_marseille","lat":43.25519,"lon":5.37641,"is_reserved":false,"is_disabled":false,"rental_uris":{"android":"levelo://app?vid=c153b3f7-0c39-4669-87ba-aeaabe7d058a","ios":"levelo://app?vid=c153b3f7-0c39-4669-87ba-aeaabe7d058a"},"vehicle_type_id":"4","last_reported":1777062906,"current_range_meters":8000,"station_id":"ce4bhh12rcd13ifvqff0","pricing_plan_id":"cebpf4jnsgd1na2vs0mg"},{"bike_id":"75a682ee-b43a-49a5-a92f-41f2c40445d1","system_id":"levelo_inurba_marseille","lat":43.27948,"lon":5.41045,"is_reserved":false,"is_disabled":false,"rental_uris":{"android":"levelo://app?vid=75a682ee-b43a-49a5-a92f-41f2c40445d1","ios":"levelo://app?vid=75a682ee-b43a-49a5-a92f-41f2c40445d1"},"vehicle_type_id":"4","last_reported":1777062906,"current_range_meters":8000,"station_id":"ce4bhnp2rcd13ifvqh0g","pricing_plan_id":"cebpf4jnsgd1na2vs0mg"},{"bike_id":"c7ac0306-6afc-4781-8692-f962ddfe1a23","system_id":"levelo_inurba_marseille","lat":43.32342,"lon":5.3673,"is_reserved":false,"is_disabled":false,"rental_uris":{"android":"levelo://app?vid=c7ac0306-6afc-4781-8692-f962ddfe1a23","ios":"levelo://app?vid=c7ac0306-6afc-4781-8692-f962ddfe1a23"},"vehicle_type_id":"4","last_reported":1777062906,"current_range_meters":8000,"station_id":"ce4bhsh2rcd13ifvqi2g","pricing_plan_id":"cebpf4jnsgd1na2vs0mg"},{"bike_id":"7a69ea77-881a-4771-9115-4df032584bb0","system_id":"levelo_inurba_marseille","lat":43.28704,"lon":5.37397,"is_reserved":false,"is_disabled":false,"rental_uris":{"android":"levelo://app?vid=7a69ea77-881a-4771-9115-4df032584bb0","ios":"levelo://app?vid=7a69ea77-881a-4771-9115-4df032584bb0"},"vehicle_type_id":"4","last_reported":1777062906,"current_range_meters":8000,"station_id":"ce4bh3p2rcd13ifvqdq0","pricing_plan_id":"cebpf4jnsgd1na2vs0mg"},{"bike_id":"ae2736b2-7770-4b7b-82a1-0fab885495d7","system_id":"levelo_inurba_marseille","lat":43.24817,"lon":5.3746,"is_reserved":false,"is_disabled":false,"rental_uris":{"android":"levelo://app?vid=ae2736b2-7770-4b7b-82a1-0fab885495d7","ios":"levelo://app?vid=ae2736b2-7770-4b7b-82a1-0fab885495d7"},"vehicle_type_id":"4","last_reported":1777062906,"current_range_meters":8000,"station_id":"ce4bhgh2rcd13ifvqfb0","pricing_plan_id":"cebpf4jnsgd1na2vs0mg"},{"bike_id":"4ce71f71-1a28-4592-bd5c-1940ff667306","system_id":"levelo_inurba_marseille","lat":43.30904,"lon":5.36838,"is_reserved":false,"is_disabled":false,"rental_uris":{"android":"levelo://app?vid=4ce71f71-1a28-4592-bd5c-1940ff667306","ios":"levelo://app?vid=4ce71f71-1a28-4592-bd5c-1940ff667306"},"vehicle_type_id":"4","last_reported":1777062906,"current_range_meters":8400,"station_id":"ce4bgn92rcd13ifvqbvg","pricing_plan_id":"cebpf4jnsgd1na2vs0mg"},{"bike_id":"ef1780af-1aea-4e08-82c2-da4d0be385bf","system_id":"levelo_inurba_marseille","lat":43.29003,"lon":5.36054,"is_reserved":false,"is_disabled":false,"rental_uris":{"android":"levelo://app?vid=ef1780af-1aea-4e08-82c2-da4d0be385bf","ios":"levelo://app?vid=ef1780af-1aea-4e08-82c2-da4d0be385bf"},"vehicle_type_id":"4","last_reported":1777062906,"current_range_meters":8400,"station_id":"","pricing_plan_id":"cebpf4jnsgd1na2vs0mg"},{"bike_id":"c27c14c5-d60c-48fb-84ce-ac2a5ae3f6eb","system_id":"levelo_inurba_marseille","lat":43.28618,"lon":5.35066,"is_reserved":false,"is_disabled":false,"rental_uris":{"android":"levelo://app?vid=c27c14c5-d60c-48fb-84ce-ac2a5ae3f6eb","ios":"levelo://app?vid=c27c14c5-d60c-48fb-84ce-ac2a5ae3f6eb"},"vehicle_type_id":"4","last_reported":1777062906,"current_range_meters":8400,"station_id":"ce4bhch2rcd13ifvqeug","pricing_plan_id":"cebpf4jnsgd1na2vs0mg"},{"bike_id":"4af5f932-71ad-4954-ac3b-fecb2a352994","system_id":"levelo_inurba_marseille","lat":43.32357,"lon":5.36731,"is_reserved":false,"is_disabled":false,"rental_uris":{"android":"levelo://app?vid=4af5f932-71ad-4954-ac3b-fecb2a352994","ios":"levelo://app?vid=4af5f932-71ad-4954-ac3b-fecb2a352994"},"vehicle_type_id":"4","last_reported":1777062906,"current_range_meters":8400,"station_id":"ce4bhsh2rcd13ifvqi2g","pricing_plan_id":"cebpf4jnsgd1na2vs0mg"},{"bike_id":"573ee542-4c98-4f07-b857-a13bd4094cb1","system_id":"levelo_inurba_marseille","lat":43.3104,"lon":5.39391,"is_reserved":false,"is_disabled":false,"rental_uris":{"android":"levelo://app?vid=573ee542-4c98-4f07-b857-a13bd4094cb1","ios":"levelo://app?vid=573ee542-4c98-4f07-b857-a13bd4094cb1"},"vehicle_type_id":"4","last_reported":1777062906,"current_range_meters":8400,"station_id":"","pricing_plan_id":"cebpf4jnsgd1na2vs0mg"},{"bike_id":"487de52d-8377-4a2f-bcff-bc1b51b966ef","system_id":"levelo_inurba_marseille","lat":43.28926,"lon":5.36636,"is_reserved":false,"is_disabled":false,"rental_uris":{"android":"levelo://app?vid=487de52d-8377-4a2f-bcff-bc1b51b966ef","ios":"levelo://app?vid=487de52d-8377-4a2f-bcff-bc1b51b966ef"},"vehicle_type_id":"4","last_reported":1777062906,"current_range_meters":8400,"station_id":"ce4bhap2rcd13ifvqek0","pricing_plan_id":"cebpf4jnsgd1na2vs0mg"},{"bike_id":"1370c3f0-6074-43de-a93b-f7f87c829b3b","system_id":"levelo_inurba_marseille","lat":43.2912,"lon":5.39985,"is_reserved":false,"is_disabled":false,"rental_uris":{"android":"levelo://app?vid=1370c3f0-6074-43de-a93b-f7f87c829b3b","ios":"levelo://app?vid=1370c3f0-6074-43de-a93b-f7f87c829b3b"},"vehicle_type_id":"4","last_reported":1777062906,"current_range_meters":8400,"station_id":"","pricing_plan_id":"cebpf4jnsgd1na2vs0mg"},{"bike_id":"db1ea52d-9371-4874-846f-e62be4fb7d9a","system_id":"levelo_inurba_marseille","lat":43.29964,"lon":5.38524,"is_reserved":false,"is_disabled":false,"rental_uris":{"android":"levelo://app?vid=db1ea52d-9371-4874-846f-e62be4fb7d9a","ios":"levelo://app?vid=db1ea52d-9371-4874-846f-e62be4fb7d9a"},"vehicle_type_id":"4","last_reported":1777062906,"current_range_meters":8400,"station_id":"ce4bgj92rcd13ifvqbd0","pricing_plan_id":"cebpf4jnsgd1na2vs0mg"},{"bike_id":"ddef2dd6-6243-43e9-8e3f-d1a8299bf8e2","system_id":"levelo_inurba_marseille","lat":43.29535,"lon":5.38533,"is_reserved":false,"is_disabled":false,"rental_uris":{"android":"levelo://app?vid=ddef2dd6-6243-43e9-8e3f-d1a8299bf8e2","ios":"levelo://app?vid=ddef2dd6-6243-43e9-8e3f-d1a8299bf8e2"},"vehicle_type_id":"4","last_reported":1777062906,"current_range_meters":8400,"station_id":"ce4bgih2rcd13ifvqba0","pricing_plan_id":"cebpf4jnsgd1na2vs0mg"},{"bike_id":"61537e0b-fb61-480f-8274-9eae9f38cb80","system_id":"levelo_inurba_marseille","lat":43.29975,"lon":5.38492,"is_reserved":false,"is_disabled":false,"rental_uris":{"android":"levelo://app?vid=61537e0b-fb61-480f-8274-9eae9f38cb80","ios":"levelo://app?vid=61537e0b-fb61-480f-8274-9eae9f38cb80"},"vehicle_type_id":"4","last_reported":1777062906,"current_range_meters":8400,"station_id":"ce4bgj92rcd13ifvqbd0","pricing_plan_id":"cebpf4jnsgd1na2vs0mg"},{"bike_id":"48725464-dbb6-451e-b66b-16552dc7c5db","system_id":"levelo_inurba_marseille","lat":43.29723,"lon":5.37655,"is_reserved":false,"is_disabled":false,"rental_uris":{"android":"levelo://app?vid=48725464-dbb6-451e-b66b-16552dc7c5db","ios":"levelo://app?vid=48725464-dbb6-451e-b66b-16552dc7c5db"},"vehicle_type_id":"4","last_reported":1777062906,"current_range_meters":8400,"station_id":"ce4bgkh2rcd13ifvqbl0","pricing_plan_id":"cebpf4jnsgd1na2vs0mg"},{"bike_id":"4d5b4915-5fc0-4782-a3a4-e445cc2cf470","system_id":"levelo_inurba_marseille","lat":43.29871,"lon":5.42101,"is_reserved":false,"is_disabled":false,"rental_uris":{"android":"levelo://app?vid=4d5b4915-5fc0-4782-a3a4-e445cc2cf470","ios":"levelo://app?vid=4d5b4915-5fc0-4782-a3a4-e445cc2cf470"},"vehicle_type_id":"4","last_reported":1777062906,"current_range_meters":8400,"station_id":"st_d6tc004otcvc738tfe70","pricing_plan_id":"cebpf4jnsgd1na2vs0mg"},{"bike_id":"25da488e-77a1-4b15-a23b-57f58235fca3","system_id":"levelo_inurba_marseille","lat":43.26069,"lon":5.39398,"is_reserved":false,"is_disabled":false,"rental_uris":{"android":"levelo://app?vid=25da488e-77a1-4b15-a23b-57f58235fca3","ios":"levelo://app?vid=25da488e-77a1-4b15-a23b-57f58235fca3"},"vehicle_type_id":"4","last_reported":1777062906,"current_range_meters":8400,"station_id":"ce4bhh92rcd13ifvqfj0","pricing_plan_id":"cebpf4jnsgd1na2vs0mg"},{"bike_id":"b534a869-3ea4-4d2c-9af9-16a6e088fcf8","system_id":"levelo_inurba_marseille","lat":43.29517,"lon":5.39441,"is_reserved":false,"is_disabled":false,"rental_uris":{"android":"levelo://app?vid=b534a869-3ea4-4d2c-9af9-16a6e088fcf8","ios":"levelo://app?vid=b534a869-3ea4-4d2c-9af9-16a6e088fcf8"},"vehicle_type_id":"4","last_reported":1777062906,"current_range_meters":8400,"station_id":"ce4bh292rcd13ifvqdf0","pricing_plan_id":"cebpf4jnsgd1na2vs0mg"},{"bike_id":"f43d4928-2045-486c-a490-907c83e092ec","system_id":"levelo_inurba_marseille","lat":43.3118,"lon":5.38718,"is_reserved":false,"is_disabled":false,"rental_uris":{"android":"levelo://app?vid=f43d4928-2045-486c-a490-907c83e092ec","ios":"levelo://app?vid=f43d4928-2045-486c-a490-907c83e092ec"},"vehicle_type_id":"4","last_reported":1777062906,"current_range_meters":8400,"station_id":"ce4bgv12rcd13ifvqcp0","pricing_plan_id":"cebpf4jnsgd1na2vs0mg"},{"bike_id":"261b4d20-3fce-4a9a-b1df-f7d9447249df","system_id":"levelo_inurba_marseille","lat":43.28482,"lon":5.48403,"is_reserved":false,"is_disabled":false,"rental_uris":{"android":"levelo://app?vid=261b4d20-3fce-4a9a-b1df-f7d9447249df","ios":"levelo://app?vid=261b4d20-3fce-4a9a-b1df-f7d9447249df"},"vehicle_type_id":"4","last_reported":1777062906,"current_range_meters":8400,"station_id":"st_d3svhcjqgbts73a3dn0g","pricing_plan_id":"cebpf4jnsgd1na2vs0mg"},{"bike_id":"4ce8ebc3-20a6-4a54-8e15-6c4772b86e6e","system_id":"levelo_inurba_marseille","lat":43.29527,"lon":5.38541,"is_reserved":false,"is_disabled":false,"rental_uris":{"android":"levelo://app?vid=4ce8ebc3-20a6-4a54-8e15-6c4772b86e6e","ios":"levelo://app?vid=4ce8ebc3-20a6-4a54-8e15-6c4772b86e6e"},"vehicle_type_id":"4","last_reported":1777062906,"current_range_meters":8400,"station_id":"ce4bgih2rcd13ifvqba0","pricing_plan_id":"cebpf4jnsgd1na2vs0mg"},{"bike_id":"e038132b-a6bf-4435-b5ca-72211c456f4d","system_id":"levelo_inurba_marseille","lat":43.2952,"lon":5.38536,"is_reserved":false,"is_disabled":false,"rental_uris":{"android":"levelo://app?vid=e038132b-a6bf-4435-b5ca-72211c456f4d","ios":"levelo://app?vid=e038132b-a6bf-4435-b5ca-72211c456f4d"},"vehicle_type_id":"4","last_reported":1777062906,"current_range_meters":8400,"station_id":"ce4bgih2rcd13ifvqba0","pricing_plan_id":"cebpf4jnsgd1na2vs0mg"},{"bike_id":"0955fbf9-5e9d-4c8e-ae77-9d9788b3a05d","system_id":"levelo_inurba_marseille","lat":43.29026,"lon":5.3864,"is_reserved":false,"is_disabled":false,"rental_uris":{"android":"levelo://app?vid=0955fbf9-5e9d-4c8e-ae77-9d9788b3a05d","ios":"levelo://app?vid=0955fbf9-5e9d-4c8e-ae77-9d9788b3a05d"},"vehicle_type_id":"4","last_reported":1777062906,"current_range_meters":8400,"station_id":"ce4bh4p2rcd13ifvqe0g","pricing_plan_id":"cebpf4jnsgd1na2vs0mg"},{"bike_id":"57ec443c-17dc-48a4-897f-17260d6e713b","system_id":"levelo_inurba_marseille","lat":43.29981,"lon":5.3849,"is_reserved":false,"is_disabled":false,"rental_uris":{"android":"levelo://app?vid=57ec443c-17dc-48a4-897f-17260d6e713b","ios":"levelo://app?vid=57ec443c-17dc-48a4-897f-17260d6e713b"},"vehicle_type_id":"4","last_reported":1777062906,"current_range_meters":8800,"station_id":"ce4bgj92rcd13ifvqbd0","pricing_plan_id":"cebpf4jnsgd1na2vs0mg"},{"bike_id":"6a382a26-93df-4b4f-99b6-0161544321ed","system_id":"levelo_inurba_marseille","lat":43.28271,"lon":5.35057,"is_reserved":false,"is_disabled":true,"rental_uris":{"android":"levelo://app?vid=6a382a26-93df-4b4f-99b6-0161544321ed","ios":"levelo://app?vid=6a382a26-93df-4b4f-99b6-0161544321ed"},"vehicle_type_id":"4","last_reported":1777062906,"current_range_meters":8800,"station_id":"ce4bhbp2rcd13ifvqerg","pricing_plan_id":"cebpf4jnsgd1na2vs0mg"},{"bike_id":"0ce641a1-ca62-4f05-b894-4a72f77b98f2","system_id":"levelo_inurba_marseille","lat":43.3235,"lon":5.3673,"is_reserved":false,"is_disabled":false,"rental_uris":{"android":"levelo://app?vid=0ce641a1-ca62-4f05-b894-4a72f77b98f2","ios":"levelo://app?vid=0ce641a1-ca62-4f05-b894-4a72f77b98f2"},"vehicle_type_id":"4","last_reported":1777062906,"current_range_meters":8800,"station_id":"ce4bhsh2rcd13ifvqi2g","pricing_plan_id":"cebpf4jnsgd1na2vs0mg"},{"bike_id":"4e7f60dc-2079-4f51-9d09-01d31cdd2f9b","system_id":"levelo_inurba_marseille","lat":43.24641,"lon":5.43143,"is_reserved":false,"is_disabled":false,"rental_uris":{"android":"levelo://app?vid=4e7f60dc-2079-4f51-9d09-01d31cdd2f9b","ios":"levelo://app?vid=4e7f60dc-2079-4f51-9d09-01d31cdd2f9b"},"vehicle_type_id":"4","last_reported":1777062906,"current_range_meters":8800,"station_id":"st_d2m6c4gdas8pm72e190g","pricing_plan_id":"cebpf4jnsgd1na2vs0mg"},{"bike_id":"50ad27c5-4cc2-4b29-aa01-94bdfa36d853","system_id":"levelo_inurba_marseille","lat":43.29244,"lon":5.40919,"is_reserved":false,"is_disabled":false,"rental_uris":{"android":"levelo://app?vid=50ad27c5-4cc2-4b29-aa01-94bdfa36d853","ios":"levelo://app?vid=50ad27c5-4cc2-4b29-aa01-94bdfa36d853"},"vehicle_type_id":"4","last_reported":1777062906,"current_range_meters":8800,"station_id":"ce4bh192rcd13ifvqdc0","pricing_plan_id":"cebpf4jnsgd1na2vs0mg"},{"bike_id":"1d368fe1-0c8f-4a40-864c-b54082c58fa1","system_id":"levelo_inurba_marseille","lat":43.33541,"lon":5.37477,"is_reserved":false,"is_disabled":false,"rental_uris":{"android":"levelo://app?vid=1d368fe1-0c8f-4a40-864c-b54082c58fa1","ios":"levelo://app?vid=1d368fe1-0c8f-4a40-864c-b54082c58fa1"},"vehicle_type_id":"4","last_reported":1777062906,"current_range_meters":8800,"station_id":"st_d46tts09ee8s73dlu43g","pricing_plan_id":"cebpf4jnsgd1na2vs0mg"},{"bike_id":"a4663972-6325-41a0-ad69-b2abed5b6121","system_id":"levelo_inurba_marseille","lat":43.31173,"lon":5.38704,"is_reserved":false,"is_disabled":false,"rental_uris":{"android":"levelo://app?vid=a4663972-6325-41a0-ad69-b2abed5b6121","ios":"levelo://app?vid=a4663972-6325-41a0-ad69-b2abed5b6121"},"vehicle_type_id":"4","last_reported":1777062906,"current_range_meters":8800,"station_id":"ce4bgv12rcd13ifvqcp0","pricing_plan_id":"cebpf4jnsgd1na2vs0mg"},{"bike_id":"21f54f03-a722-40e7-abe8-6a0eb3086bb4","system_id":"levelo_inurba_marseille","lat":43.26805,"lon":5.39402,"is_reserved":false,"is_disabled":false,"rental_uris":{"android":"levelo://app?vid=21f54f03-a722-40e7-abe8-6a0eb3086bb4","ios":"levelo://app?vid=21f54f03-a722-40e7-abe8-6a0eb3086bb4"},"vehicle_type_id":"4","last_reported":1777062906,"current_range_meters":8800,"station_id":"ce4bhh12rcd13ifvqfg0","pricing_plan_id":"cebpf4jnsgd1na2vs0mg"},{"bike_id":"15f36b0e-6f5e-405f-a52c-15b8f33605e6","system_id":"levelo_inurba_marseille","lat":43.26949,"lon":5.38639,"is_reserved":false,"is_disabled":false,"rental_uris":{"android":"levelo://app?vid=15f36b0e-6f5e-405f-a52c-15b8f33605e6","ios":"levelo://app?vid=15f36b0e-6f5e-405f-a52c-15b8f33605e6"},"vehicle_type_id":"4","last_reported":1777062906,"current_range_meters":8800,"station_id":"ce4bhh92rcd13ifvqfh0","pricing_plan_id":"cebpf4jnsgd1na2vs0mg"},{"bike_id":"2150e900-bc36-4714-8063-0320eae925a9","system_id":"levelo_inurba_marseille","lat":43.23966,"lon":5.36625,"is_reserved":false,"is_disabled":false,"rental_uris":{"android":"levelo://app?vid=2150e900-bc36-4714-8063-0320eae925a9","ios":"levelo://app?vid=2150e900-bc36-4714-8063-0320eae925a9"},"vehicle_type_id":"4","last_reported":1777062906,"current_range_meters":8800,"station_id":"ce4bhi12rcd13ifvqfp0","pricing_plan_id":"cebpf4jnsgd1na2vs0mg"},{"bike_id":"ca05a569-2405-4cde-93c3-ccf205f28456","system_id":"levelo_inurba_marseille","lat":43.24637,"lon":5.38907,"is_reserved":false,"is_disabled":false,"rental_uris":{"android":"levelo://app?vid=ca05a569-2405-4cde-93c3-ccf205f28456","ios":"levelo://app?vid=ca05a569-2405-4cde-93c3-ccf205f28456"},"vehicle_type_id":"4","last_reported":1777062906,"current_range_meters":8800,"station_id":"ce4bhg12rcd13ifvqf60","pricing_plan_id":"cebpf4jnsgd1na2vs0mg"},{"bike_id":"45c4e0fd-34ef-4a5d-b1e4-0f8af1fe3855","system_id":"levelo_inurba_marseille","lat":43.29038,"lon":5.38658,"is_reserved":false,"is_disabled":false,"rental_uris":{"android":"levelo://app?vid=45c4e0fd-34ef-4a5d-b1e4-0f8af1fe3855","ios":"levelo://app?vid=45c4e0fd-34ef-4a5d-b1e4-0f8af1fe3855"},"vehicle_type_id":"4","last_reported":1777062906,"current_range_meters":8800,"station_id":"ce4bh4p2rcd13ifvqe0g","pricing_plan_id":"cebpf4jnsgd1na2vs0mg"},{"bike_id":"541dbded-315f-4ca8-ac49-47fcb4294bb7","system_id":"levelo_inurba_marseille","lat":43.33529,"lon":5.37478,"is_reserved":false,"is_disabled":false,"rental_uris":{"android":"levelo://app?vid=541dbded-315f-4ca8-ac49-47fcb4294bb7","ios":"levelo://app?vid=541dbded-315f-4ca8-ac49-47fcb4294bb7"},"vehicle_type_id":"4","last_reported":1777062906,"current_range_meters":8800,"station_id":"st_d46tts09ee8s73dlu43g","pricing_plan_id":"cebpf4jnsgd1na2vs0mg"},{"bike_id":"92aa62cf-f128-49f7-9b7e-a1b28669bee8","system_id":"levelo_inurba_marseille","lat":43.2466,"lon":5.38156,"is_reserved":false,"is_disabled":false,"rental_uris":{"android":"levelo://app?vid=92aa62cf-f128-49f7-9b7e-a1b28669bee8","ios":"levelo://app?vid=92aa62cf-f128-49f7-9b7e-a1b28669bee8"},"vehicle_type_id":"4","last_reported":1777062906,"current_range_meters":8800,"station_id":"ce4bhih2rcd13ifvqfr0","pricing_plan_id":"cebpf4jnsgd1na2vs0mg"},{"bike_id":"0cc6ece2-102c-4c80-bec5-f4b16857b331","system_id":"levelo_inurba_marseille","lat":43.32291,"lon":5.3897,"is_reserved":false,"is_disabled":false,"rental_uris":{"android":"levelo://app?vid=0cc6ece2-102c-4c80-bec5-f4b16857b331","ios":"levelo://app?vid=0cc6ece2-102c-4c80-bec5-f4b16857b331"},"vehicle_type_id":"4","last_reported":1777062906,"current_range_meters":8800,"station_id":"","pricing_plan_id":"cebpf4jnsgd1na2vs0mg"},{"bike_id":"ffd48d56-7b48-4767-b8fc-5ac8787018c8","system_id":"levelo_inurba_marseille","lat":43.29105,"lon":5.35548,"is_reserved":false,"is_disabled":true,"rental_uris":{"android":"levelo://app?vid=ffd48d56-7b48-4767-b8fc-5ac8787018c8","ios":"levelo://app?vid=ffd48d56-7b48-4767-b8fc-5ac8787018c8"},"vehicle_type_id":"4","last_reported":1777062906,"current_range_meters":8800,"station_id":"","pricing_plan_id":"cebpf4jnsgd1na2vs0mg"},{"bike_id":"61a078ca-f3e9-4794-ab0f-3e9ad0cbcc4e","system_id":"levelo_inurba_marseille","lat":43.30187,"lon":5.36623,"is_reserved":false,"is_disabled":false,"rental_uris":{"android":"levelo://app?vid=61a078ca-f3e9-4794-ab0f-3e9ad0cbcc4e","ios":"levelo://app?vid=61a078ca-f3e9-4794-ab0f-3e9ad0cbcc4e"},"vehicle_type_id":"4","last_reported":1777062906,"current_range_meters":8800,"station_id":"ce4bgrh2rcd13ifvqc8g","pricing_plan_id":"cebpf4jnsgd1na2vs0mg"},{"bike_id":"5091d3df-140a-4a96-ba1e-f44ab742c57b","system_id":"levelo_inurba_marseille","lat":43.23169,"lon":5.4001,"is_reserved":false,"is_disabled":true,"rental_uris":{"android":"levelo://app?vid=5091d3df-140a-4a96-ba1e-f44ab742c57b","ios":"levelo://app?vid=5091d3df-140a-4a96-ba1e-f44ab742c57b"},"vehicle_type_id":"4","last_reported":1777062906,"current_range_meters":8800,"station_id":"ce4bhn12rcd13ifvqgqg","pricing_plan_id":"cebpf4jnsgd1na2vs0mg"},{"bike_id":"ebf4bd81-18d0-4300-ba98-4ecb924642b0","system_id":"levelo_inurba_marseille","lat":43.26785,"lon":5.38457,"is_reserved":false,"is_disabled":false,"rental_uris":{"android":"levelo://app?vid=ebf4bd81-18d0-4300-ba98-4ecb924642b0","ios":"levelo://app?vid=ebf4bd81-18d0-4300-ba98-4ecb924642b0"},"vehicle_type_id":"4","last_reported":1777062906,"current_range_meters":8800,"station_id":"","pricing_plan_id":"cebpf4jnsgd1na2vs0mg"},{"bike_id":"3a4c01f4-403d-4e43-9b94-4f7c3c869903","system_id":"levelo_inurba_marseille","lat":43.31185,"lon":5.36863,"is_reserved":false,"is_disabled":false,"rental_uris":{"android":"levelo://app?vid=3a4c01f4-403d-4e43-9b94-4f7c3c869903","ios":"levelo://app?vid=3a4c01f4-403d-4e43-9b94-4f7c3c869903"},"vehicle_type_id":"4","last_reported":1777062906,"current_range_meters":8800,"station_id":"ce4bgl92rcd13ifvqbq0","pricing_plan_id":"cebpf4jnsgd1na2vs0mg"},{"bike_id":"c88bc297-b2dd-4311-bf53-1d6b1fc22b29","system_id":"levelo_inurba_marseille","lat":43.28939,"lon":5.36387,"is_reserved":false,"is_disabled":false,"rental_uris":{"android":"levelo://app?vid=c88bc297-b2dd-4311-bf53-1d6b1fc22b29","ios":"levelo://app?vid=c88bc297-b2dd-4311-bf53-1d6b1fc22b29"},"vehicle_type_id":"4","last_reported":1777062906,"current_range_meters":9200,"station_id":"ce4bhc92rcd13ifvqetg","pricing_plan_id":"cebpf4jnsgd1na2vs0mg"},{"bike_id":"e823ebc2-0ba4-4a28-8e44-b1a52b2626ca","system_id":"levelo_inurba_marseille","lat":43.2887,"lon":5.37651,"is_reserved":false,"is_disabled":false,"rental_uris":{"android":"levelo://app?vid=e823ebc2-0ba4-4a28-8e44-b1a52b2626ca","ios":"levelo://app?vid=e823ebc2-0ba4-4a28-8e44-b1a52b2626ca"},"vehicle_type_id":"4","last_reported":1777062906,"current_range_meters":9200,"station_id":"","pricing_plan_id":"cebpf4jnsgd1na2vs0mg"},{"bike_id":"517b465b-1cbe-47c0-8062-1f1f68f9139f","system_id":"levelo_inurba_marseille","lat":43.23205,"lon":5.35571,"is_reserved":false,"is_disabled":false,"rental_uris":{"android":"levelo://app?vid=517b465b-1cbe-47c0-8062-1f1f68f9139f","ios":"levelo://app?vid=517b465b-1cbe-47c0-8062-1f1f68f9139f"},"vehicle_type_id":"4","last_reported":1777062906,"current_range_meters":9200,"station_id":"ce4bhu92rcd13ifvqi70","pricing_plan_id":"cebpf4jnsgd1na2vs0mg"},{"bike_id":"f01b33b4-d615-44f3-8c41-5a4c243a6920","system_id":"levelo_inurba_marseille","lat":43.35191,"lon":5.43953,"is_reserved":false,"is_disabled":false,"rental_uris":{"android":"levelo://app?vid=f01b33b4-d615-44f3-8c41-5a4c243a6920","ios":"levelo://app?vid=f01b33b4-d615-44f3-8c41-5a4c243a6920"},"vehicle_type_id":"4","last_reported":1777062906,"current_range_meters":9200,"station_id":"","pricing_plan_id":"cebpf4jnsgd1na2vs0mg"},{"bike_id":"bdae5112-53af-4a7b-a92d-ba3c89aa9aa3","system_id":"levelo_inurba_marseille","lat":43.29517,"lon":5.38535,"is_reserved":false,"is_disabled":false,"rental_uris":{"android":"levelo://app?vid=bdae5112-53af-4a7b-a92d-ba3c89aa9aa3","ios":"levelo://app?vid=bdae5112-53af-4a7b-a92d-ba3c89aa9aa3"},"vehicle_type_id":"4","last_reported":1777062906,"current_range_meters":9200,"station_id":"ce4bgih2rcd13ifvqba0","pricing_plan_id":"cebpf4jnsgd1na2vs0mg"},{"bike_id":"8240ae53-3b21-4495-b553-933fb2bb4a99","system_id":"levelo_inurba_marseille","lat":43.32669,"lon":5.399,"is_reserved":false,"is_disabled":false,"rental_uris":{"android":"levelo://app?vid=8240ae53-3b21-4495-b553-933fb2bb4a99","ios":"levelo://app?vid=8240ae53-3b21-4495-b553-933fb2bb4a99"},"vehicle_type_id":"4","last_reported":1777062906,"current_range_meters":9200,"station_id":"","pricing_plan_id":"cebpf4jnsgd1na2vs0mg"},{"bike_id":"d068e4f2-edbb-40aa-9de9-6e18dd957cf7","system_id":"levelo_inurba_marseille","lat":43.29182,"lon":5.39321,"is_reserved":false,"is_disabled":false,"rental_uris":{"android":"levelo://app?vid=d068e4f2-edbb-40aa-9de9-6e18dd957cf7","ios":"levelo://app?vid=d068e4f2-edbb-40aa-9de9-6e18dd957cf7"},"vehicle_type_id":"4","last_reported":1777062906,"current_range_meters":9200,"station_id":"ce4bh192rcd13ifvqdd0","pricing_plan_id":"cebpf4jnsgd1na2vs0mg"},{"bike_id":"5db541e1-bfff-4e1b-9e19-1905db2241cc","system_id":"levelo_inurba_marseille","lat":43.29246,"lon":5.40905,"is_reserved":false,"is_disabled":false,"rental_uris":{"android":"levelo://app?vid=5db541e1-bfff-4e1b-9e19-1905db2241cc","ios":"levelo://app?vid=5db541e1-bfff-4e1b-9e19-1905db2241cc"},"vehicle_type_id":"4","last_reported":1777062906,"current_range_meters":9200,"station_id":"ce4bh192rcd13ifvqdc0","pricing_plan_id":"cebpf4jnsgd1na2vs0mg"},{"bike_id":"7437e1e8-f4fd-456d-b311-30be4141966e","system_id":"levelo_inurba_marseille","lat":43.25121,"lon":5.4032,"is_reserved":false,"is_disabled":false,"rental_uris":{"android":"levelo://app?vid=7437e1e8-f4fd-456d-b311-30be4141966e","ios":"levelo://app?vid=7437e1e8-f4fd-456d-b311-30be4141966e"},"vehicle_type_id":"4","last_reported":1777062906,"current_range_meters":9200,"station_id":"ce4bhlh2rcd13ifvqgig","pricing_plan_id":"cebpf4jnsgd1na2vs0mg"},{"bike_id":"915f3511-b21b-4a84-8018-3a43f6b1a303","system_id":"levelo_inurba_marseille","lat":43.27071,"lon":5.42267,"is_reserved":false,"is_disabled":false,"rental_uris":{"android":"levelo://app?vid=915f3511-b21b-4a84-8018-3a43f6b1a303","ios":"levelo://app?vid=915f3511-b21b-4a84-8018-3a43f6b1a303"},"vehicle_type_id":"4","last_reported":1777062906,"current_range_meters":9200,"station_id":"ce4bhk92rcd13ifvqgb0","pricing_plan_id":"cebpf4jnsgd1na2vs0mg"},{"bike_id":"3141a6d7-bb96-4d3b-ba9a-f9634ef236a5","system_id":"levelo_inurba_marseille","lat":43.28679,"lon":5.3867,"is_reserved":false,"is_disabled":false,"rental_uris":{"android":"levelo://app?vid=3141a6d7-bb96-4d3b-ba9a-f9634ef236a5","ios":"levelo://app?vid=3141a6d7-bb96-4d3b-ba9a-f9634ef236a5"},"vehicle_type_id":"4","last_reported":1777062906,"current_range_meters":9200,"station_id":"ce4bh492rcd13ifvqdug","pricing_plan_id":"cebpf4jnsgd1na2vs0mg"},{"bike_id":"80d34ee4-9695-41ba-bcd8-fb44ac5753a6","system_id":"levelo_inurba_marseille","lat":43.28543,"lon":5.44113,"is_reserved":false,"is_disabled":false,"rental_uris":{"android":"levelo://app?vid=80d34ee4-9695-41ba-bcd8-fb44ac5753a6","ios":"levelo://app?vid=80d34ee4-9695-41ba-bcd8-fb44ac5753a6"},"vehicle_type_id":"4","last_reported":1777062906,"current_range_meters":9200,"station_id":"st_d3j3df2ikq2c7380ej80","pricing_plan_id":"cebpf4jnsgd1na2vs0mg"},{"bike_id":"cfdb9d3f-23be-49a5-a278-7d2f8cb5ed87","system_id":"levelo_inurba_marseille","lat":43.29325,"lon":5.37162,"is_reserved":false,"is_disabled":false,"rental_uris":{"android":"levelo://app?vid=cfdb9d3f-23be-49a5-a278-7d2f8cb5ed87","ios":"levelo://app?vid=cfdb9d3f-23be-49a5-a278-7d2f8cb5ed87"},"vehicle_type_id":"4","last_reported":1777062906,"current_range_meters":9200,"station_id":"ce4bgh92rcd13ifvqb40","pricing_plan_id":"cebpf4jnsgd1na2vs0mg"},{"bike_id":"4426216e-b3b0-4980-9f53-deaa9f5bee57","system_id":"levelo_inurba_marseille","lat":43.2952,"lon":5.3851,"is_reserved":false,"is_disabled":false,"rental_uris":{"android":"levelo://app?vid=4426216e-b3b0-4980-9f53-deaa9f5bee57","ios":"levelo://app?vid=4426216e-b3b0-4980-9f53-deaa9f5bee57"},"vehicle_type_id":"4","last_reported":1777062906,"current_range_meters":9200,"station_id":"ce4bgih2rcd13ifvqba0","pricing_plan_id":"cebpf4jnsgd1na2vs0mg"},{"bike_id":"40458dcd-83e0-452e-af86-3ee1c2bf9492","system_id":"levelo_inurba_marseille","lat":43.28698,"lon":5.46687,"is_reserved":false,"is_disabled":false,"rental_uris":{"android":"levelo://app?vid=40458dcd-83e0-452e-af86-3ee1c2bf9492","ios":"levelo://app?vid=40458dcd-83e0-452e-af86-3ee1c2bf9492"},"vehicle_type_id":"4","last_reported":1777062906,"current_range_meters":9600,"station_id":"st_d6tc3vkotcvc738tfjhg","pricing_plan_id":"cebpf4jnsgd1na2vs0mg"},{"bike_id":"4a896773-d468-4674-ab8d-3b89a54fe152","system_id":"levelo_inurba_marseille","lat":43.3175,"lon":5.39022,"is_reserved":false,"is_disabled":false,"rental_uris":{"android":"levelo://app?vid=4a896773-d468-4674-ab8d-3b89a54fe152","ios":"levelo://app?vid=4a896773-d468-4674-ab8d-3b89a54fe152"},"vehicle_type_id":"4","last_reported":1777062906,"current_range_meters":9600,"station_id":"ce4bhqp2rcd13ifvqhng","pricing_plan_id":"cebpf4jnsgd1na2vs0mg"},{"bike_id":"9f6295f0-532a-4767-94fe-5dc936257e74","system_id":"levelo_inurba_marseille","lat":43.2931,"lon":5.37173,"is_reserved":false,"is_disabled":false,"rental_uris":{"android":"levelo://app?vid=9f6295f0-532a-4767-94fe-5dc936257e74","ios":"levelo://app?vid=9f6295f0-532a-4767-94fe-5dc936257e74"},"vehicle_type_id":"4","last_reported":1777062906,"current_range_meters":9600,"station_id":"ce4bgh92rcd13ifvqb40","pricing_plan_id":"cebpf4jnsgd1na2vs0mg"},