{"last_updated":1683050881,"ttl":30,"version":"2.2","data":{"bikes":[{"bike_id":"cbf19fab-cdc1-4988-b02c-2eee542a444f","system_id":"levelo_inurba_marseille","lat":43.312239,"lon":5.368562,"is_reserved":false,"is_disabled":false,"rental_uris":{"android":"levelo://app?vid=cbf19fab-cdc1-4988-b02c-2eee542a444f","ios":"levelo://app?vid=cbf19fab-cdc1-4988-b02c-2eee542a444f"},"vehicle_type_id":"4","last_reported":1683050881,"current_range_meters":19200,"station_id":"ce4bgl92rcd13ifvqbq0","pricing_plan_id":"free"},{"bike_id":"f88009ee-42dc-43f0-991a-5dd78754d795","system_id":"levelo_inurba_marseille","lat":43.312239,"lon":5.368562,"is_reserved":false,"is_disabled":false,"rental_uris":{"android":"levelo://app?vid=f88009ee-42dc-43f0-991a-5dd78754d795","ios":"levelo://app?vid=f88009ee-42dc-43f0-991a-5dd78754d795"},"vehicle_type_id":"4","last_reported":1683050881,"current_range_meters":23600,"station_id":"ce4bgl92rcd13ifvqbq0","pricing_plan_id":"free"},{"bike_id":"1aeafbc2-fdde-4325-a4b0-4192f624d512","system_id":"levelo_inurba_marseille","lat":43.30906,"lon":5.36846,"is_reserved":false,"is_disabled":false,"rental_uris":{"android":"levelo://app?vid=1aeafbc2-fdde-4325-a4b0-4192f624d512","ios":"levelo://app?vid=1aeafbc2-fdde-4325-a4b0-4192f624d512"},"vehicle_type_id":"4","last_reported":1683050881,"current_range_meters":20400,"station_id":"ce4bgn92rcd13ifvqbvg","pricing_plan_id":"free"},{"bike_id":"81904056-79e5-4d20-8eb5-3d61eb9286cc","system_id":"levelo_inurba_marseille","lat":43.314811,"lon":5.373103,"is_reserved":false,"is_disabled":false,"rental_uris":{"android":"levelo://app?vid=81904056-79e5-4d20-8eb5-3d61eb9286cc","ios":"levelo://app?vid=81904056-79e5-4d20-8eb5-3d61eb9286cc"},"vehicle_type_id":"4","last_reported":1683050881,"current_range_meters":2400,"station_id":"ce4bgt12rcd13ifvqcd0","pricing_plan_id":"free"},{"bike_id":"f55ed2d2-3d26-44f8-9251-2ea43e3c3126","system_id":"levelo_inurba_marseille","lat":43.314811,"lon":5.373103,"is_reserved":false,"is_disabled":false,"rental_uris":{"android":"levelo://app?vid=f55ed2d2-3d26-44f8-9251-2ea43e3c3126","ios":"levelo://app?vid=f55ed2d2-3d26-44f8-9251-2ea43e3c3126"},"vehicle_type_id":"4","last_reported":1683050881,"current_range_meters":5200,"station_id":"ce4bgt12rcd13ifvqcd0","pricing_plan_id":"free"},{"bike_id":"caea2489-5a5d-4f00-8e78-8c319f8ed68e","system_id":"levelo_inurba_marseille","lat":43.3057,"lon":5.36553,"is_reserved":false,"is_disabled":false,"rental_uris":{"android":"levelo://app?vid=caea2489-5a5d-4f00-8e78-8c319f8ed68e","ios":"levelo://app?vid=caea2489-5a5d-4f00-8e78-8c319f8ed68e"},"vehicle_type_id":"4","last_reported":1683050881,"current_range_meters":26000,"station_id":"ce4bgs12rcd13ifvqcag","pricing_plan_id":"free"},{"bike_id":"52a4a248-dc40-4446-8493-7f76cd2839c8","system_id":"levelo_inurba_marseille","lat":43.305989,"lon":5.37225,"is_reserved":false,"is_disabled":false,"rental_uris":{"android":"levelo://app?vid=52a4a248-dc40-4446-8493-7f76cd2839c8","ios":"levelo://app?vid=52a4a248-dc40-4446-8493-7f76cd2839c8"},"vehicle_type_id":"4","last_reported":1683050881,"current_range_meters":14800,"station_id":"ce4bgqh2rcd13ifvqc4g","pricing_plan_id":"free"},{"bike_id":"defe7993-efd8-4222-9146-d2d9daef0f98","system_id":"levelo_inurba_marseille","lat":43.305989,"lon":5.37225,"is_reserved":false,"is_disabled":false,"rental_uris":{"android":"levelo://app?vid=defe7993-efd8-4222-9146-d2d9daef0f98","ios":"levelo://app?vid=defe7993-efd8-4222-9146-d2d9daef0f98"},"vehicle_type_id":"4","last_reported":1683050881,"current_range_meters":16000,"station_id":"ce4bgqh2rcd13ifvqc4g","pricing_plan_id":"free"},{"bike_id":"d9e056e5-19bb-4c08-b504-82fc8f9638ee","system_id":"levelo_inurba_marseille","lat":43.305989,"lon":5.37225,"is_reserved":false,"is_disabled":false,"rental_uris":{"android":"levelo://app?vid=d9e056e5-19bb-4c08-b504-82fc8f9638ee","ios":"levelo://app?vid=d9e056e5-19bb-4c08-b504-82fc8f9638ee"},"vehicle_type_id":"4","last_reported":1683050881,"current_range_meters":7600,"station_id":"ce4bgqh2rcd13ifvqc4g","pricing_plan_id":"free"},{"bike_id":"1629acf1-5cd0-44c0-85e0-d8b54488ff53","system_id":"levelo_inurba_marseille","lat":43.30598,"lon":5.37243,"is_reserved":false,"is_disabled":false,"rental_uris":{"android":"levelo://app?vid=1629acf1-5cd0-44c0-85e0-d8b54488ff53","ios":"levelo://app?vid=1629acf1-5cd0-44c0-85e0-d8b54488ff53"},"vehicle_type_id":"4","last_reported":1683050881,"current_range_meters":24000,"station_id":"ce4bgqh2rcd13ifvqc4g","pricing_plan_id":"free"},{"bike_id":"f11ad5e3-196f-452c-a0f5-579afd9cbbc0","system_id":"levelo_inurba_marseille","lat":43.311131,"lon":5.377651,"is_reserved":false,"is_disabled":false,"rental_uris":{"android":"levelo://app?vid=f11ad5e3-196f-452c-a0f5-579afd9cbbc0","ios":"levelo://app?vid=f11ad5e3-196f-452c-a0f5-579afd9cbbc0"},"vehicle_type_id":"4","last_reported":1683050881,"current_range_meters":400,"station_id":"ce4bgt92rcd13ifvqcg0","pricing_plan_id":"free"},{"bike_id":"a6d8b167-c19d-4e51-beca-c804bb4ffef7","system_id":"levelo_inurba_marseille","lat":43.31115,"lon":5.37817,"is_reserved":false,"is_disabled":false,"rental_uris":{"android":"levelo://app?vid=a6d8b167-c19d-4e51-beca-c804bb4ffef7","ios":"levelo://app?vid=a6d8b167-c19d-4e51-beca-c804bb4ffef7"},"vehicle_type_id":"4","last_reported":1683050881,"current_range_meters":800,"station_id":"","pricing_plan_id":"free"},{"bike_id":"29f2f801-dc33-4791-8d79-77259818a993","system_id":"levelo_inurba_marseille","lat":43.30429,"lon":5.3676,"is_reserved":false,"is_disabled":false,"rental_uris":{"android":"levelo://app?vid=29f2f801-dc33-4791-8d79-77259818a993","ios":"levelo://app?vid=29f2f801-dc33-4791-8d79-77259818a993"},"vehicle_type_id":"4","last_reported":1683050881,"current_range_meters":10000,"station_id":"","pricing_plan_id":"free"},{"bike_id":"df9c5f1c-9a51-47bf-ba0f-971fa2fee28c","system_id":"levelo_inurba_marseille","lat":43.317075,"lon":5.377367,"is_reserved":false,"is_disabled":false,"rental_uris":{"android":"levelo://app?vid=df9c5f1c-9a51-47bf-ba0f-971fa2fee28c","ios":"levelo://app?vid=df9c5f1c-9a51-47bf-ba0f-971fa2fee28c"},"vehicle_type_id":"4","last_reported":1683050881,"current_range_meters":23200,"station_id":"ce4bgth2rcd13ifvqch0","pricing_plan_id":"free"},{"bike_id":"7fa99ee2-2076-4781-87b2-4ed0beb30c9c","system_id":"levelo_inurba_marseille","lat":43.317075,"lon":5.377367,"is_reserved":false,"is_disabled":false,"rental_uris":{"android":"levelo://app?vid=7fa99ee2-2076-4781-87b2-4ed0beb30c9c","ios":"levelo://app?vid=7fa99ee2-2076-4781-87b2-4ed0beb30c9c"},"vehicle_type_id":"4","last_reported":1683050881,"current_range_meters":22800,"station_id":"ce4bgth2rcd13ifvqch0","pricing_plan_id":"free"},{"bike_id":"3649b808-931d-4648-b00c-8d724e2e949a","system_id":"levelo_inurba_marseille","lat":43.31773,"lon":5.37784,"is_reserved":false,"is_disabled":false,"rental_uris":{"android":"levelo://app?vid=3649b808-931d-4648-b00c-8d724e2e949a","ios":"levelo://app?vid=3649b808-931d-4648-b00c-8d724e2e949a"},"vehicle_type_id":"4","last_reported":1683050881,"current_range_meters":20400,"station_id":"","pricing_plan_id":"free"},{"bike_id":"b63d18dc-46e7-4646-b40f-bf17efb55a34","system_id":"levelo_inurba_marseille","lat":43.303046,"lon":5.368981,"is_reserved":false,"is_disabled":false,"rental_uris":{"android":"levelo://app?vid=b63d18dc-46e7-4646-b40f-bf17efb55a34","ios":"levelo://app?vid=b63d18dc-46e7-4646-b40f-bf17efb55a34"},"vehicle_type_id":"4","last_reported":1683050881,"current_range_meters":2000,"station_id":"ce4bgqh2rcd13ifvqc5g","pricing_plan_id":"free"},{"bike_id":"c09b17f4-e161-44d2-9316-977193f3020e","system_id":"levelo_inurba_marseille","lat":43.303046,"lon":5.368981,"is_reserved":false,"is_disabled":false,"rental_uris":{"android":"levelo://app?vid=c09b17f4-e161-44d2-9316-977193f3020e","ios":"levelo://app?vid=c09b17f4-e161-44d2-9316-977193f3020e"},"vehicle_type_id":"4","last_reported":1683050881,"current_range_meters":21200,"station_id":"ce4bgqh2rcd13ifvqc5g","pricing_plan_id":"free"},{"bike_id":"f7a260ce-fffc-4ba1-9a7b-4a94bfd9c17e","system_id":"levelo_inurba_marseille","lat":43.316,"lon":5.38022,"is_reserved":false,"is_disabled":false,"rental_uris":{"android":"levelo://app?vid=f7a260ce-fffc-4ba1-9a7b-4a94bfd9c17e","ios":"levelo://app?vid=f7a260ce-fffc-4ba1-9a7b-4a94bfd9c17e"},"vehicle_type_id":"4","last_reported":1683050881,"current_range_meters":5600,"station_id":"","pricing_plan_id":"free"},{"bike_id":"7f978201-dd17-4796-bba5-baad2c637eb9","system_id":"levelo_inurba_marseille","lat":43.30181,"lon":5.36789,"is_reserved":false,"is_disabled":false,"rental_uris":{"android":"levelo://app?vid=7f978201-dd17-4796-bba5-baad2c637eb9","ios":"levelo://app?vid=7f978201-dd17-4796-bba5-baad2c637eb9"},"vehicle_type_id":"4","last_reported":1683050881,"current_range_meters":6800,"station_id":"","pricing_plan_id":"free"},{"bike_id":"bb5a450f-814e-412b-b77c-fb4a7c37cbc1","system_id":"levelo_inurba_marseille","lat":43.308012,"lon":5.381511,"is_reserved":false,"is_disabled":false,"rental_uris":{"android":"levelo://app?vid=bb5a450f-814e-412b-b77c-fb4a7c37cbc1","ios":"levelo://app?vid=bb5a450f-814e-412b-b77c-fb4a7c37cbc1"},"vehicle_type_id":"4","last_reported":1683050881,"current_range_meters":16000,"station_id":"ce4bgt12rcd13ifvqce0","pricing_plan_id":"free"},{"bike_id":"8ced8675-8253-4597-bcbd-4175f4e73821","system_id":"levelo_inurba_marseille","lat":43.30112,"lon":5.36944,"is_reserved":false,"is_disabled":false,"rental_uris":{"android":"levelo://app?vid=8ced8675-8253-4597-bcbd-4175f4e73821","ios":"levelo://app?vid=8ced8675-8253-4597-bcbd-4175f4e73821"},"vehicle_type_id":"4","last_reported":1683050881,"current_range_meters":23600,"station_id":"","pricing_plan_id":"free"},{"bike_id":"ab02bfca-a8ef-4da5-bdc6-b5d16a23f270","system_id":"levelo_inurba_marseille","lat":43.30143,"lon":5.37413,"is_reserved":false,"is_disabled":false,"rental_uris":{"android":"levelo://app?vid=ab02bfca-a8ef-4da5-bdc6-b5d16a23f270","ios":"levelo://app?vid=ab02bfca-a8ef-4da5-bdc6-b5d16a23f270"},"vehicle_type_id":"4","last_reported":1683050881,"current_range_meters":22400,"station_id":"ce4bgs92rcd13ifvqcc0","pricing_plan_id":"free"},{"bike_id":"5dbc73b6-7693-4ac9-af13-ef6f7fa75026","system_id":"levelo_inurba_marseille","lat":43.29979,"lon":5.36522,"is_reserved":false,"is_disabled":false,"rental_uris":{"android":"levelo://app?vid=5dbc73b6-7693-4ac9-af13-ef6f7fa75026","ios":"levelo://app?vid=5dbc73b6-7693-4ac9-af13-ef6f7fa75026"},"vehicle_type_id":"4","last_reported":1683050881,"current_range_meters":9200,"station_id":"","pricing_plan_id":"free"},{"bike_id":"2ad66b11-2a85-4087-aee1-14f9083a9bf2","system_id":"levelo_inurba_marseille","lat":43.299222,"lon":5.365554,"is_reserved":false,"is_disabled":false,"rental_uris":{"android":"levelo://app?vid=2ad66b11-2a85-4087-aee1-14f9083a9bf2","ios":"levelo://app?vid=2ad66b11-2a85-4087-aee1-14f9083a9bf2"},"vehicle_type_id":"4","last_reported":1683050881,"current_range_meters":31200,"station_id":"ce4bgm92rcd13ifvqbr0","pricing_plan_id":"free"},{"bike_id":"49f4f0a5-2b71-4708-9f91-40f674cbbce1","system_id":"levelo_inurba_marseille","lat":43.31371,"lon":5.38491,"is_reserved":false,"is_disabled":false,"rental_uris":{"android":"levelo://app?vid=49f4f0a5-2b71-4708-9f91-40f674cbbce1","ios":"levelo://app?vid=49f4f0a5-2b71-4708-9f91-40f674cbbce1"},"vehicle_type_id":"4","last_reported":1683050881,"current_range_meters":2800,"station_id":"ce4bgt92rcd13ifvqcf0","pricing_plan_id":"free"},{"bike_id":"58ff97ae-7220-4203-93dc-c81cfe01c6f6","system_id":"levelo_inurba_marseille","lat":43.31366,"lon":5.38492,"is_reserved":false,"is_disabled":false,"rental_uris":{"android":"levelo://app?vid=58ff97ae-7220-4203-93dc-c81cfe01c6f6","ios":"levelo://app?vid=58ff97ae-7220-4203-93dc-c81cfe01c6f6"},"vehicle_type_id":"4","last_reported":1683050881,"current_range_meters":4000,"station_id":"ce4bgt92rcd13ifvqcf0","pricing_plan_id":"free"},{"bike_id":"b8cd70b3-ebb4-4e50-84a9-a672cf1940df","system_id":"levelo_inurba_marseille","lat":43.31363,"lon":5.38494,"is_reserved":false,"is_disabled":false,"rental_uris":{"android":"levelo://app?vid=b8cd70b3-ebb4-4e50-84a9-a672cf1940df","ios":"levelo://app?vid=b8cd70b3-ebb4-4e50-84a9-a672cf1940df"},"vehicle_type_id":"4","last_reported":1683050881,"current_range_meters":16800,"station_id":"ce4bgt92rcd13ifvqcf0","pricing_plan_id":"free"},{"bike_id":"9157dbde-30ae-4eea-ba08-d5c60e1ef9c5","system_id":"levelo_inurba_marseille","lat":43.31363,"lon":5.38494,"is_reserved":false,"is_disabled":false,"rental_uris":{"android":"levelo://app?vid=9157dbde-30ae-4eea-ba08-d5c60e1ef9c5","ios":"levelo://app?vid=9157dbde-30ae-4eea-ba08-d5c60e1ef9c5"},"vehicle_type_id":"4","last_reported":1683050881,"current_range_meters":23600,"station_id":"ce4bgt92rcd13ifvqcf0","pricing_plan_id":"free"},{"bike_id":"4a07b0c5-7db4-4308-ac0f-add8d827dcb9","system_id":"levelo_inurba_marseille","lat":43.31369,"lon":5.38496,"is_reserved":false,"is_disabled":false,"rental_uris":{"android":"levelo://app?vid=4a07b0c5-7db4-4308-ac0f-add8d827dcb9","ios":"levelo://app?vid=4a07b0c5-7db4-4308-ac0f-add8d827dcb9"},"vehicle_type_id":"4","last_reported":1683050881,"current_range_meters":26800,"station_id":"ce4bgt92rcd13ifvqcf0","pricing_plan_id":"free"},{"bike_id":"c8ef380d-24de-4dfb-9f28-d310dac6b926","system_id":"levelo_inurba_marseille","lat":43.31368,"lon":5.38497,"is_reserved":false,"is_disabled":false,"rental_uris":{"android":"levelo://app?vid=c8ef380d-24de-4dfb-9f28-d310dac6b926","ios":"levelo://app?vid=c8ef380d-24de-4dfb-9f28-d310dac6b926"},"vehicle_type_id":"4","last_reported":1683050881,"current_range_meters":6000,"station_id":"ce4bgt92rcd13ifvqcf0","pricing_plan_id":"free"},{"bike_id":"758edc2c-fbe4-4351-88bb-e37fd9476da5","system_id":"levelo_inurba_marseille","lat":43.31368,"lon":5.38497,"is_reserved":false,"is_disabled":false,"rental_uris":{"android":"levelo://app?vid=758edc2c-fbe4-4351-88bb-e37fd9476da5","ios":"levelo://app?vid=758edc2c-fbe4-4351-88bb-e37fd9476da5"},"vehicle_type_id":"4","last_reported":1683050881,"current_range_meters":15600,"station_id":"ce4bgt92rcd13ifvqcf0","pricing_plan_id":"free"},{"bike_id":"f7d55ddd-2ffb-40fd-ae00-eed558f6187c","system_id":"levelo_inurba_marseille","lat":43.31375,"lon":5.38498,"is_reserved":false,"is_disabled":false,"rental_uris":{"android":"levelo://app?vid=f7d55ddd-2ffb-40fd-ae00-eed558f6187c","ios":"levelo://app?vid=f7d55ddd-2ffb-40fd-ae00-eed558f6187c"},"vehicle_type_id":"4","last_reported":1683050881,"current_range_meters":6400,"station_id":"ce4bgt92rcd13ifvqcf0","pricing_plan_id":"free"},{"bike_id":"6d9e9467-2833-42ac-bce7-cb24672194d4","system_id":"levelo_inurba_marseille","lat":43.31377,"lon":5.38498,"is_reserved":false,"is_disabled":false,"rental_uris":{"android":"levelo://app?vid=6d9e9467-2833-42ac-bce7-cb24672194d4","ios":"levelo://app?vid=6d9e9467-2833-42ac-bce7-cb24672194d4"},"vehicle_type_id":"4","last_reported":1683050881,"current_range_meters":31200,"station_id":"ce4bgt92rcd13ifvqcf0","pricing_plan_id":"free"},{"bike_id":"206f7df6-70ee-4d32-a0a6-a449e0803871","system_id":"levelo_inurba_marseille","lat":43.31371,"lon":5.38499,"is_reserved":false,"is_disabled":false,"rental_uris":{"android":"levelo://app?vid=206f7df6-70ee-4d32-a0a6-a449e0803871","ios":"levelo://app?vid=206f7df6-70ee-4d32-a0a6-a449e0803871"},"vehicle_type_id":"4","last_reported":1683050881,"current_range_meters":31200,"station_id":"ce4bgt92rcd13ifvqcf0","pricing_plan_id":"free"},{"bike_id":"682e70f1-f9e3-4a8e-8f5e-f6f8a2828aaa","system_id":"levelo_inurba_marseille","lat":43.299222,"lon":5.365554,"is_reserved":false,"is_disabled":false,"rental_uris":{"android":"levelo://app?vid=682e70f1-f9e3-4a8e-8f5e-f6f8a2828aaa","ios":"levelo://app?vid=682e70f1-f9e3-4a8e-8f5e-f6f8a2828aaa"},"vehicle_type_id":"4","last_reported":1683050881,"current_range_meters":31200,"station_id":"ce4bgm92rcd13ifvqbr0","pricing_plan_id":"free"},{"bike_id":"9c38e90a-5b3b-418d-ba40-b7440239721c","system_id":"levelo_inurba_marseille","lat":43.299222,"lon":5.365554,"is_reserved":false,"is_disabled":false,"rental_uris":{"android":"levelo://app?vid=9c38e90a-5b3b-418d-ba40-b7440239721c","ios":"levelo://app?vid=9c38e90a-5b3b-418d-ba40-b7440239721c"},"vehicle_type_id":"4","last_reported":1683050881,"current_range_meters":30800,"station_id":"ce4bgm92rcd13ifvqbr0","pricing_plan_id":"free"},{"bike_id":"5a9d2dc4-16df-4acb-8b6c-09ba1edb62c5","system_id":"levelo_inurba_marseille","lat":43.299222,"lon":5.365554,"is_reserved":false,"is_disabled":false,"rental_uris":{"android":"levelo://app?vid=5a9d2dc4-16df-4acb-8b6c-09ba1edb62c5","ios":"levelo://app?vid=5a9d2dc4-16df-4acb-8b6c-09ba1edb62c5"},"vehicle_type_id":"4","last_reported":1683050881,"current_range_meters":31200,"station_id":"ce4bgm92rcd13ifvqbr0","pricing_plan_id":"free"},{"bike_id":"37e4bc39-67e8-47b5-933c-303f25d1c01d","system_id":"levelo_inurba_marseille","lat":43.30547,"lon":5.38417,"is_reserved":false,"is_disabled":false,"rental_uris":{"android":"levelo://app?vid=37e4bc39-67e8-47b5-933c-303f25d1c01d","ios":"levelo://app?vid=37e4bc39-67e8-47b5-933c-303f25d1c01d"},"vehicle_type_id":"4","last_reported":1683050881,"current_range_meters":0,"station_id":"","pricing_plan_id":"free"},{"bike_id":"534d0898-db29-48a5-8e61-c85dcedf1cf3","system_id":"levelo_inurba_marseille","lat":43.298433,"lon":5.362774,"is_reserved":false,"is_disabled":false,"rental_uris":{"android":"levelo://app?vid=534d0898-db29-48a5-8e61-c85dcedf1cf3","ios":"levelo://app?vid=534d0898-db29-48a5-8e61-c85dcedf1cf3"},"vehicle_type_id":"4","last_reported":1683050881,"current_range_meters":31200,"station_id":"ce4bgpp2rcd13ifvqc3g","pricing_plan_id":"free"},{"bike_id":"de6b7b13-6980-4acd-809f-9a3eb8382d9e","system_id":"levelo_inurba_marseille","lat":43.305364,"lon":5.384119,"is_reserved":false,"is_disabled":false,"rental_uris":{"android":"levelo://app?vid=de6b7b13-6980-4acd-809f-9a3eb8382d9e","ios":"levelo://app?vid=de6b7b13-6980-4acd-809f-9a3eb8382d9e"},"vehicle_type_id":"4","last_reported":1683050881,"current_range_meters":27200,"station_id":"ce4bgg92rcd13ifvqb30","pricing_plan_id":"free"},{"bike_id":"5c551f25-6870-4fda-a4c0-80428f2d6535","system_id":"levelo_inurba_marseille","lat":43.298433,"lon":5.362774,"is_reserved":false,"is_disabled":false,"rental_uris":{"android":"levelo://app?vid=5c551f25-6870-4fda-a4c0-80428f2d6535","ios":"levelo://app?vid=5c551f25-6870-4fda-a4c0-80428f2d6535"},"vehicle_type_id":"4","last_reported":1683050881,"current_range_meters":29200,"station_id":"ce4bgpp2rcd13ifvqc3g","pricing_plan_id":"free"},{"bike_id":"78ea9c88-29a9-4174-8c4e-ebcd59ab1c06","system_id":"levelo_inurba_marseille","lat":43.298433,"lon":5.362774,"is_reserved":false,"is_disabled":false,"rental_uris":{"android":"levelo://app?vid=78ea9c88-29a9-4174-8c4e-ebcd59ab1c06","ios":"levelo://app?vid=78ea9c88-29a9-4174-8c4e-ebcd59ab1c06"},"vehicle_type_id":"4","last_reported":1683050881,"current_range_meters":31200,"station_id":"ce4bgpp2rcd13ifvqc3g","pricing_plan_id":"free"},{"bike_id":"538b3b60-e6f4-4dc8-9816-769a543351e9","system_id":"levelo_inurba_marseille","lat":43.298433,"lon":5.362774,"is_reserved":false,"is_disabled":false,"rental_uris":{"android":"levelo://app?vid=538b3b60-e6f4-4dc8-9816-769a543351e9","ios":"levelo://app?vid=538b3b60-e6f4-4dc8-9816-769a543351e9"},"vehicle_type_id":"4","last_reported":1683050881,"current_range_meters":30800,"station_id":"ce4bgpp2rcd13ifvqc3g","pricing_plan_id":"free"},{"bike_id":"e7748d4e-d208-44e3-8552-d71177a8ef54","system_id":"levelo_inurba_marseille","lat":43.298433,"lon":5.362774,"is_reserved":false,"is_disabled":false,"rental_uris":{"android":"levelo://app?vid=e7748d4e-d208-44e3-8552-d71177a8ef54","ios":"levelo://app?vid=e7748d4e-d208-44e3-8552-d71177a8ef54"},"vehicle_type_id":"4","last_reported":1683050881,"current_range_meters":31200,"station_id":"ce4bgpp2rcd13ifvqc3g","pricing_plan_id":"free"},{"bike_id":"500427d6-08ed-44ac-b4d7-74b734109b36","system_id":"levelo_inurba_marseille","lat":43.298433,"lon":5.362774,"is_reserved":false,"is_disabled":false,"rental_uris":{"android":"levelo://app?vid=500427d6-08ed-44ac-b4d7-74b734109b36","ios":"levelo://app?vid=500427d6-08ed-44ac-b4d7-74b734109b36"},"vehicle_type_id":"4","last_reported":1683050881,"current_range_meters":31200,"station_id":"ce4bgpp2rcd13ifvqc3g","pricing_plan_id":"free"},{"bike_id":"2aebb898-19d4-4b34-a59c-a53189222980","system_id":"levelo_inurba_marseille","lat":43.311722,"lon":5.387247,"is_reserved":false,"is_disabled":false,"rental_uris":{"android":"levelo://app?vid=2aebb898-19d4-4b34-a59c-a53189222980","ios":"levelo://app?vid=2aebb898-19d4-4b34-a59c-a53189222980"},"vehicle_type_id":"4","last_reported":1683050881,"current_range_meters":26400,"station_id":"ce4bgv12rcd13ifvqcp0","pricing_plan_id":"free"},{"bike_id":"c1a28b61-83ae-4999-979a-456a1c83157b","system_id":"levelo_inurba_marseille","lat":43.311722,"lon":5.387247,"is_reserved":false,"is_disabled":false,"rental_uris":{"android":"levelo://app?vid=c1a28b61-83ae-4999-979a-456a1c83157b","ios":"levelo://app?vid=c1a28b61-83ae-4999-979a-456a1c83157b"},"vehicle_type_id":"4","last_reported":1683050881,"current_range_meters":31200,"station_id":"ce4bgv12rcd13ifvqcp0","pricing_plan_id":"free"},{"bike_id":"ca29ff4f-a7a8-4a66-9a84-0836d1a5febd","system_id":"levelo_inurba_marseille","lat":43.311722,"lon":5.387247,"is_reserved":false,"is_disabled":false,"rental_uris":{"android":"levelo://app?vid=ca29ff4f-a7a8-4a66-9a84-0836d1a5febd","ios":"levelo://app?vid=ca29ff4f-a7a8-4a66-9a84-0836d1a5febd"},"vehicle_type_id":"4","last_reported":1683050881,"current_range_meters":28000,"station_id":"ce4bgv12rcd13ifvqcp0","pricing_plan_id":"free"},{"bike_id":"484c80e1-98bf-4f25-bffc-8a22c6cea82d","system_id":"levelo_inurba_marseille","lat":43.298433,"lon":5.362774,"is_reserved":false,"is_disabled":false,"rental_uris":{"android":"levelo://app?vid=484c80e1-98bf-4f25-bffc-8a22c6cea82d","ios":"levelo://app?vid=484c80e1-98bf-4f25-bffc-8a22c6cea82d"},"vehicle_type_id":"4","last_reported":1683050881,"current_range_meters":18000,"station_id":"ce4bgpp2rcd13ifvqc3g","pricing_plan_id":"free"},{"bike_id":"bd531c0e-df31-48e6-8877-1b49e7029d37","system_id":"levelo_inurba_marseille","lat":43.297774,"lon":5.370875,"is_reserved":false,"is_disabled":false,"rental_uris":{"android":"levelo://app?vid=bd531c0e-df31-48e6-8877-1b49e7029d37","ios":"levelo://app?vid=bd531c0e-df31-48e6-8877-1b49e7029d37"},"vehicle_type_id":"4","last_reported":1683050881,"current_range_meters":30000,"station_id":"ce4bgop2rcd13ifvqc1g","pricing_plan_id":"free"},{"bike_id":"19103db2-d387-4dc5-9982-d282d38bb3a2","system_id":"levelo_inurba_marseille","lat":43.297794,"lon":5.370888,"is_reserved":false,"is_disabled":false,"rental_uris":{"android":"levelo://app?vid=19103db2-d387-4dc5-9982-d282d38bb3a2","ios":"levelo://app?vid=19103db2-d387-4dc5-9982-d282d38bb3a2"},"vehicle_type_id":"4","last_reported":1683050881,"current_range_meters":29600,"station_id":"ce4bgop2rcd13ifvqc1g","pricing_plan_id":"free"},{"bike_id":"9ad35fdb-806c-4f7a-adba-8f02e408c7d4","system_id":"levelo_inurba_marseille","lat":43.297794,"lon":5.370888,"is_reserved":false,"is_disabled":false,"rental_uris":{"android":"levelo://app?vid=9ad35fdb-806c-4f7a-adba-8f02e408c7d4","ios":"levelo://app?vid=9ad35fdb-806c-4f7a-adba-8f02e408c7d4"},"vehicle_type_id":"4","last_reported":1683050881,"current_range_meters":15200,"station_id":"ce4bgop2rcd13ifvqc1g","pricing_plan_id":"free"},{"bike_id":"ea7b1b45-94e2-42e1-8786-c18438a8fc2d","system_id":"levelo_inurba_marseille","lat":43.328371,"lon":5.366912,"is_reserved":false,"is_disabled":false,"rental_uris":{"android":"levelo://app?vid=ea7b1b45-94e2-42e1-8786-c18438a8fc2d","ios":"levelo://app?vid=ea7b1b45-94e2-42e1-8786-c18438a8fc2d"},"vehicle_type_id":"4","last_reported":1683050881,"current_range_meters":19600,"station_id":"ce4bhs92rcd13ifvqi0g","pricing_plan_id":"free"},{"bike_id":"bf0fe6ad-f1ee-4e90-851e-4bdb847d036f","system_id":"levelo_inurba_marseille","lat":43.328371,"lon":5.366912,"is_reserved":false,"is_disabled":false,"rental_uris":{"android":"levelo://app?vid=bf0fe6ad-f1ee-4e90-851e-4bdb847d036f","ios":"levelo://app?vid=bf0fe6ad-f1ee-4e90-851e-4bdb847d036f"},"vehicle_type_id":"4","last_reported":1683050881,"current_range_meters":26000,"station_id":"ce4bhs92rcd13ifvqi0g","pricing_plan_id":"free"},{"bike_id":"6df01fc4-01ce-46ac-b48b-48734e57f4f7","system_id":"levelo_inurba_marseille","lat":43.328371,"lon":5.366912,"is_reserved":false,"is_disabled":false,"rental_uris":{"android":"levelo://app?vid=6df01fc4-01ce-46ac-b48b-48734e57f4f7","ios":"levelo://app?vid=6df01fc4-01ce-46ac-b48b-48734e57f4f7"},"vehicle_type_id":"4","last_reported":1683050881,"current_range_meters":25600,"station_id":"ce4bhs92rcd13ifvqi0g","pricing_plan_id":"free"},{"bike_id":"1b119143-8637-4d3f-b918-49378318986d","system_id":"levelo_inurba_marseille","lat":43.328371,"lon":5.366912,"is_reserved":false,"is_disabled":false,"rental_uris":{"android":"levelo://app?vid=1b119143-8637-4d3f-b918-49378318986d","ios":"levelo://app?vid=1b119143-8637-4d3f-b918-49378318986d"},"vehicle_type_id":"4","last_reported":1683050881,"current_range_meters":5600,"station_id":"ce4bhs92rcd13ifvqi0g","pricing_plan_id":"free"},{"bike_id":"1ea86a75-85d3-4cee-948b-36be1449a904","system_id":"levelo_inurba_marseille","lat":43.29955,"lon":5.38108,"is_reserved":false,"is_disabled":false,"rental_uris":{"android":"levelo://app?vid=1ea86a75-85d3-4cee-948b-36be1449a904","ios":"levelo://app?vid=1ea86a75-85d3-4cee-948b-36be1449a904"},"vehicle_type_id":"4","last_reported":1683050881,"current_range_meters":5600,"station_id":"","pricing_plan_id":"free"},{"bike_id":"917c53ac-dcb4-4b75-81f6-d628a23aaea8","system_id":"levelo_inurba_marseille","lat":43.30327,"lon":5.38608,"is_reserved":false,"is_disabled":false,"rental_uris":{"android":"levelo://app?vid=917c53ac-dcb4-4b75-81f6-d628a23aaea8","ios":"levelo://app?vid=917c53ac-dcb4-4b75-81f6-d628a23aaea8"},"vehicle_type_id":"4","last_reported":1683050881,"current_range_meters":2800,"station_id":"","pricing_plan_id":"free"},{"bike_id":"8e191826-3681-4e0a-8947-fe52d8069d1b","system_id":"levelo_inurba_marseille","lat":43.29573,"lon":5.367355,"is_reserved":false,"is_disabled":false,"rental_uris":{"android":"levelo://app?vid=8e191826-3681-4e0a-8947-fe52d8069d1b","ios":"levelo://app?vid=8e191826-3681-4e0a-8947-fe52d8069d1b"},"vehicle_type_id":"4","last_reported":1683050881,"current_range_meters":31200,"station_id":"ce4bgph2rcd13ifvqc2g","pricing_plan_id":"free"},{"bike_id":"852b4363-8723-4bbe-b188-f49527b3a80c","system_id":"levelo_inurba_marseille","lat":43.29573,"lon":5.367355,"is_reserved":false,"is_disabled":false,"rental_uris":{"android":"levelo://app?vid=852b4363-8723-4bbe-b188-f49527b3a80c","ios":"levelo://app?vid=852b4363-8723-4bbe-b188-f49527b3a80c"},"vehicle_type_id":"4","last_reported":1683050881,"current_range_meters":29600,"station_id":"ce4bgph2rcd13ifvqc2g","pricing_plan_id":"free"},{"bike_id":"25a40be0-09c0-4c09-9f36-8f413a826f3d","system_id":"levelo_inurba_marseille","lat":43.29573,"lon":5.367355,"is_reserved":false,"is_disabled":false,"rental_uris":{"android":"levelo://app?vid=25a40be0-09c0-4c09-9f36-8f413a826f3d","ios":"levelo://app?vid=25a40be0-09c0-4c09-9f36-8f413a826f3d"},"vehicle_type_id":"4","last_reported":1683050881,"current_range_meters":22000,"station_id":"ce4bgph2rcd13ifvqc2g","pricing_plan_id":"free"},{"bike_id":"0887451e-2160-4946-b4ab-d75adbb0a045","system_id":"levelo_inurba_marseille","lat":43.309589,"lon":5.390258,"is_reserved":false,"is_disabled":false,"rental_uris":{"android":"levelo://app?vid=0887451e-2160-4946-b4ab-d75adbb0a045","ios":"levelo://app?vid=0887451e-2160-4946-b4ab-d75adbb0a045"},"vehicle_type_id":"4","last_reported":1683050881,"current_range_meters":24000,"station_id":"ce4bgup2rcd13ifvqco0","pricing_plan_id":"free"},{"bike_id":"1e175ab6-a2ff-43c3-94c3-8da2c748cb5d","system_id":"levelo_inurba_marseille","lat":43.299028,"lon":5.381509,"is_reserved":false,"is_disabled":false,"rental_uris":{"android":"levelo://app?vid=1e175ab6-a2ff-43c3-94c3-8da2c748cb5d","ios":"levelo://app?vid=1e175ab6-a2ff-43c3-94c3-8da2c748cb5d"},"vehicle_type_id":"4","last_reported":1683050881,"current_range_meters":30000,"station_id":"ce4bgj12rcd13ifvqbc0","pricing_plan_id":"free"},{"bike_id":"8ec86fae-bbc3-4d12-95bd-25ca14f6b40c","system_id":"levelo_inurba_marseille","lat":43.299028,"lon":5.381509,"is_reserved":false,"is_disabled":false,"rental_uris":{"android":"levelo://app?vid=8ec86fae-bbc3-4d12-95bd-25ca14f6b40c","ios":"levelo://app?vid=8ec86fae-bbc3-4d12-95bd-25ca14f6b40c"},"vehicle_type_id":"4","last_reported":1683050881,"current_range_meters":15200,"station_id":"ce4bgj12rcd13ifvqbc0","pricing_plan_id":"free"},{"bike_id":"10680ad4-ef25-49d8-a6c5-271126d7db8d","system_id":"levelo_inurba_marseille","lat":43.299028,"lon":5.381509,"is_reserved":false,"is_disabled":false,"rental_uris":{"android":"levelo://app?vid=10680ad4-ef25-49d8-a6c5-271126d7db8d","ios":"levelo://app?vid=10680ad4-ef25-49d8-a6c5-271126d7db8d"},"vehicle_type_id":"4","last_reported":1683050881,"current_range_meters":26800,"station_id":"ce4bgj12rcd13ifvqbc0","pricing_plan_id":"free"},{"bike_id":"292c12f9-d301-4b78-bca1-d0ac54b7ffad","system_id":"levelo_inurba_marseille","lat":43.317557,"lon":5.390173,"is_reserved":false,"is_disabled":false,"rental_uris":{"android":"levelo://app?vid=292c12f9-d301-4b78-bca1-d0ac54b7ffad","ios":"levelo://app?vid=292c12f9-d301-4b78-bca1-d0ac54b7ffad"},"vehicle_type_id":"4","last_reported":1683050881,"current_range_meters":13600,"station_id":"ce4bhqp2rcd13ifvqhng","pricing_plan_id":"free"},{"bike_id":"f35c4678-e3eb-4d0f-9ad0-560a270792d9","system_id":"levelo_inurba_marseille","lat":43.29908,"lon":5.38144,"is_reserved":false,"is_disabled":false,"rental_uris":{"android":"levelo://app?vid=f35c4678-e3eb-4d0f-9ad0-560a270792d9","ios":"levelo://app?vid=f35c4678-e3eb-4d0f-9ad0-560a270792d9"},"vehicle_type_id":"4","last_reported":1683050881,"current_range_meters":18000,"station_id":"","pricing_plan_id":"free"},{"bike_id":"fb6cc9bd-2555-4098-9ff1-fcc27ee3dbec","system_id":"levelo_inurba_marseille","lat":43.309589,"lon":5.390258,"is_reserved":false,"is_disabled":false,"rental_uris":{"android":"levelo://app?vid=fb6cc9bd-2555-4098-9ff1-fcc27ee3dbec","ios":"levelo://app?vid=fb6cc9bd-2555-4098-9ff1-fcc27ee3dbec"},"vehicle_type_id":"4","last_reported":1683050881,"current_range_meters":2000,"station_id":"ce4bgup2rcd13ifvqco0","pricing_plan_id":"free"},{"bike_id":"e808ed97-654b-4aad-9fb2-3ed9f556c9c5","system_id":"levelo_inurba_marseille","lat":43.299028,"lon":5.381509,"is_reserved":false,"is_disabled":false,"rental_uris":{"android":"levelo://app?vid=e808ed97-654b-4aad-9fb2-3ed9f556c9c5","ios":"levelo://app?vid=e808ed97-654b-4aad-9fb2-3ed9f556c9c5"},"vehicle_type_id":"4","last_reported":1683050881,"current_range_meters":15200,"station_id":"ce4bgj12rcd13ifvqbc0","pricing_plan_id":"free"},{"bike_id":"f6a9495b-04c1-4cb0-9516-0a36aae8acfa","system_id":"levelo_inurba_marseille","lat":43.309589,"lon":5.390258,"is_reserved":false,"is_disabled":false,"rental_uris":{"android":"levelo://app?vid=f6a9495b-04c1-4cb0-9516-0a36aae8acfa","ios":"levelo://app?vid=f6a9495b-04c1-4cb0-9516-0a36aae8acfa"},"vehicle_type_id":"4","last_reported":1683050881,"current_range_meters":9600,"station_id":"ce4bgup2rcd13ifvqco0","pricing_plan_id":"free"},{"bike_id":"012f7a49-01f5-4a24-95ee-f05ab70d1717","system_id":"levelo_inurba_marseille","lat":43.309589,"lon":5.390258,"is_reserved":false,"is_disabled":false,"rental_uris":{"android":"levelo://app?vid=012f7a49-01f5-4a24-95ee-f05ab70d1717","ios":"levelo://app?vid=012f7a49-01f5-4a24-95ee-f05ab70d1717"},"vehicle_type_id":"4","last_reported":1683050881,"current_range_meters":21600,"station_id":"ce4bgup2rcd13ifvqco0","pricing_plan_id":"free"},{"bike_id":"c6eae76a-a2c9-4ba4-bc10-72d419021799","system_id":"levelo_inurba_marseille","lat":43.309589,"lon":5.390258,"is_reserved":false,"is_disabled":false,"rental_uris":{"android":"levelo://app?vid=c6eae76a-a2c9-4ba4-bc10-72d419021799","ios":"levelo://app?vid=c6eae76a-a2c9-4ba4-bc10-72d419021799"},"vehicle_type_id":"4","last_reported":1683050881,"current_range_meters":14800,"station_id":"ce4bgup2rcd13ifvqco0","pricing_plan_id":"free"},{"bike_id":"486434b4-bc15-4cce-ac95-944cb8c52b95","system_id":"levelo_inurba_marseille","lat":43.317557,"lon":5.390173,"is_reserved":false,"is_disabled":false,"rental_uris":{"android":"levelo://app?vid=486434b4-bc15-4cce-ac95-944cb8c52b95","ios":"levelo://app?vid=486434b4-bc15-4cce-ac95-944cb8c52b95"},"vehicle_type_id":"4","last_reported":1683050881,"current_range_meters":28800,"station_id":"ce4bhqp2rcd13ifvqhng","pricing_plan_id":"free"},{"bike_id":"62b1a654-711b-4181-a7e4-f45ac8210657","system_id":"levelo_inurba_marseille","lat":43.317557,"lon":5.390173,"is_reserved":false,"is_disabled":false,"rental_uris":{"android":"levelo://app?vid=62b1a654-711b-4181-a7e4-f45ac8210657","ios":"levelo://app?vid=62b1a654-711b-4181-a7e4-f45ac8210657"},"vehicle_type_id":"4","last_reported":1683050881,"current_range_meters":18000,"station_id":"ce4bhqp2rcd13ifvqhng","pricing_plan_id":"free"},{"bike_id":"69dfa22d-103c-424d-929e-06a2e4be6fd7","system_id":"levelo_inurba_marseille","lat":43.298037,"lon":5.381066,"is_reserved":false,"is_disabled":false,"rental_uris":{"android":"levelo://app?vid=69dfa22d-103c-424d-929e-06a2e4be6fd7","ios":"levelo://app?vid=69dfa22d-103c-424d-929e-06a2e4be6fd7"},"vehicle_type_id":"4","last_reported":1683050881,"current_range_meters":0,"station_id":"ce4bgip2rcd13ifvqbb0","pricing_plan_id":"free"},{"bike_id":"49a48de7-43e4-492b-8182-5933d24636c3","system_id":"levelo_inurba_marseille","lat":43.304373,"lon":5.388874,"is_reserved":false,"is_disabled":false,"rental_uris":{"android":"levelo://app?vid=49a48de7-43e4-492b-8182-5933d24636c3","ios":"levelo://app?vid=49a48de7-43e4-492b-8182-5933d24636c3"},"vehicle_type_id":"4","last_reported":1683050881,"current_range_meters":24000,"station_id":"ce4bgk12rcd13ifvqbi0","pricing_plan_id":"free"},{"bike_id":"837e38c4-ea17-41f3-8877-80aa8b972229","system_id":"levelo_inurba_marseille","lat":43.29789,"lon":5.38099,"is_reserved":false,"is_disabled":false,"rental_uris":{"android":"levelo://app?vid=837e38c4-ea17-41f3-8877-80aa8b972229","ios":"levelo://app?vid=837e38c4-ea17-41f3-8877-80aa8b972229"},"vehicle_type_id":"4","last_reported":1683050881,"current_range_meters":14000,"station_id":"ce4bgip2rcd13ifvqbb0","pricing_plan_id":"free"},{"bike_id":"71aa459a-aafd-4be3-894a-0c47d964d6e7","system_id":"levelo_inurba_marseille","lat":43.30428,"lon":5.38882,"is_reserved":false,"is_disabled":false,"rental_uris":{"android":"levelo://app?vid=71aa459a-aafd-4be3-894a-0c47d964d6e7","ios":"levelo://app?vid=71aa459a-aafd-4be3-894a-0c47d964d6e7"},"vehicle_type_id":"4","last_reported":1683050881,"current_range_meters":0,"station_id":"ce4bgk12rcd13ifvqbi0","pricing_plan_id":"free"},{"bike_id":"981a83a6-6ea4-4946-bb67-a69012b6054a","system_id":"levelo_inurba_marseille","lat":43.30429,"lon":5.38885,"is_reserved":false,"is_disabled":false,"rental_uris":{"android":"levelo://app?vid=981a83a6-6ea4-4946-bb67-a69012b6054a","ios":"levelo://app?vid=981a83a6-6ea4-4946-bb67-a69012b6054a"},"vehicle_type_id":"4","last_reported":1683050881,"current_range_meters":13200,"station_id":"ce4bgk12rcd13ifvqbi0","pricing_plan_id":"free"},{"bike_id":"382a3c87-b783-49d2-899e-b8d51f772e3f","system_id":"levelo_inurba_marseille","lat":43.30433,"lon":5.38889,"is_reserved":false,"is_disabled":false,"rental_uris":{"android":"levelo://app?vid=382a3c87-b783-49d2-899e-b8d51f772e3f","ios":"levelo://app?vid=382a3c87-b783-49d2-899e-b8d51f772e3f"},"vehicle_type_id":"4","last_reported":1683050881,"current_range_meters":7600,"station_id":"ce4bgk12rcd13ifvqbi0","pricing_plan_id":"free"},{"bike_id":"affc5669-9a3a-4c09-937d-cc6368b102ad","system_id":"levelo_inurba_marseille","lat":43.304349,"lon":5.38894,"is_reserved":false,"is_disabled":false,"rental_uris":{"android":"levelo://app?vid=affc5669-9a3a-4c09-937d-cc6368b102ad","ios":"levelo://app?vid=affc5669-9a3a-4c09-937d-cc6368b102ad"},"vehicle_type_id":"4","last_reported":1683050881,"current_range_meters":4000,"station_id":"ce4bgk12rcd13ifvqbi0","pricing_plan_id":"free"},{"bike_id":"31c7ba01-7e65-45a3-b3ff-5fc0f25f8064","system_id":"levelo_inurba_marseille","lat":43.30426,"lon":5.38891,"is_reserved":false,"is_disabled":false,"rental_uris":{"android":"levelo://app?vid=31c7ba01-7e65-45a3-b3ff-5fc0f25f8064","ios":"levelo://app?vid=31c7ba01-7e65-45a3-b3ff-5fc0f25f8064"},"vehicle_type_id":"4","last_reported":1683050881,"current_range_meters":4800,"station_id":"ce4bgk12rcd13ifvqbi0","pricing_plan_id":"free"},{"bike_id":"3cbf592b-322b-4eb0-99e0-8fdff34c9770","system_id":"levelo_inurba_marseille","lat":43.29784,"lon":5.38109,"is_reserved":false,"is_disabled":false,"rental_uris":{"android":"levelo://app?vid=3cbf592b-322b-4eb0-99e0-8fdff34c9770","ios":"levelo://app?vid=3cbf592b-322b-4eb0-99e0-8fdff34c9770"},"vehicle_type_id":"4","last_reported":1683050881,"current_range_meters":30000,"station_id":"ce4bgip2rcd13ifvqbb0","pricing_plan_id":"free"},{"bike_id":"321f3fce-efd5-4776-b632-f488b59e15f6","system_id":"levelo_inurba_marseille","lat":43.296263,"lon":5.377094,"is_reserved":false,"is_disabled":false,"rental_uris":{"android":"levelo://app?vid=321f3fce-efd5-4776-b632-f488b59e15f6","ios":"levelo://app?vid=321f3fce-efd5-4776-b632-f488b59e15f6"},"vehicle_type_id":"4","last_reported":1683050881,"current_range_meters":13600,"station_id":"ce4bgi92rcd13ifvqb90","pricing_plan_id":"free"},{"bike_id":"6176499b-abfd-437f-b909-9cac6654eb42","system_id":"levelo_inurba_marseille","lat":43.29689,"lon":5.37904,"is_reserved":false,"is_disabled":false,"rental_uris":{"android":"levelo://app?vid=6176499b-abfd-437f-b909-9cac6654eb42","ios":"levelo://app?vid=6176499b-abfd-437f-b909-9cac6654eb42"},"vehicle_type_id":"4","last_reported":1683050881,"current_range_meters":4000,"station_id":"","pricing_plan_id":"free"},{"bike_id":"6c180642-bf3b-44f6-9201-42a1caef9e24","system_id":"levelo_inurba_marseille","lat":43.296263,"lon":5.377094,"is_reserved":false,"is_disabled":false,"rental_uris":{"android":"levelo://app?vid=6c180642-bf3b-44f6-9201-42a1caef9e24","ios":"levelo://app?vid=6c180642-bf3b-44f6-9201-42a1caef9e24"},"vehicle_type_id":"4","last_reported":1683050881,"current_range_meters":9200,"station_id":"ce4bgi92rcd13ifvqb90","pricing_plan_id":"free"},{"bike_id":"ce5b47b8-bf6f-4dc6-b5c5-cb82ceb37a49","system_id":"levelo_inurba_marseille","lat":43.30433,"lon":5.38903,"is_reserved":false,"is_disabled":false,"rental_uris":{"android":"levelo://app?vid=ce5b47b8-bf6f-4dc6-b5c5-cb82ceb37a49","ios":"levelo://app?vid=ce5b47b8-bf6f-4dc6-b5c5-cb82ceb37a49"},"vehicle_type_id":"4","last_reported":1683050881,"current_range_meters":21200,"station_id":"ce4bgk12rcd13ifvqbi0","pricing_plan_id":"free"},{"bike_id":"8b37d0ab-5ffa-43af-95c7-31e8fddd4e72","system_id":"levelo_inurba_marseille","lat":43.29611,"lon":5.37697,"is_reserved":false,"is_disabled":false,"rental_uris":{"android":"levelo://app?vid=8b37d0ab-5ffa-43af-95c7-31e8fddd4e72","ios":"levelo://app?vid=8b37d0ab-5ffa-43af-95c7-31e8fddd4e72"},"vehicle_type_id":"4","last_reported":1683050881,"current_range_meters":0,"station_id":"","pricing_plan_id":"free"},{"bike_id":"f53a8641-9706-42d2-8c28-a314d47de950","system_id":"levelo_inurba_marseille","lat":43.295279,"lon":5.375048,"is_reserved":false,"is_disabled":false,"rental_uris":{"android":"levelo://app?vid=f53a8641-9706-42d2-8c28-a314d47de950","ios":"levelo://app?vid=f53a8641-9706-42d2-8c28-a314d47de950"},"vehicle_type_id":"4","last_reported":1683050881,"current_range_meters":21200,"station_id":"ce4bgkp2rcd13ifvqbmg","pricing_plan_id":"free"},{"bike_id":"8ba4fd47-9c19-45f5-80fa-2203f567f8eb","system_id":"levelo_inurba_marseille","lat":43.299724,"lon":5.384848,"is_reserved":false,"is_disabled":false,"rental_uris":{"android":"levelo://app?vid=8ba4fd47-9c19-45f5-80fa-2203f567f8eb","ios":"levelo://app?vid=8ba4fd47-9c19-45f5-80fa-2203f567f8eb"},"vehicle_type_id":"4","last_reported":1683050881,"current_range_meters":22000,"station_id":"ce4bgj92rcd13ifvqbd0","pricing_plan_id":"free"},{"bike_id":"7581eb51-085d-4afa-9f6a-76dbe3e5f340","system_id":"levelo_inurba_marseille","lat":43.2997,"lon":5.38495,"is_reserved":false,"is_disabled":false,"rental_uris":{"android":"levelo://app?vid=7581eb51-085d-4afa-9f6a-76dbe3e5f340","ios":"levelo://app?vid=7581eb51-085d-4afa-9f6a-76dbe3e5f340"},"vehicle_type_id":"4","last_reported":1683050881,"current_range_meters":17200,"station_id":"ce4bgj92rcd13ifvqbd0","pricing_plan_id":"free"},{"bike_id":"b96b6028-4002-45a4-89f4-5eef8bb3ad1d","system_id":"levelo_inurba_marseille","lat":43.299724,"lon":5.384848,"is_reserved":false,"is_disabled":false,"rental_uris":{"android":"levelo://app?vid=b96b6028-4002-45a4-89f4-5eef8bb3ad1d","ios":"levelo://app?vid=b96b6028-4002-45a4-89f4-5eef8bb3ad1d"},"vehicle_type_id":"4","last_reported":1683050881,"current_range_meters":28000,"station_id":"ce4bgj92rcd13ifvqbd0","pricing_plan_id":"free"},{"bike_id":"67791e4d-db93-488b-8ee1-9ea3561d2b92","system_id":"levelo_inurba_marseille","lat":43.32527,"lon":5.38617,"is_reserved":false,"is_disabled":false,"rental_uris":{"android":"levelo://app?vid=67791e4d-db93-488b-8ee1-9ea3561d2b92","ios":"levelo://app?vid=67791e4d-db93-488b-8ee1-9ea3561d2b92"},"vehicle_type_id":"4","last_reported":1683050881,"current_range_meters":4800,"station_id":"","pricing_plan_id":"free"},{"bike_id":"ea0a5240-f3c9-41a4-932c-11f2248938d5","system_id":"levelo_inurba_marseille","lat":43.31448,"lon":5.39282,"is_reserved":false,"is_disabled":false,"rental_uris":{"android":"levelo://app?vid=ea0a5240-f3c9-41a4-932c-11f2248938d5","ios":"levelo://app?vid=ea0a5240-f3c9-41a4-932c-11f2248938d5"},"vehicle_type_id":"4","last_reported":1683050881,"current_range_meters":12400,"station_id":"","pricing_plan_id":"free"},{"bike_id":"450ce689-4870-44f4-82ef-b989a971175a","system_id":"levelo_inurba_marseille","lat":43.30513,"lon":5.39108,"is_reserved":false,"is_disabled":false,"rental_uris":{"android":"levelo://app?vid=450ce689-4870-44f4-82ef-b989a971175a","ios":"levelo://app?vid=450ce689-4870-44f4-82ef-b989a971175a"},"vehicle_type_id":"4","last_reported":1683050881,"current_range_meters":12000,"station_id":"","pricing_plan_id":"free"},{"bike_id":"6d369134-c9f0-4324-badc-71ec41eb8bfc","system_id":"levelo_inurba_marseille","lat":43.261782,"lon":5.374515,"is_reserved":false,"is_disabled":false,"rental_uris":{"android":"levelo://app?vid=6d369134-c9f0-4324-badc-71ec41eb8bfc","ios":"levelo://app?vid=6d369134-c9f0-4324-badc-71ec41eb8bfc"},"vehicle_type_id":"4","last_reported":1683050881,"current_range_meters":18000,"station_id":"ce4bhgp2rcd13ifvqfc0","pricing_plan_id":"free"},{"bike_id":"32f994bb-1c80-42e9-bbed-42e810d4f0c9","system_id":"levelo_inurba_marseille","lat":43.31417,"lon":5.39364,"is_reserved":false,"is_disabled":false,"rental_uris":{"android":"levelo://app?vid=32f994bb-1c80-42e9-bbed-42e810d4f0c9","ios":"levelo://app?vid=32f994bb-1c80-42e9-bbed-42e810d4f0c9"},"vehicle_type_id":"4","last_reported":1683050881,"current_range_meters":23200,"station_id":"","pricing_plan_id":"free"},{"bike_id":"1aa6261d-cf39-4232-a089-31d8233be139","system_id":"levelo_inurba_marseille","lat":43.29601,"lon":5.381084,"is_reserved":false,"is_disabled":false,"rental_uris":{"android":"levelo://app?vid=1aa6261d-cf39-4232-a089-31d8233be139","ios":"levelo://app?vid=1aa6261d-cf39-4232-a089-31d8233be139"},"vehicle_type_id":"4","last_reported":1683050881,"current_range_meters":25200,"station_id":"ce4bgl12rcd13ifvqbo0","pricing_plan_id":"free"},{"bike_id":"1c4031be-be8d-4fa5-9fa4-eef1e5af940b","system_id":"levelo_inurba_marseille","lat":43.293259,"lon":5.371586,"is_reserved":false,"is_disabled":false,"rental_uris":{"android":"levelo://app?vid=1c4031be-be8d-4fa5-9fa4-eef1e5af940b","ios":"levelo://app?vid=1c4031be-be8d-4fa5-9fa4-eef1e5af940b"},"vehicle_type_id":"4","last_reported":1683050881,"current_range_meters":28000,"station_id":"ce4bgh92rcd13ifvqb40","pricing_plan_id":"free"},{"bike_id":"7bfaad8e-7166-4a71-a4cd-00b9fa4b9c03","system_id":"levelo_inurba_marseille","lat":43.293259,"lon":5.371586,"is_reserved":false,"is_disabled":false,"rental_uris":{"android":"levelo://app?vid=7bfaad8e-7166-4a71-a4cd-00b9fa4b9c03","ios":"levelo://app?vid=7bfaad8e-7166-4a71-a4cd-00b9fa4b9c03"},"vehicle_type_id":"4","last_reported":1683050881,"current_range_meters":0,"station_id":"ce4bgh92rcd13ifvqb40","pricing_plan_id":"free"},{"bike_id":"63e162b0-7f1e-4c8a-bfe5-7184a51ccdfa","system_id":"levelo_inurba_marseille","lat":43.292743,"lon":5.368404,"is_reserved":false,"is_disabled":false,"rental_uris":{"android":"levelo://app?vid=63e162b0-7f1e-4c8a-bfe5-7184a51ccdfa","ios":"levelo://app?vid=63e162b0-7f1e-4c8a-bfe5-7184a51ccdfa"},"vehicle_type_id":"4","last_reported":1683050881,"current_range_meters":25200,"station_id":"ce4bhbp2rcd13ifvqesg","pricing_plan_id":"free"},{"bike_id":"4491d090-9ec9-4992-8c76-b7295ad9d549","system_id":"levelo_inurba_marseille","lat":43.292743,"lon":5.368404,"is_reserved":false,"is_disabled":false,"rental_uris":{"android":"levelo://app?vid=4491d090-9ec9-4992-8c76-b7295ad9d549","ios":"levelo://app?vid=4491d090-9ec9-4992-8c76-b7295ad9d549"},"vehicle_type_id":"4","last_reported":1683050881,"current_range_meters":0,"station_id":"ce4bhbp2rcd13ifvqesg","pricing_plan_id":"free"},{"bike_id":"ddf2bdfb-4d40-4dc1-a322-9eb7e2290dad","system_id":"levelo_inurba_marseille","lat":43.293259,"lon":5.371586,"is_reserved":false,"is_disabled":false,"rental_uris":{"android":"levelo://app?vid=ddf2bdfb-4d40-4dc1-a322-9eb7e2290dad","ios":"levelo://app?vid=ddf2bdfb-4d40-4dc1-a322-9eb7e2290dad"},"vehicle_type_id":"4","last_reported":1683050881,"current_range_meters":24000,"station_id":"ce4bgh92rcd13ifvqb40","pricing_plan_id":"free"},{"bike_id":"e317501b-4dc4-4012-9a1d-dbc122eea552","system_id":"levelo_inurba_marseille","lat":43.292743,"lon":5.368404,"is_reserved":false,"is_disabled":false,"rental_uris":{"android":"levelo://app?vid=e317501b-4dc4-4012-9a1d-dbc122eea552","ios":"levelo://app?vid=e317501b-4dc4-4012-9a1d-dbc122eea552"},"vehicle_type_id":"4","last_reported":1683050881,"current_range_meters":3200,"station_id":"ce4bhbp2rcd13ifvqesg","pricing_plan_id":"free"},{"bike_id":"b9238aa4-f316-4143-aab5-2820d13b2e87","system_id":"levelo_inurba_marseille","lat":43.29301,"lon":5.37167,"is_reserved":false,"is_disabled":false,"rental_uris":{"android":"levelo://app?vid=b9238aa4-f316-4143-aab5-2820d13b2e87","ios":"levelo://app?vid=b9238aa4-f316-4143-aab5-2820d13b2e87"},"vehicle_type_id":"4","last_reported":1683050881,"current_range_meters":9200,"station_id":"","pricing_plan_id":"free"},{"bike_id":"b890c7da-f81a-4989-ba64-beb0517c7890","system_id":"levelo_inurba_marseille","lat":43.29247,"lon":5.3661,"is_reserved":false,"is_disabled":false,"rental_uris":{"android":"levelo://app?vid=b890c7da-f81a-4989-ba64-beb0517c7890","ios":"levelo://app?vid=b890c7da-f81a-4989-ba64-beb0517c7890"},"vehicle_type_id":"4","last_reported":1683050881,"current_range_meters":22400,"station_id":"","pricing_plan_id":"free"},{"bike_id":"a5e2b443-9e6b-48bc-95a5-34b714c620a8","system_id":"levelo_inurba_marseille","lat":43.31354,"lon":5.39479,"is_reserved":false,"is_disabled":false,"rental_uris":{"android":"levelo://app?vid=a5e2b443-9e6b-48bc-95a5-34b714c620a8","ios":"levelo://app?vid=a5e2b443-9e6b-48bc-95a5-34b714c620a8"},"vehicle_type_id":"4","last_reported":1683050881,"current_range_meters":8000,"station_id":"","pricing_plan_id":"free"},{"bike_id":"b2577b67-9c67-4809-a89f-b0bfc33675ca","system_id":"levelo_inurba_marseille","lat":43.31376,"lon":5.39494,"is_reserved":false,"is_disabled":false,"rental_uris":{"android":"levelo://app?vid=b2577b67-9c67-4809-a89f-b0bfc33675ca","ios":"levelo://app?vid=b2577b67-9c67-4809-a89f-b0bfc33675ca"},"vehicle_type_id":"4","last_reported":1683050881,"current_range_meters":12000,"station_id":"","pricing_plan_id":"free"},{"bike_id":"2e0fca52-2c3b-4cdd-b5a4-0e0b2355778c","system_id":"levelo_inurba_marseille","lat":43.293009,"lon":5.374584,"is_reserved":false,"is_disabled":false,"rental_uris":{"android":"levelo://app?vid=2e0fca52-2c3b-4cdd-b5a4-0e0b2355778c","ios":"levelo://app?vid=2e0fca52-2c3b-4cdd-b5a4-0e0b2355778c"},"vehicle_type_id":"4","last_reported":1683050881,"current_range_meters":23200,"station_id":"ce4bgi12rcd13ifvqb70","pricing_plan_id":"free"},{"bike_id":"bb100054-550a-48c1-99bf-499b0ca8a8ec","system_id":"levelo_inurba_marseille","lat":43.305994,"lon":5.393687,"is_reserved":false,"is_disabled":false,"rental_uris":{"android":"levelo://app?vid=bb100054-550a-48c1-99bf-499b0ca8a8ec","ios":"levelo://app?vid=bb100054-550a-48c1-99bf-499b0ca8a8ec"},"vehicle_type_id":"4","last_reported":1683050881,"current_range_meters":8800,"station_id":"ce4bh0p2rcd13ifvqd80","pricing_plan_id":"free"},{"bike_id":"d06f117e-4fcd-498a-b00f-e4ac817e9bf2","system_id":"levelo_inurba_marseille","lat":43.30303,"lon":5.39211,"is_reserved":false,"is_disabled":false,"rental_uris":{"android":"levelo://app?vid=d06f117e-4fcd-498a-b00f-e4ac817e9bf2","ios":"levelo://app?vid=d06f117e-4fcd-498a-b00f-e4ac817e9bf2"},"vehicle_type_id":"4","last_reported":1683050881,"current_range_meters":10000,"station_id":"ce4bgkh2rcd13ifvqbk0","pricing_plan_id":"free"},{"bike_id":"5dfc1fd5-ae18-4d8b-bd5e-e72e0f4d1cbe","system_id":"levelo_inurba_marseille","lat":43.2936,"lon":5.37835,"is_reserved":false,"is_disabled":false,"rental_uris":{"android":"levelo://app?vid=5dfc1fd5-ae18-4d8b-bd5e-e72e0f4d1cbe","ios":"levelo://app?vid=5dfc1fd5-ae18-4d8b-bd5e-e72e0f4d1cbe"},"vehicle_type_id":"4","last_reported":1683050881,"current_range_meters":8800,"station_id":"ce4bgjh2rcd13ifvqbf0","pricing_plan_id":"free"},{"bike_id":"9a06acb8-682a-4cb7-9492-69896ba7c684","system_id":"levelo_inurba_marseille","lat":43.2936,"lon":5.37835,"is_reserved":false,"is_disabled":false,"rental_uris":{"android":"levelo://app?vid=9a06acb8-682a-4cb7-9492-69896ba7c684","ios":"levelo://app?vid=9a06acb8-682a-4cb7-9492-69896ba7c684"},"vehicle_type_id":"4","last_reported":1683050881,"current_range_meters":21600,"station_id":"ce4bgjh2rcd13ifvqbf0","pricing_plan_id":"free"},{"bike_id":"4708af75-fc65-441b-942f-116bf438cd8b","system_id":"levelo_inurba_marseille","lat":43.30102,"lon":5.39081,"is_reserved":false,"is_disabled":false,"rental_uris":{"android":"levelo://app?vid=4708af75-fc65-441b-942f-116bf438cd8b","ios":"levelo://app?vid=4708af75-fc65-441b-942f-116bf438cd8b"},"vehicle_type_id":"4","last_reported":1683050881,"current_range_meters":0,"station_id":"ce4bh192rcd13ifvqdb0","pricing_plan_id":"free"},{"bike_id":"45525c34-0627-4a83-b056-e61a76ef7940","system_id":"levelo_inurba_marseille","lat":43.30085,"lon":5.390856,"is_reserved":false,"is_disabled":false,"rental_uris":{"android":"levelo://app?vid=45525c34-0627-4a83-b056-e61a76ef7940","ios":"levelo://app?vid=45525c34-0627-4a83-b056-e61a76ef7940"},"vehicle_type_id":"4","last_reported":1683050881,"current_range_meters":10400,"station_id":"ce4bh192rcd13ifvqdb0","pricing_plan_id":"free"},{"bike_id":"cd7c31be-9054-4c54-a74c-4479c9403dec","system_id":"levelo_inurba_marseille","lat":43.300852,"lon":5.390859,"is_reserved":false,"is_disabled":false,"rental_uris":{"android":"levelo://app?vid=cd7c31be-9054-4c54-a74c-4479c9403dec","ios":"levelo://app?vid=cd7c31be-9054-4c54-a74c-4479c9403dec"},"vehicle_type_id":"4","last_reported":1683050881,"current_range_meters":16000,"station_id":"ce4bh192rcd13ifvqdb0","pricing_plan_id":"free"},{"bike_id":"663660b6-3cb4-4469-a67a-d7a55c859256","system_id":"levelo_inurba_marseille","lat":43.298764,"lon":5.388973,"is_reserved":false,"is_disabled":false,"rental_uris":{"android":"levelo://app?vid=663660b6-3cb4-4469-a67a-d7a55c859256","ios":"levelo://app?vid=663660b6-3cb4-4469-a67a-d7a55c859256"},"vehicle_type_id":"4","last_reported":1683050881,"current_range_meters":18400,"station_id":"ce4bh392rcd13ifvqdl0","pricing_plan_id":"free"},{"bike_id":"131d0003-2882-47d7-8c75-47e77fb3538b","system_id":"levelo_inurba_marseille","lat":43.298764,"lon":5.388973,"is_reserved":false,"is_disabled":false,"rental_uris":{"android":"levelo://app?vid=131d0003-2882-47d7-8c75-47e77fb3538b","ios":"levelo://app?vid=131d0003-2882-47d7-8c75-47e77fb3538b"},"vehicle_type_id":"4","last_reported":1683050881,"current_range_meters":16800,"station_id":"ce4bh392rcd13ifvqdl0","pricing_plan_id":"free"},{"bike_id":"060d896d-5f7c-49b7-acfa-9e3c4e7bcfa9","system_id":"levelo_inurba_marseille","lat":43.29257,"lon":5.37611,"is_reserved":false,"is_disabled":false,"rental_uris":{"android":"levelo://app?vid=060d896d-5f7c-49b7-acfa-9e3c4e7bcfa9","ios":"levelo://app?vid=060d896d-5f7c-49b7-acfa-9e3c4e7bcfa9"},"vehicle_type_id":"4","last_reported":1683050881,"current_range_meters":14800,"station_id":"ce4bgi12rcd13ifvqb80","pricing_plan_id":"free"},{"bike_id":"bf263229-ee41-4ad0-aef0-e1677c183e7c","system_id":"levelo_inurba_marseille","lat":43.2921,"lon":5.35943,"is_reserved":false,"is_disabled":false,"rental_uris":{"android":"levelo://app?vid=bf263229-ee41-4ad0-aef0-e1677c183e7c","ios":"levelo://app?vid=bf263229-ee41-4ad0-aef0-e1677c183e7c"},"vehicle_type_id":"4","last_reported":1683050881,"current_range_meters":23600,"station_id":"","pricing_plan_id":"free"},{"bike_id":"edce1a11-858b-42fb-9bbf-d348d9a21e8b","system_id":"levelo_inurba_marseille","lat":43.298764,"lon":5.388973,"is_reserved":false,"is_disabled":false,"rental_uris":{"android":"levelo://app?vid=edce1a11-858b-42fb-9bbf-d348d9a21e8b","ios":"levelo://app?vid=edce1a11-858b-42fb-9bbf-d348d9a21e8b"},"vehicle_type_id":"4","last_reported":1683050881,"current_range_meters":2400,"station_id":"ce4bh392rcd13ifvqdl0","pricing_plan_id":"free"},{"bike_id":"b7bf10bd-620f-41f8-8a4e-697f3db70073","system_id":"levelo_inurba_marseille","lat":43.29298,"lon":5.35566,"is_reserved":false,"is_disabled":false,"rental_uris":{"android":"levelo://app?vid=b7bf10bd-620f-41f8-8a4e-697f3db70073","ios":"levelo://app?vid=b7bf10bd-620f-41f8-8a4e-697f3db70073"},"vehicle_type_id":"4","last_reported":1683050881,"current_range_meters":20000,"station_id":"","pricing_plan_id":"free"},{"bike_id":"683baa13-e0a5-4778-a227-96a5c092b6bc","system_id":"levelo_inurba_marseille","lat":43.309038,"lon":5.396546,"is_reserved":false,"is_disabled":false,"rental_uris":{"android":"levelo://app?vid=683baa13-e0a5-4778-a227-96a5c092b6bc","ios":"levelo://app?vid=683baa13-e0a5-4778-a227-96a5c092b6bc"},"vehicle_type_id":"4","last_reported":1683050881,"current_range_meters":25600,"station_id":"ce4bh012rcd13ifvqcv0","pricing_plan_id":"free"},{"bike_id":"eff08aeb-6ba8-4077-838a-1827a46459e7","system_id":"levelo_inurba_marseille","lat":43.309047,"lon":5.396551,"is_reserved":false,"is_disabled":false,"rental_uris":{"android":"levelo://app?vid=eff08aeb-6ba8-4077-838a-1827a46459e7","ios":"levelo://app?vid=eff08aeb-6ba8-4077-838a-1827a46459e7"},"vehicle_type_id":"4","last_reported":1683050881,"current_range_meters":16800,"station_id":"ce4bh012rcd13ifvqcv0","pricing_plan_id":"free"},{"bike_id":"6acd810f-d0b7-4160-a1e2-97b0ee1d2696","system_id":"levelo_inurba_marseille","lat":43.313291,"lon":5.396838,"is_reserved":false,"is_disabled":false,"rental_uris":{"android":"levelo://app?vid=6acd810f-d0b7-4160-a1e2-97b0ee1d2696","ios":"levelo://app?vid=6acd810f-d0b7-4160-a1e2-97b0ee1d2696"},"vehicle_type_id":"4","last_reported":1683050881,"current_range_meters":22800,"station_id":"ce4bgvp2rcd13ifvqcu0","pricing_plan_id":"free"},{"bike_id":"22f39c9f-939e-4b39-a4cb-e9be42b5480a","system_id":"levelo_inurba_marseille","lat":43.313291,"lon":5.396838,"is_reserved":false,"is_disabled":false,"rental_uris":{"android":"levelo://app?vid=22f39c9f-939e-4b39-a4cb-e9be42b5480a","ios":"levelo://app?vid=22f39c9f-939e-4b39-a4cb-e9be42b5480a"},"vehicle_type_id":"4","last_reported":1683050881,"current_range_meters":28400,"station_id":"ce4bgvp2rcd13ifvqcu0","pricing_plan_id":"free"},{"bike_id":"bf55f92c-b4fe-43c1-b144-b3c761cfa1d9","system_id":"levelo_inurba_marseille","lat":43.313291,"lon":5.396838,"is_reserved":false,"is_disabled":false,"rental_uris":{"android":"levelo://app?vid=bf55f92c-b4fe-43c1-b144-b3c761cfa1d9","ios":"levelo://app?vid=bf55f92c-b4fe-43c1-b144-b3c761cfa1d9"},"vehicle_type_id":"4","last_reported":1683050881,"current_range_meters":8400,"station_id":"ce4bgvp2rcd13ifvqcu0","pricing_plan_id":"free"},{"bike_id":"63e283c4-d9e5-493e-9835-b25ed94acc80","system_id":"levelo_inurba_marseille","lat":43.313291,"lon":5.396838,"is_reserved":false,"is_disabled":false,"rental_uris":{"android":"levelo://app?vid=63e283c4-d9e5-493e-9835-b25ed94acc80","ios":"levelo://app?vid=63e283c4-d9e5-493e-9835-b25ed94acc80"},"vehicle_type_id":"4","last_reported":1683050881,"current_range_meters":18800,"station_id":"ce4bgvp2rcd13ifvqcu0","pricing_plan_id":"free"},{"bike_id":"f224649c-f1f5-46df-801f-5e20a681e06d","system_id":"levelo_inurba_marseille","lat":43.313291,"lon":5.396838,"is_reserved":false,"is_disabled":false,"rental_uris":{"android":"levelo://app?vid=f224649c-f1f5-46df-801f-5e20a681e06d","ios":"levelo://app?vid=f224649c-f1f5-46df-801f-5e20a681e06d"},"vehicle_type_id":"4","last_reported":1683050881,"current_range_meters":13200,"station_id":"ce4bgvp2rcd13ifvqcu0","pricing_plan_id":"free"},{"bike_id":"707998f7-ec31-48fd-802b-08283d42a751","system_id":"levelo_inurba_marseille","lat":43.313291,"lon":5.396838,"is_reserved":false,"is_disabled":false,"rental_uris":{"android":"levelo://app?vid=707998f7-ec31-48fd-802b-08283d42a751","ios":"levelo://app?vid=707998f7-ec31-48fd-802b-08283d42a751"},"vehicle_type_id":"4","last_reported":1683050881,"current_range_meters":2000,"station_id":"ce4bgvp2rcd13ifvqcu0","pricing_plan_id":"free"},{"bike_id":"588781e8-4794-45a0-a753-c5dd79d7254d","system_id":"levelo_inurba_marseille","lat":43.313291,"lon":5.396838,"is_reserved":false,"is_disabled":false,"rental_uris":{"android":"levelo://app?vid=588781e8-4794-45a0-a753-c5dd79d7254d","ios":"levelo://app?vid=588781e8-4794-45a0-a753-c5dd79d7254d"},"vehicle_type_id":"4","last_reported":1683050881,"current_range_meters":16800,"station_id":"ce4bgvp2rcd13ifvqcu0","pricing_plan_id":"free"},{"bike_id":"8e99d959-345b-4eb6-b384-0f1679d3c668","system_id":"levelo_inurba_marseille","lat":43.309038,"lon":5.396546,"is_reserved":false,"is_disabled":false,"rental_uris":{"android":"levelo://app?vid=8e99d959-345b-4eb6-b384-0f1679d3c668","ios":"levelo://app?vid=8e99d959-345b-4eb6-b384-0f1679d3c668"},"vehicle_type_id":"4","last_reported":1683050881,"current_range_meters":25200,"station_id":"ce4bh012rcd13ifvqcv0","pricing_plan_id":"free"},{"bike_id":"3cc11a9c-6da9-41b6-ace9-f386ff576022","system_id":"levelo_inurba_marseille","lat":43.313291,"lon":5.396838,"is_reserved":false,"is_disabled":false,"rental_uris":{"android":"levelo://app?vid=3cc11a9c-6da9-41b6-ace9-f386ff576022","ios":"levelo://app?vid=3cc11a9c-6da9-41b6-ace9-f386ff576022"},"vehicle_type_id":"4","last_reported":1683050881,"current_range_meters":16000,"station_id":"ce4bgvp2rcd13ifvqcu0","pricing_plan_id":"free"},{"bike_id":"4ddc0c0d-ff64-4b9d-993d-161b2bbb4733","system_id":"levelo_inurba_marseille","lat":43.31327,"lon":5.39697,"is_reserved":false,"is_disabled":false,"rental_uris":{"android":"levelo://app?vid=4ddc0c0d-ff64-4b9d-993d-161b2bbb4733","ios":"levelo://app?vid=4ddc0c0d-ff64-4b9d-993d-161b2bbb4733"},"vehicle_type_id":"4","last_reported":1683050881,"current_range_meters":2400,"station_id":"ce4bgvp2rcd13ifvqcu0","pricing_plan_id":"free"},{"bike_id":"75c2d5a5-9260-45a6-ab12-aad80068a51c","system_id":"levelo_inurba_marseille","lat":43.309038,"lon":5.396546,"is_reserved":false,"is_disabled":false,"rental_uris":{"android":"levelo://app?vid=75c2d5a5-9260-45a6-ab12-aad80068a51c","ios":"levelo://app?vid=75c2d5a5-9260-45a6-ab12-aad80068a51c"},"vehicle_type_id":"4","last_reported":1683050881,"current_range_meters":14000,"station_id":"ce4bh012rcd13ifvqcv0","pricing_plan_id":"free"},{"bike_id":"de68be80-dc37-4580-b79f-fb95ebe132f9","system_id":"levelo_inurba_marseille","lat":43.29529,"lon":5.385581,"is_reserved":false,"is_disabled":false,"rental_uris":{"android":"levelo://app?vid=de68be80-dc37-4580-b79f-fb95ebe132f9","ios":"levelo://app?vid=de68be80-dc37-4580-b79f-fb95ebe132f9"},"vehicle_type_id":"4","last_reported":1683050881,"current_range_meters":14800,"station_id":"ce4bgih2rcd13ifvqba0","pricing_plan_id":"free"},{"bike_id":"182fbaf1-c9e1-445d-90b2-ca007545535e","system_id":"levelo_inurba_marseille","lat":43.29529,"lon":5.385581,"is_reserved":false,"is_disabled":false,"rental_uris":{"android":"levelo://app?vid=182fbaf1-c9e1-445d-90b2-ca007545535e","ios":"levelo://app?vid=182fbaf1-c9e1-445d-90b2-ca007545535e"},"vehicle_type_id":"4","last_reported":1683050881,"current_range_meters":13200,"station_id":"ce4bgih2rcd13ifvqba0","pricing_plan_id":"free"},{"bike_id":"dab060c9-235c-42b8-83b3-5a49819b07bc","system_id":"levelo_inurba_marseille","lat":43.29537,"lon":5.38542,"is_reserved":false,"is_disabled":false,"rental_uris":{"android":"levelo://app?vid=dab060c9-235c-42b8-83b3-5a49819b07bc","ios":"levelo://app?vid=dab060c9-235c-42b8-83b3-5a49819b07bc"},"vehicle_type_id":"4","last_reported":1683050881,"current_range_meters":8400,"station_id":"ce4bgih2rcd13ifvqba0","pricing_plan_id":"free"},{"bike_id":"a8982a60-417a-4bb3-a11f-fa1f4d29a866","system_id":"levelo_inurba_marseille","lat":43.29146,"lon":5.35908,"is_reserved":false,"is_disabled":false,"rental_uris":{"android":"levelo://app?vid=a8982a60-417a-4bb3-a11f-fa1f4d29a866","ios":"levelo://app?vid=a8982a60-417a-4bb3-a11f-fa1f4d29a866"},"vehicle_type_id":"4","last_reported":1683050881,"current_range_meters":18000,"station_id":"","pricing_plan_id":"free"},{"bike_id":"3b17182f-16e4-4038-a3d5-8469302ce7aa","system_id":"levelo_inurba_marseille","lat":43.29529,"lon":5.385581,"is_reserved":false,"is_disabled":false,"rental_uris":{"android":"levelo://app?vid=3b17182f-16e4-4038-a3d5-8469302ce7aa","ios":"levelo://app?vid=3b17182f-16e4-4038-a3d5-8469302ce7aa"},"vehicle_type_id":"4","last_reported":1683050881,"current_range_meters":15600,"station_id":"ce4bgih2rcd13ifvqba0","pricing_plan_id":"free"},{"bike_id":"5d243d84-46a0-4a7d-8313-618735b63703","system_id":"levelo_inurba_marseille","lat":43.302008,"lon":5.394694,"is_reserved":false,"is_disabled":false,"rental_uris":{"android":"levelo://app?vid=5d243d84-46a0-4a7d-8313-618735b63703","ios":"levelo://app?vid=5d243d84-46a0-4a7d-8313-618735b63703"},"vehicle_type_id":"4","last_reported":1683050881,"current_range_meters":27200,"station_id":"ce4bh0p2rcd13ifvqd70","pricing_plan_id":"free"},{"bike_id":"ab035407-c4c3-4af9-ab09-808830b7c1f9","system_id":"levelo_inurba_marseille","lat":43.29056,"lon":5.35917,"is_reserved":false,"is_disabled":false,"rental_uris":{"android":"levelo://app?vid=ab035407-c4c3-4af9-ab09-808830b7c1f9","ios":"levelo://app?vid=ab035407-c4c3-4af9-ab09-808830b7c1f9"},"vehicle_type_id":"4","last_reported":1683050881,"current_range_meters":4400,"station_id":"ce4bha92rcd13ifvqeg0","pricing_plan_id":"free"},{"bike_id":"70a65cda-be7b-47e1-8057-5b6bf5c63f3e","system_id":"levelo_inurba_marseille","lat":43.290624,"lon":5.359245,"is_reserved":false,"is_disabled":false,"rental_uris":{"android":"levelo://app?vid=70a65cda-be7b-47e1-8057-5b6bf5c63f3e","ios":"levelo://app?vid=70a65cda-be7b-47e1-8057-5b6bf5c63f3e"},"vehicle_type_id":"4","last_reported":1683050881,"current_range_meters":31200,"station_id":"ce4bha92rcd13ifvqeg0","pricing_plan_id":"free"},{"bike_id":"89f9aaa0-0191-49c4-bcb5-684343e4373d","system_id":"levelo_inurba_marseille","lat":43.29051,"lon":5.35923,"is_reserved":false,"is_disabled":false,"rental_uris":{"android":"levelo://app?vid=89f9aaa0-0191-49c4-bcb5-684343e4373d","ios":"levelo://app?vid=89f9aaa0-0191-49c4-bcb5-684343e4373d"},"vehicle_type_id":"4","last_reported":1683050881,"current_range_meters":16400,"station_id":"ce4bha92rcd13ifvqeg0","pricing_plan_id":"free"},{"bike_id":"b299ec6b-a177-4406-a6fc-c875f6a245e1","system_id":"levelo_inurba_marseille","lat":43.29051,"lon":5.35913,"is_reserved":false,"is_disabled":false,"rental_uris":{"android":"levelo://app?vid=b299ec6b-a177-4406-a6fc-c875f6a245e1","ios":"levelo://app?vid=b299ec6b-a177-4406-a6fc-c875f6a245e1"},"vehicle_type_id":"4","last_reported":1683050881,"current_range_meters":3200,"station_id":"ce4bha92rcd13ifvqeg0","pricing_plan_id":"free"},{"bike_id":"806012d2-bffb-4327-a1b1-ff6d259617f6","system_id":"levelo_inurba_marseille","lat":43.30244,"lon":5.39512,"is_reserved":false,"is_disabled":false,"rental_uris":{"android":"levelo://app?vid=806012d2-bffb-4327-a1b1-ff6d259617f6","ios":"levelo://app?vid=806012d2-bffb-4327-a1b1-ff6d259617f6"},"vehicle_type_id":"4","last_reported":1683050881,"current_range_meters":14000,"station_id":"","pricing_plan_id":"free"},{"bike_id":"f48aa639-3c45-4e77-9886-d5f30f9c0a4f","system_id":"levelo_inurba_marseille","lat":43.290624,"lon":5.359245,"is_reserved":false,"is_disabled":false,"rental_uris":{"android":"levelo://app?vid=f48aa639-3c45-4e77-9886-d5f30f9c0a4f","ios":"levelo://app?vid=f48aa639-3c45-4e77-9886-d5f30f9c0a4f"},"vehicle_type_id":"4","last_reported":1683050881,"current_range_meters":12000,"station_id":"ce4bha92rcd13ifvqeg0","pricing_plan_id":"free"},{"bike_id":"19ad74ee-f066-41b3-b5f4-7de7e6b5c874","system_id":"levelo_inurba_marseille","lat":43.290624,"lon":5.359245,"is_reserved":false,"is_disabled":false,"rental_uris":{"android":"levelo://app?vid=19ad74ee-f066-41b3-b5f4-7de7e6b5c874","ios":"levelo://app?vid=19ad74ee-f066-41b3-b5f4-7de7e6b5c874"},"vehicle_type_id":"4","last_reported":1683050881,"current_range_meters":25200,"station_id":"ce4bha92rcd13ifvqeg0","pricing_plan_id":"free"},{"bike_id":"f025d955-1c94-4826-9d68-9844f64e3b80","system_id":"levelo_inurba_marseille","lat":43.29044,"lon":5.35925,"is_reserved":false,"is_disabled":false,"rental_uris":{"android":"levelo://app?vid=f025d955-1c94-4826-9d68-9844f64e3b80","ios":"levelo://app?vid=f025d955-1c94-4826-9d68-9844f64e3b80"},"vehicle_type_id":"4","last_reported":1683050881,"current_range_meters":19600,"station_id":"ce4bha92rcd13ifvqeg0","pricing_plan_id":"free"},{"bike_id":"3ffc8676-98ca-43d7-a404-bd330cd26526","system_id":"levelo_inurba_marseille","lat":43.290624,"lon":5.359245,"is_reserved":false,"is_disabled":false,"rental_uris":{"android":"levelo://app?vid=3ffc8676-98ca-43d7-a404-bd330cd26526","ios":"levelo://app?vid=3ffc8676-98ca-43d7-a404-bd330cd26526"},"vehicle_type_id":"4","last_reported":1683050881,"current_range_meters":22400,"station_id":"ce4bha92rcd13ifvqeg0","pricing_plan_id":"free"},{"bike_id":"791eaf26-7753-4321-8e5e-c9d3bc1568b4","system_id":"levelo_inurba_marseille","lat":43.29192,"lon":5.38045,"is_reserved":false,"is_disabled":false,"rental_uris":{"android":"levelo://app?vid=791eaf26-7753-4321-8e5e-c9d3bc1568b4","ios":"levelo://app?vid=791eaf26-7753-4321-8e5e-c9d3bc1568b4"},"vehicle_type_id":"4","last_reported":1683050881,"current_range_meters":2800,"station_id":"","pricing_plan_id":"free"},{"bike_id":"5272fc2a-0738-4003-8ee3-4b0031122ba5","system_id":"levelo_inurba_marseille","lat":43.2904,"lon":5.35922,"is_reserved":false,"is_disabled":false,"rental_uris":{"android":"levelo://app?vid=5272fc2a-0738-4003-8ee3-4b0031122ba5","ios":"levelo://app?vid=5272fc2a-0738-4003-8ee3-4b0031122ba5"},"vehicle_type_id":"4","last_reported":1683050881,"current_range_meters":22400,"station_id":"ce4bha92rcd13ifvqeg0","pricing_plan_id":"free"},{"bike_id":"fef0e03f-0cd1-449a-b4d8-8f17b80d9724","system_id":"levelo_inurba_marseille","lat":43.294153,"lon":5.386305,"is_reserved":false,"is_disabled":false,"rental_uris":{"android":"levelo://app?vid=fef0e03f-0cd1-449a-b4d8-8f17b80d9724","ios":"levelo://app?vid=fef0e03f-0cd1-449a-b4d8-8f17b80d9724"},"vehicle_type_id":"4","last_reported":1683050881,"current_range_meters":400,"station_id":"ce4bh2h2rcd13ifvqdh0","pricing_plan_id":"free"},{"bike_id":"15833b14-0fd6-4341-a0ab-916d9d6fbbf0","system_id":"levelo_inurba_marseille","lat":43.294162,"lon":5.386292,"is_reserved":false,"is_disabled":false,"rental_uris":{"android":"levelo://app?vid=15833b14-0fd6-4341-a0ab-916d9d6fbbf0","ios":"levelo://app?vid=15833b14-0fd6-4341-a0ab-916d9d6fbbf0"},"vehicle_type_id":"4","last_reported":1683050881,"current_range_meters":25200,"station_id":"ce4bh2h2rcd13ifvqdh0","pricing_plan_id":"free"},{"bike_id":"23171136-a942-4966-98d2-032becba0422","system_id":"levelo_inurba_marseille","lat":43.294153,"lon":5.386305,"is_reserved":false,"is_disabled":false,"rental_uris":{"android":"levelo://app?vid=23171136-a942-4966-98d2-032becba0422","ios":"levelo://app?vid=23171136-a942-4966-98d2-032becba0422"},"vehicle_type_id":"4","last_reported":1683050881,"current_range_meters":7200,"station_id":"ce4bh2h2rcd13ifvqdh0","pricing_plan_id":"free"},{"bike_id":"7d45cf96-2864-4bc7-9111-e17e7210f42c","system_id":"levelo_inurba_marseille","lat":43.294153,"lon":5.386305,"is_reserved":false,"is_disabled":false,"rental_uris":{"android":"levelo://app?vid=7d45cf96-2864-4bc7-9111-e17e7210f42c","ios":"levelo://app?vid=7d45cf96-2864-4bc7-9111-e17e7210f42c"},"vehicle_type_id":"4","last_reported":1683050881,"current_range_meters":0,"station_id":"ce4bh2h2rcd13ifvqdh0","pricing_plan_id":"free"},{"bike_id":"b8fecf19-d0fd-4c8a-8e3d-56c270ee7482","system_id":"levelo_inurba_marseille","lat":43.28945,"lon":5.36643,"is_reserved":false,"is_disabled":false,"rental_uris":{"android":"levelo://app?vid=b8fecf19-d0fd-4c8a-8e3d-56c270ee7482","ios":"levelo://app?vid=b8fecf19-d0fd-4c8a-8e3d-56c270ee7482"},"vehicle_type_id":"4","last_reported":1683050881,"current_range_meters":20800,"station_id":"","pricing_plan_id":"free"},{"bike_id":"3d9b13d0-60ef-4957-a380-783d42f8a7bd","system_id":"levelo_inurba_marseille","lat":43.294162,"lon":5.386292,"is_reserved":false,"is_disabled":false,"rental_uris":{"android":"levelo://app?vid=3d9b13d0-60ef-4957-a380-783d42f8a7bd","ios":"levelo://app?vid=3d9b13d0-60ef-4957-a380-783d42f8a7bd"},"vehicle_type_id":"4","last_reported":1683050881,"current_range_meters":23200,"station_id":"ce4bh2h2rcd13ifvqdh0","pricing_plan_id":"free"},{"bike_id":"946c5f63-7f80-4ec7-8ec7-425556e78efa","system_id":"levelo_inurba_marseille","lat":43.28944,"lon":5.3663,"is_reserved":false,"is_disabled":false,"rental_uris":{"android":"levelo://app?vid=946c5f63-7f80-4ec7-8ec7-425556e78efa","ios":"levelo://app?vid=946c5f63-7f80-4ec7-8ec7-425556e78efa"},"vehicle_type_id":"4","last_reported":1683050881,"current_range_meters":29600,"station_id":"","pricing_plan_id":"free"},{"bike_id":"0e16e298-36c5-4bce-90a7-a5e31fb3f332","system_id":"levelo_inurba_marseille","lat":43.294162,"lon":5.386292,"is_reserved":false,"is_disabled":false,"rental_uris":{"android":"levelo://app?vid=0e16e298-36c5-4bce-90a7-a5e31fb3f332","ios":"levelo://app?vid=0e16e298-36c5-4bce-90a7-a5e31fb3f332"},"vehicle_type_id":"4","last_reported":1683050881,"current_range_meters":800,"station_id":"ce4bh2h2rcd13ifvqdh0","pricing_plan_id":"free"},{"bike_id":"9dc55f56-62b3-43b8-b6ba-0b6547993682","system_id":"levelo_inurba_marseille","lat":43.2894,"lon":5.36634,"is_reserved":false,"is_disabled":false,"rental_uris":{"android":"levelo://app?vid=9dc55f56-62b3-43b8-b6ba-0b6547993682","ios":"levelo://app?vid=9dc55f56-62b3-43b8-b6ba-0b6547993682"},"vehicle_type_id":"4","last_reported":1683050881,"current_range_meters":23200,"station_id":"ce4bhap2rcd13ifvqek0","pricing_plan_id":"free"},{"bike_id":"70759f66-0805-41af-aaa3-225dce42defe","system_id":"levelo_inurba_marseille","lat":43.28935,"lon":5.36634,"is_reserved":false,"is_disabled":false,"rental_uris":{"android":"levelo://app?vid=70759f66-0805-41af-aaa3-225dce42defe","ios":"levelo://app?vid=70759f66-0805-41af-aaa3-225dce42defe"},"vehicle_type_id":"4","last_reported":1683050881,"current_range_meters":20800,"station_id":"ce4bhap2rcd13ifvqek0","pricing_plan_id":"free"},{"bike_id":"f6d185cb-7814-4dfe-bd6c-5fa7f2585abc","system_id":"levelo_inurba_marseille","lat":43.28935,"lon":5.36631,"is_reserved":false,"is_disabled":false,"rental_uris":{"android":"levelo://app?vid=f6d185cb-7814-4dfe-bd6c-5fa7f2585abc","ios":"levelo://app?vid=f6d185cb-7814-4dfe-bd6c-5fa7f2585abc"},"vehicle_type_id":"4","last_reported":1683050881,"current_range_meters":23200,"station_id":"ce4bhap2rcd13ifvqek0","pricing_plan_id":"free"},{"bike_id":"17d68111-5ab5-4607-9c53-910ae2859032","system_id":"levelo_inurba_marseille","lat":43.289184,"lon":5.366408,"is_reserved":false,"is_disabled":false,"rental_uris":{"android":"levelo://app?vid=17d68111-5ab5-4607-9c53-910ae2859032","ios":"levelo://app?vid=17d68111-5ab5-4607-9c53-910ae2859032"},"vehicle_type_id":"4","last_reported":1683050881,"current_range_meters":0,"station_id":"ce4bhap2rcd13ifvqek0","pricing_plan_id":"free"},{"bike_id":"56a2b855-8c14-49e8-8baf-956293744f80","system_id":"levelo_inurba_marseille","lat":43.289184,"lon":5.366408,"is_reserved":false,"is_disabled":false,"rental_uris":{"android":"levelo://app?vid=56a2b855-8c14-49e8-8baf-956293744f80","ios":"levelo://app?vid=56a2b855-8c14-49e8-8baf-956293744f80"},"vehicle_type_id":"4","last_reported":1683050881,"current_range_meters":31200,"station_id":"ce4bhap2rcd13ifvqek0","pricing_plan_id":"free"},{"bike_id":"9e71b7b3-f738-438a-949f-d298f62c2b64","system_id":"levelo_inurba_marseille","lat":43.289184,"lon":5.366408,"is_reserved":false,"is_disabled":false,"rental_uris":{"android":"levelo://app?vid=9e71b7b3-f738-438a-949f-d298f62c2b64","ios":"levelo://app?vid=9e71b7b3-f738-438a-949f-d298f62c2b64"},"vehicle_type_id":"4","last_reported":1683050881,"current_range_meters":7600,"station_id":"ce4bhap2rcd13ifvqek0","pricing_plan_id":"free"},{"bike_id":"f00c707f-8bb7-4237-920e-61b12ed0b7fc","system_id":"levelo_inurba_marseille","lat":43.289184,"lon":5.366408,"is_reserved":false,"is_disabled":false,"rental_uris":{"android":"levelo://app?vid=f00c707f-8bb7-4237-920e-61b12ed0b7fc","ios":"levelo://app?vid=f00c707f-8bb7-4237-920e-61b12ed0b7fc"},"vehicle_type_id":"4","last_reported":1683050881,"current_range_meters":11600,"station_id":"ce4bhap2rcd13ifvqek0","pricing_plan_id":"free"},{"bike_id":"e1be10e7-db60-4a3b-b86b-74eaa70071d9","system_id":"levelo_inurba_marseille","lat":43.2894,"lon":5.36371,"is_reserved":false,"is_disabled":false,"rental_uris":{"android":"levelo://app?vid=e1be10e7-db60-4a3b-b86b-74eaa70071d9","ios":"levelo://app?vid=e1be10e7-db60-4a3b-b86b-74eaa70071d9"},"vehicle_type_id":"4","last_reported":1683050881,"current_range_meters":24800,"station_id":"ce4bhc92rcd13ifvqetg","pricing_plan_id":"free"},{"bike_id":"a0a36b4e-cd0e-42eb-b22b-a5a8d93b094a","system_id":"levelo_inurba_marseille","lat":43.28936,"lon":5.3641,"is_reserved":false,"is_disabled":false,"rental_uris":{"android":"levelo://app?vid=a0a36b4e-cd0e-42eb-b22b-a5a8d93b094a","ios":"levelo://app?vid=a0a36b4e-cd0e-42eb-b22b-a5a8d93b094a"},"vehicle_type_id":"4","last_reported":1683050881,"current_range_meters":0,"station_id":"","pricing_plan_id":"free"},{"bike_id":"8cae23cd-354c-44b7-a88b-6e7f2570ebb9","system_id":"levelo_inurba_marseille","lat":43.28935,"lon":5.36386,"is_reserved":false,"is_disabled":false,"rental_uris":{"android":"levelo://app?vid=8cae23cd-354c-44b7-a88b-6e7f2570ebb9","ios":"levelo://app?vid=8cae23cd-354c-44b7-a88b-6e7f2570ebb9"},"vehicle_type_id":"4","last_reported":1683050881,"current_range_meters":12400,"station_id":"ce4bhc92rcd13ifvqetg","pricing_plan_id":"free"},{"bike_id":"b0c7a298-7fb0-4a16-b2d0-fff2d20f7644","system_id":"levelo_inurba_marseille","lat":43.28933,"lon":5.36392,"is_reserved":false,"is_disabled":false,"rental_uris":{"android":"levelo://app?vid=b0c7a298-7fb0-4a16-b2d0-fff2d20f7644","ios":"levelo://app?vid=b0c7a298-7fb0-4a16-b2d0-fff2d20f7644"},"vehicle_type_id":"4","last_reported":1683050881,"current_range_meters":17200,"station_id":"ce4bhc92rcd13ifvqetg","pricing_plan_id":"free"},{"bike_id":"89c103f2-cdec-4dab-ad8c-24fe1b8c06eb","system_id":"levelo_inurba_marseille","lat":43.289468,"lon":5.363719,"is_reserved":false,"is_disabled":false,"rental_uris":{"android":"levelo://app?vid=89c103f2-cdec-4dab-ad8c-24fe1b8c06eb","ios":"levelo://app?vid=89c103f2-cdec-4dab-ad8c-24fe1b8c06eb"},"vehicle_type_id":"4","last_reported":1683050881,"current_range_meters":29600,"station_id":"ce4bhc92rcd13ifvqetg","pricing_plan_id":"free"},{"bike_id":"d38d818b-d364-43e1-b77b-edc11aa6f8b3","system_id":"levelo_inurba_marseille","lat":43.2893,"lon":5.36368,"is_reserved":false,"is_disabled":false,"rental_uris":{"android":"levelo://app?vid=d38d818b-d364-43e1-b77b-edc11aa6f8b3","ios":"levelo://app?vid=d38d818b-d364-43e1-b77b-edc11aa6f8b3"},"vehicle_type_id":"4","last_reported":1683050881,"current_range_meters":12800,"station_id":"ce4bhc92rcd13ifvqetg","pricing_plan_id":"free"},{"bike_id":"914cd928-65c6-4acf-8ed8-6727f2450cf4","system_id":"levelo_inurba_marseille","lat":43.32723,"lon":5.3925,"is_reserved":false,"is_disabled":false,"rental_uris":{"android":"levelo://app?vid=914cd928-65c6-4acf-8ed8-6727f2450cf4","ios":"levelo://app?vid=914cd928-65c6-4acf-8ed8-6727f2450cf4"},"vehicle_type_id":"4","last_reported":1683050881,"current_range_meters":5200,"station_id":"","pricing_plan_id":"free"},{"bike_id":"da6f9a6f-4537-448e-b6a9-89cfb043abdb","system_id":"levelo_inurba_marseille","lat":43.28921,"lon":5.36371,"is_reserved":false,"is_disabled":false,"rental_uris":{"android":"levelo://app?vid=da6f9a6f-4537-448e-b6a9-89cfb043abdb","ios":"levelo://app?vid=da6f9a6f-4537-448e-b6a9-89cfb043abdb"},"vehicle_type_id":"4","last_reported":1683050881,"current_range_meters":26000,"station_id":"ce4bhc92rcd13ifvqetg","pricing_plan_id":"free"},{"bike_id":"022f947d-300a-466a-a12c-a42f252ae6a7","system_id":"levelo_inurba_marseille","lat":43.292644,"lon":5.384257,"is_reserved":false,"is_disabled":false,"rental_uris":{"android":"levelo://app?vid=022f947d-300a-466a-a12c-a42f252ae6a7","ios":"levelo://app?vid=022f947d-300a-466a-a12c-a42f252ae6a7"},"vehicle_type_id":"4","last_reported":1683050881,"current_range_meters":20000,"station_id":"ce4bh692rcd13ifvqea0","pricing_plan_id":"free"},{"bike_id":"c05646f0-5867-4c91-a81e-4c98dee27747","system_id":"levelo_inurba_marseille","lat":43.292644,"lon":5.384257,"is_reserved":false,"is_disabled":false,"rental_uris":{"android":"levelo://app?vid=c05646f0-5867-4c91-a81e-4c98dee27747","ios":"levelo://app?vid=c05646f0-5867-4c91-a81e-4c98dee27747"},"vehicle_type_id":"4","last_reported":1683050881,"current_range_meters":10800,"station_id":"ce4bh692rcd13ifvqea0","pricing_plan_id":"free"},{"bike_id":"08204404-c24b-4431-8c9e-0c3d7bfbc217","system_id":"levelo_inurba_marseille","lat":43.292644,"lon":5.384257,"is_reserved":false,"is_disabled":false,"rental_uris":{"android":"levelo://app?vid=08204404-c24b-4431-8c9e-0c3d7bfbc217","ios":"levelo://app?vid=08204404-c24b-4431-8c9e-0c3d7bfbc217"},"vehicle_type_id":"4","last_reported":1683050881,"current_range_meters":26000,"station_id":"ce4bh692rcd13ifvqea0","pricing_plan_id":"free"},{"bike_id":"036881e6-77e6-40f3-aa29-48bf88309865","system_id":"levelo_inurba_marseille","lat":43.292642,"lon":5.384254,"is_reserved":false,"is_disabled":false,"rental_uris":{"android":"levelo://app?vid=036881e6-77e6-40f3-aa29-48bf88309865","ios":"levelo://app?vid=036881e6-77e6-40f3-aa29-48bf88309865"},"vehicle_type_id":"4","last_reported":1683050881,"current_range_meters":17600,"station_id":"ce4bh692rcd13ifvqea0","pricing_plan_id":"free"},{"bike_id":"4c79c145-56d5-4312-82d4-1b8d67365690","system_id":"levelo_inurba_marseille","lat":43.29248,"lon":5.38433,"is_reserved":false,"is_disabled":false,"rental_uris":{"android":"levelo://app?vid=4c79c145-56d5-4312-82d4-1b8d67365690","ios":"levelo://app?vid=4c79c145-56d5-4312-82d4-1b8d67365690"},"vehicle_type_id":"4","last_reported":1683050881,"current_range_meters":15200,"station_id":"ce4bh692rcd13ifvqea0","pricing_plan_id":"free"},{"bike_id":"2635e28f-2d8b-479f-83a6-b4ceda07a74d","system_id":"levelo_inurba_marseille","lat":43.292642,"lon":5.384254,"is_reserved":false,"is_disabled":false,"rental_uris":{"android":"levelo://app?vid=2635e28f-2d8b-479f-83a6-b4ceda07a74d","ios":"levelo://app?vid=2635e28f-2d8b-479f-83a6-b4ceda07a74d"},"vehicle_type_id":"4","last_reported":1683050881,"current_range_meters":8800,"station_id":"ce4bh692rcd13ifvqea0","pricing_plan_id":"free"},{"bike_id":"a222cf84-ae1c-4fa7-9993-9565f82878cb","system_id":"levelo_inurba_marseille","lat":43.29008,"lon":5.35614,"is_reserved":false,"is_disabled":false,"rental_uris":{"android":"levelo://app?vid=a222cf84-ae1c-4fa7-9993-9565f82878cb","ios":"levelo://app?vid=a222cf84-ae1c-4fa7-9993-9565f82878cb"},"vehicle_type_id":"4","last_reported":1683050881,"current_range_meters":27200,"station_id":"ce4bhb92rcd13ifvqen0","pricing_plan_id":"free"},{"bike_id":"a3336173-413f-4198-a7f1-ac54dbace5fe","system_id":"levelo_inurba_marseille","lat":43.290103,"lon":5.356114,"is_reserved":false,"is_disabled":false,"rental_uris":{"android":"levelo://app?vid=a3336173-413f-4198-a7f1-ac54dbace5fe","ios":"levelo://app?vid=a3336173-413f-4198-a7f1-ac54dbace5fe"},"vehicle_type_id":"4","last_reported":1683050881,"current_range_meters":27200,"station_id":"ce4bhb92rcd13ifvqen0","pricing_plan_id":"free"},{"bike_id":"ee0c9063-5dfc-488d-b35b-57919f6267ce","system_id":"levelo_inurba_marseille","lat":43.29005,"lon":5.35614,"is_reserved":false,"is_disabled":false,"rental_uris":{"android":"levelo://app?vid=ee0c9063-5dfc-488d-b35b-57919f6267ce","ios":"levelo://app?vid=ee0c9063-5dfc-488d-b35b-57919f6267ce"},"vehicle_type_id":"4","last_reported":1683050881,"current_range_meters":10400,"station_id":"ce4bhb92rcd13ifvqen0","pricing_plan_id":"free"},{"bike_id":"51155c80-c65e-4a89-b9f9-17f6c655f647","system_id":"levelo_inurba_marseille","lat":43.29,"lon":5.35615,"is_reserved":false,"is_disabled":false,"rental_uris":{"android":"levelo://app?vid=51155c80-c65e-4a89-b9f9-17f6c655f647","ios":"levelo://app?vid=51155c80-c65e-4a89-b9f9-17f6c655f647"},"vehicle_type_id":"4","last_reported":1683050881,"current_range_meters":27600,"station_id":"ce4bhb92rcd13ifvqen0","pricing_plan_id":"free"},{"bike_id":"1c332587-4077-4c7f-8286-4f31c2cff567","system_id":"levelo_inurba_marseille","lat":43.292571,"lon":5.409107,"is_reserved":false,"is_disabled":false,"rental_uris":{"android":"levelo://app?vid=1c332587-4077-4c7f-8286-4f31c2cff567","ios":"levelo://app?vid=1c332587-4077-4c7f-8286-4f31c2cff567"},"vehicle_type_id":"4","last_reported":1683050881,"current_range_meters":18000,"station_id":"ce4bh192rcd13ifvqdc0","pricing_plan_id":"free"},{"bike_id":"7afeca71-25a2-4e8e-a0af-91894f058cf5","system_id":"levelo_inurba_marseille","lat":43.295169,"lon":5.390426,"is_reserved":false,"is_disabled":false,"rental_uris":{"android":"levelo://app?vid=7afeca71-25a2-4e8e-a0af-91894f058cf5","ios":"levelo://app?vid=7afeca71-25a2-4e8e-a0af-91894f058cf5"},"vehicle_type_id":"4","last_reported":1683050881,"current_range_meters":0,"station_id":"ce4bh3p2rcd13ifvqdp0","pricing_plan_id":"free"},{"bike_id":"dd888dec-8103-426a-b654-9116c1b00bf5","system_id":"levelo_inurba_marseille","lat":43.28856,"lon":5.358371,"is_reserved":false,"is_disabled":false,"rental_uris":{"android":"levelo://app?vid=dd888dec-8103-426a-b654-9116c1b00bf5","ios":"levelo://app?vid=dd888dec-8103-426a-b654-9116c1b00bf5"},"vehicle_type_id":"4","last_reported":1683050881,"current_range_meters":10000,"station_id":"ce4bhb12rcd13ifvqem0","pricing_plan_id":"free"},{"bike_id":"769acaf5-ca3e-49dc-8db2-9f8ac235e75c","system_id":"levelo_inurba_marseille","lat":43.28868,"lon":5.35856,"is_reserved":false,"is_disabled":false,"rental_uris":{"android":"levelo://app?vid=769acaf5-ca3e-49dc-8db2-9f8ac235e75c","ios":"levelo://app?vid=769acaf5-ca3e-49dc-8db2-9f8ac235e75c"},"vehicle_type_id":"4","last_reported":1683050881,"current_range_meters":25200,"station_id":"ce4bhb12rcd13ifvqem0","pricing_plan_id":"free"},{"bike_id":"a53797f6-8d1e-48aa-be73-5104c9d889bb","system_id":"levelo_inurba_marseille","lat":43.28856,"lon":5.358371,"is_reserved":false,"is_disabled":false,"rental_uris":{"android":"levelo://app?vid=a53797f6-8d1e-48aa-be73-5104c9d889bb","ios":"levelo://app?vid=a53797f6-8d1e-48aa-be73-5104c9d889bb"},"vehicle_type_id":"4","last_reported":1683050881,"current_range_meters":28400,"station_id":"ce4bhb12rcd13ifvqem0","pricing_plan_id":"free"},{"bike_id":"c5f3b859-cc19-41c1-84bb-2efaac155878","system_id":"levelo_inurba_marseille","lat":43.28856,"lon":5.358371,"is_reserved":false,"is_disabled":false,"rental_uris":{"android":"levelo://app?vid=c5f3b859-cc19-41c1-84bb-2efaac155878","ios":"levelo://app?vid=c5f3b859-cc19-41c1-84bb-2efaac155878"},"vehicle_type_id":"4","last_reported":1683050881,"current_range_meters":30000,"station_id":"ce4bhb12rcd13ifvqem0","pricing_plan_id":"free"},{"bike_id":"af266a36-8ba9-413c-91c8-ba4e9983b229","system_id":"levelo_inurba_marseille","lat":43.28856,"lon":5.358371,"is_reserved":false,"is_disabled":false,"rental_uris":{"android":"levelo://app?vid=af266a36-8ba9-413c-91c8-ba4e9983b229","ios":"levelo://app?vid=af266a36-8ba9-413c-91c8-ba4e9983b229"},"vehicle_type_id":"4","last_reported":1683050881,"current_range_meters":28000,"station_id":"ce4bhb12rcd13ifvqem0","pricing_plan_id":"free"},{"bike_id":"9d370c20-60c3-4eb8-a38a-2f1846dfc219","system_id":"levelo_inurba_marseille","lat":43.28856,"lon":5.358371,"is_reserved":false,"is_disabled":false,"rental_uris":{"android":"levelo://app?vid=9d370c20-60c3-4eb8-a38a-2f1846dfc219","ios":"levelo://app?vid=9d370c20-60c3-4eb8-a38a-2f1846dfc219"},"vehicle_type_id":"4","last_reported":1683050881,"current_range_meters":24000,"station_id":"ce4bhb12rcd13ifvqem0","pricing_plan_id":"free"},{"bike_id":"311a799e-7683-4fe7-adc3-e41cd4bc1e40","system_id":"levelo_inurba_marseille","lat":43.28856,"lon":5.358371,"is_reserved":false,"is_disabled":false,"rental_uris":{"android":"levelo://app?vid=311a799e-7683-4fe7-adc3-e41cd4bc1e40","ios":"levelo://app?vid=311a799e-7683-4fe7-adc3-e41cd4bc1e40"},"vehicle_type_id":"4","last_reported":1683050881,"current_range_meters":18000,"station_id":"ce4bhb12rcd13ifvqem0","pricing_plan_id":"free"},{"bike_id":"a2fa33cb-5fff-4853-9f5c-72af5f498a7d","system_id":"levelo_inurba_marseille","lat":43.28856,"lon":5.358371,"is_reserved":false,"is_disabled":false,"rental_uris":{"android":"levelo://app?vid=a2fa33cb-5fff-4853-9f5c-72af5f498a7d","ios":"levelo://app?vid=a2fa33cb-5fff-4853-9f5c-72af5f498a7d"},"vehicle_type_id":"4","last_reported":1683050881,"current_range_meters":31200,"station_id":"ce4bhb12rcd13ifvqem0","pricing_plan_id":"free"},{"bike_id":"c4512a74-7a79-4ddf-b377-264debb21770","system_id":"levelo_inurba_marseille","lat":43.28856,"lon":5.358371,"is_reserved":false,"is_disabled":false,"rental_uris":{"android":"levelo://app?vid=c4512a74-7a79-4ddf-b377-264debb21770","ios":"levelo://app?vid=c4512a74-7a79-4ddf-b377-264debb21770"},"vehicle_type_id":"4","last_reported":1683050881,"current_range_meters":12800,"station_id":"ce4bhb12rcd13ifvqem0","pricing_plan_id":"free"},{"bike_id":"fd963c9b-03e6-4fc9-a4dc-679497ee755f","system_id":"levelo_inurba_marseille","lat":43.28856,"lon":5.358371,"is_reserved":false,"is_disabled":false,"rental_uris":{"android":"levelo://app?vid=fd963c9b-03e6-4fc9-a4dc-679497ee755f","ios":"levelo://app?vid=fd963c9b-03e6-4fc9-a4dc-679497ee755f"},"vehicle_type_id":"4","last_reported":1683050881,"current_range_meters":25200,"station_id":"ce4bhb12rcd13ifvqem0","pricing_plan_id":"free"},{"bike_id":"a47ea25e-a0ed-41d5-a13a-3ac6305033d8","system_id":"levelo_inurba_marseille","lat":43.28856,"lon":5.358371,"is_reserved":false,"is_disabled":false,"rental_uris":{"android":"levelo://app?vid=a47ea25e-a0ed-41d5-a13a-3ac6305033d8","ios":"levelo://app?vid=a47ea25e-a0ed-41d5-a13a-3ac6305033d8"},"vehicle_type_id":"4","last_reported":1683050881,"current_range_meters":18800,"station_id":"ce4bhb12rcd13ifvqem0","pricing_plan_id":"free"},{"bike_id":"10298d72-903f-4323-90d7-861ec6753242","system_id":"levelo_inurba_marseille","lat":43.28855,"lon":5.35847,"is_reserved":false,"is_disabled":false,"rental_uris":{"android":"levelo://app?vid=10298d72-903f-4323-90d7-861ec6753242","ios":"levelo://app?vid=10298d72-903f-4323-90d7-861ec6753242"},"vehicle_type_id":"4","last_reported":1683050881,"current_range_meters":5600,"station_id":"ce4bhb12rcd13ifvqem0","pricing_plan_id":"free"},{"bike_id":"67cd2257-539e-4fda-bc08-1528ac9f6db4","system_id":"levelo_inurba_marseille","lat":43.28856,"lon":5.358371,"is_reserved":false,"is_disabled":false,"rental_uris":{"android":"levelo://app?vid=67cd2257-539e-4fda-bc08-1528ac9f6db4","ios":"levelo://app?vid=67cd2257-539e-4fda-bc08-1528ac9f6db4"},"vehicle_type_id":"4","last_reported":1683050881,"current_range_meters":14800,"station_id":"ce4bhb12rcd13ifvqem0","pricing_plan_id":"free"},{"bike_id":"2126deab-7828-4e97-8378-ae71cb130f72","system_id":"levelo_inurba_marseille","lat":43.28856,"lon":5.358371,"is_reserved":false,"is_disabled":false,"rental_uris":{"android":"levelo://app?vid=2126deab-7828-4e97-8378-ae71cb130f72","ios":"levelo://app?vid=2126deab-7828-4e97-8378-ae71cb130f72"},"vehicle_type_id":"4","last_reported":1683050881,"current_range_meters":17200,"station_id":"ce4bhb12rcd13ifvqem0","pricing_plan_id":"free"},{"bike_id":"b1fa55db-2057-4112-8b1d-378d24466fa8","system_id":"levelo_inurba_marseille","lat":43.28851,"lon":5.35867,"is_reserved":false,"is_disabled":false,"rental_uris":{"android":"levelo://app?vid=b1fa55db-2057-4112-8b1d-378d24466fa8","ios":"levelo://app?vid=b1fa55db-2057-4112-8b1d-378d24466fa8"},"vehicle_type_id":"4","last_reported":1683050881,"current_range_meters":0,"station_id":"ce4bhb12rcd13ifvqem0","pricing_plan_id":"free"},{"bike_id":"0322ba79-6bf8-4868-b419-4a3b43ea7d55","system_id":"levelo_inurba_marseille","lat":43.28856,"lon":5.358371,"is_reserved":false,"is_disabled":false,"rental_uris":{"android":"levelo://app?vid=0322ba79-6bf8-4868-b419-4a3b43ea7d55","ios":"levelo://app?vid=0322ba79-6bf8-4868-b419-4a3b43ea7d55"},"vehicle_type_id":"4","last_reported":1683050881,"current_range_meters":20000,"station_id":"ce4bhb12rcd13ifvqem0","pricing_plan_id":"free"},{"bike_id":"9ecfb182-f50b-4e40-800a-ec2b5d840e57","system_id":"levelo_inurba_marseille","lat":43.28856,"lon":5.358371,"is_reserved":false,"is_disabled":false,"rental_uris":{"android":"levelo://app?vid=9ecfb182-f50b-4e40-800a-ec2b5d840e57","ios":"levelo://app?vid=9ecfb182-f50b-4e40-800a-ec2b5d840e57"},"vehicle_type_id":"4","last_reported":1683050881,"current_range_meters":19200,"station_id":"ce4bhb12rcd13ifvqem0","pricing_plan_id":"free"},{"bike_id":"9cb5f6df-4912-42b8-b943-a1066624cef8","system_id":"levelo_inurba_marseille","lat":43.28856,"lon":5.358371,"is_reserved":false,"is_disabled":false,"rental_uris":{"android":"levelo://app?vid=9cb5f6df-4912-42b8-b943-a1066624cef8","ios":"levelo://app?vid=9cb5f6df-4912-42b8-b943-a1066624cef8"},"vehicle_type_id":"4","last_reported":1683050881,"current_range_meters":29600,"station_id":"ce4bhb12rcd13ifvqem0","pricing_plan_id":"free"},{"bike_id":"425d11b9-27ba-4808-a530-24c21c1acd42","system_id":"levelo_inurba_marseille","lat":43.286591,"lon":5.363346,"is_reserved":false,"is_disabled":false,"rental_uris":{"android":"levelo://app?vid=425d11b9-27ba-4808-a530-24c21c1acd42","ios":"levelo://app?vid=425d11b9-27ba-4808-a530-24c21c1acd42"},"vehicle_type_id":"4","last_reported":1683050881,"current_range_meters":26000,"station_id":"ce4bhah2rcd13ifvqej0","pricing_plan_id":"free"},{"bike_id":"529312c9-6539-42db-807d-b48e68c19e75","system_id":"levelo_inurba_marseille","lat":43.28856,"lon":5.358371,"is_reserved":false,"is_disabled":false,"rental_uris":{"android":"levelo://app?vid=529312c9-6539-42db-807d-b48e68c19e75","ios":"levelo://app?vid=529312c9-6539-42db-807d-b48e68c19e75"},"vehicle_type_id":"4","last_reported":1683050881,"current_range_meters":31200,"station_id":"ce4bhb12rcd13ifvqem0","pricing_plan_id":"free"},{"bike_id":"3ad88df0-fd0d-46fc-941b-0e7c4c40e704","system_id":"levelo_inurba_marseille","lat":43.33744,"lon":5.3744,"is_reserved":false,"is_disabled":false,"rental_uris":{"android":"levelo://app?vid=3ad88df0-fd0d-46fc-941b-0e7c4c40e704","ios":"levelo://app?vid=3ad88df0-fd0d-46fc-941b-0e7c4c40e704"},"vehicle_type_id":"4","last_reported":1683050881,"current_range_meters":30000,"station_id":"","pricing_plan_id":"free"},{"bike_id":"a781e807-1fda-45b9-8f11-d9f5b9283d58","system_id":"levelo_inurba_marseille","lat":43.30642,"lon":5.401031,"is_reserved":false,"is_disabled":false,"rental_uris":{"android":"levelo://app?vid=a781e807-1fda-45b9-8f11-d9f5b9283d58","ios":"levelo://app?vid=a781e807-1fda-45b9-8f11-d9f5b9283d58"},"vehicle_type_id":"4","last_reported":1683050881,"current_range_meters":22000,"station_id":"ce4bh112rcd13ifvqda0","pricing_plan_id":"free"},{"bike_id":"6c385ae0-1574-4f8f-906a-3aabeb62ce94","system_id":"levelo_inurba_marseille","lat":43.33757,"lon":5.37465,"is_reserved":false,"is_disabled":false,"rental_uris":{"android":"levelo://app?vid=6c385ae0-1574-4f8f-906a-3aabeb62ce94","ios":"levelo://app?vid=6c385ae0-1574-4f8f-906a-3aabeb62ce94"},"vehicle_type_id":"4","last_reported":1683050881,"current_range_meters":28000,"station_id":"","pricing_plan_id":"free"},{"bike_id":"b84cb21f-e51b-4ea1-8aa5-ef06f8575ea4","system_id":"levelo_inurba_marseille","lat":43.301117,"lon":5.398795,"is_reserved":false,"is_disabled":false,"rental_uris":{"android":"levelo://app?vid=b84cb21f-e51b-4ea1-8aa5-ef06f8575ea4","ios":"levelo://app?vid=b84cb21f-e51b-4ea1-8aa5-ef06f8575ea4"},"vehicle_type_id":"4","last_reported":1683050881,"current_range_meters":25200,"station_id":"ce4bh0h2rcd13ifvqd40","pricing_plan_id":"free"},{"bike_id":"ee139de5-4031-441c-aa5c-0e92cec2edfc","system_id":"levelo_inurba_marseille","lat":43.301117,"lon":5.398795,"is_reserved":false,"is_disabled":false,"rental_uris":{"android":"levelo://app?vid=ee139de5-4031-441c-aa5c-0e92cec2edfc","ios":"levelo://app?vid=ee139de5-4031-441c-aa5c-0e92cec2edfc"},"vehicle_type_id":"4","last_reported":1683050881,"current_range_meters":10400,"station_id":"ce4bh0h2rcd13ifvqd40","pricing_plan_id":"free"},{"bike_id":"4945cf35-9cce-46b4-87a6-dd2f7a28c9f6","system_id":"levelo_inurba_marseille","lat":43.301117,"lon":5.398795,"is_reserved":false,"is_disabled":false,"rental_uris":{"android":"levelo://app?vid=4945cf35-9cce-46b4-87a6-dd2f7a28c9f6","ios":"levelo://app?vid=4945cf35-9cce-46b4-87a6-dd2f7a28c9f6"},"vehicle_type_id":"4","last_reported":1683050881,"current_range_meters":25200,"station_id":"ce4bh0h2rcd13ifvqd40","pricing_plan_id":"free"},{"bike_id":"08e56164-a162-4014-b4a6-0286b3a1d3a1","system_id":"levelo_inurba_marseille","lat":43.301117,"lon":5.398795,"is_reserved":false,"is_disabled":false,"rental_uris":{"android":"levelo://app?vid=08e56164-a162-4014-b4a6-0286b3a1d3a1","ios":"levelo://app?vid=08e56164-a162-4014-b4a6-0286b3a1d3a1"},"vehicle_type_id":"4","last_reported":1683050881,"current_range_meters":31600,"station_id":"ce4bh0h2rcd13ifvqd40","pricing_plan_id":"free"},{"bike_id":"14826f28-a487-421e-8763-16dacac0e2d0","system_id":"levelo_inurba_marseille","lat":43.301117,"lon":5.398795,"is_reserved":false,"is_disabled":false,"rental_uris":{"android":"levelo://app?vid=14826f28-a487-421e-8763-16dacac0e2d0","ios":"levelo://app?vid=14826f28-a487-421e-8763-16dacac0e2d0"},"vehicle_type_id":"4","last_reported":1683050881,"current_range_meters":28400,"station_id":"ce4bh0h2rcd13ifvqd40","pricing_plan_id":"free"},{"bike_id":"d22da7b0-4a45-46ff-819e-f7c516ae86d9","system_id":"levelo_inurba_marseille","lat":43.301117,"lon":5.398795,"is_reserved":false,"is_disabled":false,"rental_uris":{"android":"levelo://app?vid=d22da7b0-4a45-46ff-819e-f7c516ae86d9","ios":"levelo://app?vid=d22da7b0-4a45-46ff-819e-f7c516ae86d9"},"vehicle_type_id":"4","last_reported":1683050881,"current_range_meters":13600,"station_id":"ce4bh0h2rcd13ifvqd40","pricing_plan_id":"free"},{"bike_id":"09a5a97d-e700-4b3c-ab14-7f854ebd784f","system_id":"levelo_inurba_marseille","lat":43.301117,"lon":5.398795,"is_reserved":false,"is_disabled":false,"rental_uris":{"android":"levelo://app?vid=09a5a97d-e700-4b3c-ab14-7f854ebd784f","ios":"levelo://app?vid=09a5a97d-e700-4b3c-ab14-7f854ebd784f"},"vehicle_type_id":"4","last_reported":1683050881,"current_range_meters":29600,"station_id":"ce4bh0h2rcd13ifvqd40","pricing_plan_id":"free"},{"bike_id":"08559a6f-f598-4197-a9d2-c604b32846e6","system_id":"levelo_inurba_marseille","lat":43.286591,"lon":5.363346,"is_reserved":false,"is_disabled":false,"rental_uris":{"android":"levelo://app?vid=08559a6f-f598-4197-a9d2-c604b32846e6","ios":"levelo://app?vid=08559a6f-f598-4197-a9d2-c604b32846e6"},"vehicle_type_id":"4","last_reported":1683050881,"current_range_meters":31600,"station_id":"ce4bhah2rcd13ifvqej0","pricing_plan_id":"free"},{"bike_id":"e9d16549-d5d3-4d83-94d7-9843f1a71ac3","system_id":"levelo_inurba_marseille","lat":43.29877,"lon":5.39732,"is_reserved":false,"is_disabled":false,"rental_uris":{"android":"levelo://app?vid=e9d16549-d5d3-4d83-94d7-9843f1a71ac3","ios":"levelo://app?vid=e9d16549-d5d3-4d83-94d7-9843f1a71ac3"},"vehicle_type_id":"4","last_reported":1683050881,"current_range_meters":19200,"station_id":"ce4bh0h2rcd13ifvqd50","pricing_plan_id":"free"},{"bike_id":"584e8a8c-d0e4-417b-adc0-b8f0ab603765","system_id":"levelo_inurba_marseille","lat":43.29869,"lon":5.39728,"is_reserved":false,"is_disabled":false,"rental_uris":{"android":"levelo://app?vid=584e8a8c-d0e4-417b-adc0-b8f0ab603765","ios":"levelo://app?vid=584e8a8c-d0e4-417b-adc0-b8f0ab603765"},"vehicle_type_id":"4","last_reported":1683050881,"current_range_meters":17600,"station_id":"ce4bh0h2rcd13ifvqd50","pricing_plan_id":"free"},{"bike_id":"a78c9711-7f30-4957-b9c6-d014255ce2d7","system_id":"levelo_inurba_marseille","lat":43.286591,"lon":5.363346,"is_reserved":false,"is_disabled":false,"rental_uris":{"android":"levelo://app?vid=a78c9711-7f30-4957-b9c6-d014255ce2d7","ios":"levelo://app?vid=a78c9711-7f30-4957-b9c6-d014255ce2d7"},"vehicle_type_id":"4","last_reported":1683050881,"current_range_meters":16000,"station_id":"ce4bhah2rcd13ifvqej0","pricing_plan_id":"free"},{"bike_id":"181feb94-88ac-49d0-88ce-03013c6c61fb","system_id":"levelo_inurba_marseille","lat":43.286593,"lon":5.363346,"is_reserved":false,"is_disabled":false,"rental_uris":{"android":"levelo://app?vid=181feb94-88ac-49d0-88ce-03013c6c61fb","ios":"levelo://app?vid=181feb94-88ac-49d0-88ce-03013c6c61fb"},"vehicle_type_id":"4","last_reported":1683050881,"current_range_meters":20400,"station_id":"ce4bhah2rcd13ifvqej0","pricing_plan_id":"free"},{"bike_id":"917e2e18-c1e3-498a-a67e-bf9e45e6913b","system_id":"levelo_inurba_marseille","lat":43.286591,"lon":5.363346,"is_reserved":false,"is_disabled":false,"rental_uris":{"android":"levelo://app?vid=917e2e18-c1e3-498a-a67e-bf9e45e6913b","ios":"levelo://app?vid=917e2e18-c1e3-498a-a67e-bf9e45e6913b"},"vehicle_type_id":"4","last_reported":1683050881,"current_range_meters":26400,"station_id":"ce4bhah2rcd13ifvqej0","pricing_plan_id":"free"},{"bike_id":"db843291-762a-4100-a3dc-4580d07f351b","system_id":"levelo_inurba_marseille","lat":43.298681,"lon":5.397225,"is_reserved":false,"is_disabled":false,"rental_uris":{"android":"levelo://app?vid=db843291-762a-4100-a3dc-4580d07f351b","ios":"levelo://app?vid=db843291-762a-4100-a3dc-4580d07f351b"},"vehicle_type_id":"4","last_reported":1683050881,"current_range_meters":17200,"station_id":"ce4bh0h2rcd13ifvqd50","pricing_plan_id":"free"},{"bike_id":"f9fd7cef-2902-4540-91ed-8efd3e6cfde0","system_id":"levelo_inurba_marseille","lat":43.286593,"lon":5.363346,"is_reserved":false,"is_disabled":false,"rental_uris":{"android":"levelo://app?vid=f9fd7cef-2902-4540-91ed-8efd3e6cfde0","ios":"levelo://app?vid=f9fd7cef-2902-4540-91ed-8efd3e6cfde0"},"vehicle_type_id":"4","last_reported":1683050881,"current_range_meters":0,"station_id":"ce4bhah2rcd13ifvqej0","pricing_plan_id":"free"},{"bike_id":"eefd4035-2b5f-45d8-9042-c4f3847f6d48","system_id":"levelo_inurba_marseille","lat":43.286591,"lon":5.363346,"is_reserved":false,"is_disabled":false,"rental_uris":{"android":"levelo://app?vid=eefd4035-2b5f-45d8-9042-c4f3847f6d48","ios":"levelo://app?vid=eefd4035-2b5f-45d8-9042-c4f3847f6d48"},"vehicle_type_id":"4","last_reported":1683050881,"current_range_meters":2000,"station_id":"ce4bhah2rcd13ifvqej0","pricing_plan_id":"free"},{"bike_id":"2a994898-9995-4291-abc6-079116de6127","system_id":"levelo_inurba_marseille","lat":43.298681,"lon":5.397225,"is_reserved":false,"is_disabled":false,"rental_uris":{"android":"levelo://app?vid=2a994898-9995-4291-abc6-079116de6127","ios":"levelo://app?vid=2a994898-9995-4291-abc6-079116de6127"},