{"last_updated":1728998302,"ttl":60,"version":"2.2","data":{"bikes":[{"bike_id":"ca19aae3-ddc9-46d5-8241-83affcfa7618","system_id":"levelo_inurba_marseille","lat":43.25928,"lon":5.40916,"is_reserved":false,"is_disabled":false,"rental_uris":{"android":"levelo://app?vid=ca19aae3-ddc9-46d5-8241-83affcfa7618","ios":"levelo://app?vid=ca19aae3-ddc9-46d5-8241-83affcfa7618"},"vehicle_type_id":"4","last_reported":1728998302,"current_range_meters":12400,"station_id":"ce4bhm92rcd13ifvqglg","pricing_plan_id":"cebpf4jnsgd1na2vs0mg"},{"bike_id":"78326777-9e57-491b-9580-9779f5bb26d0","system_id":"levelo_inurba_marseille","lat":43.294891,"lon":5.386091,"is_reserved":false,"is_disabled":false,"rental_uris":{"android":"levelo://app?vid=78326777-9e57-491b-9580-9779f5bb26d0","ios":"levelo://app?vid=78326777-9e57-491b-9580-9779f5bb26d0"},"vehicle_type_id":"4","last_reported":1728998302,"current_range_meters":3200,"station_id":"ce4bgih2rcd13ifvqba0","pricing_plan_id":"cebpf4jnsgd1na2vs0mg"},{"bike_id":"b219e8df-801b-4f0f-a0f6-ea2485c345f9","system_id":"levelo_inurba_marseille","lat":43.22929,"lon":5.35373,"is_reserved":false,"is_disabled":false,"rental_uris":{"android":"levelo://app?vid=b219e8df-801b-4f0f-a0f6-ea2485c345f9","ios":"levelo://app?vid=b219e8df-801b-4f0f-a0f6-ea2485c345f9"},"vehicle_type_id":"4","last_reported":1728998302,"current_range_meters":36800,"station_id":"cpo3532slgdg3j2ikp40","pricing_plan_id":"cebpf4jnsgd1na2vs0mg"},{"bike_id":"f3091be8-fca5-484d-a920-9d677f201a7f","system_id":"levelo_inurba_marseille","lat":43.26786,"lon":5.39417,"is_reserved":false,"is_disabled":false,"rental_uris":{"android":"levelo://app?vid=f3091be8-fca5-484d-a920-9d677f201a7f","ios":"levelo://app?vid=f3091be8-fca5-484d-a920-9d677f201a7f"},"vehicle_type_id":"4","last_reported":1728998302,"current_range_meters":21600,"station_id":"ce4bhh12rcd13ifvqfg0","pricing_plan_id":"cebpf4jnsgd1na2vs0mg"},{"bike_id":"8a3fdd4f-9844-4c07-9e1c-1c26549255be","system_id":"levelo_inurba_marseille","lat":43.28704,"lon":5.37939,"is_reserved":false,"is_disabled":false,"rental_uris":{"android":"levelo://app?vid=8a3fdd4f-9844-4c07-9e1c-1c26549255be","ios":"levelo://app?vid=8a3fdd4f-9844-4c07-9e1c-1c26549255be"},"vehicle_type_id":"4","last_reported":1728998302,"current_range_meters":38800,"station_id":"ce4bh9p2rcd13ifvqec0","pricing_plan_id":"cebpf4jnsgd1na2vs0mg"},{"bike_id":"fdb5e10a-af4c-4e4c-abc8-150958dd8a1f","system_id":"levelo_inurba_marseille","lat":43.2953,"lon":5.38542,"is_reserved":false,"is_disabled":false,"rental_uris":{"android":"levelo://app?vid=fdb5e10a-af4c-4e4c-abc8-150958dd8a1f","ios":"levelo://app?vid=fdb5e10a-af4c-4e4c-abc8-150958dd8a1f"},"vehicle_type_id":"4","last_reported":1728998302,"current_range_meters":2000,"station_id":"ce4bgih2rcd13ifvqba0","pricing_plan_id":"cebpf4jnsgd1na2vs0mg"},{"bike_id":"1999a2b5-b6cc-470a-bafc-18a837d4b22c","system_id":"levelo_inurba_marseille","lat":43.30899,"lon":5.39643,"is_reserved":false,"is_disabled":false,"rental_uris":{"android":"levelo://app?vid=1999a2b5-b6cc-470a-bafc-18a837d4b22c","ios":"levelo://app?vid=1999a2b5-b6cc-470a-bafc-18a837d4b22c"},"vehicle_type_id":"4","last_reported":1728998302,"current_range_meters":33600,"station_id":"ce4bh012rcd13ifvqcv0","pricing_plan_id":"cebpf4jnsgd1na2vs0mg"},{"bike_id":"d29eb176-6bf8-4d45-8a60-89fc87f9bbf7","system_id":"levelo_inurba_marseille","lat":43.25584,"lon":5.3823,"is_reserved":false,"is_disabled":false,"rental_uris":{"android":"levelo://app?vid=d29eb176-6bf8-4d45-8a60-89fc87f9bbf7","ios":"levelo://app?vid=d29eb176-6bf8-4d45-8a60-89fc87f9bbf7"},"vehicle_type_id":"4","last_reported":1728998302,"current_range_meters":28000,"station_id":"ce4bhih2rcd13ifvqfs0","pricing_plan_id":"cebpf4jnsgd1na2vs0mg"},{"bike_id":"0594cdeb-4346-4c4b-88d9-215b4fe53551","system_id":"levelo_inurba_marseille","lat":43.28265,"lon":5.3506,"is_reserved":false,"is_disabled":false,"rental_uris":{"android":"levelo://app?vid=0594cdeb-4346-4c4b-88d9-215b4fe53551","ios":"levelo://app?vid=0594cdeb-4346-4c4b-88d9-215b4fe53551"},"vehicle_type_id":"4","last_reported":1728998302,"current_range_meters":16800,"station_id":"ce4bhbp2rcd13ifvqerg","pricing_plan_id":"cebpf4jnsgd1na2vs0mg"},{"bike_id":"6474cf61-e11d-40c6-ba1b-4d086645c170","system_id":"levelo_inurba_marseille","lat":43.24085,"lon":5.37753,"is_reserved":false,"is_disabled":false,"rental_uris":{"android":"levelo://app?vid=6474cf61-e11d-40c6-ba1b-4d086645c170","ios":"levelo://app?vid=6474cf61-e11d-40c6-ba1b-4d086645c170"},"vehicle_type_id":"4","last_reported":1728998302,"current_range_meters":32000,"station_id":"ce4bhnp2rcd13ifvqgvg","pricing_plan_id":"cebpf4jnsgd1na2vs0mg"},{"bike_id":"505c001a-2d3e-435a-a369-21ef27eb563c","system_id":"levelo_inurba_marseille","lat":43.22936,"lon":5.35377,"is_reserved":false,"is_disabled":false,"rental_uris":{"android":"levelo://app?vid=505c001a-2d3e-435a-a369-21ef27eb563c","ios":"levelo://app?vid=505c001a-2d3e-435a-a369-21ef27eb563c"},"vehicle_type_id":"4","last_reported":1728998302,"current_range_meters":8400,"station_id":"cpo3532slgdg3j2ikp40","pricing_plan_id":"cebpf4jnsgd1na2vs0mg"},{"bike_id":"1373389e-3e71-4b98-a6dc-36806d1c2da6","system_id":"levelo_inurba_marseille","lat":43.337444,"lon":5.374475,"is_reserved":false,"is_disabled":false,"rental_uris":{"android":"levelo://app?vid=1373389e-3e71-4b98-a6dc-36806d1c2da6","ios":"levelo://app?vid=1373389e-3e71-4b98-a6dc-36806d1c2da6"},"vehicle_type_id":"4","last_reported":1728998302,"current_range_meters":32400,"station_id":"","pricing_plan_id":"cebpf4jnsgd1na2vs0mg"},{"bike_id":"7980917c-804d-451e-9581-bf5657fcdd3f","system_id":"levelo_inurba_marseille","lat":43.30326,"lon":5.4043,"is_reserved":false,"is_disabled":false,"rental_uris":{"android":"levelo://app?vid=7980917c-804d-451e-9581-bf5657fcdd3f","ios":"levelo://app?vid=7980917c-804d-451e-9581-bf5657fcdd3f"},"vehicle_type_id":"4","last_reported":1728998302,"current_range_meters":4800,"station_id":"ce4bh012rcd13ifvqd10","pricing_plan_id":"cebpf4jnsgd1na2vs0mg"},{"bike_id":"978e1708-2f3b-4d72-b415-dbe1cfaa8617","system_id":"levelo_inurba_marseille","lat":43.25938,"lon":5.40902,"is_reserved":false,"is_disabled":false,"rental_uris":{"android":"levelo://app?vid=978e1708-2f3b-4d72-b415-dbe1cfaa8617","ios":"levelo://app?vid=978e1708-2f3b-4d72-b415-dbe1cfaa8617"},"vehicle_type_id":"4","last_reported":1728998302,"current_range_meters":9600,"station_id":"ce4bhm92rcd13ifvqglg","pricing_plan_id":"cebpf4jnsgd1na2vs0mg"},{"bike_id":"11b40bdf-fc58-4b5d-8ee1-6856f38f5128","system_id":"levelo_inurba_marseille","lat":43.24394,"lon":5.3706,"is_reserved":false,"is_disabled":false,"rental_uris":{"android":"levelo://app?vid=11b40bdf-fc58-4b5d-8ee1-6856f38f5128","ios":"levelo://app?vid=11b40bdf-fc58-4b5d-8ee1-6856f38f5128"},"vehicle_type_id":"4","last_reported":1728998302,"current_range_meters":22000,"station_id":"ce4bhhh2rcd13ifvqfk0","pricing_plan_id":"cebpf4jnsgd1na2vs0mg"},{"bike_id":"b6894f60-15c5-4341-885f-959eb47a6977","system_id":"levelo_inurba_marseille","lat":43.3108,"lon":5.42432,"is_reserved":false,"is_disabled":false,"rental_uris":{"android":"levelo://app?vid=b6894f60-15c5-4341-885f-959eb47a6977","ios":"levelo://app?vid=b6894f60-15c5-4341-885f-959eb47a6977"},"vehicle_type_id":"4","last_reported":1728998302,"current_range_meters":6400,"station_id":"ce4bhp92rcd13ifvqhag","pricing_plan_id":"cebpf4jnsgd1na2vs0mg"},{"bike_id":"1d1a5305-93eb-48bd-aca5-91c26433821c","system_id":"levelo_inurba_marseille","lat":43.30527,"lon":5.36525,"is_reserved":false,"is_disabled":false,"rental_uris":{"android":"levelo://app?vid=1d1a5305-93eb-48bd-aca5-91c26433821c","ios":"levelo://app?vid=1d1a5305-93eb-48bd-aca5-91c26433821c"},"vehicle_type_id":"4","last_reported":1728998302,"current_range_meters":34000,"station_id":"ce4bgs12rcd13ifvqcag","pricing_plan_id":"cebpf4jnsgd1na2vs0mg"},{"bike_id":"0d2499f0-f957-4ab2-bf8f-dab9d3026610","system_id":"levelo_inurba_marseille","lat":43.26804,"lon":5.4027,"is_reserved":false,"is_disabled":false,"rental_uris":{"android":"levelo://app?vid=0d2499f0-f957-4ab2-bf8f-dab9d3026610","ios":"levelo://app?vid=0d2499f0-f957-4ab2-bf8f-dab9d3026610"},"vehicle_type_id":"4","last_reported":1728998302,"current_range_meters":12400,"station_id":"ce501612rcd8frsf0b60","pricing_plan_id":"cebpf4jnsgd1na2vs0mg"},{"bike_id":"02e6dafe-a179-4e32-ab0b-1df299df1cda","system_id":"levelo_inurba_marseille","lat":43.3248,"lon":5.36557,"is_reserved":false,"is_disabled":false,"rental_uris":{"android":"levelo://app?vid=02e6dafe-a179-4e32-ab0b-1df299df1cda","ios":"levelo://app?vid=02e6dafe-a179-4e32-ab0b-1df299df1cda"},"vehicle_type_id":"4","last_reported":1728998302,"current_range_meters":38800,"station_id":"ce4bhs12rcd13ifvqhvg","pricing_plan_id":"cebpf4jnsgd1na2vs0mg"},{"bike_id":"650155c2-1430-41ae-bc74-d8bf10a99962","system_id":"levelo_inurba_marseille","lat":43.30951,"lon":5.3903,"is_reserved":false,"is_disabled":false,"rental_uris":{"android":"levelo://app?vid=650155c2-1430-41ae-bc74-d8bf10a99962","ios":"levelo://app?vid=650155c2-1430-41ae-bc74-d8bf10a99962"},"vehicle_type_id":"4","last_reported":1728998302,"current_range_meters":0,"station_id":"ce4bgup2rcd13ifvqco0","pricing_plan_id":"cebpf4jnsgd1na2vs0mg"},{"bike_id":"91e5627b-75b5-4e67-b2b4-2076c5d1e3df","system_id":"levelo_inurba_marseille","lat":43.26559,"lon":5.37283,"is_reserved":false,"is_disabled":false,"rental_uris":{"android":"levelo://app?vid=91e5627b-75b5-4e67-b2b4-2076c5d1e3df","ios":"levelo://app?vid=91e5627b-75b5-4e67-b2b4-2076c5d1e3df"},"vehicle_type_id":"4","last_reported":1728998302,"current_range_meters":18800,"station_id":"ce4bhg12rcd13ifvqf70","pricing_plan_id":"cebpf4jnsgd1na2vs0mg"},{"bike_id":"beea5ce3-6e3b-468e-af4b-c0aef7b7dfd3","system_id":"levelo_inurba_marseille","lat":43.24391,"lon":5.37048,"is_reserved":false,"is_disabled":false,"rental_uris":{"android":"levelo://app?vid=beea5ce3-6e3b-468e-af4b-c0aef7b7dfd3","ios":"levelo://app?vid=beea5ce3-6e3b-468e-af4b-c0aef7b7dfd3"},"vehicle_type_id":"4","last_reported":1728998302,"current_range_meters":26000,"station_id":"ce4bhhh2rcd13ifvqfk0","pricing_plan_id":"cebpf4jnsgd1na2vs0mg"},{"bike_id":"d6150a7d-6feb-4fb3-a05e-803c73dcff93","system_id":"levelo_inurba_marseille","lat":43.29194,"lon":5.3934,"is_reserved":false,"is_disabled":false,"rental_uris":{"android":"levelo://app?vid=d6150a7d-6feb-4fb3-a05e-803c73dcff93","ios":"levelo://app?vid=d6150a7d-6feb-4fb3-a05e-803c73dcff93"},"vehicle_type_id":"4","last_reported":1728998302,"current_range_meters":19200,"station_id":"ce4bha92rcd13ifvqeh0","pricing_plan_id":"cebpf4jnsgd1na2vs0mg"},{"bike_id":"4e0fb3d8-657a-4a31-bc7a-b6b6f5d4ebe0","system_id":"levelo_inurba_marseille","lat":43.29623,"lon":5.37149,"is_reserved":false,"is_disabled":false,"rental_uris":{"android":"levelo://app?vid=4e0fb3d8-657a-4a31-bc7a-b6b6f5d4ebe0","ios":"levelo://app?vid=4e0fb3d8-657a-4a31-bc7a-b6b6f5d4ebe0"},"vehicle_type_id":"4","last_reported":1728998302,"current_range_meters":38800,"station_id":"ce4bgnh2rcd13ifvqc0g","pricing_plan_id":"cebpf4jnsgd1na2vs0mg"},{"bike_id":"9e21f6d9-4a73-497d-a7e2-5036db2477bd","system_id":"levelo_inurba_marseille","lat":43.28409,"lon":5.34987,"is_reserved":false,"is_disabled":false,"rental_uris":{"android":"levelo://app?vid=9e21f6d9-4a73-497d-a7e2-5036db2477bd","ios":"levelo://app?vid=9e21f6d9-4a73-497d-a7e2-5036db2477bd"},"vehicle_type_id":"4","last_reported":1728998302,"current_range_meters":16800,"station_id":"ce4bhbh2rcd13ifvqepg","pricing_plan_id":"cebpf4jnsgd1na2vs0mg"},{"bike_id":"72358ece-4187-445f-9954-0b053f59dd58","system_id":"levelo_inurba_marseille","lat":43.28259,"lon":5.35057,"is_reserved":false,"is_disabled":false,"rental_uris":{"android":"levelo://app?vid=72358ece-4187-445f-9954-0b053f59dd58","ios":"levelo://app?vid=72358ece-4187-445f-9954-0b053f59dd58"},"vehicle_type_id":"4","last_reported":1728998302,"current_range_meters":39200,"station_id":"ce4bhbp2rcd13ifvqerg","pricing_plan_id":"cebpf4jnsgd1na2vs0mg"},{"bike_id":"75c821b1-fabe-4e60-8792-f334dfe96a58","system_id":"levelo_inurba_marseille","lat":43.30558,"lon":5.3653,"is_reserved":false,"is_disabled":false,"rental_uris":{"android":"levelo://app?vid=75c821b1-fabe-4e60-8792-f334dfe96a58","ios":"levelo://app?vid=75c821b1-fabe-4e60-8792-f334dfe96a58"},"vehicle_type_id":"4","last_reported":1728998302,"current_range_meters":27200,"station_id":"ce4bgs12rcd13ifvqcag","pricing_plan_id":"cebpf4jnsgd1na2vs0mg"},{"bike_id":"4cfc7fc9-fc10-4d64-9850-93863908373a","system_id":"levelo_inurba_marseille","lat":43.29719,"lon":5.37694,"is_reserved":false,"is_disabled":false,"rental_uris":{"android":"levelo://app?vid=4cfc7fc9-fc10-4d64-9850-93863908373a","ios":"levelo://app?vid=4cfc7fc9-fc10-4d64-9850-93863908373a"},"vehicle_type_id":"4","last_reported":1728998302,"current_range_meters":38800,"station_id":"ce4bgkh2rcd13ifvqbl0","pricing_plan_id":"cebpf4jnsgd1na2vs0mg"},{"bike_id":"b95394c6-1aae-47f6-8ae4-de2acce96398","system_id":"levelo_inurba_marseille","lat":43.29189,"lon":5.35795,"is_reserved":false,"is_disabled":false,"rental_uris":{"android":"levelo://app?vid=b95394c6-1aae-47f6-8ae4-de2acce96398","ios":"levelo://app?vid=b95394c6-1aae-47f6-8ae4-de2acce96398"},"vehicle_type_id":"4","last_reported":1728998302,"current_range_meters":16000,"station_id":"ce4bhb12rcd13ifvqel0","pricing_plan_id":"cebpf4jnsgd1na2vs0mg"},{"bike_id":"9c057a5b-d6fb-4784-8604-e3ef48ca70ad","system_id":"levelo_inurba_marseille","lat":43.32106,"lon":5.36779,"is_reserved":false,"is_disabled":false,"rental_uris":{"android":"levelo://app?vid=9c057a5b-d6fb-4784-8604-e3ef48ca70ad","ios":"levelo://app?vid=9c057a5b-d6fb-4784-8604-e3ef48ca70ad"},"vehicle_type_id":"4","last_reported":1728998302,"current_range_meters":36400,"station_id":"ce4bhrh2rcd13ifvqhug","pricing_plan_id":"cebpf4jnsgd1na2vs0mg"},{"bike_id":"9076a5e1-fb98-42e4-8be9-0d8c262e6697","system_id":"levelo_inurba_marseille","lat":43.31882,"lon":5.40732,"is_reserved":false,"is_disabled":false,"rental_uris":{"android":"levelo://app?vid=9076a5e1-fb98-42e4-8be9-0d8c262e6697","ios":"levelo://app?vid=9076a5e1-fb98-42e4-8be9-0d8c262e6697"},"vehicle_type_id":"4","last_reported":1728998302,"current_range_meters":6800,"station_id":"ce4bhq12rcd13ifvqhig","pricing_plan_id":"cebpf4jnsgd1na2vs0mg"},{"bike_id":"85e0c597-b58e-4ed1-a673-617dd8815077","system_id":"levelo_inurba_marseille","lat":43.29925,"lon":5.4133,"is_reserved":false,"is_disabled":false,"rental_uris":{"android":"levelo://app?vid=85e0c597-b58e-4ed1-a673-617dd8815077","ios":"levelo://app?vid=85e0c597-b58e-4ed1-a673-617dd8815077"},"vehicle_type_id":"4","last_reported":1728998302,"current_range_meters":9200,"station_id":"ce4bhp12rcd13ifvqh9g","pricing_plan_id":"cebpf4jnsgd1na2vs0mg"},{"bike_id":"c38449c4-3d65-4369-a50a-e07979b2b52a","system_id":"levelo_inurba_marseille","lat":43.27893,"lon":5.38002,"is_reserved":false,"is_disabled":false,"rental_uris":{"android":"levelo://app?vid=c38449c4-3d65-4369-a50a-e07979b2b52a","ios":"levelo://app?vid=c38449c4-3d65-4369-a50a-e07979b2b52a"},"vehicle_type_id":"4","last_reported":1728998302,"current_range_meters":12400,"station_id":"ce4bhf92rcd13ifvqf50","pricing_plan_id":"cebpf4jnsgd1na2vs0mg"},{"bike_id":"00707241-c9a7-4262-a6e1-14ee27f38531","system_id":"levelo_inurba_marseille","lat":43.28262,"lon":5.35064,"is_reserved":false,"is_disabled":false,"rental_uris":{"android":"levelo://app?vid=00707241-c9a7-4262-a6e1-14ee27f38531","ios":"levelo://app?vid=00707241-c9a7-4262-a6e1-14ee27f38531"},"vehicle_type_id":"4","last_reported":1728998302,"current_range_meters":14000,"station_id":"ce4bhbp2rcd13ifvqerg","pricing_plan_id":"cebpf4jnsgd1na2vs0mg"},{"bike_id":"89198ecf-9ad5-429c-84dc-a279ee6e8f88","system_id":"levelo_inurba_marseille","lat":43.33768,"lon":5.37457,"is_reserved":false,"is_disabled":false,"rental_uris":{"android":"levelo://app?vid=89198ecf-9ad5-429c-84dc-a279ee6e8f88","ios":"levelo://app?vid=89198ecf-9ad5-429c-84dc-a279ee6e8f88"},"vehicle_type_id":"4","last_reported":1728998302,"current_range_meters":35200,"station_id":"","pricing_plan_id":"cebpf4jnsgd1na2vs0mg"},{"bike_id":"8fdd4147-e848-49f0-9c54-870bdb6cb1f5","system_id":"levelo_inurba_marseille","lat":43.33599,"lon":5.41027,"is_reserved":false,"is_disabled":false,"rental_uris":{"android":"levelo://app?vid=8fdd4147-e848-49f0-9c54-870bdb6cb1f5","ios":"levelo://app?vid=8fdd4147-e848-49f0-9c54-870bdb6cb1f5"},"vehicle_type_id":"4","last_reported":1728998302,"current_range_meters":35200,"station_id":"ce4bhqh2rcd13ifvqhmg","pricing_plan_id":"cebpf4jnsgd1na2vs0mg"},{"bike_id":"76445514-dd6c-426b-941e-789afb2f2c25","system_id":"levelo_inurba_marseille","lat":43.33605,"lon":5.41039,"is_reserved":false,"is_disabled":false,"rental_uris":{"android":"levelo://app?vid=76445514-dd6c-426b-941e-789afb2f2c25","ios":"levelo://app?vid=76445514-dd6c-426b-941e-789afb2f2c25"},"vehicle_type_id":"4","last_reported":1728998302,"current_range_meters":39200,"station_id":"ce4bhqh2rcd13ifvqhmg","pricing_plan_id":"cebpf4jnsgd1na2vs0mg"},{"bike_id":"48898036-3bdc-4ce0-ba49-cdda2dbb2c69","system_id":"levelo_inurba_marseille","lat":43.24652,"lon":5.38894,"is_reserved":false,"is_disabled":false,"rental_uris":{"android":"levelo://app?vid=48898036-3bdc-4ce0-ba49-cdda2dbb2c69","ios":"levelo://app?vid=48898036-3bdc-4ce0-ba49-cdda2dbb2c69"},"vehicle_type_id":"4","last_reported":1728998302,"current_range_meters":30400,"station_id":"ce4bhg12rcd13ifvqf60","pricing_plan_id":"cebpf4jnsgd1na2vs0mg"},{"bike_id":"2a0bc9ba-4f95-4e26-87c2-8957f138d3a4","system_id":"levelo_inurba_marseille","lat":43.232,"lon":5.35551,"is_reserved":false,"is_disabled":false,"rental_uris":{"android":"levelo://app?vid=2a0bc9ba-4f95-4e26-87c2-8957f138d3a4","ios":"levelo://app?vid=2a0bc9ba-4f95-4e26-87c2-8957f138d3a4"},"vehicle_type_id":"4","last_reported":1728998302,"current_range_meters":2800,"station_id":"ce4bhu92rcd13ifvqi70","pricing_plan_id":"cebpf4jnsgd1na2vs0mg"},{"bike_id":"48c2e15c-f2d3-453b-9a21-a6cb5369e204","system_id":"levelo_inurba_marseille","lat":43.28925,"lon":5.36381,"is_reserved":false,"is_disabled":false,"rental_uris":{"android":"levelo://app?vid=48c2e15c-f2d3-453b-9a21-a6cb5369e204","ios":"levelo://app?vid=48c2e15c-f2d3-453b-9a21-a6cb5369e204"},"vehicle_type_id":"4","last_reported":1728998302,"current_range_meters":40000,"station_id":"ce4bhc92rcd13ifvqetg","pricing_plan_id":"cebpf4jnsgd1na2vs0mg"},{"bike_id":"a00dfee0-03dd-4959-bf4d-9a9869c0eb4b","system_id":"levelo_inurba_marseille","lat":43.25087,"lon":5.3952,"is_reserved":false,"is_disabled":false,"rental_uris":{"android":"levelo://app?vid=a00dfee0-03dd-4959-bf4d-9a9869c0eb4b","ios":"levelo://app?vid=a00dfee0-03dd-4959-bf4d-9a9869c0eb4b"},"vehicle_type_id":"4","last_reported":1728998302,"current_range_meters":5600,"station_id":"ce4bhm12rcd13ifvqgkg","pricing_plan_id":"cebpf4jnsgd1na2vs0mg"},{"bike_id":"cfe8f8d6-a024-473a-8f2e-1a9251c04829","system_id":"levelo_inurba_marseille","lat":43.32475,"lon":5.36566,"is_reserved":false,"is_disabled":false,"rental_uris":{"android":"levelo://app?vid=cfe8f8d6-a024-473a-8f2e-1a9251c04829","ios":"levelo://app?vid=cfe8f8d6-a024-473a-8f2e-1a9251c04829"},"vehicle_type_id":"4","last_reported":1728998302,"current_range_meters":25200,"station_id":"ce4bhs12rcd13ifvqhvg","pricing_plan_id":"cebpf4jnsgd1na2vs0mg"},{"bike_id":"27521189-a10b-488a-82b8-973812fa95e1","system_id":"levelo_inurba_marseille","lat":43.3248,"lon":5.36569,"is_reserved":false,"is_disabled":false,"rental_uris":{"android":"levelo://app?vid=27521189-a10b-488a-82b8-973812fa95e1","ios":"levelo://app?vid=27521189-a10b-488a-82b8-973812fa95e1"},"vehicle_type_id":"4","last_reported":1728998302,"current_range_meters":36400,"station_id":"ce4bhs12rcd13ifvqhvg","pricing_plan_id":"cebpf4jnsgd1na2vs0mg"},{"bike_id":"cbd7d81a-b913-4adf-8a4f-e40c105f9838","system_id":"levelo_inurba_marseille","lat":43.28404,"lon":5.34976,"is_reserved":false,"is_disabled":false,"rental_uris":{"android":"levelo://app?vid=cbd7d81a-b913-4adf-8a4f-e40c105f9838","ios":"levelo://app?vid=cbd7d81a-b913-4adf-8a4f-e40c105f9838"},"vehicle_type_id":"4","last_reported":1728998302,"current_range_meters":36800,"station_id":"ce4bhbh2rcd13ifvqepg","pricing_plan_id":"cebpf4jnsgd1na2vs0mg"},{"bike_id":"046e157e-d5f7-4ab7-8095-5e4ad84a7e1e","system_id":"levelo_inurba_marseille","lat":43.30798,"lon":5.3815,"is_reserved":false,"is_disabled":false,"rental_uris":{"android":"levelo://app?vid=046e157e-d5f7-4ab7-8095-5e4ad84a7e1e","ios":"levelo://app?vid=046e157e-d5f7-4ab7-8095-5e4ad84a7e1e"},"vehicle_type_id":"4","last_reported":1728998302,"current_range_meters":36800,"station_id":"ce4bgt12rcd13ifvqce0","pricing_plan_id":"cebpf4jnsgd1na2vs0mg"},{"bike_id":"68c8a2f3-7ee0-4015-8c32-c2821c13a835","system_id":"levelo_inurba_marseille","lat":43.29516,"lon":5.37506,"is_reserved":false,"is_disabled":false,"rental_uris":{"android":"levelo://app?vid=68c8a2f3-7ee0-4015-8c32-c2821c13a835","ios":"levelo://app?vid=68c8a2f3-7ee0-4015-8c32-c2821c13a835"},"vehicle_type_id":"4","last_reported":1728998302,"current_range_meters":9600,"station_id":"ce4bgkp2rcd13ifvqbmg","pricing_plan_id":"cebpf4jnsgd1na2vs0mg"},{"bike_id":"bf5722e2-ebff-42ce-b541-f405af3e3ad4","system_id":"levelo_inurba_marseille","lat":43.29556,"lon":5.42296,"is_reserved":false,"is_disabled":false,"rental_uris":{"android":"levelo://app?vid=bf5722e2-ebff-42ce-b541-f405af3e3ad4","ios":"levelo://app?vid=bf5722e2-ebff-42ce-b541-f405af3e3ad4"},"vehicle_type_id":"4","last_reported":1728998302,"current_range_meters":17600,"station_id":"","pricing_plan_id":"cebpf4jnsgd1na2vs0mg"},{"bike_id":"1beaea0d-6d0c-455e-871f-f0926d782ab7","system_id":"levelo_inurba_marseille","lat":43.30475,"lon":5.37926,"is_reserved":false,"is_disabled":false,"rental_uris":{"android":"levelo://app?vid=1beaea0d-6d0c-455e-871f-f0926d782ab7","ios":"levelo://app?vid=1beaea0d-6d0c-455e-871f-f0926d782ab7"},"vehicle_type_id":"4","last_reported":1728998302,"current_range_meters":4800,"station_id":"ce4bgup2rcd13ifvqcn0","pricing_plan_id":"cebpf4jnsgd1na2vs0mg"},{"bike_id":"6ec38521-ca98-4265-9286-b2a981597e95","system_id":"levelo_inurba_marseille","lat":43.30465,"lon":5.37916,"is_reserved":false,"is_disabled":false,"rental_uris":{"android":"levelo://app?vid=6ec38521-ca98-4265-9286-b2a981597e95","ios":"levelo://app?vid=6ec38521-ca98-4265-9286-b2a981597e95"},"vehicle_type_id":"4","last_reported":1728998302,"current_range_meters":8000,"station_id":"ce4bgup2rcd13ifvqcn0","pricing_plan_id":"cebpf4jnsgd1na2vs0mg"},{"bike_id":"af72c931-eb8a-4884-9dc9-d800fea8aa26","system_id":"levelo_inurba_marseille","lat":43.24388,"lon":5.37055,"is_reserved":false,"is_disabled":false,"rental_uris":{"android":"levelo://app?vid=af72c931-eb8a-4884-9dc9-d800fea8aa26","ios":"levelo://app?vid=af72c931-eb8a-4884-9dc9-d800fea8aa26"},"vehicle_type_id":"4","last_reported":1728998302,"current_range_meters":38800,"station_id":"ce4bhhh2rcd13ifvqfk0","pricing_plan_id":"cebpf4jnsgd1na2vs0mg"},{"bike_id":"abbffdf3-ff6a-4da1-91df-ef5d1453acc4","system_id":"levelo_inurba_marseille","lat":43.32107,"lon":5.36782,"is_reserved":false,"is_disabled":false,"rental_uris":{"android":"levelo://app?vid=abbffdf3-ff6a-4da1-91df-ef5d1453acc4","ios":"levelo://app?vid=abbffdf3-ff6a-4da1-91df-ef5d1453acc4"},"vehicle_type_id":"4","last_reported":1728998302,"current_range_meters":38800,"station_id":"ce4bhrh2rcd13ifvqhug","pricing_plan_id":"cebpf4jnsgd1na2vs0mg"},{"bike_id":"e3611c0f-388b-4852-b104-906bf77b1c12","system_id":"levelo_inurba_marseille","lat":43.283508,"lon":5.381119,"is_reserved":false,"is_disabled":false,"rental_uris":{"android":"levelo://app?vid=e3611c0f-388b-4852-b104-906bf77b1c12","ios":"levelo://app?vid=e3611c0f-388b-4852-b104-906bf77b1c12"},"vehicle_type_id":"4","last_reported":1728998302,"current_range_meters":36800,"station_id":"ce4bhb12rcd13ifvqem0","pricing_plan_id":"cebpf4jnsgd1na2vs0mg"},{"bike_id":"4562d373-2100-43ad-94b7-f72f355de9bd","system_id":"levelo_inurba_marseille","lat":43.32542,"lon":5.41464,"is_reserved":false,"is_disabled":false,"rental_uris":{"android":"levelo://app?vid=4562d373-2100-43ad-94b7-f72f355de9bd","ios":"levelo://app?vid=4562d373-2100-43ad-94b7-f72f355de9bd"},"vehicle_type_id":"4","last_reported":1728998302,"current_range_meters":12800,"station_id":"ce4bhq12rcd13ifvqhhg","pricing_plan_id":"cebpf4jnsgd1na2vs0mg"},{"bike_id":"446168c3-e7fa-4444-a966-fa92840076d1","system_id":"levelo_inurba_marseille","lat":43.29624,"lon":5.37152,"is_reserved":false,"is_disabled":false,"rental_uris":{"android":"levelo://app?vid=446168c3-e7fa-4444-a966-fa92840076d1","ios":"levelo://app?vid=446168c3-e7fa-4444-a966-fa92840076d1"},"vehicle_type_id":"4","last_reported":1728998302,"current_range_meters":24000,"station_id":"ce4bgnh2rcd13ifvqc0g","pricing_plan_id":"cebpf4jnsgd1na2vs0mg"},{"bike_id":"a2eb58c6-dd46-4b5a-b81d-fe3714bbcfc9","system_id":"levelo_inurba_marseille","lat":43.23961,"lon":5.36639,"is_reserved":false,"is_disabled":false,"rental_uris":{"android":"levelo://app?vid=a2eb58c6-dd46-4b5a-b81d-fe3714bbcfc9","ios":"levelo://app?vid=a2eb58c6-dd46-4b5a-b81d-fe3714bbcfc9"},"vehicle_type_id":"4","last_reported":1728998302,"current_range_meters":8000,"station_id":"ce4bhi12rcd13ifvqfp0","pricing_plan_id":"cebpf4jnsgd1na2vs0mg"},{"bike_id":"f61f5020-9a98-430b-af24-9548f2ac9198","system_id":"levelo_inurba_marseille","lat":43.24393,"lon":5.3707,"is_reserved":false,"is_disabled":false,"rental_uris":{"android":"levelo://app?vid=f61f5020-9a98-430b-af24-9548f2ac9198","ios":"levelo://app?vid=f61f5020-9a98-430b-af24-9548f2ac9198"},"vehicle_type_id":"4","last_reported":1728998302,"current_range_meters":32000,"station_id":"ce4bhhh2rcd13ifvqfk0","pricing_plan_id":"cebpf4jnsgd1na2vs0mg"},{"bike_id":"42380eb1-17fe-480c-a570-b2c19282b3c7","system_id":"levelo_inurba_marseille","lat":43.28426,"lon":5.34977,"is_reserved":false,"is_disabled":false,"rental_uris":{"android":"levelo://app?vid=42380eb1-17fe-480c-a570-b2c19282b3c7","ios":"levelo://app?vid=42380eb1-17fe-480c-a570-b2c19282b3c7"},"vehicle_type_id":"4","last_reported":1728998302,"current_range_meters":29600,"station_id":"ce4bhbh2rcd13ifvqepg","pricing_plan_id":"cebpf4jnsgd1na2vs0mg"},{"bike_id":"fc2d1301-3a60-4a9b-b3e1-a3a2e2ef9469","system_id":"levelo_inurba_marseille","lat":43.30552,"lon":5.36533,"is_reserved":false,"is_disabled":false,"rental_uris":{"android":"levelo://app?vid=fc2d1301-3a60-4a9b-b3e1-a3a2e2ef9469","ios":"levelo://app?vid=fc2d1301-3a60-4a9b-b3e1-a3a2e2ef9469"},"vehicle_type_id":"4","last_reported":1728998302,"current_range_meters":28400,"station_id":"ce4bgs12rcd13ifvqcag","pricing_plan_id":"cebpf4jnsgd1na2vs0mg"},{"bike_id":"d0baf8b6-8922-483f-86e4-bff2b23f338b","system_id":"levelo_inurba_marseille","lat":43.23193,"lon":5.35554,"is_reserved":false,"is_disabled":false,"rental_uris":{"android":"levelo://app?vid=d0baf8b6-8922-483f-86e4-bff2b23f338b","ios":"levelo://app?vid=d0baf8b6-8922-483f-86e4-bff2b23f338b"},"vehicle_type_id":"4","last_reported":1728998302,"current_range_meters":4400,"station_id":"ce4bhu92rcd13ifvqi70","pricing_plan_id":"cebpf4jnsgd1na2vs0mg"},{"bike_id":"498926ae-c013-47b0-b805-7114b993c9ba","system_id":"levelo_inurba_marseille","lat":43.30423,"lon":5.39756,"is_reserved":false,"is_disabled":false,"rental_uris":{"android":"levelo://app?vid=498926ae-c013-47b0-b805-7114b993c9ba","ios":"levelo://app?vid=498926ae-c013-47b0-b805-7114b993c9ba"},"vehicle_type_id":"4","last_reported":1728998302,"current_range_meters":38800,"station_id":"ce4bh092rcd13ifvqd20","pricing_plan_id":"cebpf4jnsgd1na2vs0mg"},{"bike_id":"c0670d96-b06e-446b-a07e-6b5eeebc59d7","system_id":"levelo_inurba_marseille","lat":43.274948,"lon":5.424466,"is_reserved":false,"is_disabled":false,"rental_uris":{"android":"levelo://app?vid=c0670d96-b06e-446b-a07e-6b5eeebc59d7","ios":"levelo://app?vid=c0670d96-b06e-446b-a07e-6b5eeebc59d7"},"vehicle_type_id":"4","last_reported":1728998302,"current_range_meters":12000,"station_id":"ce4bhn92rcd13ifvqgrg","pricing_plan_id":"cebpf4jnsgd1na2vs0mg"},{"bike_id":"485372db-c927-43ac-8631-871bcbd82cc0","system_id":"levelo_inurba_marseille","lat":43.24061,"lon":5.37763,"is_reserved":false,"is_disabled":false,"rental_uris":{"android":"levelo://app?vid=485372db-c927-43ac-8631-871bcbd82cc0","ios":"levelo://app?vid=485372db-c927-43ac-8631-871bcbd82cc0"},"vehicle_type_id":"4","last_reported":1728998302,"current_range_meters":10800,"station_id":"ce4bhnp2rcd13ifvqgvg","pricing_plan_id":"cebpf4jnsgd1na2vs0mg"},{"bike_id":"02c903ab-53e0-41d9-a4f7-29b840913cfb","system_id":"levelo_inurba_marseille","lat":43.25083,"lon":5.39522,"is_reserved":false,"is_disabled":false,"rental_uris":{"android":"levelo://app?vid=02c903ab-53e0-41d9-a4f7-29b840913cfb","ios":"levelo://app?vid=02c903ab-53e0-41d9-a4f7-29b840913cfb"},"vehicle_type_id":"4","last_reported":1728998302,"current_range_meters":14800,"station_id":"ce4bhm12rcd13ifvqgkg","pricing_plan_id":"cebpf4jnsgd1na2vs0mg"},{"bike_id":"a0d3d324-fa7e-4417-aee7-85012ecab44e","system_id":"levelo_inurba_marseille","lat":43.34188,"lon":5.44506,"is_reserved":false,"is_disabled":false,"rental_uris":{"android":"levelo://app?vid=a0d3d324-fa7e-4417-aee7-85012ecab44e","ios":"levelo://app?vid=a0d3d324-fa7e-4417-aee7-85012ecab44e"},"vehicle_type_id":"4","last_reported":1728998302,"current_range_meters":24000,"station_id":"","pricing_plan_id":"cebpf4jnsgd1na2vs0mg"},{"bike_id":"7c52c1bd-81ac-4954-9333-93ef7570b03f","system_id":"levelo_inurba_marseille","lat":43.309,"lon":5.39651,"is_reserved":false,"is_disabled":false,"rental_uris":{"android":"levelo://app?vid=7c52c1bd-81ac-4954-9333-93ef7570b03f","ios":"levelo://app?vid=7c52c1bd-81ac-4954-9333-93ef7570b03f"},"vehicle_type_id":"4","last_reported":1728998302,"current_range_meters":25600,"station_id":"ce4bh012rcd13ifvqcv0","pricing_plan_id":"cebpf4jnsgd1na2vs0mg"},{"bike_id":"48d712c6-ec87-41e6-9b68-6a94a1dd878e","system_id":"levelo_inurba_marseille","lat":43.30886,"lon":5.39661,"is_reserved":false,"is_disabled":false,"rental_uris":{"android":"levelo://app?vid=48d712c6-ec87-41e6-9b68-6a94a1dd878e","ios":"levelo://app?vid=48d712c6-ec87-41e6-9b68-6a94a1dd878e"},"vehicle_type_id":"4","last_reported":1728998302,"current_range_meters":36400,"station_id":"ce4bh012rcd13ifvqcv0","pricing_plan_id":"cebpf4jnsgd1na2vs0mg"},{"bike_id":"dff624e8-afbc-4b19-9928-67bb88776815","system_id":"levelo_inurba_marseille","lat":43.27496,"lon":5.42449,"is_reserved":false,"is_disabled":false,"rental_uris":{"android":"levelo://app?vid=dff624e8-afbc-4b19-9928-67bb88776815","ios":"levelo://app?vid=dff624e8-afbc-4b19-9928-67bb88776815"},"vehicle_type_id":"4","last_reported":1728998302,"current_range_meters":27200,"station_id":"ce4bhn92rcd13ifvqgrg","pricing_plan_id":"cebpf4jnsgd1na2vs0mg"},{"bike_id":"f7f6a807-7095-45e0-af07-9afd539f9ec1","system_id":"levelo_inurba_marseille","lat":43.33736,"lon":5.3745,"is_reserved":false,"is_disabled":false,"rental_uris":{"android":"levelo://app?vid=f7f6a807-7095-45e0-af07-9afd539f9ec1","ios":"levelo://app?vid=f7f6a807-7095-45e0-af07-9afd539f9ec1"},"vehicle_type_id":"4","last_reported":1728998302,"current_range_meters":38800,"station_id":"","pricing_plan_id":"cebpf4jnsgd1na2vs0mg"},{"bike_id":"720a26da-7f94-4946-8c08-af06a5a9aea3","system_id":"levelo_inurba_marseille","lat":43.28458,"lon":5.35882,"is_reserved":false,"is_disabled":false,"rental_uris":{"android":"levelo://app?vid=720a26da-7f94-4946-8c08-af06a5a9aea3","ios":"levelo://app?vid=720a26da-7f94-4946-8c08-af06a5a9aea3"},"vehicle_type_id":"4","last_reported":1728998302,"current_range_meters":34000,"station_id":"ce4bhah2rcd13ifvqei0","pricing_plan_id":"cebpf4jnsgd1na2vs0mg"},{"bike_id":"52f79488-82a8-4ae8-ad58-27d91d161bf2","system_id":"levelo_inurba_marseille","lat":43.2842,"lon":5.34988,"is_reserved":false,"is_disabled":false,"rental_uris":{"android":"levelo://app?vid=52f79488-82a8-4ae8-ad58-27d91d161bf2","ios":"levelo://app?vid=52f79488-82a8-4ae8-ad58-27d91d161bf2"},"vehicle_type_id":"4","last_reported":1728998302,"current_range_meters":5600,"station_id":"ce4bhbh2rcd13ifvqepg","pricing_plan_id":"cebpf4jnsgd1na2vs0mg"},{"bike_id":"3ae02cff-df96-4ee2-b0ce-80c0f14f35c1","system_id":"levelo_inurba_marseille","lat":43.28408,"lon":5.34978,"is_reserved":false,"is_disabled":false,"rental_uris":{"android":"levelo://app?vid=3ae02cff-df96-4ee2-b0ce-80c0f14f35c1","ios":"levelo://app?vid=3ae02cff-df96-4ee2-b0ce-80c0f14f35c1"},"vehicle_type_id":"4","last_reported":1728998302,"current_range_meters":38800,"station_id":"ce4bhbh2rcd13ifvqepg","pricing_plan_id":"cebpf4jnsgd1na2vs0mg"},{"bike_id":"87066510-4834-4d1c-a47d-7332e9175ad5","system_id":"levelo_inurba_marseille","lat":43.30424,"lon":5.39742,"is_reserved":false,"is_disabled":false,"rental_uris":{"android":"levelo://app?vid=87066510-4834-4d1c-a47d-7332e9175ad5","ios":"levelo://app?vid=87066510-4834-4d1c-a47d-7332e9175ad5"},"vehicle_type_id":"4","last_reported":1728998302,"current_range_meters":23200,"station_id":"ce4bh092rcd13ifvqd20","pricing_plan_id":"cebpf4jnsgd1na2vs0mg"},{"bike_id":"e64e871d-6e9a-4c71-9ea0-c89d508ec004","system_id":"levelo_inurba_marseille","lat":43.23191,"lon":5.35557,"is_reserved":false,"is_disabled":false,"rental_uris":{"android":"levelo://app?vid=e64e871d-6e9a-4c71-9ea0-c89d508ec004","ios":"levelo://app?vid=e64e871d-6e9a-4c71-9ea0-c89d508ec004"},"vehicle_type_id":"4","last_reported":1728998302,"current_range_meters":26800,"station_id":"ce4bhu92rcd13ifvqi70","pricing_plan_id":"cebpf4jnsgd1na2vs0mg"},{"bike_id":"88320fcc-dbb2-4ba9-9166-4596f9f52955","system_id":"levelo_inurba_marseille","lat":43.31357,"lon":5.36707,"is_reserved":false,"is_disabled":false,"rental_uris":{"android":"levelo://app?vid=88320fcc-dbb2-4ba9-9166-4596f9f52955","ios":"levelo://app?vid=88320fcc-dbb2-4ba9-9166-4596f9f52955"},"vehicle_type_id":"4","last_reported":1728998302,"current_range_meters":32000,"station_id":"ce4bgr92rcd13ifvqc6g","pricing_plan_id":"cebpf4jnsgd1na2vs0mg"},{"bike_id":"4d423de8-5e22-441a-8848-ae5dc9d8eb39","system_id":"levelo_inurba_marseille","lat":43.33762,"lon":5.37465,"is_reserved":false,"is_disabled":false,"rental_uris":{"android":"levelo://app?vid=4d423de8-5e22-441a-8848-ae5dc9d8eb39","ios":"levelo://app?vid=4d423de8-5e22-441a-8848-ae5dc9d8eb39"},"vehicle_type_id":"4","last_reported":1728998302,"current_range_meters":12800,"station_id":"","pricing_plan_id":"cebpf4jnsgd1na2vs0mg"},{"bike_id":"4797564a-effd-45d2-b2fe-02d1b7f531c1","system_id":"levelo_inurba_marseille","lat":43.24387,"lon":5.37064,"is_reserved":false,"is_disabled":false,"rental_uris":{"android":"levelo://app?vid=4797564a-effd-45d2-b2fe-02d1b7f531c1","ios":"levelo://app?vid=4797564a-effd-45d2-b2fe-02d1b7f531c1"},"vehicle_type_id":"4","last_reported":1728998302,"current_range_meters":32000,"station_id":"ce4bhhh2rcd13ifvqfk0","pricing_plan_id":"cebpf4jnsgd1na2vs0mg"},{"bike_id":"bf705c15-9012-4515-898d-7edcc57ff2f9","system_id":"levelo_inurba_marseille","lat":43.26786,"lon":5.39414,"is_reserved":false,"is_disabled":false,"rental_uris":{"android":"levelo://app?vid=bf705c15-9012-4515-898d-7edcc57ff2f9","ios":"levelo://app?vid=bf705c15-9012-4515-898d-7edcc57ff2f9"},"vehicle_type_id":"4","last_reported":1728998302,"current_range_meters":33600,"station_id":"ce4bhh12rcd13ifvqfg0","pricing_plan_id":"cebpf4jnsgd1na2vs0mg"},{"bike_id":"8f1473c8-5614-4fe5-9a08-5f8d5d6a0adb","system_id":"levelo_inurba_marseille","lat":43.32109,"lon":5.36766,"is_reserved":false,"is_disabled":false,"rental_uris":{"android":"levelo://app?vid=8f1473c8-5614-4fe5-9a08-5f8d5d6a0adb","ios":"levelo://app?vid=8f1473c8-5614-4fe5-9a08-5f8d5d6a0adb"},"vehicle_type_id":"4","last_reported":1728998302,"current_range_meters":26800,"station_id":"ce4bhrh2rcd13ifvqhug","pricing_plan_id":"cebpf4jnsgd1na2vs0mg"},{"bike_id":"309d8eee-7f02-4317-bce5-0dc624e6b716","system_id":"levelo_inurba_marseille","lat":43.2827,"lon":5.35073,"is_reserved":false,"is_disabled":false,"rental_uris":{"android":"levelo://app?vid=309d8eee-7f02-4317-bce5-0dc624e6b716","ios":"levelo://app?vid=309d8eee-7f02-4317-bce5-0dc624e6b716"},"vehicle_type_id":"4","last_reported":1728998302,"current_range_meters":20400,"station_id":"ce4bhbp2rcd13ifvqerg","pricing_plan_id":"cebpf4jnsgd1na2vs0mg"},{"bike_id":"06bd8e3b-65e1-4389-97a4-35fe24bebce2","system_id":"levelo_inurba_marseille","lat":43.29552,"lon":5.42294,"is_reserved":false,"is_disabled":false,"rental_uris":{"android":"levelo://app?vid=06bd8e3b-65e1-4389-97a4-35fe24bebce2","ios":"levelo://app?vid=06bd8e3b-65e1-4389-97a4-35fe24bebce2"},"vehicle_type_id":"4","last_reported":1728998302,"current_range_meters":8400,"station_id":"ce4bhph2rcd13ifvqhdg","pricing_plan_id":"cebpf4jnsgd1na2vs0mg"},{"bike_id":"ccd9937e-6fc7-4e76-8911-2473664fc3bb","system_id":"levelo_inurba_marseille","lat":43.30421,"lon":5.41279,"is_reserved":false,"is_disabled":false,"rental_uris":{"android":"levelo://app?vid=ccd9937e-6fc7-4e76-8911-2473664fc3bb","ios":"levelo://app?vid=ccd9937e-6fc7-4e76-8911-2473664fc3bb"},"vehicle_type_id":"4","last_reported":1728998302,"current_range_meters":19600,"station_id":"ce4bhop2rcd13ifvqh8g","pricing_plan_id":"cebpf4jnsgd1na2vs0mg"},{"bike_id":"bd391cf2-447e-4a41-af6b-1e995770300a","system_id":"levelo_inurba_marseille","lat":43.23193,"lon":5.35554,"is_reserved":false,"is_disabled":false,"rental_uris":{"android":"levelo://app?vid=bd391cf2-447e-4a41-af6b-1e995770300a","ios":"levelo://app?vid=bd391cf2-447e-4a41-af6b-1e995770300a"},"vehicle_type_id":"4","last_reported":1728998302,"current_range_meters":3200,"station_id":"ce4bhu92rcd13ifvqi70","pricing_plan_id":"cebpf4jnsgd1na2vs0mg"},{"bike_id":"96092fee-06da-45b2-86fa-47241d3901c7","system_id":"levelo_inurba_marseille","lat":43.33776,"lon":5.3747,"is_reserved":false,"is_disabled":false,"rental_uris":{"android":"levelo://app?vid=96092fee-06da-45b2-86fa-47241d3901c7","ios":"levelo://app?vid=96092fee-06da-45b2-86fa-47241d3901c7"},"vehicle_type_id":"4","last_reported":1728998302,"current_range_meters":36800,"station_id":"","pricing_plan_id":"cebpf4jnsgd1na2vs0mg"},{"bike_id":"9c75a2c9-809f-4518-b812-6dfc1ac280df","system_id":"levelo_inurba_marseille","lat":43.2512,"lon":5.40321,"is_reserved":false,"is_disabled":false,"rental_uris":{"android":"levelo://app?vid=9c75a2c9-809f-4518-b812-6dfc1ac280df","ios":"levelo://app?vid=9c75a2c9-809f-4518-b812-6dfc1ac280df"},"vehicle_type_id":"4","last_reported":1728998302,"current_range_meters":24400,"station_id":"ce4bhlh2rcd13ifvqgig","pricing_plan_id":"cebpf4jnsgd1na2vs0mg"},{"bike_id":"ad4a1f6c-5ae6-4eb9-a7df-f87bad93c72d","system_id":"levelo_inurba_marseille","lat":43.27494,"lon":5.42456,"is_reserved":false,"is_disabled":false,"rental_uris":{"android":"levelo://app?vid=ad4a1f6c-5ae6-4eb9-a7df-f87bad93c72d","ios":"levelo://app?vid=ad4a1f6c-5ae6-4eb9-a7df-f87bad93c72d"},"vehicle_type_id":"4","last_reported":1728998302,"current_range_meters":18800,"station_id":"ce4bhn92rcd13ifvqgrg","pricing_plan_id":"cebpf4jnsgd1na2vs0mg"},{"bike_id":"1158c210-627c-48e4-8610-f1e3d0d2f830","system_id":"levelo_inurba_marseille","lat":43.29722,"lon":5.37712,"is_reserved":false,"is_disabled":false,"rental_uris":{"android":"levelo://app?vid=1158c210-627c-48e4-8610-f1e3d0d2f830","ios":"levelo://app?vid=1158c210-627c-48e4-8610-f1e3d0d2f830"},"vehicle_type_id":"4","last_reported":1728998302,"current_range_meters":24400,"station_id":"","pricing_plan_id":"cebpf4jnsgd1na2vs0mg"},{"bike_id":"68feb18a-64ff-4a0e-ac27-8530ff76c845","system_id":"levelo_inurba_marseille","lat":43.28258,"lon":5.35064,"is_reserved":false,"is_disabled":false,"rental_uris":{"android":"levelo://app?vid=68feb18a-64ff-4a0e-ac27-8530ff76c845","ios":"levelo://app?vid=68feb18a-64ff-4a0e-ac27-8530ff76c845"},"vehicle_type_id":"4","last_reported":1728998302,"current_range_meters":12800,"station_id":"ce4bhbp2rcd13ifvqerg","pricing_plan_id":"cebpf4jnsgd1na2vs0mg"},{"bike_id":"270599d1-daf7-4469-bdc1-bd64a30d5cd0","system_id":"levelo_inurba_marseille","lat":43.28417,"lon":5.34981,"is_reserved":false,"is_disabled":false,"rental_uris":{"android":"levelo://app?vid=270599d1-daf7-4469-bdc1-bd64a30d5cd0","ios":"levelo://app?vid=270599d1-daf7-4469-bdc1-bd64a30d5cd0"},"vehicle_type_id":"4","last_reported":1728998302,"current_range_meters":35600,"station_id":"ce4bhbh2rcd13ifvqepg","pricing_plan_id":"cebpf4jnsgd1na2vs0mg"},{"bike_id":"291b0845-2806-4152-befb-e692c1c7c93c","system_id":"levelo_inurba_marseille","lat":43.32542,"lon":5.41423,"is_reserved":false,"is_disabled":false,"rental_uris":{"android":"levelo://app?vid=291b0845-2806-4152-befb-e692c1c7c93c","ios":"levelo://app?vid=291b0845-2806-4152-befb-e692c1c7c93c"},"vehicle_type_id":"4","last_reported":1728998302,"current_range_meters":30400,"station_id":"ce4bhq12rcd13ifvqhhg","pricing_plan_id":"cebpf4jnsgd1na2vs0mg"},{"bike_id":"fc18448d-25be-44bf-9829-b9ab23d12464","system_id":"levelo_inurba_marseille","lat":43.24077,"lon":5.37754,"is_reserved":false,"is_disabled":false,"rental_uris":{"android":"levelo://app?vid=fc18448d-25be-44bf-9829-b9ab23d12464","ios":"levelo://app?vid=fc18448d-25be-44bf-9829-b9ab23d12464"},"vehicle_type_id":"4","last_reported":1728998302,"current_range_meters":6800,"station_id":"ce4bhnp2rcd13ifvqgvg","pricing_plan_id":"cebpf4jnsgd1na2vs0mg"},{"bike_id":"95cb9a8d-10b6-4a80-a31c-12a7e295dfb5","system_id":"levelo_inurba_marseille","lat":43.27998,"lon":5.40008,"is_reserved":false,"is_disabled":false,"rental_uris":{"android":"levelo://app?vid=95cb9a8d-10b6-4a80-a31c-12a7e295dfb5","ios":"levelo://app?vid=95cb9a8d-10b6-4a80-a31c-12a7e295dfb5"},"vehicle_type_id":"4","last_reported":1728998302,"current_range_meters":4800,"station_id":"ce4bho92rcd13ifvqh4g","pricing_plan_id":"cebpf4jnsgd1na2vs0mg"},{"bike_id":"5cc92726-a09d-4ddd-b1df-d12c813888b5","system_id":"levelo_inurba_marseille","lat":43.31702,"lon":5.40475,"is_reserved":false,"is_disabled":false,"rental_uris":{"android":"levelo://app?vid=5cc92726-a09d-4ddd-b1df-d12c813888b5","ios":"levelo://app?vid=5cc92726-a09d-4ddd-b1df-d12c813888b5"},"vehicle_type_id":"4","last_reported":1728998302,"current_range_meters":36000,"station_id":"ce4bh012rcd13ifvqd00","pricing_plan_id":"cebpf4jnsgd1na2vs0mg"},{"bike_id":"2140b6a3-5118-4150-823e-9225aeb56201","system_id":"levelo_inurba_marseille","lat":43.23187,"lon":5.35546,"is_reserved":false,"is_disabled":false,"rental_uris":{"android":"levelo://app?vid=2140b6a3-5118-4150-823e-9225aeb56201","ios":"levelo://app?vid=2140b6a3-5118-4150-823e-9225aeb56201"},"vehicle_type_id":"4","last_reported":1728998302,"current_range_meters":8400,"station_id":"ce4bhu92rcd13ifvqi70","pricing_plan_id":"cebpf4jnsgd1na2vs0mg"},{"bike_id":"e3cbcef4-d60f-435c-9dbe-9a82b74d83a2","system_id":"levelo_inurba_marseille","lat":43.2894,"lon":5.39636,"is_reserved":false,"is_disabled":false,"rental_uris":{"android":"levelo://app?vid=e3cbcef4-d60f-435c-9dbe-9a82b74d83a2","ios":"levelo://app?vid=e3cbcef4-d60f-435c-9dbe-9a82b74d83a2"},"vehicle_type_id":"4","last_reported":1728998302,"current_range_meters":33200,"station_id":"ce4bh3h2rcd13ifvqdn0","pricing_plan_id":"cebpf4jnsgd1na2vs0mg"},{"bike_id":"0d8bd227-6461-4af4-a8b3-bad4837d9899","system_id":"levelo_inurba_marseille","lat":43.30533,"lon":5.36534,"is_reserved":false,"is_disabled":false,"rental_uris":{"android":"levelo://app?vid=0d8bd227-6461-4af4-a8b3-bad4837d9899","ios":"levelo://app?vid=0d8bd227-6461-4af4-a8b3-bad4837d9899"},"vehicle_type_id":"4","last_reported":1728998302,"current_range_meters":8000,"station_id":"ce4bgs12rcd13ifvqcag","pricing_plan_id":"cebpf4jnsgd1na2vs0mg"},{"bike_id":"577845d5-47c5-4ab4-92e9-ce5c19e0c183","system_id":"levelo_inurba_marseille","lat":43.28665,"lon":5.36358,"is_reserved":false,"is_disabled":false,"rental_uris":{"android":"levelo://app?vid=577845d5-47c5-4ab4-92e9-ce5c19e0c183","ios":"levelo://app?vid=577845d5-47c5-4ab4-92e9-ce5c19e0c183"},"vehicle_type_id":"4","last_reported":1728998302,"current_range_meters":37600,"station_id":"ce4bhah2rcd13ifvqej0","pricing_plan_id":"cebpf4jnsgd1na2vs0mg"},{"bike_id":"74f1cfff-7b8b-485d-9399-c98aa88f7f21","system_id":"levelo_inurba_marseille","lat":43.289515,"lon":5.364012,"is_reserved":false,"is_disabled":false,"rental_uris":{"android":"levelo://app?vid=74f1cfff-7b8b-485d-9399-c98aa88f7f21","ios":"levelo://app?vid=74f1cfff-7b8b-485d-9399-c98aa88f7f21"},"vehicle_type_id":"4","last_reported":1728998302,"current_range_meters":24400,"station_id":"ce4bhc92rcd13ifvqetg","pricing_plan_id":"cebpf4jnsgd1na2vs0mg"},{"bike_id":"3535e9f5-f9fb-49dd-9c21-f549edafad0d","system_id":"levelo_inurba_marseille","lat":43.2481,"lon":5.37459,"is_reserved":false,"is_disabled":false,"rental_uris":{"android":"levelo://app?vid=3535e9f5-f9fb-49dd-9c21-f549edafad0d","ios":"levelo://app?vid=3535e9f5-f9fb-49dd-9c21-f549edafad0d"},"vehicle_type_id":"4","last_reported":1728998302,"current_range_meters":12400,"station_id":"ce4bhgh2rcd13ifvqfb0","pricing_plan_id":"cebpf4jnsgd1na2vs0mg"},{"bike_id":"32f57965-98a3-4347-b445-344deea3b5b5","system_id":"levelo_inurba_marseille","lat":43.28269,"lon":5.35066,"is_reserved":false,"is_disabled":false,"rental_uris":{"android":"levelo://app?vid=32f57965-98a3-4347-b445-344deea3b5b5","ios":"levelo://app?vid=32f57965-98a3-4347-b445-344deea3b5b5"},"vehicle_type_id":"4","last_reported":1728998302,"current_range_meters":14000,"station_id":"ce4bhbp2rcd13ifvqerg","pricing_plan_id":"cebpf4jnsgd1na2vs0mg"},{"bike_id":"c2b0a175-6d41-43fb-b10e-99347ca2d95f","system_id":"levelo_inurba_marseille","lat":43.27495,"lon":5.42454,"is_reserved":false,"is_disabled":false,"rental_uris":{"android":"levelo://app?vid=c2b0a175-6d41-43fb-b10e-99347ca2d95f","ios":"levelo://app?vid=c2b0a175-6d41-43fb-b10e-99347ca2d95f"},"vehicle_type_id":"4","last_reported":1728998302,"current_range_meters":9600,"station_id":"ce4bhn92rcd13ifvqgrg","pricing_plan_id":"cebpf4jnsgd1na2vs0mg"},{"bike_id":"5434561d-f6d9-42c0-967a-fdbc0a41f93f","system_id":"levelo_inurba_marseille","lat":43.30795,"lon":5.38156,"is_reserved":false,"is_disabled":false,"rental_uris":{"android":"levelo://app?vid=5434561d-f6d9-42c0-967a-fdbc0a41f93f","ios":"levelo://app?vid=5434561d-f6d9-42c0-967a-fdbc0a41f93f"},"vehicle_type_id":"4","last_reported":1728998302,"current_range_meters":38400,"station_id":"ce4bgt12rcd13ifvqce0","pricing_plan_id":"cebpf4jnsgd1na2vs0mg"},{"bike_id":"3cae6dbf-2f90-4eb1-a647-739d29c4291d","system_id":"levelo_inurba_marseille","lat":43.27057,"lon":5.40263,"is_reserved":false,"is_disabled":false,"rental_uris":{"android":"levelo://app?vid=3cae6dbf-2f90-4eb1-a647-739d29c4291d","ios":"levelo://app?vid=3cae6dbf-2f90-4eb1-a647-739d29c4291d"},"vehicle_type_id":"4","last_reported":1728998302,"current_range_meters":37600,"station_id":"ce4bhk92rcd13ifvqgc0","pricing_plan_id":"cebpf4jnsgd1na2vs0mg"},{"bike_id":"db6838de-a3b1-42be-a394-4d5edc4900c5","system_id":"levelo_inurba_marseille","lat":43.28943,"lon":5.36642,"is_reserved":false,"is_disabled":false,"rental_uris":{"android":"levelo://app?vid=db6838de-a3b1-42be-a394-4d5edc4900c5","ios":"levelo://app?vid=db6838de-a3b1-42be-a394-4d5edc4900c5"},"vehicle_type_id":"4","last_reported":1728998302,"current_range_meters":27200,"station_id":"ce4bhap2rcd13ifvqek0","pricing_plan_id":"cebpf4jnsgd1na2vs0mg"},{"bike_id":"c41c4bd6-4e68-420e-b205-f8c962247a74","system_id":"levelo_inurba_marseille","lat":43.24387,"lon":5.37052,"is_reserved":false,"is_disabled":false,"rental_uris":{"android":"levelo://app?vid=c41c4bd6-4e68-420e-b205-f8c962247a74","ios":"levelo://app?vid=c41c4bd6-4e68-420e-b205-f8c962247a74"},"vehicle_type_id":"4","last_reported":1728998302,"current_range_meters":13600,"station_id":"ce4bhhh2rcd13ifvqfk0","pricing_plan_id":"cebpf4jnsgd1na2vs0mg"},{"bike_id":"7c5cd746-44c0-497e-b686-cbca047f431d","system_id":"levelo_inurba_marseille","lat":43.28265,"lon":5.35062,"is_reserved":false,"is_disabled":false,"rental_uris":{"android":"levelo://app?vid=7c5cd746-44c0-497e-b686-cbca047f431d","ios":"levelo://app?vid=7c5cd746-44c0-497e-b686-cbca047f431d"},"vehicle_type_id":"4","last_reported":1728998302,"current_range_meters":8000,"station_id":"ce4bhbp2rcd13ifvqerg","pricing_plan_id":"cebpf4jnsgd1na2vs0mg"},{"bike_id":"e9d42937-a4b2-4a84-a233-384773796211","system_id":"levelo_inurba_marseille","lat":43.2593,"lon":5.40914,"is_reserved":false,"is_disabled":false,"rental_uris":{"android":"levelo://app?vid=e9d42937-a4b2-4a84-a233-384773796211","ios":"levelo://app?vid=e9d42937-a4b2-4a84-a233-384773796211"},"vehicle_type_id":"4","last_reported":1728998302,"current_range_meters":19600,"station_id":"ce4bhm92rcd13ifvqglg","pricing_plan_id":"cebpf4jnsgd1na2vs0mg"},{"bike_id":"489ea90a-ed29-45ea-a217-b11d32d983c9","system_id":"levelo_inurba_marseille","lat":43.32661,"lon":5.40998,"is_reserved":false,"is_disabled":false,"rental_uris":{"android":"levelo://app?vid=489ea90a-ed29-45ea-a217-b11d32d983c9","ios":"levelo://app?vid=489ea90a-ed29-45ea-a217-b11d32d983c9"},"vehicle_type_id":"4","last_reported":1728998302,"current_range_meters":6000,"station_id":"ce4bhpp2rcd13ifvqhgg","pricing_plan_id":"cebpf4jnsgd1na2vs0mg"},{"bike_id":"728973a7-fffc-4dcb-a566-e76afa5087d5","system_id":"levelo_inurba_marseille","lat":43.24385,"lon":5.37059,"is_reserved":false,"is_disabled":false,"rental_uris":{"android":"levelo://app?vid=728973a7-fffc-4dcb-a566-e76afa5087d5","ios":"levelo://app?vid=728973a7-fffc-4dcb-a566-e76afa5087d5"},"vehicle_type_id":"4","last_reported":1728998302,"current_range_meters":40000,"station_id":"ce4bhhh2rcd13ifvqfk0","pricing_plan_id":"cebpf4jnsgd1na2vs0mg"},{"bike_id":"e01e41b6-906b-4d38-bd47-8409331ef9cb","system_id":"levelo_inurba_marseille","lat":43.24168,"lon":5.36388,"is_reserved":false,"is_disabled":false,"rental_uris":{"android":"levelo://app?vid=e01e41b6-906b-4d38-bd47-8409331ef9cb","ios":"levelo://app?vid=e01e41b6-906b-4d38-bd47-8409331ef9cb"},"vehicle_type_id":"4","last_reported":1728998302,"current_range_meters":32800,"station_id":"cpo36qri1sfpv3e86is0","pricing_plan_id":"cebpf4jnsgd1na2vs0mg"},{"bike_id":"4e49b3ba-7b50-4b5e-ab0f-de49337ae2d0","system_id":"levelo_inurba_marseille","lat":43.24073,"lon":5.37762,"is_reserved":false,"is_disabled":false,"rental_uris":{"android":"levelo://app?vid=4e49b3ba-7b50-4b5e-ab0f-de49337ae2d0","ios":"levelo://app?vid=4e49b3ba-7b50-4b5e-ab0f-de49337ae2d0"},"vehicle_type_id":"4","last_reported":1728998302,"current_range_meters":14400,"station_id":"ce4bhnp2rcd13ifvqgvg","pricing_plan_id":"cebpf4jnsgd1na2vs0mg"},{"bike_id":"89211ee2-076f-4df3-92bd-cd8885f2e76d","system_id":"levelo_inurba_marseille","lat":43.23194,"lon":5.35555,"is_reserved":false,"is_disabled":false,"rental_uris":{"android":"levelo://app?vid=89211ee2-076f-4df3-92bd-cd8885f2e76d","ios":"levelo://app?vid=89211ee2-076f-4df3-92bd-cd8885f2e76d"},"vehicle_type_id":"4","last_reported":1728998302,"current_range_meters":39200,"station_id":"ce4bhu92rcd13ifvqi70","pricing_plan_id":"cebpf4jnsgd1na2vs0mg"},{"bike_id":"9dabbb9f-2820-49db-acc7-73662a324005","system_id":"levelo_inurba_marseille","lat":43.33713,"lon":5.39187,"is_reserved":false,"is_disabled":false,"rental_uris":{"android":"levelo://app?vid=9dabbb9f-2820-49db-acc7-73662a324005","ios":"levelo://app?vid=9dabbb9f-2820-49db-acc7-73662a324005"},"vehicle_type_id":"4","last_reported":1728998302,"current_range_meters":36800,"station_id":"ce4bhr92rcd13ifvqhsg","pricing_plan_id":"cebpf4jnsgd1na2vs0mg"},{"bike_id":"dad6a864-cf3f-478b-a951-b084c521c606","system_id":"levelo_inurba_marseille","lat":43.26786,"lon":5.39418,"is_reserved":false,"is_disabled":false,"rental_uris":{"android":"levelo://app?vid=dad6a864-cf3f-478b-a951-b084c521c606","ios":"levelo://app?vid=dad6a864-cf3f-478b-a951-b084c521c606"},"vehicle_type_id":"4","last_reported":1728998302,"current_range_meters":27600,"station_id":"ce4bhh12rcd13ifvqfg0","pricing_plan_id":"cebpf4jnsgd1na2vs0mg"},{"bike_id":"3ec1f88a-d5cc-46ce-a14a-989089531e8a","system_id":"levelo_inurba_marseille","lat":43.28079,"lon":5.3965,"is_reserved":false,"is_disabled":false,"rental_uris":{"android":"levelo://app?vid=3ec1f88a-d5cc-46ce-a14a-989089531e8a","ios":"levelo://app?vid=3ec1f88a-d5cc-46ce-a14a-989089531e8a"},"vehicle_type_id":"4","last_reported":1728998302,"current_range_meters":38000,"station_id":"ce4bho12rcd13ifvqh2g","pricing_plan_id":"cebpf4jnsgd1na2vs0mg"},{"bike_id":"6999663e-6e52-453c-82ff-3f496204d697","system_id":"levelo_inurba_marseille","lat":43.30543,"lon":5.36547,"is_reserved":false,"is_disabled":false,"rental_uris":{"android":"levelo://app?vid=6999663e-6e52-453c-82ff-3f496204d697","ios":"levelo://app?vid=6999663e-6e52-453c-82ff-3f496204d697"},"vehicle_type_id":"4","last_reported":1728998302,"current_range_meters":36800,"station_id":"ce4bgs12rcd13ifvqcag","pricing_plan_id":"cebpf4jnsgd1na2vs0mg"},{"bike_id":"4e293023-3193-4b9f-aa3f-9b4d8fee48d4","system_id":"levelo_inurba_marseille","lat":43.29026,"lon":5.38644,"is_reserved":false,"is_disabled":false,"rental_uris":{"android":"levelo://app?vid=4e293023-3193-4b9f-aa3f-9b4d8fee48d4","ios":"levelo://app?vid=4e293023-3193-4b9f-aa3f-9b4d8fee48d4"},"vehicle_type_id":"4","last_reported":1728998302,"current_range_meters":16000,"station_id":"ce4bh4p2rcd13ifvqe0g","pricing_plan_id":"cebpf4jnsgd1na2vs0mg"},{"bike_id":"04d3ba4c-4f72-410b-acd8-db73db020385","system_id":"levelo_inurba_marseille","lat":43.299,"lon":5.38137,"is_reserved":false,"is_disabled":false,"rental_uris":{"android":"levelo://app?vid=04d3ba4c-4f72-410b-acd8-db73db020385","ios":"levelo://app?vid=04d3ba4c-4f72-410b-acd8-db73db020385"},"vehicle_type_id":"4","last_reported":1728998302,"current_range_meters":37600,"station_id":"ce4bgj12rcd13ifvqbc0","pricing_plan_id":"cebpf4jnsgd1na2vs0mg"},{"bike_id":"efccc900-ae8e-4118-8cf2-27ba7ca4f0b8","system_id":"levelo_inurba_marseille","lat":43.2627,"lon":5.39662,"is_reserved":false,"is_disabled":false,"rental_uris":{"android":"levelo://app?vid=efccc900-ae8e-4118-8cf2-27ba7ca4f0b8","ios":"levelo://app?vid=efccc900-ae8e-4118-8cf2-27ba7ca4f0b8"},"vehicle_type_id":"4","last_reported":1728998302,"current_range_meters":25600,"station_id":"","pricing_plan_id":"cebpf4jnsgd1na2vs0mg"},{"bike_id":"93fd36a3-3526-4669-8f38-7e986995aa43","system_id":"levelo_inurba_marseille","lat":43.27182,"lon":5.40998,"is_reserved":false,"is_disabled":false,"rental_uris":{"android":"levelo://app?vid=93fd36a3-3526-4669-8f38-7e986995aa43","ios":"levelo://app?vid=93fd36a3-3526-4669-8f38-7e986995aa43"},"vehicle_type_id":"4","last_reported":1728998302,"current_range_meters":17200,"station_id":"ce4bhl12rcd13ifvqgf0","pricing_plan_id":"cebpf4jnsgd1na2vs0mg"},{"bike_id":"0eb49119-532c-4336-9f69-77d724895ef1","system_id":"levelo_inurba_marseille","lat":43.29193,"lon":5.358,"is_reserved":false,"is_disabled":false,"rental_uris":{"android":"levelo://app?vid=0eb49119-532c-4336-9f69-77d724895ef1","ios":"levelo://app?vid=0eb49119-532c-4336-9f69-77d724895ef1"},"vehicle_type_id":"4","last_reported":1728998302,"current_range_meters":20000,"station_id":"ce4bhb12rcd13ifvqel0","pricing_plan_id":"cebpf4jnsgd1na2vs0mg"},{"bike_id":"6805e279-dd49-41bf-b594-46922953a007","system_id":"levelo_inurba_marseille","lat":43.28261,"lon":5.35071,"is_reserved":false,"is_disabled":false,"rental_uris":{"android":"levelo://app?vid=6805e279-dd49-41bf-b594-46922953a007","ios":"levelo://app?vid=6805e279-dd49-41bf-b594-46922953a007"},"vehicle_type_id":"4","last_reported":1728998302,"current_range_meters":17600,"station_id":"ce4bhbp2rcd13ifvqerg","pricing_plan_id":"cebpf4jnsgd1na2vs0mg"},{"bike_id":"7a4a2c7a-5bc9-4d88-96fe-66428cd6e2fb","system_id":"levelo_inurba_marseille","lat":43.27813,"lon":5.40713,"is_reserved":false,"is_disabled":false,"rental_uris":{"android":"levelo://app?vid=7a4a2c7a-5bc9-4d88-96fe-66428cd6e2fb","ios":"levelo://app?vid=7a4a2c7a-5bc9-4d88-96fe-66428cd6e2fb"},"vehicle_type_id":"4","last_reported":1728998302,"current_range_meters":34000,"station_id":"ce4bhnh2rcd13ifvqgtg","pricing_plan_id":"cebpf4jnsgd1na2vs0mg"},{"bike_id":"7dc5431c-21e0-4719-92de-ca2cb5a94fd3","system_id":"levelo_inurba_marseille","lat":43.2408,"lon":5.3775,"is_reserved":false,"is_disabled":false,"rental_uris":{"android":"levelo://app?vid=7dc5431c-21e0-4719-92de-ca2cb5a94fd3","ios":"levelo://app?vid=7dc5431c-21e0-4719-92de-ca2cb5a94fd3"},"vehicle_type_id":"4","last_reported":1728998302,"current_range_meters":16000,"station_id":"ce4bhnp2rcd13ifvqgvg","pricing_plan_id":"cebpf4jnsgd1na2vs0mg"},{"bike_id":"9c4870ef-8189-49c9-8051-0aef7043e5cd","system_id":"levelo_inurba_marseille","lat":43.25938,"lon":5.40906,"is_reserved":false,"is_disabled":false,"rental_uris":{"android":"levelo://app?vid=9c4870ef-8189-49c9-8051-0aef7043e5cd","ios":"levelo://app?vid=9c4870ef-8189-49c9-8051-0aef7043e5cd"},"vehicle_type_id":"4","last_reported":1728998302,"current_range_meters":3600,"station_id":"ce4bhm92rcd13ifvqglg","pricing_plan_id":"cebpf4jnsgd1na2vs0mg"},{"bike_id":"9ed8810b-5cba-4de9-b1e4-0a09bcb33b3b","system_id":"levelo_inurba_marseille","lat":43.32537,"lon":5.41455,"is_reserved":false,"is_disabled":false,"rental_uris":{"android":"levelo://app?vid=9ed8810b-5cba-4de9-b1e4-0a09bcb33b3b","ios":"levelo://app?vid=9ed8810b-5cba-4de9-b1e4-0a09bcb33b3b"},"vehicle_type_id":"4","last_reported":1728998302,"current_range_meters":38800,"station_id":"ce4bhq12rcd13ifvqhhg","pricing_plan_id":"cebpf4jnsgd1na2vs0mg"},{"bike_id":"70fc60a6-b8a1-49de-8a6e-1b532dfb0edc","system_id":"levelo_inurba_marseille","lat":43.3248,"lon":5.3657,"is_reserved":false,"is_disabled":false,"rental_uris":{"android":"levelo://app?vid=70fc60a6-b8a1-49de-8a6e-1b532dfb0edc","ios":"levelo://app?vid=70fc60a6-b8a1-49de-8a6e-1b532dfb0edc"},"vehicle_type_id":"4","last_reported":1728998302,"current_range_meters":10800,"station_id":"ce4bhs12rcd13ifvqhvg","pricing_plan_id":"cebpf4jnsgd1na2vs0mg"},{"bike_id":"bd3b69a7-a008-46cc-9a96-7324ca326d58","system_id":"levelo_inurba_marseille","lat":43.31757,"lon":5.39022,"is_reserved":false,"is_disabled":false,"rental_uris":{"android":"levelo://app?vid=bd3b69a7-a008-46cc-9a96-7324ca326d58","ios":"levelo://app?vid=bd3b69a7-a008-46cc-9a96-7324ca326d58"},"vehicle_type_id":"4","last_reported":1728998302,"current_range_meters":38800,"station_id":"ce4bhqp2rcd13ifvqhng","pricing_plan_id":"cebpf4jnsgd1na2vs0mg"},{"bike_id":"b6761712-cd33-437e-83c8-811ce3c1e59f","system_id":"levelo_inurba_marseille","lat":43.23963,"lon":5.36629,"is_reserved":false,"is_disabled":false,"rental_uris":{"android":"levelo://app?vid=b6761712-cd33-437e-83c8-811ce3c1e59f","ios":"levelo://app?vid=b6761712-cd33-437e-83c8-811ce3c1e59f"},"vehicle_type_id":"4","last_reported":1728998302,"current_range_meters":30800,"station_id":"ce4bhi12rcd13ifvqfp0","pricing_plan_id":"cebpf4jnsgd1na2vs0mg"},{"bike_id":"249e4c74-f4a7-480f-9d94-ad8e9d1e1327","system_id":"levelo_inurba_marseille","lat":43.3029,"lon":5.37697,"is_reserved":false,"is_disabled":false,"rental_uris":{"android":"levelo://app?vid=249e4c74-f4a7-480f-9d94-ad8e9d1e1327","ios":"levelo://app?vid=249e4c74-f4a7-480f-9d94-ad8e9d1e1327"},"vehicle_type_id":"4","last_reported":1728998302,"current_range_meters":26800,"station_id":"ce4bguh2rcd13ifvqcj0","pricing_plan_id":"cebpf4jnsgd1na2vs0mg"},{"bike_id":"6f47d289-9895-46aa-a611-f5456497740e","system_id":"levelo_inurba_marseille","lat":43.29618,"lon":5.37149,"is_reserved":false,"is_disabled":false,"rental_uris":{"android":"levelo://app?vid=6f47d289-9895-46aa-a611-f5456497740e","ios":"levelo://app?vid=6f47d289-9895-46aa-a611-f5456497740e"},"vehicle_type_id":"4","last_reported":1728998302,"current_range_meters":38800,"station_id":"ce4bgnh2rcd13ifvqc0g","pricing_plan_id":"cebpf4jnsgd1na2vs0mg"},{"bike_id":"37b72287-eb60-4ad0-9243-2c504db70295","system_id":"levelo_inurba_marseille","lat":43.27665,"lon":5.38899,"is_reserved":false,"is_disabled":false,"rental_uris":{"android":"levelo://app?vid=37b72287-eb60-4ad0-9243-2c504db70295","ios":"levelo://app?vid=37b72287-eb60-4ad0-9243-2c504db70295"},"vehicle_type_id":"4","last_reported":1728998302,"current_range_meters":38800,"station_id":"ce4bhi12rcd13ifvqfo0","pricing_plan_id":"cebpf4jnsgd1na2vs0mg"},{"bike_id":"ff96eee3-1ac8-4888-9ae7-e4b6cc8154af","system_id":"levelo_inurba_marseille","lat":43.33739,"lon":5.3746,"is_reserved":false,"is_disabled":false,"rental_uris":{"android":"levelo://app?vid=ff96eee3-1ac8-4888-9ae7-e4b6cc8154af","ios":"levelo://app?vid=ff96eee3-1ac8-4888-9ae7-e4b6cc8154af"},"vehicle_type_id":"4","last_reported":1728998302,"current_range_meters":33600,"station_id":"","pricing_plan_id":"cebpf4jnsgd1na2vs0mg"},{"bike_id":"7a1286d4-0627-4c56-8994-55995ee873c6","system_id":"levelo_inurba_marseille","lat":43.29783,"lon":5.371,"is_reserved":false,"is_disabled":false,"rental_uris":{"android":"levelo://app?vid=7a1286d4-0627-4c56-8994-55995ee873c6","ios":"levelo://app?vid=7a1286d4-0627-4c56-8994-55995ee873c6"},"vehicle_type_id":"4","last_reported":1728998302,"current_range_meters":26000,"station_id":"ce4bgop2rcd13ifvqc1g","pricing_plan_id":"cebpf4jnsgd1na2vs0mg"},{"bike_id":"ddd5af8a-0f19-49e8-b291-d1408413b89e","system_id":"levelo_inurba_marseille","lat":43.2418,"lon":5.39733,"is_reserved":false,"is_disabled":false,"rental_uris":{"android":"levelo://app?vid=ddd5af8a-0f19-49e8-b291-d1408413b89e","ios":"levelo://app?vid=ddd5af8a-0f19-49e8-b291-d1408413b89e"},"vehicle_type_id":"4","last_reported":1728998302,"current_range_meters":16800,"station_id":"ce4bhn12rcd13ifvqgpg","pricing_plan_id":"cebpf4jnsgd1na2vs0mg"},{"bike_id":"6fd011cd-9bc9-4cd6-bd8c-523d97b5ad24","system_id":"levelo_inurba_marseille","lat":43.30911,"lon":5.36849,"is_reserved":false,"is_disabled":false,"rental_uris":{"android":"levelo://app?vid=6fd011cd-9bc9-4cd6-bd8c-523d97b5ad24","ios":"levelo://app?vid=6fd011cd-9bc9-4cd6-bd8c-523d97b5ad24"},"vehicle_type_id":"4","last_reported":1728998302,"current_range_meters":38400,"station_id":"ce4bgn92rcd13ifvqbvg","pricing_plan_id":"cebpf4jnsgd1na2vs0mg"},{"bike_id":"0aa147e1-06c0-4bf4-a909-c75d490025c7","system_id":"levelo_inurba_marseille","lat":43.31233,"lon":5.36867,"is_reserved":false,"is_disabled":false,"rental_uris":{"android":"levelo://app?vid=0aa147e1-06c0-4bf4-a909-c75d490025c7","ios":"levelo://app?vid=0aa147e1-06c0-4bf4-a909-c75d490025c7"},"vehicle_type_id":"4","last_reported":1728998302,"current_range_meters":16800,"station_id":"ce4bgl92rcd13ifvqbq0","pricing_plan_id":"cebpf4jnsgd1na2vs0mg"},{"bike_id":"b12eb05d-abfa-4a30-bbad-9e31b12be630","system_id":"levelo_inurba_marseille","lat":43.337444,"lon":5.374475,"is_reserved":false,"is_disabled":false,"rental_uris":{"android":"levelo://app?vid=b12eb05d-abfa-4a30-bbad-9e31b12be630","ios":"levelo://app?vid=b12eb05d-abfa-4a30-bbad-9e31b12be630"},"vehicle_type_id":"4","last_reported":1728998302,"current_range_meters":6400,"station_id":"","pricing_plan_id":"cebpf4jnsgd1na2vs0mg"},{"bike_id":"6a67f872-f498-43d8-ad44-0ba73f03bb62","system_id":"levelo_inurba_marseille","lat":43.34146,"lon":5.40905,"is_reserved":false,"is_disabled":false,"rental_uris":{"android":"levelo://app?vid=6a67f872-f498-43d8-ad44-0ba73f03bb62","ios":"levelo://app?vid=6a67f872-f498-43d8-ad44-0ba73f03bb62"},"vehicle_type_id":"4","last_reported":1728998302,"current_range_meters":9600,"station_id":"ce4bhqh2rcd13ifvqhlg","pricing_plan_id":"cebpf4jnsgd1na2vs0mg"},{"bike_id":"13aedf88-979f-428f-b572-5f880d4a1f19","system_id":"levelo_inurba_marseille","lat":43.3031,"lon":5.36901,"is_reserved":false,"is_disabled":false,"rental_uris":{"android":"levelo://app?vid=13aedf88-979f-428f-b572-5f880d4a1f19","ios":"levelo://app?vid=13aedf88-979f-428f-b572-5f880d4a1f19"},"vehicle_type_id":"4","last_reported":1728998302,"current_range_meters":31200,"station_id":"ce4bgqh2rcd13ifvqc5g","pricing_plan_id":"cebpf4jnsgd1na2vs0mg"},{"bike_id":"e8e8118d-3d5e-42fd-9096-f73e58a1fa57","system_id":"levelo_inurba_marseille","lat":43.29843,"lon":5.36263,"is_reserved":false,"is_disabled":false,"rental_uris":{"android":"levelo://app?vid=e8e8118d-3d5e-42fd-9096-f73e58a1fa57","ios":"levelo://app?vid=e8e8118d-3d5e-42fd-9096-f73e58a1fa57"},"vehicle_type_id":"4","last_reported":1728998302,"current_range_meters":33600,"station_id":"ce4bgpp2rcd13ifvqc3g","pricing_plan_id":"cebpf4jnsgd1na2vs0mg"},{"bike_id":"1e4c5241-8c7a-4405-9512-9c81a4f9abe9","system_id":"levelo_inurba_marseille","lat":43.26791,"lon":5.39412,"is_reserved":false,"is_disabled":false,"rental_uris":{"android":"levelo://app?vid=1e4c5241-8c7a-4405-9512-9c81a4f9abe9","ios":"levelo://app?vid=1e4c5241-8c7a-4405-9512-9c81a4f9abe9"},"vehicle_type_id":"4","last_reported":1728998302,"current_range_meters":4400,"station_id":"ce4bhh12rcd13ifvqfg0","pricing_plan_id":"cebpf4jnsgd1na2vs0mg"},{"bike_id":"8278a01f-5f4f-4b84-b165-86f7f8bc3070","system_id":"levelo_inurba_marseille","lat":43.30432,"lon":5.39752,"is_reserved":false,"is_disabled":false,"rental_uris":{"android":"levelo://app?vid=8278a01f-5f4f-4b84-b165-86f7f8bc3070","ios":"levelo://app?vid=8278a01f-5f4f-4b84-b165-86f7f8bc3070"},"vehicle_type_id":"4","last_reported":1728998302,"current_range_meters":36800,"station_id":"ce4bh092rcd13ifvqd20","pricing_plan_id":"cebpf4jnsgd1na2vs0mg"},{"bike_id":"292b9425-1372-40d4-bf0a-fe57aa779a41","system_id":"levelo_inurba_marseille","lat":43.23063,"lon":5.35495,"is_reserved":false,"is_disabled":false,"rental_uris":{"android":"levelo://app?vid=292b9425-1372-40d4-bf0a-fe57aa779a41","ios":"levelo://app?vid=292b9425-1372-40d4-bf0a-fe57aa779a41"},"vehicle_type_id":"4","last_reported":1728998302,"current_range_meters":33600,"station_id":"cpo3342slgdg3j2ifvpg","pricing_plan_id":"cebpf4jnsgd1na2vs0mg"},{"bike_id":"f1baba50-f384-4335-a052-af9eda4a52f0","system_id":"levelo_inurba_marseille","lat":43.24391,"lon":5.37053,"is_reserved":false,"is_disabled":false,"rental_uris":{"android":"levelo://app?vid=f1baba50-f384-4335-a052-af9eda4a52f0","ios":"levelo://app?vid=f1baba50-f384-4335-a052-af9eda4a52f0"},"vehicle_type_id":"4","last_reported":1728998302,"current_range_meters":39200,"station_id":"ce4bhhh2rcd13ifvqfk0","pricing_plan_id":"cebpf4jnsgd1na2vs0mg"},{"bike_id":"88598f63-0871-4fe2-9dcf-a97c7fbe86b7","system_id":"levelo_inurba_marseille","lat":43.31217,"lon":5.36859,"is_reserved":false,"is_disabled":false,"rental_uris":{"android":"levelo://app?vid=88598f63-0871-4fe2-9dcf-a97c7fbe86b7","ios":"levelo://app?vid=88598f63-0871-4fe2-9dcf-a97c7fbe86b7"},"vehicle_type_id":"4","last_reported":1728998302,"current_range_meters":35200,"station_id":"ce4bgl92rcd13ifvqbq0","pricing_plan_id":"cebpf4jnsgd1na2vs0mg"},{"bike_id":"e1d315a9-818f-42ee-a1ff-f0147df88741","system_id":"levelo_inurba_marseille","lat":43.25931,"lon":5.40909,"is_reserved":false,"is_disabled":false,"rental_uris":{"android":"levelo://app?vid=e1d315a9-818f-42ee-a1ff-f0147df88741","ios":"levelo://app?vid=e1d315a9-818f-42ee-a1ff-f0147df88741"},"vehicle_type_id":"4","last_reported":1728998302,"current_range_meters":5600,"station_id":"ce4bhm92rcd13ifvqglg","pricing_plan_id":"cebpf4jnsgd1na2vs0mg"},{"bike_id":"c4298285-757d-43d2-a4b0-257d5094266a","system_id":"levelo_inurba_marseille","lat":43.27994,"lon":5.41663,"is_reserved":false,"is_disabled":false,"rental_uris":{"android":"levelo://app?vid=c4298285-757d-43d2-a4b0-257d5094266a","ios":"levelo://app?vid=c4298285-757d-43d2-a4b0-257d5094266a"},"vehicle_type_id":"4","last_reported":1728998302,"current_range_meters":34800,"station_id":"ce4bho12rcd13ifvqh1g","pricing_plan_id":"cebpf4jnsgd1na2vs0mg"},{"bike_id":"ddf182d6-1581-4a2b-93a2-a8439f5687e3","system_id":"levelo_inurba_marseille","lat":43.29574,"lon":5.37528,"is_reserved":false,"is_disabled":false,"rental_uris":{"android":"levelo://app?vid=ddf182d6-1581-4a2b-93a2-a8439f5687e3","ios":"levelo://app?vid=ddf182d6-1581-4a2b-93a2-a8439f5687e3"},"vehicle_type_id":"4","last_reported":1728998302,"current_range_meters":30000,"station_id":"ce4bgh92rcd13ifvqb50","pricing_plan_id":"cebpf4jnsgd1na2vs0mg"},{"bike_id":"85eed02e-04a4-4e97-8c31-6374e9163790","system_id":"levelo_inurba_marseille","lat":43.28266,"lon":5.35068,"is_reserved":false,"is_disabled":false,"rental_uris":{"android":"levelo://app?vid=85eed02e-04a4-4e97-8c31-6374e9163790","ios":"levelo://app?vid=85eed02e-04a4-4e97-8c31-6374e9163790"},"vehicle_type_id":"4","last_reported":1728998302,"current_range_meters":24800,"station_id":"ce4bhbp2rcd13ifvqerg","pricing_plan_id":"cebpf4jnsgd1na2vs0mg"},{"bike_id":"d8597bf4-185f-46b0-9306-434905261110","system_id":"levelo_inurba_marseille","lat":43.282753,"lon":5.350737,"is_reserved":false,"is_disabled":false,"rental_uris":{"android":"levelo://app?vid=d8597bf4-185f-46b0-9306-434905261110","ios":"levelo://app?vid=d8597bf4-185f-46b0-9306-434905261110"},"vehicle_type_id":"4","last_reported":1728998302,"current_range_meters":39200,"station_id":"ce4bhbp2rcd13ifvqerg","pricing_plan_id":"cebpf4jnsgd1na2vs0mg"},{"bike_id":"9c0b0f8e-9baa-4c85-8415-00af32184222","system_id":"levelo_inurba_marseille","lat":43.31428,"lon":5.36963,"is_reserved":false,"is_disabled":false,"rental_uris":{"android":"levelo://app?vid=9c0b0f8e-9baa-4c85-8415-00af32184222","ios":"levelo://app?vid=9c0b0f8e-9baa-4c85-8415-00af32184222"},"vehicle_type_id":"4","last_reported":1728998302,"current_range_meters":22000,"station_id":"","pricing_plan_id":"cebpf4jnsgd1na2vs0mg"},{"bike_id":"40a459d4-edc3-48fa-b999-bbea4d628a0a","system_id":"levelo_inurba_marseille","lat":43.28263,"lon":5.35067,"is_reserved":false,"is_disabled":false,"rental_uris":{"android":"levelo://app?vid=40a459d4-edc3-48fa-b999-bbea4d628a0a","ios":"levelo://app?vid=40a459d4-edc3-48fa-b999-bbea4d628a0a"},"vehicle_type_id":"4","last_reported":1728998302,"current_range_meters":28000,"station_id":"ce4bhbp2rcd13ifvqerg","pricing_plan_id":"cebpf4jnsgd1na2vs0mg"},{"bike_id":"9cd1e99e-2c98-48a1-ac8b-5e948f0b8848","system_id":"levelo_inurba_marseille","lat":43.3135,"lon":5.36721,"is_reserved":false,"is_disabled":false,"rental_uris":{"android":"levelo://app?vid=9cd1e99e-2c98-48a1-ac8b-5e948f0b8848","ios":"levelo://app?vid=9cd1e99e-2c98-48a1-ac8b-5e948f0b8848"},"vehicle_type_id":"4","last_reported":1728998302,"current_range_meters":23200,"station_id":"ce4bgr92rcd13ifvqc6g","pricing_plan_id":"cebpf4jnsgd1na2vs0mg"},{"bike_id":"e42a5c5b-19d2-48bc-8dfc-c8514ef28621","system_id":"levelo_inurba_marseille","lat":43.24169,"lon":5.36399,"is_reserved":false,"is_disabled":false,"rental_uris":{"android":"levelo://app?vid=e42a5c5b-19d2-48bc-8dfc-c8514ef28621","ios":"levelo://app?vid=e42a5c5b-19d2-48bc-8dfc-c8514ef28621"},"vehicle_type_id":"4","last_reported":1728998302,"current_range_meters":25600,"station_id":"cpo36qri1sfpv3e86is0","pricing_plan_id":"cebpf4jnsgd1na2vs0mg"},{"bike_id":"10d82534-a77c-4708-9dcc-66ad19dddabb","system_id":"levelo_inurba_marseille","lat":43.30534,"lon":5.36559,"is_reserved":false,"is_disabled":false,"rental_uris":{"android":"levelo://app?vid=10d82534-a77c-4708-9dcc-66ad19dddabb","ios":"levelo://app?vid=10d82534-a77c-4708-9dcc-66ad19dddabb"},"vehicle_type_id":"4","last_reported":1728998302,"current_range_meters":9200,"station_id":"ce4bgs12rcd13ifvqcag","pricing_plan_id":"cebpf4jnsgd1na2vs0mg"},{"bike_id":"24cede75-40af-4017-bd22-1591dd2609a1","system_id":"levelo_inurba_marseille","lat":43.30423,"lon":5.39756,"is_reserved":false,"is_disabled":false,"rental_uris":{"android":"levelo://app?vid=24cede75-40af-4017-bd22-1591dd2609a1","ios":"levelo://app?vid=24cede75-40af-4017-bd22-1591dd2609a1"},"vehicle_type_id":"4","last_reported":1728998302,"current_range_meters":36800,"station_id":"ce4bh092rcd13ifvqd20","pricing_plan_id":"cebpf4jnsgd1na2vs0mg"},{"bike_id":"1989161d-8386-47b1-87a5-b86d93dc477e","system_id":"levelo_inurba_marseille","lat":43.25936,"lon":5.40915,"is_reserved":false,"is_disabled":false,"rental_uris":{"android":"levelo://app?vid=1989161d-8386-47b1-87a5-b86d93dc477e","ios":"levelo://app?vid=1989161d-8386-47b1-87a5-b86d93dc477e"},"vehicle_type_id":"4","last_reported":1728998302,"current_range_meters":33200,"station_id":"ce4bhm92rcd13ifvqglg","pricing_plan_id":"cebpf4jnsgd1na2vs0mg"},{"bike_id":"49f18cac-81c1-489e-a28a-319c63f9fb11","system_id":"levelo_inurba_marseille","lat":43.25817,"lon":5.39427,"is_reserved":false,"is_disabled":false,"rental_uris":{"android":"levelo://app?vid=49f18cac-81c1-489e-a28a-319c63f9fb11","ios":"levelo://app?vid=49f18cac-81c1-489e-a28a-319c63f9fb11"},"vehicle_type_id":"4","last_reported":1728998302,"current_range_meters":38800,"station_id":"ce4bhip2rcd13ifvqft0","pricing_plan_id":"cebpf4jnsgd1na2vs0mg"},{"bike_id":"1ed8a2c1-a662-45db-a794-fb8789da73fe","system_id":"levelo_inurba_marseille","lat":43.29166,"lon":5.37175,"is_reserved":false,"is_disabled":false,"rental_uris":{"android":"levelo://app?vid=1ed8a2c1-a662-45db-a794-fb8789da73fe","ios":"levelo://app?vid=1ed8a2c1-a662-45db-a794-fb8789da73fe"},"vehicle_type_id":"4","last_reported":1728998302,"current_range_meters":16400,"station_id":"ce4bha92rcd13ifvqeh0","pricing_plan_id":"cebpf4jnsgd1na2vs0mg"},{"bike_id":"b885364e-1174-4b47-a535-4a86a1ba170a","system_id":"levelo_inurba_marseille","lat":43.28104,"lon":5.37832,"is_reserved":false,"is_disabled":false,"rental_uris":{"android":"levelo://app?vid=b885364e-1174-4b47-a535-4a86a1ba170a","ios":"levelo://app?vid=b885364e-1174-4b47-a535-4a86a1ba170a"},"vehicle_type_id":"4","last_reported":1728998302,"current_range_meters":36800,"station_id":"ce4bha12rcd13ifvqee0","pricing_plan_id":"cebpf4jnsgd1na2vs0mg"},{"bike_id":"b5863d09-727b-46b5-bf24-7249441dc6ca","system_id":"levelo_inurba_marseille","lat":43.29218,"lon":5.36056,"is_reserved":false,"is_disabled":false,"rental_uris":{"android":"levelo://app?vid=b5863d09-727b-46b5-bf24-7249441dc6ca","ios":"levelo://app?vid=b5863d09-727b-46b5-bf24-7249441dc6ca"},"vehicle_type_id":"4","last_reported":1728998302,"current_range_meters":38400,"station_id":"ce4bhbh2rcd13ifvqeqg","pricing_plan_id":"cebpf4jnsgd1na2vs0mg"},{"bike_id":"32db0c1a-da44-43d2-84e8-ccd5d0e05718","system_id":"levelo_inurba_marseille","lat":43.27209,"lon":5.39176,"is_reserved":false,"is_disabled":false,"rental_uris":{"android":"levelo://app?vid=32db0c1a-da44-43d2-84e8-ccd5d0e05718","ios":"levelo://app?vid=32db0c1a-da44-43d2-84e8-ccd5d0e05718"},"vehicle_type_id":"4","last_reported":1728998302,"current_range_meters":22800,"station_id":"ce4bhhp2rcd13ifvqfm0","pricing_plan_id":"cebpf4jnsgd1na2vs0mg"},{"bike_id":"d06f24f3-1961-4c39-8b26-c72733863fe9","system_id":"levelo_inurba_marseille","lat":43.33781,"lon":5.37443,"is_reserved":false,"is_disabled":false,"rental_uris":{"android":"levelo://app?vid=d06f24f3-1961-4c39-8b26-c72733863fe9","ios":"levelo://app?vid=d06f24f3-1961-4c39-8b26-c72733863fe9"},"vehicle_type_id":"4","last_reported":1728998302,"current_range_meters":24400,"station_id":"","pricing_plan_id":"cebpf4jnsgd1na2vs0mg"},{"bike_id":"a7ce9ce1-7367-48ab-a192-ca36480fc2a1","system_id":"levelo_inurba_marseille","lat":43.29933,"lon":5.36535,"is_reserved":false,"is_disabled":false,"rental_uris":{"android":"levelo://app?vid=a7ce9ce1-7367-48ab-a192-ca36480fc2a1","ios":"levelo://app?vid=a7ce9ce1-7367-48ab-a192-ca36480fc2a1"},"vehicle_type_id":"4","last_reported":1728998302,"current_range_meters":25200,"station_id":"ce4bgm92rcd13ifvqbr0","pricing_plan_id":"cebpf4jnsgd1na2vs0mg"},{"bike_id":"e0238416-164a-4682-9e9e-af92274a953f","system_id":"levelo_inurba_marseille","lat":43.24075,"lon":5.37761,"is_reserved":false,"is_disabled":false,"rental_uris":{"android":"levelo://app?vid=e0238416-164a-4682-9e9e-af92274a953f","ios":"levelo://app?vid=e0238416-164a-4682-9e9e-af92274a953f"},"vehicle_type_id":"4","last_reported":1728998302,"current_range_meters":26000,"station_id":"ce4bhnp2rcd13ifvqgvg","pricing_plan_id":"cebpf4jnsgd1na2vs0mg"},{"bike_id":"70ba9bc3-2494-4cdd-a291-66b8bd0a6806","system_id":"levelo_inurba_marseille","lat":43.28487,"lon":5.38429,"is_reserved":false,"is_disabled":false,"rental_uris":{"android":"levelo://app?vid=70ba9bc3-2494-4cdd-a291-66b8bd0a6806","ios":"levelo://app?vid=70ba9bc3-2494-4cdd-a291-66b8bd0a6806"},"vehicle_type_id":"4","last_reported":1728998302,"current_range_meters":35200,"station_id":"ce4bh512rcd13ifvqe3g","pricing_plan_id":"cebpf4jnsgd1na2vs0mg"},{"bike_id":"6e6b8241-22ea-4389-98fc-4e39691a3a0e","system_id":"levelo_inurba_marseille","lat":43.29032,"lon":5.38639,"is_reserved":false,"is_disabled":false,"rental_uris":{"android":"levelo://app?vid=6e6b8241-22ea-4389-98fc-4e39691a3a0e","ios":"levelo://app?vid=6e6b8241-22ea-4389-98fc-4e39691a3a0e"},"vehicle_type_id":"4","last_reported":1728998302,"current_range_meters":20000,"station_id":"ce4bh4p2rcd13ifvqe0g","pricing_plan_id":"cebpf4jnsgd1na2vs0mg"},{"bike_id":"b3540a48-b930-4f1f-8764-644ac9839ef9","system_id":"levelo_inurba_marseille","lat":43.27618,"lon":5.3612,"is_reserved":false,"is_disabled":false,"rental_uris":{"android":"levelo://app?vid=b3540a48-b930-4f1f-8764-644ac9839ef9","ios":"levelo://app?vid=b3540a48-b930-4f1f-8764-644ac9839ef9"},"vehicle_type_id":"4","last_reported":1728998302,"current_range_meters":37600,"station_id":"ce4bgj92rcd13ifvqbe0","pricing_plan_id":"cebpf4jnsgd1na2vs0mg"},{"bike_id":"a61ada7f-1fc7-4506-b7bf-77a2c9cb5747","system_id":"levelo_inurba_marseille","lat":43.28969,"lon":5.37833,"is_reserved":false,"is_disabled":false,"rental_uris":{"android":"levelo://app?vid=a61ada7f-1fc7-4506-b7bf-77a2c9cb5747","ios":"levelo://app?vid=a61ada7f-1fc7-4506-b7bf-77a2c9cb5747"},"vehicle_type_id":"4","last_reported":1728998302,"current_range_meters":27600,"station_id":"ce4bh9p2rcd13ifvqed0","pricing_plan_id":"cebpf4jnsgd1na2vs0mg"},{"bike_id":"d41309ab-1a1f-4395-acaa-455483c3f8e1","system_id":"levelo_inurba_marseille","lat":43.23195,"lon":5.3555,"is_reserved":false,"is_disabled":false,"rental_uris":{"android":"levelo://app?vid=d41309ab-1a1f-4395-acaa-455483c3f8e1","ios":"levelo://app?vid=d41309ab-1a1f-4395-acaa-455483c3f8e1"},"vehicle_type_id":"4","last_reported":1728998302,"current_range_meters":32400,"station_id":"ce4bhu92rcd13ifvqi70","pricing_plan_id":"cebpf4jnsgd1na2vs0mg"},{"bike_id":"534da4d6-ebd3-4630-a6ef-5ffd78513fc0","system_id":"levelo_inurba_marseille","lat":43.24167,"lon":5.363921,"is_reserved":false,"is_disabled":false,"rental_uris":{"android":"levelo://app?vid=534da4d6-ebd3-4630-a6ef-5ffd78513fc0","ios":"levelo://app?vid=534da4d6-ebd3-4630-a6ef-5ffd78513fc0"},"vehicle_type_id":"4","last_reported":1728998302,"current_range_meters":3200,"station_id":"cpo36qri1sfpv3e86is0","pricing_plan_id":"cebpf4jnsgd1na2vs0mg"},{"bike_id":"1497bb0f-3007-4ef2-acc6-9f3a2c614e08","system_id":"levelo_inurba_marseille","lat":43.297607,"lon":5.381302,"is_reserved":false,"is_disabled":false,"rental_uris":{"android":"levelo://app?vid=1497bb0f-3007-4ef2-acc6-9f3a2c614e08","ios":"levelo://app?vid=1497bb0f-3007-4ef2-acc6-9f3a2c614e08"},"vehicle_type_id":"4","last_reported":1728998302,"current_range_meters":36400,"station_id":"ce4bgip2rcd13ifvqbb0","pricing_plan_id":"cebpf4jnsgd1na2vs0mg"},{"bike_id":"1236bbf7-ed03-4263-9ab4-884e4d68a5c4","system_id":"levelo_inurba_marseille","lat":43.32483,"lon":5.36564,"is_reserved":false,"is_disabled":false,"rental_uris":{"android":"levelo://app?vid=1236bbf7-ed03-4263-9ab4-884e4d68a5c4","ios":"levelo://app?vid=1236bbf7-ed03-4263-9ab4-884e4d68a5c4"},"vehicle_type_id":"4","last_reported":1728998302,"current_range_meters":38800,"station_id":"ce4bhs12rcd13ifvqhvg","pricing_plan_id":"cebpf4jnsgd1na2vs0mg"},{"bike_id":"00580030-e939-4f91-a036-9143e8555b37","system_id":"levelo_inurba_marseille","lat":43.27059,"lon":5.40266,"is_reserved":false,"is_disabled":false,"rental_uris":{"android":"levelo://app?vid=00580030-e939-4f91-a036-9143e8555b37","ios":"levelo://app?vid=00580030-e939-4f91-a036-9143e8555b37"},"vehicle_type_id":"4","last_reported":1728998302,"current_range_meters":23200,"station_id":"ce4bhk92rcd13ifvqgc0","pricing_plan_id":"cebpf4jnsgd1na2vs0mg"},{"bike_id":"63d5a6c4-c567-4fa2-9a2e-cabef81cba30","system_id":"levelo_inurba_marseille","lat":43.31758,"lon":5.39014,"is_reserved":false,"is_disabled":false,"rental_uris":{"android":"levelo://app?vid=63d5a6c4-c567-4fa2-9a2e-cabef81cba30","ios":"levelo://app?vid=63d5a6c4-c567-4fa2-9a2e-cabef81cba30"},"vehicle_type_id":"4","last_reported":1728998302,"current_range_meters":26000,"station_id":"ce4bhqp2rcd13ifvqhng","pricing_plan_id":"cebpf4jnsgd1na2vs0mg"},{"bike_id":"b14050b5-4a12-462e-bb78-8c26dafe4a33","system_id":"levelo_inurba_marseille","lat":43.29909,"lon":5.38136,"is_reserved":false,"is_disabled":false,"rental_uris":{"android":"levelo://app?vid=b14050b5-4a12-462e-bb78-8c26dafe4a33","ios":"levelo://app?vid=b14050b5-4a12-462e-bb78-8c26dafe4a33"},"vehicle_type_id":"4","last_reported":1728998302,"current_range_meters":32800,"station_id":"ce4bgj12rcd13ifvqbc0","pricing_plan_id":"cebpf4jnsgd1na2vs0mg"},{"bike_id":"d0572c50-bf39-484b-8379-7e1e98994bab","system_id":"levelo_inurba_marseille","lat":43.33608,"lon":5.41026,"is_reserved":false,"is_disabled":false,"rental_uris":{"android":"levelo://app?vid=d0572c50-bf39-484b-8379-7e1e98994bab","ios":"levelo://app?vid=d0572c50-bf39-484b-8379-7e1e98994bab"},"vehicle_type_id":"4","last_reported":1728998302,"current_range_meters":38800,"station_id":"ce4bhqh2rcd13ifvqhmg","pricing_plan_id":"cebpf4jnsgd1na2vs0mg"},{"bike_id":"c32f4a6f-2df0-48d0-8dc2-9214e5919d85","system_id":"levelo_inurba_marseille","lat":43.32474,"lon":5.36568,"is_reserved":false,"is_disabled":false,"rental_uris":{"android":"levelo://app?vid=c32f4a6f-2df0-48d0-8dc2-9214e5919d85","ios":"levelo://app?vid=c32f4a6f-2df0-48d0-8dc2-9214e5919d85"},"vehicle_type_id":"4","last_reported":1728998302,"current_range_meters":38800,"station_id":"ce4bhs12rcd13ifvqhvg","pricing_plan_id":"cebpf4jnsgd1na2vs0mg"},{"bike_id":"42ddf1a3-c9fa-4405-9d7e-8b919329a107","system_id":"levelo_inurba_marseille","lat":43.30549,"lon":5.36526,"is_reserved":false,"is_disabled":false,"rental_uris":{"android":"levelo://app?vid=42ddf1a3-c9fa-4405-9d7e-8b919329a107","ios":"levelo://app?vid=42ddf1a3-c9fa-4405-9d7e-8b919329a107"},"vehicle_type_id":"4","last_reported":1728998302,"current_range_meters":39200,"station_id":"ce4bgs12rcd13ifvqcag","pricing_plan_id":"cebpf4jnsgd1na2vs0mg"},{"bike_id":"9353b8e2-3e88-4d6c-b01c-f1386a032465","system_id":"levelo_inurba_marseille","lat":43.279388,"lon":5.410407,"is_reserved":false,"is_disabled":false,"rental_uris":{"android":"levelo://app?vid=9353b8e2-3e88-4d6c-b01c-f1386a032465","ios":"levelo://app?vid=9353b8e2-3e88-4d6c-b01c-f1386a032465"},"vehicle_type_id":"4","last_reported":1728998302,"current_range_meters":21600,"station_id":"ce4bhnh2rcd13ifvqgug","pricing_plan_id":"cebpf4jnsgd1na2vs0mg"},{"bike_id":"5ac4b365-d20a-45e0-acfe-e7e86ca60b8f","system_id":"levelo_inurba_marseille","lat":43.259301,"lon":5.409034,"is_reserved":false,"is_disabled":false,"rental_uris":{"android":"levelo://app?vid=5ac4b365-d20a-45e0-acfe-e7e86ca60b8f","ios":"levelo://app?vid=5ac4b365-d20a-45e0-acfe-e7e86ca60b8f"},"vehicle_type_id":"4","last_reported":1728998302,"current_range_meters":36000,"station_id":"ce4bhm92rcd13ifvqglg","pricing_plan_id":"cebpf4jnsgd1na2vs0mg"},{"bike_id":"d239af01-4cc1-46e3-9dd4-209c8e9c3aca","system_id":"levelo_inurba_marseille","lat":43.2827,"lon":5.35054,"is_reserved":false,"is_disabled":false,"rental_uris":{"android":"levelo://app?vid=d239af01-4cc1-46e3-9dd4-209c8e9c3aca","ios":"levelo://app?vid=d239af01-4cc1-46e3-9dd4-209c8e9c3aca"},"vehicle_type_id":"4","last_reported":1728998302,"current_range_meters":5600,"station_id":"ce4bhbp2rcd13ifvqerg","pricing_plan_id":"cebpf4jnsgd1na2vs0mg"},{"bike_id":"1af2813b-98a0-4b62-aaf8-89652b30f639","system_id":"levelo_inurba_marseille","lat":43.22933,"lon":5.35381,"is_reserved":false,"is_disabled":false,"rental_uris":{"android":"levelo://app?vid=1af2813b-98a0-4b62-aaf8-89652b30f639","ios":"levelo://app?vid=1af2813b-98a0-4b62-aaf8-89652b30f639"},"vehicle_type_id":"4","last_reported":1728998302,"current_range_meters":30000,"station_id":"cpo3532slgdg3j2ikp40","pricing_plan_id":"cebpf4jnsgd1na2vs0mg"},{"bike_id":"e9fd0602-5b6f-4fb3-8ddf-cffef75a3eff","system_id":"levelo_inurba_marseille","lat":43.29905,"lon":5.38143,"is_reserved":false,"is_disabled":false,"rental_uris":{"android":"levelo://app?vid=e9fd0602-5b6f-4fb3-8ddf-cffef75a3eff","ios":"levelo://app?vid=e9fd0602-5b6f-4fb3-8ddf-cffef75a3eff"},"vehicle_type_id":"4","last_reported":1728998302,"current_range_meters":39200,"station_id":"ce4bgj12rcd13ifvqbc0","pricing_plan_id":"cebpf4jnsgd1na2vs0mg"},{"bike_id":"e933622d-50e9-4399-b2c7-6b78123dd26c","system_id":"levelo_inurba_marseille","lat":43.25936,"lon":5.40895,"is_reserved":false,"is_disabled":false,"rental_uris":{"android":"levelo://app?vid=e933622d-50e9-4399-b2c7-6b78123dd26c","ios":"levelo://app?vid=e933622d-50e9-4399-b2c7-6b78123dd26c"},"vehicle_type_id":"4","last_reported":1728998302,"current_range_meters":3600,"station_id":"ce4bhm92rcd13ifvqglg","pricing_plan_id":"cebpf4jnsgd1na2vs0mg"},{"bike_id":"c518c0ad-ff11-4118-99a7-cda4d00057bb","system_id":"levelo_inurba_marseille","lat":43.29625,"lon":5.37155,"is_reserved":false,"is_disabled":false,"rental_uris":{"android":"levelo://app?vid=c518c0ad-ff11-4118-99a7-cda4d00057bb","ios":"levelo://app?vid=c518c0ad-ff11-4118-99a7-cda4d00057bb"},"vehicle_type_id":"4","last_reported":1728998302,"current_range_meters":35600,"station_id":"ce4bgnh2rcd13ifvqc0g","pricing_plan_id":"cebpf4jnsgd1na2vs0mg"},{"bike_id":"f93454e1-a669-4c63-a4ca-b572042c7971","system_id":"levelo_inurba_marseille","lat":43.23192,"lon":5.35558,"is_reserved":false,"is_disabled":false,"rental_uris":{"android":"levelo://app?vid=f93454e1-a669-4c63-a4ca-b572042c7971","ios":"levelo://app?vid=f93454e1-a669-4c63-a4ca-b572042c7971"},"vehicle_type_id":"4","last_reported":1728998302,"current_range_meters":25600,"station_id":"ce4bhu92rcd13ifvqi70","pricing_plan_id":"cebpf4jnsgd1na2vs0mg"},{"bike_id":"ab38c6ee-afe2-452b-b152-733408083f03","system_id":"levelo_inurba_marseille","lat":43.24074,"lon":5.37756,"is_reserved":false,"is_disabled":false,"rental_uris":{"android":"levelo://app?vid=ab38c6ee-afe2-452b-b152-733408083f03","ios":"levelo://app?vid=ab38c6ee-afe2-452b-b152-733408083f03"},"vehicle_type_id":"4","last_reported":1728998302,"current_range_meters":28400,"station_id":"ce4bhnp2rcd13ifvqgvg","pricing_plan_id":"cebpf4jnsgd1na2vs0mg"},{"bike_id":"fa7d7ce1-a6ee-4ffd-9015-5fae177f74cc","system_id":"levelo_inurba_marseille","lat":43.27494,"lon":5.4245,"is_reserved":false,"is_disabled":false,"rental_uris":{"android":"levelo://app?vid=fa7d7ce1-a6ee-4ffd-9015-5fae177f74cc","ios":"levelo://app?vid=fa7d7ce1-a6ee-4ffd-9015-5fae177f74cc"},"vehicle_type_id":"4","last_reported":1728998302,"current_range_meters":17200,"station_id":"ce4bhn92rcd13ifvqgrg","pricing_plan_id":"cebpf4jnsgd1na2vs0mg"},{"bike_id":"38788e06-d771-4e99-bbef-00741abccfc5","system_id":"levelo_inurba_marseille","lat":43.23195,"lon":5.35556,"is_reserved":false,"is_disabled":false,"rental_uris":{"android":"levelo://app?vid=38788e06-d771-4e99-bbef-00741abccfc5","ios":"levelo://app?vid=38788e06-d771-4e99-bbef-00741abccfc5"},"vehicle_type_id":"4","last_reported":1728998302,"current_range_meters":26000,"station_id":"ce4bhu92rcd13ifvqi70","pricing_plan_id":"cebpf4jnsgd1na2vs0mg"},{"bike_id":"4d4ad774-6838-43b7-b2d9-0ff92e62a102","system_id":"levelo_inurba_marseille","lat":43.31162,"lon":5.38721,"is_reserved":false,"is_disabled":false,"rental_uris":{"android":"levelo://app?vid=4d4ad774-6838-43b7-b2d9-0ff92e62a102","ios":"levelo://app?vid=4d4ad774-6838-43b7-b2d9-0ff92e62a102"},"vehicle_type_id":"4","last_reported":1728998302,"current_range_meters":38800,"station_id":"ce4bgv12rcd13ifvqcp0","pricing_plan_id":"cebpf4jnsgd1na2vs0mg"},{"bike_id":"adbc8c3c-9ad4-4629-ad6b-7547178e2087","system_id":"levelo_inurba_marseille","lat":43.23149,"lon":5.43712,"is_reserved":false,"is_disabled":false,"rental_uris":{"android":"levelo://app?vid=adbc8c3c-9ad4-4629-ad6b-7547178e2087","ios":"levelo://app?vid=adbc8c3c-9ad4-4629-ad6b-7547178e2087"},"vehicle_type_id":"4","last_reported":1728998302,"current_range_meters":16400,"station_id":"ce4bhmp2rcd13ifvqgog","pricing_plan_id":"cebpf4jnsgd1na2vs0mg"},{"bike_id":"6a344486-14e7-432e-98bf-b8beed8e06c6","system_id":"levelo_inurba_marseille","lat":43.32336,"lon":5.38328,"is_reserved":false,"is_disabled":false,"rental_uris":{"android":"levelo://app?vid=6a344486-14e7-432e-98bf-b8beed8e06c6","ios":"levelo://app?vid=6a344486-14e7-432e-98bf-b8beed8e06c6"},"vehicle_type_id":"4","last_reported":1728998302,"current_range_meters":30400,"station_id":"","pricing_plan_id":"cebpf4jnsgd1na2vs0mg"},{"bike_id":"1c29ea6a-d424-450d-9c36-6b427ab42330","system_id":"levelo_inurba_marseille","lat":43.3415,"lon":5.40908,"is_reserved":false,"is_disabled":false,"rental_uris":{"android":"levelo://app?vid=1c29ea6a-d424-450d-9c36-6b427ab42330","ios":"levelo://app?vid=1c29ea6a-d424-450d-9c36-6b427ab42330"},"vehicle_type_id":"4","last_reported":1728998302,"current_range_meters":39200,"station_id":"ce4bhqh2rcd13ifvqhlg","pricing_plan_id":"cebpf4jnsgd1na2vs0mg"},{"bike_id":"79ddf1f5-186b-4457-a77e-9d424f43d6e3","system_id":"levelo_inurba_marseille","lat":43.24075,"lon":5.3775,"is_reserved":false,"is_disabled":false,"rental_uris":{"android":"levelo://app?vid=79ddf1f5-186b-4457-a77e-9d424f43d6e3","ios":"levelo://app?vid=79ddf1f5-186b-4457-a77e-9d424f43d6e3"},"vehicle_type_id":"4","last_reported":1728998302,"current_range_meters":14400,"station_id":"ce4bhnp2rcd13ifvqgvg","pricing_plan_id":"cebpf4jnsgd1na2vs0mg"},{"bike_id":"e7cf0aef-03a6-4176-b3fd-f9cc37e91484","system_id":"levelo_inurba_marseille","lat":43.28155,"lon":5.4265,"is_reserved":false,"is_disabled":false,"rental_uris":{"android":"levelo://app?vid=e7cf0aef-03a6-4176-b3fd-f9cc37e91484","ios":"levelo://app?vid=e7cf0aef-03a6-4176-b3fd-f9cc37e91484"},"vehicle_type_id":"4","last_reported":1728998302,"current_range_meters":11200,"station_id":"ce4bhnh2rcd13ifvqgug","pricing_plan_id":"cebpf4jnsgd1na2vs0mg"},{"bike_id":"167a3dcd-afcd-457e-8998-67360ace43c0","system_id":"levelo_inurba_marseille","lat":43.33759,"lon":5.37446,"is_reserved":false,"is_disabled":false,"rental_uris":{"android":"levelo://app?vid=167a3dcd-afcd-457e-8998-67360ace43c0","ios":"levelo://app?vid=167a3dcd-afcd-457e-8998-67360ace43c0"},"vehicle_type_id":"4","last_reported":1728998302,"current_range_meters":34000,"station_id":"","pricing_plan_id":"cebpf4jnsgd1na2vs0mg"},{"bike_id":"e890e235-e2ff-4a16-a8bd-4258b9a5605c","system_id":"levelo_inurba_marseille","lat":43.28262,"lon":5.35059,"is_reserved":false,"is_disabled":false,"rental_uris":{"android":"levelo://app?vid=e890e235-e2ff-4a16-a8bd-4258b9a5605c","ios":"levelo://app?vid=e890e235-e2ff-4a16-a8bd-4258b9a5605c"},"vehicle_type_id":"4","last_reported":1728998302,"current_range_meters":27200,"station_id":"ce4bhbp2rcd13ifvqerg","pricing_plan_id":"cebpf4jnsgd1na2vs0mg"},{"bike_id":"11af4c56-3918-45fe-865d-9cf9acc3a4ad","system_id":"levelo_inurba_marseille","lat":43.29585,"lon":5.36742,"is_reserved":false,"is_disabled":false,"rental_uris":{"android":"levelo://app?vid=11af4c56-3918-45fe-865d-9cf9acc3a4ad","ios":"levelo://app?vid=11af4c56-3918-45fe-865d-9cf9acc3a4ad"},"vehicle_type_id":"4","last_reported":1728998302,"current_range_meters":20400,"station_id":"ce4bgph2rcd13ifvqc2g","pricing_plan_id":"cebpf4jnsgd1na2vs0mg"},{"bike_id":"754da881-cbc9-4b35-beb2-51d368048841","system_id":"levelo_inurba_marseille","lat":43.33722,"lon":5.37446,"is_reserved":false,"is_disabled":false,"rental_uris":{"android":"levelo://app?vid=754da881-cbc9-4b35-beb2-51d368048841","ios":"levelo://app?vid=754da881-cbc9-4b35-beb2-51d368048841"},"vehicle_type_id":"4","last_reported":1728998302,"current_range_meters":36000,"station_id":"","pricing_plan_id":"cebpf4jnsgd1na2vs0mg"},{"bike_id":"e6befd2e-de68-4df5-8309-09d49f9aa880","system_id":"levelo_inurba_marseille","lat":43.323391,"lon":5.406292,"is_reserved":false,"is_disabled":false,"rental_uris":{"android":"levelo://app?vid=e6befd2e-de68-4df5-8309-09d49f9aa880","ios":"levelo://app?vid=e6befd2e-de68-4df5-8309-09d49f9aa880"},"vehicle_type_id":"4","last_reported":1728998302,"current_range_meters":32400,"station_id":"ce4bhq92rcd13ifvqhjg","pricing_plan_id":"cebpf4jnsgd1na2vs0mg"},{"bike_id":"982702e0-e3ed-4c76-9014-7f4427361df7","system_id":"levelo_inurba_marseille","lat":43.25714,"lon":5.41112,"is_reserved":false,"is_disabled":false,"rental_uris":{"android":"levelo://app?vid=982702e0-e3ed-4c76-9014-7f4427361df7","ios":"levelo://app?vid=982702e0-e3ed-4c76-9014-7f4427361df7"},"vehicle_type_id":"4","last_reported":1728998302,"current_range_meters":16000,"station_id":"ce4bhkp2rcd13ifvqgd0","pricing_plan_id":"cebpf4jnsgd1na2vs0mg"},{"bike_id":"dde86e9c-08ab-447e-8977-98fcc15ceb96","system_id":"levelo_inurba_marseille","lat":43.24081,"lon":5.37742,"is_reserved":false,"is_disabled":false,"rental_uris":{"android":"levelo://app?vid=dde86e9c-08ab-447e-8977-98fcc15ceb96","ios":"levelo://app?vid=dde86e9c-08ab-447e-8977-98fcc15ceb96"},"vehicle_type_id":"4","last_reported":1728998302,"current_range_meters":12000,"station_id":"ce4bhnp2rcd13ifvqgvg","pricing_plan_id":"cebpf4jnsgd1na2vs0mg"},{"bike_id":"3f9ee4c6-9958-4abb-85a5-f462e8b48220","system_id":"levelo_inurba_marseille","lat":43.25102,"lon":5.40321,"is_reserved":false,"is_disabled":false,"rental_uris":{"android":"levelo://app?vid=3f9ee4c6-9958-4abb-85a5-f462e8b48220","ios":"levelo://app?vid=3f9ee4c6-9958-4abb-85a5-f462e8b48220"},"vehicle_type_id":"4","last_reported":1728998302,"current_range_meters":26000,"station_id":"ce4bhlh2rcd13ifvqgig","pricing_plan_id":"cebpf4jnsgd1na2vs0mg"},{"bike_id":"bda65524-aefd-425d-9ab8-3cffa107b208","system_id":"levelo_inurba_marseille","lat":43.30886,"lon":5.39629,"is_reserved":false,"is_disabled":false,"rental_uris":{"android":"levelo://app?vid=bda65524-aefd-425d-9ab8-3cffa107b208","ios":"levelo://app?vid=bda65524-aefd-425d-9ab8-3cffa107b208"},"vehicle_type_id":"4","last_reported":1728998302,"current_range_meters":38400,"station_id":"ce4bh012rcd13ifvqcv0","pricing_plan_id":"cebpf4jnsgd1na2vs0mg"},{"bike_id":"8d249aed-a5e2-42c6-8a79-ebb4e0e52efd","system_id":"levelo_inurba_marseille","lat":43.28413,"lon":5.34978,"is_reserved":false,"is_disabled":false,"rental_uris":{"android":"levelo://app?vid=8d249aed-a5e2-42c6-8a79-ebb4e0e52efd","ios":"levelo://app?vid=8d249aed-a5e2-42c6-8a79-ebb4e0e52efd"},"vehicle_type_id":"4","last_reported":1728998302,"current_range_meters":36800,"station_id":"ce4bhbh2rcd13ifvqepg","pricing_plan_id":"cebpf4jnsgd1na2vs0mg"},{"bike_id":"6b8c82fb-6a59-4487-bb53-b60a83992cb1","system_id":"levelo_inurba_marseille","lat":43.2974,"lon":5.37696,"is_reserved":false,"is_disabled":false,"rental_uris":{"android":"levelo://app?vid=6b8c82fb-6a59-4487-bb53-b60a83992cb1","ios":"levelo://app?vid=6b8c82fb-6a59-4487-bb53-b60a83992cb1"},"vehicle_type_id":"4","last_reported":1728998302,"current_range_meters":30000,"station_id":"ce4bgkh2rcd13ifvqbl0","pricing_plan_id":"cebpf4jnsgd1na2vs0mg"},{"bike_id":"db15cd58-15ca-4e1f-bb84-cfa79030aa94","system_id":"levelo_inurba_marseille","lat":43.24996,"lon":5.38936,"is_reserved":false,"is_disabled":false,"rental_uris":{"android":"levelo://app?vid=db15cd58-15ca-4e1f-bb84-cfa79030aa94","ios":"levelo://app?vid=db15cd58-15ca-4e1f-bb84-cfa79030aa94"},"vehicle_type_id":"4","last_reported":1728998302,"current_range_meters":12800,"station_id":"ce4bhgp2rcd13ifvqfd0","pricing_plan_id":"cebpf4jnsgd1na2vs0mg"},{"bike_id":"882a5bb6-5c40-44c8-823a-b385f54dd84b","system_id":"levelo_inurba_marseille","lat":43.311704,"lon":5.387161,"is_reserved":false,"is_disabled":false,"rental_uris":{"android":"levelo://app?vid=882a5bb6-5c40-44c8-823a-b385f54dd84b","ios":"levelo://app?vid=882a5bb6-5c40-44c8-823a-b385f54dd84b"},"vehicle_type_id":"4","last_reported":1728998302,"current_range_meters":12000,"station_id":"ce4bgth2rcd13ifvqch0","pricing_plan_id":"cebpf4jnsgd1na2vs0mg"},{"bike_id":"e6f86ed8-2189-4f62-89a3-d581a631a2e9","system_id":"levelo_inurba_marseille","lat":43.28265,"lon":5.35068,"is_reserved":false,"is_disabled":false,"rental_uris":{"android":"levelo://app?vid=e6f86ed8-2189-4f62-89a3-d581a631a2e9","ios":"levelo://app?vid=e6f86ed8-2189-4f62-89a3-d581a631a2e9"},"vehicle_type_id":"4","last_reported":1728998302,"current_range_meters":9200,"station_id":"ce4bhbp2rcd13ifvqerg","pricing_plan_id":"cebpf4jnsgd1na2vs0mg"},{"bike_id":"7ae05b75-3c9b-4b58-bf00-e7cc03e8a549","system_id":"levelo_inurba_marseille","lat":43.25932,"lon":5.40913,"is_reserved":false,"is_disabled":false,"rental_uris":{"android":"levelo://app?vid=7ae05b75-3c9b-4b58-bf00-e7cc03e8a549","ios":"levelo://app?vid=7ae05b75-3c9b-4b58-bf00-e7cc03e8a549"},"vehicle_type_id":"4","last_reported":1728998302,"current_range_meters":7200,"station_id":"ce4bhm92rcd13ifvqglg","pricing_plan_id":"cebpf4jnsgd1na2vs0mg"},{"bike_id":"74bff1cf-997c-421e-8ba5-f46e12e1b0ab","system_id":"levelo_inurba_marseille","lat":43.28417,"lon":5.34988,"is_reserved":false,"is_disabled":false,"rental_uris":{"android":"levelo://app?vid=74bff1cf-997c-421e-8ba5-f46e12e1b0ab","ios":"levelo://app?vid=74bff1cf-997c-421e-8ba5-f46e12e1b0ab"},"vehicle_type_id":"4","last_reported":1728998302,"current_range_meters":26000,"station_id":"ce4bhbh2rcd13ifvqepg","pricing_plan_id":"cebpf4jnsgd1na2vs0mg"},{"bike_id":"d00945c9-4b1a-42e4-961f-6bc65f496869","system_id":"levelo_inurba_marseille","lat":43.27064,"lon":5.40263,"is_reserved":false,"is_disabled":false,"rental_uris":{"android":"levelo://app?vid=d00945c9-4b1a-42e4-961f-6bc65f496869","ios":"levelo://app?vid=d00945c9-4b1a-42e4-961f-6bc65f496869"},"vehicle_type_id":"4","last_reported":1728998302,"current_range_meters":18000,"station_id":"ce4bhk92rcd13ifvqgc0","pricing_plan_id":"cebpf4jnsgd1na2vs0mg"},{"bike_id":"35079bfa-9f11-43bd-97f8-36d54bf92833","system_id":"levelo_inurba_marseille","lat":43.33753,"lon":5.37445,"is_reserved":false,"is_disabled":false,"rental_uris":{"android":"levelo://app?vid=35079bfa-9f11-43bd-97f8-36d54bf92833","ios":"levelo://app?vid=35079bfa-9f11-43bd-97f8-36d54bf92833"},"vehicle_type_id":"4","last_reported":1728998302,"current_range_meters":36800,"station_id":"","pricing_plan_id":"cebpf4jnsgd1na2vs0mg"},{"bike_id":"c7a7308e-33b6-43b3-aeff-d2b95f8f6930","system_id":"levelo_inurba_marseille","lat":43.24811,"lon":5.37457,"is_reserved":false,"is_disabled":false,"rental_uris":{"android":"levelo://app?vid=c7a7308e-33b6-43b3-aeff-d2b95f8f6930","ios":"levelo://app?vid=c7a7308e-33b6-43b3-aeff-d2b95f8f6930"},"vehicle_type_id":"4","last_reported":1728998302,"current_range_meters":21600,"station_id":"ce4bhgh2rcd13ifvqfb0","pricing_plan_id":"cebpf4jnsgd1na2vs0mg"},{"bike_id":"f83487b8-cf5a-4d8b-a09a-2f8b8d0d5a46","system_id":"levelo_inurba_marseille","lat":43.337444,"lon":5.374475,"is_reserved":false,"is_disabled":false,"rental_uris":{"android":"levelo://app?vid=f83487b8-cf5a-4d8b-a09a-2f8b8d0d5a46","ios":"levelo://app?vid=f83487b8-cf5a-4d8b-a09a-2f8b8d0d5a46"},"vehicle_type_id":"4","last_reported":1728998302,"current_range_meters":32800,"station_id":"","pricing_plan_id":"cebpf4jnsgd1na2vs0mg"},{"bike_id":"7491faa0-2bcb-4a98-90c9-2e1e266b207c","system_id":"levelo_inurba_marseille","lat":43.24069,"lon":5.37759,"is_reserved":false,"is_disabled":false,"rental_uris":{"android":"levelo://app?vid=7491faa0-2bcb-4a98-90c9-2e1e266b207c","ios":"levelo://app?vid=7491faa0-2bcb-4a98-90c9-2e1e266b207c"},"vehicle_type_id":"4","last_reported":1728998302,"current_range_meters":3600,"station_id":"ce4bhnp2rcd13ifvqgvg","pricing_plan_id":"cebpf4jnsgd1na2vs0mg"},{"bike_id":"bc1cccbc-d9f5-48e2-8404-e65337ad61e4","system_id":"levelo_inurba_marseille","lat":43.2827,"lon":5.35063,"is_reserved":false,"is_disabled":false,"rental_uris":{"android":"levelo://app?vid=bc1cccbc-d9f5-48e2-8404-e65337ad61e4","ios":"levelo://app?vid=bc1cccbc-d9f5-48e2-8404-e65337ad61e4"},"vehicle_type_id":"4","last_reported":1728998302,"current_range_meters":16000,"station_id":"ce4bhbp2rcd13ifvqerg","pricing_plan_id":"cebpf4jnsgd1na2vs0mg"},{"bike_id":"b5829811-746d-4014-a44c-ecf6c448bf00","system_id":"levelo_inurba_marseille","lat":43.27297,"lon":5.390856,"is_reserved":false,"is_disabled":false,"rental_uris":{"android":"levelo://app?vid=b5829811-746d-4014-a44c-ecf6c448bf00","ios":"levelo://app?vid=b5829811-746d-4014-a44c-ecf6c448bf00"},"vehicle_type_id":"4","last_reported":1728998302,"current_range_meters":12000,"station_id":"ce4bhgp2rcd13ifvqfe0","pricing_plan_id":"cebpf4jnsgd1na2vs0mg"},