{"last_updated":1740607714,"ttl":60,"version":"2.2","data":{"bikes":[{"bike_id":"1c9d6822-f1a4-41ae-8212-02c18fed1780","system_id":"levelo_inurba_marseille","lat":43.28942,"lon":5.36643,"is_reserved":false,"is_disabled":false,"rental_uris":{"android":"levelo://app?vid=1c9d6822-f1a4-41ae-8212-02c18fed1780","ios":"levelo://app?vid=1c9d6822-f1a4-41ae-8212-02c18fed1780"},"vehicle_type_id":"4","last_reported":1740607714,"current_range_meters":2000,"station_id":"ce4bhap2rcd13ifvqek0","pricing_plan_id":"cebpf4jnsgd1na2vs0mg"},{"bike_id":"60e5d2da-aaf8-4920-b665-a7df09088b64","system_id":"levelo_inurba_marseille","lat":43.26568,"lon":5.39014,"is_reserved":false,"is_disabled":false,"rental_uris":{"android":"levelo://app?vid=60e5d2da-aaf8-4920-b665-a7df09088b64","ios":"levelo://app?vid=60e5d2da-aaf8-4920-b665-a7df09088b64"},"vehicle_type_id":"4","last_reported":1740607714,"current_range_meters":2800,"station_id":"ce4bhe12rcd13ifvqf30","pricing_plan_id":"cebpf4jnsgd1na2vs0mg"},{"bike_id":"2762f6a9-d1ca-40e0-835c-6af6419e40c1","system_id":"levelo_inurba_marseille","lat":43.27379,"lon":5.36251,"is_reserved":false,"is_disabled":false,"rental_uris":{"android":"levelo://app?vid=2762f6a9-d1ca-40e0-835c-6af6419e40c1","ios":"levelo://app?vid=2762f6a9-d1ca-40e0-835c-6af6419e40c1"},"vehicle_type_id":"4","last_reported":1740607714,"current_range_meters":3600,"station_id":"ce4bhbh2rcd13ifvqeo0","pricing_plan_id":"cebpf4jnsgd1na2vs0mg"},{"bike_id":"349e0b42-9005-4524-ae81-70f682769f76","system_id":"levelo_inurba_marseille","lat":43.23963,"lon":5.36635,"is_reserved":false,"is_disabled":false,"rental_uris":{"android":"levelo://app?vid=349e0b42-9005-4524-ae81-70f682769f76","ios":"levelo://app?vid=349e0b42-9005-4524-ae81-70f682769f76"},"vehicle_type_id":"4","last_reported":1740607714,"current_range_meters":4000,"station_id":"ce4bhi12rcd13ifvqfp0","pricing_plan_id":"cebpf4jnsgd1na2vs0mg"},{"bike_id":"0d58bdd4-45b5-40db-9ced-11725c0c62bd","system_id":"levelo_inurba_marseille","lat":43.32346,"lon":5.406,"is_reserved":false,"is_disabled":false,"rental_uris":{"android":"levelo://app?vid=0d58bdd4-45b5-40db-9ced-11725c0c62bd","ios":"levelo://app?vid=0d58bdd4-45b5-40db-9ced-11725c0c62bd"},"vehicle_type_id":"4","last_reported":1740607714,"current_range_meters":4000,"station_id":"ce4bhq92rcd13ifvqhjg","pricing_plan_id":"cebpf4jnsgd1na2vs0mg"},{"bike_id":"1f0dcaf3-20ff-45bc-b4ef-8f34cf36e226","system_id":"levelo_inurba_marseille","lat":43.27792,"lon":5.4071,"is_reserved":false,"is_disabled":true,"rental_uris":{"android":"levelo://app?vid=1f0dcaf3-20ff-45bc-b4ef-8f34cf36e226","ios":"levelo://app?vid=1f0dcaf3-20ff-45bc-b4ef-8f34cf36e226"},"vehicle_type_id":"4","last_reported":1740607714,"current_range_meters":4400,"station_id":"ce4bhnh2rcd13ifvqgtg","pricing_plan_id":"cebpf4jnsgd1na2vs0mg"},{"bike_id":"8672a90a-3d31-4889-8b34-7f9ccaebc950","system_id":"levelo_inurba_marseille","lat":43.278362,"lon":5.392017,"is_reserved":false,"is_disabled":false,"rental_uris":{"android":"levelo://app?vid=8672a90a-3d31-4889-8b34-7f9ccaebc950","ios":"levelo://app?vid=8672a90a-3d31-4889-8b34-7f9ccaebc950"},"vehicle_type_id":"4","last_reported":1740607714,"current_range_meters":4800,"station_id":"ce4bhjp2rcd13ifvqga0","pricing_plan_id":"cebpf4jnsgd1na2vs0mg"},{"bike_id":"e5c275a2-a964-47d8-9489-ed1126cf4cef","system_id":"levelo_inurba_marseille","lat":43.296169,"lon":5.37907,"is_reserved":false,"is_disabled":false,"rental_uris":{"android":"levelo://app?vid=e5c275a2-a964-47d8-9489-ed1126cf4cef","ios":"levelo://app?vid=e5c275a2-a964-47d8-9489-ed1126cf4cef"},"vehicle_type_id":"4","last_reported":1740607714,"current_range_meters":4800,"station_id":"","pricing_plan_id":"cebpf4jnsgd1na2vs0mg"},{"bike_id":"fd749d3e-13c0-4845-9576-ccfbc237ffe0","system_id":"levelo_inurba_marseille","lat":43.28264,"lon":5.35063,"is_reserved":false,"is_disabled":false,"rental_uris":{"android":"levelo://app?vid=fd749d3e-13c0-4845-9576-ccfbc237ffe0","ios":"levelo://app?vid=fd749d3e-13c0-4845-9576-ccfbc237ffe0"},"vehicle_type_id":"4","last_reported":1740607714,"current_range_meters":2000,"station_id":"ce4bhbp2rcd13ifvqerg","pricing_plan_id":"cebpf4jnsgd1na2vs0mg"},{"bike_id":"77d72656-ec37-44f1-ab2b-c05ee9e3e3e9","system_id":"levelo_inurba_marseille","lat":43.29265,"lon":5.37565,"is_reserved":false,"is_disabled":false,"rental_uris":{"android":"levelo://app?vid=77d72656-ec37-44f1-ab2b-c05ee9e3e3e9","ios":"levelo://app?vid=77d72656-ec37-44f1-ab2b-c05ee9e3e3e9"},"vehicle_type_id":"4","last_reported":1740607714,"current_range_meters":5600,"station_id":"","pricing_plan_id":"cebpf4jnsgd1na2vs0mg"},{"bike_id":"a1879da5-9e75-4549-8cce-fa10e10e4d66","system_id":"levelo_inurba_marseille","lat":43.32333,"lon":5.40766,"is_reserved":false,"is_disabled":false,"rental_uris":{"android":"levelo://app?vid=a1879da5-9e75-4549-8cce-fa10e10e4d66","ios":"levelo://app?vid=a1879da5-9e75-4549-8cce-fa10e10e4d66"},"vehicle_type_id":"4","last_reported":1740607714,"current_range_meters":4800,"station_id":"","pricing_plan_id":"cebpf4jnsgd1na2vs0mg"},{"bike_id":"297e0534-dfe8-437f-a8cf-46f8f61d5eef","system_id":"levelo_inurba_marseille","lat":43.27946,"lon":5.41043,"is_reserved":false,"is_disabled":false,"rental_uris":{"android":"levelo://app?vid=297e0534-dfe8-437f-a8cf-46f8f61d5eef","ios":"levelo://app?vid=297e0534-dfe8-437f-a8cf-46f8f61d5eef"},"vehicle_type_id":"4","last_reported":1740607714,"current_range_meters":5600,"station_id":"ce4bhnp2rcd13ifvqh0g","pricing_plan_id":"cebpf4jnsgd1na2vs0mg"},{"bike_id":"94139441-edb7-414c-a3ae-bcb79cc117c0","system_id":"levelo_inurba_marseille","lat":43.28041,"lon":5.36945,"is_reserved":false,"is_disabled":false,"rental_uris":{"android":"levelo://app?vid=94139441-edb7-414c-a3ae-bcb79cc117c0","ios":"levelo://app?vid=94139441-edb7-414c-a3ae-bcb79cc117c0"},"vehicle_type_id":"4","last_reported":1740607714,"current_range_meters":5600,"station_id":"ce4bha12rcd13ifvqef0","pricing_plan_id":"cebpf4jnsgd1na2vs0mg"},{"bike_id":"411b5315-e03f-43f4-b5cd-9f0caf8d3081","system_id":"levelo_inurba_marseille","lat":43.23196,"lon":5.39992,"is_reserved":false,"is_disabled":false,"rental_uris":{"android":"levelo://app?vid=411b5315-e03f-43f4-b5cd-9f0caf8d3081","ios":"levelo://app?vid=411b5315-e03f-43f4-b5cd-9f0caf8d3081"},"vehicle_type_id":"4","last_reported":1740607714,"current_range_meters":6000,"station_id":"ce4bhn12rcd13ifvqgqg","pricing_plan_id":"cebpf4jnsgd1na2vs0mg"},{"bike_id":"39c490fa-7a92-47db-bc32-fe7f8b3890e2","system_id":"levelo_inurba_marseille","lat":43.29278,"lon":5.36841,"is_reserved":false,"is_disabled":true,"rental_uris":{"android":"levelo://app?vid=39c490fa-7a92-47db-bc32-fe7f8b3890e2","ios":"levelo://app?vid=39c490fa-7a92-47db-bc32-fe7f8b3890e2"},"vehicle_type_id":"4","last_reported":1740607714,"current_range_meters":6000,"station_id":"ce4bhbp2rcd13ifvqesg","pricing_plan_id":"cebpf4jnsgd1na2vs0mg"},{"bike_id":"7c95904b-ee6c-442a-a902-49c0c9d387e4","system_id":"levelo_inurba_marseille","lat":43.2439,"lon":5.370612,"is_reserved":false,"is_disabled":false,"rental_uris":{"android":"levelo://app?vid=7c95904b-ee6c-442a-a902-49c0c9d387e4","ios":"levelo://app?vid=7c95904b-ee6c-442a-a902-49c0c9d387e4"},"vehicle_type_id":"4","last_reported":1740607714,"current_range_meters":6400,"station_id":"ce4bhhh2rcd13ifvqfk0","pricing_plan_id":"cebpf4jnsgd1na2vs0mg"},{"bike_id":"d63393af-5843-42e9-a420-e119a78027c3","system_id":"levelo_inurba_marseille","lat":43.28575,"lon":5.39499,"is_reserved":false,"is_disabled":false,"rental_uris":{"android":"levelo://app?vid=d63393af-5843-42e9-a420-e119a78027c3","ios":"levelo://app?vid=d63393af-5843-42e9-a420-e119a78027c3"},"vehicle_type_id":"4","last_reported":1740607714,"current_range_meters":6400,"station_id":"ce4bh292rcd13ifvqdg0","pricing_plan_id":"cebpf4jnsgd1na2vs0mg"},{"bike_id":"b99ec3be-2984-4ff0-ad0d-9d6a054c811c","system_id":"levelo_inurba_marseille","lat":43.3065,"lon":5.40068,"is_reserved":false,"is_disabled":false,"rental_uris":{"android":"levelo://app?vid=b99ec3be-2984-4ff0-ad0d-9d6a054c811c","ios":"levelo://app?vid=b99ec3be-2984-4ff0-ad0d-9d6a054c811c"},"vehicle_type_id":"4","last_reported":1740607714,"current_range_meters":6800,"station_id":"ce4bh112rcd13ifvqda0","pricing_plan_id":"cebpf4jnsgd1na2vs0mg"},{"bike_id":"68db716c-6572-40ea-b079-987ee4623b4d","system_id":"levelo_inurba_marseille","lat":43.26853,"lon":5.40943,"is_reserved":false,"is_disabled":false,"rental_uris":{"android":"levelo://app?vid=68db716c-6572-40ea-b079-987ee4623b4d","ios":"levelo://app?vid=68db716c-6572-40ea-b079-987ee4623b4d"},"vehicle_type_id":"4","last_reported":1740607714,"current_range_meters":6800,"station_id":"","pricing_plan_id":"cebpf4jnsgd1na2vs0mg"},{"bike_id":"96f2d7fe-af5b-4bc7-b6ba-49e564988bd5","system_id":"levelo_inurba_marseille","lat":43.3149,"lon":5.37293,"is_reserved":false,"is_disabled":false,"rental_uris":{"android":"levelo://app?vid=96f2d7fe-af5b-4bc7-b6ba-49e564988bd5","ios":"levelo://app?vid=96f2d7fe-af5b-4bc7-b6ba-49e564988bd5"},"vehicle_type_id":"4","last_reported":1740607714,"current_range_meters":6400,"station_id":"ce4bgt12rcd13ifvqcd0","pricing_plan_id":"cebpf4jnsgd1na2vs0mg"},{"bike_id":"43999b17-82a3-4776-9265-eb44ae135068","system_id":"levelo_inurba_marseille","lat":43.30895,"lon":5.39664,"is_reserved":false,"is_disabled":false,"rental_uris":{"android":"levelo://app?vid=43999b17-82a3-4776-9265-eb44ae135068","ios":"levelo://app?vid=43999b17-82a3-4776-9265-eb44ae135068"},"vehicle_type_id":"4","last_reported":1740607714,"current_range_meters":7200,"station_id":"ce4bh012rcd13ifvqcv0","pricing_plan_id":"cebpf4jnsgd1na2vs0mg"},{"bike_id":"8a62c3a8-af16-4093-898f-393ba99441e2","system_id":"levelo_inurba_marseille","lat":43.32328,"lon":5.40614,"is_reserved":false,"is_disabled":false,"rental_uris":{"android":"levelo://app?vid=8a62c3a8-af16-4093-898f-393ba99441e2","ios":"levelo://app?vid=8a62c3a8-af16-4093-898f-393ba99441e2"},"vehicle_type_id":"4","last_reported":1740607714,"current_range_meters":7200,"station_id":"ce4bhq92rcd13ifvqhjg","pricing_plan_id":"cebpf4jnsgd1na2vs0mg"},{"bike_id":"e80aada6-8a51-4d84-89a9-f7834d4683b3","system_id":"levelo_inurba_marseille","lat":43.28145,"lon":5.42644,"is_reserved":false,"is_disabled":false,"rental_uris":{"android":"levelo://app?vid=e80aada6-8a51-4d84-89a9-f7834d4683b3","ios":"levelo://app?vid=e80aada6-8a51-4d84-89a9-f7834d4683b3"},"vehicle_type_id":"4","last_reported":1740607714,"current_range_meters":7200,"station_id":"ce4bhnh2rcd13ifvqgug","pricing_plan_id":"cebpf4jnsgd1na2vs0mg"},{"bike_id":"64d1dcdb-2974-4aea-a074-f7aa761c6db6","system_id":"levelo_inurba_marseille","lat":43.25092,"lon":5.41056,"is_reserved":false,"is_disabled":false,"rental_uris":{"android":"levelo://app?vid=64d1dcdb-2974-4aea-a074-f7aa761c6db6","ios":"levelo://app?vid=64d1dcdb-2974-4aea-a074-f7aa761c6db6"},"vehicle_type_id":"4","last_reported":1740607714,"current_range_meters":8000,"station_id":"","pricing_plan_id":"cebpf4jnsgd1na2vs0mg"},{"bike_id":"954ce63b-1d42-4ba1-9eb0-83c6377ed1bd","system_id":"levelo_inurba_marseille","lat":43.30646,"lon":5.40068,"is_reserved":false,"is_disabled":false,"rental_uris":{"android":"levelo://app?vid=954ce63b-1d42-4ba1-9eb0-83c6377ed1bd","ios":"levelo://app?vid=954ce63b-1d42-4ba1-9eb0-83c6377ed1bd"},"vehicle_type_id":"4","last_reported":1740607714,"current_range_meters":8000,"station_id":"ce4bh112rcd13ifvqda0","pricing_plan_id":"cebpf4jnsgd1na2vs0mg"},{"bike_id":"5c47d4c3-83ff-4b25-91fb-a87385c61f6a","system_id":"levelo_inurba_marseille","lat":43.31711,"lon":5.43676,"is_reserved":false,"is_disabled":false,"rental_uris":{"android":"levelo://app?vid=5c47d4c3-83ff-4b25-91fb-a87385c61f6a","ios":"levelo://app?vid=5c47d4c3-83ff-4b25-91fb-a87385c61f6a"},"vehicle_type_id":"4","last_reported":1740607714,"current_range_meters":8000,"station_id":"ce4bhp92rcd13ifvqhcg","pricing_plan_id":"cebpf4jnsgd1na2vs0mg"},{"bike_id":"7fb662b6-672f-4516-98b2-7764b86a3ad5","system_id":"levelo_inurba_marseille","lat":43.30927,"lon":5.40152,"is_reserved":false,"is_disabled":false,"rental_uris":{"android":"levelo://app?vid=7fb662b6-672f-4516-98b2-7764b86a3ad5","ios":"levelo://app?vid=7fb662b6-672f-4516-98b2-7764b86a3ad5"},"vehicle_type_id":"4","last_reported":1740607714,"current_range_meters":8000,"station_id":"ce4bgvp2rcd13ifvqct0","pricing_plan_id":"cebpf4jnsgd1na2vs0mg"},{"bike_id":"8f4f5c61-91cc-4fd5-85ad-d5b23eff483d","system_id":"levelo_inurba_marseille","lat":43.29745,"lon":5.36274,"is_reserved":false,"is_disabled":false,"rental_uris":{"android":"levelo://app?vid=8f4f5c61-91cc-4fd5-85ad-d5b23eff483d","ios":"levelo://app?vid=8f4f5c61-91cc-4fd5-85ad-d5b23eff483d"},"vehicle_type_id":"4","last_reported":1740607714,"current_range_meters":8000,"station_id":"","pricing_plan_id":"cebpf4jnsgd1na2vs0mg"},{"bike_id":"37e99989-7bc5-4327-b075-6f578166a871","system_id":"levelo_inurba_marseille","lat":43.31329,"lon":5.39713,"is_reserved":false,"is_disabled":false,"rental_uris":{"android":"levelo://app?vid=37e99989-7bc5-4327-b075-6f578166a871","ios":"levelo://app?vid=37e99989-7bc5-4327-b075-6f578166a871"},"vehicle_type_id":"4","last_reported":1740607714,"current_range_meters":8000,"station_id":"ce4bgvp2rcd13ifvqcu0","pricing_plan_id":"cebpf4jnsgd1na2vs0mg"},{"bike_id":"a7ed6a95-7b5c-4e93-9ca2-524d82ab9b62","system_id":"levelo_inurba_marseille","lat":43.29793,"lon":5.38111,"is_reserved":false,"is_disabled":false,"rental_uris":{"android":"levelo://app?vid=a7ed6a95-7b5c-4e93-9ca2-524d82ab9b62","ios":"levelo://app?vid=a7ed6a95-7b5c-4e93-9ca2-524d82ab9b62"},"vehicle_type_id":"4","last_reported":1740607714,"current_range_meters":8400,"station_id":"ce4bgip2rcd13ifvqbb0","pricing_plan_id":"cebpf4jnsgd1na2vs0mg"},{"bike_id":"26d1edd1-2a52-428c-b2a6-7dd75e71037c","system_id":"levelo_inurba_marseille","lat":43.28625,"lon":5.35102,"is_reserved":false,"is_disabled":false,"rental_uris":{"android":"levelo://app?vid=26d1edd1-2a52-428c-b2a6-7dd75e71037c","ios":"levelo://app?vid=26d1edd1-2a52-428c-b2a6-7dd75e71037c"},"vehicle_type_id":"4","last_reported":1740607714,"current_range_meters":8400,"station_id":"ce4bhch2rcd13ifvqeug","pricing_plan_id":"cebpf4jnsgd1na2vs0mg"},{"bike_id":"939c031e-684f-4a3f-8b91-979871392d85","system_id":"levelo_inurba_marseille","lat":43.30894,"lon":5.39656,"is_reserved":false,"is_disabled":false,"rental_uris":{"android":"levelo://app?vid=939c031e-684f-4a3f-8b91-979871392d85","ios":"levelo://app?vid=939c031e-684f-4a3f-8b91-979871392d85"},"vehicle_type_id":"4","last_reported":1740607714,"current_range_meters":8400,"station_id":"ce4bh012rcd13ifvqcv0","pricing_plan_id":"cebpf4jnsgd1na2vs0mg"},{"bike_id":"2f53f065-8a7f-4c29-96ab-746882f902a9","system_id":"levelo_inurba_marseille","lat":43.26678,"lon":5.38268,"is_reserved":false,"is_disabled":false,"rental_uris":{"android":"levelo://app?vid=2f53f065-8a7f-4c29-96ab-746882f902a9","ios":"levelo://app?vid=2f53f065-8a7f-4c29-96ab-746882f902a9"},"vehicle_type_id":"4","last_reported":1740607714,"current_range_meters":8000,"station_id":"ce4bhg92rcd13ifvqf90","pricing_plan_id":"cebpf4jnsgd1na2vs0mg"},{"bike_id":"6b286004-f086-4023-9675-02a95f8e917b","system_id":"levelo_inurba_marseille","lat":43.30959,"lon":5.3904,"is_reserved":false,"is_disabled":true,"rental_uris":{"android":"levelo://app?vid=6b286004-f086-4023-9675-02a95f8e917b","ios":"levelo://app?vid=6b286004-f086-4023-9675-02a95f8e917b"},"vehicle_type_id":"4","last_reported":1740607714,"current_range_meters":8400,"station_id":"ce4bgup2rcd13ifvqco0","pricing_plan_id":"cebpf4jnsgd1na2vs0mg"},{"bike_id":"eddb909d-bf4a-4d76-a25a-7ebf4e498d1f","system_id":"levelo_inurba_marseille","lat":43.24386,"lon":5.37061,"is_reserved":false,"is_disabled":false,"rental_uris":{"android":"levelo://app?vid=eddb909d-bf4a-4d76-a25a-7ebf4e498d1f","ios":"levelo://app?vid=eddb909d-bf4a-4d76-a25a-7ebf4e498d1f"},"vehicle_type_id":"4","last_reported":1740607714,"current_range_meters":8400,"station_id":"ce4bhhh2rcd13ifvqfk0","pricing_plan_id":"cebpf4jnsgd1na2vs0mg"},{"bike_id":"e7e7027c-2ea3-4f62-b0fe-1687b5820395","system_id":"levelo_inurba_marseille","lat":43.28451,"lon":5.35886,"is_reserved":false,"is_disabled":false,"rental_uris":{"android":"levelo://app?vid=e7e7027c-2ea3-4f62-b0fe-1687b5820395","ios":"levelo://app?vid=e7e7027c-2ea3-4f62-b0fe-1687b5820395"},"vehicle_type_id":"4","last_reported":1740607714,"current_range_meters":8800,"station_id":"ce4bhah2rcd13ifvqei0","pricing_plan_id":"cebpf4jnsgd1na2vs0mg"},{"bike_id":"a18d2462-6430-4fa5-8ce7-637ac348b4cd","system_id":"levelo_inurba_marseille","lat":43.2796,"lon":5.4104,"is_reserved":false,"is_disabled":false,"rental_uris":{"android":"levelo://app?vid=a18d2462-6430-4fa5-8ce7-637ac348b4cd","ios":"levelo://app?vid=a18d2462-6430-4fa5-8ce7-637ac348b4cd"},"vehicle_type_id":"4","last_reported":1740607714,"current_range_meters":8400,"station_id":"ce4bhnp2rcd13ifvqh0g","pricing_plan_id":"cebpf4jnsgd1na2vs0mg"},{"bike_id":"749b8865-8421-4153-8fd1-9d77ec509272","system_id":"levelo_inurba_marseille","lat":43.28867,"lon":5.36332,"is_reserved":false,"is_disabled":false,"rental_uris":{"android":"levelo://app?vid=749b8865-8421-4153-8fd1-9d77ec509272","ios":"levelo://app?vid=749b8865-8421-4153-8fd1-9d77ec509272"},"vehicle_type_id":"4","last_reported":1740607714,"current_range_meters":8400,"station_id":"","pricing_plan_id":"cebpf4jnsgd1na2vs0mg"},{"bike_id":"aab8d1b9-0c54-45c9-91de-042e3831224a","system_id":"levelo_inurba_marseille","lat":43.2967,"lon":5.37884,"is_reserved":false,"is_disabled":false,"rental_uris":{"android":"levelo://app?vid=aab8d1b9-0c54-45c9-91de-042e3831224a","ios":"levelo://app?vid=aab8d1b9-0c54-45c9-91de-042e3831224a"},"vehicle_type_id":"4","last_reported":1740607714,"current_range_meters":8400,"station_id":"ce4bgr92rcd13ifvqc7g","pricing_plan_id":"cebpf4jnsgd1na2vs0mg"},{"bike_id":"3eff3051-14d0-4607-91c9-fe973dc6a19e","system_id":"levelo_inurba_marseille","lat":43.31116,"lon":5.37767,"is_reserved":false,"is_disabled":false,"rental_uris":{"android":"levelo://app?vid=3eff3051-14d0-4607-91c9-fe973dc6a19e","ios":"levelo://app?vid=3eff3051-14d0-4607-91c9-fe973dc6a19e"},"vehicle_type_id":"4","last_reported":1740607714,"current_range_meters":8800,"station_id":"ce4bgt92rcd13ifvqcg0","pricing_plan_id":"cebpf4jnsgd1na2vs0mg"},{"bike_id":"cc5b8803-1413-4f2d-912e-42c063433ae4","system_id":"levelo_inurba_marseille","lat":43.321058,"lon":5.36761,"is_reserved":false,"is_disabled":false,"rental_uris":{"android":"levelo://app?vid=cc5b8803-1413-4f2d-912e-42c063433ae4","ios":"levelo://app?vid=cc5b8803-1413-4f2d-912e-42c063433ae4"},"vehicle_type_id":"4","last_reported":1740607714,"current_range_meters":8800,"station_id":"ce4bhrh2rcd13ifvqhug","pricing_plan_id":"cebpf4jnsgd1na2vs0mg"},{"bike_id":"b007f058-4163-4bbe-ba13-50835769bd43","system_id":"levelo_inurba_marseille","lat":43.31709,"lon":5.43719,"is_reserved":false,"is_disabled":false,"rental_uris":{"android":"levelo://app?vid=b007f058-4163-4bbe-ba13-50835769bd43","ios":"levelo://app?vid=b007f058-4163-4bbe-ba13-50835769bd43"},"vehicle_type_id":"4","last_reported":1740607714,"current_range_meters":8800,"station_id":"ce4bhp92rcd13ifvqhcg","pricing_plan_id":"cebpf4jnsgd1na2vs0mg"},{"bike_id":"719baaea-c293-42a3-a0f8-1e9953de7b58","system_id":"levelo_inurba_marseille","lat":43.26567,"lon":5.39016,"is_reserved":false,"is_disabled":true,"rental_uris":{"android":"levelo://app?vid=719baaea-c293-42a3-a0f8-1e9953de7b58","ios":"levelo://app?vid=719baaea-c293-42a3-a0f8-1e9953de7b58"},"vehicle_type_id":"4","last_reported":1740607714,"current_range_meters":8800,"station_id":"ce4bhe12rcd13ifvqf30","pricing_plan_id":"cebpf4jnsgd1na2vs0mg"},{"bike_id":"bad5fd5f-95dd-4f3c-968e-8bd3eef4c527","system_id":"levelo_inurba_marseille","lat":43.29255,"lon":5.40897,"is_reserved":false,"is_disabled":false,"rental_uris":{"android":"levelo://app?vid=bad5fd5f-95dd-4f3c-968e-8bd3eef4c527","ios":"levelo://app?vid=bad5fd5f-95dd-4f3c-968e-8bd3eef4c527"},"vehicle_type_id":"4","last_reported":1740607714,"current_range_meters":8400,"station_id":"ce4bh192rcd13ifvqdc0","pricing_plan_id":"cebpf4jnsgd1na2vs0mg"},{"bike_id":"cc0f0a33-8776-49b0-b177-6d3fba0c78fd","system_id":"levelo_inurba_marseille","lat":43.31322,"lon":5.39702,"is_reserved":false,"is_disabled":false,"rental_uris":{"android":"levelo://app?vid=cc0f0a33-8776-49b0-b177-6d3fba0c78fd","ios":"levelo://app?vid=cc0f0a33-8776-49b0-b177-6d3fba0c78fd"},"vehicle_type_id":"4","last_reported":1740607714,"current_range_meters":9200,"station_id":"ce4bgvp2rcd13ifvqcu0","pricing_plan_id":"cebpf4jnsgd1na2vs0mg"},{"bike_id":"692705f3-2190-4c8f-bba8-623114f168d1","system_id":"levelo_inurba_marseille","lat":43.29035,"lon":5.37556,"is_reserved":false,"is_disabled":false,"rental_uris":{"android":"levelo://app?vid=692705f3-2190-4c8f-bba8-623114f168d1","ios":"levelo://app?vid=692705f3-2190-4c8f-bba8-623114f168d1"},"vehicle_type_id":"4","last_reported":1740607714,"current_range_meters":9200,"station_id":"ce4bh692rcd13ifvqe90","pricing_plan_id":"cebpf4jnsgd1na2vs0mg"},{"bike_id":"22cc966a-4114-4778-9335-cdca6ce2c02e","system_id":"levelo_inurba_marseille","lat":43.32371,"lon":5.38883,"is_reserved":false,"is_disabled":false,"rental_uris":{"android":"levelo://app?vid=22cc966a-4114-4778-9335-cdca6ce2c02e","ios":"levelo://app?vid=22cc966a-4114-4778-9335-cdca6ce2c02e"},"vehicle_type_id":"4","last_reported":1740607714,"current_range_meters":14400,"station_id":"ce4bhqp2rcd13ifvqhog","pricing_plan_id":"cebpf4jnsgd1na2vs0mg"},{"bike_id":"849480a4-a8bd-48ff-8dad-91b56a03d51f","system_id":"levelo_inurba_marseille","lat":43.29296,"lon":5.37465,"is_reserved":false,"is_disabled":false,"rental_uris":{"android":"levelo://app?vid=849480a4-a8bd-48ff-8dad-91b56a03d51f","ios":"levelo://app?vid=849480a4-a8bd-48ff-8dad-91b56a03d51f"},"vehicle_type_id":"4","last_reported":1740607714,"current_range_meters":9200,"station_id":"ce4bgi12rcd13ifvqb70","pricing_plan_id":"cebpf4jnsgd1na2vs0mg"},{"bike_id":"1e37517c-7c13-497e-93a6-2c0209fd3d04","system_id":"levelo_inurba_marseille","lat":43.28619,"lon":5.35105,"is_reserved":false,"is_disabled":false,"rental_uris":{"android":"levelo://app?vid=1e37517c-7c13-497e-93a6-2c0209fd3d04","ios":"levelo://app?vid=1e37517c-7c13-497e-93a6-2c0209fd3d04"},"vehicle_type_id":"4","last_reported":1740607714,"current_range_meters":9600,"station_id":"ce4bhch2rcd13ifvqeug","pricing_plan_id":"cebpf4jnsgd1na2vs0mg"},{"bike_id":"1d70c622-10e8-4a33-8612-a7dc67991c51","system_id":"levelo_inurba_marseille","lat":43.31708,"lon":5.37783,"is_reserved":false,"is_disabled":false,"rental_uris":{"android":"levelo://app?vid=1d70c622-10e8-4a33-8612-a7dc67991c51","ios":"levelo://app?vid=1d70c622-10e8-4a33-8612-a7dc67991c51"},"vehicle_type_id":"4","last_reported":1740607714,"current_range_meters":9600,"station_id":"ce4bgth2rcd13ifvqch0","pricing_plan_id":"cebpf4jnsgd1na2vs0mg"},{"bike_id":"52a02ec7-8e0c-4781-ae9b-a63b7edaabaf","system_id":"levelo_inurba_marseille","lat":43.28277,"lon":5.35083,"is_reserved":false,"is_disabled":false,"rental_uris":{"android":"levelo://app?vid=52a02ec7-8e0c-4781-ae9b-a63b7edaabaf","ios":"levelo://app?vid=52a02ec7-8e0c-4781-ae9b-a63b7edaabaf"},"vehicle_type_id":"4","last_reported":1740607714,"current_range_meters":9600,"station_id":"ce4bhbp2rcd13ifvqerg","pricing_plan_id":"cebpf4jnsgd1na2vs0mg"},{"bike_id":"284a0e7b-046c-4a6a-972f-6192daeb9a55","system_id":"levelo_inurba_marseille","lat":43.29513,"lon":5.39394,"is_reserved":false,"is_disabled":true,"rental_uris":{"android":"levelo://app?vid=284a0e7b-046c-4a6a-972f-6192daeb9a55","ios":"levelo://app?vid=284a0e7b-046c-4a6a-972f-6192daeb9a55"},"vehicle_type_id":"4","last_reported":1740607714,"current_range_meters":9600,"station_id":"ce4bh292rcd13ifvqdf0","pricing_plan_id":"cebpf4jnsgd1na2vs0mg"},{"bike_id":"cfda1dd5-ba16-49f4-89bf-360c24b2268a","system_id":"levelo_inurba_marseille","lat":43.27817,"lon":5.407103,"is_reserved":false,"is_disabled":false,"rental_uris":{"android":"levelo://app?vid=cfda1dd5-ba16-49f4-89bf-360c24b2268a","ios":"levelo://app?vid=cfda1dd5-ba16-49f4-89bf-360c24b2268a"},"vehicle_type_id":"4","last_reported":1740607714,"current_range_meters":9600,"station_id":"ce4bhnh2rcd13ifvqgtg","pricing_plan_id":"cebpf4jnsgd1na2vs0mg"},{"bike_id":"6abc9bbb-7858-4f53-b665-ac4af517c97a","system_id":"levelo_inurba_marseille","lat":43.29257,"lon":5.40915,"is_reserved":false,"is_disabled":false,"rental_uris":{"android":"levelo://app?vid=6abc9bbb-7858-4f53-b665-ac4af517c97a","ios":"levelo://app?vid=6abc9bbb-7858-4f53-b665-ac4af517c97a"},"vehicle_type_id":"4","last_reported":1740607714,"current_range_meters":10000,"station_id":"ce4bh192rcd13ifvqdc0","pricing_plan_id":"cebpf4jnsgd1na2vs0mg"},{"bike_id":"128d9f19-560e-4907-b2b5-99db2fe70c71","system_id":"levelo_inurba_marseille","lat":43.30651,"lon":5.40072,"is_reserved":false,"is_disabled":false,"rental_uris":{"android":"levelo://app?vid=128d9f19-560e-4907-b2b5-99db2fe70c71","ios":"levelo://app?vid=128d9f19-560e-4907-b2b5-99db2fe70c71"},"vehicle_type_id":"4","last_reported":1740607714,"current_range_meters":10000,"station_id":"ce4bh112rcd13ifvqda0","pricing_plan_id":"cebpf4jnsgd1na2vs0mg"},{"bike_id":"b3e62d70-5da9-4a62-bca1-32f5705dbcde","system_id":"levelo_inurba_marseille","lat":43.29518,"lon":5.39404,"is_reserved":false,"is_disabled":false,"rental_uris":{"android":"levelo://app?vid=b3e62d70-5da9-4a62-bca1-32f5705dbcde","ios":"levelo://app?vid=b3e62d70-5da9-4a62-bca1-32f5705dbcde"},"vehicle_type_id":"4","last_reported":1740607714,"current_range_meters":10000,"station_id":"ce4bh292rcd13ifvqdf0","pricing_plan_id":"cebpf4jnsgd1na2vs0mg"},{"bike_id":"1690cf1f-489e-42fe-b2b4-7448c418d56d","system_id":"levelo_inurba_marseille","lat":43.32001,"lon":5.38162,"is_reserved":false,"is_disabled":false,"rental_uris":{"android":"levelo://app?vid=1690cf1f-489e-42fe-b2b4-7448c418d56d","ios":"levelo://app?vid=1690cf1f-489e-42fe-b2b4-7448c418d56d"},"vehicle_type_id":"4","last_reported":1740607714,"current_range_meters":10000,"station_id":"ce4bhr12rcd13ifvqhpg","pricing_plan_id":"cebpf4jnsgd1na2vs0mg"},{"bike_id":"53f6206c-2750-42e7-a8f3-9533b6f35c4a","system_id":"levelo_inurba_marseille","lat":43.28614,"lon":5.35127,"is_reserved":false,"is_disabled":false,"rental_uris":{"android":"levelo://app?vid=53f6206c-2750-42e7-a8f3-9533b6f35c4a","ios":"levelo://app?vid=53f6206c-2750-42e7-a8f3-9533b6f35c4a"},"vehicle_type_id":"4","last_reported":1740607714,"current_range_meters":10000,"station_id":"ce4bhch2rcd13ifvqeug","pricing_plan_id":"cebpf4jnsgd1na2vs0mg"},{"bike_id":"9f4ebea0-1844-4cd6-b15a-4bdeb3ff54e9","system_id":"levelo_inurba_marseille","lat":43.29877,"lon":5.3893,"is_reserved":false,"is_disabled":true,"rental_uris":{"android":"levelo://app?vid=9f4ebea0-1844-4cd6-b15a-4bdeb3ff54e9","ios":"levelo://app?vid=9f4ebea0-1844-4cd6-b15a-4bdeb3ff54e9"},"vehicle_type_id":"4","last_reported":1740607714,"current_range_meters":10800,"station_id":"ce4bh392rcd13ifvqdl0","pricing_plan_id":"cebpf4jnsgd1na2vs0mg"},{"bike_id":"8513dd97-684e-4d00-907b-2a87aae80691","system_id":"levelo_inurba_marseille","lat":43.25574,"lon":5.38272,"is_reserved":false,"is_disabled":false,"rental_uris":{"android":"levelo://app?vid=8513dd97-684e-4d00-907b-2a87aae80691","ios":"levelo://app?vid=8513dd97-684e-4d00-907b-2a87aae80691"},"vehicle_type_id":"4","last_reported":1740607714,"current_range_meters":9200,"station_id":"ce4bhih2rcd13ifvqfs0","pricing_plan_id":"cebpf4jnsgd1na2vs0mg"},{"bike_id":"f8f1be42-5e6b-4e88-9eda-4294491ed5a7","system_id":"levelo_inurba_marseille","lat":43.28457,"lon":5.35888,"is_reserved":false,"is_disabled":false,"rental_uris":{"android":"levelo://app?vid=f8f1be42-5e6b-4e88-9eda-4294491ed5a7","ios":"levelo://app?vid=f8f1be42-5e6b-4e88-9eda-4294491ed5a7"},"vehicle_type_id":"4","last_reported":1740607714,"current_range_meters":10800,"station_id":"ce4bhah2rcd13ifvqei0","pricing_plan_id":"cebpf4jnsgd1na2vs0mg"},{"bike_id":"2f0a78fd-1bb4-4968-9290-1d614ca0cdec","system_id":"levelo_inurba_marseille","lat":43.27898,"lon":5.38023,"is_reserved":false,"is_disabled":false,"rental_uris":{"android":"levelo://app?vid=2f0a78fd-1bb4-4968-9290-1d614ca0cdec","ios":"levelo://app?vid=2f0a78fd-1bb4-4968-9290-1d614ca0cdec"},"vehicle_type_id":"4","last_reported":1740607714,"current_range_meters":14000,"station_id":"ce4bhf92rcd13ifvqf50","pricing_plan_id":"cebpf4jnsgd1na2vs0mg"},{"bike_id":"741f2886-00db-4229-8ef7-9571d6d6537d","system_id":"levelo_inurba_marseille","lat":43.28076,"lon":5.3966,"is_reserved":false,"is_disabled":false,"rental_uris":{"android":"levelo://app?vid=741f2886-00db-4229-8ef7-9571d6d6537d","ios":"levelo://app?vid=741f2886-00db-4229-8ef7-9571d6d6537d"},"vehicle_type_id":"4","last_reported":1740607714,"current_range_meters":10800,"station_id":"ce4bho12rcd13ifvqh2g","pricing_plan_id":"cebpf4jnsgd1na2vs0mg"},{"bike_id":"240631fb-e1ef-49c9-bf78-176ba3465e14","system_id":"levelo_inurba_marseille","lat":43.2884,"lon":5.35856,"is_reserved":false,"is_disabled":false,"rental_uris":{"android":"levelo://app?vid=240631fb-e1ef-49c9-bf78-176ba3465e14","ios":"levelo://app?vid=240631fb-e1ef-49c9-bf78-176ba3465e14"},"vehicle_type_id":"4","last_reported":1740607714,"current_range_meters":11200,"station_id":"ce4bhb12rcd13ifvqem0","pricing_plan_id":"cebpf4jnsgd1na2vs0mg"},{"bike_id":"07231509-f031-44bd-a024-8b5dd56e800b","system_id":"levelo_inurba_marseille","lat":43.31681,"lon":5.39626,"is_reserved":false,"is_disabled":false,"rental_uris":{"android":"levelo://app?vid=07231509-f031-44bd-a024-8b5dd56e800b","ios":"levelo://app?vid=07231509-f031-44bd-a024-8b5dd56e800b"},"vehicle_type_id":"4","last_reported":1740607714,"current_range_meters":4800,"station_id":"","pricing_plan_id":"cebpf4jnsgd1na2vs0mg"},{"bike_id":"cc94d22d-18e0-42aa-9ad1-48c5a70f3481","system_id":"levelo_inurba_marseille","lat":43.30648,"lon":5.40073,"is_reserved":false,"is_disabled":false,"rental_uris":{"android":"levelo://app?vid=cc94d22d-18e0-42aa-9ad1-48c5a70f3481","ios":"levelo://app?vid=cc94d22d-18e0-42aa-9ad1-48c5a70f3481"},"vehicle_type_id":"4","last_reported":1740607714,"current_range_meters":6800,"station_id":"ce4bh112rcd13ifvqda0","pricing_plan_id":"cebpf4jnsgd1na2vs0mg"},{"bike_id":"1d603e55-5939-499f-95ae-55d30c9c2364","system_id":"levelo_inurba_marseille","lat":43.2815,"lon":5.42655,"is_reserved":false,"is_disabled":false,"rental_uris":{"android":"levelo://app?vid=1d603e55-5939-499f-95ae-55d30c9c2364","ios":"levelo://app?vid=1d603e55-5939-499f-95ae-55d30c9c2364"},"vehicle_type_id":"4","last_reported":1740607714,"current_range_meters":11200,"station_id":"ce4bhnh2rcd13ifvqgug","pricing_plan_id":"cebpf4jnsgd1na2vs0mg"},{"bike_id":"ad9571bc-5194-4f71-90ef-f1cb0835f36e","system_id":"levelo_inurba_marseille","lat":43.25498,"lon":5.3765,"is_reserved":false,"is_disabled":false,"rental_uris":{"android":"levelo://app?vid=ad9571bc-5194-4f71-90ef-f1cb0835f36e","ios":"levelo://app?vid=ad9571bc-5194-4f71-90ef-f1cb0835f36e"},"vehicle_type_id":"4","last_reported":1740607714,"current_range_meters":11200,"station_id":"ce4bhh12rcd13ifvqff0","pricing_plan_id":"cebpf4jnsgd1na2vs0mg"},{"bike_id":"4a55367e-93a4-4ad3-bcb1-42567a1393b2","system_id":"levelo_inurba_marseille","lat":43.29223,"lon":5.36081,"is_reserved":false,"is_disabled":false,"rental_uris":{"android":"levelo://app?vid=4a55367e-93a4-4ad3-bcb1-42567a1393b2","ios":"levelo://app?vid=4a55367e-93a4-4ad3-bcb1-42567a1393b2"},"vehicle_type_id":"4","last_reported":1740607714,"current_range_meters":11200,"station_id":"ce4bhbh2rcd13ifvqeqg","pricing_plan_id":"cebpf4jnsgd1na2vs0mg"},{"bike_id":"7b33f413-8f08-43ef-9261-24eef4ff1549","system_id":"levelo_inurba_marseille","lat":43.23961,"lon":5.36639,"is_reserved":false,"is_disabled":false,"rental_uris":{"android":"levelo://app?vid=7b33f413-8f08-43ef-9261-24eef4ff1549","ios":"levelo://app?vid=7b33f413-8f08-43ef-9261-24eef4ff1549"},"vehicle_type_id":"4","last_reported":1740607714,"current_range_meters":11200,"station_id":"ce4bhi12rcd13ifvqfp0","pricing_plan_id":"cebpf4jnsgd1na2vs0mg"},{"bike_id":"8499335b-1f69-46ce-b2b8-b33648ef3191","system_id":"levelo_inurba_marseille","lat":43.30868,"lon":5.39639,"is_reserved":false,"is_disabled":false,"rental_uris":{"android":"levelo://app?vid=8499335b-1f69-46ce-b2b8-b33648ef3191","ios":"levelo://app?vid=8499335b-1f69-46ce-b2b8-b33648ef3191"},"vehicle_type_id":"4","last_reported":1740607714,"current_range_meters":11600,"station_id":"ce4bh012rcd13ifvqcv0","pricing_plan_id":"cebpf4jnsgd1na2vs0mg"},{"bike_id":"35d5ccaf-27ee-40f3-aa7c-141363d515e4","system_id":"levelo_inurba_marseille","lat":43.29187,"lon":5.39333,"is_reserved":false,"is_disabled":false,"rental_uris":{"android":"levelo://app?vid=35d5ccaf-27ee-40f3-aa7c-141363d515e4","ios":"levelo://app?vid=35d5ccaf-27ee-40f3-aa7c-141363d515e4"},"vehicle_type_id":"4","last_reported":1740607714,"current_range_meters":14800,"station_id":"ce4bh192rcd13ifvqdd0","pricing_plan_id":"cebpf4jnsgd1na2vs0mg"},{"bike_id":"f66913d8-adc8-4497-b81a-8613461ae8a9","system_id":"levelo_inurba_marseille","lat":43.28429,"lon":5.35006,"is_reserved":false,"is_disabled":false,"rental_uris":{"android":"levelo://app?vid=f66913d8-adc8-4497-b81a-8613461ae8a9","ios":"levelo://app?vid=f66913d8-adc8-4497-b81a-8613461ae8a9"},"vehicle_type_id":"4","last_reported":1740607714,"current_range_meters":12000,"station_id":"ce4bhbh2rcd13ifvqepg","pricing_plan_id":"cebpf4jnsgd1na2vs0mg"},{"bike_id":"e2231c40-4e68-4e65-8d31-9d3b67df341a","system_id":"levelo_inurba_marseille","lat":43.25513,"lon":5.37642,"is_reserved":false,"is_disabled":false,"rental_uris":{"android":"levelo://app?vid=e2231c40-4e68-4e65-8d31-9d3b67df341a","ios":"levelo://app?vid=e2231c40-4e68-4e65-8d31-9d3b67df341a"},"vehicle_type_id":"4","last_reported":1740607714,"current_range_meters":12000,"station_id":"ce4bhh12rcd13ifvqff0","pricing_plan_id":"cebpf4jnsgd1na2vs0mg"},{"bike_id":"620faf8f-9860-4e84-b6cd-4559a0b9a89c","system_id":"levelo_inurba_marseille","lat":43.32496,"lon":5.36564,"is_reserved":false,"is_disabled":false,"rental_uris":{"android":"levelo://app?vid=620faf8f-9860-4e84-b6cd-4559a0b9a89c","ios":"levelo://app?vid=620faf8f-9860-4e84-b6cd-4559a0b9a89c"},"vehicle_type_id":"4","last_reported":1740607714,"current_range_meters":12000,"station_id":"ce4bhs12rcd13ifvqhvg","pricing_plan_id":"cebpf4jnsgd1na2vs0mg"},{"bike_id":"669c2581-a097-40fe-bcaa-8917d2cf5180","system_id":"levelo_inurba_marseille","lat":43.29186,"lon":5.39321,"is_reserved":false,"is_disabled":false,"rental_uris":{"android":"levelo://app?vid=669c2581-a097-40fe-bcaa-8917d2cf5180","ios":"levelo://app?vid=669c2581-a097-40fe-bcaa-8917d2cf5180"},"vehicle_type_id":"4","last_reported":1740607714,"current_range_meters":12400,"station_id":"ce4bh192rcd13ifvqdd0","pricing_plan_id":"cebpf4jnsgd1na2vs0mg"},{"bike_id":"19e4983d-b74d-4524-9c14-80fb6905f947","system_id":"levelo_inurba_marseille","lat":43.32101,"lon":5.36792,"is_reserved":false,"is_disabled":false,"rental_uris":{"android":"levelo://app?vid=19e4983d-b74d-4524-9c14-80fb6905f947","ios":"levelo://app?vid=19e4983d-b74d-4524-9c14-80fb6905f947"},"vehicle_type_id":"4","last_reported":1740607714,"current_range_meters":12400,"station_id":"ce4bhrh2rcd13ifvqhug","pricing_plan_id":"cebpf4jnsgd1na2vs0mg"},{"bike_id":"afd98e29-9e65-49b1-96e9-da6c0e62de76","system_id":"levelo_inurba_marseille","lat":43.29264,"lon":5.38233,"is_reserved":false,"is_disabled":false,"rental_uris":{"android":"levelo://app?vid=afd98e29-9e65-49b1-96e9-da6c0e62de76","ios":"levelo://app?vid=afd98e29-9e65-49b1-96e9-da6c0e62de76"},"vehicle_type_id":"4","last_reported":1740607714,"current_range_meters":12800,"station_id":"","pricing_plan_id":"cebpf4jnsgd1na2vs0mg"},{"bike_id":"32c78026-eae4-4cf3-91d4-dc2fc0b3e466","system_id":"levelo_inurba_marseille","lat":43.31492,"lon":5.37301,"is_reserved":false,"is_disabled":false,"rental_uris":{"android":"levelo://app?vid=32c78026-eae4-4cf3-91d4-dc2fc0b3e466","ios":"levelo://app?vid=32c78026-eae4-4cf3-91d4-dc2fc0b3e466"},"vehicle_type_id":"4","last_reported":1740607714,"current_range_meters":12400,"station_id":"ce4bgt12rcd13ifvqcd0","pricing_plan_id":"cebpf4jnsgd1na2vs0mg"},{"bike_id":"3b5eb973-61df-4c9f-b3f4-58839f85ef14","system_id":"levelo_inurba_marseille","lat":43.25106,"lon":5.40313,"is_reserved":false,"is_disabled":false,"rental_uris":{"android":"levelo://app?vid=3b5eb973-61df-4c9f-b3f4-58839f85ef14","ios":"levelo://app?vid=3b5eb973-61df-4c9f-b3f4-58839f85ef14"},"vehicle_type_id":"4","last_reported":1740607714,"current_range_meters":12400,"station_id":"ce4bhlh2rcd13ifvqgig","pricing_plan_id":"cebpf4jnsgd1na2vs0mg"},{"bike_id":"0fe73288-2a9e-45dd-a7fd-796e3cdd5bff","system_id":"levelo_inurba_marseille","lat":43.28444,"lon":5.39194,"is_reserved":false,"is_disabled":false,"rental_uris":{"android":"levelo://app?vid=0fe73288-2a9e-45dd-a7fd-796e3cdd5bff","ios":"levelo://app?vid=0fe73288-2a9e-45dd-a7fd-796e3cdd5bff"},"vehicle_type_id":"4","last_reported":1740607714,"current_range_meters":12400,"station_id":"ce4bhoh2rcd13ifvqh5g","pricing_plan_id":"cebpf4jnsgd1na2vs0mg"},{"bike_id":"d905ca0c-c944-4730-94c6-4871cc7ae277","system_id":"levelo_inurba_marseille","lat":43.28393,"lon":5.37525,"is_reserved":false,"is_disabled":false,"rental_uris":{"android":"levelo://app?vid=d905ca0c-c944-4730-94c6-4871cc7ae277","ios":"levelo://app?vid=d905ca0c-c944-4730-94c6-4871cc7ae277"},"vehicle_type_id":"4","last_reported":1740607714,"current_range_meters":12400,"station_id":"ce4bh412rcd13ifvqds0","pricing_plan_id":"cebpf4jnsgd1na2vs0mg"},{"bike_id":"5fdbaa49-16e6-43d7-bb68-6ad87f72c301","system_id":"levelo_inurba_marseille","lat":43.33069,"lon":5.4082,"is_reserved":false,"is_disabled":false,"rental_uris":{"android":"levelo://app?vid=5fdbaa49-16e6-43d7-bb68-6ad87f72c301","ios":"levelo://app?vid=5fdbaa49-16e6-43d7-bb68-6ad87f72c301"},"vehicle_type_id":"4","last_reported":1740607714,"current_range_meters":12400,"station_id":"","pricing_plan_id":"cebpf4jnsgd1na2vs0mg"},{"bike_id":"a97dc997-d895-438a-bd84-5be1b7864de9","system_id":"levelo_inurba_marseille","lat":43.29256,"lon":5.3676,"is_reserved":false,"is_disabled":false,"rental_uris":{"android":"levelo://app?vid=a97dc997-d895-438a-bd84-5be1b7864de9","ios":"levelo://app?vid=a97dc997-d895-438a-bd84-5be1b7864de9"},"vehicle_type_id":"4","last_reported":1740607714,"current_range_meters":12400,"station_id":"ce4bhbp2rcd13ifvqesg","pricing_plan_id":"cebpf4jnsgd1na2vs0mg"},{"bike_id":"7266af47-e9f0-4e43-bba1-095ebf3818bf","system_id":"levelo_inurba_marseille","lat":43.25084,"lon":5.39519,"is_reserved":false,"is_disabled":false,"rental_uris":{"android":"levelo://app?vid=7266af47-e9f0-4e43-bba1-095ebf3818bf","ios":"levelo://app?vid=7266af47-e9f0-4e43-bba1-095ebf3818bf"},"vehicle_type_id":"4","last_reported":1740607714,"current_range_meters":12400,"station_id":"ce4bhm12rcd13ifvqgkg","pricing_plan_id":"cebpf4jnsgd1na2vs0mg"},{"bike_id":"aa1c1254-8b09-4cc6-908c-bacac335dd0d","system_id":"levelo_inurba_marseille","lat":43.2409,"lon":5.37736,"is_reserved":false,"is_disabled":false,"rental_uris":{"android":"levelo://app?vid=aa1c1254-8b09-4cc6-908c-bacac335dd0d","ios":"levelo://app?vid=aa1c1254-8b09-4cc6-908c-bacac335dd0d"},"vehicle_type_id":"4","last_reported":1740607714,"current_range_meters":11200,"station_id":"ce4bhnp2rcd13ifvqgvg","pricing_plan_id":"cebpf4jnsgd1na2vs0mg"},{"bike_id":"7472206c-82ed-4f8c-ba7e-3135bd4be845","system_id":"levelo_inurba_marseille","lat":43.25865,"lon":5.39897,"is_reserved":false,"is_disabled":false,"rental_uris":{"android":"levelo://app?vid=7472206c-82ed-4f8c-ba7e-3135bd4be845","ios":"levelo://app?vid=7472206c-82ed-4f8c-ba7e-3135bd4be845"},"vehicle_type_id":"4","last_reported":1740607714,"current_range_meters":10800,"station_id":"ce4bhl92rcd13ifvqghg","pricing_plan_id":"cebpf4jnsgd1na2vs0mg"},{"bike_id":"9ea15ae9-9c11-486a-bb35-d4dcef991c05","system_id":"levelo_inurba_marseille","lat":43.28637,"lon":5.35109,"is_reserved":false,"is_disabled":false,"rental_uris":{"android":"levelo://app?vid=9ea15ae9-9c11-486a-bb35-d4dcef991c05","ios":"levelo://app?vid=9ea15ae9-9c11-486a-bb35-d4dcef991c05"},"vehicle_type_id":"4","last_reported":1740607714,"current_range_meters":12800,"station_id":"ce4bhch2rcd13ifvqeug","pricing_plan_id":"cebpf4jnsgd1na2vs0mg"},{"bike_id":"3f7ee1e3-d518-49d8-b2cf-8d55bf28bc5a","system_id":"levelo_inurba_marseille","lat":43.27988,"lon":5.41661,"is_reserved":false,"is_disabled":false,"rental_uris":{"android":"levelo://app?vid=3f7ee1e3-d518-49d8-b2cf-8d55bf28bc5a","ios":"levelo://app?vid=3f7ee1e3-d518-49d8-b2cf-8d55bf28bc5a"},"vehicle_type_id":"4","last_reported":1740607714,"current_range_meters":12800,"station_id":"ce4bho12rcd13ifvqh1g","pricing_plan_id":"cebpf4jnsgd1na2vs0mg"},{"bike_id":"dbbfe273-fe78-4ee1-abd4-c84186b9f85c","system_id":"levelo_inurba_marseille","lat":43.24076,"lon":5.37753,"is_reserved":false,"is_disabled":false,"rental_uris":{"android":"levelo://app?vid=dbbfe273-fe78-4ee1-abd4-c84186b9f85c","ios":"levelo://app?vid=dbbfe273-fe78-4ee1-abd4-c84186b9f85c"},"vehicle_type_id":"4","last_reported":1740607714,"current_range_meters":13600,"station_id":"ce4bhnp2rcd13ifvqgvg","pricing_plan_id":"cebpf4jnsgd1na2vs0mg"},{"bike_id":"17973595-0627-4cbe-be09-6d52168568c1","system_id":"levelo_inurba_marseille","lat":43.27823,"lon":5.40697,"is_reserved":false,"is_disabled":false,"rental_uris":{"android":"levelo://app?vid=17973595-0627-4cbe-be09-6d52168568c1","ios":"levelo://app?vid=17973595-0627-4cbe-be09-6d52168568c1"},"vehicle_type_id":"4","last_reported":1740607714,"current_range_meters":12800,"station_id":"ce4bhnh2rcd13ifvqgtg","pricing_plan_id":"cebpf4jnsgd1na2vs0mg"},{"bike_id":"f2efebfb-a79e-412e-890d-11ae26b9b9c7","system_id":"levelo_inurba_marseille","lat":43.28299,"lon":5.35053,"is_reserved":false,"is_disabled":false,"rental_uris":{"android":"levelo://app?vid=f2efebfb-a79e-412e-890d-11ae26b9b9c7","ios":"levelo://app?vid=f2efebfb-a79e-412e-890d-11ae26b9b9c7"},"vehicle_type_id":"4","last_reported":1740607714,"current_range_meters":12800,"station_id":"ce4bhbp2rcd13ifvqerg","pricing_plan_id":"cebpf4jnsgd1na2vs0mg"},{"bike_id":"ee07e172-028f-4d96-9f9c-0e283dc141d5","system_id":"levelo_inurba_marseille","lat":43.32368,"lon":5.38866,"is_reserved":false,"is_disabled":false,"rental_uris":{"android":"levelo://app?vid=ee07e172-028f-4d96-9f9c-0e283dc141d5","ios":"levelo://app?vid=ee07e172-028f-4d96-9f9c-0e283dc141d5"},"vehicle_type_id":"4","last_reported":1740607714,"current_range_meters":14000,"station_id":"ce4bhqp2rcd13ifvqhog","pricing_plan_id":"cebpf4jnsgd1na2vs0mg"},{"bike_id":"555da0d3-9aa3-498c-81f8-f4ef96e72283","system_id":"levelo_inurba_marseille","lat":43.30874,"lon":5.3965,"is_reserved":false,"is_disabled":false,"rental_uris":{"android":"levelo://app?vid=555da0d3-9aa3-498c-81f8-f4ef96e72283","ios":"levelo://app?vid=555da0d3-9aa3-498c-81f8-f4ef96e72283"},"vehicle_type_id":"4","last_reported":1740607714,"current_range_meters":13600,"station_id":"ce4bh012rcd13ifvqcv0","pricing_plan_id":"cebpf4jnsgd1na2vs0mg"},{"bike_id":"b1f10de4-4a39-4feb-9655-51978f0274ef","system_id":"levelo_inurba_marseille","lat":43.3065,"lon":5.40105,"is_reserved":false,"is_disabled":false,"rental_uris":{"android":"levelo://app?vid=b1f10de4-4a39-4feb-9655-51978f0274ef","ios":"levelo://app?vid=b1f10de4-4a39-4feb-9655-51978f0274ef"},"vehicle_type_id":"4","last_reported":1740607714,"current_range_meters":13600,"station_id":"ce4bh112rcd13ifvqda0","pricing_plan_id":"cebpf4jnsgd1na2vs0mg"},{"bike_id":"62cbb18c-2f31-4f5c-9351-9e9b31dd9036","system_id":"levelo_inurba_marseille","lat":43.29856,"lon":5.3866,"is_reserved":false,"is_disabled":false,"rental_uris":{"android":"levelo://app?vid=62cbb18c-2f31-4f5c-9351-9e9b31dd9036","ios":"levelo://app?vid=62cbb18c-2f31-4f5c-9351-9e9b31dd9036"},"vehicle_type_id":"4","last_reported":1740607714,"current_range_meters":14000,"station_id":"","pricing_plan_id":"cebpf4jnsgd1na2vs0mg"},{"bike_id":"ff25c959-3f15-4cc6-a27c-34344c42ffa5","system_id":"levelo_inurba_marseille","lat":43.25099,"lon":5.39512,"is_reserved":false,"is_disabled":false,"rental_uris":{"android":"levelo://app?vid=ff25c959-3f15-4cc6-a27c-34344c42ffa5","ios":"levelo://app?vid=ff25c959-3f15-4cc6-a27c-34344c42ffa5"},"vehicle_type_id":"4","last_reported":1740607714,"current_range_meters":14000,"station_id":"ce4bhm12rcd13ifvqgkg","pricing_plan_id":"cebpf4jnsgd1na2vs0mg"},{"bike_id":"b8d8e0e5-e929-41c9-9bd0-33936ba10d3f","system_id":"levelo_inurba_marseille","lat":43.3153,"lon":5.38027,"is_reserved":false,"is_disabled":false,"rental_uris":{"android":"levelo://app?vid=b8d8e0e5-e929-41c9-9bd0-33936ba10d3f","ios":"levelo://app?vid=b8d8e0e5-e929-41c9-9bd0-33936ba10d3f"},"vehicle_type_id":"4","last_reported":1740607714,"current_range_meters":13600,"station_id":"ce4bhsp2rcd13ifvqi50","pricing_plan_id":"cebpf4jnsgd1na2vs0mg"},{"bike_id":"12233c19-4786-43c7-b87e-c054ec841669","system_id":"levelo_inurba_marseille","lat":43.28414,"lon":5.37513,"is_reserved":false,"is_disabled":false,"rental_uris":{"android":"levelo://app?vid=12233c19-4786-43c7-b87e-c054ec841669","ios":"levelo://app?vid=12233c19-4786-43c7-b87e-c054ec841669"},"vehicle_type_id":"4","last_reported":1740607714,"current_range_meters":13600,"station_id":"ce4bh412rcd13ifvqds0","pricing_plan_id":"cebpf4jnsgd1na2vs0mg"},{"bike_id":"91f909e9-358e-43ed-a45f-822af931a978","system_id":"levelo_inurba_marseille","lat":43.23217,"lon":5.4037,"is_reserved":false,"is_disabled":false,"rental_uris":{"android":"levelo://app?vid=91f909e9-358e-43ed-a45f-822af931a978","ios":"levelo://app?vid=91f909e9-358e-43ed-a45f-822af931a978"},"vehicle_type_id":"4","last_reported":1740607714,"current_range_meters":13600,"station_id":"","pricing_plan_id":"cebpf4jnsgd1na2vs0mg"},{"bike_id":"bc6ef5b5-466c-4f14-b43a-a23b7fb12a30","system_id":"levelo_inurba_marseille","lat":43.28464,"lon":5.35885,"is_reserved":false,"is_disabled":false,"rental_uris":{"android":"levelo://app?vid=bc6ef5b5-466c-4f14-b43a-a23b7fb12a30","ios":"levelo://app?vid=bc6ef5b5-466c-4f14-b43a-a23b7fb12a30"},"vehicle_type_id":"4","last_reported":1740607714,"current_range_meters":14400,"station_id":"ce4bhah2rcd13ifvqei0","pricing_plan_id":"cebpf4jnsgd1na2vs0mg"},{"bike_id":"4841ad10-ebe8-484d-80b2-25279a3a26d1","system_id":"levelo_inurba_marseille","lat":43.27926,"lon":5.39582,"is_reserved":false,"is_disabled":false,"rental_uris":{"android":"levelo://app?vid=4841ad10-ebe8-484d-80b2-25279a3a26d1","ios":"levelo://app?vid=4841ad10-ebe8-484d-80b2-25279a3a26d1"},"vehicle_type_id":"4","last_reported":1740607714,"current_range_meters":14000,"station_id":"ce4bhf92rcd13ifvqf40","pricing_plan_id":"cebpf4jnsgd1na2vs0mg"},{"bike_id":"345a2a27-d318-4432-ac2a-158311af24ed","system_id":"levelo_inurba_marseille","lat":43.29798,"lon":5.39355,"is_reserved":false,"is_disabled":false,"rental_uris":{"android":"levelo://app?vid=345a2a27-d318-4432-ac2a-158311af24ed","ios":"levelo://app?vid=345a2a27-d318-4432-ac2a-158311af24ed"},"vehicle_type_id":"4","last_reported":1740607714,"current_range_meters":14000,"station_id":"chh1huq6cuj3fo74tm60","pricing_plan_id":"cebpf4jnsgd1na2vs0mg"},{"bike_id":"4aeb7717-91a8-458b-a368-917129279353","system_id":"levelo_inurba_marseille","lat":43.26944,"lon":5.40257,"is_reserved":false,"is_disabled":false,"rental_uris":{"android":"levelo://app?vid=4aeb7717-91a8-458b-a368-917129279353","ios":"levelo://app?vid=4aeb7717-91a8-458b-a368-917129279353"},"vehicle_type_id":"4","last_reported":1740607714,"current_range_meters":12800,"station_id":"cjm6bp8fraef2m0cb0m0","pricing_plan_id":"cebpf4jnsgd1na2vs0mg"},{"bike_id":"7eebcedb-18f4-4398-b9bd-d7d8a33415a2","system_id":"levelo_inurba_marseille","lat":43.29217,"lon":5.36069,"is_reserved":false,"is_disabled":false,"rental_uris":{"android":"levelo://app?vid=7eebcedb-18f4-4398-b9bd-d7d8a33415a2","ios":"levelo://app?vid=7eebcedb-18f4-4398-b9bd-d7d8a33415a2"},"vehicle_type_id":"4","last_reported":1740607714,"current_range_meters":14000,"station_id":"ce4bhbh2rcd13ifvqeqg","pricing_plan_id":"cebpf4jnsgd1na2vs0mg"},{"bike_id":"bc1d364d-6dd6-4154-a270-d1ef9833f13a","system_id":"levelo_inurba_marseille","lat":43.30436,"lon":5.3889,"is_reserved":false,"is_disabled":false,"rental_uris":{"android":"levelo://app?vid=bc1d364d-6dd6-4154-a270-d1ef9833f13a","ios":"levelo://app?vid=bc1d364d-6dd6-4154-a270-d1ef9833f13a"},"vehicle_type_id":"4","last_reported":1740607714,"current_range_meters":13600,"station_id":"ce4bgk12rcd13ifvqbi0","pricing_plan_id":"cebpf4jnsgd1na2vs0mg"},{"bike_id":"c140ef99-0567-4b55-b95a-4027e91e5cf2","system_id":"levelo_inurba_marseille","lat":43.26944,"lon":5.40242,"is_reserved":false,"is_disabled":false,"rental_uris":{"android":"levelo://app?vid=c140ef99-0567-4b55-b95a-4027e91e5cf2","ios":"levelo://app?vid=c140ef99-0567-4b55-b95a-4027e91e5cf2"},"vehicle_type_id":"4","last_reported":1740607714,"current_range_meters":12800,"station_id":"cjm6bp8fraef2m0cb0m0","pricing_plan_id":"cebpf4jnsgd1na2vs0mg"},{"bike_id":"2215d5e4-8798-4621-81ec-24430288d53b","system_id":"levelo_inurba_marseille","lat":43.32008,"lon":5.38161,"is_reserved":false,"is_disabled":false,"rental_uris":{"android":"levelo://app?vid=2215d5e4-8798-4621-81ec-24430288d53b","ios":"levelo://app?vid=2215d5e4-8798-4621-81ec-24430288d53b"},"vehicle_type_id":"4","last_reported":1740607714,"current_range_meters":14400,"station_id":"ce4bhr12rcd13ifvqhpg","pricing_plan_id":"cebpf4jnsgd1na2vs0mg"},{"bike_id":"dc1deb5f-be60-47dd-a397-2458bf714b12","system_id":"levelo_inurba_marseille","lat":43.23054,"lon":5.35495,"is_reserved":false,"is_disabled":false,"rental_uris":{"android":"levelo://app?vid=dc1deb5f-be60-47dd-a397-2458bf714b12","ios":"levelo://app?vid=dc1deb5f-be60-47dd-a397-2458bf714b12"},"vehicle_type_id":"4","last_reported":1740607714,"current_range_meters":14800,"station_id":"cpo3342slgdg3j2ifvpg","pricing_plan_id":"cebpf4jnsgd1na2vs0mg"},{"bike_id":"7c730a0f-373f-4c53-9182-51fe514d5dd8","system_id":"levelo_inurba_marseille","lat":43.2979,"lon":5.39346,"is_reserved":false,"is_disabled":false,"rental_uris":{"android":"levelo://app?vid=7c730a0f-373f-4c53-9182-51fe514d5dd8","ios":"levelo://app?vid=7c730a0f-373f-4c53-9182-51fe514d5dd8"},"vehicle_type_id":"4","last_reported":1740607714,"current_range_meters":14400,"station_id":"chh1huq6cuj3fo74tm60","pricing_plan_id":"cebpf4jnsgd1na2vs0mg"},{"bike_id":"d52f0219-7e16-4dc5-bdd6-5f76ea649f0a","system_id":"levelo_inurba_marseille","lat":43.30885,"lon":5.37199,"is_reserved":false,"is_disabled":false,"rental_uris":{"android":"levelo://app?vid=d52f0219-7e16-4dc5-bdd6-5f76ea649f0a","ios":"levelo://app?vid=d52f0219-7e16-4dc5-bdd6-5f76ea649f0a"},"vehicle_type_id":"4","last_reported":1740607714,"current_range_meters":14400,"station_id":"ce4bguh2rcd13ifvqckg","pricing_plan_id":"cebpf4jnsgd1na2vs0mg"},{"bike_id":"98713af8-0bcb-49aa-8f94-80b87751ee40","system_id":"levelo_inurba_marseille","lat":43.30645,"lon":5.40086,"is_reserved":false,"is_disabled":false,"rental_uris":{"android":"levelo://app?vid=98713af8-0bcb-49aa-8f94-80b87751ee40","ios":"levelo://app?vid=98713af8-0bcb-49aa-8f94-80b87751ee40"},"vehicle_type_id":"4","last_reported":1740607714,"current_range_meters":14800,"station_id":"ce4bh112rcd13ifvqda0","pricing_plan_id":"cebpf4jnsgd1na2vs0mg"},{"bike_id":"342e968d-d4db-4448-9b3b-859697777187","system_id":"levelo_inurba_marseille","lat":43.30898,"lon":5.39651,"is_reserved":false,"is_disabled":false,"rental_uris":{"android":"levelo://app?vid=342e968d-d4db-4448-9b3b-859697777187","ios":"levelo://app?vid=342e968d-d4db-4448-9b3b-859697777187"},"vehicle_type_id":"4","last_reported":1740607714,"current_range_meters":14800,"station_id":"ce4bh012rcd13ifvqcv0","pricing_plan_id":"cebpf4jnsgd1na2vs0mg"},{"bike_id":"79a585c5-cf42-4150-9df4-5cf43862e690","system_id":"levelo_inurba_marseille","lat":43.24654,"lon":5.38891,"is_reserved":false,"is_disabled":false,"rental_uris":{"android":"levelo://app?vid=79a585c5-cf42-4150-9df4-5cf43862e690","ios":"levelo://app?vid=79a585c5-cf42-4150-9df4-5cf43862e690"},"vehicle_type_id":"4","last_reported":1740607714,"current_range_meters":14800,"station_id":"ce4bhg12rcd13ifvqf60","pricing_plan_id":"cebpf4jnsgd1na2vs0mg"},{"bike_id":"c5c1866b-2871-43fe-a572-ebaa42e44f03","system_id":"levelo_inurba_marseille","lat":43.27998,"lon":5.41664,"is_reserved":false,"is_disabled":false,"rental_uris":{"android":"levelo://app?vid=c5c1866b-2871-43fe-a572-ebaa42e44f03","ios":"levelo://app?vid=c5c1866b-2871-43fe-a572-ebaa42e44f03"},"vehicle_type_id":"4","last_reported":1740607714,"current_range_meters":14400,"station_id":"ce4bho12rcd13ifvqh1g","pricing_plan_id":"cebpf4jnsgd1na2vs0mg"},{"bike_id":"5641329e-600b-44a9-bed0-c6b184623448","system_id":"levelo_inurba_marseille","lat":43.31114,"lon":5.37765,"is_reserved":false,"is_disabled":false,"rental_uris":{"android":"levelo://app?vid=5641329e-600b-44a9-bed0-c6b184623448","ios":"levelo://app?vid=5641329e-600b-44a9-bed0-c6b184623448"},"vehicle_type_id":"4","last_reported":1740607714,"current_range_meters":14800,"station_id":"ce4bgt92rcd13ifvqcg0","pricing_plan_id":"cebpf4jnsgd1na2vs0mg"},{"bike_id":"9ee05a79-6ed0-471b-8dcb-b288b1c46214","system_id":"levelo_inurba_marseille","lat":43.291862,"lon":5.393287,"is_reserved":false,"is_disabled":false,"rental_uris":{"android":"levelo://app?vid=9ee05a79-6ed0-471b-8dcb-b288b1c46214","ios":"levelo://app?vid=9ee05a79-6ed0-471b-8dcb-b288b1c46214"},"vehicle_type_id":"4","last_reported":1740607714,"current_range_meters":15200,"station_id":"ce4bh192rcd13ifvqdd0","pricing_plan_id":"cebpf4jnsgd1na2vs0mg"},{"bike_id":"eedd36d0-74d7-4af9-87da-31b2bb62bd76","system_id":"levelo_inurba_marseille","lat":43.30255,"lon":5.40076,"is_reserved":false,"is_disabled":false,"rental_uris":{"android":"levelo://app?vid=eedd36d0-74d7-4af9-87da-31b2bb62bd76","ios":"levelo://app?vid=eedd36d0-74d7-4af9-87da-31b2bb62bd76"},"vehicle_type_id":"4","last_reported":1740607714,"current_range_meters":11600,"station_id":"ce4bgvh2rcd13ifvqcs0","pricing_plan_id":"cebpf4jnsgd1na2vs0mg"},{"bike_id":"66f45410-3ba7-4c09-83fa-7ef501f9d763","system_id":"levelo_inurba_marseille","lat":43.28713,"lon":5.37383,"is_reserved":false,"is_disabled":false,"rental_uris":{"android":"levelo://app?vid=66f45410-3ba7-4c09-83fa-7ef501f9d763","ios":"levelo://app?vid=66f45410-3ba7-4c09-83fa-7ef501f9d763"},"vehicle_type_id":"4","last_reported":1740607714,"current_range_meters":16000,"station_id":"","pricing_plan_id":"cebpf4jnsgd1na2vs0mg"},{"bike_id":"9d301360-426b-4103-9783-18a245c174ea","system_id":"levelo_inurba_marseille","lat":43.25725,"lon":5.41045,"is_reserved":false,"is_disabled":false,"rental_uris":{"android":"levelo://app?vid=9d301360-426b-4103-9783-18a245c174ea","ios":"levelo://app?vid=9d301360-426b-4103-9783-18a245c174ea"},"vehicle_type_id":"4","last_reported":1740607714,"current_range_meters":15200,"station_id":"ce4bhkp2rcd13ifvqgd0","pricing_plan_id":"cebpf4jnsgd1na2vs0mg"},{"bike_id":"f3dcfc0c-6d5d-4263-b40e-6208dab2037f","system_id":"levelo_inurba_marseille","lat":43.28725,"lon":5.36099,"is_reserved":false,"is_disabled":false,"rental_uris":{"android":"levelo://app?vid=f3dcfc0c-6d5d-4263-b40e-6208dab2037f","ios":"levelo://app?vid=f3dcfc0c-6d5d-4263-b40e-6208dab2037f"},"vehicle_type_id":"4","last_reported":1740607714,"current_range_meters":14800,"station_id":"cki0cbj6b192h4jlfktg","pricing_plan_id":"cebpf4jnsgd1na2vs0mg"},{"bike_id":"5ab74027-0266-42e6-903d-055b2632fc94","system_id":"levelo_inurba_marseille","lat":43.27614,"lon":5.3611,"is_reserved":false,"is_disabled":false,"rental_uris":{"android":"levelo://app?vid=5ab74027-0266-42e6-903d-055b2632fc94","ios":"levelo://app?vid=5ab74027-0266-42e6-903d-055b2632fc94"},"vehicle_type_id":"4","last_reported":1740607714,"current_range_meters":16000,"station_id":"ce4bgj92rcd13ifvqbe0","pricing_plan_id":"cebpf4jnsgd1na2vs0mg"},{"bike_id":"1b575eb4-f076-45fc-af63-0ccd9d6b87de","system_id":"levelo_inurba_marseille","lat":43.29516,"lon":5.39389,"is_reserved":false,"is_disabled":false,"rental_uris":{"android":"levelo://app?vid=1b575eb4-f076-45fc-af63-0ccd9d6b87de","ios":"levelo://app?vid=1b575eb4-f076-45fc-af63-0ccd9d6b87de"},"vehicle_type_id":"4","last_reported":1740607714,"current_range_meters":16000,"station_id":"ce4bh292rcd13ifvqdf0","pricing_plan_id":"cebpf4jnsgd1na2vs0mg"},{"bike_id":"d66c4c2f-8a7c-42b3-8adc-6056e6aa3202","system_id":"levelo_inurba_marseille","lat":43.30867,"lon":5.39654,"is_reserved":false,"is_disabled":false,"rental_uris":{"android":"levelo://app?vid=d66c4c2f-8a7c-42b3-8adc-6056e6aa3202","ios":"levelo://app?vid=d66c4c2f-8a7c-42b3-8adc-6056e6aa3202"},"vehicle_type_id":"4","last_reported":1740607714,"current_range_meters":16400,"station_id":"ce4bh012rcd13ifvqcv0","pricing_plan_id":"cebpf4jnsgd1na2vs0mg"},{"bike_id":"bc679af8-b2d8-495d-8f01-39de79e9748b","system_id":"levelo_inurba_marseille","lat":43.29566,"lon":5.36764,"is_reserved":false,"is_disabled":false,"rental_uris":{"android":"levelo://app?vid=bc679af8-b2d8-495d-8f01-39de79e9748b","ios":"levelo://app?vid=bc679af8-b2d8-495d-8f01-39de79e9748b"},"vehicle_type_id":"4","last_reported":1740607714,"current_range_meters":16000,"station_id":"ce4bgph2rcd13ifvqc2g","pricing_plan_id":"cebpf4jnsgd1na2vs0mg"},{"bike_id":"3ef4a283-1278-481d-a678-2032504e228a","system_id":"levelo_inurba_marseille","lat":43.29,"lon":5.35624,"is_reserved":false,"is_disabled":true,"rental_uris":{"android":"levelo://app?vid=3ef4a283-1278-481d-a678-2032504e228a","ios":"levelo://app?vid=3ef4a283-1278-481d-a678-2032504e228a"},"vehicle_type_id":"4","last_reported":1740607714,"current_range_meters":16000,"station_id":"ce4bhb92rcd13ifvqen0","pricing_plan_id":"cebpf4jnsgd1na2vs0mg"},{"bike_id":"63569115-3240-4df6-ada0-ada3d9c2e5bc","system_id":"levelo_inurba_marseille","lat":43.2396,"lon":5.36629,"is_reserved":false,"is_disabled":false,"rental_uris":{"android":"levelo://app?vid=63569115-3240-4df6-ada0-ada3d9c2e5bc","ios":"levelo://app?vid=63569115-3240-4df6-ada0-ada3d9c2e5bc"},"vehicle_type_id":"4","last_reported":1740607714,"current_range_meters":16000,"station_id":"ce4bhi12rcd13ifvqfp0","pricing_plan_id":"cebpf4jnsgd1na2vs0mg"},{"bike_id":"9539f193-b30b-4b67-ad81-0064958da16e","system_id":"levelo_inurba_marseille","lat":43.29371,"lon":5.37851,"is_reserved":false,"is_disabled":false,"rental_uris":{"android":"levelo://app?vid=9539f193-b30b-4b67-ad81-0064958da16e","ios":"levelo://app?vid=9539f193-b30b-4b67-ad81-0064958da16e"},"vehicle_type_id":"4","last_reported":1740607714,"current_range_meters":16000,"station_id":"ce4bgjh2rcd13ifvqbf0","pricing_plan_id":"cebpf4jnsgd1na2vs0mg"},{"bike_id":"d9edb359-99e6-43de-99dd-b9b1164fad3d","system_id":"levelo_inurba_marseille","lat":43.28468,"lon":5.38431,"is_reserved":false,"is_disabled":true,"rental_uris":{"android":"levelo://app?vid=d9edb359-99e6-43de-99dd-b9b1164fad3d","ios":"levelo://app?vid=d9edb359-99e6-43de-99dd-b9b1164fad3d"},"vehicle_type_id":"4","last_reported":1740607714,"current_range_meters":16000,"station_id":"ce4bh512rcd13ifvqe3g","pricing_plan_id":"cebpf4jnsgd1na2vs0mg"},{"bike_id":"ef231025-c9c9-4a9c-88e3-45260f2ce9a5","system_id":"levelo_inurba_marseille","lat":43.29244,"lon":5.40864,"is_reserved":false,"is_disabled":false,"rental_uris":{"android":"levelo://app?vid=ef231025-c9c9-4a9c-88e3-45260f2ce9a5","ios":"levelo://app?vid=ef231025-c9c9-4a9c-88e3-45260f2ce9a5"},"vehicle_type_id":"4","last_reported":1740607714,"current_range_meters":16000,"station_id":"ce4bh192rcd13ifvqdc0","pricing_plan_id":"cebpf4jnsgd1na2vs0mg"},{"bike_id":"6f5e6b2b-b94b-4eea-910a-3764064b3c05","system_id":"levelo_inurba_marseille","lat":43.27997,"lon":5.40018,"is_reserved":false,"is_disabled":false,"rental_uris":{"android":"levelo://app?vid=6f5e6b2b-b94b-4eea-910a-3764064b3c05","ios":"levelo://app?vid=6f5e6b2b-b94b-4eea-910a-3764064b3c05"},"vehicle_type_id":"4","last_reported":1740607714,"current_range_meters":16400,"station_id":"ce4bho92rcd13ifvqh4g","pricing_plan_id":"cebpf4jnsgd1na2vs0mg"},{"bike_id":"8a339686-9723-415b-8f3c-02f3810e4035","system_id":"levelo_inurba_marseille","lat":43.29886,"lon":5.39734,"is_reserved":false,"is_disabled":false,"rental_uris":{"android":"levelo://app?vid=8a339686-9723-415b-8f3c-02f3810e4035","ios":"levelo://app?vid=8a339686-9723-415b-8f3c-02f3810e4035"},"vehicle_type_id":"4","last_reported":1740607714,"current_range_meters":16400,"station_id":"ce4bh0h2rcd13ifvqd50","pricing_plan_id":"cebpf4jnsgd1na2vs0mg"},{"bike_id":"3648d549-1aa7-44d1-bde4-30bac4ece65c","system_id":"levelo_inurba_marseille","lat":43.255794,"lon":5.382354,"is_reserved":false,"is_disabled":false,"rental_uris":{"android":"levelo://app?vid=3648d549-1aa7-44d1-bde4-30bac4ece65c","ios":"levelo://app?vid=3648d549-1aa7-44d1-bde4-30bac4ece65c"},"vehicle_type_id":"4","last_reported":1740607714,"current_range_meters":16400,"station_id":"ce4bhih2rcd13ifvqfs0","pricing_plan_id":"cebpf4jnsgd1na2vs0mg"},{"bike_id":"c8cf8366-0c44-45bd-9143-3b5fae02e2ac","system_id":"levelo_inurba_marseille","lat":43.28152,"lon":5.42651,"is_reserved":false,"is_disabled":false,"rental_uris":{"android":"levelo://app?vid=c8cf8366-0c44-45bd-9143-3b5fae02e2ac","ios":"levelo://app?vid=c8cf8366-0c44-45bd-9143-3b5fae02e2ac"},"vehicle_type_id":"4","last_reported":1740607714,"current_range_meters":16400,"station_id":"ce4bhnh2rcd13ifvqgug","pricing_plan_id":"cebpf4jnsgd1na2vs0mg"},{"bike_id":"5a5acc20-a5dd-46dd-beb8-cb6e25a6254f","system_id":"levelo_inurba_marseille","lat":43.24664,"lon":5.38152,"is_reserved":false,"is_disabled":false,"rental_uris":{"android":"levelo://app?vid=5a5acc20-a5dd-46dd-beb8-cb6e25a6254f","ios":"levelo://app?vid=5a5acc20-a5dd-46dd-beb8-cb6e25a6254f"},"vehicle_type_id":"4","last_reported":1740607714,"current_range_meters":16400,"station_id":"ce4bhih2rcd13ifvqfr0","pricing_plan_id":"cebpf4jnsgd1na2vs0mg"},{"bike_id":"1afe79f3-229c-4252-a0d3-309f3064fa33","system_id":"levelo_inurba_marseille","lat":43.24072,"lon":5.37765,"is_reserved":false,"is_disabled":false,"rental_uris":{"android":"levelo://app?vid=1afe79f3-229c-4252-a0d3-309f3064fa33","ios":"levelo://app?vid=1afe79f3-229c-4252-a0d3-309f3064fa33"},"vehicle_type_id":"4","last_reported":1740607714,"current_range_meters":15200,"station_id":"ce4bhnp2rcd13ifvqgvg","pricing_plan_id":"cebpf4jnsgd1na2vs0mg"},{"bike_id":"1de86b69-54c0-4bac-b321-f4d8d8bfd779","system_id":"levelo_inurba_marseille","lat":43.28726,"lon":5.36086,"is_reserved":false,"is_disabled":false,"rental_uris":{"android":"levelo://app?vid=1de86b69-54c0-4bac-b321-f4d8d8bfd779","ios":"levelo://app?vid=1de86b69-54c0-4bac-b321-f4d8d8bfd779"},"vehicle_type_id":"4","last_reported":1740607714,"current_range_meters":16400,"station_id":"cki0cbj6b192h4jlfktg","pricing_plan_id":"cebpf4jnsgd1na2vs0mg"},{"bike_id":"f247f684-c145-4555-8751-9ac96cb4e764","system_id":"levelo_inurba_marseille","lat":43.29254,"lon":5.40908,"is_reserved":false,"is_disabled":false,"rental_uris":{"android":"levelo://app?vid=f247f684-c145-4555-8751-9ac96cb4e764","ios":"levelo://app?vid=f247f684-c145-4555-8751-9ac96cb4e764"},"vehicle_type_id":"4","last_reported":1740607714,"current_range_meters":16400,"station_id":"ce4bh192rcd13ifvqdc0","pricing_plan_id":"cebpf4jnsgd1na2vs0mg"},{"bike_id":"685a9aec-9c49-48b9-b746-ee9bcd420714","system_id":"levelo_inurba_marseille","lat":43.31752,"lon":5.39018,"is_reserved":false,"is_disabled":false,"rental_uris":{"android":"levelo://app?vid=685a9aec-9c49-48b9-b746-ee9bcd420714","ios":"levelo://app?vid=685a9aec-9c49-48b9-b746-ee9bcd420714"},"vehicle_type_id":"4","last_reported":1740607714,"current_range_meters":16400,"station_id":"ce4bhqp2rcd13ifvqhng","pricing_plan_id":"cebpf4jnsgd1na2vs0mg"},{"bike_id":"974f05d6-cfec-4495-b9f5-ca3514091b1e","system_id":"levelo_inurba_marseille","lat":43.28342,"lon":5.38635,"is_reserved":false,"is_disabled":false,"rental_uris":{"android":"levelo://app?vid=974f05d6-cfec-4495-b9f5-ca3514091b1e","ios":"levelo://app?vid=974f05d6-cfec-4495-b9f5-ca3514091b1e"},"vehicle_type_id":"4","last_reported":1740607714,"current_range_meters":19200,"station_id":"ce4bh492rcd13ifvqdvg","pricing_plan_id":"cebpf4jnsgd1na2vs0mg"},{"bike_id":"a6832e75-8e45-48db-b564-ea05f030f386","system_id":"levelo_inurba_marseille","lat":43.28459,"lon":5.35886,"is_reserved":false,"is_disabled":false,"rental_uris":{"android":"levelo://app?vid=a6832e75-8e45-48db-b564-ea05f030f386","ios":"levelo://app?vid=a6832e75-8e45-48db-b564-ea05f030f386"},"vehicle_type_id":"4","last_reported":1740607714,"current_range_meters":16400,"station_id":"ce4bhah2rcd13ifvqei0","pricing_plan_id":"cebpf4jnsgd1na2vs0mg"},{"bike_id":"3e708db2-576c-4a83-90c2-c4f3b3b880f2","system_id":"levelo_inurba_marseille","lat":43.25115,"lon":5.4032,"is_reserved":false,"is_disabled":false,"rental_uris":{"android":"levelo://app?vid=3e708db2-576c-4a83-90c2-c4f3b3b880f2","ios":"levelo://app?vid=3e708db2-576c-4a83-90c2-c4f3b3b880f2"},"vehicle_type_id":"4","last_reported":1740607714,"current_range_meters":16800,"station_id":"ce4bhlh2rcd13ifvqgig","pricing_plan_id":"cebpf4jnsgd1na2vs0mg"},{"bike_id":"8e7ca1de-f2e1-45da-a0a6-c0442942ed30","system_id":"levelo_inurba_marseille","lat":43.25504,"lon":5.37657,"is_reserved":false,"is_disabled":false,"rental_uris":{"android":"levelo://app?vid=8e7ca1de-f2e1-45da-a0a6-c0442942ed30","ios":"levelo://app?vid=8e7ca1de-f2e1-45da-a0a6-c0442942ed30"},"vehicle_type_id":"4","last_reported":1740607714,"current_range_meters":16800,"station_id":"ce4bhh12rcd13ifvqff0","pricing_plan_id":"cebpf4jnsgd1na2vs0mg"},{"bike_id":"2b45a5fb-4666-4ee7-af58-036e48068c67","system_id":"levelo_inurba_marseille","lat":43.29515,"lon":5.37508,"is_reserved":false,"is_disabled":false,"rental_uris":{"android":"levelo://app?vid=2b45a5fb-4666-4ee7-af58-036e48068c67","ios":"levelo://app?vid=2b45a5fb-4666-4ee7-af58-036e48068c67"},"vehicle_type_id":"4","last_reported":1740607714,"current_range_meters":16800,"station_id":"ce4bgkp2rcd13ifvqbmg","pricing_plan_id":"cebpf4jnsgd1na2vs0mg"},{"bike_id":"3de9aeda-1f9a-4bbc-8b90-e02a49e56ca9","system_id":"levelo_inurba_marseille","lat":43.23193,"lon":5.35541,"is_reserved":false,"is_disabled":false,"rental_uris":{"android":"levelo://app?vid=3de9aeda-1f9a-4bbc-8b90-e02a49e56ca9","ios":"levelo://app?vid=3de9aeda-1f9a-4bbc-8b90-e02a49e56ca9"},"vehicle_type_id":"4","last_reported":1740607714,"current_range_meters":16800,"station_id":"ce4bhu92rcd13ifvqi70","pricing_plan_id":"cebpf4jnsgd1na2vs0mg"},{"bike_id":"93180074-894b-4258-b14f-95b739552fa3","system_id":"levelo_inurba_marseille","lat":43.30595,"lon":5.3936,"is_reserved":false,"is_disabled":false,"rental_uris":{"android":"levelo://app?vid=93180074-894b-4258-b14f-95b739552fa3","ios":"levelo://app?vid=93180074-894b-4258-b14f-95b739552fa3"},"vehicle_type_id":"4","last_reported":1740607714,"current_range_meters":17200,"station_id":"ce4bh0p2rcd13ifvqd80","pricing_plan_id":"cebpf4jnsgd1na2vs0mg"},{"bike_id":"6b09d597-4ace-44ad-bc8f-38b5a2c920a6","system_id":"levelo_inurba_marseille","lat":43.287,"lon":5.39982,"is_reserved":false,"is_disabled":false,"rental_uris":{"android":"levelo://app?vid=6b09d597-4ace-44ad-bc8f-38b5a2c920a6","ios":"levelo://app?vid=6b09d597-4ace-44ad-bc8f-38b5a2c920a6"},"vehicle_type_id":"4","last_reported":1740607714,"current_range_meters":17200,"station_id":"ce4bho92rcd13ifvqh3g","pricing_plan_id":"cebpf4jnsgd1na2vs0mg"},{"bike_id":"4c56b05b-d311-4d1d-b526-605a805d1bd4","system_id":"levelo_inurba_marseille","lat":43.281071,"lon":5.405903,"is_reserved":false,"is_disabled":false,"rental_uris":{"android":"levelo://app?vid=4c56b05b-d311-4d1d-b526-605a805d1bd4","ios":"levelo://app?vid=4c56b05b-d311-4d1d-b526-605a805d1bd4"},"vehicle_type_id":"4","last_reported":1740607714,"current_range_meters":17200,"station_id":"","pricing_plan_id":"cebpf4jnsgd1na2vs0mg"},{"bike_id":"a05f0b98-a92c-4bff-8a2e-dc25e96a6b19","system_id":"levelo_inurba_marseille","lat":43.28624,"lon":5.35099,"is_reserved":false,"is_disabled":false,"rental_uris":{"android":"levelo://app?vid=a05f0b98-a92c-4bff-8a2e-dc25e96a6b19","ios":"levelo://app?vid=a05f0b98-a92c-4bff-8a2e-dc25e96a6b19"},"vehicle_type_id":"4","last_reported":1740607714,"current_range_meters":17200,"station_id":"ce4bhch2rcd13ifvqeug","pricing_plan_id":"cebpf4jnsgd1na2vs0mg"},{"bike_id":"1a112124-f138-4737-80fe-996684a8fd7d","system_id":"levelo_inurba_marseille","lat":43.28454,"lon":5.35881,"is_reserved":false,"is_disabled":false,"rental_uris":{"android":"levelo://app?vid=1a112124-f138-4737-80fe-996684a8fd7d","ios":"levelo://app?vid=1a112124-f138-4737-80fe-996684a8fd7d"},"vehicle_type_id":"4","last_reported":1740607714,"current_range_meters":17200,"station_id":"ce4bhah2rcd13ifvqei0","pricing_plan_id":"cebpf4jnsgd1na2vs0mg"},{"bike_id":"854d47f0-298d-43a8-9902-83d92fc00d7c","system_id":"levelo_inurba_marseille","lat":43.28374,"lon":5.38643,"is_reserved":false,"is_disabled":false,"rental_uris":{"android":"levelo://app?vid=854d47f0-298d-43a8-9902-83d92fc00d7c","ios":"levelo://app?vid=854d47f0-298d-43a8-9902-83d92fc00d7c"},"vehicle_type_id":"4","last_reported":1740607714,"current_range_meters":17200,"station_id":"ce4bh492rcd13ifvqdvg","pricing_plan_id":"cebpf4jnsgd1na2vs0mg"},{"bike_id":"6b4f55f7-04de-49c0-bd50-a3ecceed8b7d","system_id":"levelo_inurba_marseille","lat":43.29187,"lon":5.3933,"is_reserved":false,"is_disabled":false,"rental_uris":{"android":"levelo://app?vid=6b4f55f7-04de-49c0-bd50-a3ecceed8b7d","ios":"levelo://app?vid=6b4f55f7-04de-49c0-bd50-a3ecceed8b7d"},"vehicle_type_id":"4","last_reported":1740607714,"current_range_meters":17600,"station_id":"ce4bh192rcd13ifvqdd0","pricing_plan_id":"cebpf4jnsgd1na2vs0mg"},{"bike_id":"e582f131-4506-41d1-bbb3-154638223117","system_id":"levelo_inurba_marseille","lat":43.29934,"lon":5.36549,"is_reserved":false,"is_disabled":false,"rental_uris":{"android":"levelo://app?vid=e582f131-4506-41d1-bbb3-154638223117","ios":"levelo://app?vid=e582f131-4506-41d1-bbb3-154638223117"},"vehicle_type_id":"4","last_reported":1740607714,"current_range_meters":17200,"station_id":"ce4bgm92rcd13ifvqbr0","pricing_plan_id":"cebpf4jnsgd1na2vs0mg"},{"bike_id":"dc7c8222-d2b8-4328-9e4d-04b5eafb0ac0","system_id":"levelo_inurba_marseille","lat":43.23962,"lon":5.36631,"is_reserved":false,"is_disabled":false,"rental_uris":{"android":"levelo://app?vid=dc7c8222-d2b8-4328-9e4d-04b5eafb0ac0","ios":"levelo://app?vid=dc7c8222-d2b8-4328-9e4d-04b5eafb0ac0"},"vehicle_type_id":"4","last_reported":1740607714,"current_range_meters":17600,"station_id":"ce4bhi12rcd13ifvqfp0","pricing_plan_id":"cebpf4jnsgd1na2vs0mg"},{"bike_id":"f2652af0-7f89-4f32-835a-da4ab8b102ce","system_id":"levelo_inurba_marseille","lat":43.28439,"lon":5.35004,"is_reserved":false,"is_disabled":false,"rental_uris":{"android":"levelo://app?vid=f2652af0-7f89-4f32-835a-da4ab8b102ce","ios":"levelo://app?vid=f2652af0-7f89-4f32-835a-da4ab8b102ce"},"vehicle_type_id":"4","last_reported":1740607714,"current_range_meters":17600,"station_id":"ce4bhbh2rcd13ifvqepg","pricing_plan_id":"cebpf4jnsgd1na2vs0mg"},{"bike_id":"68070861-9d2d-44f3-a538-bf2996732e9c","system_id":"levelo_inurba_marseille","lat":43.284183,"lon":5.375062,"is_reserved":false,"is_disabled":false,"rental_uris":{"android":"levelo://app?vid=68070861-9d2d-44f3-a538-bf2996732e9c","ios":"levelo://app?vid=68070861-9d2d-44f3-a538-bf2996732e9c"},"vehicle_type_id":"4","last_reported":1740607714,"current_range_meters":17600,"station_id":"ce4bh692rcd13ifvqea0","pricing_plan_id":"cebpf4jnsgd1na2vs0mg"},{"bike_id":"7c6f2e19-e14e-482e-81a7-645fe762ee86","system_id":"levelo_inurba_marseille","lat":43.29599,"lon":5.36734,"is_reserved":false,"is_disabled":false,"rental_uris":{"android":"levelo://app?vid=7c6f2e19-e14e-482e-81a7-645fe762ee86","ios":"levelo://app?vid=7c6f2e19-e14e-482e-81a7-645fe762ee86"},"vehicle_type_id":"4","last_reported":1740607714,"current_range_meters":17600,"station_id":"ce4bgph2rcd13ifvqc2g","pricing_plan_id":"cebpf4jnsgd1na2vs0mg"},{"bike_id":"40e25f70-02b5-4811-add6-6e8dbc26a035","system_id":"levelo_inurba_marseille","lat":43.28442,"lon":5.35004,"is_reserved":false,"is_disabled":false,"rental_uris":{"android":"levelo://app?vid=40e25f70-02b5-4811-add6-6e8dbc26a035","ios":"levelo://app?vid=40e25f70-02b5-4811-add6-6e8dbc26a035"},"vehicle_type_id":"4","last_reported":1740607714,"current_range_meters":17600,"station_id":"ce4bhbh2rcd13ifvqepg","pricing_plan_id":"cebpf4jnsgd1na2vs0mg"},{"bike_id":"a74333fb-ab43-4e25-8f68-6fc29f3ee6b8","system_id":"levelo_inurba_marseille","lat":43.30135,"lon":5.39881,"is_reserved":false,"is_disabled":false,"rental_uris":{"android":"levelo://app?vid=a74333fb-ab43-4e25-8f68-6fc29f3ee6b8","ios":"levelo://app?vid=a74333fb-ab43-4e25-8f68-6fc29f3ee6b8"},"vehicle_type_id":"4","last_reported":1740607714,"current_range_meters":17600,"station_id":"ce4bh0h2rcd13ifvqd40","pricing_plan_id":"cebpf4jnsgd1na2vs0mg"},{"bike_id":"d353aafc-5cc1-4732-9b75-faadcba26647","system_id":"levelo_inurba_marseille","lat":43.24172,"lon":5.39732,"is_reserved":false,"is_disabled":false,"rental_uris":{"android":"levelo://app?vid=d353aafc-5cc1-4732-9b75-faadcba26647","ios":"levelo://app?vid=d353aafc-5cc1-4732-9b75-faadcba26647"},"vehicle_type_id":"4","last_reported":1740607714,"current_range_meters":18800,"station_id":"ce4bhn12rcd13ifvqgpg","pricing_plan_id":"cebpf4jnsgd1na2vs0mg"},{"bike_id":"201b43e1-9166-4b93-9ecb-211bb1985890","system_id":"levelo_inurba_marseille","lat":43.32362,"lon":5.36763,"is_reserved":false,"is_disabled":false,"rental_uris":{"android":"levelo://app?vid=201b43e1-9166-4b93-9ecb-211bb1985890","ios":"levelo://app?vid=201b43e1-9166-4b93-9ecb-211bb1985890"},"vehicle_type_id":"4","last_reported":1740607714,"current_range_meters":17600,"station_id":"ce4bhsh2rcd13ifvqi2g","pricing_plan_id":"cebpf4jnsgd1na2vs0mg"},{"bike_id":"d337cc62-b29d-4e4a-bd4f-e767bd643d41","system_id":"levelo_inurba_marseille","lat":43.32141,"lon":5.36777,"is_reserved":false,"is_disabled":false,"rental_uris":{"android":"levelo://app?vid=d337cc62-b29d-4e4a-bd4f-e767bd643d41","ios":"levelo://app?vid=d337cc62-b29d-4e4a-bd4f-e767bd643d41"},"vehicle_type_id":"4","last_reported":1740607714,"current_range_meters":18000,"station_id":"ce4bhrh2rcd13ifvqhug","pricing_plan_id":"cebpf4jnsgd1na2vs0mg"},{"bike_id":"6bf62df5-9f2c-4676-be2e-3425368f3119","system_id":"levelo_inurba_marseille","lat":43.29321,"lon":5.38246,"is_reserved":false,"is_disabled":false,"rental_uris":{"android":"levelo://app?vid=6bf62df5-9f2c-4676-be2e-3425368f3119","ios":"levelo://app?vid=6bf62df5-9f2c-4676-be2e-3425368f3119"},"vehicle_type_id":"4","last_reported":1740607714,"current_range_meters":16800,"station_id":"","pricing_plan_id":"cebpf4jnsgd1na2vs0mg"},{"bike_id":"68c0ab87-186a-4533-b681-4cc206b9ca2b","system_id":"levelo_inurba_marseille","lat":43.29575,"lon":5.37527,"is_reserved":false,"is_disabled":false,"rental_uris":{"android":"levelo://app?vid=68c0ab87-186a-4533-b681-4cc206b9ca2b","ios":"levelo://app?vid=68c0ab87-186a-4533-b681-4cc206b9ca2b"},"vehicle_type_id":"4","last_reported":1740607714,"current_range_meters":16800,"station_id":"ce4bgh92rcd13ifvqb50","pricing_plan_id":"cebpf4jnsgd1na2vs0mg"},{"bike_id":"eecdd693-6027-4f53-b1fe-18cfac5b70e8","system_id":"levelo_inurba_marseille","lat":43.29009,"lon":5.35606,"is_reserved":false,"is_disabled":false,"rental_uris":{"android":"levelo://app?vid=eecdd693-6027-4f53-b1fe-18cfac5b70e8","ios":"levelo://app?vid=eecdd693-6027-4f53-b1fe-18cfac5b70e8"},"vehicle_type_id":"4","last_reported":1740607714,"current_range_meters":18000,"station_id":"ce4bhb92rcd13ifvqen0","pricing_plan_id":"cebpf4jnsgd1na2vs0mg"},{"bike_id":"8d8d43e1-7cd2-49f9-ba2a-c5dad8cae27e","system_id":"levelo_inurba_marseille","lat":43.27945,"lon":5.41043,"is_reserved":false,"is_disabled":false,"rental_uris":{"android":"levelo://app?vid=8d8d43e1-7cd2-49f9-ba2a-c5dad8cae27e","ios":"levelo://app?vid=8d8d43e1-7cd2-49f9-ba2a-c5dad8cae27e"},"vehicle_type_id":"4","last_reported":1740607714,"current_range_meters":18000,"station_id":"ce4bhnp2rcd13ifvqh0g","pricing_plan_id":"cebpf4jnsgd1na2vs0mg"},{"bike_id":"ad6c0a93-81ca-4753-bbc7-c096e5fe6f8b","system_id":"levelo_inurba_marseille","lat":43.29539,"lon":5.39035,"is_reserved":false,"is_disabled":false,"rental_uris":{"android":"levelo://app?vid=ad6c0a93-81ca-4753-bbc7-c096e5fe6f8b","ios":"levelo://app?vid=ad6c0a93-81ca-4753-bbc7-c096e5fe6f8b"},"vehicle_type_id":"4","last_reported":1740607714,"current_range_meters":16800,"station_id":"ce4bh3p2rcd13ifvqdp0","pricing_plan_id":"cebpf4jnsgd1na2vs0mg"},{"bike_id":"a82ac581-6c92-4b21-bd39-d275d4c733c2","system_id":"levelo_inurba_marseille","lat":43.30608,"lon":5.39357,"is_reserved":false,"is_disabled":false,"rental_uris":{"android":"levelo://app?vid=a82ac581-6c92-4b21-bd39-d275d4c733c2","ios":"levelo://app?vid=a82ac581-6c92-4b21-bd39-d275d4c733c2"},"vehicle_type_id":"4","last_reported":1740607714,"current_range_meters":18000,"station_id":"ce4bh0p2rcd13ifvqd80","pricing_plan_id":"cebpf4jnsgd1na2vs0mg"},{"bike_id":"78faf8ab-fdd7-412f-902d-0fa7f6a56bc9","system_id":"levelo_inurba_marseille","lat":43.28725,"lon":5.36082,"is_reserved":false,"is_disabled":false,"rental_uris":{"android":"levelo://app?vid=78faf8ab-fdd7-412f-902d-0fa7f6a56bc9","ios":"levelo://app?vid=78faf8ab-fdd7-412f-902d-0fa7f6a56bc9"},"vehicle_type_id":"4","last_reported":1740607714,"current_range_meters":18000,"station_id":"cki0cbj6b192h4jlfktg","pricing_plan_id":"cebpf4jnsgd1na2vs0mg"},{"bike_id":"f1ac3114-0d4b-4a9b-9960-f283796fe758","system_id":"levelo_inurba_marseille","lat":43.28294,"lon":5.35106,"is_reserved":false,"is_disabled":false,"rental_uris":{"android":"levelo://app?vid=f1ac3114-0d4b-4a9b-9960-f283796fe758","ios":"levelo://app?vid=f1ac3114-0d4b-4a9b-9960-f283796fe758"},"vehicle_type_id":"4","last_reported":1740607714,"current_range_meters":18000,"station_id":"ce4bhbp2rcd13ifvqerg","pricing_plan_id":"cebpf4jnsgd1na2vs0mg"},{"bike_id":"89fe3a67-feca-436e-ba88-eaedce44c877","system_id":"levelo_inurba_marseille","lat":43.30422,"lon":5.41289,"is_reserved":false,"is_disabled":false,"rental_uris":{"android":"levelo://app?vid=89fe3a67-feca-436e-ba88-eaedce44c877","ios":"levelo://app?vid=89fe3a67-feca-436e-ba88-eaedce44c877"},"vehicle_type_id":"4","last_reported":1740607714,"current_range_meters":18000,"station_id":"ce4bhop2rcd13ifvqh8g","pricing_plan_id":"cebpf4jnsgd1na2vs0mg"},{"bike_id":"8e5970ad-dc10-42e4-955e-ae8f9c3e18b8","system_id":"levelo_inurba_marseille","lat":43.27954,"lon":5.41039,"is_reserved":false,"is_disabled":false,"rental_uris":{"android":"levelo://app?vid=8e5970ad-dc10-42e4-955e-ae8f9c3e18b8","ios":"levelo://app?vid=8e5970ad-dc10-42e4-955e-ae8f9c3e18b8"},"vehicle_type_id":"4","last_reported":1740607714,"current_range_meters":18000,"station_id":"ce4bhnp2rcd13ifvqh0g","pricing_plan_id":"cebpf4jnsgd1na2vs0mg"},{"bike_id":"ef77bf7f-5b88-41c9-8d3b-c8c9c0447dd9","system_id":"levelo_inurba_marseille","lat":43.28069,"lon":5.35025,"is_reserved":false,"is_disabled":false,"rental_uris":{"android":"levelo://app?vid=ef77bf7f-5b88-41c9-8d3b-c8c9c0447dd9","ios":"levelo://app?vid=ef77bf7f-5b88-41c9-8d3b-c8c9c0447dd9"},"vehicle_type_id":"4","last_reported":1740607714,"current_range_meters":18000,"station_id":"","pricing_plan_id":"cebpf4jnsgd1na2vs0mg"},{"bike_id":"0ffceea9-ca7f-496b-b9ee-c18123072cf4","system_id":"levelo_inurba_marseille","lat":43.301153,"lon":5.398641,"is_reserved":false,"is_disabled":false,"rental_uris":{"android":"levelo://app?vid=0ffceea9-ca7f-496b-b9ee-c18123072cf4","ios":"levelo://app?vid=0ffceea9-ca7f-496b-b9ee-c18123072cf4"},"vehicle_type_id":"4","last_reported":1740607714,"current_range_meters":18000,"station_id":"ce4bh0h2rcd13ifvqd40","pricing_plan_id":"cebpf4jnsgd1na2vs0mg"},{"bike_id":"8e6795ef-5cc7-4703-bc55-898144eada56","system_id":"levelo_inurba_marseille","lat":43.2842,"lon":5.35004,"is_reserved":false,"is_disabled":false,"rental_uris":{"android":"levelo://app?vid=8e6795ef-5cc7-4703-bc55-898144eada56","ios":"levelo://app?vid=8e6795ef-5cc7-4703-bc55-898144eada56"},"vehicle_type_id":"4","last_reported":1740607714,"current_range_meters":18800,"station_id":"ce4bhbh2rcd13ifvqepg","pricing_plan_id":"cebpf4jnsgd1na2vs0mg"},{"bike_id":"31c58e5d-9342-432b-b32a-4dfcdf1667fa","system_id":"levelo_inurba_marseille","lat":43.24397,"lon":5.37068,"is_reserved":false,"is_disabled":false,"rental_uris":{"android":"levelo://app?vid=31c58e5d-9342-432b-b32a-4dfcdf1667fa","ios":"levelo://app?vid=31c58e5d-9342-432b-b32a-4dfcdf1667fa"},"vehicle_type_id":"4","last_reported":1740607714,"current_range_meters":16400,"station_id":"ce4bhhh2rcd13ifvqfk0","pricing_plan_id":"cebpf4jnsgd1na2vs0mg"},{"bike_id":"07e71897-7b0a-4f02-b034-4876af832b3a","system_id":"levelo_inurba_marseille","lat":43.28269,"lon":5.35078,"is_reserved":false,"is_disabled":false,"rental_uris":{"android":"levelo://app?vid=07e71897-7b0a-4f02-b034-4876af832b3a","ios":"levelo://app?vid=07e71897-7b0a-4f02-b034-4876af832b3a"},"vehicle_type_id":"4","last_reported":1740607714,"current_range_meters":18800,"station_id":"ce4bhbp2rcd13ifvqerg","pricing_plan_id":"cebpf4jnsgd1na2vs0mg"},{"bike_id":"c45131f9-12d6-49cd-bb97-ba5378f1f25d","system_id":"levelo_inurba_marseille","lat":43.28712,"lon":5.37415,"is_reserved":false,"is_disabled":false,"rental_uris":{"android":"levelo://app?vid=c45131f9-12d6-49cd-bb97-ba5378f1f25d","ios":"levelo://app?vid=c45131f9-12d6-49cd-bb97-ba5378f1f25d"},"vehicle_type_id":"4","last_reported":1740607714,"current_range_meters":18800,"station_id":"ce4bh3p2rcd13ifvqdq0","pricing_plan_id":"cebpf4jnsgd1na2vs0mg"},{"bike_id":"233fae72-e506-4095-9343-c9a2fe7160c0","system_id":"levelo_inurba_marseille","lat":43.28935,"lon":5.384,"is_reserved":false,"is_disabled":false,"rental_uris":{"android":"levelo://app?vid=233fae72-e506-4095-9343-c9a2fe7160c0","ios":"levelo://app?vid=233fae72-e506-4095-9343-c9a2fe7160c0"},"vehicle_type_id":"4","last_reported":1740607714,"current_range_meters":18800,"station_id":"ce4bh612rcd13ifvqe6g","pricing_plan_id":"cebpf4jnsgd1na2vs0mg"},{"bike_id":"6755398d-5629-4336-b10b-5678360bad01","system_id":"levelo_inurba_marseille","lat":43.28029,"lon":5.36944,"is_reserved":false,"is_disabled":false,"rental_uris":{"android":"levelo://app?vid=6755398d-5629-4336-b10b-5678360bad01","ios":"levelo://app?vid=6755398d-5629-4336-b10b-5678360bad01"},"vehicle_type_id":"4","last_reported":1740607714,"current_range_meters":18800,"station_id":"ce4bha12rcd13ifvqef0","pricing_plan_id":"cebpf4jnsgd1na2vs0mg"},{"bike_id":"4a6e4dab-77e7-4727-9943-ddb1faa90067","system_id":"levelo_inurba_marseille","lat":43.299,"lon":5.43655,"is_reserved":false,"is_disabled":false,"rental_uris":{"android":"levelo://app?vid=4a6e4dab-77e7-4727-9943-ddb1faa90067","ios":"levelo://app?vid=4a6e4dab-77e7-4727-9943-ddb1faa90067"},"vehicle_type_id":"4","last_reported":1740607714,"current_range_meters":18800,"station_id":"ce4bhpp2rcd13ifvqhfg","pricing_plan_id":"cebpf4jnsgd1na2vs0mg"},{"bike_id":"a9ee8d59-5447-4eef-ae35-662a0b6b0a92","system_id":"levelo_inurba_marseille","lat":43.27324,"lon":5.39112,"is_reserved":false,"is_disabled":false,"rental_uris":{"android":"levelo://app?vid=a9ee8d59-5447-4eef-ae35-662a0b6b0a92","ios":"levelo://app?vid=a9ee8d59-5447-4eef-ae35-662a0b6b0a92"},"vehicle_type_id":"4","last_reported":1740607714,"current_range_meters":17200,"station_id":"ce4bhgp2rcd13ifvqfe0","pricing_plan_id":"cebpf4jnsgd1na2vs0mg"},{"bike_id":"2500d8f6-0a3a-4b62-87a5-3637dd8635ff","system_id":"levelo_inurba_marseille","lat":43.30152,"lon":5.39901,"is_reserved":false,"is_disabled":false,"rental_uris":{"android":"levelo://app?vid=2500d8f6-0a3a-4b62-87a5-3637dd8635ff","ios":"levelo://app?vid=2500d8f6-0a3a-4b62-87a5-3637dd8635ff"},"vehicle_type_id":"4","last_reported":1740607714,"current_range_meters":18800,"station_id":"ce4bh0h2rcd13ifvqd40","pricing_plan_id":"cebpf4jnsgd1na2vs0mg"},{"bike_id":"f9cb66d8-5341-4f58-ade7-74e9dc87f85d","system_id":"levelo_inurba_marseille","lat":43.301616,"lon":5.380915,"is_reserved":false,"is_disabled":false,"rental_uris":{"android":"levelo://app?vid=f9cb66d8-5341-4f58-ade7-74e9dc87f85d","ios":"levelo://app?vid=f9cb66d8-5341-4f58-ade7-74e9dc87f85d"},"vehicle_type_id":"4","last_reported":1740607714,"current_range_meters":18800,"station_id":"ce4bgv12rcd13ifvqcp0","pricing_plan_id":"cebpf4jnsgd1na2vs0mg"},{"bike_id":"0e538aff-cab5-4886-979e-a6d3d6135864","system_id":"levelo_inurba_marseille","lat":43.27813,"lon":5.407163,"is_reserved":false,"is_disabled":false,"rental_uris":{"android":"levelo://app?vid=0e538aff-cab5-4886-979e-a6d3d6135864","ios":"levelo://app?vid=0e538aff-cab5-4886-979e-a6d3d6135864"},"vehicle_type_id":"4","last_reported":1740607714,"current_range_meters":18800,"station_id":"ce4bhnh2rcd13ifvqgtg","pricing_plan_id":"cebpf4jnsgd1na2vs0mg"},{"bike_id":"a424d550-c6cc-41aa-a556-0658fe8b69da","system_id":"levelo_inurba_marseille","lat":43.2855,"lon":5.39495,"is_reserved":false,"is_disabled":false,"rental_uris":{"android":"levelo://app?vid=a424d550-c6cc-41aa-a556-0658fe8b69da","ios":"levelo://app?vid=a424d550-c6cc-41aa-a556-0658fe8b69da"},"vehicle_type_id":"4","last_reported":1740607714,"current_range_meters":18800,"station_id":"ce4bh292rcd13ifvqdg0","pricing_plan_id":"cebpf4jnsgd1na2vs0mg"},{"bike_id":"8b4a504d-5def-451e-a1be-23e8b0228190","system_id":"levelo_inurba_marseille","lat":43.3093,"lon":5.40149,"is_reserved":false,"is_disabled":false,"rental_uris":{"android":"levelo://app?vid=8b4a504d-5def-451e-a1be-23e8b0228190","ios":"levelo://app?vid=8b4a504d-5def-451e-a1be-23e8b0228190"},"vehicle_type_id":"4","last_reported":1740607714,"current_range_meters":18800,"station_id":"ce4bgvp2rcd13ifvqct0","pricing_plan_id":"cebpf4jnsgd1na2vs0mg"},{"bike_id":"a0f4d1f3-ac6e-4559-9d8c-12200114cfdc","system_id":"levelo_inurba_marseille","lat":43.286176,"lon":5.351022,"is_reserved":false,"is_disabled":false,"rental_uris":{"android":"levelo://app?vid=a0f4d1f3-ac6e-4559-9d8c-12200114cfdc","ios":"levelo://app?vid=a0f4d1f3-ac6e-4559-9d8c-12200114cfdc"},"vehicle_type_id":"4","last_reported":1740607714,"current_range_meters":18800,"station_id":"ce4bhch2rcd13ifvqeug","pricing_plan_id":"cebpf4jnsgd1na2vs0mg"},{"bike_id":"69166d8f-c1ce-46bb-b6f4-0fcaee044253","system_id":"levelo_inurba_marseille","lat":43.26554,"lon":5.39047,"is_reserved":false,"is_disabled":false,"rental_uris":{"android":"levelo://app?vid=69166d8f-c1ce-46bb-b6f4-0fcaee044253","ios":"levelo://app?vid=69166d8f-c1ce-46bb-b6f4-0fcaee044253"},"vehicle_type_id":"4","last_reported":1740607714,"current_range_meters":18800,"station_id":"ce4bhe12rcd13ifvqf30","pricing_plan_id":"cebpf4jnsgd1na2vs0mg"},{"bike_id":"201ea875-dcfb-46bc-8b15-e3348accddfb","system_id":"levelo_inurba_marseille","lat":43.28411,"lon":5.34985,"is_reserved":false,"is_disabled":false,"rental_uris":{"android":"levelo://app?vid=201ea875-dcfb-46bc-8b15-e3348accddfb","ios":"levelo://app?vid=201ea875-dcfb-46bc-8b15-e3348accddfb"},"vehicle_type_id":"4","last_reported":1740607714,"current_range_meters":18800,"station_id":"ce4bhbh2rcd13ifvqepg","pricing_plan_id":"cebpf4jnsgd1na2vs0mg"},{"bike_id":"9e55b257-0901-4099-94e8-0be5d2d6fac4","system_id":"levelo_inurba_marseille","lat":43.304275,"lon":5.388887,"is_reserved":false,"is_disabled":false,"rental_uris":{"android":"levelo://app?vid=9e55b257-0901-4099-94e8-0be5d2d6fac4","ios":"levelo://app?vid=9e55b257-0901-4099-94e8-0be5d2d6fac4"},"vehicle_type_id":"4","last_reported":1740607714,"current_range_meters":18800,"station_id":"ce4bgk12rcd13ifvqbi0","pricing_plan_id":"cebpf4jnsgd1na2vs0mg"},{"bike_id":"f3a30e9b-47fe-47d5-ac2e-267d81f68680","system_id":"levelo_inurba_marseille","lat":43.30906,"lon":5.40158,"is_reserved":false,"is_disabled":false,"rental_uris":{"android":"levelo://app?vid=f3a30e9b-47fe-47d5-ac2e-267d81f68680","ios":"levelo://app?vid=f3a30e9b-47fe-47d5-ac2e-267d81f68680"},"vehicle_type_id":"4","last_reported":1740607714,"current_range_meters":17200,"station_id":"ce4bgvp2rcd13ifvqct0","pricing_plan_id":"cebpf4jnsgd1na2vs0mg"},{"bike_id":"a15d7fa4-2269-42f0-a671-9145475a30a1","system_id":"levelo_inurba_marseille","lat":43.30413,"lon":5.38908,"is_reserved":false,"is_disabled":false,"rental_uris":{"android":"levelo://app?vid=a15d7fa4-2269-42f0-a671-9145475a30a1","ios":"levelo://app?vid=a15d7fa4-2269-42f0-a671-9145475a30a1"},"vehicle_type_id":"4","last_reported":1740607714,"current_range_meters":19200,"station_id":"ce4bgk12rcd13ifvqbi0","pricing_plan_id":"cebpf4jnsgd1na2vs0mg"},{"bike_id":"2e79f062-f50e-4648-8a06-df80d1a28de7","system_id":"levelo_inurba_marseille","lat":43.29316,"lon":5.37185,"is_reserved":false,"is_disabled":false,"rental_uris":{"android":"levelo://app?vid=2e79f062-f50e-4648-8a06-df80d1a28de7","ios":"levelo://app?vid=2e79f062-f50e-4648-8a06-df80d1a28de7"},"vehicle_type_id":"4","last_reported":1740607714,"current_range_meters":19200,"station_id":"ce4bgh92rcd13ifvqb40","pricing_plan_id":"cebpf4jnsgd1na2vs0mg"},{"bike_id":"b0d65645-9be0-4a60-ba62-757f335d603e","system_id":"levelo_inurba_marseille","lat":43.25074,"lon":5.39525,"is_reserved":false,"is_disabled":false,"rental_uris":{"android":"levelo://app?vid=b0d65645-9be0-4a60-ba62-757f335d603e","ios":"levelo://app?vid=b0d65645-9be0-4a60-ba62-757f335d603e"},"vehicle_type_id":"4","last_reported":1740607714,"current_range_meters":19200,"station_id":"ce4bhm12rcd13ifvqgkg","pricing_plan_id":"cebpf4jnsgd1na2vs0mg"},{"bike_id":"55c7edab-00a1-472f-8b7d-0fc541440b53","system_id":"levelo_inurba_marseille","lat":43.27981,"lon":5.38738,"is_reserved":false,"is_disabled":false,"rental_uris":{"android":"levelo://app?vid=55c7edab-00a1-472f-8b7d-0fc541440b53","ios":"levelo://app?vid=55c7edab-00a1-472f-8b7d-0fc541440b53"},"vehicle_type_id":"4","last_reported":1740607714,"current_range_meters":19200,"station_id":"ce4bhg12rcd13ifvqf80","pricing_plan_id":"cebpf4jnsgd1na2vs0mg"},{"bike_id":"497c81e2-f6a9-4a01-b17c-7a1678788bd8","system_id":"levelo_inurba_marseille","lat":43.28707,"lon":5.37404,"is_reserved":false,"is_disabled":false,"rental_uris":{"android":"levelo://app?vid=497c81e2-f6a9-4a01-b17c-7a1678788bd8","ios":"levelo://app?vid=497c81e2-f6a9-4a01-b17c-7a1678788bd8"},"vehicle_type_id":"4","last_reported":1740607714,"current_range_meters":19200,"station_id":"ce4bh3p2rcd13ifvqdq0","pricing_plan_id":"cebpf4jnsgd1na2vs0mg"},{"bike_id":"304df838-b133-4174-bfb6-4755460cc02a","system_id":"levelo_inurba_marseille","lat":43.28631,"lon":5.35098,"is_reserved":false,"is_disabled":false,"rental_uris":{"android":"levelo://app?vid=304df838-b133-4174-bfb6-4755460cc02a","ios":"levelo://app?vid=304df838-b133-4174-bfb6-4755460cc02a"},"vehicle_type_id":"4","last_reported":1740607714,"current_range_meters":19200,"station_id":"ce4bhch2rcd13ifvqeug","pricing_plan_id":"cebpf4jnsgd1na2vs0mg"},{"bike_id":"e4d0b515-254a-4741-b117-890a48c4b3ac","system_id":"levelo_inurba_marseille","lat":43.28355,"lon":5.38651,"is_reserved":false,"is_disabled":false,"rental_uris":{"android":"levelo://app?vid=e4d0b515-254a-4741-b117-890a48c4b3ac","ios":"levelo://app?vid=e4d0b515-254a-4741-b117-890a48c4b3ac"},"vehicle_type_id":"4","last_reported":1740607714,"current_range_meters":19200,"station_id":"ce4bh492rcd13ifvqdvg","pricing_plan_id":"cebpf4jnsgd1na2vs0mg"},{"bike_id":"a2ba5894-1914-4bfa-a2a9-f2c441f38868","system_id":"levelo_inurba_marseille","lat":43.30881,"lon":5.39647,"is_reserved":false,"is_disabled":false,"rental_uris":{"android":"levelo://app?vid=a2ba5894-1914-4bfa-a2a9-f2c441f38868","ios":"levelo://app?vid=a2ba5894-1914-4bfa-a2a9-f2c441f38868"},"vehicle_type_id":"4","last_reported":1740607714,"current_range_meters":19200,"station_id":"ce4bh012rcd13ifvqcv0","pricing_plan_id":"cebpf4jnsgd1na2vs0mg"},{"bike_id":"083fe70a-c44c-485a-9a38-5e8e880cf018","system_id":"levelo_inurba_marseille","lat":43.33611,"lon":5.41038,"is_reserved":false,"is_disabled":false,"rental_uris":{"android":"levelo://app?vid=083fe70a-c44c-485a-9a38-5e8e880cf018","ios":"levelo://app?vid=083fe70a-c44c-485a-9a38-5e8e880cf018"},"vehicle_type_id":"4","last_reported":1740607714,"current_range_meters":19200,"station_id":"ce4bhqh2rcd13ifvqhmg","pricing_plan_id":"cebpf4jnsgd1na2vs0mg"},{"bike_id":"d93602e4-ef44-42f5-bb82-9da7a7cd890a","system_id":"levelo_inurba_marseille","lat":43.27999,"lon":5.40023,"is_reserved":false,"is_disabled":false,"rental_uris":{"android":"levelo://app?vid=d93602e4-ef44-42f5-bb82-9da7a7cd890a","ios":"levelo://app?vid=d93602e4-ef44-42f5-bb82-9da7a7cd890a"},"vehicle_type_id":"4","last_reported":1740607714,"current_range_meters":19200,"station_id":"ce4bho92rcd13ifvqh4g","pricing_plan_id":"cebpf4jnsgd1na2vs0mg"},{"bike_id":"17e4668b-899f-4f8f-b815-cde5399e95c4","system_id":"levelo_inurba_marseille","lat":43.28369,"lon":5.38639,"is_reserved":false,"is_disabled":false,"rental_uris":{"android":"levelo://app?vid=17e4668b-899f-4f8f-b815-cde5399e95c4","ios":"levelo://app?vid=17e4668b-899f-4f8f-b815-cde5399e95c4"},"vehicle_type_id":"4","last_reported":1740607714,"current_range_meters":20000,"station_id":"ce4bh492rcd13ifvqdvg","pricing_plan_id":"cebpf4jnsgd1na2vs0mg"},{"bike_id":"b92bc308-a34d-4bca-a96d-5f7405f6abab","system_id":"levelo_inurba_marseille","lat":43.272807,"lon":5.391463,"is_reserved":false,"is_disabled":false,"rental_uris":{"android":"levelo://app?vid=b92bc308-a34d-4bca-a96d-5f7405f6abab","ios":"levelo://app?vid=b92bc308-a34d-4bca-a96d-5f7405f6abab"},"vehicle_type_id":"4","last_reported":1740607714,"current_range_meters":18800,"station_id":"ce4bhk92rcd13ifvqgb0","pricing_plan_id":"cebpf4jnsgd1na2vs0mg"},{"bike_id":"7380bee6-bff9-4bda-a88c-88e826549124","system_id":"levelo_inurba_marseille","lat":43.2898,"lon":5.3784,"is_reserved":false,"is_disabled":true,"rental_uris":{"android":"levelo://app?vid=7380bee6-bff9-4bda-a88c-88e826549124","ios":"levelo://app?vid=7380bee6-bff9-4bda-a88c-88e826549124"},"vehicle_type_id":"4","last_reported":1740607714,"current_range_meters":20000,"station_id":"ce4bh9p2rcd13ifvqed0","pricing_plan_id":"cebpf4jnsgd1na2vs0mg"},{"bike_id":"42a89698-f027-4d5a-8b5e-4105dec8426d","system_id":"levelo_inurba_marseille","lat":43.25823,"lon":5.39432,"is_reserved":false,"is_disabled":false,"rental_uris":{"android":"levelo://app?vid=42a89698-f027-4d5a-8b5e-4105dec8426d","ios":"levelo://app?vid=42a89698-f027-4d5a-8b5e-4105dec8426d"},"vehicle_type_id":"4","last_reported":1740607714,"current_range_meters":19600,"station_id":"ce4bhip2rcd13ifvqft0","pricing_plan_id":"cebpf4jnsgd1na2vs0mg"},{"bike_id":"43d6aa6f-20c7-4a1b-bcb8-31b660876567","system_id":"levelo_inurba_marseille","lat":43.2655,"lon":5.37287,"is_reserved":false,"is_disabled":false,"rental_uris":{"android":"levelo://app?vid=43d6aa6f-20c7-4a1b-bcb8-31b660876567","ios":"levelo://app?vid=43d6aa6f-20c7-4a1b-bcb8-31b660876567"},"vehicle_type_id":"4","last_reported":1740607714,"current_range_meters":19600,"station_id":"ce4bhg12rcd13ifvqf70","pricing_plan_id":"cebpf4jnsgd1na2vs0mg"},{"bike_id":"26323dc2-e8b2-43f9-80bb-1c7b85e1a16d","system_id":"levelo_inurba_marseille","lat":43.2843,"lon":5.34997,"is_reserved":false,"is_disabled":false,"rental_uris":{"android":"levelo://app?vid=26323dc2-e8b2-43f9-80bb-1c7b85e1a16d","ios":"levelo://app?vid=26323dc2-e8b2-43f9-80bb-1c7b85e1a16d"},"vehicle_type_id":"4","last_reported":1740607714,"current_range_meters":19600,"station_id":"ce4bhbh2rcd13ifvqepg","pricing_plan_id":"cebpf4jnsgd1na2vs0mg"},{"bike_id":"d95ed205-f847-4a1b-ba58-fbca887b6d62","system_id":"levelo_inurba_marseille","lat":43.32477,"lon":5.36565,"is_reserved":false,"is_disabled":false,"rental_uris":{"android":"levelo://app?vid=d95ed205-f847-4a1b-ba58-fbca887b6d62","ios":"levelo://app?vid=d95ed205-f847-4a1b-ba58-fbca887b6d62"},"vehicle_type_id":"4","last_reported":1740607714,"current_range_meters":20400,"station_id":"ce4bhs12rcd13ifvqhvg","pricing_plan_id":"cebpf4jnsgd1na2vs0mg"},{"bike_id":"786ebbca-c760-4823-bfcd-65363bf4c0fe","system_id":"levelo_inurba_marseille","lat":43.31719,"lon":5.43704,"is_reserved":false,"is_disabled":false,"rental_uris":{"android":"levelo://app?vid=786ebbca-c760-4823-bfcd-65363bf4c0fe","ios":"levelo://app?vid=786ebbca-c760-4823-bfcd-65363bf4c0fe"},"vehicle_type_id":"4","last_reported":1740607714,"current_range_meters":19600,"station_id":"ce4bhp92rcd13ifvqhcg","pricing_plan_id":"cebpf4jnsgd1na2vs0mg"},{"bike_id":"10194aa5-b5c0-44a6-8a7e-78c3d138ed8b","system_id":"levelo_inurba_marseille","lat":43.28611,"lon":5.37064,"is_reserved":false,"is_disabled":false,"rental_uris":{"android":"levelo://app?vid=10194aa5-b5c0-44a6-8a7e-78c3d138ed8b","ios":"levelo://app?vid=10194aa5-b5c0-44a6-8a7e-78c3d138ed8b"},"vehicle_type_id":"4","last_reported":1740607714,"current_range_meters":19600,"station_id":"ce4bht12rcd13ifvqi60","pricing_plan_id":"cebpf4jnsgd1na2vs0mg"},{"bike_id":"840a7557-9409-44fe-b20e-85bb49eab643","system_id":"levelo_inurba_marseille","lat":43.30429,"lon":5.39747,"is_reserved":false,"is_disabled":false,"rental_uris":{"android":"levelo://app?vid=840a7557-9409-44fe-b20e-85bb49eab643","ios":"levelo://app?vid=840a7557-9409-44fe-b20e-85bb49eab643"},"vehicle_type_id":"4","last_reported":1740607714,"current_range_meters":18000,"station_id":"ce4bh092rcd13ifvqd20","pricing_plan_id":"cebpf4jnsgd1na2vs0mg"},{"bike_id":"7268860e-861c-4424-8644-d9e0d96b920c","system_id":"levelo_inurba_marseille","lat":43.31758,"lon":5.39021,"is_reserved":false,"is_disabled":false,"rental_uris":{"android":"levelo://app?vid=7268860e-861c-4424-8644-d9e0d96b920c","ios":"levelo://app?vid=7268860e-861c-4424-8644-d9e0d96b920c"},"vehicle_type_id":"4","last_reported":1740607714,"current_range_meters":19600,"station_id":"ce4bhqp2rcd13ifvqhng","pricing_plan_id":"cebpf4jnsgd1na2vs0mg"},{"bike_id":"627f9d50-99ab-4386-b5d3-b08940f1d52a","system_id":"levelo_inurba_marseille","lat":43.2558,"lon":5.38253,"is_reserved":false,"is_disabled":false,"rental_uris":{"android":"levelo://app?vid=627f9d50-99ab-4386-b5d3-b08940f1d52a","ios":"levelo://app?vid=627f9d50-99ab-4386-b5d3-b08940f1d52a"},"vehicle_type_id":"4","last_reported":1740607714,"current_range_meters":19600,"station_id":"ce4bhih2rcd13ifvqfs0","pricing_plan_id":"cebpf4jnsgd1na2vs0mg"},{"bike_id":"30e6a8b7-d81e-43c4-a0e8-e8a57a43deec","system_id":"levelo_inurba_marseille","lat":43.28274,"lon":5.35077,"is_reserved":false,"is_disabled":false,"rental_uris":{"android":"levelo://app?vid=30e6a8b7-d81e-43c4-a0e8-e8a57a43deec","ios":"levelo://app?vid=30e6a8b7-d81e-43c4-a0e8-e8a57a43deec"},"vehicle_type_id":"4","last_reported":1740607714,"current_range_meters":19600,"station_id":"ce4bhbp2rcd13ifvqerg","pricing_plan_id":"cebpf4jnsgd1na2vs0mg"},{"bike_id":"5b24cbe4-9692-4d4e-911a-18d1cf8b3f7c","system_id":"levelo_inurba_marseille","lat":43.29601,"lon":5.40172,"is_reserved":false,"is_disabled":false,"rental_uris":{"android":"levelo://app?vid=5b24cbe4-9692-4d4e-911a-18d1cf8b3f7c","ios":"levelo://app?vid=5b24cbe4-9692-4d4e-911a-18d1cf8b3f7c"},"vehicle_type_id":"4","last_reported":1740607714,"current_range_meters":23200,"station_id":"","pricing_plan_id":"cebpf4jnsgd1na2vs0mg"},{"bike_id":"efbcf9c0-cb60-4de7-a1a6-ec650e3775d2","system_id":"levelo_inurba_marseille","lat":43.28275,"lon":5.35077,"is_reserved":false,"is_disabled":false,"rental_uris":{"android":"levelo://app?vid=efbcf9c0-cb60-4de7-a1a6-ec650e3775d2","ios":"levelo://app?vid=efbcf9c0-cb60-4de7-a1a6-ec650e3775d2"},"vehicle_type_id":"4","last_reported":1740607714,"current_range_meters":20000,"station_id":"ce4bhbp2rcd13ifvqerg","pricing_plan_id":"cebpf4jnsgd1na2vs0mg"},{"bike_id":"4380a28f-e631-41db-9523-e3bc2367fcc4","system_id":"levelo_inurba_marseille","lat":43.24078,"lon":5.37776,"is_reserved":false,"is_disabled":false,"rental_uris":{"android":"levelo://app?vid=4380a28f-e631-41db-9523-e3bc2367fcc4","ios":"levelo://app?vid=4380a28f-e631-41db-9523-e3bc2367fcc4"},"vehicle_type_id":"4","last_reported":1740607714,"current_range_meters":20000,"station_id":"ce4bhnp2rcd13ifvqgvg","pricing_plan_id":"cebpf4jnsgd1na2vs0mg"},{"bike_id":"8d858929-9021-4ec0-a5ea-e8886ae0caea","system_id":"levelo_inurba_marseille","lat":43.28266,"lon":5.35077,"is_reserved":false,"is_disabled":false,"rental_uris":{"android":"levelo://app?vid=8d858929-9021-4ec0-a5ea-e8886ae0caea","ios":"levelo://app?vid=8d858929-9021-4ec0-a5ea-e8886ae0caea"},"vehicle_type_id":"4","last_reported":1740607714,"current_range_meters":20000,"station_id":"ce4bhbp2rcd13ifvqerg","pricing_plan_id":"cebpf4jnsgd1na2vs0mg"},