{"last_updated":1761858539,"ttl":60,"version":"2.2","data":{"bikes":[{"bike_id":"aacc01e3-6d9f-491a-b1ed-d10f639e29e2","system_id":"levelo_inurba_marseille","lat":43.337444,"lon":5.374475,"is_reserved":false,"is_disabled":false,"rental_uris":{"android":"levelo://app?vid=aacc01e3-6d9f-491a-b1ed-d10f639e29e2","ios":"levelo://app?vid=aacc01e3-6d9f-491a-b1ed-d10f639e29e2"},"vehicle_type_id":"4","last_reported":1761858539,"current_range_meters":0,"station_id":"","pricing_plan_id":"cebpf4jnsgd1na2vs0mg"},{"bike_id":"35ef2eb9-fe09-4124-a7ab-f792dcbd6ddc","system_id":"levelo_inurba_marseille","lat":43.337444,"lon":5.374475,"is_reserved":false,"is_disabled":false,"rental_uris":{"android":"levelo://app?vid=35ef2eb9-fe09-4124-a7ab-f792dcbd6ddc","ios":"levelo://app?vid=35ef2eb9-fe09-4124-a7ab-f792dcbd6ddc"},"vehicle_type_id":"4","last_reported":1761858539,"current_range_meters":0,"station_id":"","pricing_plan_id":"cebpf4jnsgd1na2vs0mg"},{"bike_id":"49ddb7e7-127c-434c-8992-2e05f2e3428d","system_id":"levelo_inurba_marseille","lat":43.337444,"lon":5.374475,"is_reserved":false,"is_disabled":false,"rental_uris":{"android":"levelo://app?vid=49ddb7e7-127c-434c-8992-2e05f2e3428d","ios":"levelo://app?vid=49ddb7e7-127c-434c-8992-2e05f2e3428d"},"vehicle_type_id":"4","last_reported":1761858539,"current_range_meters":0,"station_id":"","pricing_plan_id":"cebpf4jnsgd1na2vs0mg"},{"bike_id":"b3b460c5-2faa-45c2-8fde-7b54e8b4eaf5","system_id":"levelo_inurba_marseille","lat":43.337444,"lon":5.374475,"is_reserved":false,"is_disabled":false,"rental_uris":{"android":"levelo://app?vid=b3b460c5-2faa-45c2-8fde-7b54e8b4eaf5","ios":"levelo://app?vid=b3b460c5-2faa-45c2-8fde-7b54e8b4eaf5"},"vehicle_type_id":"4","last_reported":1761858539,"current_range_meters":0,"station_id":"","pricing_plan_id":"cebpf4jnsgd1na2vs0mg"},{"bike_id":"6b8eeff3-ec31-445f-be43-f1e3ba63fb37","system_id":"levelo_inurba_marseille","lat":43.337416,"lon":5.374586,"is_reserved":false,"is_disabled":false,"rental_uris":{"android":"levelo://app?vid=6b8eeff3-ec31-445f-be43-f1e3ba63fb37","ios":"levelo://app?vid=6b8eeff3-ec31-445f-be43-f1e3ba63fb37"},"vehicle_type_id":"4","last_reported":1761858539,"current_range_meters":0,"station_id":"","pricing_plan_id":"cebpf4jnsgd1na2vs0mg"},{"bike_id":"e0e86d10-d79a-47b9-82ad-a00ae7a62a8a","system_id":"levelo_inurba_marseille","lat":43.337444,"lon":5.374475,"is_reserved":false,"is_disabled":false,"rental_uris":{"android":"levelo://app?vid=e0e86d10-d79a-47b9-82ad-a00ae7a62a8a","ios":"levelo://app?vid=e0e86d10-d79a-47b9-82ad-a00ae7a62a8a"},"vehicle_type_id":"4","last_reported":1761858539,"current_range_meters":0,"station_id":"","pricing_plan_id":"cebpf4jnsgd1na2vs0mg"},{"bike_id":"548f1c45-4f2a-4cfe-b981-5bc1daecb21b","system_id":"levelo_inurba_marseille","lat":43.337444,"lon":5.374475,"is_reserved":false,"is_disabled":false,"rental_uris":{"android":"levelo://app?vid=548f1c45-4f2a-4cfe-b981-5bc1daecb21b","ios":"levelo://app?vid=548f1c45-4f2a-4cfe-b981-5bc1daecb21b"},"vehicle_type_id":"4","last_reported":1761858539,"current_range_meters":0,"station_id":"","pricing_plan_id":"cebpf4jnsgd1na2vs0mg"},{"bike_id":"5260dce0-6ede-4de4-b006-1466527b5fbe","system_id":"levelo_inurba_marseille","lat":43.337444,"lon":5.374475,"is_reserved":false,"is_disabled":false,"rental_uris":{"android":"levelo://app?vid=5260dce0-6ede-4de4-b006-1466527b5fbe","ios":"levelo://app?vid=5260dce0-6ede-4de4-b006-1466527b5fbe"},"vehicle_type_id":"4","last_reported":1761858539,"current_range_meters":0,"station_id":"","pricing_plan_id":"cebpf4jnsgd1na2vs0mg"},{"bike_id":"fb1816a3-8e74-463a-88d2-d6b63cf0a426","system_id":"levelo_inurba_marseille","lat":43.337444,"lon":5.374475,"is_reserved":false,"is_disabled":false,"rental_uris":{"android":"levelo://app?vid=fb1816a3-8e74-463a-88d2-d6b63cf0a426","ios":"levelo://app?vid=fb1816a3-8e74-463a-88d2-d6b63cf0a426"},"vehicle_type_id":"4","last_reported":1761858539,"current_range_meters":0,"station_id":"","pricing_plan_id":"cebpf4jnsgd1na2vs0mg"},{"bike_id":"3c881d8d-608f-4c39-9df3-b2aa54f8afcf","system_id":"levelo_inurba_marseille","lat":43.337444,"lon":5.374475,"is_reserved":false,"is_disabled":false,"rental_uris":{"android":"levelo://app?vid=3c881d8d-608f-4c39-9df3-b2aa54f8afcf","ios":"levelo://app?vid=3c881d8d-608f-4c39-9df3-b2aa54f8afcf"},"vehicle_type_id":"4","last_reported":1761858539,"current_range_meters":0,"station_id":"","pricing_plan_id":"cebpf4jnsgd1na2vs0mg"},{"bike_id":"a26e4937-215f-44d2-a8de-a7d3ec75d32b","system_id":"levelo_inurba_marseille","lat":43.337444,"lon":5.374475,"is_reserved":false,"is_disabled":false,"rental_uris":{"android":"levelo://app?vid=a26e4937-215f-44d2-a8de-a7d3ec75d32b","ios":"levelo://app?vid=a26e4937-215f-44d2-a8de-a7d3ec75d32b"},"vehicle_type_id":"4","last_reported":1761858539,"current_range_meters":0,"station_id":"","pricing_plan_id":"cebpf4jnsgd1na2vs0mg"},{"bike_id":"fadc4e19-b9ad-4402-a5bc-a0eff5c2b634","system_id":"levelo_inurba_marseille","lat":43.337444,"lon":5.374475,"is_reserved":false,"is_disabled":false,"rental_uris":{"android":"levelo://app?vid=fadc4e19-b9ad-4402-a5bc-a0eff5c2b634","ios":"levelo://app?vid=fadc4e19-b9ad-4402-a5bc-a0eff5c2b634"},"vehicle_type_id":"4","last_reported":1761858539,"current_range_meters":0,"station_id":"","pricing_plan_id":"cebpf4jnsgd1na2vs0mg"},{"bike_id":"e294c151-4441-4e4a-a116-13c66dfb9429","system_id":"levelo_inurba_marseille","lat":43.337444,"lon":5.374475,"is_reserved":false,"is_disabled":false,"rental_uris":{"android":"levelo://app?vid=e294c151-4441-4e4a-a116-13c66dfb9429","ios":"levelo://app?vid=e294c151-4441-4e4a-a116-13c66dfb9429"},"vehicle_type_id":"4","last_reported":1761858539,"current_range_meters":0,"station_id":"","pricing_plan_id":"cebpf4jnsgd1na2vs0mg"},{"bike_id":"0baff1cc-f548-40f7-a934-77958566d6a5","system_id":"levelo_inurba_marseille","lat":43.337444,"lon":5.374475,"is_reserved":false,"is_disabled":false,"rental_uris":{"android":"levelo://app?vid=0baff1cc-f548-40f7-a934-77958566d6a5","ios":"levelo://app?vid=0baff1cc-f548-40f7-a934-77958566d6a5"},"vehicle_type_id":"4","last_reported":1761858539,"current_range_meters":0,"station_id":"","pricing_plan_id":"cebpf4jnsgd1na2vs0mg"},{"bike_id":"1310c5d0-e39d-4b9c-84d7-1872f297ff18","system_id":"levelo_inurba_marseille","lat":43.337444,"lon":5.374475,"is_reserved":false,"is_disabled":false,"rental_uris":{"android":"levelo://app?vid=1310c5d0-e39d-4b9c-84d7-1872f297ff18","ios":"levelo://app?vid=1310c5d0-e39d-4b9c-84d7-1872f297ff18"},"vehicle_type_id":"4","last_reported":1761858539,"current_range_meters":0,"station_id":"","pricing_plan_id":"cebpf4jnsgd1na2vs0mg"},{"bike_id":"01eaacf7-8682-4054-bf38-52456d06e6f6","system_id":"levelo_inurba_marseille","lat":43.337444,"lon":5.374475,"is_reserved":false,"is_disabled":false,"rental_uris":{"android":"levelo://app?vid=01eaacf7-8682-4054-bf38-52456d06e6f6","ios":"levelo://app?vid=01eaacf7-8682-4054-bf38-52456d06e6f6"},"vehicle_type_id":"4","last_reported":1761858539,"current_range_meters":0,"station_id":"","pricing_plan_id":"cebpf4jnsgd1na2vs0mg"},{"bike_id":"4dbab57a-b708-409a-b815-3b9a5d92f753","system_id":"levelo_inurba_marseille","lat":43.337444,"lon":5.374475,"is_reserved":false,"is_disabled":false,"rental_uris":{"android":"levelo://app?vid=4dbab57a-b708-409a-b815-3b9a5d92f753","ios":"levelo://app?vid=4dbab57a-b708-409a-b815-3b9a5d92f753"},"vehicle_type_id":"4","last_reported":1761858539,"current_range_meters":0,"station_id":"","pricing_plan_id":"cebpf4jnsgd1na2vs0mg"},{"bike_id":"00f1260a-63f9-4663-ac1e-51258f9213bd","system_id":"levelo_inurba_marseille","lat":43.337444,"lon":5.374475,"is_reserved":false,"is_disabled":false,"rental_uris":{"android":"levelo://app?vid=00f1260a-63f9-4663-ac1e-51258f9213bd","ios":"levelo://app?vid=00f1260a-63f9-4663-ac1e-51258f9213bd"},"vehicle_type_id":"4","last_reported":1761858539,"current_range_meters":0,"station_id":"","pricing_plan_id":"cebpf4jnsgd1na2vs0mg"},{"bike_id":"50aa746e-d71a-437c-bb7a-ed648a03f81b","system_id":"levelo_inurba_marseille","lat":43.337444,"lon":5.374475,"is_reserved":false,"is_disabled":false,"rental_uris":{"android":"levelo://app?vid=50aa746e-d71a-437c-bb7a-ed648a03f81b","ios":"levelo://app?vid=50aa746e-d71a-437c-bb7a-ed648a03f81b"},"vehicle_type_id":"4","last_reported":1761858539,"current_range_meters":0,"station_id":"","pricing_plan_id":"cebpf4jnsgd1na2vs0mg"},{"bike_id":"3e68cf6e-17b6-46f5-8b08-d049449e0ca4","system_id":"levelo_inurba_marseille","lat":43.337444,"lon":5.374475,"is_reserved":false,"is_disabled":false,"rental_uris":{"android":"levelo://app?vid=3e68cf6e-17b6-46f5-8b08-d049449e0ca4","ios":"levelo://app?vid=3e68cf6e-17b6-46f5-8b08-d049449e0ca4"},"vehicle_type_id":"4","last_reported":1761858539,"current_range_meters":0,"station_id":"","pricing_plan_id":"cebpf4jnsgd1na2vs0mg"},{"bike_id":"b06c4997-7e4f-467a-922f-92f2f2e27e9d","system_id":"levelo_inurba_marseille","lat":43.337444,"lon":5.374475,"is_reserved":false,"is_disabled":false,"rental_uris":{"android":"levelo://app?vid=b06c4997-7e4f-467a-922f-92f2f2e27e9d","ios":"levelo://app?vid=b06c4997-7e4f-467a-922f-92f2f2e27e9d"},"vehicle_type_id":"4","last_reported":1761858539,"current_range_meters":0,"station_id":"","pricing_plan_id":"cebpf4jnsgd1na2vs0mg"},{"bike_id":"bb49b980-4cfb-49a5-9add-f3f9d4fc6db5","system_id":"levelo_inurba_marseille","lat":43.337444,"lon":5.374475,"is_reserved":false,"is_disabled":false,"rental_uris":{"android":"levelo://app?vid=bb49b980-4cfb-49a5-9add-f3f9d4fc6db5","ios":"levelo://app?vid=bb49b980-4cfb-49a5-9add-f3f9d4fc6db5"},"vehicle_type_id":"4","last_reported":1761858539,"current_range_meters":0,"station_id":"","pricing_plan_id":"cebpf4jnsgd1na2vs0mg"},{"bike_id":"b97206fc-6c94-4378-926a-a788d4f71c09","system_id":"levelo_inurba_marseille","lat":43.337444,"lon":5.374475,"is_reserved":false,"is_disabled":false,"rental_uris":{"android":"levelo://app?vid=b97206fc-6c94-4378-926a-a788d4f71c09","ios":"levelo://app?vid=b97206fc-6c94-4378-926a-a788d4f71c09"},"vehicle_type_id":"4","last_reported":1761858539,"current_range_meters":0,"station_id":"","pricing_plan_id":"cebpf4jnsgd1na2vs0mg"},{"bike_id":"37d7ebf5-2b3d-4af3-a7cd-4f29f464d5a0","system_id":"levelo_inurba_marseille","lat":43.337444,"lon":5.374475,"is_reserved":false,"is_disabled":false,"rental_uris":{"android":"levelo://app?vid=37d7ebf5-2b3d-4af3-a7cd-4f29f464d5a0","ios":"levelo://app?vid=37d7ebf5-2b3d-4af3-a7cd-4f29f464d5a0"},"vehicle_type_id":"4","last_reported":1761858539,"current_range_meters":0,"station_id":"","pricing_plan_id":"cebpf4jnsgd1na2vs0mg"},{"bike_id":"4ce4318f-b763-4325-8589-2aecbcc80add","system_id":"levelo_inurba_marseille","lat":43.337444,"lon":5.374475,"is_reserved":false,"is_disabled":false,"rental_uris":{"android":"levelo://app?vid=4ce4318f-b763-4325-8589-2aecbcc80add","ios":"levelo://app?vid=4ce4318f-b763-4325-8589-2aecbcc80add"},"vehicle_type_id":"4","last_reported":1761858539,"current_range_meters":0,"station_id":"","pricing_plan_id":"cebpf4jnsgd1na2vs0mg"},{"bike_id":"a6a3a590-5c2a-4683-a516-e9f5572de0f8","system_id":"levelo_inurba_marseille","lat":43.337444,"lon":5.374475,"is_reserved":false,"is_disabled":false,"rental_uris":{"android":"levelo://app?vid=a6a3a590-5c2a-4683-a516-e9f5572de0f8","ios":"levelo://app?vid=a6a3a590-5c2a-4683-a516-e9f5572de0f8"},"vehicle_type_id":"4","last_reported":1761858539,"current_range_meters":0,"station_id":"","pricing_plan_id":"cebpf4jnsgd1na2vs0mg"},{"bike_id":"111bdd74-3ae9-48f5-979c-2e177e7747d9","system_id":"levelo_inurba_marseille","lat":43.337444,"lon":5.374475,"is_reserved":false,"is_disabled":false,"rental_uris":{"android":"levelo://app?vid=111bdd74-3ae9-48f5-979c-2e177e7747d9","ios":"levelo://app?vid=111bdd74-3ae9-48f5-979c-2e177e7747d9"},"vehicle_type_id":"4","last_reported":1761858539,"current_range_meters":0,"station_id":"","pricing_plan_id":"cebpf4jnsgd1na2vs0mg"},{"bike_id":"b9d871b8-65b0-40af-afa3-0bf2492a45a9","system_id":"levelo_inurba_marseille","lat":43.337444,"lon":5.374475,"is_reserved":false,"is_disabled":false,"rental_uris":{"android":"levelo://app?vid=b9d871b8-65b0-40af-afa3-0bf2492a45a9","ios":"levelo://app?vid=b9d871b8-65b0-40af-afa3-0bf2492a45a9"},"vehicle_type_id":"4","last_reported":1761858539,"current_range_meters":0,"station_id":"","pricing_plan_id":"cebpf4jnsgd1na2vs0mg"},{"bike_id":"5bec735e-fcf4-48c7-8bdc-29590fc410b1","system_id":"levelo_inurba_marseille","lat":43.337444,"lon":5.374475,"is_reserved":false,"is_disabled":false,"rental_uris":{"android":"levelo://app?vid=5bec735e-fcf4-48c7-8bdc-29590fc410b1","ios":"levelo://app?vid=5bec735e-fcf4-48c7-8bdc-29590fc410b1"},"vehicle_type_id":"4","last_reported":1761858539,"current_range_meters":0,"station_id":"","pricing_plan_id":"cebpf4jnsgd1na2vs0mg"},{"bike_id":"026e76ec-bb30-48a3-8407-a17635ff5e4d","system_id":"levelo_inurba_marseille","lat":43.337444,"lon":5.374475,"is_reserved":false,"is_disabled":false,"rental_uris":{"android":"levelo://app?vid=026e76ec-bb30-48a3-8407-a17635ff5e4d","ios":"levelo://app?vid=026e76ec-bb30-48a3-8407-a17635ff5e4d"},"vehicle_type_id":"4","last_reported":1761858539,"current_range_meters":0,"station_id":"","pricing_plan_id":"cebpf4jnsgd1na2vs0mg"},{"bike_id":"46d34bff-7ac4-476c-bd3e-8e7dba53c807","system_id":"levelo_inurba_marseille","lat":43.337444,"lon":5.374475,"is_reserved":false,"is_disabled":false,"rental_uris":{"android":"levelo://app?vid=46d34bff-7ac4-476c-bd3e-8e7dba53c807","ios":"levelo://app?vid=46d34bff-7ac4-476c-bd3e-8e7dba53c807"},"vehicle_type_id":"4","last_reported":1761858539,"current_range_meters":0,"station_id":"","pricing_plan_id":"cebpf4jnsgd1na2vs0mg"},{"bike_id":"2c7e37d6-d4ca-47ae-a0e0-a648dd4e1706","system_id":"levelo_inurba_marseille","lat":43.337444,"lon":5.374475,"is_reserved":false,"is_disabled":false,"rental_uris":{"android":"levelo://app?vid=2c7e37d6-d4ca-47ae-a0e0-a648dd4e1706","ios":"levelo://app?vid=2c7e37d6-d4ca-47ae-a0e0-a648dd4e1706"},"vehicle_type_id":"4","last_reported":1761858539,"current_range_meters":0,"station_id":"","pricing_plan_id":"cebpf4jnsgd1na2vs0mg"},{"bike_id":"94eee6a6-2463-4d2a-b222-3ef19356212a","system_id":"levelo_inurba_marseille","lat":43.337444,"lon":5.374475,"is_reserved":false,"is_disabled":false,"rental_uris":{"android":"levelo://app?vid=94eee6a6-2463-4d2a-b222-3ef19356212a","ios":"levelo://app?vid=94eee6a6-2463-4d2a-b222-3ef19356212a"},"vehicle_type_id":"4","last_reported":1761858539,"current_range_meters":0,"station_id":"","pricing_plan_id":"cebpf4jnsgd1na2vs0mg"},{"bike_id":"4592e008-320c-4bcd-ae3b-d140e613f684","system_id":"levelo_inurba_marseille","lat":43.337444,"lon":5.374475,"is_reserved":false,"is_disabled":false,"rental_uris":{"android":"levelo://app?vid=4592e008-320c-4bcd-ae3b-d140e613f684","ios":"levelo://app?vid=4592e008-320c-4bcd-ae3b-d140e613f684"},"vehicle_type_id":"4","last_reported":1761858539,"current_range_meters":0,"station_id":"","pricing_plan_id":"cebpf4jnsgd1na2vs0mg"},{"bike_id":"5807ce94-1b62-42db-8c77-9488accc83d5","system_id":"levelo_inurba_marseille","lat":43.337444,"lon":5.374475,"is_reserved":false,"is_disabled":false,"rental_uris":{"android":"levelo://app?vid=5807ce94-1b62-42db-8c77-9488accc83d5","ios":"levelo://app?vid=5807ce94-1b62-42db-8c77-9488accc83d5"},"vehicle_type_id":"4","last_reported":1761858539,"current_range_meters":0,"station_id":"","pricing_plan_id":"cebpf4jnsgd1na2vs0mg"},{"bike_id":"d5ca831f-8041-403e-ada8-7b4196c3d5be","system_id":"levelo_inurba_marseille","lat":43.293714,"lon":5.379385,"is_reserved":false,"is_disabled":false,"rental_uris":{"android":"levelo://app?vid=d5ca831f-8041-403e-ada8-7b4196c3d5be","ios":"levelo://app?vid=d5ca831f-8041-403e-ada8-7b4196c3d5be"},"vehicle_type_id":"4","last_reported":1761858539,"current_range_meters":2800,"station_id":"","pricing_plan_id":"cebpf4jnsgd1na2vs0mg"},{"bike_id":"3fe155e4-90fe-4846-8928-203e298150d0","system_id":"levelo_inurba_marseille","lat":43.30216,"lon":5.3754,"is_reserved":false,"is_disabled":false,"rental_uris":{"android":"levelo://app?vid=3fe155e4-90fe-4846-8928-203e298150d0","ios":"levelo://app?vid=3fe155e4-90fe-4846-8928-203e298150d0"},"vehicle_type_id":"4","last_reported":1761858539,"current_range_meters":3200,"station_id":"","pricing_plan_id":"cebpf4jnsgd1na2vs0mg"},{"bike_id":"9bb47b5a-afd0-4e97-8c0a-62ed0869a102","system_id":"levelo_inurba_marseille","lat":43.280781,"lon":5.396618,"is_reserved":false,"is_disabled":false,"rental_uris":{"android":"levelo://app?vid=9bb47b5a-afd0-4e97-8c0a-62ed0869a102","ios":"levelo://app?vid=9bb47b5a-afd0-4e97-8c0a-62ed0869a102"},"vehicle_type_id":"4","last_reported":1761858539,"current_range_meters":3200,"station_id":"ce4bho12rcd13ifvqh2g","pricing_plan_id":"cebpf4jnsgd1na2vs0mg"},{"bike_id":"269171dd-a42b-4a43-9617-89dbae353c92","system_id":"levelo_inurba_marseille","lat":43.31375,"lon":5.38318,"is_reserved":false,"is_disabled":false,"rental_uris":{"android":"levelo://app?vid=269171dd-a42b-4a43-9617-89dbae353c92","ios":"levelo://app?vid=269171dd-a42b-4a43-9617-89dbae353c92"},"vehicle_type_id":"4","last_reported":1761858539,"current_range_meters":3600,"station_id":"ce4bgt12rcd13ifvqcd0","pricing_plan_id":"cebpf4jnsgd1na2vs0mg"},{"bike_id":"8d9d18bf-c5b9-455b-a360-619d44868388","system_id":"levelo_inurba_marseille","lat":43.25118,"lon":5.40319,"is_reserved":false,"is_disabled":false,"rental_uris":{"android":"levelo://app?vid=8d9d18bf-c5b9-455b-a360-619d44868388","ios":"levelo://app?vid=8d9d18bf-c5b9-455b-a360-619d44868388"},"vehicle_type_id":"4","last_reported":1761858539,"current_range_meters":3600,"station_id":"ce4bhlh2rcd13ifvqgig","pricing_plan_id":"cebpf4jnsgd1na2vs0mg"},{"bike_id":"df4a7072-9a99-4388-960f-688f83a92f17","system_id":"levelo_inurba_marseille","lat":43.29556,"lon":5.42304,"is_reserved":false,"is_disabled":false,"rental_uris":{"android":"levelo://app?vid=df4a7072-9a99-4388-960f-688f83a92f17","ios":"levelo://app?vid=df4a7072-9a99-4388-960f-688f83a92f17"},"vehicle_type_id":"4","last_reported":1761858539,"current_range_meters":4000,"station_id":"ce4bhph2rcd13ifvqhdg","pricing_plan_id":"cebpf4jnsgd1na2vs0mg"},{"bike_id":"1867a497-829f-4a89-b17a-232b7503dd16","system_id":"levelo_inurba_marseille","lat":43.29709,"lon":5.37729,"is_reserved":false,"is_disabled":false,"rental_uris":{"android":"levelo://app?vid=1867a497-829f-4a89-b17a-232b7503dd16","ios":"levelo://app?vid=1867a497-829f-4a89-b17a-232b7503dd16"},"vehicle_type_id":"4","last_reported":1761858539,"current_range_meters":4000,"station_id":"","pricing_plan_id":"cebpf4jnsgd1na2vs0mg"},{"bike_id":"6e851129-60bc-45d8-b764-b90b56683710","system_id":"levelo_inurba_marseille","lat":43.24075,"lon":5.37757,"is_reserved":false,"is_disabled":false,"rental_uris":{"android":"levelo://app?vid=6e851129-60bc-45d8-b764-b90b56683710","ios":"levelo://app?vid=6e851129-60bc-45d8-b764-b90b56683710"},"vehicle_type_id":"4","last_reported":1761858539,"current_range_meters":4000,"station_id":"ce4bhnp2rcd13ifvqgvg","pricing_plan_id":"cebpf4jnsgd1na2vs0mg"},{"bike_id":"5cb3f363-ac2f-4bc2-ad50-da3965e1e89b","system_id":"levelo_inurba_marseille","lat":43.24547,"lon":5.41642,"is_reserved":false,"is_disabled":false,"rental_uris":{"android":"levelo://app?vid=5cb3f363-ac2f-4bc2-ad50-da3965e1e89b","ios":"levelo://app?vid=5cb3f363-ac2f-4bc2-ad50-da3965e1e89b"},"vehicle_type_id":"4","last_reported":1761858539,"current_range_meters":4000,"station_id":"","pricing_plan_id":"cebpf4jnsgd1na2vs0mg"},{"bike_id":"92b21767-f7cc-4e9f-a961-036bf009ed2d","system_id":"levelo_inurba_marseille","lat":43.272083,"lon":5.391956,"is_reserved":false,"is_disabled":false,"rental_uris":{"android":"levelo://app?vid=92b21767-f7cc-4e9f-a961-036bf009ed2d","ios":"levelo://app?vid=92b21767-f7cc-4e9f-a961-036bf009ed2d"},"vehicle_type_id":"4","last_reported":1761858539,"current_range_meters":4000,"station_id":"ce4bhhp2rcd13ifvqfm0","pricing_plan_id":"cebpf4jnsgd1na2vs0mg"},{"bike_id":"f6adb9c1-4a78-4322-baec-aa5f6f5d93b6","system_id":"levelo_inurba_marseille","lat":43.33766,"lon":5.37431,"is_reserved":false,"is_disabled":false,"rental_uris":{"android":"levelo://app?vid=f6adb9c1-4a78-4322-baec-aa5f6f5d93b6","ios":"levelo://app?vid=f6adb9c1-4a78-4322-baec-aa5f6f5d93b6"},"vehicle_type_id":"4","last_reported":1761858539,"current_range_meters":4000,"station_id":"","pricing_plan_id":"cebpf4jnsgd1na2vs0mg"},{"bike_id":"ee8252bd-651e-422e-83a2-c308774db215","system_id":"levelo_inurba_marseille","lat":43.28944,"lon":5.36638,"is_reserved":false,"is_disabled":false,"rental_uris":{"android":"levelo://app?vid=ee8252bd-651e-422e-83a2-c308774db215","ios":"levelo://app?vid=ee8252bd-651e-422e-83a2-c308774db215"},"vehicle_type_id":"4","last_reported":1761858539,"current_range_meters":4400,"station_id":"ce4bhap2rcd13ifvqek0","pricing_plan_id":"cebpf4jnsgd1na2vs0mg"},{"bike_id":"9ba49e71-a8a9-4a18-91d3-41afdf2e9c67","system_id":"levelo_inurba_marseille","lat":43.30142,"lon":5.39867,"is_reserved":false,"is_disabled":false,"rental_uris":{"android":"levelo://app?vid=9ba49e71-a8a9-4a18-91d3-41afdf2e9c67","ios":"levelo://app?vid=9ba49e71-a8a9-4a18-91d3-41afdf2e9c67"},"vehicle_type_id":"4","last_reported":1761858539,"current_range_meters":4800,"station_id":"ce4bh0h2rcd13ifvqd40","pricing_plan_id":"cebpf4jnsgd1na2vs0mg"},{"bike_id":"2fa64770-fbc5-4db0-b1be-d3b9916b4d11","system_id":"levelo_inurba_marseille","lat":43.31115,"lon":5.37764,"is_reserved":false,"is_disabled":false,"rental_uris":{"android":"levelo://app?vid=2fa64770-fbc5-4db0-b1be-d3b9916b4d11","ios":"levelo://app?vid=2fa64770-fbc5-4db0-b1be-d3b9916b4d11"},"vehicle_type_id":"4","last_reported":1761858539,"current_range_meters":4800,"station_id":"ce4bgt92rcd13ifvqcg0","pricing_plan_id":"cebpf4jnsgd1na2vs0mg"},{"bike_id":"ae8ebe94-fc0f-4409-8f77-39eb5c613a67","system_id":"levelo_inurba_marseille","lat":43.337444,"lon":5.374475,"is_reserved":false,"is_disabled":false,"rental_uris":{"android":"levelo://app?vid=ae8ebe94-fc0f-4409-8f77-39eb5c613a67","ios":"levelo://app?vid=ae8ebe94-fc0f-4409-8f77-39eb5c613a67"},"vehicle_type_id":"4","last_reported":1761858539,"current_range_meters":5600,"station_id":"","pricing_plan_id":"cebpf4jnsgd1na2vs0mg"},{"bike_id":"b073a320-3944-494a-8058-081ab75d0917","system_id":"levelo_inurba_marseille","lat":43.29033,"lon":5.38636,"is_reserved":false,"is_disabled":false,"rental_uris":{"android":"levelo://app?vid=b073a320-3944-494a-8058-081ab75d0917","ios":"levelo://app?vid=b073a320-3944-494a-8058-081ab75d0917"},"vehicle_type_id":"4","last_reported":1761858539,"current_range_meters":5600,"station_id":"ce4bh4p2rcd13ifvqe0g","pricing_plan_id":"cebpf4jnsgd1na2vs0mg"},{"bike_id":"11cb1c83-b152-4d34-982a-9b7c842ccb73","system_id":"levelo_inurba_marseille","lat":43.3089,"lon":5.39628,"is_reserved":false,"is_disabled":false,"rental_uris":{"android":"levelo://app?vid=11cb1c83-b152-4d34-982a-9b7c842ccb73","ios":"levelo://app?vid=11cb1c83-b152-4d34-982a-9b7c842ccb73"},"vehicle_type_id":"4","last_reported":1761858539,"current_range_meters":5600,"station_id":"ce4bh012rcd13ifvqcv0","pricing_plan_id":"cebpf4jnsgd1na2vs0mg"},{"bike_id":"e2e35269-30a5-4900-acfa-b3db6a523382","system_id":"levelo_inurba_marseille","lat":43.2814,"lon":5.37409,"is_reserved":false,"is_disabled":false,"rental_uris":{"android":"levelo://app?vid=e2e35269-30a5-4900-acfa-b3db6a523382","ios":"levelo://app?vid=e2e35269-30a5-4900-acfa-b3db6a523382"},"vehicle_type_id":"4","last_reported":1761858539,"current_range_meters":6000,"station_id":"","pricing_plan_id":"cebpf4jnsgd1na2vs0mg"},{"bike_id":"7db30370-454c-4ea0-a81d-1531212ebfce","system_id":"levelo_inurba_marseille","lat":43.29595,"lon":5.3916,"is_reserved":false,"is_disabled":true,"rental_uris":{"android":"levelo://app?vid=7db30370-454c-4ea0-a81d-1531212ebfce","ios":"levelo://app?vid=7db30370-454c-4ea0-a81d-1531212ebfce"},"vehicle_type_id":"4","last_reported":1761858539,"current_range_meters":6000,"station_id":"","pricing_plan_id":"cebpf4jnsgd1na2vs0mg"},{"bike_id":"b4f79bc3-43b4-479a-9e00-5ef30b1df77d","system_id":"levelo_inurba_marseille","lat":43.33719,"lon":5.39192,"is_reserved":false,"is_disabled":false,"rental_uris":{"android":"levelo://app?vid=b4f79bc3-43b4-479a-9e00-5ef30b1df77d","ios":"levelo://app?vid=b4f79bc3-43b4-479a-9e00-5ef30b1df77d"},"vehicle_type_id":"4","last_reported":1761858539,"current_range_meters":6000,"station_id":"ce4bhr92rcd13ifvqhsg","pricing_plan_id":"cebpf4jnsgd1na2vs0mg"},{"bike_id":"9c5a037e-9240-47a1-a0dd-bc3ee7353a92","system_id":"levelo_inurba_marseille","lat":43.279171,"lon":5.395762,"is_reserved":false,"is_disabled":false,"rental_uris":{"android":"levelo://app?vid=9c5a037e-9240-47a1-a0dd-bc3ee7353a92","ios":"levelo://app?vid=9c5a037e-9240-47a1-a0dd-bc3ee7353a92"},"vehicle_type_id":"4","last_reported":1761858539,"current_range_meters":6400,"station_id":"ce4bhf92rcd13ifvqf40","pricing_plan_id":"cebpf4jnsgd1na2vs0mg"},{"bike_id":"d2189a5c-b080-4cbf-bdab-2422e4912081","system_id":"levelo_inurba_marseille","lat":43.26487,"lon":5.3955,"is_reserved":false,"is_disabled":false,"rental_uris":{"android":"levelo://app?vid=d2189a5c-b080-4cbf-bdab-2422e4912081","ios":"levelo://app?vid=d2189a5c-b080-4cbf-bdab-2422e4912081"},"vehicle_type_id":"4","last_reported":1761858539,"current_range_meters":6400,"station_id":"ce4bhi12rcd13ifvqfq0","pricing_plan_id":"cebpf4jnsgd1na2vs0mg"},{"bike_id":"e2285a6a-1cf7-4ac5-b6a3-c71d320ad08a","system_id":"levelo_inurba_marseille","lat":43.29545,"lon":5.42284,"is_reserved":false,"is_disabled":false,"rental_uris":{"android":"levelo://app?vid=e2285a6a-1cf7-4ac5-b6a3-c71d320ad08a","ios":"levelo://app?vid=e2285a6a-1cf7-4ac5-b6a3-c71d320ad08a"},"vehicle_type_id":"4","last_reported":1761858539,"current_range_meters":6800,"station_id":"ce4bhph2rcd13ifvqhdg","pricing_plan_id":"cebpf4jnsgd1na2vs0mg"},{"bike_id":"c6698ab8-b9c1-4ef6-8d1d-6b190a79e8e9","system_id":"levelo_inurba_marseille","lat":43.30976,"lon":5.37281,"is_reserved":false,"is_disabled":false,"rental_uris":{"android":"levelo://app?vid=c6698ab8-b9c1-4ef6-8d1d-6b190a79e8e9","ios":"levelo://app?vid=c6698ab8-b9c1-4ef6-8d1d-6b190a79e8e9"},"vehicle_type_id":"4","last_reported":1761858539,"current_range_meters":6800,"station_id":"","pricing_plan_id":"cebpf4jnsgd1na2vs0mg"},{"bike_id":"eaf2559c-68c1-4c4c-b677-83de8481536d","system_id":"levelo_inurba_marseille","lat":43.28614,"lon":5.35103,"is_reserved":false,"is_disabled":false,"rental_uris":{"android":"levelo://app?vid=eaf2559c-68c1-4c4c-b677-83de8481536d","ios":"levelo://app?vid=eaf2559c-68c1-4c4c-b677-83de8481536d"},"vehicle_type_id":"4","last_reported":1761858539,"current_range_meters":7200,"station_id":"ce4bhch2rcd13ifvqeug","pricing_plan_id":"cebpf4jnsgd1na2vs0mg"},{"bike_id":"a95f22ec-3e80-41d5-af42-2c41811f09c8","system_id":"levelo_inurba_marseille","lat":43.299563,"lon":5.413288,"is_reserved":false,"is_disabled":false,"rental_uris":{"android":"levelo://app?vid=a95f22ec-3e80-41d5-af42-2c41811f09c8","ios":"levelo://app?vid=a95f22ec-3e80-41d5-af42-2c41811f09c8"},"vehicle_type_id":"4","last_reported":1761858539,"current_range_meters":7200,"station_id":"ce4bhp12rcd13ifvqh9g","pricing_plan_id":"cebpf4jnsgd1na2vs0mg"},{"bike_id":"faee4aed-34d1-4e59-9f3e-bc2337688920","system_id":"levelo_inurba_marseille","lat":43.31716,"lon":5.43696,"is_reserved":false,"is_disabled":true,"rental_uris":{"android":"levelo://app?vid=faee4aed-34d1-4e59-9f3e-bc2337688920","ios":"levelo://app?vid=faee4aed-34d1-4e59-9f3e-bc2337688920"},"vehicle_type_id":"4","last_reported":1761858539,"current_range_meters":8000,"station_id":"ce4bhp92rcd13ifvqhcg","pricing_plan_id":"cebpf4jnsgd1na2vs0mg"},{"bike_id":"27c5e874-3d00-43d9-8f49-5f3851d97def","system_id":"levelo_inurba_marseille","lat":43.241791,"lon":5.397274,"is_reserved":false,"is_disabled":false,"rental_uris":{"android":"levelo://app?vid=27c5e874-3d00-43d9-8f49-5f3851d97def","ios":"levelo://app?vid=27c5e874-3d00-43d9-8f49-5f3851d97def"},"vehicle_type_id":"4","last_reported":1761858539,"current_range_meters":8000,"station_id":"ce4bhn12rcd13ifvqgpg","pricing_plan_id":"cebpf4jnsgd1na2vs0mg"},{"bike_id":"4fa37116-ace8-4674-b234-d1bf4aa1d2c0","system_id":"levelo_inurba_marseille","lat":43.30429,"lon":5.388914,"is_reserved":false,"is_disabled":false,"rental_uris":{"android":"levelo://app?vid=4fa37116-ace8-4674-b234-d1bf4aa1d2c0","ios":"levelo://app?vid=4fa37116-ace8-4674-b234-d1bf4aa1d2c0"},"vehicle_type_id":"4","last_reported":1761858539,"current_range_meters":8000,"station_id":"ce4bgk12rcd13ifvqbi0","pricing_plan_id":"cebpf4jnsgd1na2vs0mg"},{"bike_id":"fb208a36-6ea9-44a3-a9e8-a06049b6cb2f","system_id":"levelo_inurba_marseille","lat":43.28459,"lon":5.3589,"is_reserved":false,"is_disabled":false,"rental_uris":{"android":"levelo://app?vid=fb208a36-6ea9-44a3-a9e8-a06049b6cb2f","ios":"levelo://app?vid=fb208a36-6ea9-44a3-a9e8-a06049b6cb2f"},"vehicle_type_id":"4","last_reported":1761858539,"current_range_meters":8400,"station_id":"ce4bhah2rcd13ifvqei0","pricing_plan_id":"cebpf4jnsgd1na2vs0mg"},{"bike_id":"d9a3637a-3954-4c82-b9fc-b5f917758005","system_id":"levelo_inurba_marseille","lat":43.28175,"lon":5.39053,"is_reserved":false,"is_disabled":true,"rental_uris":{"android":"levelo://app?vid=d9a3637a-3954-4c82-b9fc-b5f917758005","ios":"levelo://app?vid=d9a3637a-3954-4c82-b9fc-b5f917758005"},"vehicle_type_id":"4","last_reported":1761858539,"current_range_meters":8400,"station_id":"ce4bhn92rcd13ifvqgsg","pricing_plan_id":"cebpf4jnsgd1na2vs0mg"},{"bike_id":"cc2e82cb-5ccb-439b-b8b9-bc00f724273f","system_id":"levelo_inurba_marseille","lat":43.22972,"lon":5.43704,"is_reserved":false,"is_disabled":false,"rental_uris":{"android":"levelo://app?vid=cc2e82cb-5ccb-439b-b8b9-bc00f724273f","ios":"levelo://app?vid=cc2e82cb-5ccb-439b-b8b9-bc00f724273f"},"vehicle_type_id":"4","last_reported":1761858539,"current_range_meters":8400,"station_id":"","pricing_plan_id":"cebpf4jnsgd1na2vs0mg"},{"bike_id":"5fc67ba9-15d8-453e-b470-d794f2a5a800","system_id":"levelo_inurba_marseille","lat":43.30428,"lon":5.39747,"is_reserved":false,"is_disabled":false,"rental_uris":{"android":"levelo://app?vid=5fc67ba9-15d8-453e-b470-d794f2a5a800","ios":"levelo://app?vid=5fc67ba9-15d8-453e-b470-d794f2a5a800"},"vehicle_type_id":"4","last_reported":1761858539,"current_range_meters":8400,"station_id":"ce4bh092rcd13ifvqd20","pricing_plan_id":"cebpf4jnsgd1na2vs0mg"},{"bike_id":"ef077506-ad53-48c6-96ed-57184394616c","system_id":"levelo_inurba_marseille","lat":43.304752,"lon":5.367117,"is_reserved":false,"is_disabled":false,"rental_uris":{"android":"levelo://app?vid=ef077506-ad53-48c6-96ed-57184394616c","ios":"levelo://app?vid=ef077506-ad53-48c6-96ed-57184394616c"},"vehicle_type_id":"4","last_reported":1761858539,"current_range_meters":8800,"station_id":"","pricing_plan_id":"cebpf4jnsgd1na2vs0mg"},{"bike_id":"fdf0bda0-8871-4f16-a3f5-5cf8fff6703a","system_id":"levelo_inurba_marseille","lat":43.288573,"lon":5.358453,"is_reserved":false,"is_disabled":false,"rental_uris":{"android":"levelo://app?vid=fdf0bda0-8871-4f16-a3f5-5cf8fff6703a","ios":"levelo://app?vid=fdf0bda0-8871-4f16-a3f5-5cf8fff6703a"},"vehicle_type_id":"4","last_reported":1761858539,"current_range_meters":8800,"station_id":"ce4bhb12rcd13ifvqem0","pricing_plan_id":"cebpf4jnsgd1na2vs0mg"},{"bike_id":"85afd5da-6093-45b2-8e67-e004b6249797","system_id":"levelo_inurba_marseille","lat":43.284377,"lon":5.391879,"is_reserved":false,"is_disabled":true,"rental_uris":{"android":"levelo://app?vid=85afd5da-6093-45b2-8e67-e004b6249797","ios":"levelo://app?vid=85afd5da-6093-45b2-8e67-e004b6249797"},"vehicle_type_id":"4","last_reported":1761858539,"current_range_meters":8800,"station_id":"ce4bhoh2rcd13ifvqh5g","pricing_plan_id":"cebpf4jnsgd1na2vs0mg"},{"bike_id":"46f3e991-c55b-4d9d-9a37-f9e3e15f4f3f","system_id":"levelo_inurba_marseille","lat":43.21192,"lon":5.35054,"is_reserved":false,"is_disabled":false,"rental_uris":{"android":"levelo://app?vid=46f3e991-c55b-4d9d-9a37-f9e3e15f4f3f","ios":"levelo://app?vid=46f3e991-c55b-4d9d-9a37-f9e3e15f4f3f"},"vehicle_type_id":"4","last_reported":1761858539,"current_range_meters":8800,"station_id":"st_cvj6sg6p6f1abm77japg","pricing_plan_id":"cebpf4jnsgd1na2vs0mg"},{"bike_id":"53c1e4c1-be5b-45c9-b2c7-e603e7ed276a","system_id":"levelo_inurba_marseille","lat":43.25699,"lon":5.41121,"is_reserved":false,"is_disabled":false,"rental_uris":{"android":"levelo://app?vid=53c1e4c1-be5b-45c9-b2c7-e603e7ed276a","ios":"levelo://app?vid=53c1e4c1-be5b-45c9-b2c7-e603e7ed276a"},"vehicle_type_id":"4","last_reported":1761858539,"current_range_meters":8800,"station_id":"ce4bhkp2rcd13ifvqgd0","pricing_plan_id":"cebpf4jnsgd1na2vs0mg"},{"bike_id":"f3feeff6-d410-4cea-8ba1-9870dc4ec990","system_id":"levelo_inurba_marseille","lat":43.31051,"lon":5.37931,"is_reserved":false,"is_disabled":false,"rental_uris":{"android":"levelo://app?vid=f3feeff6-d410-4cea-8ba1-9870dc4ec990","ios":"levelo://app?vid=f3feeff6-d410-4cea-8ba1-9870dc4ec990"},"vehicle_type_id":"4","last_reported":1761858539,"current_range_meters":8800,"station_id":"","pricing_plan_id":"cebpf4jnsgd1na2vs0mg"},{"bike_id":"4e76b43a-2626-4e5e-8535-5f0419d58a0e","system_id":"levelo_inurba_marseille","lat":43.292542,"lon":5.384416,"is_reserved":false,"is_disabled":false,"rental_uris":{"android":"levelo://app?vid=4e76b43a-2626-4e5e-8535-5f0419d58a0e","ios":"levelo://app?vid=4e76b43a-2626-4e5e-8535-5f0419d58a0e"},"vehicle_type_id":"4","last_reported":1761858539,"current_range_meters":8800,"station_id":"ce4bh692rcd13ifvqea0","pricing_plan_id":"cebpf4jnsgd1na2vs0mg"},{"bike_id":"3a217d2d-0c7e-4d79-a702-b9135e90946e","system_id":"levelo_inurba_marseille","lat":43.281532,"lon":5.426437,"is_reserved":false,"is_disabled":false,"rental_uris":{"android":"levelo://app?vid=3a217d2d-0c7e-4d79-a702-b9135e90946e","ios":"levelo://app?vid=3a217d2d-0c7e-4d79-a702-b9135e90946e"},"vehicle_type_id":"4","last_reported":1761858539,"current_range_meters":9200,"station_id":"ce4bhnh2rcd13ifvqgug","pricing_plan_id":"cebpf4jnsgd1na2vs0mg"},{"bike_id":"a2a62d88-5bed-404e-8d00-7c4eabd8600c","system_id":"levelo_inurba_marseille","lat":43.23151,"lon":5.43722,"is_reserved":false,"is_disabled":false,"rental_uris":{"android":"levelo://app?vid=a2a62d88-5bed-404e-8d00-7c4eabd8600c","ios":"levelo://app?vid=a2a62d88-5bed-404e-8d00-7c4eabd8600c"},"vehicle_type_id":"4","last_reported":1761858539,"current_range_meters":9600,"station_id":"ce4bhmp2rcd13ifvqgog","pricing_plan_id":"cebpf4jnsgd1na2vs0mg"},{"bike_id":"90ba3f9f-e742-407b-8801-a3ad867df572","system_id":"levelo_inurba_marseille","lat":43.29568,"lon":5.39978,"is_reserved":false,"is_disabled":false,"rental_uris":{"android":"levelo://app?vid=90ba3f9f-e742-407b-8801-a3ad867df572","ios":"levelo://app?vid=90ba3f9f-e742-407b-8801-a3ad867df572"},"vehicle_type_id":"4","last_reported":1761858539,"current_range_meters":9600,"station_id":"ce4bh312rcd13ifvqdj0","pricing_plan_id":"cebpf4jnsgd1na2vs0mg"},{"bike_id":"179f5019-116f-43de-9c8f-30da3478c6d3","system_id":"levelo_inurba_marseille","lat":43.30424,"lon":5.39743,"is_reserved":false,"is_disabled":false,"rental_uris":{"android":"levelo://app?vid=179f5019-116f-43de-9c8f-30da3478c6d3","ios":"levelo://app?vid=179f5019-116f-43de-9c8f-30da3478c6d3"},"vehicle_type_id":"4","last_reported":1761858539,"current_range_meters":10000,"station_id":"ce4bh092rcd13ifvqd20","pricing_plan_id":"cebpf4jnsgd1na2vs0mg"},{"bike_id":"6fff56e2-dc33-4322-9554-e738206d1bc0","system_id":"levelo_inurba_marseille","lat":43.21199,"lon":5.35065,"is_reserved":false,"is_disabled":false,"rental_uris":{"android":"levelo://app?vid=6fff56e2-dc33-4322-9554-e738206d1bc0","ios":"levelo://app?vid=6fff56e2-dc33-4322-9554-e738206d1bc0"},"vehicle_type_id":"4","last_reported":1761858539,"current_range_meters":10000,"station_id":"st_cvj6sg6p6f1abm77japg","pricing_plan_id":"cebpf4jnsgd1na2vs0mg"},{"bike_id":"3485e2dd-9108-4486-897a-75f2cc193431","system_id":"levelo_inurba_marseille","lat":43.24803,"lon":5.37453,"is_reserved":false,"is_disabled":false,"rental_uris":{"android":"levelo://app?vid=3485e2dd-9108-4486-897a-75f2cc193431","ios":"levelo://app?vid=3485e2dd-9108-4486-897a-75f2cc193431"},"vehicle_type_id":"4","last_reported":1761858539,"current_range_meters":10000,"station_id":"ce4bhgh2rcd13ifvqfb0","pricing_plan_id":"cebpf4jnsgd1na2vs0mg"},{"bike_id":"299b6d25-0432-40b3-b88d-599bdb7cfc7b","system_id":"levelo_inurba_marseille","lat":43.29544,"lon":5.39016,"is_reserved":false,"is_disabled":true,"rental_uris":{"android":"levelo://app?vid=299b6d25-0432-40b3-b88d-599bdb7cfc7b","ios":"levelo://app?vid=299b6d25-0432-40b3-b88d-599bdb7cfc7b"},"vehicle_type_id":"4","last_reported":1761858539,"current_range_meters":10000,"station_id":"ce4bh3p2rcd13ifvqdp0","pricing_plan_id":"cebpf4jnsgd1na2vs0mg"},{"bike_id":"9e3564a3-3b3b-4a4a-a9e5-f73e91e05ce8","system_id":"levelo_inurba_marseille","lat":43.30913,"lon":5.36822,"is_reserved":false,"is_disabled":true,"rental_uris":{"android":"levelo://app?vid=9e3564a3-3b3b-4a4a-a9e5-f73e91e05ce8","ios":"levelo://app?vid=9e3564a3-3b3b-4a4a-a9e5-f73e91e05ce8"},"vehicle_type_id":"4","last_reported":1761858539,"current_range_meters":10000,"station_id":"ce4bgn92rcd13ifvqbvg","pricing_plan_id":"cebpf4jnsgd1na2vs0mg"},{"bike_id":"a5e7bdab-fa6e-4c52-8802-4ae0a852a317","system_id":"levelo_inurba_marseille","lat":43.28862,"lon":5.42511,"is_reserved":false,"is_disabled":false,"rental_uris":{"android":"levelo://app?vid=a5e7bdab-fa6e-4c52-8802-4ae0a852a317","ios":"levelo://app?vid=a5e7bdab-fa6e-4c52-8802-4ae0a852a317"},"vehicle_type_id":"4","last_reported":1761858539,"current_range_meters":10000,"station_id":"st_d3b462108ojc7389ooeg","pricing_plan_id":"cebpf4jnsgd1na2vs0mg"},{"bike_id":"776c1349-e035-4fdd-9a0e-0d9f15434cdb","system_id":"levelo_inurba_marseille","lat":43.28411,"lon":5.37504,"is_reserved":false,"is_disabled":false,"rental_uris":{"android":"levelo://app?vid=776c1349-e035-4fdd-9a0e-0d9f15434cdb","ios":"levelo://app?vid=776c1349-e035-4fdd-9a0e-0d9f15434cdb"},"vehicle_type_id":"4","last_reported":1761858539,"current_range_meters":10000,"station_id":"ce4bh412rcd13ifvqds0","pricing_plan_id":"cebpf4jnsgd1na2vs0mg"},{"bike_id":"8a3f7832-702d-4f6d-bad6-e33601372d84","system_id":"levelo_inurba_marseille","lat":43.29028,"lon":5.38644,"is_reserved":false,"is_disabled":false,"rental_uris":{"android":"levelo://app?vid=8a3f7832-702d-4f6d-bad6-e33601372d84","ios":"levelo://app?vid=8a3f7832-702d-4f6d-bad6-e33601372d84"},"vehicle_type_id":"4","last_reported":1761858539,"current_range_meters":10800,"station_id":"ce4bh4p2rcd13ifvqe0g","pricing_plan_id":"cebpf4jnsgd1na2vs0mg"},{"bike_id":"0db070e1-1eb7-4c02-b18a-6ea074a48fba","system_id":"levelo_inurba_marseille","lat":43.30746,"lon":5.42435,"is_reserved":false,"is_disabled":true,"rental_uris":{"android":"levelo://app?vid=0db070e1-1eb7-4c02-b18a-6ea074a48fba","ios":"levelo://app?vid=0db070e1-1eb7-4c02-b18a-6ea074a48fba"},"vehicle_type_id":"4","last_reported":1761858539,"current_range_meters":10800,"station_id":"st_cvj6ca6bvosntc0bfgr0","pricing_plan_id":"cebpf4jnsgd1na2vs0mg"},{"bike_id":"c6f7bf16-9963-4a50-a53a-1ef5c4a44b9d","system_id":"levelo_inurba_marseille","lat":43.28941,"lon":5.36635,"is_reserved":false,"is_disabled":false,"rental_uris":{"android":"levelo://app?vid=c6f7bf16-9963-4a50-a53a-1ef5c4a44b9d","ios":"levelo://app?vid=c6f7bf16-9963-4a50-a53a-1ef5c4a44b9d"},"vehicle_type_id":"4","last_reported":1761858539,"current_range_meters":10800,"station_id":"ce4bhap2rcd13ifvqek0","pricing_plan_id":"cebpf4jnsgd1na2vs0mg"},{"bike_id":"ab3b433c-8fca-4654-a231-6313d6f6d6b4","system_id":"levelo_inurba_marseille","lat":43.28032,"lon":5.36942,"is_reserved":false,"is_disabled":false,"rental_uris":{"android":"levelo://app?vid=ab3b433c-8fca-4654-a231-6313d6f6d6b4","ios":"levelo://app?vid=ab3b433c-8fca-4654-a231-6313d6f6d6b4"},"vehicle_type_id":"4","last_reported":1761858539,"current_range_meters":10800,"station_id":"ce4bha12rcd13ifvqef0","pricing_plan_id":"cebpf4jnsgd1na2vs0mg"},{"bike_id":"42798673-9b43-4db8-be45-b99fbb67e433","system_id":"levelo_inurba_marseille","lat":43.24815,"lon":5.37436,"is_reserved":false,"is_disabled":false,"rental_uris":{"android":"levelo://app?vid=42798673-9b43-4db8-be45-b99fbb67e433","ios":"levelo://app?vid=42798673-9b43-4db8-be45-b99fbb67e433"},"vehicle_type_id":"4","last_reported":1761858539,"current_range_meters":10800,"station_id":"ce4bhgh2rcd13ifvqfb0","pricing_plan_id":"cebpf4jnsgd1na2vs0mg"},{"bike_id":"fbdc38ad-af93-444b-b42c-f2294a45e06d","system_id":"levelo_inurba_marseille","lat":43.291945,"lon":5.393183,"is_reserved":false,"is_disabled":false,"rental_uris":{"android":"levelo://app?vid=fbdc38ad-af93-444b-b42c-f2294a45e06d","ios":"levelo://app?vid=fbdc38ad-af93-444b-b42c-f2294a45e06d"},"vehicle_type_id":"4","last_reported":1761858539,"current_range_meters":10800,"station_id":"ce4bh192rcd13ifvqdd0","pricing_plan_id":"cebpf4jnsgd1na2vs0mg"},{"bike_id":"3126ce35-4101-4b06-a7b2-19548fb25089","system_id":"levelo_inurba_marseille","lat":43.21203,"lon":5.3505,"is_reserved":false,"is_disabled":false,"rental_uris":{"android":"levelo://app?vid=3126ce35-4101-4b06-a7b2-19548fb25089","ios":"levelo://app?vid=3126ce35-4101-4b06-a7b2-19548fb25089"},"vehicle_type_id":"4","last_reported":1761858539,"current_range_meters":10800,"station_id":"st_cvj6sg6p6f1abm77japg","pricing_plan_id":"cebpf4jnsgd1na2vs0mg"},{"bike_id":"1b7e0b9b-3fd7-4145-b480-4841339a3d62","system_id":"levelo_inurba_marseille","lat":43.28422,"lon":5.34982,"is_reserved":false,"is_disabled":false,"rental_uris":{"android":"levelo://app?vid=1b7e0b9b-3fd7-4145-b480-4841339a3d62","ios":"levelo://app?vid=1b7e0b9b-3fd7-4145-b480-4841339a3d62"},"vehicle_type_id":"4","last_reported":1761858539,"current_range_meters":10800,"station_id":"ce4bhbh2rcd13ifvqepg","pricing_plan_id":"cebpf4jnsgd1na2vs0mg"},{"bike_id":"6c3f8b32-c115-4971-ab70-7ce53698f0ed","system_id":"levelo_inurba_marseille","lat":43.281525,"lon":5.426439,"is_reserved":false,"is_disabled":false,"rental_uris":{"android":"levelo://app?vid=6c3f8b32-c115-4971-ab70-7ce53698f0ed","ios":"levelo://app?vid=6c3f8b32-c115-4971-ab70-7ce53698f0ed"},"vehicle_type_id":"4","last_reported":1761858539,"current_range_meters":10800,"station_id":"","pricing_plan_id":"cebpf4jnsgd1na2vs0mg"},{"bike_id":"e1e2a457-df19-4b98-90a8-25aeb1c4995a","system_id":"levelo_inurba_marseille","lat":43.26018,"lon":5.41747,"is_reserved":false,"is_disabled":false,"rental_uris":{"android":"levelo://app?vid=e1e2a457-df19-4b98-90a8-25aeb1c4995a","ios":"levelo://app?vid=e1e2a457-df19-4b98-90a8-25aeb1c4995a"},"vehicle_type_id":"4","last_reported":1761858539,"current_range_meters":11200,"station_id":"","pricing_plan_id":"cebpf4jnsgd1na2vs0mg"},{"bike_id":"003dc589-afc6-47c4-a84a-e90cd5f91109","system_id":"levelo_inurba_marseille","lat":43.29528,"lon":5.39031,"is_reserved":false,"is_disabled":true,"rental_uris":{"android":"levelo://app?vid=003dc589-afc6-47c4-a84a-e90cd5f91109","ios":"levelo://app?vid=003dc589-afc6-47c4-a84a-e90cd5f91109"},"vehicle_type_id":"4","last_reported":1761858539,"current_range_meters":11200,"station_id":"ce4bh3p2rcd13ifvqdp0","pricing_plan_id":"cebpf4jnsgd1na2vs0mg"},{"bike_id":"92c7380e-abfc-4318-9885-233ed2cee512","system_id":"levelo_inurba_marseille","lat":43.276767,"lon":5.388668,"is_reserved":false,"is_disabled":false,"rental_uris":{"android":"levelo://app?vid=92c7380e-abfc-4318-9885-233ed2cee512","ios":"levelo://app?vid=92c7380e-abfc-4318-9885-233ed2cee512"},"vehicle_type_id":"4","last_reported":1761858539,"current_range_meters":11200,"station_id":"ce4bhi12rcd13ifvqfo0","pricing_plan_id":"cebpf4jnsgd1na2vs0mg"},{"bike_id":"8cbb1c06-31b7-44a5-b5a6-5cda47381cde","system_id":"levelo_inurba_marseille","lat":43.2885,"lon":5.35852,"is_reserved":false,"is_disabled":false,"rental_uris":{"android":"levelo://app?vid=8cbb1c06-31b7-44a5-b5a6-5cda47381cde","ios":"levelo://app?vid=8cbb1c06-31b7-44a5-b5a6-5cda47381cde"},"vehicle_type_id":"4","last_reported":1761858539,"current_range_meters":11200,"station_id":"ce4bhb12rcd13ifvqem0","pricing_plan_id":"cebpf4jnsgd1na2vs0mg"},{"bike_id":"22fcd177-d227-44bd-b74f-eeb1d40e190d","system_id":"levelo_inurba_marseille","lat":43.29269,"lon":5.38438,"is_reserved":false,"is_disabled":false,"rental_uris":{"android":"levelo://app?vid=22fcd177-d227-44bd-b74f-eeb1d40e190d","ios":"levelo://app?vid=22fcd177-d227-44bd-b74f-eeb1d40e190d"},"vehicle_type_id":"4","last_reported":1761858539,"current_range_meters":11200,"station_id":"ce4bh692rcd13ifvqea0","pricing_plan_id":"cebpf4jnsgd1na2vs0mg"},{"bike_id":"a90ee1c9-7932-426d-b9cb-caeaf3e682d7","system_id":"levelo_inurba_marseille","lat":43.29204,"lon":5.39322,"is_reserved":false,"is_disabled":false,"rental_uris":{"android":"levelo://app?vid=a90ee1c9-7932-426d-b9cb-caeaf3e682d7","ios":"levelo://app?vid=a90ee1c9-7932-426d-b9cb-caeaf3e682d7"},"vehicle_type_id":"4","last_reported":1761858539,"current_range_meters":11200,"station_id":"ce4bh192rcd13ifvqdd0","pricing_plan_id":"cebpf4jnsgd1na2vs0mg"},{"bike_id":"926593f6-579b-4bc9-b774-62aba5138a9f","system_id":"levelo_inurba_marseille","lat":43.3137,"lon":5.38489,"is_reserved":false,"is_disabled":false,"rental_uris":{"android":"levelo://app?vid=926593f6-579b-4bc9-b774-62aba5138a9f","ios":"levelo://app?vid=926593f6-579b-4bc9-b774-62aba5138a9f"},"vehicle_type_id":"4","last_reported":1761858539,"current_range_meters":11600,"station_id":"ce4bgt92rcd13ifvqcf0","pricing_plan_id":"cebpf4jnsgd1na2vs0mg"},{"bike_id":"e7fbda8d-e4b1-4d1d-8e59-650ead40058d","system_id":"levelo_inurba_marseille","lat":43.246441,"lon":5.431467,"is_reserved":false,"is_disabled":false,"rental_uris":{"android":"levelo://app?vid=e7fbda8d-e4b1-4d1d-8e59-650ead40058d","ios":"levelo://app?vid=e7fbda8d-e4b1-4d1d-8e59-650ead40058d"},"vehicle_type_id":"4","last_reported":1761858539,"current_range_meters":11600,"station_id":"st_d2m6c4gdas8pm72e190g","pricing_plan_id":"cebpf4jnsgd1na2vs0mg"},{"bike_id":"2154cf72-7850-436e-b936-4dc563f20840","system_id":"levelo_inurba_marseille","lat":43.29016,"lon":5.38647,"is_reserved":false,"is_disabled":false,"rental_uris":{"android":"levelo://app?vid=2154cf72-7850-436e-b936-4dc563f20840","ios":"levelo://app?vid=2154cf72-7850-436e-b936-4dc563f20840"},"vehicle_type_id":"4","last_reported":1761858539,"current_range_meters":11600,"station_id":"ce4bh4p2rcd13ifvqe0g","pricing_plan_id":"cebpf4jnsgd1na2vs0mg"},{"bike_id":"22219237-c8df-4ea1-8cfc-d971c5dcd449","system_id":"levelo_inurba_marseille","lat":43.240723,"lon":5.37766,"is_reserved":false,"is_disabled":false,"rental_uris":{"android":"levelo://app?vid=22219237-c8df-4ea1-8cfc-d971c5dcd449","ios":"levelo://app?vid=22219237-c8df-4ea1-8cfc-d971c5dcd449"},"vehicle_type_id":"4","last_reported":1761858539,"current_range_meters":11600,"station_id":"ce4bhnp2rcd13ifvqgvg","pricing_plan_id":"cebpf4jnsgd1na2vs0mg"},{"bike_id":"293a366c-ad33-464f-be66-4c308271167a","system_id":"levelo_inurba_marseille","lat":43.2417,"lon":5.36394,"is_reserved":false,"is_disabled":false,"rental_uris":{"android":"levelo://app?vid=293a366c-ad33-464f-be66-4c308271167a","ios":"levelo://app?vid=293a366c-ad33-464f-be66-4c308271167a"},"vehicle_type_id":"4","last_reported":1761858539,"current_range_meters":11600,"station_id":"cpo36qri1sfpv3e86is0","pricing_plan_id":"cebpf4jnsgd1na2vs0mg"},{"bike_id":"f6bc67db-3f2b-4499-826e-a6540a236ed4","system_id":"levelo_inurba_marseille","lat":43.29264,"lon":5.38444,"is_reserved":false,"is_disabled":false,"rental_uris":{"android":"levelo://app?vid=f6bc67db-3f2b-4499-826e-a6540a236ed4","ios":"levelo://app?vid=f6bc67db-3f2b-4499-826e-a6540a236ed4"},"vehicle_type_id":"4","last_reported":1761858539,"current_range_meters":11600,"station_id":"ce4bh692rcd13ifvqea0","pricing_plan_id":"cebpf4jnsgd1na2vs0mg"},{"bike_id":"e85dc3bf-df6a-446b-914b-75189d622bbb","system_id":"levelo_inurba_marseille","lat":43.301596,"lon":5.385831,"is_reserved":false,"is_disabled":false,"rental_uris":{"android":"levelo://app?vid=e85dc3bf-df6a-446b-914b-75189d622bbb","ios":"levelo://app?vid=e85dc3bf-df6a-446b-914b-75189d622bbb"},"vehicle_type_id":"4","last_reported":1761858539,"current_range_meters":11600,"station_id":"","pricing_plan_id":"cebpf4jnsgd1na2vs0mg"},{"bike_id":"629a9816-6e68-47d2-94fa-6681ad115489","system_id":"levelo_inurba_marseille","lat":43.28459,"lon":5.35891,"is_reserved":false,"is_disabled":false,"rental_uris":{"android":"levelo://app?vid=629a9816-6e68-47d2-94fa-6681ad115489","ios":"levelo://app?vid=629a9816-6e68-47d2-94fa-6681ad115489"},"vehicle_type_id":"4","last_reported":1761858539,"current_range_meters":11600,"station_id":"ce4bhah2rcd13ifvqei0","pricing_plan_id":"cebpf4jnsgd1na2vs0mg"},{"bike_id":"04d817b9-3e24-4734-82b2-b5857dcbd3ee","system_id":"levelo_inurba_marseille","lat":43.24077,"lon":5.37762,"is_reserved":false,"is_disabled":false,"rental_uris":{"android":"levelo://app?vid=04d817b9-3e24-4734-82b2-b5857dcbd3ee","ios":"levelo://app?vid=04d817b9-3e24-4734-82b2-b5857dcbd3ee"},"vehicle_type_id":"4","last_reported":1761858539,"current_range_meters":12000,"station_id":"ce4bhnp2rcd13ifvqgvg","pricing_plan_id":"cebpf4jnsgd1na2vs0mg"},{"bike_id":"2b068601-91e8-4670-a4e3-068638b00800","system_id":"levelo_inurba_marseille","lat":43.29589,"lon":5.38104,"is_reserved":false,"is_disabled":false,"rental_uris":{"android":"levelo://app?vid=2b068601-91e8-4670-a4e3-068638b00800","ios":"levelo://app?vid=2b068601-91e8-4670-a4e3-068638b00800"},"vehicle_type_id":"4","last_reported":1761858539,"current_range_meters":12000,"station_id":"ce4bgl12rcd13ifvqbo0","pricing_plan_id":"cebpf4jnsgd1na2vs0mg"},{"bike_id":"5b8bd8bc-e548-4aa5-a737-db3f6403521b","system_id":"levelo_inurba_marseille","lat":43.29152,"lon":5.38288,"is_reserved":false,"is_disabled":false,"rental_uris":{"android":"levelo://app?vid=5b8bd8bc-e548-4aa5-a737-db3f6403521b","ios":"levelo://app?vid=5b8bd8bc-e548-4aa5-a737-db3f6403521b"},"vehicle_type_id":"4","last_reported":1761858539,"current_range_meters":12000,"station_id":"","pricing_plan_id":"cebpf4jnsgd1na2vs0mg"},{"bike_id":"f6946de9-6fd5-486c-846e-6aac0ac8e59f","system_id":"levelo_inurba_marseille","lat":43.21199,"lon":5.35069,"is_reserved":false,"is_disabled":false,"rental_uris":{"android":"levelo://app?vid=f6946de9-6fd5-486c-846e-6aac0ac8e59f","ios":"levelo://app?vid=f6946de9-6fd5-486c-846e-6aac0ac8e59f"},"vehicle_type_id":"4","last_reported":1761858539,"current_range_meters":12000,"station_id":"st_cvj6sg6p6f1abm77japg","pricing_plan_id":"cebpf4jnsgd1na2vs0mg"},{"bike_id":"0dc2677d-52f3-4c3e-a4eb-af7b96f166b0","system_id":"levelo_inurba_marseille","lat":43.29034,"lon":5.38649,"is_reserved":false,"is_disabled":false,"rental_uris":{"android":"levelo://app?vid=0dc2677d-52f3-4c3e-a4eb-af7b96f166b0","ios":"levelo://app?vid=0dc2677d-52f3-4c3e-a4eb-af7b96f166b0"},"vehicle_type_id":"4","last_reported":1761858539,"current_range_meters":12000,"station_id":"ce4bh4p2rcd13ifvqe0g","pricing_plan_id":"cebpf4jnsgd1na2vs0mg"},{"bike_id":"aacafb34-a0a3-4b35-8b9d-5ef51912a783","system_id":"levelo_inurba_marseille","lat":43.2821,"lon":5.39016,"is_reserved":false,"is_disabled":false,"rental_uris":{"android":"levelo://app?vid=aacafb34-a0a3-4b35-8b9d-5ef51912a783","ios":"levelo://app?vid=aacafb34-a0a3-4b35-8b9d-5ef51912a783"},"vehicle_type_id":"4","last_reported":1761858539,"current_range_meters":12000,"station_id":"ce4bhn92rcd13ifvqgsg","pricing_plan_id":"cebpf4jnsgd1na2vs0mg"},{"bike_id":"ee8c58a9-6ef2-4cc6-96db-41fba8d6ad1e","system_id":"levelo_inurba_marseille","lat":43.30207,"lon":5.39462,"is_reserved":false,"is_disabled":false,"rental_uris":{"android":"levelo://app?vid=ee8c58a9-6ef2-4cc6-96db-41fba8d6ad1e","ios":"levelo://app?vid=ee8c58a9-6ef2-4cc6-96db-41fba8d6ad1e"},"vehicle_type_id":"4","last_reported":1761858539,"current_range_meters":12400,"station_id":"ce4bh0p2rcd13ifvqd70","pricing_plan_id":"cebpf4jnsgd1na2vs0mg"},{"bike_id":"072c653a-0bb1-4b15-986c-153f65ebb56f","system_id":"levelo_inurba_marseille","lat":43.26953,"lon":5.3863,"is_reserved":false,"is_disabled":false,"rental_uris":{"android":"levelo://app?vid=072c653a-0bb1-4b15-986c-153f65ebb56f","ios":"levelo://app?vid=072c653a-0bb1-4b15-986c-153f65ebb56f"},"vehicle_type_id":"4","last_reported":1761858539,"current_range_meters":12400,"station_id":"ce4bhh92rcd13ifvqfh0","pricing_plan_id":"cebpf4jnsgd1na2vs0mg"},{"bike_id":"dadef342-3b17-445d-85b1-7964f5352de1","system_id":"levelo_inurba_marseille","lat":43.308845,"lon":5.371944,"is_reserved":false,"is_disabled":false,"rental_uris":{"android":"levelo://app?vid=dadef342-3b17-445d-85b1-7964f5352de1","ios":"levelo://app?vid=dadef342-3b17-445d-85b1-7964f5352de1"},"vehicle_type_id":"4","last_reported":1761858539,"current_range_meters":12400,"station_id":"ce4bguh2rcd13ifvqckg","pricing_plan_id":"cebpf4jnsgd1na2vs0mg"},{"bike_id":"6031e130-bc2f-4945-be2d-739bc30e9d8e","system_id":"levelo_inurba_marseille","lat":43.28537,"lon":5.44104,"is_reserved":false,"is_disabled":false,"rental_uris":{"android":"levelo://app?vid=6031e130-bc2f-4945-be2d-739bc30e9d8e","ios":"levelo://app?vid=6031e130-bc2f-4945-be2d-739bc30e9d8e"},"vehicle_type_id":"4","last_reported":1761858539,"current_range_meters":12400,"station_id":"st_d3j3df2ikq2c7380ej80","pricing_plan_id":"cebpf4jnsgd1na2vs0mg"},{"bike_id":"d797e0fe-e559-4cdd-b317-e6dda622464a","system_id":"levelo_inurba_marseille","lat":43.29528,"lon":5.38544,"is_reserved":false,"is_disabled":false,"rental_uris":{"android":"levelo://app?vid=d797e0fe-e559-4cdd-b317-e6dda622464a","ios":"levelo://app?vid=d797e0fe-e559-4cdd-b317-e6dda622464a"},"vehicle_type_id":"4","last_reported":1761858539,"current_range_meters":12400,"station_id":"ce4bgih2rcd13ifvqba0","pricing_plan_id":"cebpf4jnsgd1na2vs0mg"},{"bike_id":"7bfd8fdd-daf8-435b-b594-63231f59c3b4","system_id":"levelo_inurba_marseille","lat":43.3133,"lon":5.39686,"is_reserved":false,"is_disabled":false,"rental_uris":{"android":"levelo://app?vid=7bfd8fdd-daf8-435b-b594-63231f59c3b4","ios":"levelo://app?vid=7bfd8fdd-daf8-435b-b594-63231f59c3b4"},"vehicle_type_id":"4","last_reported":1761858539,"current_range_meters":12400,"station_id":"ce4bgvp2rcd13ifvqcu0","pricing_plan_id":"cebpf4jnsgd1na2vs0mg"},{"bike_id":"a159c7fa-4c33-479a-9130-82f09aa8b34d","system_id":"levelo_inurba_marseille","lat":43.25085,"lon":5.39514,"is_reserved":false,"is_disabled":false,"rental_uris":{"android":"levelo://app?vid=a159c7fa-4c33-479a-9130-82f09aa8b34d","ios":"levelo://app?vid=a159c7fa-4c33-479a-9130-82f09aa8b34d"},"vehicle_type_id":"4","last_reported":1761858539,"current_range_meters":12400,"station_id":"ce4bhm12rcd13ifvqgkg","pricing_plan_id":"cebpf4jnsgd1na2vs0mg"},{"bike_id":"832f8360-f0a1-43f7-8c58-03a9849f627c","system_id":"levelo_inurba_marseille","lat":43.295414,"lon":5.38547,"is_reserved":false,"is_disabled":false,"rental_uris":{"android":"levelo://app?vid=832f8360-f0a1-43f7-8c58-03a9849f627c","ios":"levelo://app?vid=832f8360-f0a1-43f7-8c58-03a9849f627c"},"vehicle_type_id":"4","last_reported":1761858539,"current_range_meters":12800,"station_id":"ce4bgih2rcd13ifvqba0","pricing_plan_id":"cebpf4jnsgd1na2vs0mg"},{"bike_id":"8f52ebd3-f0d6-4adc-891b-2b9ea39d37fb","system_id":"levelo_inurba_marseille","lat":43.30151,"lon":5.38096,"is_reserved":false,"is_disabled":false,"rental_uris":{"android":"levelo://app?vid=8f52ebd3-f0d6-4adc-891b-2b9ea39d37fb","ios":"levelo://app?vid=8f52ebd3-f0d6-4adc-891b-2b9ea39d37fb"},"vehicle_type_id":"4","last_reported":1761858539,"current_range_meters":12800,"station_id":"ce4bgjp2rcd13ifvqbh0","pricing_plan_id":"cebpf4jnsgd1na2vs0mg"},{"bike_id":"49eabeb8-91e9-4fed-9256-a94ef104e5f4","system_id":"levelo_inurba_marseille","lat":43.29593,"lon":5.36741,"is_reserved":false,"is_disabled":false,"rental_uris":{"android":"levelo://app?vid=49eabeb8-91e9-4fed-9256-a94ef104e5f4","ios":"levelo://app?vid=49eabeb8-91e9-4fed-9256-a94ef104e5f4"},"vehicle_type_id":"4","last_reported":1761858539,"current_range_meters":12800,"station_id":"ce4bgph2rcd13ifvqc2g","pricing_plan_id":"cebpf4jnsgd1na2vs0mg"},{"bike_id":"4c1b2049-b590-4ae2-a090-9d731b00e193","system_id":"levelo_inurba_marseille","lat":43.27072,"lon":5.42258,"is_reserved":false,"is_disabled":false,"rental_uris":{"android":"levelo://app?vid=4c1b2049-b590-4ae2-a090-9d731b00e193","ios":"levelo://app?vid=4c1b2049-b590-4ae2-a090-9d731b00e193"},"vehicle_type_id":"4","last_reported":1761858539,"current_range_meters":12800,"station_id":"ce4bhk92rcd13ifvqgb0","pricing_plan_id":"cebpf4jnsgd1na2vs0mg"},{"bike_id":"9ba049b2-b2f3-4b11-8b28-d2a01a490107","system_id":"levelo_inurba_marseille","lat":43.288212,"lon":5.35302,"is_reserved":false,"is_disabled":false,"rental_uris":{"android":"levelo://app?vid=9ba049b2-b2f3-4b11-8b28-d2a01a490107","ios":"levelo://app?vid=9ba049b2-b2f3-4b11-8b28-d2a01a490107"},"vehicle_type_id":"4","last_reported":1761858539,"current_range_meters":12800,"station_id":"ce4bhch2rcd13ifvqeug","pricing_plan_id":"cebpf4jnsgd1na2vs0mg"},{"bike_id":"2ec8fd1b-3b42-4f93-a828-68bd711efa51","system_id":"levelo_inurba_marseille","lat":43.24627,"lon":5.43146,"is_reserved":false,"is_disabled":false,"rental_uris":{"android":"levelo://app?vid=2ec8fd1b-3b42-4f93-a828-68bd711efa51","ios":"levelo://app?vid=2ec8fd1b-3b42-4f93-a828-68bd711efa51"},"vehicle_type_id":"4","last_reported":1761858539,"current_range_meters":13600,"station_id":"st_d2m6c4gdas8pm72e190g","pricing_plan_id":"cebpf4jnsgd1na2vs0mg"},{"bike_id":"8c929b2a-4f00-4126-bae8-4e8292f3d6d6","system_id":"levelo_inurba_marseille","lat":43.302277,"lon":5.395111,"is_reserved":false,"is_disabled":false,"rental_uris":{"android":"levelo://app?vid=8c929b2a-4f00-4126-bae8-4e8292f3d6d6","ios":"levelo://app?vid=8c929b2a-4f00-4126-bae8-4e8292f3d6d6"},"vehicle_type_id":"4","last_reported":1761858539,"current_range_meters":13600,"station_id":"","pricing_plan_id":"cebpf4jnsgd1na2vs0mg"},{"bike_id":"a18dbf48-2c4d-4fa4-a4c5-c9871d73c9a0","system_id":"levelo_inurba_marseille","lat":43.301994,"lon":5.383462,"is_reserved":false,"is_disabled":false,"rental_uris":{"android":"levelo://app?vid=a18dbf48-2c4d-4fa4-a4c5-c9871d73c9a0","ios":"levelo://app?vid=a18dbf48-2c4d-4fa4-a4c5-c9871d73c9a0"},"vehicle_type_id":"4","last_reported":1761858539,"current_range_meters":13600,"station_id":"ce4bgup2rcd13ifvqcn0","pricing_plan_id":"cebpf4jnsgd1na2vs0mg"},{"bike_id":"8b722ecc-cb2c-4ed0-8de9-2f3597c2622b","system_id":"levelo_inurba_marseille","lat":43.26065,"lon":5.39394,"is_reserved":false,"is_disabled":false,"rental_uris":{"android":"levelo://app?vid=8b722ecc-cb2c-4ed0-8de9-2f3597c2622b","ios":"levelo://app?vid=8b722ecc-cb2c-4ed0-8de9-2f3597c2622b"},"vehicle_type_id":"4","last_reported":1761858539,"current_range_meters":13600,"station_id":"ce4bhh92rcd13ifvqfj0","pricing_plan_id":"cebpf4jnsgd1na2vs0mg"},{"bike_id":"71da322f-7555-4dc3-bd8a-80fe63f21dfd","system_id":"levelo_inurba_marseille","lat":43.29255,"lon":5.38435,"is_reserved":false,"is_disabled":false,"rental_uris":{"android":"levelo://app?vid=71da322f-7555-4dc3-bd8a-80fe63f21dfd","ios":"levelo://app?vid=71da322f-7555-4dc3-bd8a-80fe63f21dfd"},"vehicle_type_id":"4","last_reported":1761858539,"current_range_meters":13600,"station_id":"ce4bh692rcd13ifvqea0","pricing_plan_id":"cebpf4jnsgd1na2vs0mg"},{"bike_id":"93276f62-73de-4cca-b4f6-1f053030968c","system_id":"levelo_inurba_marseille","lat":43.29267,"lon":5.3843,"is_reserved":false,"is_disabled":false,"rental_uris":{"android":"levelo://app?vid=93276f62-73de-4cca-b4f6-1f053030968c","ios":"levelo://app?vid=93276f62-73de-4cca-b4f6-1f053030968c"},"vehicle_type_id":"4","last_reported":1761858539,"current_range_meters":13600,"station_id":"ce4bh692rcd13ifvqea0","pricing_plan_id":"cebpf4jnsgd1na2vs0mg"},{"bike_id":"7f597b80-e60b-4d55-8e6a-3e68b1031742","system_id":"levelo_inurba_marseille","lat":43.25079,"lon":5.39526,"is_reserved":false,"is_disabled":false,"rental_uris":{"android":"levelo://app?vid=7f597b80-e60b-4d55-8e6a-3e68b1031742","ios":"levelo://app?vid=7f597b80-e60b-4d55-8e6a-3e68b1031742"},"vehicle_type_id":"4","last_reported":1761858539,"current_range_meters":14000,"station_id":"ce4bhm12rcd13ifvqgkg","pricing_plan_id":"cebpf4jnsgd1na2vs0mg"},{"bike_id":"9b93b5e1-c939-4745-bf85-2d21945442dc","system_id":"levelo_inurba_marseille","lat":43.29993,"lon":5.36412,"is_reserved":false,"is_disabled":false,"rental_uris":{"android":"levelo://app?vid=9b93b5e1-c939-4745-bf85-2d21945442dc","ios":"levelo://app?vid=9b93b5e1-c939-4745-bf85-2d21945442dc"},"vehicle_type_id":"4","last_reported":1761858539,"current_range_meters":14000,"station_id":"","pricing_plan_id":"cebpf4jnsgd1na2vs0mg"},{"bike_id":"5e19c719-1572-4565-9a1c-c75db2168b52","system_id":"levelo_inurba_marseille","lat":43.304434,"lon":5.397442,"is_reserved":false,"is_disabled":false,"rental_uris":{"android":"levelo://app?vid=5e19c719-1572-4565-9a1c-c75db2168b52","ios":"levelo://app?vid=5e19c719-1572-4565-9a1c-c75db2168b52"},"vehicle_type_id":"4","last_reported":1761858539,"current_range_meters":14000,"station_id":"ce4bh092rcd13ifvqd20","pricing_plan_id":"cebpf4jnsgd1na2vs0mg"},{"bike_id":"08b2eda2-0e70-4be1-8cbd-085b9bda286c","system_id":"levelo_inurba_marseille","lat":43.298901,"lon":5.36475,"is_reserved":false,"is_disabled":false,"rental_uris":{"android":"levelo://app?vid=08b2eda2-0e70-4be1-8cbd-085b9bda286c","ios":"levelo://app?vid=08b2eda2-0e70-4be1-8cbd-085b9bda286c"},"vehicle_type_id":"4","last_reported":1761858539,"current_range_meters":14000,"station_id":"ce4bgl12rcd13ifvqbo0","pricing_plan_id":"cebpf4jnsgd1na2vs0mg"},{"bike_id":"2f3fc3a0-335a-4304-bbd1-0710b6dd4435","system_id":"levelo_inurba_marseille","lat":43.29534,"lon":5.3854,"is_reserved":false,"is_disabled":false,"rental_uris":{"android":"levelo://app?vid=2f3fc3a0-335a-4304-bbd1-0710b6dd4435","ios":"levelo://app?vid=2f3fc3a0-335a-4304-bbd1-0710b6dd4435"},"vehicle_type_id":"4","last_reported":1761858539,"current_range_meters":14000,"station_id":"ce4bgih2rcd13ifvqba0","pricing_plan_id":"cebpf4jnsgd1na2vs0mg"},{"bike_id":"a0d564f2-5ac0-4238-b3be-1fed830781ea","system_id":"levelo_inurba_marseille","lat":43.273801,"lon":5.362358,"is_reserved":false,"is_disabled":false,"rental_uris":{"android":"levelo://app?vid=a0d564f2-5ac0-4238-b3be-1fed830781ea","ios":"levelo://app?vid=a0d564f2-5ac0-4238-b3be-1fed830781ea"},"vehicle_type_id":"4","last_reported":1761858539,"current_range_meters":14000,"station_id":"","pricing_plan_id":"cebpf4jnsgd1na2vs0mg"},{"bike_id":"e43a9cd2-21d7-4cf6-a759-05b557878143","system_id":"levelo_inurba_marseille","lat":43.24629,"lon":5.43148,"is_reserved":false,"is_disabled":false,"rental_uris":{"android":"levelo://app?vid=e43a9cd2-21d7-4cf6-a759-05b557878143","ios":"levelo://app?vid=e43a9cd2-21d7-4cf6-a759-05b557878143"},"vehicle_type_id":"4","last_reported":1761858539,"current_range_meters":14000,"station_id":"st_d2m6c4gdas8pm72e190g","pricing_plan_id":"cebpf4jnsgd1na2vs0mg"},{"bike_id":"b61e1e59-261f-4781-9885-10fc3dd1eaf7","system_id":"levelo_inurba_marseille","lat":43.30478,"lon":5.36893,"is_reserved":false,"is_disabled":false,"rental_uris":{"android":"levelo://app?vid=b61e1e59-261f-4781-9885-10fc3dd1eaf7","ios":"levelo://app?vid=b61e1e59-261f-4781-9885-10fc3dd1eaf7"},"vehicle_type_id":"4","last_reported":1761858539,"current_range_meters":14000,"station_id":"","pricing_plan_id":"cebpf4jnsgd1na2vs0mg"},{"bike_id":"6fa71a74-e803-49af-ab0d-59f68ae4db0f","system_id":"levelo_inurba_marseille","lat":43.25494,"lon":5.37649,"is_reserved":false,"is_disabled":false,"rental_uris":{"android":"levelo://app?vid=6fa71a74-e803-49af-ab0d-59f68ae4db0f","ios":"levelo://app?vid=6fa71a74-e803-49af-ab0d-59f68ae4db0f"},"vehicle_type_id":"4","last_reported":1761858539,"current_range_meters":14000,"station_id":"ce4bhh12rcd13ifvqff0","pricing_plan_id":"cebpf4jnsgd1na2vs0mg"},{"bike_id":"c0a1ab8d-72ff-4114-b274-fdab8f1c3cb0","system_id":"levelo_inurba_marseille","lat":43.2469,"lon":5.38189,"is_reserved":false,"is_disabled":false,"rental_uris":{"android":"levelo://app?vid=c0a1ab8d-72ff-4114-b274-fdab8f1c3cb0","ios":"levelo://app?vid=c0a1ab8d-72ff-4114-b274-fdab8f1c3cb0"},"vehicle_type_id":"4","last_reported":1761858539,"current_range_meters":14400,"station_id":"ce4bhih2rcd13ifvqfr0","pricing_plan_id":"cebpf4jnsgd1na2vs0mg"},{"bike_id":"7546f65b-cc1b-4985-bde5-e38523b2efb1","system_id":"levelo_inurba_marseille","lat":43.28854,"lon":5.35839,"is_reserved":false,"is_disabled":false,"rental_uris":{"android":"levelo://app?vid=7546f65b-cc1b-4985-bde5-e38523b2efb1","ios":"levelo://app?vid=7546f65b-cc1b-4985-bde5-e38523b2efb1"},"vehicle_type_id":"4","last_reported":1761858539,"current_range_meters":14400,"station_id":"ce4bhb12rcd13ifvqem0","pricing_plan_id":"cebpf4jnsgd1na2vs0mg"},{"bike_id":"ccad64aa-5069-4b94-b03d-2dfcaa2d30c4","system_id":"levelo_inurba_marseille","lat":43.30889,"lon":5.39618,"is_reserved":false,"is_disabled":false,"rental_uris":{"android":"levelo://app?vid=ccad64aa-5069-4b94-b03d-2dfcaa2d30c4","ios":"levelo://app?vid=ccad64aa-5069-4b94-b03d-2dfcaa2d30c4"},"vehicle_type_id":"4","last_reported":1761858539,"current_range_meters":14400,"station_id":"ce4bh012rcd13ifvqcv0","pricing_plan_id":"cebpf4jnsgd1na2vs0mg"},{"bike_id":"3ca2b920-5ca9-4e61-ba8f-c08e86c59c44","system_id":"levelo_inurba_marseille","lat":43.28937,"lon":5.39629,"is_reserved":false,"is_disabled":false,"rental_uris":{"android":"levelo://app?vid=3ca2b920-5ca9-4e61-ba8f-c08e86c59c44","ios":"levelo://app?vid=3ca2b920-5ca9-4e61-ba8f-c08e86c59c44"},"vehicle_type_id":"4","last_reported":1761858539,"current_range_meters":14400,"station_id":"ce4bh3h2rcd13ifvqdn0","pricing_plan_id":"cebpf4jnsgd1na2vs0mg"},{"bike_id":"69daedd1-e532-426c-b096-24cfed29fb24","system_id":"levelo_inurba_marseille","lat":43.27948,"lon":5.41027,"is_reserved":false,"is_disabled":false,"rental_uris":{"android":"levelo://app?vid=69daedd1-e532-426c-b096-24cfed29fb24","ios":"levelo://app?vid=69daedd1-e532-426c-b096-24cfed29fb24"},"vehicle_type_id":"4","last_reported":1761858539,"current_range_meters":14400,"station_id":"ce4bhnp2rcd13ifvqh0g","pricing_plan_id":"cebpf4jnsgd1na2vs0mg"},{"bike_id":"e1e1a2c7-8af4-4ab4-b3a0-13a493804176","system_id":"levelo_inurba_marseille","lat":43.29044,"lon":5.38645,"is_reserved":false,"is_disabled":false,"rental_uris":{"android":"levelo://app?vid=e1e1a2c7-8af4-4ab4-b3a0-13a493804176","ios":"levelo://app?vid=e1e1a2c7-8af4-4ab4-b3a0-13a493804176"},"vehicle_type_id":"4","last_reported":1761858539,"current_range_meters":14400,"station_id":"ce4bh4p2rcd13ifvqe0g","pricing_plan_id":"cebpf4jnsgd1na2vs0mg"},{"bike_id":"899f498b-b0d2-4609-8c9e-15400a9cb9bf","system_id":"levelo_inurba_marseille","lat":43.2952,"lon":5.38521,"is_reserved":false,"is_disabled":false,"rental_uris":{"android":"levelo://app?vid=899f498b-b0d2-4609-8c9e-15400a9cb9bf","ios":"levelo://app?vid=899f498b-b0d2-4609-8c9e-15400a9cb9bf"},"vehicle_type_id":"4","last_reported":1761858539,"current_range_meters":14400,"station_id":"ce4bgih2rcd13ifvqba0","pricing_plan_id":"cebpf4jnsgd1na2vs0mg"},{"bike_id":"a0225ff1-ee83-4f66-9db2-6a397e641566","system_id":"levelo_inurba_marseille","lat":43.29245,"lon":5.38456,"is_reserved":false,"is_disabled":false,"rental_uris":{"android":"levelo://app?vid=a0225ff1-ee83-4f66-9db2-6a397e641566","ios":"levelo://app?vid=a0225ff1-ee83-4f66-9db2-6a397e641566"},"vehicle_type_id":"4","last_reported":1761858539,"current_range_meters":14400,"station_id":"ce4bh692rcd13ifvqea0","pricing_plan_id":"cebpf4jnsgd1na2vs0mg"},{"bike_id":"4d7d62ab-4ac7-4f11-a006-c751970e74e0","system_id":"levelo_inurba_marseille","lat":43.25348,"lon":5.42144,"is_reserved":false,"is_disabled":false,"rental_uris":{"android":"levelo://app?vid=4d7d62ab-4ac7-4f11-a006-c751970e74e0","ios":"levelo://app?vid=4d7d62ab-4ac7-4f11-a006-c751970e74e0"},"vehicle_type_id":"4","last_reported":1761858539,"current_range_meters":14400,"station_id":"st_d2m65c5bi1j21697t3ng","pricing_plan_id":"cebpf4jnsgd1na2vs0mg"},{"bike_id":"c2b29e2a-9ddf-4599-9569-ebeda3771708","system_id":"levelo_inurba_marseille","lat":43.2119,"lon":5.35072,"is_reserved":false,"is_disabled":false,"rental_uris":{"android":"levelo://app?vid=c2b29e2a-9ddf-4599-9569-ebeda3771708","ios":"levelo://app?vid=c2b29e2a-9ddf-4599-9569-ebeda3771708"},"vehicle_type_id":"4","last_reported":1761858539,"current_range_meters":14400,"station_id":"st_cvj6sg6p6f1abm77japg","pricing_plan_id":"cebpf4jnsgd1na2vs0mg"},{"bike_id":"f0f4e9c6-0d3e-4e63-8b2a-1bf38004cf45","system_id":"levelo_inurba_marseille","lat":43.29531,"lon":5.38556,"is_reserved":false,"is_disabled":false,"rental_uris":{"android":"levelo://app?vid=f0f4e9c6-0d3e-4e63-8b2a-1bf38004cf45","ios":"levelo://app?vid=f0f4e9c6-0d3e-4e63-8b2a-1bf38004cf45"},"vehicle_type_id":"4","last_reported":1761858539,"current_range_meters":14400,"station_id":"ce4bgih2rcd13ifvqba0","pricing_plan_id":"cebpf4jnsgd1na2vs0mg"},{"bike_id":"cb4434ef-8f35-48b1-a114-619cac4c7712","system_id":"levelo_inurba_marseille","lat":43.29256,"lon":5.38445,"is_reserved":false,"is_disabled":false,"rental_uris":{"android":"levelo://app?vid=cb4434ef-8f35-48b1-a114-619cac4c7712","ios":"levelo://app?vid=cb4434ef-8f35-48b1-a114-619cac4c7712"},"vehicle_type_id":"4","last_reported":1761858539,"current_range_meters":14400,"station_id":"ce4bh692rcd13ifvqea0","pricing_plan_id":"cebpf4jnsgd1na2vs0mg"},{"bike_id":"13b5bebc-2277-4643-9efc-b419c3a09bbd","system_id":"levelo_inurba_marseille","lat":43.22936,"lon":5.35374,"is_reserved":false,"is_disabled":false,"rental_uris":{"android":"levelo://app?vid=13b5bebc-2277-4643-9efc-b419c3a09bbd","ios":"levelo://app?vid=13b5bebc-2277-4643-9efc-b419c3a09bbd"},"vehicle_type_id":"4","last_reported":1761858539,"current_range_meters":14800,"station_id":"cpo3532slgdg3j2ikp40","pricing_plan_id":"cebpf4jnsgd1na2vs0mg"},{"bike_id":"d3e4191f-8708-4957-a7db-efe93d73dc66","system_id":"levelo_inurba_marseille","lat":43.28527,"lon":5.441,"is_reserved":false,"is_disabled":false,"rental_uris":{"android":"levelo://app?vid=d3e4191f-8708-4957-a7db-efe93d73dc66","ios":"levelo://app?vid=d3e4191f-8708-4957-a7db-efe93d73dc66"},"vehicle_type_id":"4","last_reported":1761858539,"current_range_meters":14800,"station_id":"st_d3j3df2ikq2c7380ej80","pricing_plan_id":"cebpf4jnsgd1na2vs0mg"},{"bike_id":"22197728-7ad8-4bfc-a0f9-334e6b80892f","system_id":"levelo_inurba_marseille","lat":43.26951,"lon":5.38626,"is_reserved":false,"is_disabled":false,"rental_uris":{"android":"levelo://app?vid=22197728-7ad8-4bfc-a0f9-334e6b80892f","ios":"levelo://app?vid=22197728-7ad8-4bfc-a0f9-334e6b80892f"},"vehicle_type_id":"4","last_reported":1761858539,"current_range_meters":14800,"station_id":"ce4bhh92rcd13ifvqfh0","pricing_plan_id":"cebpf4jnsgd1na2vs0mg"},{"bike_id":"4f23ab94-a366-4a0d-b0ec-e7b48be6c810","system_id":"levelo_inurba_marseille","lat":43.29251,"lon":5.38436,"is_reserved":false,"is_disabled":false,"rental_uris":{"android":"levelo://app?vid=4f23ab94-a366-4a0d-b0ec-e7b48be6c810","ios":"levelo://app?vid=4f23ab94-a366-4a0d-b0ec-e7b48be6c810"},"vehicle_type_id":"4","last_reported":1761858539,"current_range_meters":14800,"station_id":"ce4bh692rcd13ifvqea0","pricing_plan_id":"cebpf4jnsgd1na2vs0mg"},{"bike_id":"ce29ad65-210c-477e-9413-88ae231cc3f6","system_id":"levelo_inurba_marseille","lat":43.29256,"lon":5.38436,"is_reserved":false,"is_disabled":false,"rental_uris":{"android":"levelo://app?vid=ce29ad65-210c-477e-9413-88ae231cc3f6","ios":"levelo://app?vid=ce29ad65-210c-477e-9413-88ae231cc3f6"},"vehicle_type_id":"4","last_reported":1761858539,"current_range_meters":14800,"station_id":"ce4bh692rcd13ifvqea0","pricing_plan_id":"cebpf4jnsgd1na2vs0mg"},{"bike_id":"8ac20fd4-0440-4483-a88b-ff8baa0ca3ad","system_id":"levelo_inurba_marseille","lat":43.29274,"lon":5.38414,"is_reserved":false,"is_disabled":false,"rental_uris":{"android":"levelo://app?vid=8ac20fd4-0440-4483-a88b-ff8baa0ca3ad","ios":"levelo://app?vid=8ac20fd4-0440-4483-a88b-ff8baa0ca3ad"},"vehicle_type_id":"4","last_reported":1761858539,"current_range_meters":14800,"station_id":"ce4bh692rcd13ifvqea0","pricing_plan_id":"cebpf4jnsgd1na2vs0mg"},{"bike_id":"795876d8-ce78-490e-ab88-4dfd55d3ecd0","system_id":"levelo_inurba_marseille","lat":43.29527,"lon":5.38524,"is_reserved":false,"is_disabled":false,"rental_uris":{"android":"levelo://app?vid=795876d8-ce78-490e-ab88-4dfd55d3ecd0","ios":"levelo://app?vid=795876d8-ce78-490e-ab88-4dfd55d3ecd0"},"vehicle_type_id":"4","last_reported":1761858539,"current_range_meters":15200,"station_id":"ce4bgih2rcd13ifvqba0","pricing_plan_id":"cebpf4jnsgd1na2vs0mg"},{"bike_id":"960e6fa4-4740-4586-b1d8-4bb7b95af038","system_id":"levelo_inurba_marseille","lat":43.24958,"lon":5.40484,"is_reserved":false,"is_disabled":false,"rental_uris":{"android":"levelo://app?vid=960e6fa4-4740-4586-b1d8-4bb7b95af038","ios":"levelo://app?vid=960e6fa4-4740-4586-b1d8-4bb7b95af038"},"vehicle_type_id":"4","last_reported":1761858539,"current_range_meters":15200,"station_id":"st_d2ngiaodas8pm72gd1h0","pricing_plan_id":"cebpf4jnsgd1na2vs0mg"},{"bike_id":"905644b9-04d7-4435-8797-982a8470b11f","system_id":"levelo_inurba_marseille","lat":43.29264,"lon":5.38419,"is_reserved":false,"is_disabled":false,"rental_uris":{"android":"levelo://app?vid=905644b9-04d7-4435-8797-982a8470b11f","ios":"levelo://app?vid=905644b9-04d7-4435-8797-982a8470b11f"},"vehicle_type_id":"4","last_reported":1761858539,"current_range_meters":15200,"station_id":"ce4bh692rcd13ifvqea0","pricing_plan_id":"cebpf4jnsgd1na2vs0mg"},{"bike_id":"ea26f597-91d1-4f54-b158-8d3bda3cc998","system_id":"levelo_inurba_marseille","lat":43.3225,"lon":5.38287,"is_reserved":false,"is_disabled":false,"rental_uris":{"android":"levelo://app?vid=ea26f597-91d1-4f54-b158-8d3bda3cc998","ios":"levelo://app?vid=ea26f597-91d1-4f54-b158-8d3bda3cc998"},"vehicle_type_id":"4","last_reported":1761858539,"current_range_meters":15200,"station_id":"ce4bhr12rcd13ifvqhqg","pricing_plan_id":"cebpf4jnsgd1na2vs0mg"},{"bike_id":"f1ebec42-de39-49cb-aa79-a7d00cd08ff7","system_id":"levelo_inurba_marseille","lat":43.330253,"lon":5.390425,"is_reserved":false,"is_disabled":false,"rental_uris":{"android":"levelo://app?vid=f1ebec42-de39-49cb-aa79-a7d00cd08ff7","ios":"levelo://app?vid=f1ebec42-de39-49cb-aa79-a7d00cd08ff7"},"vehicle_type_id":"4","last_reported":1761858539,"current_range_meters":15200,"station_id":"","pricing_plan_id":"cebpf4jnsgd1na2vs0mg"},{"bike_id":"382a3ba7-d376-4cdb-8ec1-2ca215a52431","system_id":"levelo_inurba_marseille","lat":43.311051,"lon":5.383896,"is_reserved":false,"is_disabled":false,"rental_uris":{"android":"levelo://app?vid=382a3ba7-d376-4cdb-8ec1-2ca215a52431","ios":"levelo://app?vid=382a3ba7-d376-4cdb-8ec1-2ca215a52431"},"vehicle_type_id":"4","last_reported":1761858539,"current_range_meters":15200,"station_id":"ce4bgv92rcd13ifvqcr0","pricing_plan_id":"cebpf4jnsgd1na2vs0mg"},{"bike_id":"c0381cfe-4020-45a1-a90a-c73928248165","system_id":"levelo_inurba_marseille","lat":43.28423,"lon":5.37506,"is_reserved":false,"is_disabled":false,"rental_uris":{"android":"levelo://app?vid=c0381cfe-4020-45a1-a90a-c73928248165","ios":"levelo://app?vid=c0381cfe-4020-45a1-a90a-c73928248165"},"vehicle_type_id":"4","last_reported":1761858539,"current_range_meters":15200,"station_id":"ce4bh412rcd13ifvqds0","pricing_plan_id":"cebpf4jnsgd1na2vs0mg"},{"bike_id":"ccb25d01-a5cc-45c9-8b7f-7faed4ee6eba","system_id":"levelo_inurba_marseille","lat":43.295288,"lon":5.385416,"is_reserved":false,"is_disabled":false,"rental_uris":{"android":"levelo://app?vid=ccb25d01-a5cc-45c9-8b7f-7faed4ee6eba","ios":"levelo://app?vid=ccb25d01-a5cc-45c9-8b7f-7faed4ee6eba"},"vehicle_type_id":"4","last_reported":1761858539,"current_range_meters":15200,"station_id":"","pricing_plan_id":"cebpf4jnsgd1na2vs0mg"},{"bike_id":"0e8e0a18-4139-452e-bab3-cb99f058b247","system_id":"levelo_inurba_marseille","lat":43.294948,"lon":5.419631,"is_reserved":false,"is_disabled":true,"rental_uris":{"android":"levelo://app?vid=0e8e0a18-4139-452e-bab3-cb99f058b247","ios":"levelo://app?vid=0e8e0a18-4139-452e-bab3-cb99f058b247"},"vehicle_type_id":"4","last_reported":1761858539,"current_range_meters":16000,"station_id":"","pricing_plan_id":"cebpf4jnsgd1na2vs0mg"},{"bike_id":"c39b52f9-5ec7-49f4-8218-8c437392ec9e","system_id":"levelo_inurba_marseille","lat":43.29538,"lon":5.38525,"is_reserved":false,"is_disabled":false,"rental_uris":{"android":"levelo://app?vid=c39b52f9-5ec7-49f4-8218-8c437392ec9e","ios":"levelo://app?vid=c39b52f9-5ec7-49f4-8218-8c437392ec9e"},"vehicle_type_id":"4","last_reported":1761858539,"current_range_meters":16000,"station_id":"ce4bgih2rcd13ifvqba0","pricing_plan_id":"cebpf4jnsgd1na2vs0mg"},{"bike_id":"c10fd23f-1b19-490b-8d70-a1ac8cd03369","system_id":"levelo_inurba_marseille","lat":43.24548,"lon":5.39522,"is_reserved":false,"is_disabled":false,"rental_uris":{"android":"levelo://app?vid=c10fd23f-1b19-490b-8d70-a1ac8cd03369","ios":"levelo://app?vid=c10fd23f-1b19-490b-8d70-a1ac8cd03369"},"vehicle_type_id":"4","last_reported":1761858539,"current_range_meters":16000,"station_id":"ce4bhlp2rcd13ifvqgjg","pricing_plan_id":"cebpf4jnsgd1na2vs0mg"},{"bike_id":"88327406-ba65-4ce0-831c-3da476dbb691","system_id":"levelo_inurba_marseille","lat":43.23785,"lon":5.36625,"is_reserved":false,"is_disabled":false,"rental_uris":{"android":"levelo://app?vid=88327406-ba65-4ce0-831c-3da476dbb691","ios":"levelo://app?vid=88327406-ba65-4ce0-831c-3da476dbb691"},"vehicle_type_id":"4","last_reported":1761858539,"current_range_meters":16000,"station_id":"st_d3nk18o9ro0c73en2l3g","pricing_plan_id":"cebpf4jnsgd1na2vs0mg"},{"bike_id":"883dd913-3191-449a-9160-3c26a3e9821d","system_id":"levelo_inurba_marseille","lat":43.29867,"lon":5.3974,"is_reserved":false,"is_disabled":false,"rental_uris":{"android":"levelo://app?vid=883dd913-3191-449a-9160-3c26a3e9821d","ios":"levelo://app?vid=883dd913-3191-449a-9160-3c26a3e9821d"},"vehicle_type_id":"4","last_reported":1761858539,"current_range_meters":16000,"station_id":"ce4bh0h2rcd13ifvqd50","pricing_plan_id":"cebpf4jnsgd1na2vs0mg"},{"bike_id":"10550d20-c29a-421a-ad3c-0acbf44c0aaf","system_id":"levelo_inurba_marseille","lat":43.24803,"lon":5.37456,"is_reserved":false,"is_disabled":false,"rental_uris":{"android":"levelo://app?vid=10550d20-c29a-421a-ad3c-0acbf44c0aaf","ios":"levelo://app?vid=10550d20-c29a-421a-ad3c-0acbf44c0aaf"},"vehicle_type_id":"4","last_reported":1761858539,"current_range_meters":16000,"station_id":"ce4bhgh2rcd13ifvqfb0","pricing_plan_id":"cebpf4jnsgd1na2vs0mg"},{"bike_id":"a657bfed-2a8a-41a5-8d2c-2d032f3588c4","system_id":"levelo_inurba_marseille","lat":43.25488,"lon":5.37692,"is_reserved":false,"is_disabled":false,"rental_uris":{"android":"levelo://app?vid=a657bfed-2a8a-41a5-8d2c-2d032f3588c4","ios":"levelo://app?vid=a657bfed-2a8a-41a5-8d2c-2d032f3588c4"},"vehicle_type_id":"4","last_reported":1761858539,"current_range_meters":16000,"station_id":"ce4bhh12rcd13ifvqff0","pricing_plan_id":"cebpf4jnsgd1na2vs0mg"},{"bike_id":"516995d3-31b4-460f-8436-1dc3fc004b9c","system_id":"levelo_inurba_marseille","lat":43.29264,"lon":5.40936,"is_reserved":false,"is_disabled":false,"rental_uris":{"android":"levelo://app?vid=516995d3-31b4-460f-8436-1dc3fc004b9c","ios":"levelo://app?vid=516995d3-31b4-460f-8436-1dc3fc004b9c"},"vehicle_type_id":"4","last_reported":1761858539,"current_range_meters":16000,"station_id":"ce4bh192rcd13ifvqdc0","pricing_plan_id":"cebpf4jnsgd1na2vs0mg"},{"bike_id":"138ff61d-8859-4ecb-a94c-3a8ea01a7893","system_id":"levelo_inurba_marseille","lat":43.2798,"lon":5.41053,"is_reserved":false,"is_disabled":false,"rental_uris":{"android":"levelo://app?vid=138ff61d-8859-4ecb-a94c-3a8ea01a7893","ios":"levelo://app?vid=138ff61d-8859-4ecb-a94c-3a8ea01a7893"},"vehicle_type_id":"4","last_reported":1761858539,"current_range_meters":16000,"station_id":"ce4bhnp2rcd13ifvqh0g","pricing_plan_id":"cebpf4jnsgd1na2vs0mg"},{"bike_id":"28bbf614-7806-40a7-b631-19d992de53ed","system_id":"levelo_inurba_marseille","lat":43.229369,"lon":5.353657,"is_reserved":false,"is_disabled":false,"rental_uris":{"android":"levelo://app?vid=28bbf614-7806-40a7-b631-19d992de53ed","ios":"levelo://app?vid=28bbf614-7806-40a7-b631-19d992de53ed"},"vehicle_type_id":"4","last_reported":1761858539,"current_range_meters":16000,"station_id":"cpo3532slgdg3j2ikp40","pricing_plan_id":"cebpf4jnsgd1na2vs0mg"},{"bike_id":"0ea07904-84f7-4751-a79c-34eb67ef8001","system_id":"levelo_inurba_marseille","lat":43.24551,"lon":5.395364,"is_reserved":false,"is_disabled":false,"rental_uris":{"android":"levelo://app?vid=0ea07904-84f7-4751-a79c-34eb67ef8001","ios":"levelo://app?vid=0ea07904-84f7-4751-a79c-34eb67ef8001"},"vehicle_type_id":"4","last_reported":1761858539,"current_range_meters":16400,"station_id":"ce4bhlp2rcd13ifvqgjg","pricing_plan_id":"cebpf4jnsgd1na2vs0mg"},{"bike_id":"1282d74a-548d-440e-84c8-e15be2e1b590","system_id":"levelo_inurba_marseille","lat":43.26208,"lon":5.37913,"is_reserved":false,"is_disabled":false,"rental_uris":{"android":"levelo://app?vid=1282d74a-548d-440e-84c8-e15be2e1b590","ios":"levelo://app?vid=1282d74a-548d-440e-84c8-e15be2e1b590"},"vehicle_type_id":"4","last_reported":1761858539,"current_range_meters":16400,"station_id":"ce4bhjp2rcd13ifvqg90","pricing_plan_id":"cebpf4jnsgd1na2vs0mg"},{"bike_id":"f9f5725b-4420-4974-8696-29f60feee800","system_id":"levelo_inurba_marseille","lat":43.33603,"lon":5.41032,"is_reserved":false,"is_disabled":false,"rental_uris":{"android":"levelo://app?vid=f9f5725b-4420-4974-8696-29f60feee800","ios":"levelo://app?vid=f9f5725b-4420-4974-8696-29f60feee800"},"vehicle_type_id":"4","last_reported":1761858539,"current_range_meters":16400,"station_id":"ce4bhqh2rcd13ifvqhmg","pricing_plan_id":"cebpf4jnsgd1na2vs0mg"},{"bike_id":"80c53fab-d9fd-4b9a-94e7-e3f3183e35da","system_id":"levelo_inurba_marseille","lat":43.33055,"lon":5.39013,"is_reserved":false,"is_disabled":false,"rental_uris":{"android":"levelo://app?vid=80c53fab-d9fd-4b9a-94e7-e3f3183e35da","ios":"levelo://app?vid=80c53fab-d9fd-4b9a-94e7-e3f3183e35da"},"vehicle_type_id":"4","last_reported":1761858539,"current_range_meters":16400,"station_id":"ce4bhr92rcd13ifvqhrg","pricing_plan_id":"cebpf4jnsgd1na2vs0mg"},{"bike_id":"2662fe9b-aa47-4e6a-8505-64d896678582","system_id":"levelo_inurba_marseille","lat":43.2257,"lon":5.41631,"is_reserved":false,"is_disabled":false,"rental_uris":{"android":"levelo://app?vid=2662fe9b-aa47-4e6a-8505-64d896678582","ios":"levelo://app?vid=2662fe9b-aa47-4e6a-8505-64d896678582"},"vehicle_type_id":"4","last_reported":1761858539,"current_range_meters":16400,"station_id":"st_d2o4gvlbi1j2169b742g","pricing_plan_id":"cebpf4jnsgd1na2vs0mg"},{"bike_id":"16d5deda-518a-459f-8aa7-b3d4bbf1e97f","system_id":"levelo_inurba_marseille","lat":43.27979,"lon":5.38724,"is_reserved":false,"is_disabled":false,"rental_uris":{"android":"levelo://app?vid=16d5deda-518a-459f-8aa7-b3d4bbf1e97f","ios":"levelo://app?vid=16d5deda-518a-459f-8aa7-b3d4bbf1e97f"},"vehicle_type_id":"4","last_reported":1761858539,"current_range_meters":16400,"station_id":"ce4bhg12rcd13ifvqf80","pricing_plan_id":"cebpf4jnsgd1na2vs0mg"},{"bike_id":"7afafebc-9388-4b96-826a-eb1746b15f9a","system_id":"levelo_inurba_marseille","lat":43.27079,"lon":5.42289,"is_reserved":false,"is_disabled":false,"rental_uris":{"android":"levelo://app?vid=7afafebc-9388-4b96-826a-eb1746b15f9a","ios":"levelo://app?vid=7afafebc-9388-4b96-826a-eb1746b15f9a"},"vehicle_type_id":"4","last_reported":1761858539,"current_range_meters":16400,"station_id":"ce4bhk92rcd13ifvqgb0","pricing_plan_id":"cebpf4jnsgd1na2vs0mg"},{"bike_id":"b8949af8-daac-4c6b-8399-c444bc7f3a49","system_id":"levelo_inurba_marseille","lat":43.29548,"lon":5.38543,"is_reserved":false,"is_disabled":false,"rental_uris":{"android":"levelo://app?vid=b8949af8-daac-4c6b-8399-c444bc7f3a49","ios":"levelo://app?vid=b8949af8-daac-4c6b-8399-c444bc7f3a49"},"vehicle_type_id":"4","last_reported":1761858539,"current_range_meters":16400,"station_id":"ce4bgih2rcd13ifvqba0","pricing_plan_id":"cebpf4jnsgd1na2vs0mg"},{"bike_id":"8a0ff850-cf9f-4e75-bc3f-994489f28f31","system_id":"levelo_inurba_marseille","lat":43.22563,"lon":5.41623,"is_reserved":false,"is_disabled":false,"rental_uris":{"android":"levelo://app?vid=8a0ff850-cf9f-4e75-bc3f-994489f28f31","ios":"levelo://app?vid=8a0ff850-cf9f-4e75-bc3f-994489f28f31"},"vehicle_type_id":"4","last_reported":1761858539,"current_range_meters":16400,"station_id":"st_d2o4gvlbi1j2169b742g","pricing_plan_id":"cebpf4jnsgd1na2vs0mg"},{"bike_id":"05a47c24-c74d-4482-aade-5974399cb310","system_id":"levelo_inurba_marseille","lat":43.29606,"lon":5.37672,"is_reserved":false,"is_disabled":false,"rental_uris":{"android":"levelo://app?vid=05a47c24-c74d-4482-aade-5974399cb310","ios":"levelo://app?vid=05a47c24-c74d-4482-aade-5974399cb310"},"vehicle_type_id":"4","last_reported":1761858539,"current_range_meters":16400,"station_id":"ce4bgi92rcd13ifvqb90","pricing_plan_id":"cebpf4jnsgd1na2vs0mg"},{"bike_id":"46835159-5dd5-4fc9-a732-591f6a5307e4","system_id":"levelo_inurba_marseille","lat":43.31351,"lon":5.37912,"is_reserved":false,"is_disabled":false,"rental_uris":{"android":"levelo://app?vid=46835159-5dd5-4fc9-a732-591f6a5307e4","ios":"levelo://app?vid=46835159-5dd5-4fc9-a732-591f6a5307e4"},"vehicle_type_id":"4","last_reported":1761858539,"current_range_meters":16400,"station_id":"","pricing_plan_id":"cebpf4jnsgd1na2vs0mg"},{"bike_id":"b8f404d3-62c4-4489-a471-d37212346558","system_id":"levelo_inurba_marseille","lat":43.31073,"lon":5.37847,"is_reserved":false,"is_disabled":false,"rental_uris":{"android":"levelo://app?vid=b8f404d3-62c4-4489-a471-d37212346558","ios":"levelo://app?vid=b8f404d3-62c4-4489-a471-d37212346558"},"vehicle_type_id":"4","last_reported":1761858539,"current_range_meters":16400,"station_id":"","pricing_plan_id":"cebpf4jnsgd1na2vs0mg"},{"bike_id":"1bf385b8-e0d3-4a4f-8cff-222858f5bce0","system_id":"levelo_inurba_marseille","lat":43.28616,"lon":5.35103,"is_reserved":false,"is_disabled":false,"rental_uris":{"android":"levelo://app?vid=1bf385b8-e0d3-4a4f-8cff-222858f5bce0","ios":"levelo://app?vid=1bf385b8-e0d3-4a4f-8cff-222858f5bce0"},"vehicle_type_id":"4","last_reported":1761858539,"current_range_meters":16400,"station_id":"ce4bhch2rcd13ifvqeug","pricing_plan_id":"cebpf4jnsgd1na2vs0mg"},{"bike_id":"0ddd52f3-af9c-49de-9bf2-944301dde1b1","system_id":"levelo_inurba_marseille","lat":43.27812,"lon":5.40715,"is_reserved":false,"is_disabled":false,"rental_uris":{"android":"levelo://app?vid=0ddd52f3-af9c-49de-9bf2-944301dde1b1","ios":"levelo://app?vid=0ddd52f3-af9c-49de-9bf2-944301dde1b1"},"vehicle_type_id":"4","last_reported":1761858539,"current_range_meters":16800,"station_id":"ce4bhnh2rcd13ifvqgtg","pricing_plan_id":"cebpf4jnsgd1na2vs0mg"},{"bike_id":"a4dac4fa-66e6-48be-a654-6e17cdc7ca0b","system_id":"levelo_inurba_marseille","lat":43.337571,"lon":5.374323,"is_reserved":false,"is_disabled":false,"rental_uris":{"android":"levelo://app?vid=a4dac4fa-66e6-48be-a654-6e17cdc7ca0b","ios":"levelo://app?vid=a4dac4fa-66e6-48be-a654-6e17cdc7ca0b"},"vehicle_type_id":"4","last_reported":1761858539,"current_range_meters":16800,"station_id":"","pricing_plan_id":"cebpf4jnsgd1na2vs0mg"},{"bike_id":"609eccca-b55b-4605-87cd-a8fbec0dfdd6","system_id":"levelo_inurba_marseille","lat":43.29623,"lon":5.40623,"is_reserved":false,"is_disabled":false,"rental_uris":{"android":"levelo://app?vid=609eccca-b55b-4605-87cd-a8fbec0dfdd6","ios":"levelo://app?vid=609eccca-b55b-4605-87cd-a8fbec0dfdd6"},"vehicle_type_id":"4","last_reported":1761858539,"current_range_meters":16800,"station_id":"ce4bh0h2rcd13ifvqd60","pricing_plan_id":"cebpf4jnsgd1na2vs0mg"},{"bike_id":"3cd077a9-68dc-4665-bace-fa4a9bd8e7a3","system_id":"levelo_inurba_marseille","lat":43.29529,"lon":5.38551,"is_reserved":false,"is_disabled":false,"rental_uris":{"android":"levelo://app?vid=3cd077a9-68dc-4665-bace-fa4a9bd8e7a3","ios":"levelo://app?vid=3cd077a9-68dc-4665-bace-fa4a9bd8e7a3"},"vehicle_type_id":"4","last_reported":1761858539,"current_range_meters":16800,"station_id":"ce4bgih2rcd13ifvqba0","pricing_plan_id":"cebpf4jnsgd1na2vs0mg"},{"bike_id":"97de3ff7-29a1-4511-a421-964bd84301e3","system_id":"levelo_inurba_marseille","lat":43.29612,"lon":5.38098,"is_reserved":false,"is_disabled":false,"rental_uris":{"android":"levelo://app?vid=97de3ff7-29a1-4511-a421-964bd84301e3","ios":"levelo://app?vid=97de3ff7-29a1-4511-a421-964bd84301e3"},"vehicle_type_id":"4","last_reported":1761858539,"current_range_meters":16800,"station_id":"ce4bgl12rcd13ifvqbo0","pricing_plan_id":"cebpf4jnsgd1na2vs0mg"},{"bike_id":"4e9d6698-915b-4c8e-ae83-e06a7f2cbd1f","system_id":"levelo_inurba_marseille","lat":43.295303,"lon":5.385406,"is_reserved":false,"is_disabled":false,"rental_uris":{"android":"levelo://app?vid=4e9d6698-915b-4c8e-ae83-e06a7f2cbd1f","ios":"levelo://app?vid=4e9d6698-915b-4c8e-ae83-e06a7f2cbd1f"},"vehicle_type_id":"4","last_reported":1761858539,"current_range_meters":16800,"station_id":"ce4bgih2rcd13ifvqba0","pricing_plan_id":"cebpf4jnsgd1na2vs0mg"},{"bike_id":"30529403-b334-4b55-8e18-673020eb58a2","system_id":"levelo_inurba_marseille","lat":43.29543,"lon":5.38545,"is_reserved":false,"is_disabled":false,"rental_uris":{"android":"levelo://app?vid=30529403-b334-4b55-8e18-673020eb58a2","ios":"levelo://app?vid=30529403-b334-4b55-8e18-673020eb58a2"},"vehicle_type_id":"4","last_reported":1761858539,"current_range_meters":16800,"station_id":"ce4bgih2rcd13ifvqba0","pricing_plan_id":"cebpf4jnsgd1na2vs0mg"},{"bike_id":"79ab418a-79c0-4a6e-993b-761280f132d6","system_id":"levelo_inurba_marseille","lat":43.28478,"lon":5.48403,"is_reserved":false,"is_disabled":false,"rental_uris":{"android":"levelo://app?vid=79ab418a-79c0-4a6e-993b-761280f132d6","ios":"levelo://app?vid=79ab418a-79c0-4a6e-993b-761280f132d6"},"vehicle_type_id":"4","last_reported":1761858539,"current_range_meters":16800,"station_id":"st_d3svhcjqgbts73a3dn0g","pricing_plan_id":"cebpf4jnsgd1na2vs0mg"},{"bike_id":"4a269658-efc3-43fb-9a59-9805d56ddae4","system_id":"levelo_inurba_marseille","lat":43.26558,"lon":5.37287,"is_reserved":false,"is_disabled":false,"rental_uris":{"android":"levelo://app?vid=4a269658-efc3-43fb-9a59-9805d56ddae4","ios":"levelo://app?vid=4a269658-efc3-43fb-9a59-9805d56ddae4"},"vehicle_type_id":"4","last_reported":1761858539,"current_range_meters":16800,"station_id":"ce4bhg12rcd13ifvqf70","pricing_plan_id":"cebpf4jnsgd1na2vs0mg"},{"bike_id":"25bce847-70d7-47ed-9f63-47199f0e38e5","system_id":"levelo_inurba_marseille","lat":43.29542,"lon":5.38525,"is_reserved":false,"is_disabled":false,"rental_uris":{"android":"levelo://app?vid=25bce847-70d7-47ed-9f63-47199f0e38e5","ios":"levelo://app?vid=25bce847-70d7-47ed-9f63-47199f0e38e5"},"vehicle_type_id":"4","last_reported":1761858539,"current_range_meters":16800,"station_id":"ce4bgih2rcd13ifvqba0","pricing_plan_id":"cebpf4jnsgd1na2vs0mg"},{"bike_id":"c3592447-81d4-4170-84bd-36707c30d6c4","system_id":"levelo_inurba_marseille","lat":43.292587,"lon":5.384362,"is_reserved":false,"is_disabled":false,"rental_uris":{"android":"levelo://app?vid=c3592447-81d4-4170-84bd-36707c30d6c4","ios":"levelo://app?vid=c3592447-81d4-4170-84bd-36707c30d6c4"},"vehicle_type_id":"4","last_reported":1761858539,"current_range_meters":16800,"station_id":"","pricing_plan_id":"cebpf4jnsgd1na2vs0mg"},{"bike_id":"972d43e4-dc42-4408-8631-0a670360f625","system_id":"levelo_inurba_marseille","lat":43.26487,"lon":5.3955,"is_reserved":false,"is_disabled":false,"rental_uris":{"android":"levelo://app?vid=972d43e4-dc42-4408-8631-0a670360f625","ios":"levelo://app?vid=972d43e4-dc42-4408-8631-0a670360f625"},"vehicle_type_id":"4","last_reported":1761858539,"current_range_meters":17200,"station_id":"ce4bhi12rcd13ifvqfq0","pricing_plan_id":"cebpf4jnsgd1na2vs0mg"},{"bike_id":"9da932a5-8f71-41d5-90d3-bb657dc1c603","system_id":"levelo_inurba_marseille","lat":43.276635,"lon":5.388816,"is_reserved":false,"is_disabled":false,"rental_uris":{"android":"levelo://app?vid=9da932a5-8f71-41d5-90d3-bb657dc1c603","ios":"levelo://app?vid=9da932a5-8f71-41d5-90d3-bb657dc1c603"},"vehicle_type_id":"4","last_reported":1761858539,"current_range_meters":17200,"station_id":"ce4bhi12rcd13ifvqfo0","pricing_plan_id":"cebpf4jnsgd1na2vs0mg"},{"bike_id":"ee261a32-9de1-4b9e-a923-6c91e1e26176","system_id":"levelo_inurba_marseille","lat":43.2848,"lon":5.48377,"is_reserved":false,"is_disabled":false,"rental_uris":{"android":"levelo://app?vid=ee261a32-9de1-4b9e-a923-6c91e1e26176","ios":"levelo://app?vid=ee261a32-9de1-4b9e-a923-6c91e1e26176"},"vehicle_type_id":"4","last_reported":1761858539,"current_range_meters":17200,"station_id":"st_d3svhcjqgbts73a3dn0g","pricing_plan_id":"cebpf4jnsgd1na2vs0mg"},{"bike_id":"3ca52d28-0253-4183-be5a-7286cd190908","system_id":"levelo_inurba_marseille","lat":43.2794,"lon":5.41043,"is_reserved":false,"is_disabled":false,"rental_uris":{"android":"levelo://app?vid=3ca52d28-0253-4183-be5a-7286cd190908","ios":"levelo://app?vid=3ca52d28-0253-4183-be5a-7286cd190908"},"vehicle_type_id":"4","last_reported":1761858539,"current_range_meters":17200,"station_id":"ce4bhnp2rcd13ifvqh0g","pricing_plan_id":"cebpf4jnsgd1na2vs0mg"},{"bike_id":"131eea03-3eab-4e38-9f54-24cde024a2f4","system_id":"levelo_inurba_marseille","lat":43.29263,"lon":5.38443,"is_reserved":false,"is_disabled":false,"rental_uris":{"android":"levelo://app?vid=131eea03-3eab-4e38-9f54-24cde024a2f4","ios":"levelo://app?vid=131eea03-3eab-4e38-9f54-24cde024a2f4"},"vehicle_type_id":"4","last_reported":1761858539,"current_range_meters":17600,"station_id":"ce4bh692rcd13ifvqea0","pricing_plan_id":"cebpf4jnsgd1na2vs0mg"},{"bike_id":"709dc3cb-272e-4021-beff-59c84c7800d8","system_id":"levelo_inurba_marseille","lat":43.246488,"lon":5.388925,"is_reserved":false,"is_disabled":false,"rental_uris":{"android":"levelo://app?vid=709dc3cb-272e-4021-beff-59c84c7800d8","ios":"levelo://app?vid=709dc3cb-272e-4021-beff-59c84c7800d8"},"vehicle_type_id":"4","last_reported":1761858539,"current_range_meters":17600,"station_id":"ce4bhg12rcd13ifvqf60","pricing_plan_id":"cebpf4jnsgd1na2vs0mg"},{"bike_id":"01716a2e-d99d-4c1c-9d38-f787d51b810f","system_id":"levelo_inurba_marseille","lat":43.29528,"lon":5.38546,"is_reserved":false,"is_disabled":false,"rental_uris":{"android":"levelo://app?vid=01716a2e-d99d-4c1c-9d38-f787d51b810f","ios":"levelo://app?vid=01716a2e-d99d-4c1c-9d38-f787d51b810f"},"vehicle_type_id":"4","last_reported":1761858539,"current_range_meters":17600,"station_id":"ce4bgih2rcd13ifvqba0","pricing_plan_id":"cebpf4jnsgd1na2vs0mg"},{"bike_id":"934844ce-f9f7-43b6-88f9-7e0477385f1f","system_id":"levelo_inurba_marseille","lat":43.29568,"lon":5.39982,"is_reserved":false,"is_disabled":false,"rental_uris":{"android":"levelo://app?vid=934844ce-f9f7-43b6-88f9-7e0477385f1f","ios":"levelo://app?vid=934844ce-f9f7-43b6-88f9-7e0477385f1f"},"vehicle_type_id":"4","last_reported":1761858539,"current_range_meters":17600,"station_id":"ce4bh312rcd13ifvqdj0","pricing_plan_id":"cebpf4jnsgd1na2vs0mg"},{"bike_id":"0a9abdf5-79f0-47db-9743-c4be71bd0ac0","system_id":"levelo_inurba_marseille","lat":43.301256,"lon":5.431213,"is_reserved":false,"is_disabled":false,"rental_uris":{"android":"levelo://app?vid=0a9abdf5-79f0-47db-9743-c4be71bd0ac0","ios":"levelo://app?vid=0a9abdf5-79f0-47db-9743-c4be71bd0ac0"},"vehicle_type_id":"4","last_reported":1761858539,"current_range_meters":17600,"station_id":"st_d3js3co5814s73ftftug","pricing_plan_id":"cebpf4jnsgd1na2vs0mg"},{"bike_id":"784e26e6-244f-4434-9266-9b741a39c3d7","system_id":"levelo_inurba_marseille","lat":43.270721,"lon":5.42285,"is_reserved":false,"is_disabled":false,"rental_uris":{"android":"levelo://app?vid=784e26e6-244f-4434-9266-9b741a39c3d7","ios":"levelo://app?vid=784e26e6-244f-4434-9266-9b741a39c3d7"},"vehicle_type_id":"4","last_reported":1761858539,"current_range_meters":17600,"station_id":"ce4bhk92rcd13ifvqgb0","pricing_plan_id":"cebpf4jnsgd1na2vs0mg"},{"bike_id":"9ea42203-6465-46a1-88d2-b1576b863797","system_id":"levelo_inurba_marseille","lat":43.29532,"lon":5.3904,"is_reserved":false,"is_disabled":false,"rental_uris":{"android":"levelo://app?vid=9ea42203-6465-46a1-88d2-b1576b863797","ios":"levelo://app?vid=9ea42203-6465-46a1-88d2-b1576b863797"},"vehicle_type_id":"4","last_reported":1761858539,"current_range_meters":17600,"station_id":"ce4bh3p2rcd13ifvqdp0","pricing_plan_id":"cebpf4jnsgd1na2vs0mg"},{"bike_id":"3b8d8128-20c3-4189-8013-ffc8bbfec252","system_id":"levelo_inurba_marseille","lat":43.28614,"lon":5.35102,"is_reserved":false,"is_disabled":false,"rental_uris":{"android":"levelo://app?vid=3b8d8128-20c3-4189-8013-ffc8bbfec252","ios":"levelo://app?vid=3b8d8128-20c3-4189-8013-ffc8bbfec252"},"vehicle_type_id":"4","last_reported":1761858539,"current_range_meters":17600,"station_id":"ce4bhch2rcd13ifvqeug","pricing_plan_id":"cebpf4jnsgd1na2vs0mg"},{"bike_id":"ad554042-17be-4e7a-abcb-5142fefcc30a","system_id":"levelo_inurba_marseille","lat":43.33766,"lon":5.37469,"is_reserved":false,"is_disabled":true,"rental_uris":{"android":"levelo://app?vid=ad554042-17be-4e7a-abcb-5142fefcc30a","ios":"levelo://app?vid=ad554042-17be-4e7a-abcb-5142fefcc30a"},"vehicle_type_id":"4","last_reported":1761858539,"current_range_meters":17600,"station_id":"","pricing_plan_id":"cebpf4jnsgd1na2vs0mg"},{"bike_id":"4ac96a18-9854-4e0f-bfab-e06a4f1f989c","system_id":"levelo_inurba_marseille","lat":43.27676,"lon":5.38873,"is_reserved":false,"is_disabled":false,"rental_uris":{"android":"levelo://app?vid=4ac96a18-9854-4e0f-bfab-e06a4f1f989c","ios":"levelo://app?vid=4ac96a18-9854-4e0f-bfab-e06a4f1f989c"},"vehicle_type_id":"4","last_reported":1761858539,"current_range_meters":17600,"station_id":"ce4bhi12rcd13ifvqfo0","pricing_plan_id":"cebpf4jnsgd1na2vs0mg"},{"bike_id":"14bf380a-0a43-4ae3-aac3-e33047dea600","system_id":"levelo_inurba_marseille","lat":43.29264,"lon":5.36835,"is_reserved":false,"is_disabled":true,"rental_uris":{"android":"levelo://app?vid=14bf380a-0a43-4ae3-aac3-e33047dea600","ios":"levelo://app?vid=14bf380a-0a43-4ae3-aac3-e33047dea600"},"vehicle_type_id":"4","last_reported":1761858539,"current_range_meters":17600,"station_id":"ce4bhbp2rcd13ifvqesg","pricing_plan_id":"cebpf4jnsgd1na2vs0mg"},{"bike_id":"257552bd-2242-4b23-af35-1a3c26de3426","system_id":"levelo_inurba_marseille","lat":43.29262,"lon":5.38448,"is_reserved":false,"is_disabled":false,"rental_uris":{"android":"levelo://app?vid=257552bd-2242-4b23-af35-1a3c26de3426","ios":"levelo://app?vid=257552bd-2242-4b23-af35-1a3c26de3426"},"vehicle_type_id":"4","last_reported":1761858539,"current_range_meters":18000,"station_id":"ce4bh692rcd13ifvqea0","pricing_plan_id":"cebpf4jnsgd1na2vs0mg"},{"bike_id":"1d367e7b-e97f-4d16-ac93-6dc5e3df7217","system_id":"levelo_inurba_marseille","lat":43.28462,"lon":5.35893,"is_reserved":false,"is_disabled":false,"rental_uris":{"android":"levelo://app?vid=1d367e7b-e97f-4d16-ac93-6dc5e3df7217","ios":"levelo://app?vid=1d367e7b-e97f-4d16-ac93-6dc5e3df7217"},"vehicle_type_id":"4","last_reported":1761858539,"current_range_meters":18000,"station_id":"ce4bhah2rcd13ifvqei0","pricing_plan_id":"cebpf4jnsgd1na2vs0mg"},{"bike_id":"e7ead618-cc2b-4c53-bc61-330caff21889","system_id":"levelo_inurba_marseille","lat":43.25338,"lon":5.42177,"is_reserved":false,"is_disabled":false,"rental_uris":{"android":"levelo://app?vid=e7ead618-cc2b-4c53-bc61-330caff21889","ios":"levelo://app?vid=e7ead618-cc2b-4c53-bc61-330caff21889"},"vehicle_type_id":"4","last_reported":1761858539,"current_range_meters":18000,"station_id":"st_d2m65c5bi1j21697t3ng","pricing_plan_id":"cebpf4jnsgd1na2vs0mg"},{"bike_id":"cb66d42e-d7e3-48f0-84da-e4f8aec5506c","system_id":"levelo_inurba_marseille","lat":43.3091,"lon":5.36829,"is_reserved":false,"is_disabled":false,"rental_uris":{"android":"levelo://app?vid=cb66d42e-d7e3-48f0-84da-e4f8aec5506c","ios":"levelo://app?vid=cb66d42e-d7e3-48f0-84da-e4f8aec5506c"},"vehicle_type_id":"4","last_reported":1761858539,"current_range_meters":18000,"station_id":"ce4bgn92rcd13ifvqbvg","pricing_plan_id":"cebpf4jnsgd1na2vs0mg"},{"bike_id":"9c949a45-353c-4fea-a7b1-2aa63358177a","system_id":"levelo_inurba_marseille","lat":43.31085,"lon":5.38352,"is_reserved":false,"is_disabled":false,"rental_uris":{"android":"levelo://app?vid=9c949a45-353c-4fea-a7b1-2aa63358177a","ios":"levelo://app?vid=9c949a45-353c-4fea-a7b1-2aa63358177a"},"vehicle_type_id":"4","last_reported":1761858539,"current_range_meters":18000,"station_id":"ce4bgv92rcd13ifvqcr0","pricing_plan_id":"cebpf4jnsgd1na2vs0mg"},