{"last_updated":1684875924,"ttl":30,"version":"2.2","data":{"bikes":[{"bike_id":"51d799d3-359d-446e-bbbe-e29c92e6ef68","system_id":"levelo_inurba_marseille","lat":43.312239,"lon":5.368562,"is_reserved":false,"is_disabled":false,"rental_uris":{"android":"levelo://app?vid=51d799d3-359d-446e-bbbe-e29c92e6ef68","ios":"levelo://app?vid=51d799d3-359d-446e-bbbe-e29c92e6ef68"},"vehicle_type_id":"4","last_reported":1684875925,"current_range_meters":30000,"station_id":"ce4bgl92rcd13ifvqbq0","pricing_plan_id":"free"},{"bike_id":"a9051c4c-5466-452f-b57d-88d35b3823e7","system_id":"levelo_inurba_marseille","lat":43.312239,"lon":5.368562,"is_reserved":false,"is_disabled":false,"rental_uris":{"android":"levelo://app?vid=a9051c4c-5466-452f-b57d-88d35b3823e7","ios":"levelo://app?vid=a9051c4c-5466-452f-b57d-88d35b3823e7"},"vehicle_type_id":"4","last_reported":1684875925,"current_range_meters":0,"station_id":"ce4bgl92rcd13ifvqbq0","pricing_plan_id":"free"},{"bike_id":"41892a07-6a1f-4061-ab05-7c3547d27e02","system_id":"levelo_inurba_marseille","lat":43.312239,"lon":5.368562,"is_reserved":false,"is_disabled":false,"rental_uris":{"android":"levelo://app?vid=41892a07-6a1f-4061-ab05-7c3547d27e02","ios":"levelo://app?vid=41892a07-6a1f-4061-ab05-7c3547d27e02"},"vehicle_type_id":"4","last_reported":1684875925,"current_range_meters":31200,"station_id":"ce4bgl92rcd13ifvqbq0","pricing_plan_id":"free"},{"bike_id":"d6ced96e-b91b-4c22-a606-0e34bb2bf11f","system_id":"levelo_inurba_marseille","lat":43.309076,"lon":5.368465,"is_reserved":false,"is_disabled":false,"rental_uris":{"android":"levelo://app?vid=d6ced96e-b91b-4c22-a606-0e34bb2bf11f","ios":"levelo://app?vid=d6ced96e-b91b-4c22-a606-0e34bb2bf11f"},"vehicle_type_id":"4","last_reported":1684875925,"current_range_meters":6000,"station_id":"ce4bgn92rcd13ifvqbvg","pricing_plan_id":"free"},{"bike_id":"28e1cbd6-bec9-4b31-8a24-6e3285a6e05b","system_id":"levelo_inurba_marseille","lat":43.314811,"lon":5.373104,"is_reserved":false,"is_disabled":false,"rental_uris":{"android":"levelo://app?vid=28e1cbd6-bec9-4b31-8a24-6e3285a6e05b","ios":"levelo://app?vid=28e1cbd6-bec9-4b31-8a24-6e3285a6e05b"},"vehicle_type_id":"4","last_reported":1684875925,"current_range_meters":31600,"station_id":"ce4bgt12rcd13ifvqcd0","pricing_plan_id":"free"},{"bike_id":"42ab7e23-418b-4d29-a340-5115871b4e7c","system_id":"levelo_inurba_marseille","lat":43.31489,"lon":5.37317,"is_reserved":false,"is_disabled":false,"rental_uris":{"android":"levelo://app?vid=42ab7e23-418b-4d29-a340-5115871b4e7c","ios":"levelo://app?vid=42ab7e23-418b-4d29-a340-5115871b4e7c"},"vehicle_type_id":"4","last_reported":1684875925,"current_range_meters":10800,"station_id":"ce4bgt12rcd13ifvqcd0","pricing_plan_id":"free"},{"bike_id":"7ccc6a1f-df64-43ec-98f0-5d838069ecc9","system_id":"levelo_inurba_marseille","lat":43.308614,"lon":5.372098,"is_reserved":false,"is_disabled":false,"rental_uris":{"android":"levelo://app?vid=7ccc6a1f-df64-43ec-98f0-5d838069ecc9","ios":"levelo://app?vid=7ccc6a1f-df64-43ec-98f0-5d838069ecc9"},"vehicle_type_id":"4","last_reported":1684875925,"current_range_meters":18000,"station_id":"ce4bguh2rcd13ifvqckg","pricing_plan_id":"free"},{"bike_id":"7d1c63c6-2694-4de9-b813-bdd9259db552","system_id":"levelo_inurba_marseille","lat":43.308614,"lon":5.372098,"is_reserved":false,"is_disabled":false,"rental_uris":{"android":"levelo://app?vid=7d1c63c6-2694-4de9-b813-bdd9259db552","ios":"levelo://app?vid=7d1c63c6-2694-4de9-b813-bdd9259db552"},"vehicle_type_id":"4","last_reported":1684875925,"current_range_meters":14800,"station_id":"ce4bguh2rcd13ifvqckg","pricing_plan_id":"free"},{"bike_id":"91733e52-2da5-440a-b8c3-275cf67a5b98","system_id":"levelo_inurba_marseille","lat":43.317075,"lon":5.377367,"is_reserved":false,"is_disabled":false,"rental_uris":{"android":"levelo://app?vid=91733e52-2da5-440a-b8c3-275cf67a5b98","ios":"levelo://app?vid=91733e52-2da5-440a-b8c3-275cf67a5b98"},"vehicle_type_id":"4","last_reported":1684875925,"current_range_meters":24000,"station_id":"ce4bgth2rcd13ifvqch0","pricing_plan_id":"free"},{"bike_id":"e52fa197-a55c-42ad-80cd-d0868906299c","system_id":"levelo_inurba_marseille","lat":43.30546,"lon":5.367,"is_reserved":false,"is_disabled":false,"rental_uris":{"android":"levelo://app?vid=e52fa197-a55c-42ad-80cd-d0868906299c","ios":"levelo://app?vid=e52fa197-a55c-42ad-80cd-d0868906299c"},"vehicle_type_id":"4","last_reported":1684875925,"current_range_meters":0,"station_id":"","pricing_plan_id":"free"},{"bike_id":"bd01ab39-aa21-44de-bfc9-3675f265bee0","system_id":"levelo_inurba_marseille","lat":43.305706,"lon":5.365654,"is_reserved":false,"is_disabled":false,"rental_uris":{"android":"levelo://app?vid=bd01ab39-aa21-44de-bfc9-3675f265bee0","ios":"levelo://app?vid=bd01ab39-aa21-44de-bfc9-3675f265bee0"},"vehicle_type_id":"4","last_reported":1684875925,"current_range_meters":4000,"station_id":"ce4bgs12rcd13ifvqcag","pricing_plan_id":"free"},{"bike_id":"46dce8d7-b39e-48cb-95ff-7a1f71d441df","system_id":"levelo_inurba_marseille","lat":43.305989,"lon":5.37225,"is_reserved":false,"is_disabled":false,"rental_uris":{"android":"levelo://app?vid=46dce8d7-b39e-48cb-95ff-7a1f71d441df","ios":"levelo://app?vid=46dce8d7-b39e-48cb-95ff-7a1f71d441df"},"vehicle_type_id":"4","last_reported":1684875925,"current_range_meters":28000,"station_id":"ce4bgqh2rcd13ifvqc4g","pricing_plan_id":"free"},{"bike_id":"15efad96-7ebe-4f75-bb0b-eafcbde68ca8","system_id":"levelo_inurba_marseille","lat":43.305989,"lon":5.37225,"is_reserved":false,"is_disabled":false,"rental_uris":{"android":"levelo://app?vid=15efad96-7ebe-4f75-bb0b-eafcbde68ca8","ios":"levelo://app?vid=15efad96-7ebe-4f75-bb0b-eafcbde68ca8"},"vehicle_type_id":"4","last_reported":1684875925,"current_range_meters":22800,"station_id":"ce4bgqh2rcd13ifvqc4g","pricing_plan_id":"free"},{"bike_id":"8bf7e63b-d3ed-4408-b973-18f8f102c700","system_id":"levelo_inurba_marseille","lat":43.305989,"lon":5.37225,"is_reserved":false,"is_disabled":false,"rental_uris":{"android":"levelo://app?vid=8bf7e63b-d3ed-4408-b973-18f8f102c700","ios":"levelo://app?vid=8bf7e63b-d3ed-4408-b973-18f8f102c700"},"vehicle_type_id":"4","last_reported":1684875925,"current_range_meters":24400,"station_id":"ce4bgqh2rcd13ifvqc4g","pricing_plan_id":"free"},{"bike_id":"d33c259f-cf50-4bb6-84d1-8201883bfa4b","system_id":"levelo_inurba_marseille","lat":43.305989,"lon":5.37225,"is_reserved":false,"is_disabled":false,"rental_uris":{"android":"levelo://app?vid=d33c259f-cf50-4bb6-84d1-8201883bfa4b","ios":"levelo://app?vid=d33c259f-cf50-4bb6-84d1-8201883bfa4b"},"vehicle_type_id":"4","last_reported":1684875925,"current_range_meters":0,"station_id":"ce4bgqh2rcd13ifvqc4g","pricing_plan_id":"free"},{"bike_id":"cf181879-b182-4216-9335-90ca07f1917a","system_id":"levelo_inurba_marseille","lat":43.311131,"lon":5.377651,"is_reserved":false,"is_disabled":false,"rental_uris":{"android":"levelo://app?vid=cf181879-b182-4216-9335-90ca07f1917a","ios":"levelo://app?vid=cf181879-b182-4216-9335-90ca07f1917a"},"vehicle_type_id":"4","last_reported":1684875925,"current_range_meters":23200,"station_id":"ce4bgt92rcd13ifvqcg0","pricing_plan_id":"free"},{"bike_id":"725fdaf0-d18a-4817-82e7-216b57da6c3f","system_id":"levelo_inurba_marseille","lat":43.317075,"lon":5.377367,"is_reserved":false,"is_disabled":false,"rental_uris":{"android":"levelo://app?vid=725fdaf0-d18a-4817-82e7-216b57da6c3f","ios":"levelo://app?vid=725fdaf0-d18a-4817-82e7-216b57da6c3f"},"vehicle_type_id":"4","last_reported":1684875925,"current_range_meters":31200,"station_id":"ce4bgth2rcd13ifvqch0","pricing_plan_id":"free"},{"bike_id":"57506661-0062-43ad-af7f-a48e3c1a1f80","system_id":"levelo_inurba_marseille","lat":43.303046,"lon":5.368981,"is_reserved":false,"is_disabled":false,"rental_uris":{"android":"levelo://app?vid=57506661-0062-43ad-af7f-a48e3c1a1f80","ios":"levelo://app?vid=57506661-0062-43ad-af7f-a48e3c1a1f80"},"vehicle_type_id":"4","last_reported":1684875925,"current_range_meters":10400,"station_id":"ce4bgqh2rcd13ifvqc5g","pricing_plan_id":"free"},{"bike_id":"c9461532-81ed-4526-b6ba-b7bd13132531","system_id":"levelo_inurba_marseille","lat":43.315289,"lon":5.380349,"is_reserved":false,"is_disabled":false,"rental_uris":{"android":"levelo://app?vid=c9461532-81ed-4526-b6ba-b7bd13132531","ios":"levelo://app?vid=c9461532-81ed-4526-b6ba-b7bd13132531"},"vehicle_type_id":"4","last_reported":1684875925,"current_range_meters":15200,"station_id":"ce4bhsp2rcd13ifvqi50","pricing_plan_id":"free"},{"bike_id":"e4ddf4c1-6177-4538-8b58-75117487e999","system_id":"levelo_inurba_marseille","lat":43.315293,"lon":5.380349,"is_reserved":false,"is_disabled":false,"rental_uris":{"android":"levelo://app?vid=e4ddf4c1-6177-4538-8b58-75117487e999","ios":"levelo://app?vid=e4ddf4c1-6177-4538-8b58-75117487e999"},"vehicle_type_id":"4","last_reported":1684875925,"current_range_meters":28400,"station_id":"ce4bhsp2rcd13ifvqi50","pricing_plan_id":"free"},{"bike_id":"790119bb-79b7-4ba9-805d-a80ff92b80f0","system_id":"levelo_inurba_marseille","lat":43.315289,"lon":5.380349,"is_reserved":false,"is_disabled":false,"rental_uris":{"android":"levelo://app?vid=790119bb-79b7-4ba9-805d-a80ff92b80f0","ios":"levelo://app?vid=790119bb-79b7-4ba9-805d-a80ff92b80f0"},"vehicle_type_id":"4","last_reported":1684875925,"current_range_meters":5200,"station_id":"ce4bhsp2rcd13ifvqi50","pricing_plan_id":"free"},{"bike_id":"9bae9840-ed93-44fb-a5d4-fae1df29a1de","system_id":"levelo_inurba_marseille","lat":43.3104,"lon":5.38187,"is_reserved":false,"is_disabled":false,"rental_uris":{"android":"levelo://app?vid=9bae9840-ed93-44fb-a5d4-fae1df29a1de","ios":"levelo://app?vid=9bae9840-ed93-44fb-a5d4-fae1df29a1de"},"vehicle_type_id":"4","last_reported":1684875925,"current_range_meters":18400,"station_id":"","pricing_plan_id":"free"},{"bike_id":"fcd9d6f3-2b65-412d-ad9c-4b01602bdfd5","system_id":"levelo_inurba_marseille","lat":43.30811,"lon":5.38144,"is_reserved":false,"is_disabled":false,"rental_uris":{"android":"levelo://app?vid=fcd9d6f3-2b65-412d-ad9c-4b01602bdfd5","ios":"levelo://app?vid=fcd9d6f3-2b65-412d-ad9c-4b01602bdfd5"},"vehicle_type_id":"4","last_reported":1684875925,"current_range_meters":4400,"station_id":"ce4bgt12rcd13ifvqce0","pricing_plan_id":"free"},{"bike_id":"89616115-6d90-4012-82e6-692a9fa94bcc","system_id":"levelo_inurba_marseille","lat":43.30809,"lon":5.38155,"is_reserved":false,"is_disabled":false,"rental_uris":{"android":"levelo://app?vid=89616115-6d90-4012-82e6-692a9fa94bcc","ios":"levelo://app?vid=89616115-6d90-4012-82e6-692a9fa94bcc"},"vehicle_type_id":"4","last_reported":1684875925,"current_range_meters":12800,"station_id":"ce4bgt12rcd13ifvqce0","pricing_plan_id":"free"},{"bike_id":"85e77d78-f383-487f-b0f3-5afee28256a1","system_id":"levelo_inurba_marseille","lat":43.308012,"lon":5.381511,"is_reserved":false,"is_disabled":false,"rental_uris":{"android":"levelo://app?vid=85e77d78-f383-487f-b0f3-5afee28256a1","ios":"levelo://app?vid=85e77d78-f383-487f-b0f3-5afee28256a1"},"vehicle_type_id":"4","last_reported":1684875925,"current_range_meters":14800,"station_id":"ce4bgt12rcd13ifvqce0","pricing_plan_id":"free"},{"bike_id":"90f70f3b-89e9-4fd1-994d-4cbfce1ad61c","system_id":"levelo_inurba_marseille","lat":43.304606,"lon":5.379026,"is_reserved":false,"is_disabled":false,"rental_uris":{"android":"levelo://app?vid=90f70f3b-89e9-4fd1-994d-4cbfce1ad61c","ios":"levelo://app?vid=90f70f3b-89e9-4fd1-994d-4cbfce1ad61c"},"vehicle_type_id":"4","last_reported":1684875925,"current_range_meters":9600,"station_id":"ce4bgup2rcd13ifvqcn0","pricing_plan_id":"free"},{"bike_id":"ca9b85f9-975f-4ba1-947b-e01ce70b7186","system_id":"levelo_inurba_marseille","lat":43.304606,"lon":5.379026,"is_reserved":false,"is_disabled":false,"rental_uris":{"android":"levelo://app?vid=ca9b85f9-975f-4ba1-947b-e01ce70b7186","ios":"levelo://app?vid=ca9b85f9-975f-4ba1-947b-e01ce70b7186"},"vehicle_type_id":"4","last_reported":1684875925,"current_range_meters":12400,"station_id":"ce4bgup2rcd13ifvqcn0","pricing_plan_id":"free"},{"bike_id":"f224fe40-0925-4d92-8aed-62e4609cad15","system_id":"levelo_inurba_marseille","lat":43.304606,"lon":5.379026,"is_reserved":false,"is_disabled":false,"rental_uris":{"android":"levelo://app?vid=f224fe40-0925-4d92-8aed-62e4609cad15","ios":"levelo://app?vid=f224fe40-0925-4d92-8aed-62e4609cad15"},"vehicle_type_id":"4","last_reported":1684875925,"current_range_meters":8400,"station_id":"ce4bgup2rcd13ifvqcn0","pricing_plan_id":"free"},{"bike_id":"11526fb9-e742-43b2-b7bd-7c3ad2f2f42a","system_id":"levelo_inurba_marseille","lat":43.304606,"lon":5.379026,"is_reserved":false,"is_disabled":false,"rental_uris":{"android":"levelo://app?vid=11526fb9-e742-43b2-b7bd-7c3ad2f2f42a","ios":"levelo://app?vid=11526fb9-e742-43b2-b7bd-7c3ad2f2f42a"},"vehicle_type_id":"4","last_reported":1684875925,"current_range_meters":18800,"station_id":"ce4bgup2rcd13ifvqcn0","pricing_plan_id":"free"},{"bike_id":"e13f48db-f4f6-48c2-8df8-a752fcd43e65","system_id":"levelo_inurba_marseille","lat":43.319935,"lon":5.381699,"is_reserved":false,"is_disabled":false,"rental_uris":{"android":"levelo://app?vid=e13f48db-f4f6-48c2-8df8-a752fcd43e65","ios":"levelo://app?vid=e13f48db-f4f6-48c2-8df8-a752fcd43e65"},"vehicle_type_id":"4","last_reported":1684875925,"current_range_meters":11200,"station_id":"ce4bhr12rcd13ifvqhpg","pricing_plan_id":"free"},{"bike_id":"48670c4a-356f-4324-89be-9dcf58d3306a","system_id":"levelo_inurba_marseille","lat":43.31993,"lon":5.38162,"is_reserved":false,"is_disabled":false,"rental_uris":{"android":"levelo://app?vid=48670c4a-356f-4324-89be-9dcf58d3306a","ios":"levelo://app?vid=48670c4a-356f-4324-89be-9dcf58d3306a"},"vehicle_type_id":"4","last_reported":1684875925,"current_range_meters":17200,"station_id":"ce4bhr12rcd13ifvqhpg","pricing_plan_id":"free"},{"bike_id":"30a37701-e3b4-4434-93c2-13ebaedcd785","system_id":"levelo_inurba_marseille","lat":43.319935,"lon":5.381699,"is_reserved":false,"is_disabled":false,"rental_uris":{"android":"levelo://app?vid=30a37701-e3b4-4434-93c2-13ebaedcd785","ios":"levelo://app?vid=30a37701-e3b4-4434-93c2-13ebaedcd785"},"vehicle_type_id":"4","last_reported":1684875925,"current_range_meters":13200,"station_id":"ce4bhr12rcd13ifvqhpg","pricing_plan_id":"free"},{"bike_id":"4bdc3ba6-87ef-41d2-8f67-88669efaedb9","system_id":"levelo_inurba_marseille","lat":43.319935,"lon":5.381699,"is_reserved":false,"is_disabled":false,"rental_uris":{"android":"levelo://app?vid=4bdc3ba6-87ef-41d2-8f67-88669efaedb9","ios":"levelo://app?vid=4bdc3ba6-87ef-41d2-8f67-88669efaedb9"},"vehicle_type_id":"4","last_reported":1684875925,"current_range_meters":18800,"station_id":"ce4bhr12rcd13ifvqhpg","pricing_plan_id":"free"},{"bike_id":"dbfcb96a-7e19-49cf-a280-31141e1b1585","system_id":"levelo_inurba_marseille","lat":43.313571,"lon":5.384829,"is_reserved":false,"is_disabled":false,"rental_uris":{"android":"levelo://app?vid=dbfcb96a-7e19-49cf-a280-31141e1b1585","ios":"levelo://app?vid=dbfcb96a-7e19-49cf-a280-31141e1b1585"},"vehicle_type_id":"4","last_reported":1684875925,"current_range_meters":22000,"station_id":"ce4bgt92rcd13ifvqcf0","pricing_plan_id":"free"},{"bike_id":"a690fbb0-a61c-401c-9489-5da2f0b05254","system_id":"levelo_inurba_marseille","lat":43.313571,"lon":5.384829,"is_reserved":false,"is_disabled":false,"rental_uris":{"android":"levelo://app?vid=a690fbb0-a61c-401c-9489-5da2f0b05254","ios":"levelo://app?vid=a690fbb0-a61c-401c-9489-5da2f0b05254"},"vehicle_type_id":"4","last_reported":1684875925,"current_range_meters":20800,"station_id":"ce4bgt92rcd13ifvqcf0","pricing_plan_id":"free"},{"bike_id":"230b1831-d669-4c7b-86ec-946d59f20e2e","system_id":"levelo_inurba_marseille","lat":43.313571,"lon":5.384829,"is_reserved":false,"is_disabled":false,"rental_uris":{"android":"levelo://app?vid=230b1831-d669-4c7b-86ec-946d59f20e2e","ios":"levelo://app?vid=230b1831-d669-4c7b-86ec-946d59f20e2e"},"vehicle_type_id":"4","last_reported":1684875925,"current_range_meters":10000,"station_id":"ce4bgt92rcd13ifvqcf0","pricing_plan_id":"free"},{"bike_id":"d0695cbb-de3a-42ba-a878-ff6ab70822fc","system_id":"levelo_inurba_marseille","lat":43.313571,"lon":5.384829,"is_reserved":false,"is_disabled":false,"rental_uris":{"android":"levelo://app?vid=d0695cbb-de3a-42ba-a878-ff6ab70822fc","ios":"levelo://app?vid=d0695cbb-de3a-42ba-a878-ff6ab70822fc"},"vehicle_type_id":"4","last_reported":1684875925,"current_range_meters":15600,"station_id":"ce4bgt92rcd13ifvqcf0","pricing_plan_id":"free"},{"bike_id":"acf20d30-2c0c-4d96-bb32-3843daf91dd3","system_id":"levelo_inurba_marseille","lat":43.313571,"lon":5.384829,"is_reserved":false,"is_disabled":false,"rental_uris":{"android":"levelo://app?vid=acf20d30-2c0c-4d96-bb32-3843daf91dd3","ios":"levelo://app?vid=acf20d30-2c0c-4d96-bb32-3843daf91dd3"},"vehicle_type_id":"4","last_reported":1684875925,"current_range_meters":30000,"station_id":"ce4bgt92rcd13ifvqcf0","pricing_plan_id":"free"},{"bike_id":"e86d6283-8d92-4567-8c84-dd1b9f66f001","system_id":"levelo_inurba_marseille","lat":43.313571,"lon":5.384829,"is_reserved":false,"is_disabled":false,"rental_uris":{"android":"levelo://app?vid=e86d6283-8d92-4567-8c84-dd1b9f66f001","ios":"levelo://app?vid=e86d6283-8d92-4567-8c84-dd1b9f66f001"},"vehicle_type_id":"4","last_reported":1684875925,"current_range_meters":19600,"station_id":"ce4bgt92rcd13ifvqcf0","pricing_plan_id":"free"},{"bike_id":"e2b09657-3223-45c0-8972-f51487d9add9","system_id":"levelo_inurba_marseille","lat":43.313571,"lon":5.384829,"is_reserved":false,"is_disabled":false,"rental_uris":{"android":"levelo://app?vid=e2b09657-3223-45c0-8972-f51487d9add9","ios":"levelo://app?vid=e2b09657-3223-45c0-8972-f51487d9add9"},"vehicle_type_id":"4","last_reported":1684875925,"current_range_meters":29600,"station_id":"ce4bgt92rcd13ifvqcf0","pricing_plan_id":"free"},{"bike_id":"89aee25a-d04e-43dd-bf69-a808b7abe903","system_id":"levelo_inurba_marseille","lat":43.31369,"lon":5.38514,"is_reserved":false,"is_disabled":false,"rental_uris":{"android":"levelo://app?vid=89aee25a-d04e-43dd-bf69-a808b7abe903","ios":"levelo://app?vid=89aee25a-d04e-43dd-bf69-a808b7abe903"},"vehicle_type_id":"4","last_reported":1684875925,"current_range_meters":13600,"station_id":"ce4bgt92rcd13ifvqcf0","pricing_plan_id":"free"},{"bike_id":"fe04ed4f-5ba7-4b0d-b65d-34eb71cb6a48","system_id":"levelo_inurba_marseille","lat":43.299222,"lon":5.365554,"is_reserved":false,"is_disabled":false,"rental_uris":{"android":"levelo://app?vid=fe04ed4f-5ba7-4b0d-b65d-34eb71cb6a48","ios":"levelo://app?vid=fe04ed4f-5ba7-4b0d-b65d-34eb71cb6a48"},"vehicle_type_id":"4","last_reported":1684875925,"current_range_meters":1600,"station_id":"ce4bgm92rcd13ifvqbr0","pricing_plan_id":"free"},{"bike_id":"0d6d07bd-2695-47d6-8eb3-56880c9e42b0","system_id":"levelo_inurba_marseille","lat":43.311722,"lon":5.387247,"is_reserved":false,"is_disabled":false,"rental_uris":{"android":"levelo://app?vid=0d6d07bd-2695-47d6-8eb3-56880c9e42b0","ios":"levelo://app?vid=0d6d07bd-2695-47d6-8eb3-56880c9e42b0"},"vehicle_type_id":"4","last_reported":1684875925,"current_range_meters":31200,"station_id":"ce4bgv12rcd13ifvqcp0","pricing_plan_id":"free"},{"bike_id":"efae48bd-16f7-43b2-a04d-5b6164536a73","system_id":"levelo_inurba_marseille","lat":43.297794,"lon":5.370888,"is_reserved":false,"is_disabled":false,"rental_uris":{"android":"levelo://app?vid=efae48bd-16f7-43b2-a04d-5b6164536a73","ios":"levelo://app?vid=efae48bd-16f7-43b2-a04d-5b6164536a73"},"vehicle_type_id":"4","last_reported":1684875925,"current_range_meters":28800,"station_id":"ce4bgop2rcd13ifvqc1g","pricing_plan_id":"free"},{"bike_id":"bb2ddc77-29f6-4c3d-aea5-0e24e086521d","system_id":"levelo_inurba_marseille","lat":43.29874,"lon":5.37634,"is_reserved":false,"is_disabled":false,"rental_uris":{"android":"levelo://app?vid=bb2ddc77-29f6-4c3d-aea5-0e24e086521d","ios":"levelo://app?vid=bb2ddc77-29f6-4c3d-aea5-0e24e086521d"},"vehicle_type_id":"4","last_reported":1684875925,"current_range_meters":18400,"station_id":"","pricing_plan_id":"free"},{"bike_id":"32c89e69-6f19-4998-8bbc-7d007ad3cf66","system_id":"levelo_inurba_marseille","lat":43.29709,"lon":5.36609,"is_reserved":false,"is_disabled":false,"rental_uris":{"android":"levelo://app?vid=32c89e69-6f19-4998-8bbc-7d007ad3cf66","ios":"levelo://app?vid=32c89e69-6f19-4998-8bbc-7d007ad3cf66"},"vehicle_type_id":"4","last_reported":1684875925,"current_range_meters":0,"station_id":"","pricing_plan_id":"free"},{"bike_id":"0022c8e0-b57f-4a16-94cb-1fbd25366096","system_id":"levelo_inurba_marseille","lat":43.29621,"lon":5.37143,"is_reserved":false,"is_disabled":false,"rental_uris":{"android":"levelo://app?vid=0022c8e0-b57f-4a16-94cb-1fbd25366096","ios":"levelo://app?vid=0022c8e0-b57f-4a16-94cb-1fbd25366096"},"vehicle_type_id":"4","last_reported":1684875925,"current_range_meters":29600,"station_id":"ce4bgk12rcd13ifvqbj0","pricing_plan_id":"free"},{"bike_id":"cfd1ceb4-dd0f-43af-91c7-1ddf0bd707c8","system_id":"levelo_inurba_marseille","lat":43.29728,"lon":5.37682,"is_reserved":false,"is_disabled":false,"rental_uris":{"android":"levelo://app?vid=cfd1ceb4-dd0f-43af-91c7-1ddf0bd707c8","ios":"levelo://app?vid=cfd1ceb4-dd0f-43af-91c7-1ddf0bd707c8"},"vehicle_type_id":"4","last_reported":1684875925,"current_range_meters":3600,"station_id":"","pricing_plan_id":"free"},{"bike_id":"4dd12e1a-131c-4b48-865b-f24828c5e015","system_id":"levelo_inurba_marseille","lat":43.309589,"lon":5.390258,"is_reserved":false,"is_disabled":false,"rental_uris":{"android":"levelo://app?vid=4dd12e1a-131c-4b48-865b-f24828c5e015","ios":"levelo://app?vid=4dd12e1a-131c-4b48-865b-f24828c5e015"},"vehicle_type_id":"4","last_reported":1684875925,"current_range_meters":6400,"station_id":"ce4bgup2rcd13ifvqco0","pricing_plan_id":"free"},{"bike_id":"98483da9-efaf-4889-a5f9-ae6dd2559e2e","system_id":"levelo_inurba_marseille","lat":43.299028,"lon":5.381509,"is_reserved":false,"is_disabled":false,"rental_uris":{"android":"levelo://app?vid=98483da9-efaf-4889-a5f9-ae6dd2559e2e","ios":"levelo://app?vid=98483da9-efaf-4889-a5f9-ae6dd2559e2e"},"vehicle_type_id":"4","last_reported":1684875925,"current_range_meters":3200,"station_id":"ce4bgj12rcd13ifvqbc0","pricing_plan_id":"free"},{"bike_id":"57927a99-8484-4848-aa55-81084d7c1d22","system_id":"levelo_inurba_marseille","lat":43.309589,"lon":5.390258,"is_reserved":false,"is_disabled":false,"rental_uris":{"android":"levelo://app?vid=57927a99-8484-4848-aa55-81084d7c1d22","ios":"levelo://app?vid=57927a99-8484-4848-aa55-81084d7c1d22"},"vehicle_type_id":"4","last_reported":1684875925,"current_range_meters":13600,"station_id":"ce4bgup2rcd13ifvqco0","pricing_plan_id":"free"},{"bike_id":"31d7a31c-70d6-4984-be77-10b0816c2596","system_id":"levelo_inurba_marseille","lat":43.304278,"lon":5.388868,"is_reserved":false,"is_disabled":false,"rental_uris":{"android":"levelo://app?vid=31d7a31c-70d6-4984-be77-10b0816c2596","ios":"levelo://app?vid=31d7a31c-70d6-4984-be77-10b0816c2596"},"vehicle_type_id":"4","last_reported":1684875925,"current_range_meters":1200,"station_id":"ce4bgk12rcd13ifvqbi0","pricing_plan_id":"free"},{"bike_id":"4c0fe419-94b3-49ab-a3a9-ec34b486107d","system_id":"levelo_inurba_marseille","lat":43.29961,"lon":5.38502,"is_reserved":false,"is_disabled":false,"rental_uris":{"android":"levelo://app?vid=4c0fe419-94b3-49ab-a3a9-ec34b486107d","ios":"levelo://app?vid=4c0fe419-94b3-49ab-a3a9-ec34b486107d"},"vehicle_type_id":"4","last_reported":1684875925,"current_range_meters":0,"station_id":"ce4bgj92rcd13ifvqbd0","pricing_plan_id":"free"},{"bike_id":"b2239e09-41dc-4cde-9b2f-b27fe7d0a355","system_id":"levelo_inurba_marseille","lat":43.32367,"lon":5.388836,"is_reserved":false,"is_disabled":false,"rental_uris":{"android":"levelo://app?vid=b2239e09-41dc-4cde-9b2f-b27fe7d0a355","ios":"levelo://app?vid=b2239e09-41dc-4cde-9b2f-b27fe7d0a355"},"vehicle_type_id":"4","last_reported":1684875925,"current_range_meters":20000,"station_id":"ce4bhqp2rcd13ifvqhog","pricing_plan_id":"free"},{"bike_id":"6e929eea-ce83-4051-9199-c8d1e6f83d61","system_id":"levelo_inurba_marseille","lat":43.32367,"lon":5.38879,"is_reserved":false,"is_disabled":false,"rental_uris":{"android":"levelo://app?vid=6e929eea-ce83-4051-9199-c8d1e6f83d61","ios":"levelo://app?vid=6e929eea-ce83-4051-9199-c8d1e6f83d61"},"vehicle_type_id":"4","last_reported":1684875925,"current_range_meters":12400,"station_id":"ce4bhqp2rcd13ifvqhog","pricing_plan_id":"free"},{"bike_id":"fedfefbd-f4ac-4628-9143-199cd82a31c7","system_id":"levelo_inurba_marseille","lat":43.32367,"lon":5.388836,"is_reserved":false,"is_disabled":false,"rental_uris":{"android":"levelo://app?vid=fedfefbd-f4ac-4628-9143-199cd82a31c7","ios":"levelo://app?vid=fedfefbd-f4ac-4628-9143-199cd82a31c7"},"vehicle_type_id":"4","last_reported":1684875925,"current_range_meters":17600,"station_id":"ce4bhqp2rcd13ifvqhog","pricing_plan_id":"free"},{"bike_id":"278cf516-bd46-4a4e-b2c7-90ce64b42f33","system_id":"levelo_inurba_marseille","lat":43.32367,"lon":5.388836,"is_reserved":false,"is_disabled":false,"rental_uris":{"android":"levelo://app?vid=278cf516-bd46-4a4e-b2c7-90ce64b42f33","ios":"levelo://app?vid=278cf516-bd46-4a4e-b2c7-90ce64b42f33"},"vehicle_type_id":"4","last_reported":1684875925,"current_range_meters":15600,"station_id":"ce4bhqp2rcd13ifvqhog","pricing_plan_id":"free"},{"bike_id":"3f8c51b1-976c-4389-91e4-6aba882bdcd1","system_id":"levelo_inurba_marseille","lat":43.32361,"lon":5.38887,"is_reserved":false,"is_disabled":false,"rental_uris":{"android":"levelo://app?vid=3f8c51b1-976c-4389-91e4-6aba882bdcd1","ios":"levelo://app?vid=3f8c51b1-976c-4389-91e4-6aba882bdcd1"},"vehicle_type_id":"4","last_reported":1684875925,"current_range_meters":14000,"station_id":"ce4bhqp2rcd13ifvqhog","pricing_plan_id":"free"},{"bike_id":"f2371f63-e4eb-48fe-aaa9-64cb538c1f31","system_id":"levelo_inurba_marseille","lat":43.32365,"lon":5.38886,"is_reserved":false,"is_disabled":false,"rental_uris":{"android":"levelo://app?vid=f2371f63-e4eb-48fe-aaa9-64cb538c1f31","ios":"levelo://app?vid=f2371f63-e4eb-48fe-aaa9-64cb538c1f31"},"vehicle_type_id":"4","last_reported":1684875925,"current_range_meters":28800,"station_id":"ce4bhqp2rcd13ifvqhog","pricing_plan_id":"free"},{"bike_id":"01d401da-ad68-4b2e-a4ac-24f3f8771d91","system_id":"levelo_inurba_marseille","lat":43.32367,"lon":5.388836,"is_reserved":false,"is_disabled":false,"rental_uris":{"android":"levelo://app?vid=01d401da-ad68-4b2e-a4ac-24f3f8771d91","ios":"levelo://app?vid=01d401da-ad68-4b2e-a4ac-24f3f8771d91"},"vehicle_type_id":"4","last_reported":1684875925,"current_range_meters":25600,"station_id":"ce4bhqp2rcd13ifvqhog","pricing_plan_id":"free"},{"bike_id":"435efeae-a7e4-48dc-9ebe-ef72d32dbddd","system_id":"levelo_inurba_marseille","lat":43.32371,"lon":5.38886,"is_reserved":false,"is_disabled":false,"rental_uris":{"android":"levelo://app?vid=435efeae-a7e4-48dc-9ebe-ef72d32dbddd","ios":"levelo://app?vid=435efeae-a7e4-48dc-9ebe-ef72d32dbddd"},"vehicle_type_id":"4","last_reported":1684875925,"current_range_meters":21200,"station_id":"ce4bhqp2rcd13ifvqhog","pricing_plan_id":"free"},{"bike_id":"9631174c-1f9b-430c-97c8-767e40d5a032","system_id":"levelo_inurba_marseille","lat":43.29344,"lon":5.37144,"is_reserved":false,"is_disabled":false,"rental_uris":{"android":"levelo://app?vid=9631174c-1f9b-430c-97c8-767e40d5a032","ios":"levelo://app?vid=9631174c-1f9b-430c-97c8-767e40d5a032"},"vehicle_type_id":"4","last_reported":1684875925,"current_range_meters":26400,"station_id":"ce4bgh92rcd13ifvqb40","pricing_plan_id":"free"},{"bike_id":"458ce09d-1097-4b8f-9921-6c379682e07c","system_id":"levelo_inurba_marseille","lat":43.298764,"lon":5.388973,"is_reserved":false,"is_disabled":false,"rental_uris":{"android":"levelo://app?vid=458ce09d-1097-4b8f-9921-6c379682e07c","ios":"levelo://app?vid=458ce09d-1097-4b8f-9921-6c379682e07c"},"vehicle_type_id":"4","last_reported":1684875925,"current_range_meters":400,"station_id":"ce4bh392rcd13ifvqdl0","pricing_plan_id":"free"},{"bike_id":"62394694-ddbc-4f18-9567-458ae4c2b6fe","system_id":"levelo_inurba_marseille","lat":43.298764,"lon":5.388973,"is_reserved":false,"is_disabled":false,"rental_uris":{"android":"levelo://app?vid=62394694-ddbc-4f18-9567-458ae4c2b6fe","ios":"levelo://app?vid=62394694-ddbc-4f18-9567-458ae4c2b6fe"},"vehicle_type_id":"4","last_reported":1684875925,"current_range_meters":11600,"station_id":"ce4bh392rcd13ifvqdl0","pricing_plan_id":"free"},{"bike_id":"134a4e49-e335-4d14-a913-f45fe123c222","system_id":"levelo_inurba_marseille","lat":43.29872,"lon":5.38909,"is_reserved":false,"is_disabled":false,"rental_uris":{"android":"levelo://app?vid=134a4e49-e335-4d14-a913-f45fe123c222","ios":"levelo://app?vid=134a4e49-e335-4d14-a913-f45fe123c222"},"vehicle_type_id":"4","last_reported":1684875925,"current_range_meters":0,"station_id":"ce4bh392rcd13ifvqdl0","pricing_plan_id":"free"},{"bike_id":"44cb98f5-1dd5-4085-9d37-159ebf1bc69c","system_id":"levelo_inurba_marseille","lat":43.313291,"lon":5.396838,"is_reserved":false,"is_disabled":false,"rental_uris":{"android":"levelo://app?vid=44cb98f5-1dd5-4085-9d37-159ebf1bc69c","ios":"levelo://app?vid=44cb98f5-1dd5-4085-9d37-159ebf1bc69c"},"vehicle_type_id":"4","last_reported":1684875925,"current_range_meters":12800,"station_id":"ce4bgvp2rcd13ifvqcu0","pricing_plan_id":"free"},{"bike_id":"4a74cade-446d-4477-8c3b-839cd9ca8bff","system_id":"levelo_inurba_marseille","lat":43.313291,"lon":5.396838,"is_reserved":false,"is_disabled":false,"rental_uris":{"android":"levelo://app?vid=4a74cade-446d-4477-8c3b-839cd9ca8bff","ios":"levelo://app?vid=4a74cade-446d-4477-8c3b-839cd9ca8bff"},"vehicle_type_id":"4","last_reported":1684875925,"current_range_meters":2000,"station_id":"ce4bgvp2rcd13ifvqcu0","pricing_plan_id":"free"},{"bike_id":"8abb052a-54d7-406c-ab0f-a49d41527023","system_id":"levelo_inurba_marseille","lat":43.313291,"lon":5.396838,"is_reserved":false,"is_disabled":false,"rental_uris":{"android":"levelo://app?vid=8abb052a-54d7-406c-ab0f-a49d41527023","ios":"levelo://app?vid=8abb052a-54d7-406c-ab0f-a49d41527023"},"vehicle_type_id":"4","last_reported":1684875925,"current_range_meters":4000,"station_id":"ce4bgvp2rcd13ifvqcu0","pricing_plan_id":"free"},{"bike_id":"689d641b-e2d6-421d-a1a4-1aed3ab15277","system_id":"levelo_inurba_marseille","lat":43.313291,"lon":5.396838,"is_reserved":false,"is_disabled":false,"rental_uris":{"android":"levelo://app?vid=689d641b-e2d6-421d-a1a4-1aed3ab15277","ios":"levelo://app?vid=689d641b-e2d6-421d-a1a4-1aed3ab15277"},"vehicle_type_id":"4","last_reported":1684875925,"current_range_meters":14000,"station_id":"ce4bgvp2rcd13ifvqcu0","pricing_plan_id":"free"},{"bike_id":"3e7c7ecc-c6fa-450b-90f1-23fcfce19293","system_id":"levelo_inurba_marseille","lat":43.31333,"lon":5.39693,"is_reserved":false,"is_disabled":false,"rental_uris":{"android":"levelo://app?vid=3e7c7ecc-c6fa-450b-90f1-23fcfce19293","ios":"levelo://app?vid=3e7c7ecc-c6fa-450b-90f1-23fcfce19293"},"vehicle_type_id":"4","last_reported":1684875925,"current_range_meters":800,"station_id":"ce4bgvp2rcd13ifvqcu0","pricing_plan_id":"free"},{"bike_id":"2c665ebf-313d-4e9d-b836-a6b59fda5c98","system_id":"levelo_inurba_marseille","lat":43.313291,"lon":5.396838,"is_reserved":false,"is_disabled":false,"rental_uris":{"android":"levelo://app?vid=2c665ebf-313d-4e9d-b836-a6b59fda5c98","ios":"levelo://app?vid=2c665ebf-313d-4e9d-b836-a6b59fda5c98"},"vehicle_type_id":"4","last_reported":1684875925,"current_range_meters":1600,"station_id":"ce4bgvp2rcd13ifvqcu0","pricing_plan_id":"free"},{"bike_id":"dc23d398-a0e1-4c1e-b3e2-79924dcb61c1","system_id":"levelo_inurba_marseille","lat":43.313291,"lon":5.396838,"is_reserved":false,"is_disabled":false,"rental_uris":{"android":"levelo://app?vid=dc23d398-a0e1-4c1e-b3e2-79924dcb61c1","ios":"levelo://app?vid=dc23d398-a0e1-4c1e-b3e2-79924dcb61c1"},"vehicle_type_id":"4","last_reported":1684875925,"current_range_meters":4000,"station_id":"ce4bgvp2rcd13ifvqcu0","pricing_plan_id":"free"},{"bike_id":"4c1e3b57-92b1-4105-b6ab-3cfb2eef35ca","system_id":"levelo_inurba_marseille","lat":43.313109,"lon":5.396952,"is_reserved":false,"is_disabled":false,"rental_uris":{"android":"levelo://app?vid=4c1e3b57-92b1-4105-b6ab-3cfb2eef35ca","ios":"levelo://app?vid=4c1e3b57-92b1-4105-b6ab-3cfb2eef35ca"},"vehicle_type_id":"4","last_reported":1684875925,"current_range_meters":400,"station_id":"","pricing_plan_id":"free"},{"bike_id":"54c6f172-54d1-46b0-a9c1-bc128b7d13ec","system_id":"levelo_inurba_marseille","lat":43.309038,"lon":5.396546,"is_reserved":false,"is_disabled":false,"rental_uris":{"android":"levelo://app?vid=54c6f172-54d1-46b0-a9c1-bc128b7d13ec","ios":"levelo://app?vid=54c6f172-54d1-46b0-a9c1-bc128b7d13ec"},"vehicle_type_id":"4","last_reported":1684875925,"current_range_meters":7200,"station_id":"ce4bh012rcd13ifvqcv0","pricing_plan_id":"free"},{"bike_id":"c5acdd90-7174-48da-bf24-dce574cabd8f","system_id":"levelo_inurba_marseille","lat":43.309038,"lon":5.396546,"is_reserved":false,"is_disabled":false,"rental_uris":{"android":"levelo://app?vid=c5acdd90-7174-48da-bf24-dce574cabd8f","ios":"levelo://app?vid=c5acdd90-7174-48da-bf24-dce574cabd8f"},"vehicle_type_id":"4","last_reported":1684875925,"current_range_meters":12400,"station_id":"ce4bh012rcd13ifvqcv0","pricing_plan_id":"free"},{"bike_id":"e51623fe-c624-4c27-8da1-76f132393614","system_id":"levelo_inurba_marseille","lat":43.30884,"lon":5.39657,"is_reserved":false,"is_disabled":false,"rental_uris":{"android":"levelo://app?vid=e51623fe-c624-4c27-8da1-76f132393614","ios":"levelo://app?vid=e51623fe-c624-4c27-8da1-76f132393614"},"vehicle_type_id":"4","last_reported":1684875925,"current_range_meters":11600,"station_id":"ce4bh012rcd13ifvqcv0","pricing_plan_id":"free"},{"bike_id":"b755703f-f95a-40d3-a9b0-502a0b94f6dc","system_id":"levelo_inurba_marseille","lat":43.30893,"lon":5.39663,"is_reserved":false,"is_disabled":false,"rental_uris":{"android":"levelo://app?vid=b755703f-f95a-40d3-a9b0-502a0b94f6dc","ios":"levelo://app?vid=b755703f-f95a-40d3-a9b0-502a0b94f6dc"},"vehicle_type_id":"4","last_reported":1684875925,"current_range_meters":22000,"station_id":"ce4bh012rcd13ifvqcv0","pricing_plan_id":"free"},{"bike_id":"4f7c8bed-1bf8-4a63-8c02-f7954328d701","system_id":"levelo_inurba_marseille","lat":43.30881,"lon":5.39663,"is_reserved":false,"is_disabled":false,"rental_uris":{"android":"levelo://app?vid=4f7c8bed-1bf8-4a63-8c02-f7954328d701","ios":"levelo://app?vid=4f7c8bed-1bf8-4a63-8c02-f7954328d701"},"vehicle_type_id":"4","last_reported":1684875925,"current_range_meters":12400,"station_id":"","pricing_plan_id":"free"},{"bike_id":"99b72089-bb11-45b5-9e51-1f140d43e87d","system_id":"levelo_inurba_marseille","lat":43.29529,"lon":5.385581,"is_reserved":false,"is_disabled":false,"rental_uris":{"android":"levelo://app?vid=99b72089-bb11-45b5-9e51-1f140d43e87d","ios":"levelo://app?vid=99b72089-bb11-45b5-9e51-1f140d43e87d"},"vehicle_type_id":"4","last_reported":1684875925,"current_range_meters":28400,"station_id":"ce4bgih2rcd13ifvqba0","pricing_plan_id":"free"},{"bike_id":"dc8320ce-646e-4dc3-bf1a-ac22f2ce25fd","system_id":"levelo_inurba_marseille","lat":43.29529,"lon":5.385581,"is_reserved":false,"is_disabled":false,"rental_uris":{"android":"levelo://app?vid=dc8320ce-646e-4dc3-bf1a-ac22f2ce25fd","ios":"levelo://app?vid=dc8320ce-646e-4dc3-bf1a-ac22f2ce25fd"},"vehicle_type_id":"4","last_reported":1684875925,"current_range_meters":22400,"station_id":"ce4bgih2rcd13ifvqba0","pricing_plan_id":"free"},{"bike_id":"e4b89396-478a-4713-96c1-79024edeb1f4","system_id":"levelo_inurba_marseille","lat":43.29529,"lon":5.385581,"is_reserved":false,"is_disabled":false,"rental_uris":{"android":"levelo://app?vid=e4b89396-478a-4713-96c1-79024edeb1f4","ios":"levelo://app?vid=e4b89396-478a-4713-96c1-79024edeb1f4"},"vehicle_type_id":"4","last_reported":1684875925,"current_range_meters":21200,"station_id":"ce4bgih2rcd13ifvqba0","pricing_plan_id":"free"},{"bike_id":"eaca9d72-2593-48e4-8062-facff55ebb40","system_id":"levelo_inurba_marseille","lat":43.29529,"lon":5.385581,"is_reserved":false,"is_disabled":false,"rental_uris":{"android":"levelo://app?vid=eaca9d72-2593-48e4-8062-facff55ebb40","ios":"levelo://app?vid=eaca9d72-2593-48e4-8062-facff55ebb40"},"vehicle_type_id":"4","last_reported":1684875925,"current_range_meters":7200,"station_id":"ce4bgih2rcd13ifvqba0","pricing_plan_id":"free"},{"bike_id":"8cf7a83c-6699-448a-b9ca-966581dca435","system_id":"levelo_inurba_marseille","lat":43.29529,"lon":5.385581,"is_reserved":false,"is_disabled":false,"rental_uris":{"android":"levelo://app?vid=8cf7a83c-6699-448a-b9ca-966581dca435","ios":"levelo://app?vid=8cf7a83c-6699-448a-b9ca-966581dca435"},"vehicle_type_id":"4","last_reported":1684875925,"current_range_meters":17200,"station_id":"ce4bgih2rcd13ifvqba0","pricing_plan_id":"free"},{"bike_id":"d5acea89-cce9-4638-8b79-eec0e2d2297a","system_id":"levelo_inurba_marseille","lat":43.29529,"lon":5.385581,"is_reserved":false,"is_disabled":false,"rental_uris":{"android":"levelo://app?vid=d5acea89-cce9-4638-8b79-eec0e2d2297a","ios":"levelo://app?vid=d5acea89-cce9-4638-8b79-eec0e2d2297a"},"vehicle_type_id":"4","last_reported":1684875925,"current_range_meters":1600,"station_id":"ce4bgih2rcd13ifvqba0","pricing_plan_id":"free"},{"bike_id":"5dfd0d81-e960-46c0-8184-3a82293ca8b2","system_id":"levelo_inurba_marseille","lat":43.29529,"lon":5.385581,"is_reserved":false,"is_disabled":false,"rental_uris":{"android":"levelo://app?vid=5dfd0d81-e960-46c0-8184-3a82293ca8b2","ios":"levelo://app?vid=5dfd0d81-e960-46c0-8184-3a82293ca8b2"},"vehicle_type_id":"4","last_reported":1684875925,"current_range_meters":32000,"station_id":"ce4bgih2rcd13ifvqba0","pricing_plan_id":"free"},{"bike_id":"492e7a87-f51a-4b9e-ab7a-8103ee84f433","system_id":"levelo_inurba_marseille","lat":43.29529,"lon":5.385581,"is_reserved":false,"is_disabled":false,"rental_uris":{"android":"levelo://app?vid=492e7a87-f51a-4b9e-ab7a-8103ee84f433","ios":"levelo://app?vid=492e7a87-f51a-4b9e-ab7a-8103ee84f433"},"vehicle_type_id":"4","last_reported":1684875925,"current_range_meters":31600,"station_id":"ce4bgih2rcd13ifvqba0","pricing_plan_id":"free"},{"bike_id":"3cced574-d168-4c7b-b220-d01918e41774","system_id":"levelo_inurba_marseille","lat":43.290624,"lon":5.359245,"is_reserved":false,"is_disabled":false,"rental_uris":{"android":"levelo://app?vid=3cced574-d168-4c7b-b220-d01918e41774","ios":"levelo://app?vid=3cced574-d168-4c7b-b220-d01918e41774"},"vehicle_type_id":"4","last_reported":1684875925,"current_range_meters":22800,"station_id":"ce4bha92rcd13ifvqeg0","pricing_plan_id":"free"},{"bike_id":"1dfa60ba-edc3-45a7-99c4-82ff07291762","system_id":"levelo_inurba_marseille","lat":43.30211,"lon":5.39477,"is_reserved":false,"is_disabled":false,"rental_uris":{"android":"levelo://app?vid=1dfa60ba-edc3-45a7-99c4-82ff07291762","ios":"levelo://app?vid=1dfa60ba-edc3-45a7-99c4-82ff07291762"},"vehicle_type_id":"4","last_reported":1684875925,"current_range_meters":5200,"station_id":"ce4bh0p2rcd13ifvqd70","pricing_plan_id":"free"},{"bike_id":"c00c10ba-bf1c-4884-9085-ab49342c17cc","system_id":"levelo_inurba_marseille","lat":43.31025,"lon":5.39828,"is_reserved":false,"is_disabled":false,"rental_uris":{"android":"levelo://app?vid=c00c10ba-bf1c-4884-9085-ab49342c17cc","ios":"levelo://app?vid=c00c10ba-bf1c-4884-9085-ab49342c17cc"},"vehicle_type_id":"4","last_reported":1684875925,"current_range_meters":27200,"station_id":"","pricing_plan_id":"free"},{"bike_id":"ae5a3a83-fd34-46b0-b676-43df5adc9e80","system_id":"levelo_inurba_marseille","lat":43.290631,"lon":5.359244,"is_reserved":false,"is_disabled":false,"rental_uris":{"android":"levelo://app?vid=ae5a3a83-fd34-46b0-b676-43df5adc9e80","ios":"levelo://app?vid=ae5a3a83-fd34-46b0-b676-43df5adc9e80"},"vehicle_type_id":"4","last_reported":1684875925,"current_range_meters":24000,"station_id":"ce4bha92rcd13ifvqeg0","pricing_plan_id":"free"},{"bike_id":"47edc978-cadb-496f-ae1b-8b94a2de95e3","system_id":"levelo_inurba_marseille","lat":43.290624,"lon":5.359245,"is_reserved":false,"is_disabled":false,"rental_uris":{"android":"levelo://app?vid=47edc978-cadb-496f-ae1b-8b94a2de95e3","ios":"levelo://app?vid=47edc978-cadb-496f-ae1b-8b94a2de95e3"},"vehicle_type_id":"4","last_reported":1684875925,"current_range_meters":23600,"station_id":"ce4bha92rcd13ifvqeg0","pricing_plan_id":"free"},{"bike_id":"1642125e-f634-49ff-8312-210f51505601","system_id":"levelo_inurba_marseille","lat":43.290631,"lon":5.359244,"is_reserved":false,"is_disabled":false,"rental_uris":{"android":"levelo://app?vid=1642125e-f634-49ff-8312-210f51505601","ios":"levelo://app?vid=1642125e-f634-49ff-8312-210f51505601"},"vehicle_type_id":"4","last_reported":1684875925,"current_range_meters":19600,"station_id":"ce4bha92rcd13ifvqeg0","pricing_plan_id":"free"},{"bike_id":"2cf5b966-401f-4954-a903-6a881c8c984b","system_id":"levelo_inurba_marseille","lat":43.29039,"lon":5.35916,"is_reserved":false,"is_disabled":false,"rental_uris":{"android":"levelo://app?vid=2cf5b966-401f-4954-a903-6a881c8c984b","ios":"levelo://app?vid=2cf5b966-401f-4954-a903-6a881c8c984b"},"vehicle_type_id":"4","last_reported":1684875925,"current_range_meters":21200,"station_id":"","pricing_plan_id":"free"},{"bike_id":"2a8952b5-14aa-4abd-90f2-aae39ed2ebe1","system_id":"levelo_inurba_marseille","lat":43.290631,"lon":5.359244,"is_reserved":false,"is_disabled":false,"rental_uris":{"android":"levelo://app?vid=2a8952b5-14aa-4abd-90f2-aae39ed2ebe1","ios":"levelo://app?vid=2a8952b5-14aa-4abd-90f2-aae39ed2ebe1"},"vehicle_type_id":"4","last_reported":1684875925,"current_range_meters":17200,"station_id":"ce4bha92rcd13ifvqeg0","pricing_plan_id":"free"},{"bike_id":"7d98a2a3-0803-4c01-935d-35d45d96ba94","system_id":"levelo_inurba_marseille","lat":43.290631,"lon":5.359244,"is_reserved":false,"is_disabled":false,"rental_uris":{"android":"levelo://app?vid=7d98a2a3-0803-4c01-935d-35d45d96ba94","ios":"levelo://app?vid=7d98a2a3-0803-4c01-935d-35d45d96ba94"},"vehicle_type_id":"4","last_reported":1684875925,"current_range_meters":12800,"station_id":"ce4bha92rcd13ifvqeg0","pricing_plan_id":"free"},{"bike_id":"5d98ac40-ce1c-4764-8006-6fac456c28e1","system_id":"levelo_inurba_marseille","lat":43.290319,"lon":5.375732,"is_reserved":false,"is_disabled":false,"rental_uris":{"android":"levelo://app?vid=5d98ac40-ce1c-4764-8006-6fac456c28e1","ios":"levelo://app?vid=5d98ac40-ce1c-4764-8006-6fac456c28e1"},"vehicle_type_id":"4","last_reported":1684875925,"current_range_meters":19200,"station_id":"ce4bh692rcd13ifvqe90","pricing_plan_id":"free"},{"bike_id":"52c63499-65d1-4eba-a584-f8f95edf8777","system_id":"levelo_inurba_marseille","lat":43.28937,"lon":5.36634,"is_reserved":false,"is_disabled":false,"rental_uris":{"android":"levelo://app?vid=52c63499-65d1-4eba-a584-f8f95edf8777","ios":"levelo://app?vid=52c63499-65d1-4eba-a584-f8f95edf8777"},"vehicle_type_id":"4","last_reported":1684875925,"current_range_meters":20800,"station_id":"ce4bhap2rcd13ifvqek0","pricing_plan_id":"free"},{"bike_id":"e65cb25c-ab0e-4160-9964-9586a04606af","system_id":"levelo_inurba_marseille","lat":43.289468,"lon":5.363719,"is_reserved":false,"is_disabled":false,"rental_uris":{"android":"levelo://app?vid=e65cb25c-ab0e-4160-9964-9586a04606af","ios":"levelo://app?vid=e65cb25c-ab0e-4160-9964-9586a04606af"},"vehicle_type_id":"4","last_reported":1684875925,"current_range_meters":15600,"station_id":"ce4bhc92rcd13ifvqetg","pricing_plan_id":"free"},{"bike_id":"5dd7f69a-ca92-453b-bc23-f241fb0facea","system_id":"levelo_inurba_marseille","lat":43.289184,"lon":5.366408,"is_reserved":false,"is_disabled":false,"rental_uris":{"android":"levelo://app?vid=5dd7f69a-ca92-453b-bc23-f241fb0facea","ios":"levelo://app?vid=5dd7f69a-ca92-453b-bc23-f241fb0facea"},"vehicle_type_id":"4","last_reported":1684875925,"current_range_meters":6000,"station_id":"ce4bhap2rcd13ifvqek0","pricing_plan_id":"free"},{"bike_id":"12c23243-2813-49cc-8e61-3c9d46fdf0c5","system_id":"levelo_inurba_marseille","lat":43.30417,"lon":5.39733,"is_reserved":false,"is_disabled":false,"rental_uris":{"android":"levelo://app?vid=12c23243-2813-49cc-8e61-3c9d46fdf0c5","ios":"levelo://app?vid=12c23243-2813-49cc-8e61-3c9d46fdf0c5"},"vehicle_type_id":"4","last_reported":1684875925,"current_range_meters":0,"station_id":"ce4bh092rcd13ifvqd20","pricing_plan_id":"free"},{"bike_id":"649048bb-3e9b-48e2-8ce7-87a550e114e9","system_id":"levelo_inurba_marseille","lat":43.304274,"lon":5.397513,"is_reserved":false,"is_disabled":false,"rental_uris":{"android":"levelo://app?vid=649048bb-3e9b-48e2-8ce7-87a550e114e9","ios":"levelo://app?vid=649048bb-3e9b-48e2-8ce7-87a550e114e9"},"vehicle_type_id":"4","last_reported":1684875925,"current_range_meters":4800,"station_id":"ce4bh092rcd13ifvqd20","pricing_plan_id":"free"},{"bike_id":"18d95485-f0c6-4aa8-8383-16c87a3a57e1","system_id":"levelo_inurba_marseille","lat":43.30431,"lon":5.39746,"is_reserved":false,"is_disabled":false,"rental_uris":{"android":"levelo://app?vid=18d95485-f0c6-4aa8-8383-16c87a3a57e1","ios":"levelo://app?vid=18d95485-f0c6-4aa8-8383-16c87a3a57e1"},"vehicle_type_id":"4","last_reported":1684875925,"current_range_meters":6800,"station_id":"ce4bh092rcd13ifvqd20","pricing_plan_id":"free"},{"bike_id":"3adf8e5c-286a-4182-b7b0-67c891443512","system_id":"levelo_inurba_marseille","lat":43.304274,"lon":5.397513,"is_reserved":false,"is_disabled":false,"rental_uris":{"android":"levelo://app?vid=3adf8e5c-286a-4182-b7b0-67c891443512","ios":"levelo://app?vid=3adf8e5c-286a-4182-b7b0-67c891443512"},"vehicle_type_id":"4","last_reported":1684875925,"current_range_meters":12000,"station_id":"ce4bh092rcd13ifvqd20","pricing_plan_id":"free"},{"bike_id":"1185e6ef-9bac-40e6-8b2a-ad5b72702c2f","system_id":"levelo_inurba_marseille","lat":43.3043,"lon":5.39748,"is_reserved":false,"is_disabled":false,"rental_uris":{"android":"levelo://app?vid=1185e6ef-9bac-40e6-8b2a-ad5b72702c2f","ios":"levelo://app?vid=1185e6ef-9bac-40e6-8b2a-ad5b72702c2f"},"vehicle_type_id":"4","last_reported":1684875925,"current_range_meters":12000,"station_id":"ce4bh092rcd13ifvqd20","pricing_plan_id":"free"},{"bike_id":"5a6aabd7-2008-4adb-bbd1-efb37b1c23d7","system_id":"levelo_inurba_marseille","lat":43.29258,"lon":5.38441,"is_reserved":false,"is_disabled":false,"rental_uris":{"android":"levelo://app?vid=5a6aabd7-2008-4adb-bbd1-efb37b1c23d7","ios":"levelo://app?vid=5a6aabd7-2008-4adb-bbd1-efb37b1c23d7"},"vehicle_type_id":"4","last_reported":1684875925,"current_range_meters":14000,"station_id":"ce4bh692rcd13ifvqea0","pricing_plan_id":"free"},{"bike_id":"5be9e55d-723c-4686-bba5-7790c5ed9d51","system_id":"levelo_inurba_marseille","lat":43.304274,"lon":5.397513,"is_reserved":false,"is_disabled":false,"rental_uris":{"android":"levelo://app?vid=5be9e55d-723c-4686-bba5-7790c5ed9d51","ios":"levelo://app?vid=5be9e55d-723c-4686-bba5-7790c5ed9d51"},"vehicle_type_id":"4","last_reported":1684875925,"current_range_meters":16400,"station_id":"ce4bh092rcd13ifvqd20","pricing_plan_id":"free"},{"bike_id":"2a1db518-fcd3-4aca-bbf1-1c87325f684c","system_id":"levelo_inurba_marseille","lat":43.29256,"lon":5.38441,"is_reserved":false,"is_disabled":false,"rental_uris":{"android":"levelo://app?vid=2a1db518-fcd3-4aca-bbf1-1c87325f684c","ios":"levelo://app?vid=2a1db518-fcd3-4aca-bbf1-1c87325f684c"},"vehicle_type_id":"4","last_reported":1684875925,"current_range_meters":3200,"station_id":"ce4bh692rcd13ifvqea0","pricing_plan_id":"free"},{"bike_id":"888e22a2-99d9-4fc1-abcd-75c70d66bbbe","system_id":"levelo_inurba_marseille","lat":43.3044,"lon":5.39766,"is_reserved":false,"is_disabled":false,"rental_uris":{"android":"levelo://app?vid=888e22a2-99d9-4fc1-abcd-75c70d66bbbe","ios":"levelo://app?vid=888e22a2-99d9-4fc1-abcd-75c70d66bbbe"},"vehicle_type_id":"4","last_reported":1684875925,"current_range_meters":30800,"station_id":"ce4bh092rcd13ifvqd20","pricing_plan_id":"free"},{"bike_id":"a8c2a71d-69f0-4c6d-93e1-eef8300d6764","system_id":"levelo_inurba_marseille","lat":43.29253,"lon":5.3844,"is_reserved":false,"is_disabled":false,"rental_uris":{"android":"levelo://app?vid=a8c2a71d-69f0-4c6d-93e1-eef8300d6764","ios":"levelo://app?vid=a8c2a71d-69f0-4c6d-93e1-eef8300d6764"},"vehicle_type_id":"4","last_reported":1684875925,"current_range_meters":8400,"station_id":"ce4bh692rcd13ifvqea0","pricing_plan_id":"free"},{"bike_id":"10173f54-ce03-47c2-aa4d-d9bd41a6cd92","system_id":"levelo_inurba_marseille","lat":43.30425,"lon":5.3976,"is_reserved":false,"is_disabled":false,"rental_uris":{"android":"levelo://app?vid=10173f54-ce03-47c2-aa4d-d9bd41a6cd92","ios":"levelo://app?vid=10173f54-ce03-47c2-aa4d-d9bd41a6cd92"},"vehicle_type_id":"4","last_reported":1684875925,"current_range_meters":13200,"station_id":"ce4bh092rcd13ifvqd20","pricing_plan_id":"free"},{"bike_id":"fb1275c4-558f-49b2-ac15-ca871e878bc3","system_id":"levelo_inurba_marseille","lat":43.29255,"lon":5.3845,"is_reserved":false,"is_disabled":false,"rental_uris":{"android":"levelo://app?vid=fb1275c4-558f-49b2-ac15-ca871e878bc3","ios":"levelo://app?vid=fb1275c4-558f-49b2-ac15-ca871e878bc3"},"vehicle_type_id":"4","last_reported":1684875925,"current_range_meters":10000,"station_id":"ce4bh692rcd13ifvqea0","pricing_plan_id":"free"},{"bike_id":"7903c7d5-3fb3-4112-bcab-7146c5db279b","system_id":"levelo_inurba_marseille","lat":43.304274,"lon":5.397513,"is_reserved":false,"is_disabled":false,"rental_uris":{"android":"levelo://app?vid=7903c7d5-3fb3-4112-bcab-7146c5db279b","ios":"levelo://app?vid=7903c7d5-3fb3-4112-bcab-7146c5db279b"},"vehicle_type_id":"4","last_reported":1684875925,"current_range_meters":17200,"station_id":"ce4bh092rcd13ifvqd20","pricing_plan_id":"free"},{"bike_id":"494fc9b5-5e81-4da9-b79c-189a43f73421","system_id":"levelo_inurba_marseille","lat":43.29249,"lon":5.38451,"is_reserved":false,"is_disabled":false,"rental_uris":{"android":"levelo://app?vid=494fc9b5-5e81-4da9-b79c-189a43f73421","ios":"levelo://app?vid=494fc9b5-5e81-4da9-b79c-189a43f73421"},"vehicle_type_id":"4","last_reported":1684875925,"current_range_meters":24800,"station_id":"ce4bh692rcd13ifvqea0","pricing_plan_id":"free"},{"bike_id":"96712b4a-6e3e-4157-920b-b8141c678f09","system_id":"levelo_inurba_marseille","lat":43.33043,"lon":5.38916,"is_reserved":false,"is_disabled":false,"rental_uris":{"android":"levelo://app?vid=96712b4a-6e3e-4157-920b-b8141c678f09","ios":"levelo://app?vid=96712b4a-6e3e-4157-920b-b8141c678f09"},"vehicle_type_id":"4","last_reported":1684875925,"current_range_meters":16800,"station_id":"ce4bhr92rcd13ifvqhrg","pricing_plan_id":"free"},{"bike_id":"89436d2a-e1c6-4c5d-8c21-4f5ddca0c3e6","system_id":"levelo_inurba_marseille","lat":43.33046,"lon":5.38913,"is_reserved":false,"is_disabled":false,"rental_uris":{"android":"levelo://app?vid=89436d2a-e1c6-4c5d-8c21-4f5ddca0c3e6","ios":"levelo://app?vid=89436d2a-e1c6-4c5d-8c21-4f5ddca0c3e6"},"vehicle_type_id":"4","last_reported":1684875925,"current_range_meters":19600,"station_id":"ce4bhr92rcd13ifvqhrg","pricing_plan_id":"free"},{"bike_id":"c90adfb5-6daf-417e-a007-b698a6f2f093","system_id":"levelo_inurba_marseille","lat":43.33047,"lon":5.38914,"is_reserved":false,"is_disabled":false,"rental_uris":{"android":"levelo://app?vid=c90adfb5-6daf-417e-a007-b698a6f2f093","ios":"levelo://app?vid=c90adfb5-6daf-417e-a007-b698a6f2f093"},"vehicle_type_id":"4","last_reported":1684875925,"current_range_meters":0,"station_id":"ce4bhr92rcd13ifvqhrg","pricing_plan_id":"free"},{"bike_id":"73acd46f-37f7-4b9f-bedf-a9f4696c17f0","system_id":"levelo_inurba_marseille","lat":43.297814,"lon":5.393513,"is_reserved":false,"is_disabled":false,"rental_uris":{"android":"levelo://app?vid=73acd46f-37f7-4b9f-bedf-a9f4696c17f0","ios":"levelo://app?vid=73acd46f-37f7-4b9f-bedf-a9f4696c17f0"},"vehicle_type_id":"4","last_reported":1684875925,"current_range_meters":0,"station_id":"chh1huq6cuj3fo74tm60","pricing_plan_id":"free"},{"bike_id":"1151094d-8554-42ef-8ce4-410a4cac4248","system_id":"levelo_inurba_marseille","lat":43.28987,"lon":5.37834,"is_reserved":false,"is_disabled":false,"rental_uris":{"android":"levelo://app?vid=1151094d-8554-42ef-8ce4-410a4cac4248","ios":"levelo://app?vid=1151094d-8554-42ef-8ce4-410a4cac4248"},"vehicle_type_id":"4","last_reported":1684875925,"current_range_meters":0,"station_id":"ce4bh9p2rcd13ifvqed0","pricing_plan_id":"free"},{"bike_id":"44751f6c-f3eb-45e1-b024-f70ba1609ebc","system_id":"levelo_inurba_marseille","lat":43.297814,"lon":5.393513,"is_reserved":false,"is_disabled":false,"rental_uris":{"android":"levelo://app?vid=44751f6c-f3eb-45e1-b024-f70ba1609ebc","ios":"levelo://app?vid=44751f6c-f3eb-45e1-b024-f70ba1609ebc"},"vehicle_type_id":"4","last_reported":1684875925,"current_range_meters":16800,"station_id":"chh1huq6cuj3fo74tm60","pricing_plan_id":"free"},{"bike_id":"742554e0-24ec-40b6-95a1-6131d001c9e8","system_id":"levelo_inurba_marseille","lat":43.297814,"lon":5.393513,"is_reserved":false,"is_disabled":false,"rental_uris":{"android":"levelo://app?vid=742554e0-24ec-40b6-95a1-6131d001c9e8","ios":"levelo://app?vid=742554e0-24ec-40b6-95a1-6131d001c9e8"},"vehicle_type_id":"4","last_reported":1684875925,"current_range_meters":0,"station_id":"chh1huq6cuj3fo74tm60","pricing_plan_id":"free"},{"bike_id":"38264f19-5fce-48f9-a17c-463d0196a92d","system_id":"levelo_inurba_marseille","lat":43.2953,"lon":5.39039,"is_reserved":false,"is_disabled":false,"rental_uris":{"android":"levelo://app?vid=38264f19-5fce-48f9-a17c-463d0196a92d","ios":"levelo://app?vid=38264f19-5fce-48f9-a17c-463d0196a92d"},"vehicle_type_id":"4","last_reported":1684875925,"current_range_meters":28800,"station_id":"ce4bh3p2rcd13ifvqdp0","pricing_plan_id":"free"},{"bike_id":"a0a1c474-66e3-43e4-b55a-12f399fe2eaa","system_id":"levelo_inurba_marseille","lat":43.289741,"lon":5.378306,"is_reserved":false,"is_disabled":false,"rental_uris":{"android":"levelo://app?vid=a0a1c474-66e3-43e4-b55a-12f399fe2eaa","ios":"levelo://app?vid=a0a1c474-66e3-43e4-b55a-12f399fe2eaa"},"vehicle_type_id":"4","last_reported":1684875925,"current_range_meters":20000,"station_id":"ce4bh9p2rcd13ifvqed0","pricing_plan_id":"free"},{"bike_id":"15fccb34-0fd0-40bc-9ad7-813c39209fa1","system_id":"levelo_inurba_marseille","lat":43.295169,"lon":5.390426,"is_reserved":false,"is_disabled":false,"rental_uris":{"android":"levelo://app?vid=15fccb34-0fd0-40bc-9ad7-813c39209fa1","ios":"levelo://app?vid=15fccb34-0fd0-40bc-9ad7-813c39209fa1"},"vehicle_type_id":"4","last_reported":1684875925,"current_range_meters":13200,"station_id":"ce4bh3p2rcd13ifvqdp0","pricing_plan_id":"free"},{"bike_id":"686999aa-e807-4e6c-bcc7-5f483a27a61f","system_id":"levelo_inurba_marseille","lat":43.295169,"lon":5.390426,"is_reserved":false,"is_disabled":false,"rental_uris":{"android":"levelo://app?vid=686999aa-e807-4e6c-bcc7-5f483a27a61f","ios":"levelo://app?vid=686999aa-e807-4e6c-bcc7-5f483a27a61f"},"vehicle_type_id":"4","last_reported":1684875925,"current_range_meters":28400,"station_id":"ce4bh3p2rcd13ifvqdp0","pricing_plan_id":"free"},{"bike_id":"74eb4693-9fa3-4034-bea4-e78022c37a2f","system_id":"levelo_inurba_marseille","lat":43.295169,"lon":5.390426,"is_reserved":false,"is_disabled":false,"rental_uris":{"android":"levelo://app?vid=74eb4693-9fa3-4034-bea4-e78022c37a2f","ios":"levelo://app?vid=74eb4693-9fa3-4034-bea4-e78022c37a2f"},"vehicle_type_id":"4","last_reported":1684875925,"current_range_meters":26000,"station_id":"ce4bh3p2rcd13ifvqdp0","pricing_plan_id":"free"},{"bike_id":"73310a1e-cac0-4da4-9705-f695f836b455","system_id":"levelo_inurba_marseille","lat":43.295169,"lon":5.390426,"is_reserved":false,"is_disabled":false,"rental_uris":{"android":"levelo://app?vid=73310a1e-cac0-4da4-9705-f695f836b455","ios":"levelo://app?vid=73310a1e-cac0-4da4-9705-f695f836b455"},"vehicle_type_id":"4","last_reported":1684875925,"current_range_meters":15600,"station_id":"ce4bh3p2rcd13ifvqdp0","pricing_plan_id":"free"},{"bike_id":"0d8c4fb3-6bde-4045-b2c4-65d6ccf0b6c6","system_id":"levelo_inurba_marseille","lat":43.295169,"lon":5.390426,"is_reserved":false,"is_disabled":false,"rental_uris":{"android":"levelo://app?vid=0d8c4fb3-6bde-4045-b2c4-65d6ccf0b6c6","ios":"levelo://app?vid=0d8c4fb3-6bde-4045-b2c4-65d6ccf0b6c6"},"vehicle_type_id":"4","last_reported":1684875925,"current_range_meters":13600,"station_id":"ce4bh3p2rcd13ifvqdp0","pricing_plan_id":"free"},{"bike_id":"a433b5da-e77d-4182-b38b-add1e5d9388f","system_id":"levelo_inurba_marseille","lat":43.295169,"lon":5.390426,"is_reserved":false,"is_disabled":false,"rental_uris":{"android":"levelo://app?vid=a433b5da-e77d-4182-b38b-add1e5d9388f","ios":"levelo://app?vid=a433b5da-e77d-4182-b38b-add1e5d9388f"},"vehicle_type_id":"4","last_reported":1684875925,"current_range_meters":5600,"station_id":"ce4bh3p2rcd13ifvqdp0","pricing_plan_id":"free"},{"bike_id":"95151d67-901b-413e-b179-f8a416ec40c3","system_id":"levelo_inurba_marseille","lat":43.30516,"lon":5.39935,"is_reserved":false,"is_disabled":false,"rental_uris":{"android":"levelo://app?vid=95151d67-901b-413e-b179-f8a416ec40c3","ios":"levelo://app?vid=95151d67-901b-413e-b179-f8a416ec40c3"},"vehicle_type_id":"4","last_reported":1684875925,"current_range_meters":4000,"station_id":"","pricing_plan_id":"free"},{"bike_id":"6c0a4d9b-5a94-4e51-b059-4b459ad653bc","system_id":"levelo_inurba_marseille","lat":43.28863,"lon":5.35832,"is_reserved":false,"is_disabled":false,"rental_uris":{"android":"levelo://app?vid=6c0a4d9b-5a94-4e51-b059-4b459ad653bc","ios":"levelo://app?vid=6c0a4d9b-5a94-4e51-b059-4b459ad653bc"},"vehicle_type_id":"4","last_reported":1684875925,"current_range_meters":6400,"station_id":"ce4bhb12rcd13ifvqem0","pricing_plan_id":"free"},{"bike_id":"7df7a62c-f249-4aee-a961-7f8771c1e324","system_id":"levelo_inurba_marseille","lat":43.33751,"lon":5.37444,"is_reserved":false,"is_disabled":false,"rental_uris":{"android":"levelo://app?vid=7df7a62c-f249-4aee-a961-7f8771c1e324","ios":"levelo://app?vid=7df7a62c-f249-4aee-a961-7f8771c1e324"},"vehicle_type_id":"4","last_reported":1684875925,"current_range_meters":28000,"station_id":"","pricing_plan_id":"free"},{"bike_id":"c8a6a57f-cf6f-47a9-b295-a6917843e52c","system_id":"levelo_inurba_marseille","lat":43.33754,"lon":5.37473,"is_reserved":false,"is_disabled":false,"rental_uris":{"android":"levelo://app?vid=c8a6a57f-cf6f-47a9-b295-a6917843e52c","ios":"levelo://app?vid=c8a6a57f-cf6f-47a9-b295-a6917843e52c"},"vehicle_type_id":"4","last_reported":1684875925,"current_range_meters":1600,"station_id":"","pricing_plan_id":"free"},{"bike_id":"c4a5185a-3a53-47d1-96ae-3197849b49ff","system_id":"levelo_inurba_marseille","lat":43.30642,"lon":5.401031,"is_reserved":false,"is_disabled":false,"rental_uris":{"android":"levelo://app?vid=c4a5185a-3a53-47d1-96ae-3197849b49ff","ios":"levelo://app?vid=c4a5185a-3a53-47d1-96ae-3197849b49ff"},"vehicle_type_id":"4","last_reported":1684875925,"current_range_meters":20800,"station_id":"ce4bh112rcd13ifvqda0","pricing_plan_id":"free"},{"bike_id":"fa8aa980-3d66-469a-9738-e2e7d6b7aad7","system_id":"levelo_inurba_marseille","lat":43.3376,"lon":5.37441,"is_reserved":false,"is_disabled":false,"rental_uris":{"android":"levelo://app?vid=fa8aa980-3d66-469a-9738-e2e7d6b7aad7","ios":"levelo://app?vid=fa8aa980-3d66-469a-9738-e2e7d6b7aad7"},"vehicle_type_id":"4","last_reported":1684875925,"current_range_meters":31200,"station_id":"","pricing_plan_id":"free"},{"bike_id":"42fe6271-5913-42a0-810f-21eec146368b","system_id":"levelo_inurba_marseille","lat":43.30642,"lon":5.401031,"is_reserved":false,"is_disabled":false,"rental_uris":{"android":"levelo://app?vid=42fe6271-5913-42a0-810f-21eec146368b","ios":"levelo://app?vid=42fe6271-5913-42a0-810f-21eec146368b"},"vehicle_type_id":"4","last_reported":1684875925,"current_range_meters":18000,"station_id":"ce4bh112rcd13ifvqda0","pricing_plan_id":"free"},{"bike_id":"45506292-f55c-467e-bcf7-ca72fe20e71c","system_id":"levelo_inurba_marseille","lat":43.30642,"lon":5.401031,"is_reserved":false,"is_disabled":false,"rental_uris":{"android":"levelo://app?vid=45506292-f55c-467e-bcf7-ca72fe20e71c","ios":"levelo://app?vid=45506292-f55c-467e-bcf7-ca72fe20e71c"},"vehicle_type_id":"4","last_reported":1684875925,"current_range_meters":12400,"station_id":"ce4bh112rcd13ifvqda0","pricing_plan_id":"free"},{"bike_id":"868edf8d-a1e5-43cf-822f-2bce2c1b9cc4","system_id":"levelo_inurba_marseille","lat":43.30642,"lon":5.401031,"is_reserved":false,"is_disabled":false,"rental_uris":{"android":"levelo://app?vid=868edf8d-a1e5-43cf-822f-2bce2c1b9cc4","ios":"levelo://app?vid=868edf8d-a1e5-43cf-822f-2bce2c1b9cc4"},"vehicle_type_id":"4","last_reported":1684875925,"current_range_meters":28000,"station_id":"ce4bh112rcd13ifvqda0","pricing_plan_id":"free"},{"bike_id":"67751db1-d909-45bd-9e47-d32a4fef5f76","system_id":"levelo_inurba_marseille","lat":43.33768,"lon":5.37416,"is_reserved":false,"is_disabled":false,"rental_uris":{"android":"levelo://app?vid=67751db1-d909-45bd-9e47-d32a4fef5f76","ios":"levelo://app?vid=67751db1-d909-45bd-9e47-d32a4fef5f76"},"vehicle_type_id":"4","last_reported":1684875925,"current_range_meters":29200,"station_id":"","pricing_plan_id":"free"},{"bike_id":"920f04cf-6011-406c-9304-c415ecb6e1ed","system_id":"levelo_inurba_marseille","lat":43.30642,"lon":5.401031,"is_reserved":false,"is_disabled":false,"rental_uris":{"android":"levelo://app?vid=920f04cf-6011-406c-9304-c415ecb6e1ed","ios":"levelo://app?vid=920f04cf-6011-406c-9304-c415ecb6e1ed"},"vehicle_type_id":"4","last_reported":1684875925,"current_range_meters":15200,"station_id":"ce4bh112rcd13ifvqda0","pricing_plan_id":"free"},{"bike_id":"8b89341e-b439-4b8b-abce-366165733ffa","system_id":"levelo_inurba_marseille","lat":43.30642,"lon":5.401031,"is_reserved":false,"is_disabled":false,"rental_uris":{"android":"levelo://app?vid=8b89341e-b439-4b8b-abce-366165733ffa","ios":"levelo://app?vid=8b89341e-b439-4b8b-abce-366165733ffa"},"vehicle_type_id":"4","last_reported":1684875925,"current_range_meters":9200,"station_id":"ce4bh112rcd13ifvqda0","pricing_plan_id":"free"},{"bike_id":"e123cd43-562a-427d-b741-98d33ce5dea2","system_id":"levelo_inurba_marseille","lat":43.33768,"lon":5.37443,"is_reserved":false,"is_disabled":false,"rental_uris":{"android":"levelo://app?vid=e123cd43-562a-427d-b741-98d33ce5dea2","ios":"levelo://app?vid=e123cd43-562a-427d-b741-98d33ce5dea2"},"vehicle_type_id":"4","last_reported":1684875925,"current_range_meters":31600,"station_id":"","pricing_plan_id":"free"},{"bike_id":"c3b66989-b85e-4172-b369-d5cd98ae4ea7","system_id":"levelo_inurba_marseille","lat":43.33771,"lon":5.37458,"is_reserved":false,"is_disabled":false,"rental_uris":{"android":"levelo://app?vid=c3b66989-b85e-4172-b369-d5cd98ae4ea7","ios":"levelo://app?vid=c3b66989-b85e-4172-b369-d5cd98ae4ea7"},"vehicle_type_id":"4","last_reported":1684875925,"current_range_meters":0,"station_id":"","pricing_plan_id":"free"},{"bike_id":"bfa4bd88-f17f-4a0b-b16b-5348f877bda8","system_id":"levelo_inurba_marseille","lat":43.30642,"lon":5.401031,"is_reserved":false,"is_disabled":false,"rental_uris":{"android":"levelo://app?vid=bfa4bd88-f17f-4a0b-b16b-5348f877bda8","ios":"levelo://app?vid=bfa4bd88-f17f-4a0b-b16b-5348f877bda8"},"vehicle_type_id":"4","last_reported":1684875925,"current_range_meters":800,"station_id":"ce4bh112rcd13ifvqda0","pricing_plan_id":"free"},{"bike_id":"cbbba027-28b1-4ecf-8282-d11fd7ddec42","system_id":"levelo_inurba_marseille","lat":43.301117,"lon":5.398795,"is_reserved":false,"is_disabled":false,"rental_uris":{"android":"levelo://app?vid=cbbba027-28b1-4ecf-8282-d11fd7ddec42","ios":"levelo://app?vid=cbbba027-28b1-4ecf-8282-d11fd7ddec42"},"vehicle_type_id":"4","last_reported":1684875925,"current_range_meters":25200,"station_id":"ce4bh0h2rcd13ifvqd40","pricing_plan_id":"free"},{"bike_id":"d906ba9f-318e-4639-bec0-4c42a1021c19","system_id":"levelo_inurba_marseille","lat":43.301117,"lon":5.398795,"is_reserved":false,"is_disabled":false,"rental_uris":{"android":"levelo://app?vid=d906ba9f-318e-4639-bec0-4c42a1021c19","ios":"levelo://app?vid=d906ba9f-318e-4639-bec0-4c42a1021c19"},"vehicle_type_id":"4","last_reported":1684875925,"current_range_meters":15600,"station_id":"ce4bh0h2rcd13ifvqd40","pricing_plan_id":"free"},{"bike_id":"8c3e0d6f-395a-42bc-b3d4-134beb35fe06","system_id":"levelo_inurba_marseille","lat":43.298681,"lon":5.397225,"is_reserved":false,"is_disabled":false,"rental_uris":{"android":"levelo://app?vid=8c3e0d6f-395a-42bc-b3d4-134beb35fe06","ios":"levelo://app?vid=8c3e0d6f-395a-42bc-b3d4-134beb35fe06"},"vehicle_type_id":"4","last_reported":1684875925,"current_range_meters":27600,"station_id":"ce4bh0h2rcd13ifvqd50","pricing_plan_id":"free"},{"bike_id":"ada03108-7606-4103-9816-bcfead2b09b7","system_id":"levelo_inurba_marseille","lat":43.30428,"lon":5.4009,"is_reserved":false,"is_disabled":false,"rental_uris":{"android":"levelo://app?vid=ada03108-7606-4103-9816-bcfead2b09b7","ios":"levelo://app?vid=ada03108-7606-4103-9816-bcfead2b09b7"},"vehicle_type_id":"4","last_reported":1684875925,"current_range_meters":23600,"station_id":"","pricing_plan_id":"free"},{"bike_id":"1532a28d-24fd-4a7f-9258-baaa3b063c49","system_id":"levelo_inurba_marseille","lat":43.286591,"lon":5.363346,"is_reserved":false,"is_disabled":false,"rental_uris":{"android":"levelo://app?vid=1532a28d-24fd-4a7f-9258-baaa3b063c49","ios":"levelo://app?vid=1532a28d-24fd-4a7f-9258-baaa3b063c49"},"vehicle_type_id":"4","last_reported":1684875925,"current_range_meters":15600,"station_id":"ce4bhah2rcd13ifvqej0","pricing_plan_id":"free"},{"bike_id":"10499af1-2806-4e28-a7c5-e4dc26aef808","system_id":"levelo_inurba_marseille","lat":43.30433,"lon":5.40102,"is_reserved":false,"is_disabled":false,"rental_uris":{"android":"levelo://app?vid=10499af1-2806-4e28-a7c5-e4dc26aef808","ios":"levelo://app?vid=10499af1-2806-4e28-a7c5-e4dc26aef808"},"vehicle_type_id":"4","last_reported":1684875925,"current_range_meters":10000,"station_id":"","pricing_plan_id":"free"},{"bike_id":"be01e501-4ce7-4020-ac6a-90047ed27e2c","system_id":"levelo_inurba_marseille","lat":43.286593,"lon":5.363346,"is_reserved":false,"is_disabled":false,"rental_uris":{"android":"levelo://app?vid=be01e501-4ce7-4020-ac6a-90047ed27e2c","ios":"levelo://app?vid=be01e501-4ce7-4020-ac6a-90047ed27e2c"},"vehicle_type_id":"4","last_reported":1684875925,"current_range_meters":30800,"station_id":"ce4bhah2rcd13ifvqej0","pricing_plan_id":"free"},{"bike_id":"20f8981e-69e2-475d-b416-11457ff35fc0","system_id":"levelo_inurba_marseille","lat":43.286591,"lon":5.363346,"is_reserved":false,"is_disabled":false,"rental_uris":{"android":"levelo://app?vid=20f8981e-69e2-475d-b416-11457ff35fc0","ios":"levelo://app?vid=20f8981e-69e2-475d-b416-11457ff35fc0"},"vehicle_type_id":"4","last_reported":1684875925,"current_range_meters":31200,"station_id":"ce4bhah2rcd13ifvqej0","pricing_plan_id":"free"},{"bike_id":"8307fb30-7d84-4fd3-84df-c25e93b6d4e1","system_id":"levelo_inurba_marseille","lat":43.298681,"lon":5.397225,"is_reserved":false,"is_disabled":false,"rental_uris":{"android":"levelo://app?vid=8307fb30-7d84-4fd3-84df-c25e93b6d4e1","ios":"levelo://app?vid=8307fb30-7d84-4fd3-84df-c25e93b6d4e1"},"vehicle_type_id":"4","last_reported":1684875925,"current_range_meters":12400,"station_id":"ce4bh0h2rcd13ifvqd50","pricing_plan_id":"free"},{"bike_id":"b4b80226-83c8-4c7f-916b-33846d482e4e","system_id":"levelo_inurba_marseille","lat":43.286593,"lon":5.363346,"is_reserved":false,"is_disabled":false,"rental_uris":{"android":"levelo://app?vid=b4b80226-83c8-4c7f-916b-33846d482e4e","ios":"levelo://app?vid=b4b80226-83c8-4c7f-916b-33846d482e4e"},"vehicle_type_id":"4","last_reported":1684875925,"current_range_meters":28800,"station_id":"ce4bhah2rcd13ifvqej0","pricing_plan_id":"free"},{"bike_id":"69b9a307-3679-4251-af69-c2a8f0a206cb","system_id":"levelo_inurba_marseille","lat":43.286591,"lon":5.363346,"is_reserved":false,"is_disabled":false,"rental_uris":{"android":"levelo://app?vid=69b9a307-3679-4251-af69-c2a8f0a206cb","ios":"levelo://app?vid=69b9a307-3679-4251-af69-c2a8f0a206cb"},"vehicle_type_id":"4","last_reported":1684875925,"current_range_meters":3200,"station_id":"ce4bhah2rcd13ifvqej0","pricing_plan_id":"free"},{"bike_id":"651f95b8-bd06-43e6-a773-2bed2468d127","system_id":"levelo_inurba_marseille","lat":43.2866,"lon":5.36362,"is_reserved":false,"is_disabled":false,"rental_uris":{"android":"levelo://app?vid=651f95b8-bd06-43e6-a773-2bed2468d127","ios":"levelo://app?vid=651f95b8-bd06-43e6-a773-2bed2468d127"},"vehicle_type_id":"4","last_reported":1684875925,"current_range_meters":11600,"station_id":"ce4bhah2rcd13ifvqej0","pricing_plan_id":"free"},{"bike_id":"3362af25-67fb-47fb-a341-945f2e7e8abf","system_id":"levelo_inurba_marseille","lat":43.286593,"lon":5.363346,"is_reserved":false,"is_disabled":false,"rental_uris":{"android":"levelo://app?vid=3362af25-67fb-47fb-a341-945f2e7e8abf","ios":"levelo://app?vid=3362af25-67fb-47fb-a341-945f2e7e8abf"},"vehicle_type_id":"4","last_reported":1684875925,"current_range_meters":0,"station_id":"ce4bhah2rcd13ifvqej0","pricing_plan_id":"free"},{"bike_id":"70fe74c8-2580-4e8e-8f74-5bea4c0e210c","system_id":"levelo_inurba_marseille","lat":43.28658,"lon":5.3635,"is_reserved":false,"is_disabled":false,"rental_uris":{"android":"levelo://app?vid=70fe74c8-2580-4e8e-8f74-5bea4c0e210c","ios":"levelo://app?vid=70fe74c8-2580-4e8e-8f74-5bea4c0e210c"},"vehicle_type_id":"4","last_reported":1684875925,"current_range_meters":4800,"station_id":"ce4bhah2rcd13ifvqej0","pricing_plan_id":"free"},{"bike_id":"f903c3cc-29eb-4276-982b-545a16905b8e","system_id":"levelo_inurba_marseille","lat":43.295194,"lon":5.39397,"is_reserved":false,"is_disabled":false,"rental_uris":{"android":"levelo://app?vid=f903c3cc-29eb-4276-982b-545a16905b8e","ios":"levelo://app?vid=f903c3cc-29eb-4276-982b-545a16905b8e"},"vehicle_type_id":"4","last_reported":1684875925,"current_range_meters":1600,"station_id":"ce4bh292rcd13ifvqdf0","pricing_plan_id":"free"},{"bike_id":"e7eb36cb-42ee-4011-9f68-40f4e74c7f41","system_id":"levelo_inurba_marseille","lat":43.295194,"lon":5.39397,"is_reserved":false,"is_disabled":false,"rental_uris":{"android":"levelo://app?vid=e7eb36cb-42ee-4011-9f68-40f4e74c7f41","ios":"levelo://app?vid=e7eb36cb-42ee-4011-9f68-40f4e74c7f41"},"vehicle_type_id":"4","last_reported":1684875925,"current_range_meters":20800,"station_id":"ce4bh292rcd13ifvqdf0","pricing_plan_id":"free"},{"bike_id":"5cbad4ca-8a87-4c05-9272-3a4bbeac04a1","system_id":"levelo_inurba_marseille","lat":43.295194,"lon":5.39397,"is_reserved":false,"is_disabled":false,"rental_uris":{"android":"levelo://app?vid=5cbad4ca-8a87-4c05-9272-3a4bbeac04a1","ios":"levelo://app?vid=5cbad4ca-8a87-4c05-9272-3a4bbeac04a1"},"vehicle_type_id":"4","last_reported":1684875925,"current_range_meters":16800,"station_id":"ce4bh292rcd13ifvqdf0","pricing_plan_id":"free"},{"bike_id":"b23466db-046d-4f59-88b6-ebdc5cb24e88","system_id":"levelo_inurba_marseille","lat":43.295194,"lon":5.39397,"is_reserved":false,"is_disabled":false,"rental_uris":{"android":"levelo://app?vid=b23466db-046d-4f59-88b6-ebdc5cb24e88","ios":"levelo://app?vid=b23466db-046d-4f59-88b6-ebdc5cb24e88"},"vehicle_type_id":"4","last_reported":1684875925,"current_range_meters":0,"station_id":"ce4bh292rcd13ifvqdf0","pricing_plan_id":"free"},{"bike_id":"f43ebb5c-b258-469e-9e0c-c9f555a8855c","system_id":"levelo_inurba_marseille","lat":43.30258,"lon":5.40046,"is_reserved":false,"is_disabled":false,"rental_uris":{"android":"levelo://app?vid=f43ebb5c-b258-469e-9e0c-c9f555a8855c","ios":"levelo://app?vid=f43ebb5c-b258-469e-9e0c-c9f555a8855c"},"vehicle_type_id":"4","last_reported":1684875925,"current_range_meters":20400,"station_id":"ce4bgvh2rcd13ifvqcs0","pricing_plan_id":"free"},{"bike_id":"7318173a-2d98-4c42-ae79-ff14898807e1","system_id":"levelo_inurba_marseille","lat":43.295194,"lon":5.39397,"is_reserved":false,"is_disabled":false,"rental_uris":{"android":"levelo://app?vid=7318173a-2d98-4c42-ae79-ff14898807e1","ios":"levelo://app?vid=7318173a-2d98-4c42-ae79-ff14898807e1"},"vehicle_type_id":"4","last_reported":1684875925,"current_range_meters":3200,"station_id":"ce4bh292rcd13ifvqdf0","pricing_plan_id":"free"},{"bike_id":"976620aa-62d1-472a-8e97-c3e9342e2206","system_id":"levelo_inurba_marseille","lat":43.290336,"lon":5.386425,"is_reserved":false,"is_disabled":false,"rental_uris":{"android":"levelo://app?vid=976620aa-62d1-472a-8e97-c3e9342e2206","ios":"levelo://app?vid=976620aa-62d1-472a-8e97-c3e9342e2206"},"vehicle_type_id":"4","last_reported":1684875925,"current_range_meters":14000,"station_id":"ce4bh4p2rcd13ifvqe0g","pricing_plan_id":"free"},{"bike_id":"24a84fad-193d-49af-8542-22cc77d26778","system_id":"levelo_inurba_marseille","lat":43.290345,"lon":5.38646,"is_reserved":false,"is_disabled":false,"rental_uris":{"android":"levelo://app?vid=24a84fad-193d-49af-8542-22cc77d26778","ios":"levelo://app?vid=24a84fad-193d-49af-8542-22cc77d26778"},"vehicle_type_id":"4","last_reported":1684875925,"current_range_meters":28400,"station_id":"ce4bh4p2rcd13ifvqe0g","pricing_plan_id":"free"},{"bike_id":"1ef0a5e8-c2cb-4371-8591-18322e9de114","system_id":"levelo_inurba_marseille","lat":43.30255,"lon":5.40065,"is_reserved":false,"is_disabled":false,"rental_uris":{"android":"levelo://app?vid=1ef0a5e8-c2cb-4371-8591-18322e9de114","ios":"levelo://app?vid=1ef0a5e8-c2cb-4371-8591-18322e9de114"},"vehicle_type_id":"4","last_reported":1684875925,"current_range_meters":22400,"station_id":"ce4bgvh2rcd13ifvqcs0","pricing_plan_id":"free"},{"bike_id":"68855b71-ae00-4605-a3a8-f12886ec2de7","system_id":"levelo_inurba_marseille","lat":43.290336,"lon":5.386425,"is_reserved":false,"is_disabled":false,"rental_uris":{"android":"levelo://app?vid=68855b71-ae00-4605-a3a8-f12886ec2de7","ios":"levelo://app?vid=68855b71-ae00-4605-a3a8-f12886ec2de7"},"vehicle_type_id":"4","last_reported":1684875925,"current_range_meters":26000,"station_id":"ce4bh4p2rcd13ifvqe0g","pricing_plan_id":"free"},{"bike_id":"3f982f54-9617-490b-a340-c7ef3a5c9e85","system_id":"levelo_inurba_marseille","lat":43.290345,"lon":5.38646,"is_reserved":false,"is_disabled":false,"rental_uris":{"android":"levelo://app?vid=3f982f54-9617-490b-a340-c7ef3a5c9e85","ios":"levelo://app?vid=3f982f54-9617-490b-a340-c7ef3a5c9e85"},"vehicle_type_id":"4","last_reported":1684875925,"current_range_meters":18000,"station_id":"ce4bh4p2rcd13ifvqe0g","pricing_plan_id":"free"},{"bike_id":"fe9420fe-19ad-41cb-b0e0-a3199e478bd6","system_id":"levelo_inurba_marseille","lat":43.30264,"lon":5.40079,"is_reserved":false,"is_disabled":false,"rental_uris":{"android":"levelo://app?vid=fe9420fe-19ad-41cb-b0e0-a3199e478bd6","ios":"levelo://app?vid=fe9420fe-19ad-41cb-b0e0-a3199e478bd6"},"vehicle_type_id":"4","last_reported":1684875925,"current_range_meters":25600,"station_id":"ce4bgvh2rcd13ifvqcs0","pricing_plan_id":"free"},{"bike_id":"d7bb18c1-11cf-44bd-a074-3d8567e14bba","system_id":"levelo_inurba_marseille","lat":43.286039,"lon":5.370679,"is_reserved":false,"is_disabled":false,"rental_uris":{"android":"levelo://app?vid=d7bb18c1-11cf-44bd-a074-3d8567e14bba","ios":"levelo://app?vid=d7bb18c1-11cf-44bd-a074-3d8567e14bba"},"vehicle_type_id":"4","last_reported":1684875925,"current_range_meters":31600,"station_id":"ce4bht12rcd13ifvqi60","pricing_plan_id":"free"},{"bike_id":"27fe7851-4d49-4a82-adb8-01ed3ac9bfd2","system_id":"levelo_inurba_marseille","lat":43.286039,"lon":5.370679,"is_reserved":false,"is_disabled":false,"rental_uris":{"android":"levelo://app?vid=27fe7851-4d49-4a82-adb8-01ed3ac9bfd2","ios":"levelo://app?vid=27fe7851-4d49-4a82-adb8-01ed3ac9bfd2"},"vehicle_type_id":"4","last_reported":1684875925,"current_range_meters":28000,"station_id":"ce4bht12rcd13ifvqi60","pricing_plan_id":"free"},{"bike_id":"0dda87a3-a992-4dcc-ba58-e0b1af84287f","system_id":"levelo_inurba_marseille","lat":43.28607,"lon":5.37059,"is_reserved":false,"is_disabled":false,"rental_uris":{"android":"levelo://app?vid=0dda87a3-a992-4dcc-ba58-e0b1af84287f","ios":"levelo://app?vid=0dda87a3-a992-4dcc-ba58-e0b1af84287f"},"vehicle_type_id":"4","last_reported":1684875925,"current_range_meters":2400,"station_id":"ce4bht12rcd13ifvqi60","pricing_plan_id":"free"},{"bike_id":"d5cd7e1c-3a17-4951-8f4e-fa535f95af2d","system_id":"levelo_inurba_marseille","lat":43.286039,"lon":5.370679,"is_reserved":false,"is_disabled":false,"rental_uris":{"android":"levelo://app?vid=d5cd7e1c-3a17-4951-8f4e-fa535f95af2d","ios":"levelo://app?vid=d5cd7e1c-3a17-4951-8f4e-fa535f95af2d"},"vehicle_type_id":"4","last_reported":1684875925,"current_range_meters":29200,"station_id":"ce4bht12rcd13ifvqi60","pricing_plan_id":"free"},{"bike_id":"ba870e95-6087-4ad1-aa4d-0e0543a14106","system_id":"levelo_inurba_marseille","lat":43.287185,"lon":5.379373,"is_reserved":false,"is_disabled":false,"rental_uris":{"android":"levelo://app?vid=ba870e95-6087-4ad1-aa4d-0e0543a14106","ios":"levelo://app?vid=ba870e95-6087-4ad1-aa4d-0e0543a14106"},"vehicle_type_id":"4","last_reported":1684875925,"current_range_meters":18000,"station_id":"ce4bh9p2rcd13ifvqec0","pricing_plan_id":"free"},{"bike_id":"df33b3a4-f376-4743-8817-cf1221c21c34","system_id":"levelo_inurba_marseille","lat":43.287184,"lon":5.37937,"is_reserved":false,"is_disabled":false,"rental_uris":{"android":"levelo://app?vid=df33b3a4-f376-4743-8817-cf1221c21c34","ios":"levelo://app?vid=df33b3a4-f376-4743-8817-cf1221c21c34"},"vehicle_type_id":"4","last_reported":1684875925,"current_range_meters":27600,"station_id":"ce4bh9p2rcd13ifvqec0","pricing_plan_id":"free"},{"bike_id":"2b98a86c-82f6-4f76-bc37-de03cc56a2bb","system_id":"levelo_inurba_marseille","lat":43.287184,"lon":5.37937,"is_reserved":false,"is_disabled":false,"rental_uris":{"android":"levelo://app?vid=2b98a86c-82f6-4f76-bc37-de03cc56a2bb","ios":"levelo://app?vid=2b98a86c-82f6-4f76-bc37-de03cc56a2bb"},"vehicle_type_id":"4","last_reported":1684875925,"current_range_meters":29600,"station_id":"ce4bh9p2rcd13ifvqec0","pricing_plan_id":"free"},{"bike_id":"e77ab611-f11b-4d19-9df3-aee47e581b00","system_id":"levelo_inurba_marseille","lat":43.287184,"lon":5.37937,"is_reserved":false,"is_disabled":false,"rental_uris":{"android":"levelo://app?vid=e77ab611-f11b-4d19-9df3-aee47e581b00","ios":"levelo://app?vid=e77ab611-f11b-4d19-9df3-aee47e581b00"},"vehicle_type_id":"4","last_reported":1684875925,"current_range_meters":400,"station_id":"ce4bh9p2rcd13ifvqec0","pricing_plan_id":"free"},{"bike_id":"41360807-d2f4-4485-8127-d5dd1ba58621","system_id":"levelo_inurba_marseille","lat":43.287184,"lon":5.37937,"is_reserved":false,"is_disabled":false,"rental_uris":{"android":"levelo://app?vid=41360807-d2f4-4485-8127-d5dd1ba58621","ios":"levelo://app?vid=41360807-d2f4-4485-8127-d5dd1ba58621"},"vehicle_type_id":"4","last_reported":1684875925,"current_range_meters":0,"station_id":"ce4bh9p2rcd13ifvqec0","pricing_plan_id":"free"},{"bike_id":"76121621-4191-47a6-a793-670335ead76e","system_id":"levelo_inurba_marseille","lat":43.287185,"lon":5.379373,"is_reserved":false,"is_disabled":false,"rental_uris":{"android":"levelo://app?vid=76121621-4191-47a6-a793-670335ead76e","ios":"levelo://app?vid=76121621-4191-47a6-a793-670335ead76e"},"vehicle_type_id":"4","last_reported":1684875925,"current_range_meters":5200,"station_id":"ce4bh9p2rcd13ifvqec0","pricing_plan_id":"free"},{"bike_id":"3040fa13-36c4-4b1b-a9ab-734c6e85cab0","system_id":"levelo_inurba_marseille","lat":43.287185,"lon":5.379373,"is_reserved":false,"is_disabled":false,"rental_uris":{"android":"levelo://app?vid=3040fa13-36c4-4b1b-a9ab-734c6e85cab0","ios":"levelo://app?vid=3040fa13-36c4-4b1b-a9ab-734c6e85cab0"},"vehicle_type_id":"4","last_reported":1684875925,"current_range_meters":14800,"station_id":"ce4bh9p2rcd13ifvqec0","pricing_plan_id":"free"},{"bike_id":"86182440-92e6-4245-9d35-72eb252c6877","system_id":"levelo_inurba_marseille","lat":43.287184,"lon":5.37937,"is_reserved":false,"is_disabled":false,"rental_uris":{"android":"levelo://app?vid=86182440-92e6-4245-9d35-72eb252c6877","ios":"levelo://app?vid=86182440-92e6-4245-9d35-72eb252c6877"},"vehicle_type_id":"4","last_reported":1684875925,"current_range_meters":14000,"station_id":"ce4bh9p2rcd13ifvqec0","pricing_plan_id":"free"},{"bike_id":"b9b26779-1976-4328-8e58-e93776ea1f1a","system_id":"levelo_inurba_marseille","lat":43.287185,"lon":5.379373,"is_reserved":false,"is_disabled":false,"rental_uris":{"android":"levelo://app?vid=b9b26779-1976-4328-8e58-e93776ea1f1a","ios":"levelo://app?vid=b9b26779-1976-4328-8e58-e93776ea1f1a"},"vehicle_type_id":"4","last_reported":1684875925,"current_range_meters":0,"station_id":"ce4bh9p2rcd13ifvqec0","pricing_plan_id":"free"},{"bike_id":"62d5ded5-8dea-41ee-8574-dc187e707a81","system_id":"levelo_inurba_marseille","lat":43.28795,"lon":5.38273,"is_reserved":false,"is_disabled":false,"rental_uris":{"android":"levelo://app?vid=62d5ded5-8dea-41ee-8574-dc187e707a81","ios":"levelo://app?vid=62d5ded5-8dea-41ee-8574-dc187e707a81"},"vehicle_type_id":"4","last_reported":1684875925,"current_range_meters":7200,"station_id":"","pricing_plan_id":"free"},{"bike_id":"e83ab57c-b3ff-4635-8870-8881663095a2","system_id":"levelo_inurba_marseille","lat":43.316517,"lon":5.404375,"is_reserved":false,"is_disabled":false,"rental_uris":{"android":"levelo://app?vid=e83ab57c-b3ff-4635-8870-8881663095a2","ios":"levelo://app?vid=e83ab57c-b3ff-4635-8870-8881663095a2"},"vehicle_type_id":"4","last_reported":1684875925,"current_range_meters":17200,"station_id":"ce4bh012rcd13ifvqd00","pricing_plan_id":"free"},{"bike_id":"f6bb3437-b286-4c33-915b-1c49035622a8","system_id":"levelo_inurba_marseille","lat":43.31644,"lon":5.40434,"is_reserved":false,"is_disabled":false,"rental_uris":{"android":"levelo://app?vid=f6bb3437-b286-4c33-915b-1c49035622a8","ios":"levelo://app?vid=f6bb3437-b286-4c33-915b-1c49035622a8"},"vehicle_type_id":"4","last_reported":1684875925,"current_range_meters":25600,"station_id":"ce4bh012rcd13ifvqd00","pricing_plan_id":"free"},{"bike_id":"9bca0271-d2ec-49ba-a6d9-a406c9cdab05","system_id":"levelo_inurba_marseille","lat":43.316517,"lon":5.404375,"is_reserved":false,"is_disabled":false,"rental_uris":{"android":"levelo://app?vid=9bca0271-d2ec-49ba-a6d9-a406c9cdab05","ios":"levelo://app?vid=9bca0271-d2ec-49ba-a6d9-a406c9cdab05"},"vehicle_type_id":"4","last_reported":1684875925,"current_range_meters":4400,"station_id":"ce4bh012rcd13ifvqd00","pricing_plan_id":"free"},{"bike_id":"cb8e2cf5-8da3-457b-8d07-99f139cd3802","system_id":"levelo_inurba_marseille","lat":43.316517,"lon":5.404375,"is_reserved":false,"is_disabled":false,"rental_uris":{"android":"levelo://app?vid=cb8e2cf5-8da3-457b-8d07-99f139cd3802","ios":"levelo://app?vid=cb8e2cf5-8da3-457b-8d07-99f139cd3802"},"vehicle_type_id":"4","last_reported":1684875925,"current_range_meters":10800,"station_id":"ce4bh012rcd13ifvqd00","pricing_plan_id":"free"},{"bike_id":"3ce28237-c7d3-4cf7-a09d-fcdbb61dd457","system_id":"levelo_inurba_marseille","lat":43.316517,"lon":5.404375,"is_reserved":false,"is_disabled":false,"rental_uris":{"android":"levelo://app?vid=3ce28237-c7d3-4cf7-a09d-fcdbb61dd457","ios":"levelo://app?vid=3ce28237-c7d3-4cf7-a09d-fcdbb61dd457"},"vehicle_type_id":"4","last_reported":1684875925,"current_range_meters":0,"station_id":"ce4bh012rcd13ifvqd00","pricing_plan_id":"free"},{"bike_id":"d2626e12-92ef-4e8b-98f7-f7f7d8432194","system_id":"levelo_inurba_marseille","lat":43.29194,"lon":5.39313,"is_reserved":false,"is_disabled":false,"rental_uris":{"android":"levelo://app?vid=d2626e12-92ef-4e8b-98f7-f7f7d8432194","ios":"levelo://app?vid=d2626e12-92ef-4e8b-98f7-f7f7d8432194"},"vehicle_type_id":"4","last_reported":1684875925,"current_range_meters":2800,"station_id":"ce4bh192rcd13ifvqdd0","pricing_plan_id":"free"},{"bike_id":"fbf5927b-921b-4f1f-9c4e-64b4bea86076","system_id":"levelo_inurba_marseille","lat":43.291994,"lon":5.392907,"is_reserved":false,"is_disabled":false,"rental_uris":{"android":"levelo://app?vid=fbf5927b-921b-4f1f-9c4e-64b4bea86076","ios":"levelo://app?vid=fbf5927b-921b-4f1f-9c4e-64b4bea86076"},"vehicle_type_id":"4","last_reported":1684875925,"current_range_meters":27200,"station_id":"ce4bh192rcd13ifvqdd0","pricing_plan_id":"free"},{"bike_id":"91baa219-7894-4665-a987-b982ab33a75b","system_id":"levelo_inurba_marseille","lat":43.291994,"lon":5.392907,"is_reserved":false,"is_disabled":false,"rental_uris":{"android":"levelo://app?vid=91baa219-7894-4665-a987-b982ab33a75b","ios":"levelo://app?vid=91baa219-7894-4665-a987-b982ab33a75b"},"vehicle_type_id":"4","last_reported":1684875925,"current_range_meters":2800,"station_id":"ce4bh192rcd13ifvqdd0","pricing_plan_id":"free"},{"bike_id":"a0c19ad0-e657-4cfd-a81b-2a096e6fac1b","system_id":"levelo_inurba_marseille","lat":43.28464,"lon":5.35898,"is_reserved":false,"is_disabled":false,"rental_uris":{"android":"levelo://app?vid=a0c19ad0-e657-4cfd-a81b-2a096e6fac1b","ios":"levelo://app?vid=a0c19ad0-e657-4cfd-a81b-2a096e6fac1b"},"vehicle_type_id":"4","last_reported":1684875925,"current_range_meters":12000,"station_id":"","pricing_plan_id":"free"},{"bike_id":"8610fff9-e716-4928-a90b-3c5730670c79","system_id":"levelo_inurba_marseille","lat":43.284534,"lon":5.358662,"is_reserved":false,"is_disabled":false,"rental_uris":{"android":"levelo://app?vid=8610fff9-e716-4928-a90b-3c5730670c79","ios":"levelo://app?vid=8610fff9-e716-4928-a90b-3c5730670c79"},"vehicle_type_id":"4","last_reported":1684875925,"current_range_meters":1200,"station_id":"ce4bhah2rcd13ifvqei0","pricing_plan_id":"free"},{"bike_id":"59e35aed-2436-4ff7-a3f6-cb7e03bdb2e5","system_id":"levelo_inurba_marseille","lat":43.28462,"lon":5.35893,"is_reserved":false,"is_disabled":false,"rental_uris":{"android":"levelo://app?vid=59e35aed-2436-4ff7-a3f6-cb7e03bdb2e5","ios":"levelo://app?vid=59e35aed-2436-4ff7-a3f6-cb7e03bdb2e5"},"vehicle_type_id":"4","last_reported":1684875925,"current_range_meters":0,"station_id":"ce4bhah2rcd13ifvqei0","pricing_plan_id":"free"},{"bike_id":"1e2d7091-9927-4f62-9087-bfb3d6cdce85","system_id":"levelo_inurba_marseille","lat":43.284534,"lon":5.358662,"is_reserved":false,"is_disabled":false,"rental_uris":{"android":"levelo://app?vid=1e2d7091-9927-4f62-9087-bfb3d6cdce85","ios":"levelo://app?vid=1e2d7091-9927-4f62-9087-bfb3d6cdce85"},"vehicle_type_id":"4","last_reported":1684875925,"current_range_meters":16400,"station_id":"ce4bhah2rcd13ifvqei0","pricing_plan_id":"free"},{"bike_id":"3415e769-f57a-450d-9811-c59e759d8d6c","system_id":"levelo_inurba_marseille","lat":43.284534,"lon":5.358662,"is_reserved":false,"is_disabled":false,"rental_uris":{"android":"levelo://app?vid=3415e769-f57a-450d-9811-c59e759d8d6c","ios":"levelo://app?vid=3415e769-f57a-450d-9811-c59e759d8d6c"},"vehicle_type_id":"4","last_reported":1684875925,"current_range_meters":0,"station_id":"ce4bhah2rcd13ifvqei0","pricing_plan_id":"free"},{"bike_id":"3ab430b9-35e4-440a-9289-df17dedebaf0","system_id":"levelo_inurba_marseille","lat":43.284534,"lon":5.358662,"is_reserved":false,"is_disabled":false,"rental_uris":{"android":"levelo://app?vid=3ab430b9-35e4-440a-9289-df17dedebaf0","ios":"levelo://app?vid=3ab430b9-35e4-440a-9289-df17dedebaf0"},"vehicle_type_id":"4","last_reported":1684875925,"current_range_meters":26000,"station_id":"ce4bhah2rcd13ifvqei0","pricing_plan_id":"free"},{"bike_id":"246310d4-111c-466a-a242-a80b7e0325dd","system_id":"levelo_inurba_marseille","lat":43.284534,"lon":5.358662,"is_reserved":false,"is_disabled":false,"rental_uris":{"android":"levelo://app?vid=246310d4-111c-466a-a242-a80b7e0325dd","ios":"levelo://app?vid=246310d4-111c-466a-a242-a80b7e0325dd"},"vehicle_type_id":"4","last_reported":1684875925,"current_range_meters":25600,"station_id":"ce4bhah2rcd13ifvqei0","pricing_plan_id":"free"},{"bike_id":"218976a2-047c-46c9-b969-9a9fb079e238","system_id":"levelo_inurba_marseille","lat":43.284534,"lon":5.358662,"is_reserved":false,"is_disabled":false,"rental_uris":{"android":"levelo://app?vid=218976a2-047c-46c9-b969-9a9fb079e238","ios":"levelo://app?vid=218976a2-047c-46c9-b969-9a9fb079e238"},"vehicle_type_id":"4","last_reported":1684875925,"current_range_meters":25600,"station_id":"ce4bhah2rcd13ifvqei0","pricing_plan_id":"free"},{"bike_id":"1919365d-fbbc-493a-b24e-5fd61202b101","system_id":"levelo_inurba_marseille","lat":43.284534,"lon":5.358662,"is_reserved":false,"is_disabled":false,"rental_uris":{"android":"levelo://app?vid=1919365d-fbbc-493a-b24e-5fd61202b101","ios":"levelo://app?vid=1919365d-fbbc-493a-b24e-5fd61202b101"},"vehicle_type_id":"4","last_reported":1684875925,"current_range_meters":0,"station_id":"ce4bhah2rcd13ifvqei0","pricing_plan_id":"free"},{"bike_id":"f0715a0b-c17b-4ca4-92bf-6e38cc839bfa","system_id":"levelo_inurba_marseille","lat":43.284534,"lon":5.358662,"is_reserved":false,"is_disabled":false,"rental_uris":{"android":"levelo://app?vid=f0715a0b-c17b-4ca4-92bf-6e38cc839bfa","ios":"levelo://app?vid=f0715a0b-c17b-4ca4-92bf-6e38cc839bfa"},"vehicle_type_id":"4","last_reported":1684875925,"current_range_meters":0,"station_id":"ce4bhah2rcd13ifvqei0","pricing_plan_id":"free"},{"bike_id":"ac4b2d97-6056-4503-b313-5d6ea8837e76","system_id":"levelo_inurba_marseille","lat":43.284534,"lon":5.358662,"is_reserved":false,"is_disabled":false,"rental_uris":{"android":"levelo://app?vid=ac4b2d97-6056-4503-b313-5d6ea8837e76","ios":"levelo://app?vid=ac4b2d97-6056-4503-b313-5d6ea8837e76"},"vehicle_type_id":"4","last_reported":1684875925,"current_range_meters":14800,"station_id":"ce4bhah2rcd13ifvqei0","pricing_plan_id":"free"},{"bike_id":"0c741552-92a1-4218-9bc1-2717ff546887","system_id":"levelo_inurba_marseille","lat":43.284534,"lon":5.358662,"is_reserved":false,"is_disabled":false,"rental_uris":{"android":"levelo://app?vid=0c741552-92a1-4218-9bc1-2717ff546887","ios":"levelo://app?vid=0c741552-92a1-4218-9bc1-2717ff546887"},"vehicle_type_id":"4","last_reported":1684875925,"current_range_meters":0,"station_id":"ce4bhah2rcd13ifvqei0","pricing_plan_id":"free"},{"bike_id":"4c2785e9-83b7-46c0-90a8-c9d272e8556e","system_id":"levelo_inurba_marseille","lat":43.284534,"lon":5.358662,"is_reserved":false,"is_disabled":false,"rental_uris":{"android":"levelo://app?vid=4c2785e9-83b7-46c0-90a8-c9d272e8556e","ios":"levelo://app?vid=4c2785e9-83b7-46c0-90a8-c9d272e8556e"},"vehicle_type_id":"4","last_reported":1684875925,"current_range_meters":13600,"station_id":"ce4bhah2rcd13ifvqei0","pricing_plan_id":"free"},{"bike_id":"cbde816a-eb28-46a5-83be-89fae6918151","system_id":"levelo_inurba_marseille","lat":43.284534,"lon":5.358662,"is_reserved":false,"is_disabled":false,"rental_uris":{"android":"levelo://app?vid=cbde816a-eb28-46a5-83be-89fae6918151","ios":"levelo://app?vid=cbde816a-eb28-46a5-83be-89fae6918151"},"vehicle_type_id":"4","last_reported":1684875925,"current_range_meters":27600,"station_id":"ce4bhah2rcd13ifvqei0","pricing_plan_id":"free"},{"bike_id":"da5bad9a-7da4-44f5-b7cc-17e8365b3e35","system_id":"levelo_inurba_marseille","lat":43.284534,"lon":5.358662,"is_reserved":false,"is_disabled":false,"rental_uris":{"android":"levelo://app?vid=da5bad9a-7da4-44f5-b7cc-17e8365b3e35","ios":"levelo://app?vid=da5bad9a-7da4-44f5-b7cc-17e8365b3e35"},"vehicle_type_id":"4","last_reported":1684875925,"current_range_meters":16000,"station_id":"ce4bhah2rcd13ifvqei0","pricing_plan_id":"free"},{"bike_id":"154056b9-33f7-4a84-98e1-b1ecf7fa098e","system_id":"levelo_inurba_marseille","lat":43.284534,"lon":5.358662,"is_reserved":false,"is_disabled":false,"rental_uris":{"android":"levelo://app?vid=154056b9-33f7-4a84-98e1-b1ecf7fa098e","ios":"levelo://app?vid=154056b9-33f7-4a84-98e1-b1ecf7fa098e"},"vehicle_type_id":"4","last_reported":1684875925,"current_range_meters":10800,"station_id":"ce4bhah2rcd13ifvqei0","pricing_plan_id":"free"},{"bike_id":"1b95c390-f78b-4c4d-b02a-107b3d641731","system_id":"levelo_inurba_marseille","lat":43.28451,"lon":5.35889,"is_reserved":false,"is_disabled":false,"rental_uris":{"android":"levelo://app?vid=1b95c390-f78b-4c4d-b02a-107b3d641731","ios":"levelo://app?vid=1b95c390-f78b-4c4d-b02a-107b3d641731"},"vehicle_type_id":"4","last_reported":1684875925,"current_range_meters":20400,"station_id":"ce4bhah2rcd13ifvqei0","pricing_plan_id":"free"},{"bike_id":"b38f96ad-d3ac-44e1-9b51-82cf52bf7778","system_id":"levelo_inurba_marseille","lat":43.284534,"lon":5.358662,"is_reserved":false,"is_disabled":false,"rental_uris":{"android":"levelo://app?vid=b38f96ad-d3ac-44e1-9b51-82cf52bf7778","ios":"levelo://app?vid=b38f96ad-d3ac-44e1-9b51-82cf52bf7778"},"vehicle_type_id":"4","last_reported":1684875925,"current_range_meters":17200,"station_id":"ce4bhah2rcd13ifvqei0","pricing_plan_id":"free"},{"bike_id":"c54e99c2-d9e8-4a32-abb0-e74299061968","system_id":"levelo_inurba_marseille","lat":43.284534,"lon":5.358662,"is_reserved":false,"is_disabled":false,"rental_uris":{"android":"levelo://app?vid=c54e99c2-d9e8-4a32-abb0-e74299061968","ios":"levelo://app?vid=c54e99c2-d9e8-4a32-abb0-e74299061968"},"vehicle_type_id":"4","last_reported":1684875925,"current_range_meters":0,"station_id":"ce4bhah2rcd13ifvqei0","pricing_plan_id":"free"},{"bike_id":"54df7ffb-7202-4fdb-9eb4-4c01031807e2","system_id":"levelo_inurba_marseille","lat":43.284534,"lon":5.358662,"is_reserved":false,"is_disabled":false,"rental_uris":{"android":"levelo://app?vid=54df7ffb-7202-4fdb-9eb4-4c01031807e2","ios":"levelo://app?vid=54df7ffb-7202-4fdb-9eb4-4c01031807e2"},"vehicle_type_id":"4","last_reported":1684875925,"current_range_meters":21200,"station_id":"ce4bhah2rcd13ifvqei0","pricing_plan_id":"free"},{"bike_id":"3f2d1e4b-b301-45c2-8c99-be1bae6f5d82","system_id":"levelo_inurba_marseille","lat":43.284534,"lon":5.358662,"is_reserved":false,"is_disabled":false,"rental_uris":{"android":"levelo://app?vid=3f2d1e4b-b301-45c2-8c99-be1bae6f5d82","ios":"levelo://app?vid=3f2d1e4b-b301-45c2-8c99-be1bae6f5d82"},"vehicle_type_id":"4","last_reported":1684875925,"current_range_meters":18400,"station_id":"ce4bhah2rcd13ifvqei0","pricing_plan_id":"free"},{"bike_id":"b30fecd7-0390-4300-8b2a-d8089641a0cc","system_id":"levelo_inurba_marseille","lat":43.284534,"lon":5.358662,"is_reserved":false,"is_disabled":false,"rental_uris":{"android":"levelo://app?vid=b30fecd7-0390-4300-8b2a-d8089641a0cc","ios":"levelo://app?vid=b30fecd7-0390-4300-8b2a-d8089641a0cc"},"vehicle_type_id":"4","last_reported":1684875925,"current_range_meters":15600,"station_id":"ce4bhah2rcd13ifvqei0","pricing_plan_id":"free"},{"bike_id":"ae4a9f70-99d5-4d86-8781-4cc643fdb0cb","system_id":"levelo_inurba_marseille","lat":43.284534,"lon":5.358662,"is_reserved":false,"is_disabled":false,"rental_uris":{"android":"levelo://app?vid=ae4a9f70-99d5-4d86-8781-4cc643fdb0cb","ios":"levelo://app?vid=ae4a9f70-99d5-4d86-8781-4cc643fdb0cb"},"vehicle_type_id":"4","last_reported":1684875925,"current_range_meters":19200,"station_id":"ce4bhah2rcd13ifvqei0","pricing_plan_id":"free"},{"bike_id":"24a9f437-3f10-4ec5-811e-48a2ceb23afc","system_id":"levelo_inurba_marseille","lat":43.284534,"lon":5.358662,"is_reserved":false,"is_disabled":false,"rental_uris":{"android":"levelo://app?vid=24a9f437-3f10-4ec5-811e-48a2ceb23afc","ios":"levelo://app?vid=24a9f437-3f10-4ec5-811e-48a2ceb23afc"},"vehicle_type_id":"4","last_reported":1684875925,"current_range_meters":17200,"station_id":"ce4bhah2rcd13ifvqei0","pricing_plan_id":"free"},{"bike_id":"d543ca0d-8f0f-41dc-9e91-f701dfec7883","system_id":"levelo_inurba_marseille","lat":43.284534,"lon":5.358662,"is_reserved":false,"is_disabled":false,"rental_uris":{"android":"levelo://app?vid=d543ca0d-8f0f-41dc-9e91-f701dfec7883","ios":"levelo://app?vid=d543ca0d-8f0f-41dc-9e91-f701dfec7883"},"vehicle_type_id":"4","last_reported":1684875925,"current_range_meters":6400,"station_id":"ce4bhah2rcd13ifvqei0","pricing_plan_id":"free"},{"bike_id":"6cae2970-5f70-4528-8712-86f221272f8c","system_id":"levelo_inurba_marseille","lat":43.28624,"lon":5.35106,"is_reserved":false,"is_disabled":false,"rental_uris":{"android":"levelo://app?vid=6cae2970-5f70-4528-8712-86f221272f8c","ios":"levelo://app?vid=6cae2970-5f70-4528-8712-86f221272f8c"},"vehicle_type_id":"4","last_reported":1684875925,"current_range_meters":23200,"station_id":"","pricing_plan_id":"free"},{"bike_id":"21c4aa35-8605-4cfb-aa9b-636ec493fc46","system_id":"levelo_inurba_marseille","lat":43.28619,"lon":5.35102,"is_reserved":false,"is_disabled":false,"rental_uris":{"android":"levelo://app?vid=21c4aa35-8605-4cfb-aa9b-636ec493fc46","ios":"levelo://app?vid=21c4aa35-8605-4cfb-aa9b-636ec493fc46"},"vehicle_type_id":"4","last_reported":1684875925,"current_range_meters":7200,"station_id":"","pricing_plan_id":"free"},{"bike_id":"934b0bcb-e53f-498c-852a-306378e848e5","system_id":"levelo_inurba_marseille","lat":43.28618,"lon":5.35103,"is_reserved":false,"is_disabled":false,"rental_uris":{"android":"levelo://app?vid=934b0bcb-e53f-498c-852a-306378e848e5","ios":"levelo://app?vid=934b0bcb-e53f-498c-852a-306378e848e5"},"vehicle_type_id":"4","last_reported":1684875925,"current_range_meters":22800,"station_id":"","pricing_plan_id":"free"},{"bike_id":"c550d9ed-d1ba-4319-9132-9452267f20c0","system_id":"levelo_inurba_marseille","lat":43.28618,"lon":5.351,"is_reserved":false,"is_disabled":false,"rental_uris":{"android":"levelo://app?vid=c550d9ed-d1ba-4319-9132-9452267f20c0","ios":"levelo://app?vid=c550d9ed-d1ba-4319-9132-9452267f20c0"},"vehicle_type_id":"4","last_reported":1684875925,"current_range_meters":14000,"station_id":"","pricing_plan_id":"free"},{"bike_id":"295325ae-6f7a-42db-b321-2ae507de60de","system_id":"levelo_inurba_marseille","lat":43.28612,"lon":5.35111,"is_reserved":false,"is_disabled":false,"rental_uris":{"android":"levelo://app?vid=295325ae-6f7a-42db-b321-2ae507de60de","ios":"levelo://app?vid=295325ae-6f7a-42db-b321-2ae507de60de"},"vehicle_type_id":"4","last_reported":1684875925,"current_range_meters":14000,"station_id":"","pricing_plan_id":"free"},{"bike_id":"d7cccc2e-b6ed-4197-b408-7c608ee4ccb8","system_id":"levelo_inurba_marseille","lat":43.28612,"lon":5.35093,"is_reserved":false,"is_disabled":false,"rental_uris":{"android":"levelo://app?vid=d7cccc2e-b6ed-4197-b408-7c608ee4ccb8","ios":"levelo://app?vid=d7cccc2e-b6ed-4197-b408-7c608ee4ccb8"},"vehicle_type_id":"4","last_reported":1684875925,"current_range_meters":4400,"station_id":"","pricing_plan_id":"free"},{"bike_id":"a927767f-3ef3-4c16-ab6f-c388a42cbab5","system_id":"levelo_inurba_marseille","lat":43.295713,"lon":5.399639,"is_reserved":false,"is_disabled":false,"rental_uris":{"android":"levelo://app?vid=a927767f-3ef3-4c16-ab6f-c388a42cbab5","ios":"levelo://app?vid=a927767f-3ef3-4c16-ab6f-c388a42cbab5"},"vehicle_type_id":"4","last_reported":1684875925,"current_range_meters":31600,"station_id":"ce4bh312rcd13ifvqdj0","pricing_plan_id":"free"},{"bike_id":"daeb16e9-127b-45ce-8737-68eb72aedba5","system_id":"levelo_inurba_marseille","lat":43.295713,"lon":5.399639,"is_reserved":false,"is_disabled":false,"rental_uris":{"android":"levelo://app?vid=daeb16e9-127b-45ce-8737-68eb72aedba5","ios":"levelo://app?vid=daeb16e9-127b-45ce-8737-68eb72aedba5"},"vehicle_type_id":"4","last_reported":1684875925,"current_range_meters":24000,"station_id":"ce4bh312rcd13ifvqdj0","pricing_plan_id":"free"},{"bike_id":"6e91730b-7fd6-4b3b-9620-5486584ec650","system_id":"levelo_inurba_marseille","lat":43.295713,"lon":5.399639,"is_reserved":false,"is_disabled":false,"rental_uris":{"android":"levelo://app?vid=6e91730b-7fd6-4b3b-9620-5486584ec650","ios":"levelo://app?vid=6e91730b-7fd6-4b3b-9620-5486584ec650"},"vehicle_type_id":"4","last_reported":1684875925,"current_range_meters":26000,"station_id":"ce4bh312rcd13ifvqdj0","pricing_plan_id":"free"},{"bike_id":"3081ea13-8376-4bab-8daf-aeb68e9025fa","system_id":"levelo_inurba_marseille","lat":43.295713,"lon":5.399639,"is_reserved":false,"is_disabled":false,"rental_uris":{"android":"levelo://app?vid=3081ea13-8376-4bab-8daf-aeb68e9025fa","ios":"levelo://app?vid=3081ea13-8376-4bab-8daf-aeb68e9025fa"},"vehicle_type_id":"4","last_reported":1684875925,"current_range_meters":24400,"station_id":"ce4bh312rcd13ifvqdj0","pricing_plan_id":"free"},{"bike_id":"a803f623-a9eb-4abf-aef8-73938445a9f3","system_id":"levelo_inurba_marseille","lat":43.288501,"lon":5.393087,"is_reserved":false,"is_disabled":false,"rental_uris":{"android":"levelo://app?vid=a803f623-a9eb-4abf-aef8-73938445a9f3","ios":"levelo://app?vid=a803f623-a9eb-4abf-aef8-73938445a9f3"},"vehicle_type_id":"4","last_reported":1684875925,"current_range_meters":21200,"station_id":"ce4bh2p2rcd13ifvqdi0","pricing_plan_id":"free"},