{"last_updated":1729862254,"ttl":60,"version":"2.2","data":{"bikes":[{"bike_id":"f0e60227-485c-4325-a605-4b3e5abc339d","system_id":"levelo_inurba_marseille","lat":43.31229,"lon":5.36863,"is_reserved":false,"is_disabled":false,"rental_uris":{"android":"levelo://app?vid=f0e60227-485c-4325-a605-4b3e5abc339d","ios":"levelo://app?vid=f0e60227-485c-4325-a605-4b3e5abc339d"},"vehicle_type_id":"4","last_reported":1729862255,"current_range_meters":40000,"station_id":"ce4bgl92rcd13ifvqbq0","pricing_plan_id":"cebpf4jnsgd1na2vs0mg"},{"bike_id":"053ab839-60eb-456b-8f0c-cf00d9b78a7d","system_id":"levelo_inurba_marseille","lat":43.32544,"lon":5.41431,"is_reserved":false,"is_disabled":false,"rental_uris":{"android":"levelo://app?vid=053ab839-60eb-456b-8f0c-cf00d9b78a7d","ios":"levelo://app?vid=053ab839-60eb-456b-8f0c-cf00d9b78a7d"},"vehicle_type_id":"4","last_reported":1729862255,"current_range_meters":8400,"station_id":"ce4bhq12rcd13ifvqhhg","pricing_plan_id":"cebpf4jnsgd1na2vs0mg"},{"bike_id":"be84d423-c83a-4290-9bd5-fb408583b803","system_id":"levelo_inurba_marseille","lat":43.30582,"lon":5.39352,"is_reserved":false,"is_disabled":false,"rental_uris":{"android":"levelo://app?vid=be84d423-c83a-4290-9bd5-fb408583b803","ios":"levelo://app?vid=be84d423-c83a-4290-9bd5-fb408583b803"},"vehicle_type_id":"4","last_reported":1729862255,"current_range_meters":38400,"station_id":"ce4bh0p2rcd13ifvqd80","pricing_plan_id":"cebpf4jnsgd1na2vs0mg"},{"bike_id":"cbe4f01c-d712-4ae1-9788-309aa511b298","system_id":"levelo_inurba_marseille","lat":43.28971,"lon":5.37834,"is_reserved":false,"is_disabled":false,"rental_uris":{"android":"levelo://app?vid=cbe4f01c-d712-4ae1-9788-309aa511b298","ios":"levelo://app?vid=cbe4f01c-d712-4ae1-9788-309aa511b298"},"vehicle_type_id":"4","last_reported":1729862255,"current_range_meters":32000,"station_id":"ce4bh9p2rcd13ifvqed0","pricing_plan_id":"cebpf4jnsgd1na2vs0mg"},{"bike_id":"65ea6052-c3bf-48e1-87bf-af9b6259ddfa","system_id":"levelo_inurba_marseille","lat":43.28417,"lon":5.34981,"is_reserved":false,"is_disabled":false,"rental_uris":{"android":"levelo://app?vid=65ea6052-c3bf-48e1-87bf-af9b6259ddfa","ios":"levelo://app?vid=65ea6052-c3bf-48e1-87bf-af9b6259ddfa"},"vehicle_type_id":"4","last_reported":1729862255,"current_range_meters":25600,"station_id":"ce4bhbh2rcd13ifvqepg","pricing_plan_id":"cebpf4jnsgd1na2vs0mg"},{"bike_id":"647e4b8b-d858-4ae0-9eb9-4cdb24b0d921","system_id":"levelo_inurba_marseille","lat":43.27982,"lon":5.38736,"is_reserved":false,"is_disabled":false,"rental_uris":{"android":"levelo://app?vid=647e4b8b-d858-4ae0-9eb9-4cdb24b0d921","ios":"levelo://app?vid=647e4b8b-d858-4ae0-9eb9-4cdb24b0d921"},"vehicle_type_id":"4","last_reported":1729862255,"current_range_meters":25200,"station_id":"ce4bhg12rcd13ifvqf80","pricing_plan_id":"cebpf4jnsgd1na2vs0mg"},{"bike_id":"7790acab-bfaa-4780-b671-4812f82027a0","system_id":"levelo_inurba_marseille","lat":43.2907,"lon":5.37162,"is_reserved":false,"is_disabled":false,"rental_uris":{"android":"levelo://app?vid=7790acab-bfaa-4780-b671-4812f82027a0","ios":"levelo://app?vid=7790acab-bfaa-4780-b671-4812f82027a0"},"vehicle_type_id":"4","last_reported":1729862255,"current_range_meters":31200,"station_id":"ce4bh5p2rcd13ifvqe4g","pricing_plan_id":"cebpf4jnsgd1na2vs0mg"},{"bike_id":"ee3bdc13-35e1-4dcf-8527-ea2e0c747f25","system_id":"levelo_inurba_marseille","lat":43.28484,"lon":5.38549,"is_reserved":false,"is_disabled":false,"rental_uris":{"android":"levelo://app?vid=ee3bdc13-35e1-4dcf-8527-ea2e0c747f25","ios":"levelo://app?vid=ee3bdc13-35e1-4dcf-8527-ea2e0c747f25"},"vehicle_type_id":"4","last_reported":1729862255,"current_range_meters":24800,"station_id":"ce4bh8p2rcd13ifvqeb0","pricing_plan_id":"cebpf4jnsgd1na2vs0mg"},{"bike_id":"17cc3263-8d87-4e65-91ba-1ec1f501875b","system_id":"levelo_inurba_marseille","lat":43.29846,"lon":5.36276,"is_reserved":false,"is_disabled":false,"rental_uris":{"android":"levelo://app?vid=17cc3263-8d87-4e65-91ba-1ec1f501875b","ios":"levelo://app?vid=17cc3263-8d87-4e65-91ba-1ec1f501875b"},"vehicle_type_id":"4","last_reported":1729862255,"current_range_meters":38400,"station_id":"ce4bgpp2rcd13ifvqc3g","pricing_plan_id":"cebpf4jnsgd1na2vs0mg"},{"bike_id":"f9a36537-8363-46ec-894a-307725a4dc75","system_id":"levelo_inurba_marseille","lat":43.29032,"lon":5.39961,"is_reserved":false,"is_disabled":false,"rental_uris":{"android":"levelo://app?vid=f9a36537-8363-46ec-894a-307725a4dc75","ios":"levelo://app?vid=f9a36537-8363-46ec-894a-307725a4dc75"},"vehicle_type_id":"4","last_reported":1729862255,"current_range_meters":7200,"station_id":"ce4bh392rcd13ifvqdm0","pricing_plan_id":"cebpf4jnsgd1na2vs0mg"},{"bike_id":"8140d734-3da3-45ba-985e-ee4278c34ea6","system_id":"levelo_inurba_marseille","lat":43.30309,"lon":5.39219,"is_reserved":false,"is_disabled":false,"rental_uris":{"android":"levelo://app?vid=8140d734-3da3-45ba-985e-ee4278c34ea6","ios":"levelo://app?vid=8140d734-3da3-45ba-985e-ee4278c34ea6"},"vehicle_type_id":"4","last_reported":1729862255,"current_range_meters":39200,"station_id":"ce4bgkh2rcd13ifvqbk0","pricing_plan_id":"cebpf4jnsgd1na2vs0mg"},{"bike_id":"e78a7de0-9e31-4dc0-abe4-1b097fb55d09","system_id":"levelo_inurba_marseille","lat":43.29786,"lon":5.39335,"is_reserved":false,"is_disabled":false,"rental_uris":{"android":"levelo://app?vid=e78a7de0-9e31-4dc0-abe4-1b097fb55d09","ios":"levelo://app?vid=e78a7de0-9e31-4dc0-abe4-1b097fb55d09"},"vehicle_type_id":"4","last_reported":1729862255,"current_range_meters":35600,"station_id":"chh1huq6cuj3fo74tm60","pricing_plan_id":"cebpf4jnsgd1na2vs0mg"},{"bike_id":"d838620b-1bc9-4c30-975f-0710407696aa","system_id":"levelo_inurba_marseille","lat":43.28275,"lon":5.35078,"is_reserved":false,"is_disabled":false,"rental_uris":{"android":"levelo://app?vid=d838620b-1bc9-4c30-975f-0710407696aa","ios":"levelo://app?vid=d838620b-1bc9-4c30-975f-0710407696aa"},"vehicle_type_id":"4","last_reported":1729862255,"current_range_meters":12400,"station_id":"ce4bhbp2rcd13ifvqerg","pricing_plan_id":"cebpf4jnsgd1na2vs0mg"},{"bike_id":"2d32792e-4253-4005-8aac-451f48749b9f","system_id":"levelo_inurba_marseille","lat":43.31687,"lon":5.40482,"is_reserved":false,"is_disabled":false,"rental_uris":{"android":"levelo://app?vid=2d32792e-4253-4005-8aac-451f48749b9f","ios":"levelo://app?vid=2d32792e-4253-4005-8aac-451f48749b9f"},"vehicle_type_id":"4","last_reported":1729862255,"current_range_meters":22400,"station_id":"ce4bgg92rcd13ifvqb30","pricing_plan_id":"cebpf4jnsgd1na2vs0mg"},{"bike_id":"606a0a9f-39b1-4893-a64f-c13dd2ae381e","system_id":"levelo_inurba_marseille","lat":43.31231,"lon":5.36864,"is_reserved":false,"is_disabled":false,"rental_uris":{"android":"levelo://app?vid=606a0a9f-39b1-4893-a64f-c13dd2ae381e","ios":"levelo://app?vid=606a0a9f-39b1-4893-a64f-c13dd2ae381e"},"vehicle_type_id":"4","last_reported":1729862255,"current_range_meters":32800,"station_id":"ce4bgl92rcd13ifvqbq0","pricing_plan_id":"cebpf4jnsgd1na2vs0mg"},{"bike_id":"26b9e837-5b91-41a1-ad8f-50c0e2155aef","system_id":"levelo_inurba_marseille","lat":43.29581,"lon":5.36745,"is_reserved":false,"is_disabled":false,"rental_uris":{"android":"levelo://app?vid=26b9e837-5b91-41a1-ad8f-50c0e2155aef","ios":"levelo://app?vid=26b9e837-5b91-41a1-ad8f-50c0e2155aef"},"vehicle_type_id":"4","last_reported":1729862255,"current_range_meters":32400,"station_id":"ce4bgph2rcd13ifvqc2g","pricing_plan_id":"cebpf4jnsgd1na2vs0mg"},{"bike_id":"25f266c6-267b-410c-a595-38e3759c5972","system_id":"levelo_inurba_marseille","lat":43.31226,"lon":5.36848,"is_reserved":false,"is_disabled":false,"rental_uris":{"android":"levelo://app?vid=25f266c6-267b-410c-a595-38e3759c5972","ios":"levelo://app?vid=25f266c6-267b-410c-a595-38e3759c5972"},"vehicle_type_id":"4","last_reported":1729862255,"current_range_meters":28400,"station_id":"ce4bgl92rcd13ifvqbq0","pricing_plan_id":"cebpf4jnsgd1na2vs0mg"},{"bike_id":"a2a2bae5-e757-4a39-9e85-c87b9b95dc06","system_id":"levelo_inurba_marseille","lat":43.30475,"lon":5.37906,"is_reserved":false,"is_disabled":false,"rental_uris":{"android":"levelo://app?vid=a2a2bae5-e757-4a39-9e85-c87b9b95dc06","ios":"levelo://app?vid=a2a2bae5-e757-4a39-9e85-c87b9b95dc06"},"vehicle_type_id":"4","last_reported":1729862255,"current_range_meters":17200,"station_id":"ce4bgup2rcd13ifvqcn0","pricing_plan_id":"cebpf4jnsgd1na2vs0mg"},{"bike_id":"86d8d3e6-fde4-457d-9f42-0e5e56a09ca8","system_id":"levelo_inurba_marseille","lat":43.28926,"lon":5.38398,"is_reserved":false,"is_disabled":false,"rental_uris":{"android":"levelo://app?vid=86d8d3e6-fde4-457d-9f42-0e5e56a09ca8","ios":"levelo://app?vid=86d8d3e6-fde4-457d-9f42-0e5e56a09ca8"},"vehicle_type_id":"4","last_reported":1729862255,"current_range_meters":36400,"station_id":"ce4bh612rcd13ifvqe6g","pricing_plan_id":"cebpf4jnsgd1na2vs0mg"},{"bike_id":"1cd44716-03d5-4aa0-aa68-bf8f8f927867","system_id":"levelo_inurba_marseille","lat":43.27206,"lon":5.39181,"is_reserved":false,"is_disabled":false,"rental_uris":{"android":"levelo://app?vid=1cd44716-03d5-4aa0-aa68-bf8f8f927867","ios":"levelo://app?vid=1cd44716-03d5-4aa0-aa68-bf8f8f927867"},"vehicle_type_id":"4","last_reported":1729862255,"current_range_meters":12000,"station_id":"ce4bhhp2rcd13ifvqfm0","pricing_plan_id":"cebpf4jnsgd1na2vs0mg"},{"bike_id":"83b93c0d-fd1e-413e-9772-9048be31d163","system_id":"levelo_inurba_marseille","lat":43.31712,"lon":5.37761,"is_reserved":false,"is_disabled":false,"rental_uris":{"android":"levelo://app?vid=83b93c0d-fd1e-413e-9772-9048be31d163","ios":"levelo://app?vid=83b93c0d-fd1e-413e-9772-9048be31d163"},"vehicle_type_id":"4","last_reported":1729862255,"current_range_meters":38000,"station_id":"ce4bgth2rcd13ifvqch0","pricing_plan_id":"cebpf4jnsgd1na2vs0mg"},{"bike_id":"30f0c75b-8719-4079-9047-f2af157dccb1","system_id":"levelo_inurba_marseille","lat":43.30479,"lon":5.37905,"is_reserved":false,"is_disabled":false,"rental_uris":{"android":"levelo://app?vid=30f0c75b-8719-4079-9047-f2af157dccb1","ios":"levelo://app?vid=30f0c75b-8719-4079-9047-f2af157dccb1"},"vehicle_type_id":"4","last_reported":1729862255,"current_range_meters":38800,"station_id":"ce4bgup2rcd13ifvqcn0","pricing_plan_id":"cebpf4jnsgd1na2vs0mg"},{"bike_id":"784dd773-f509-4455-843a-8e8b8177e5e1","system_id":"levelo_inurba_marseille","lat":43.31708,"lon":5.3776,"is_reserved":false,"is_disabled":false,"rental_uris":{"android":"levelo://app?vid=784dd773-f509-4455-843a-8e8b8177e5e1","ios":"levelo://app?vid=784dd773-f509-4455-843a-8e8b8177e5e1"},"vehicle_type_id":"4","last_reported":1729862255,"current_range_meters":39200,"station_id":"ce4bgth2rcd13ifvqch0","pricing_plan_id":"cebpf4jnsgd1na2vs0mg"},{"bike_id":"c39ac1be-4102-4887-a0b5-6139dfe01d2c","system_id":"levelo_inurba_marseille","lat":43.293395,"lon":5.377054,"is_reserved":false,"is_disabled":false,"rental_uris":{"android":"levelo://app?vid=c39ac1be-4102-4887-a0b5-6139dfe01d2c","ios":"levelo://app?vid=c39ac1be-4102-4887-a0b5-6139dfe01d2c"},"vehicle_type_id":"4","last_reported":1729862255,"current_range_meters":11600,"station_id":"ce4bhb12rcd13ifvqem0","pricing_plan_id":"cebpf4jnsgd1na2vs0mg"},{"bike_id":"6207e24e-6c38-4753-b7b0-08ff7ff761cb","system_id":"levelo_inurba_marseille","lat":43.3054,"lon":5.36557,"is_reserved":false,"is_disabled":false,"rental_uris":{"android":"levelo://app?vid=6207e24e-6c38-4753-b7b0-08ff7ff761cb","ios":"levelo://app?vid=6207e24e-6c38-4753-b7b0-08ff7ff761cb"},"vehicle_type_id":"4","last_reported":1729862255,"current_range_meters":38400,"station_id":"ce4bgs12rcd13ifvqcag","pricing_plan_id":"cebpf4jnsgd1na2vs0mg"},{"bike_id":"65ee6142-433d-4531-9f32-ac8867a190b3","system_id":"levelo_inurba_marseille","lat":43.29907,"lon":5.38138,"is_reserved":false,"is_disabled":false,"rental_uris":{"android":"levelo://app?vid=65ee6142-433d-4531-9f32-ac8867a190b3","ios":"levelo://app?vid=65ee6142-433d-4531-9f32-ac8867a190b3"},"vehicle_type_id":"4","last_reported":1729862255,"current_range_meters":3200,"station_id":"ce4bgj12rcd13ifvqbc0","pricing_plan_id":"cebpf4jnsgd1na2vs0mg"},{"bike_id":"b5280a4e-5993-4f8e-83ef-b79f0bc022bd","system_id":"levelo_inurba_marseille","lat":43.24649,"lon":5.38888,"is_reserved":false,"is_disabled":false,"rental_uris":{"android":"levelo://app?vid=b5280a4e-5993-4f8e-83ef-b79f0bc022bd","ios":"levelo://app?vid=b5280a4e-5993-4f8e-83ef-b79f0bc022bd"},"vehicle_type_id":"4","last_reported":1729862255,"current_range_meters":8400,"station_id":"ce4bhg12rcd13ifvqf60","pricing_plan_id":"cebpf4jnsgd1na2vs0mg"},{"bike_id":"bdd8ff7c-fd85-48f5-ba32-460bcd604075","system_id":"levelo_inurba_marseille","lat":43.29227,"lon":5.36072,"is_reserved":false,"is_disabled":false,"rental_uris":{"android":"levelo://app?vid=bdd8ff7c-fd85-48f5-ba32-460bcd604075","ios":"levelo://app?vid=bdd8ff7c-fd85-48f5-ba32-460bcd604075"},"vehicle_type_id":"4","last_reported":1729862255,"current_range_meters":24400,"station_id":"ce4bhbh2rcd13ifvqeqg","pricing_plan_id":"cebpf4jnsgd1na2vs0mg"},{"bike_id":"7969dd37-faf1-43ba-9922-f50db8b11586","system_id":"levelo_inurba_marseille","lat":43.32458,"lon":5.3657,"is_reserved":false,"is_disabled":false,"rental_uris":{"android":"levelo://app?vid=7969dd37-faf1-43ba-9922-f50db8b11586","ios":"levelo://app?vid=7969dd37-faf1-43ba-9922-f50db8b11586"},"vehicle_type_id":"4","last_reported":1729862255,"current_range_meters":21600,"station_id":"ce4bhs12rcd13ifvqhvg","pricing_plan_id":"cebpf4jnsgd1na2vs0mg"},{"bike_id":"43503a7f-be77-4cee-aca6-64b3a462dd3f","system_id":"levelo_inurba_marseille","lat":43.2997,"lon":5.38492,"is_reserved":false,"is_disabled":false,"rental_uris":{"android":"levelo://app?vid=43503a7f-be77-4cee-aca6-64b3a462dd3f","ios":"levelo://app?vid=43503a7f-be77-4cee-aca6-64b3a462dd3f"},"vehicle_type_id":"4","last_reported":1729862255,"current_range_meters":38800,"station_id":"ce4bgj92rcd13ifvqbd0","pricing_plan_id":"cebpf4jnsgd1na2vs0mg"},{"bike_id":"4cfb26b1-4b77-472c-9f50-064d7ce96b5e","system_id":"levelo_inurba_marseille","lat":43.32658,"lon":5.40989,"is_reserved":false,"is_disabled":false,"rental_uris":{"android":"levelo://app?vid=4cfb26b1-4b77-472c-9f50-064d7ce96b5e","ios":"levelo://app?vid=4cfb26b1-4b77-472c-9f50-064d7ce96b5e"},"vehicle_type_id":"4","last_reported":1729862255,"current_range_meters":38400,"station_id":"ce4bhpp2rcd13ifvqhgg","pricing_plan_id":"cebpf4jnsgd1na2vs0mg"},{"bike_id":"6109e0df-6c0b-43ae-a6d3-9d9a8e3374ad","system_id":"levelo_inurba_marseille","lat":43.29309,"lon":5.37191,"is_reserved":false,"is_disabled":false,"rental_uris":{"android":"levelo://app?vid=6109e0df-6c0b-43ae-a6d3-9d9a8e3374ad","ios":"levelo://app?vid=6109e0df-6c0b-43ae-a6d3-9d9a8e3374ad"},"vehicle_type_id":"4","last_reported":1729862255,"current_range_meters":25600,"station_id":"ce4bgh92rcd13ifvqb40","pricing_plan_id":"cebpf4jnsgd1na2vs0mg"},{"bike_id":"30b1aa64-06bd-457e-9cde-85b0bb8f8166","system_id":"levelo_inurba_marseille","lat":43.31364,"lon":5.38484,"is_reserved":false,"is_disabled":false,"rental_uris":{"android":"levelo://app?vid=30b1aa64-06bd-457e-9cde-85b0bb8f8166","ios":"levelo://app?vid=30b1aa64-06bd-457e-9cde-85b0bb8f8166"},"vehicle_type_id":"4","last_reported":1729862255,"current_range_meters":38800,"station_id":"ce4bgt92rcd13ifvqcf0","pricing_plan_id":"cebpf4jnsgd1na2vs0mg"},{"bike_id":"97ce6431-cdfe-4c86-8575-534875aed7f5","system_id":"levelo_inurba_marseille","lat":43.3053,"lon":5.36659,"is_reserved":false,"is_disabled":false,"rental_uris":{"android":"levelo://app?vid=97ce6431-cdfe-4c86-8575-534875aed7f5","ios":"levelo://app?vid=97ce6431-cdfe-4c86-8575-534875aed7f5"},"vehicle_type_id":"4","last_reported":1729862255,"current_range_meters":2800,"station_id":"","pricing_plan_id":"cebpf4jnsgd1na2vs0mg"},{"bike_id":"1ca02ea1-1888-4d0b-bca8-c92aae56a3d3","system_id":"levelo_inurba_marseille","lat":43.2781,"lon":5.40707,"is_reserved":false,"is_disabled":false,"rental_uris":{"android":"levelo://app?vid=1ca02ea1-1888-4d0b-bca8-c92aae56a3d3","ios":"levelo://app?vid=1ca02ea1-1888-4d0b-bca8-c92aae56a3d3"},"vehicle_type_id":"4","last_reported":1729862255,"current_range_meters":39200,"station_id":"ce4bhnh2rcd13ifvqgtg","pricing_plan_id":"cebpf4jnsgd1na2vs0mg"},{"bike_id":"cbc9d2ee-c740-4b1a-96a2-f51c977a89aa","system_id":"levelo_inurba_marseille","lat":43.31757,"lon":5.39015,"is_reserved":false,"is_disabled":false,"rental_uris":{"android":"levelo://app?vid=cbc9d2ee-c740-4b1a-96a2-f51c977a89aa","ios":"levelo://app?vid=cbc9d2ee-c740-4b1a-96a2-f51c977a89aa"},"vehicle_type_id":"4","last_reported":1729862255,"current_range_meters":36000,"station_id":"ce4bhqp2rcd13ifvqhng","pricing_plan_id":"cebpf4jnsgd1na2vs0mg"},{"bike_id":"a4ea2f4c-f1fc-4d04-b618-d41c65458892","system_id":"levelo_inurba_marseille","lat":43.26496,"lon":5.3954,"is_reserved":false,"is_disabled":false,"rental_uris":{"android":"levelo://app?vid=a4ea2f4c-f1fc-4d04-b618-d41c65458892","ios":"levelo://app?vid=a4ea2f4c-f1fc-4d04-b618-d41c65458892"},"vehicle_type_id":"4","last_reported":1729862255,"current_range_meters":39200,"station_id":"ce4bhi12rcd13ifvqfq0","pricing_plan_id":"cebpf4jnsgd1na2vs0mg"},{"bike_id":"28e8f1ff-9675-4734-ad66-a283faac58d2","system_id":"levelo_inurba_marseille","lat":43.22932,"lon":5.35371,"is_reserved":false,"is_disabled":false,"rental_uris":{"android":"levelo://app?vid=28e8f1ff-9675-4734-ad66-a283faac58d2","ios":"levelo://app?vid=28e8f1ff-9675-4734-ad66-a283faac58d2"},"vehicle_type_id":"4","last_reported":1729862255,"current_range_meters":38400,"station_id":"cpo3532slgdg3j2ikp40","pricing_plan_id":"cebpf4jnsgd1na2vs0mg"},{"bike_id":"5861e0c6-45d8-420f-96b4-076eb4ea4be9","system_id":"levelo_inurba_marseille","lat":43.24075,"lon":5.37755,"is_reserved":false,"is_disabled":false,"rental_uris":{"android":"levelo://app?vid=5861e0c6-45d8-420f-96b4-076eb4ea4be9","ios":"levelo://app?vid=5861e0c6-45d8-420f-96b4-076eb4ea4be9"},"vehicle_type_id":"4","last_reported":1729862255,"current_range_meters":36800,"station_id":"ce4bhnp2rcd13ifvqgvg","pricing_plan_id":"cebpf4jnsgd1na2vs0mg"},{"bike_id":"ab8a2d24-7bb7-4dd4-b261-bb0c7cc06631","system_id":"levelo_inurba_marseille","lat":43.22932,"lon":5.35371,"is_reserved":false,"is_disabled":false,"rental_uris":{"android":"levelo://app?vid=ab8a2d24-7bb7-4dd4-b261-bb0c7cc06631","ios":"levelo://app?vid=ab8a2d24-7bb7-4dd4-b261-bb0c7cc06631"},"vehicle_type_id":"4","last_reported":1729862255,"current_range_meters":36400,"station_id":"cpo3532slgdg3j2ikp40","pricing_plan_id":"cebpf4jnsgd1na2vs0mg"},{"bike_id":"a0076909-a038-43b4-989f-b12abedd7bde","system_id":"levelo_inurba_marseille","lat":43.31692,"lon":5.40476,"is_reserved":false,"is_disabled":false,"rental_uris":{"android":"levelo://app?vid=a0076909-a038-43b4-989f-b12abedd7bde","ios":"levelo://app?vid=a0076909-a038-43b4-989f-b12abedd7bde"},"vehicle_type_id":"4","last_reported":1729862255,"current_range_meters":36800,"station_id":"ce4bh012rcd13ifvqd00","pricing_plan_id":"cebpf4jnsgd1na2vs0mg"},{"bike_id":"875e81d5-e576-40b7-8820-2b630aedab05","system_id":"levelo_inurba_marseille","lat":43.2959,"lon":5.36742,"is_reserved":false,"is_disabled":false,"rental_uris":{"android":"levelo://app?vid=875e81d5-e576-40b7-8820-2b630aedab05","ios":"levelo://app?vid=875e81d5-e576-40b7-8820-2b630aedab05"},"vehicle_type_id":"4","last_reported":1729862255,"current_range_meters":12800,"station_id":"ce4bgph2rcd13ifvqc2g","pricing_plan_id":"cebpf4jnsgd1na2vs0mg"},{"bike_id":"cae0f499-0eed-441c-aaf3-32c72ee64602","system_id":"levelo_inurba_marseille","lat":43.28853,"lon":5.35848,"is_reserved":false,"is_disabled":false,"rental_uris":{"android":"levelo://app?vid=cae0f499-0eed-441c-aaf3-32c72ee64602","ios":"levelo://app?vid=cae0f499-0eed-441c-aaf3-32c72ee64602"},"vehicle_type_id":"4","last_reported":1729862255,"current_range_meters":14400,"station_id":"ce4bhb12rcd13ifvqem0","pricing_plan_id":"cebpf4jnsgd1na2vs0mg"},{"bike_id":"8486fe9d-9ef0-4e60-ba73-6eb6a17c52a8","system_id":"levelo_inurba_marseille","lat":43.31575,"lon":5.40568,"is_reserved":false,"is_disabled":false,"rental_uris":{"android":"levelo://app?vid=8486fe9d-9ef0-4e60-ba73-6eb6a17c52a8","ios":"levelo://app?vid=8486fe9d-9ef0-4e60-ba73-6eb6a17c52a8"},"vehicle_type_id":"4","last_reported":1729862255,"current_range_meters":9200,"station_id":"","pricing_plan_id":"cebpf4jnsgd1na2vs0mg"},{"bike_id":"172208e9-70cd-4b52-b8b5-db9312e32f6a","system_id":"levelo_inurba_marseille","lat":43.24544,"lon":5.39516,"is_reserved":false,"is_disabled":false,"rental_uris":{"android":"levelo://app?vid=172208e9-70cd-4b52-b8b5-db9312e32f6a","ios":"levelo://app?vid=172208e9-70cd-4b52-b8b5-db9312e32f6a"},"vehicle_type_id":"4","last_reported":1729862255,"current_range_meters":25200,"station_id":"ce4bhlp2rcd13ifvqgjg","pricing_plan_id":"cebpf4jnsgd1na2vs0mg"},{"bike_id":"05c0bdb9-3fee-4115-b22b-f6e25a025f3a","system_id":"levelo_inurba_marseille","lat":43.308053,"lon":5.381487,"is_reserved":false,"is_disabled":false,"rental_uris":{"android":"levelo://app?vid=05c0bdb9-3fee-4115-b22b-f6e25a025f3a","ios":"levelo://app?vid=05c0bdb9-3fee-4115-b22b-f6e25a025f3a"},"vehicle_type_id":"4","last_reported":1729862255,"current_range_meters":20800,"station_id":"ce4bgt12rcd13ifvqce0","pricing_plan_id":"cebpf4jnsgd1na2vs0mg"},{"bike_id":"46c879e9-cfe4-4d09-ac89-faeb357ac886","system_id":"levelo_inurba_marseille","lat":43.3015,"lon":5.38088,"is_reserved":false,"is_disabled":false,"rental_uris":{"android":"levelo://app?vid=46c879e9-cfe4-4d09-ac89-faeb357ac886","ios":"levelo://app?vid=46c879e9-cfe4-4d09-ac89-faeb357ac886"},"vehicle_type_id":"4","last_reported":1729862255,"current_range_meters":4000,"station_id":"ce4bgjp2rcd13ifvqbh0","pricing_plan_id":"cebpf4jnsgd1na2vs0mg"},{"bike_id":"fbda76cf-ad32-44f5-8e46-a16eaabd2829","system_id":"levelo_inurba_marseille","lat":43.22934,"lon":5.35374,"is_reserved":false,"is_disabled":false,"rental_uris":{"android":"levelo://app?vid=fbda76cf-ad32-44f5-8e46-a16eaabd2829","ios":"levelo://app?vid=fbda76cf-ad32-44f5-8e46-a16eaabd2829"},"vehicle_type_id":"4","last_reported":1729862255,"current_range_meters":19600,"station_id":"cpo3532slgdg3j2ikp40","pricing_plan_id":"cebpf4jnsgd1na2vs0mg"},{"bike_id":"e3ee5f84-4d74-4ce5-9540-764d9f311735","system_id":"levelo_inurba_marseille","lat":43.302778,"lon":5.376938,"is_reserved":false,"is_disabled":false,"rental_uris":{"android":"levelo://app?vid=e3ee5f84-4d74-4ce5-9540-764d9f311735","ios":"levelo://app?vid=e3ee5f84-4d74-4ce5-9540-764d9f311735"},"vehicle_type_id":"4","last_reported":1729862255,"current_range_meters":28000,"station_id":"ce4bguh2rcd13ifvqcj0","pricing_plan_id":"cebpf4jnsgd1na2vs0mg"},{"bike_id":"55f31542-79d5-4876-8508-e9985cb2a203","system_id":"levelo_inurba_marseille","lat":43.28427,"lon":5.34987,"is_reserved":false,"is_disabled":false,"rental_uris":{"android":"levelo://app?vid=55f31542-79d5-4876-8508-e9985cb2a203","ios":"levelo://app?vid=55f31542-79d5-4876-8508-e9985cb2a203"},"vehicle_type_id":"4","last_reported":1729862255,"current_range_meters":39200,"station_id":"ce4bhbh2rcd13ifvqepg","pricing_plan_id":"cebpf4jnsgd1na2vs0mg"},{"bike_id":"d4df8e80-99ee-48f6-99a8-7a63c3f617af","system_id":"levelo_inurba_marseille","lat":43.26784,"lon":5.39419,"is_reserved":false,"is_disabled":false,"rental_uris":{"android":"levelo://app?vid=d4df8e80-99ee-48f6-99a8-7a63c3f617af","ios":"levelo://app?vid=d4df8e80-99ee-48f6-99a8-7a63c3f617af"},"vehicle_type_id":"4","last_reported":1729862255,"current_range_meters":10800,"station_id":"ce4bhh12rcd13ifvqfg0","pricing_plan_id":"cebpf4jnsgd1na2vs0mg"},{"bike_id":"7f506ed3-e783-4a10-b209-58f0fbad5bef","system_id":"levelo_inurba_marseille","lat":43.3015,"lon":5.37421,"is_reserved":false,"is_disabled":false,"rental_uris":{"android":"levelo://app?vid=7f506ed3-e783-4a10-b209-58f0fbad5bef","ios":"levelo://app?vid=7f506ed3-e783-4a10-b209-58f0fbad5bef"},"vehicle_type_id":"4","last_reported":1729862255,"current_range_meters":27200,"station_id":"ce4bgs92rcd13ifvqcc0","pricing_plan_id":"cebpf4jnsgd1na2vs0mg"},{"bike_id":"1fe7a754-88e8-464c-a31c-86bf41ad4349","system_id":"levelo_inurba_marseille","lat":43.30283,"lon":5.37697,"is_reserved":false,"is_disabled":false,"rental_uris":{"android":"levelo://app?vid=1fe7a754-88e8-464c-a31c-86bf41ad4349","ios":"levelo://app?vid=1fe7a754-88e8-464c-a31c-86bf41ad4349"},"vehicle_type_id":"4","last_reported":1729862255,"current_range_meters":23200,"station_id":"ce4bguh2rcd13ifvqcj0","pricing_plan_id":"cebpf4jnsgd1na2vs0mg"},{"bike_id":"2f11c33a-2d96-4a66-8697-04fd04c433f4","system_id":"levelo_inurba_marseille","lat":43.30145,"lon":5.37415,"is_reserved":false,"is_disabled":false,"rental_uris":{"android":"levelo://app?vid=2f11c33a-2d96-4a66-8697-04fd04c433f4","ios":"levelo://app?vid=2f11c33a-2d96-4a66-8697-04fd04c433f4"},"vehicle_type_id":"4","last_reported":1729862255,"current_range_meters":38400,"station_id":"ce4bgs92rcd13ifvqcc0","pricing_plan_id":"cebpf4jnsgd1na2vs0mg"},{"bike_id":"ee20a5ff-3106-41b3-9c22-db71b8b46965","system_id":"levelo_inurba_marseille","lat":43.26568,"lon":5.39003,"is_reserved":false,"is_disabled":false,"rental_uris":{"android":"levelo://app?vid=ee20a5ff-3106-41b3-9c22-db71b8b46965","ios":"levelo://app?vid=ee20a5ff-3106-41b3-9c22-db71b8b46965"},"vehicle_type_id":"4","last_reported":1729862255,"current_range_meters":3600,"station_id":"ce4bhe12rcd13ifvqf30","pricing_plan_id":"cebpf4jnsgd1na2vs0mg"},{"bike_id":"ff0e1a12-b379-47ef-840b-1903e148ab8c","system_id":"levelo_inurba_marseille","lat":43.30805,"lon":5.38157,"is_reserved":false,"is_disabled":false,"rental_uris":{"android":"levelo://app?vid=ff0e1a12-b379-47ef-840b-1903e148ab8c","ios":"levelo://app?vid=ff0e1a12-b379-47ef-840b-1903e148ab8c"},"vehicle_type_id":"4","last_reported":1729862255,"current_range_meters":31200,"station_id":"ce4bgt12rcd13ifvqce0","pricing_plan_id":"cebpf4jnsgd1na2vs0mg"},{"bike_id":"76de16cc-266c-4be2-881f-fc0fc7f35c12","system_id":"levelo_inurba_marseille","lat":43.30916,"lon":5.36846,"is_reserved":false,"is_disabled":false,"rental_uris":{"android":"levelo://app?vid=76de16cc-266c-4be2-881f-fc0fc7f35c12","ios":"levelo://app?vid=76de16cc-266c-4be2-881f-fc0fc7f35c12"},"vehicle_type_id":"4","last_reported":1729862255,"current_range_meters":30800,"station_id":"ce4bgn92rcd13ifvqbvg","pricing_plan_id":"cebpf4jnsgd1na2vs0mg"},{"bike_id":"d3bbf7db-dbd7-4c37-82f1-086f96c4acff","system_id":"levelo_inurba_marseille","lat":43.30911,"lon":5.36855,"is_reserved":false,"is_disabled":false,"rental_uris":{"android":"levelo://app?vid=d3bbf7db-dbd7-4c37-82f1-086f96c4acff","ios":"levelo://app?vid=d3bbf7db-dbd7-4c37-82f1-086f96c4acff"},"vehicle_type_id":"4","last_reported":1729862255,"current_range_meters":31200,"station_id":"ce4bgn92rcd13ifvqbvg","pricing_plan_id":"cebpf4jnsgd1na2vs0mg"},{"bike_id":"7a9bebfb-3ca8-461f-9edc-3e4de00c7841","system_id":"levelo_inurba_marseille","lat":43.25581,"lon":5.38234,"is_reserved":false,"is_disabled":false,"rental_uris":{"android":"levelo://app?vid=7a9bebfb-3ca8-461f-9edc-3e4de00c7841","ios":"levelo://app?vid=7a9bebfb-3ca8-461f-9edc-3e4de00c7841"},"vehicle_type_id":"4","last_reported":1729862255,"current_range_meters":38000,"station_id":"ce4bhih2rcd13ifvqfs0","pricing_plan_id":"cebpf4jnsgd1na2vs0mg"},{"bike_id":"373a4c6c-fb6c-4010-8d52-c0d198ac8ce6","system_id":"levelo_inurba_marseille","lat":43.27213,"lon":5.39171,"is_reserved":false,"is_disabled":false,"rental_uris":{"android":"levelo://app?vid=373a4c6c-fb6c-4010-8d52-c0d198ac8ce6","ios":"levelo://app?vid=373a4c6c-fb6c-4010-8d52-c0d198ac8ce6"},"vehicle_type_id":"4","last_reported":1729862255,"current_range_meters":24000,"station_id":"ce4bhhp2rcd13ifvqfm0","pricing_plan_id":"cebpf4jnsgd1na2vs0mg"},{"bike_id":"65d0513c-d3d7-49e4-a885-744aab69f674","system_id":"levelo_inurba_marseille","lat":43.3089,"lon":5.3719,"is_reserved":false,"is_disabled":false,"rental_uris":{"android":"levelo://app?vid=65d0513c-d3d7-49e4-a885-744aab69f674","ios":"levelo://app?vid=65d0513c-d3d7-49e4-a885-744aab69f674"},"vehicle_type_id":"4","last_reported":1729862255,"current_range_meters":15200,"station_id":"ce4bguh2rcd13ifvqckg","pricing_plan_id":"cebpf4jnsgd1na2vs0mg"},{"bike_id":"356b9b73-ea47-4595-97bf-8a1d09ac44a5","system_id":"levelo_inurba_marseille","lat":43.270508,"lon":5.402581,"is_reserved":false,"is_disabled":false,"rental_uris":{"android":"levelo://app?vid=356b9b73-ea47-4595-97bf-8a1d09ac44a5","ios":"levelo://app?vid=356b9b73-ea47-4595-97bf-8a1d09ac44a5"},"vehicle_type_id":"4","last_reported":1729862255,"current_range_meters":28800,"station_id":"","pricing_plan_id":"cebpf4jnsgd1na2vs0mg"},{"bike_id":"be8fbca4-3dcd-4e0e-96d2-8c570f59713c","system_id":"levelo_inurba_marseille","lat":43.324798,"lon":5.365766,"is_reserved":false,"is_disabled":false,"rental_uris":{"android":"levelo://app?vid=be8fbca4-3dcd-4e0e-96d2-8c570f59713c","ios":"levelo://app?vid=be8fbca4-3dcd-4e0e-96d2-8c570f59713c"},"vehicle_type_id":"4","last_reported":1729862255,"current_range_meters":18000,"station_id":"ce4bhs12rcd13ifvqhvg","pricing_plan_id":"cebpf4jnsgd1na2vs0mg"},{"bike_id":"c0a4c997-c15f-4b81-b921-3256891f9d8f","system_id":"levelo_inurba_marseille","lat":43.28108,"lon":5.37826,"is_reserved":false,"is_disabled":false,"rental_uris":{"android":"levelo://app?vid=c0a4c997-c15f-4b81-b921-3256891f9d8f","ios":"levelo://app?vid=c0a4c997-c15f-4b81-b921-3256891f9d8f"},"vehicle_type_id":"4","last_reported":1729862255,"current_range_meters":14000,"station_id":"ce4bha12rcd13ifvqee0","pricing_plan_id":"cebpf4jnsgd1na2vs0mg"},{"bike_id":"1ca82494-e006-4bbb-8464-5e6d58e81dcc","system_id":"levelo_inurba_marseille","lat":43.29618,"lon":5.37153,"is_reserved":false,"is_disabled":false,"rental_uris":{"android":"levelo://app?vid=1ca82494-e006-4bbb-8464-5e6d58e81dcc","ios":"levelo://app?vid=1ca82494-e006-4bbb-8464-5e6d58e81dcc"},"vehicle_type_id":"4","last_reported":1729862255,"current_range_meters":28800,"station_id":"ce4bgnh2rcd13ifvqc0g","pricing_plan_id":"cebpf4jnsgd1na2vs0mg"},{"bike_id":"cf28c0ba-748d-4e8a-b8af-61e44f800fb1","system_id":"levelo_inurba_marseille","lat":43.2439,"lon":5.37065,"is_reserved":false,"is_disabled":false,"rental_uris":{"android":"levelo://app?vid=cf28c0ba-748d-4e8a-b8af-61e44f800fb1","ios":"levelo://app?vid=cf28c0ba-748d-4e8a-b8af-61e44f800fb1"},"vehicle_type_id":"4","last_reported":1729862255,"current_range_meters":4000,"station_id":"ce4bhhh2rcd13ifvqfk0","pricing_plan_id":"cebpf4jnsgd1na2vs0mg"},{"bike_id":"738281ac-dc91-4b9a-bb9a-e42d53ba8b5b","system_id":"levelo_inurba_marseille","lat":43.301218,"lon":5.398668,"is_reserved":false,"is_disabled":false,"rental_uris":{"android":"levelo://app?vid=738281ac-dc91-4b9a-bb9a-e42d53ba8b5b","ios":"levelo://app?vid=738281ac-dc91-4b9a-bb9a-e42d53ba8b5b"},"vehicle_type_id":"4","last_reported":1729862255,"current_range_meters":2800,"station_id":"ce4bh0h2rcd13ifvqd40","pricing_plan_id":"cebpf4jnsgd1na2vs0mg"},{"bike_id":"67c0be17-aa29-457f-8422-9067db355448","system_id":"levelo_inurba_marseille","lat":43.27315,"lon":5.39072,"is_reserved":false,"is_disabled":false,"rental_uris":{"android":"levelo://app?vid=67c0be17-aa29-457f-8422-9067db355448","ios":"levelo://app?vid=67c0be17-aa29-457f-8422-9067db355448"},"vehicle_type_id":"4","last_reported":1729862255,"current_range_meters":18000,"station_id":"ce4bhgp2rcd13ifvqfe0","pricing_plan_id":"cebpf4jnsgd1na2vs0mg"},{"bike_id":"6f9da69e-c80a-49b0-83e7-588296c1045f","system_id":"levelo_inurba_marseille","lat":43.25002,"lon":5.38937,"is_reserved":false,"is_disabled":false,"rental_uris":{"android":"levelo://app?vid=6f9da69e-c80a-49b0-83e7-588296c1045f","ios":"levelo://app?vid=6f9da69e-c80a-49b0-83e7-588296c1045f"},"vehicle_type_id":"4","last_reported":1729862255,"current_range_meters":23200,"station_id":"ce4bhgp2rcd13ifvqfd0","pricing_plan_id":"cebpf4jnsgd1na2vs0mg"},{"bike_id":"8742d4b7-d012-499d-83f8-0bf03ac895e4","system_id":"levelo_inurba_marseille","lat":43.30278,"lon":5.37688,"is_reserved":false,"is_disabled":false,"rental_uris":{"android":"levelo://app?vid=8742d4b7-d012-499d-83f8-0bf03ac895e4","ios":"levelo://app?vid=8742d4b7-d012-499d-83f8-0bf03ac895e4"},"vehicle_type_id":"4","last_reported":1729862255,"current_range_meters":28400,"station_id":"ce4bguh2rcd13ifvqcj0","pricing_plan_id":"cebpf4jnsgd1na2vs0mg"},{"bike_id":"eda20d13-c206-4b88-85e8-a17922f9a47f","system_id":"levelo_inurba_marseille","lat":43.30143,"lon":5.37414,"is_reserved":false,"is_disabled":false,"rental_uris":{"android":"levelo://app?vid=eda20d13-c206-4b88-85e8-a17922f9a47f","ios":"levelo://app?vid=eda20d13-c206-4b88-85e8-a17922f9a47f"},"vehicle_type_id":"4","last_reported":1729862255,"current_range_meters":17600,"station_id":"ce4bgs92rcd13ifvqcc0","pricing_plan_id":"cebpf4jnsgd1na2vs0mg"},{"bike_id":"d615dac2-81d2-4df4-a832-bb156128c56b","system_id":"levelo_inurba_marseille","lat":43.28932,"lon":5.36392,"is_reserved":false,"is_disabled":false,"rental_uris":{"android":"levelo://app?vid=d615dac2-81d2-4df4-a832-bb156128c56b","ios":"levelo://app?vid=d615dac2-81d2-4df4-a832-bb156128c56b"},"vehicle_type_id":"4","last_reported":1729862255,"current_range_meters":16000,"station_id":"ce4bhc92rcd13ifvqetg","pricing_plan_id":"cebpf4jnsgd1na2vs0mg"},{"bike_id":"ec517bc8-aab9-4441-9a5a-13b6295f2e39","system_id":"levelo_inurba_marseille","lat":43.22933,"lon":5.35376,"is_reserved":false,"is_disabled":false,"rental_uris":{"android":"levelo://app?vid=ec517bc8-aab9-4441-9a5a-13b6295f2e39","ios":"levelo://app?vid=ec517bc8-aab9-4441-9a5a-13b6295f2e39"},"vehicle_type_id":"4","last_reported":1729862255,"current_range_meters":20400,"station_id":"cpo3532slgdg3j2ikp40","pricing_plan_id":"cebpf4jnsgd1na2vs0mg"},{"bike_id":"dd10176f-5107-4539-871f-f296367437e1","system_id":"levelo_inurba_marseille","lat":43.29221,"lon":5.36059,"is_reserved":false,"is_disabled":false,"rental_uris":{"android":"levelo://app?vid=dd10176f-5107-4539-871f-f296367437e1","ios":"levelo://app?vid=dd10176f-5107-4539-871f-f296367437e1"},"vehicle_type_id":"4","last_reported":1729862255,"current_range_meters":38000,"station_id":"ce4bhbh2rcd13ifvqeqg","pricing_plan_id":"cebpf4jnsgd1na2vs0mg"},{"bike_id":"2d1947d2-594f-4eb1-91b4-bd2bf145a66a","system_id":"levelo_inurba_marseille","lat":43.290283,"lon":5.386422,"is_reserved":false,"is_disabled":false,"rental_uris":{"android":"levelo://app?vid=2d1947d2-594f-4eb1-91b4-bd2bf145a66a","ios":"levelo://app?vid=2d1947d2-594f-4eb1-91b4-bd2bf145a66a"},"vehicle_type_id":"4","last_reported":1729862255,"current_range_meters":10000,"station_id":"ce4bhh92rcd13ifvqfj0","pricing_plan_id":"cebpf4jnsgd1na2vs0mg"},{"bike_id":"f0b863c8-76f9-4f06-a6ca-be71cfa200a0","system_id":"levelo_inurba_marseille","lat":43.292516,"lon":5.409018,"is_reserved":false,"is_disabled":false,"rental_uris":{"android":"levelo://app?vid=f0b863c8-76f9-4f06-a6ca-be71cfa200a0","ios":"levelo://app?vid=f0b863c8-76f9-4f06-a6ca-be71cfa200a0"},"vehicle_type_id":"4","last_reported":1729862255,"current_range_meters":39200,"station_id":"ce4bh192rcd13ifvqdc0","pricing_plan_id":"cebpf4jnsgd1na2vs0mg"},{"bike_id":"4632e237-cb21-4af1-89f1-7d4bd8ac866b","system_id":"levelo_inurba_marseille","lat":43.2953,"lon":5.39047,"is_reserved":false,"is_disabled":false,"rental_uris":{"android":"levelo://app?vid=4632e237-cb21-4af1-89f1-7d4bd8ac866b","ios":"levelo://app?vid=4632e237-cb21-4af1-89f1-7d4bd8ac866b"},"vehicle_type_id":"4","last_reported":1729862255,"current_range_meters":25200,"station_id":"ce4bh3p2rcd13ifvqdp0","pricing_plan_id":"cebpf4jnsgd1na2vs0mg"},{"bike_id":"aa35eede-acd1-4014-9e9d-ec3696c0a4f4","system_id":"levelo_inurba_marseille","lat":43.28935,"lon":5.36626,"is_reserved":false,"is_disabled":false,"rental_uris":{"android":"levelo://app?vid=aa35eede-acd1-4014-9e9d-ec3696c0a4f4","ios":"levelo://app?vid=aa35eede-acd1-4014-9e9d-ec3696c0a4f4"},"vehicle_type_id":"4","last_reported":1729862255,"current_range_meters":9200,"station_id":"ce4bhap2rcd13ifvqek0","pricing_plan_id":"cebpf4jnsgd1na2vs0mg"},{"bike_id":"6cb0d09c-4434-41fe-bab7-3f2ab7b0ac84","system_id":"levelo_inurba_marseille","lat":43.23055,"lon":5.35495,"is_reserved":false,"is_disabled":false,"rental_uris":{"android":"levelo://app?vid=6cb0d09c-4434-41fe-bab7-3f2ab7b0ac84","ios":"levelo://app?vid=6cb0d09c-4434-41fe-bab7-3f2ab7b0ac84"},"vehicle_type_id":"4","last_reported":1729862255,"current_range_meters":21600,"station_id":"cpo3342slgdg3j2ifvpg","pricing_plan_id":"cebpf4jnsgd1na2vs0mg"},{"bike_id":"466ddc0f-d59b-4bba-9820-7fe8d5b77412","system_id":"levelo_inurba_marseille","lat":43.30793,"lon":5.37651,"is_reserved":false,"is_disabled":false,"rental_uris":{"android":"levelo://app?vid=466ddc0f-d59b-4bba-9820-7fe8d5b77412","ios":"levelo://app?vid=466ddc0f-d59b-4bba-9820-7fe8d5b77412"},"vehicle_type_id":"4","last_reported":1729862255,"current_range_meters":38400,"station_id":"ce4bgv92rcd13ifvqcq0","pricing_plan_id":"cebpf4jnsgd1na2vs0mg"},{"bike_id":"5c69d8d7-bae0-4d5b-9b69-7b827cf3df05","system_id":"levelo_inurba_marseille","lat":43.30891,"lon":5.39643,"is_reserved":false,"is_disabled":false,"rental_uris":{"android":"levelo://app?vid=5c69d8d7-bae0-4d5b-9b69-7b827cf3df05","ios":"levelo://app?vid=5c69d8d7-bae0-4d5b-9b69-7b827cf3df05"},"vehicle_type_id":"4","last_reported":1729862255,"current_range_meters":28000,"station_id":"ce4bh012rcd13ifvqcv0","pricing_plan_id":"cebpf4jnsgd1na2vs0mg"},{"bike_id":"5df604fa-7553-4272-a4d5-618927778809","system_id":"levelo_inurba_marseille","lat":43.29174,"lon":5.37155,"is_reserved":false,"is_disabled":false,"rental_uris":{"android":"levelo://app?vid=5df604fa-7553-4272-a4d5-618927778809","ios":"levelo://app?vid=5df604fa-7553-4272-a4d5-618927778809"},"vehicle_type_id":"4","last_reported":1729862255,"current_range_meters":11200,"station_id":"ce4bha92rcd13ifvqeh0","pricing_plan_id":"cebpf4jnsgd1na2vs0mg"},{"bike_id":"661e62a9-af33-4796-bf88-bdb0e3140103","system_id":"levelo_inurba_marseille","lat":43.2885,"lon":5.35866,"is_reserved":false,"is_disabled":false,"rental_uris":{"android":"levelo://app?vid=661e62a9-af33-4796-bf88-bdb0e3140103","ios":"levelo://app?vid=661e62a9-af33-4796-bf88-bdb0e3140103"},"vehicle_type_id":"4","last_reported":1729862255,"current_range_meters":38400,"station_id":"ce4bhb12rcd13ifvqem0","pricing_plan_id":"cebpf4jnsgd1na2vs0mg"},{"bike_id":"d0ae0aef-f22e-4e0f-a487-c02599f61132","system_id":"levelo_inurba_marseille","lat":43.28418,"lon":5.349751,"is_reserved":false,"is_disabled":false,"rental_uris":{"android":"levelo://app?vid=d0ae0aef-f22e-4e0f-a487-c02599f61132","ios":"levelo://app?vid=d0ae0aef-f22e-4e0f-a487-c02599f61132"},"vehicle_type_id":"4","last_reported":1729862255,"current_range_meters":33600,"station_id":"ce4bhbh2rcd13ifvqepg","pricing_plan_id":"cebpf4jnsgd1na2vs0mg"},{"bike_id":"8c52a012-f0cf-4462-a80c-e7ffcd0af798","system_id":"levelo_inurba_marseille","lat":43.26953,"lon":5.38634,"is_reserved":false,"is_disabled":false,"rental_uris":{"android":"levelo://app?vid=8c52a012-f0cf-4462-a80c-e7ffcd0af798","ios":"levelo://app?vid=8c52a012-f0cf-4462-a80c-e7ffcd0af798"},"vehicle_type_id":"4","last_reported":1729862255,"current_range_meters":38800,"station_id":"ce4bhh92rcd13ifvqfh0","pricing_plan_id":"cebpf4jnsgd1na2vs0mg"},{"bike_id":"f082fa24-964b-4afc-8d8e-65b1719eafd7","system_id":"levelo_inurba_marseille","lat":43.24389,"lon":5.37053,"is_reserved":false,"is_disabled":false,"rental_uris":{"android":"levelo://app?vid=f082fa24-964b-4afc-8d8e-65b1719eafd7","ios":"levelo://app?vid=f082fa24-964b-4afc-8d8e-65b1719eafd7"},"vehicle_type_id":"4","last_reported":1729862255,"current_range_meters":38800,"station_id":"ce4bhhh2rcd13ifvqfk0","pricing_plan_id":"cebpf4jnsgd1na2vs0mg"},{"bike_id":"adf70089-cb30-4602-a86a-e8037bfc68b2","system_id":"levelo_inurba_marseille","lat":43.295683,"lon":5.374963,"is_reserved":false,"is_disabled":false,"rental_uris":{"android":"levelo://app?vid=adf70089-cb30-4602-a86a-e8037bfc68b2","ios":"levelo://app?vid=adf70089-cb30-4602-a86a-e8037bfc68b2"},"vehicle_type_id":"4","last_reported":1729862255,"current_range_meters":30400,"station_id":"ce4bgh92rcd13ifvqb50","pricing_plan_id":"cebpf4jnsgd1na2vs0mg"},{"bike_id":"c1ea39de-7901-495d-8dcc-cdc4e5c0a1a3","system_id":"levelo_inurba_marseille","lat":43.29536,"lon":5.38547,"is_reserved":false,"is_disabled":false,"rental_uris":{"android":"levelo://app?vid=c1ea39de-7901-495d-8dcc-cdc4e5c0a1a3","ios":"levelo://app?vid=c1ea39de-7901-495d-8dcc-cdc4e5c0a1a3"},"vehicle_type_id":"4","last_reported":1729862255,"current_range_meters":29600,"station_id":"ce4bgih2rcd13ifvqba0","pricing_plan_id":"cebpf4jnsgd1na2vs0mg"},{"bike_id":"d3e60edd-ce94-4f81-ba05-2a3c36f21447","system_id":"levelo_inurba_marseille","lat":43.31141,"lon":5.42374,"is_reserved":false,"is_disabled":false,"rental_uris":{"android":"levelo://app?vid=d3e60edd-ce94-4f81-ba05-2a3c36f21447","ios":"levelo://app?vid=d3e60edd-ce94-4f81-ba05-2a3c36f21447"},"vehicle_type_id":"4","last_reported":1729862255,"current_range_meters":16800,"station_id":"ce4bhp92rcd13ifvqhbg","pricing_plan_id":"cebpf4jnsgd1na2vs0mg"},{"bike_id":"1445141a-332d-4abc-a343-d7358b7eef1a","system_id":"levelo_inurba_marseille","lat":43.27923,"lon":5.39581,"is_reserved":false,"is_disabled":false,"rental_uris":{"android":"levelo://app?vid=1445141a-332d-4abc-a343-d7358b7eef1a","ios":"levelo://app?vid=1445141a-332d-4abc-a343-d7358b7eef1a"},"vehicle_type_id":"4","last_reported":1729862255,"current_range_meters":4800,"station_id":"ce4bhf92rcd13ifvqf40","pricing_plan_id":"cebpf4jnsgd1na2vs0mg"},{"bike_id":"9ed9d97e-c6e1-47e0-a8ee-48160eeb661d","system_id":"levelo_inurba_marseille","lat":43.27902,"lon":5.38,"is_reserved":false,"is_disabled":false,"rental_uris":{"android":"levelo://app?vid=9ed9d97e-c6e1-47e0-a8ee-48160eeb661d","ios":"levelo://app?vid=9ed9d97e-c6e1-47e0-a8ee-48160eeb661d"},"vehicle_type_id":"4","last_reported":1729862255,"current_range_meters":18800,"station_id":"ce4bhf92rcd13ifvqf50","pricing_plan_id":"cebpf4jnsgd1na2vs0mg"},{"bike_id":"1c042e26-d403-4e49-a5ba-cf6b2520e302","system_id":"levelo_inurba_marseille","lat":43.2679,"lon":5.39414,"is_reserved":false,"is_disabled":false,"rental_uris":{"android":"levelo://app?vid=1c042e26-d403-4e49-a5ba-cf6b2520e302","ios":"levelo://app?vid=1c042e26-d403-4e49-a5ba-cf6b2520e302"},"vehicle_type_id":"4","last_reported":1729862255,"current_range_meters":38000,"station_id":"ce4bhh12rcd13ifvqfg0","pricing_plan_id":"cebpf4jnsgd1na2vs0mg"},{"bike_id":"7ebc9bdb-d16d-4077-bbd0-ac0bc6127ef4","system_id":"levelo_inurba_marseille","lat":43.30555,"lon":5.36702,"is_reserved":false,"is_disabled":false,"rental_uris":{"android":"levelo://app?vid=7ebc9bdb-d16d-4077-bbd0-ac0bc6127ef4","ios":"levelo://app?vid=7ebc9bdb-d16d-4077-bbd0-ac0bc6127ef4"},"vehicle_type_id":"4","last_reported":1729862255,"current_range_meters":17600,"station_id":"ce4bgrp2rcd13ifvqc9g","pricing_plan_id":"cebpf4jnsgd1na2vs0mg"},{"bike_id":"43b20a75-49b3-45ab-b19b-f5aa302cde8d","system_id":"levelo_inurba_marseille","lat":43.24804,"lon":5.3745,"is_reserved":false,"is_disabled":false,"rental_uris":{"android":"levelo://app?vid=43b20a75-49b3-45ab-b19b-f5aa302cde8d","ios":"levelo://app?vid=43b20a75-49b3-45ab-b19b-f5aa302cde8d"},"vehicle_type_id":"4","last_reported":1729862255,"current_range_meters":16400,"station_id":"ce4bhgh2rcd13ifvqfb0","pricing_plan_id":"cebpf4jnsgd1na2vs0mg"},{"bike_id":"7ca2732a-8343-4695-9bfd-cf79f7164472","system_id":"levelo_inurba_marseille","lat":43.32106,"lon":5.36773,"is_reserved":false,"is_disabled":false,"rental_uris":{"android":"levelo://app?vid=7ca2732a-8343-4695-9bfd-cf79f7164472","ios":"levelo://app?vid=7ca2732a-8343-4695-9bfd-cf79f7164472"},"vehicle_type_id":"4","last_reported":1729862255,"current_range_meters":14000,"station_id":"ce4bhrh2rcd13ifvqhug","pricing_plan_id":"cebpf4jnsgd1na2vs0mg"},{"bike_id":"18295cba-459b-4864-bdc6-9405fe3604b3","system_id":"levelo_inurba_marseille","lat":43.32475,"lon":5.36546,"is_reserved":false,"is_disabled":false,"rental_uris":{"android":"levelo://app?vid=18295cba-459b-4864-bdc6-9405fe3604b3","ios":"levelo://app?vid=18295cba-459b-4864-bdc6-9405fe3604b3"},"vehicle_type_id":"4","last_reported":1729862255,"current_range_meters":29600,"station_id":"ce4bhs12rcd13ifvqhvg","pricing_plan_id":"cebpf4jnsgd1na2vs0mg"},{"bike_id":"c5b8b73c-2f34-4d1f-a6a3-3b2ee96a96ab","system_id":"levelo_inurba_marseille","lat":43.29962,"lon":5.38492,"is_reserved":false,"is_disabled":false,"rental_uris":{"android":"levelo://app?vid=c5b8b73c-2f34-4d1f-a6a3-3b2ee96a96ab","ios":"levelo://app?vid=c5b8b73c-2f34-4d1f-a6a3-3b2ee96a96ab"},"vehicle_type_id":"4","last_reported":1729862255,"current_range_meters":38400,"station_id":"ce4bgj92rcd13ifvqbd0","pricing_plan_id":"cebpf4jnsgd1na2vs0mg"},{"bike_id":"99ddea5b-5cd9-4b87-9290-1beed3353792","system_id":"levelo_inurba_marseille","lat":43.24389,"lon":5.37053,"is_reserved":false,"is_disabled":false,"rental_uris":{"android":"levelo://app?vid=99ddea5b-5cd9-4b87-9290-1beed3353792","ios":"levelo://app?vid=99ddea5b-5cd9-4b87-9290-1beed3353792"},"vehicle_type_id":"4","last_reported":1729862255,"current_range_meters":39200,"station_id":"ce4bhhh2rcd13ifvqfk0","pricing_plan_id":"cebpf4jnsgd1na2vs0mg"},{"bike_id":"c477c28a-f0fc-4510-83e1-9f7eb061b3d5","system_id":"levelo_inurba_marseille","lat":43.303,"lon":5.39219,"is_reserved":false,"is_disabled":false,"rental_uris":{"android":"levelo://app?vid=c477c28a-f0fc-4510-83e1-9f7eb061b3d5","ios":"levelo://app?vid=c477c28a-f0fc-4510-83e1-9f7eb061b3d5"},"vehicle_type_id":"4","last_reported":1729862255,"current_range_meters":38000,"station_id":"ce4bgkh2rcd13ifvqbk0","pricing_plan_id":"cebpf4jnsgd1na2vs0mg"},{"bike_id":"d38f62e7-1f37-4371-b691-c538fdb76ee1","system_id":"levelo_inurba_marseille","lat":43.30888,"lon":5.37188,"is_reserved":false,"is_disabled":false,"rental_uris":{"android":"levelo://app?vid=d38f62e7-1f37-4371-b691-c538fdb76ee1","ios":"levelo://app?vid=d38f62e7-1f37-4371-b691-c538fdb76ee1"},"vehicle_type_id":"4","last_reported":1729862255,"current_range_meters":19200,"station_id":"ce4bguh2rcd13ifvqckg","pricing_plan_id":"cebpf4jnsgd1na2vs0mg"},{"bike_id":"efdd3aa0-e144-46ca-b8b0-257cd2be71e6","system_id":"levelo_inurba_marseille","lat":43.25575,"lon":5.38234,"is_reserved":false,"is_disabled":false,"rental_uris":{"android":"levelo://app?vid=efdd3aa0-e144-46ca-b8b0-257cd2be71e6","ios":"levelo://app?vid=efdd3aa0-e144-46ca-b8b0-257cd2be71e6"},"vehicle_type_id":"4","last_reported":1729862255,"current_range_meters":38800,"station_id":"ce4bhih2rcd13ifvqfs0","pricing_plan_id":"cebpf4jnsgd1na2vs0mg"},{"bike_id":"ff13667d-1611-4c04-a6d8-e4447e9da9e2","system_id":"levelo_inurba_marseille","lat":43.25869,"lon":5.39892,"is_reserved":false,"is_disabled":false,"rental_uris":{"android":"levelo://app?vid=ff13667d-1611-4c04-a6d8-e4447e9da9e2","ios":"levelo://app?vid=ff13667d-1611-4c04-a6d8-e4447e9da9e2"},"vehicle_type_id":"4","last_reported":1729862255,"current_range_meters":38400,"station_id":"ce4bhl92rcd13ifvqghg","pricing_plan_id":"cebpf4jnsgd1na2vs0mg"},{"bike_id":"a42b0bdd-1f10-437f-813e-02df169ed0a9","system_id":"levelo_inurba_marseille","lat":43.22935,"lon":5.35374,"is_reserved":false,"is_disabled":false,"rental_uris":{"android":"levelo://app?vid=a42b0bdd-1f10-437f-813e-02df169ed0a9","ios":"levelo://app?vid=a42b0bdd-1f10-437f-813e-02df169ed0a9"},"vehicle_type_id":"4","last_reported":1729862255,"current_range_meters":27600,"station_id":"cpo3532slgdg3j2ikp40","pricing_plan_id":"cebpf4jnsgd1na2vs0mg"},{"bike_id":"5cbf8c32-901d-4a53-9920-e2eb6c2246e5","system_id":"levelo_inurba_marseille","lat":43.30892,"lon":5.39625,"is_reserved":false,"is_disabled":false,"rental_uris":{"android":"levelo://app?vid=5cbf8c32-901d-4a53-9920-e2eb6c2246e5","ios":"levelo://app?vid=5cbf8c32-901d-4a53-9920-e2eb6c2246e5"},"vehicle_type_id":"4","last_reported":1729862255,"current_range_meters":38800,"station_id":"ce4bh012rcd13ifvqcv0","pricing_plan_id":"cebpf4jnsgd1na2vs0mg"},{"bike_id":"b2a05d95-c058-43f9-bf69-f76e49523c27","system_id":"levelo_inurba_marseille","lat":43.337444,"lon":5.374475,"is_reserved":false,"is_disabled":false,"rental_uris":{"android":"levelo://app?vid=b2a05d95-c058-43f9-bf69-f76e49523c27","ios":"levelo://app?vid=b2a05d95-c058-43f9-bf69-f76e49523c27"},"vehicle_type_id":"4","last_reported":1729862255,"current_range_meters":38800,"station_id":"","pricing_plan_id":"cebpf4jnsgd1na2vs0mg"},{"bike_id":"1597f92c-b1e5-4723-826a-6dd2f11d31aa","system_id":"levelo_inurba_marseille","lat":43.2587,"lon":5.39895,"is_reserved":false,"is_disabled":false,"rental_uris":{"android":"levelo://app?vid=1597f92c-b1e5-4723-826a-6dd2f11d31aa","ios":"levelo://app?vid=1597f92c-b1e5-4723-826a-6dd2f11d31aa"},"vehicle_type_id":"4","last_reported":1729862255,"current_range_meters":33600,"station_id":"ce4bhl92rcd13ifvqghg","pricing_plan_id":"cebpf4jnsgd1na2vs0mg"},{"bike_id":"1e60f82b-2631-41b0-b308-ffed052a7f0c","system_id":"levelo_inurba_marseille","lat":43.236338,"lon":5.435999,"is_reserved":false,"is_disabled":false,"rental_uris":{"android":"levelo://app?vid=1e60f82b-2631-41b0-b308-ffed052a7f0c","ios":"levelo://app?vid=1e60f82b-2631-41b0-b308-ffed052a7f0c"},"vehicle_type_id":"4","last_reported":1729862255,"current_range_meters":3200,"station_id":"ce4bhmp2rcd13ifvqgog","pricing_plan_id":"cebpf4jnsgd1na2vs0mg"},{"bike_id":"f91d742a-b009-4e35-af9a-9cf23b06f65f","system_id":"levelo_inurba_marseille","lat":43.24077,"lon":5.37755,"is_reserved":false,"is_disabled":false,"rental_uris":{"android":"levelo://app?vid=f91d742a-b009-4e35-af9a-9cf23b06f65f","ios":"levelo://app?vid=f91d742a-b009-4e35-af9a-9cf23b06f65f"},"vehicle_type_id":"4","last_reported":1729862255,"current_range_meters":10000,"station_id":"ce4bhnp2rcd13ifvqgvg","pricing_plan_id":"cebpf4jnsgd1na2vs0mg"},{"bike_id":"9b1c14ba-03fa-44a8-9681-2f4ec583a939","system_id":"levelo_inurba_marseille","lat":43.306549,"lon":5.385474,"is_reserved":false,"is_disabled":false,"rental_uris":{"android":"levelo://app?vid=9b1c14ba-03fa-44a8-9681-2f4ec583a939","ios":"levelo://app?vid=9b1c14ba-03fa-44a8-9681-2f4ec583a939"},"vehicle_type_id":"4","last_reported":1729862255,"current_range_meters":32800,"station_id":"ce4bh2h2rcd13ifvqdh0","pricing_plan_id":"cebpf4jnsgd1na2vs0mg"},{"bike_id":"540e408b-574f-4116-af70-42c639d5d284","system_id":"levelo_inurba_marseille","lat":43.31904,"lon":5.40691,"is_reserved":false,"is_disabled":false,"rental_uris":{"android":"levelo://app?vid=540e408b-574f-4116-af70-42c639d5d284","ios":"levelo://app?vid=540e408b-574f-4116-af70-42c639d5d284"},"vehicle_type_id":"4","last_reported":1729862255,"current_range_meters":31200,"station_id":"ce4bhq12rcd13ifvqhig","pricing_plan_id":"cebpf4jnsgd1na2vs0mg"},{"bike_id":"45c95086-7d6a-4e59-a819-9ab79a417014","system_id":"levelo_inurba_marseille","lat":43.30893,"lon":5.39658,"is_reserved":false,"is_disabled":false,"rental_uris":{"android":"levelo://app?vid=45c95086-7d6a-4e59-a819-9ab79a417014","ios":"levelo://app?vid=45c95086-7d6a-4e59-a819-9ab79a417014"},"vehicle_type_id":"4","last_reported":1729862255,"current_range_meters":39200,"station_id":"ce4bh012rcd13ifvqcv0","pricing_plan_id":"cebpf4jnsgd1na2vs0mg"},{"bike_id":"90237c1e-9e32-4528-bd27-790b348c8817","system_id":"levelo_inurba_marseille","lat":43.30257,"lon":5.40071,"is_reserved":false,"is_disabled":false,"rental_uris":{"android":"levelo://app?vid=90237c1e-9e32-4528-bd27-790b348c8817","ios":"levelo://app?vid=90237c1e-9e32-4528-bd27-790b348c8817"},"vehicle_type_id":"4","last_reported":1729862255,"current_range_meters":25200,"station_id":"ce4bgvh2rcd13ifvqcs0","pricing_plan_id":"cebpf4jnsgd1na2vs0mg"},{"bike_id":"f9ec36ed-f1e8-4d39-a330-d53d339322cc","system_id":"levelo_inurba_marseille","lat":43.24945,"lon":5.39733,"is_reserved":false,"is_disabled":false,"rental_uris":{"android":"levelo://app?vid=f9ec36ed-f1e8-4d39-a330-d53d339322cc","ios":"levelo://app?vid=f9ec36ed-f1e8-4d39-a330-d53d339322cc"},"vehicle_type_id":"4","last_reported":1729862255,"current_range_meters":17200,"station_id":"","pricing_plan_id":"cebpf4jnsgd1na2vs0mg"},{"bike_id":"518d4fe6-b747-493a-8c91-67b073d645db","system_id":"levelo_inurba_marseille","lat":43.24179,"lon":5.39724,"is_reserved":false,"is_disabled":false,"rental_uris":{"android":"levelo://app?vid=518d4fe6-b747-493a-8c91-67b073d645db","ios":"levelo://app?vid=518d4fe6-b747-493a-8c91-67b073d645db"},"vehicle_type_id":"4","last_reported":1729862255,"current_range_meters":14000,"station_id":"ce4bhn12rcd13ifvqgpg","pricing_plan_id":"cebpf4jnsgd1na2vs0mg"},{"bike_id":"14b32013-16c9-4a3a-9b24-38e904708fdb","system_id":"levelo_inurba_marseille","lat":43.28275,"lon":5.3506,"is_reserved":false,"is_disabled":false,"rental_uris":{"android":"levelo://app?vid=14b32013-16c9-4a3a-9b24-38e904708fdb","ios":"levelo://app?vid=14b32013-16c9-4a3a-9b24-38e904708fdb"},"vehicle_type_id":"4","last_reported":1729862255,"current_range_meters":26000,"station_id":"ce4bhbp2rcd13ifvqerg","pricing_plan_id":"cebpf4jnsgd1na2vs0mg"},{"bike_id":"63491ce2-615b-466d-967c-1c69e5bddaca","system_id":"levelo_inurba_marseille","lat":43.29799,"lon":5.38079,"is_reserved":false,"is_disabled":false,"rental_uris":{"android":"levelo://app?vid=63491ce2-615b-466d-967c-1c69e5bddaca","ios":"levelo://app?vid=63491ce2-615b-466d-967c-1c69e5bddaca"},"vehicle_type_id":"4","last_reported":1729862255,"current_range_meters":18800,"station_id":"ce4bgip2rcd13ifvqbb0","pricing_plan_id":"cebpf4jnsgd1na2vs0mg"},{"bike_id":"be0a03d4-ad00-47ab-90f6-f92dfdf095d0","system_id":"levelo_inurba_marseille","lat":43.30141,"lon":5.37425,"is_reserved":false,"is_disabled":false,"rental_uris":{"android":"levelo://app?vid=be0a03d4-ad00-47ab-90f6-f92dfdf095d0","ios":"levelo://app?vid=be0a03d4-ad00-47ab-90f6-f92dfdf095d0"},"vehicle_type_id":"4","last_reported":1729862255,"current_range_meters":17200,"station_id":"ce4bgs92rcd13ifvqcc0","pricing_plan_id":"cebpf4jnsgd1na2vs0mg"},{"bike_id":"21b771f5-e12c-4d5b-be50-280d4e6da9bd","system_id":"levelo_inurba_marseille","lat":43.26683,"lon":5.38262,"is_reserved":false,"is_disabled":false,"rental_uris":{"android":"levelo://app?vid=21b771f5-e12c-4d5b-be50-280d4e6da9bd","ios":"levelo://app?vid=21b771f5-e12c-4d5b-be50-280d4e6da9bd"},"vehicle_type_id":"4","last_reported":1729862255,"current_range_meters":25200,"station_id":"ce4bhg92rcd13ifvqf90","pricing_plan_id":"cebpf4jnsgd1na2vs0mg"},{"bike_id":"6fef7e24-a4a9-453b-bc0b-0c61ee69222f","system_id":"levelo_inurba_marseille","lat":43.3133,"lon":5.39683,"is_reserved":false,"is_disabled":false,"rental_uris":{"android":"levelo://app?vid=6fef7e24-a4a9-453b-bc0b-0c61ee69222f","ios":"levelo://app?vid=6fef7e24-a4a9-453b-bc0b-0c61ee69222f"},"vehicle_type_id":"4","last_reported":1729862255,"current_range_meters":39200,"station_id":"ce4bgvp2rcd13ifvqcu0","pricing_plan_id":"cebpf4jnsgd1na2vs0mg"},{"bike_id":"357054c3-00f3-44b3-960f-25031a13333e","system_id":"levelo_inurba_marseille","lat":43.29594,"lon":5.38095,"is_reserved":false,"is_disabled":false,"rental_uris":{"android":"levelo://app?vid=357054c3-00f3-44b3-960f-25031a13333e","ios":"levelo://app?vid=357054c3-00f3-44b3-960f-25031a13333e"},"vehicle_type_id":"4","last_reported":1729862255,"current_range_meters":24000,"station_id":"ce4bgl12rcd13ifvqbo0","pricing_plan_id":"cebpf4jnsgd1na2vs0mg"},{"bike_id":"9547fe9f-7da9-478b-9033-f446ea71bb69","system_id":"levelo_inurba_marseille","lat":43.31076,"lon":5.42437,"is_reserved":false,"is_disabled":false,"rental_uris":{"android":"levelo://app?vid=9547fe9f-7da9-478b-9033-f446ea71bb69","ios":"levelo://app?vid=9547fe9f-7da9-478b-9033-f446ea71bb69"},"vehicle_type_id":"4","last_reported":1729862255,"current_range_meters":36800,"station_id":"ce4bhp92rcd13ifvqhag","pricing_plan_id":"cebpf4jnsgd1na2vs0mg"},{"bike_id":"cbc8ef28-f0dd-46bc-a374-bf126ae54cf2","system_id":"levelo_inurba_marseille","lat":43.28366,"lon":5.40003,"is_reserved":false,"is_disabled":false,"rental_uris":{"android":"levelo://app?vid=cbc8ef28-f0dd-46bc-a374-bf126ae54cf2","ios":"levelo://app?vid=cbc8ef28-f0dd-46bc-a374-bf126ae54cf2"},"vehicle_type_id":"4","last_reported":1729862255,"current_range_meters":28400,"station_id":"","pricing_plan_id":"cebpf4jnsgd1na2vs0mg"},{"bike_id":"aa2296b3-9e48-4eb8-8736-02ee29db4f53","system_id":"levelo_inurba_marseille","lat":43.30276,"lon":5.37698,"is_reserved":false,"is_disabled":false,"rental_uris":{"android":"levelo://app?vid=aa2296b3-9e48-4eb8-8736-02ee29db4f53","ios":"levelo://app?vid=aa2296b3-9e48-4eb8-8736-02ee29db4f53"},"vehicle_type_id":"4","last_reported":1729862255,"current_range_meters":40000,"station_id":"ce4bguh2rcd13ifvqcj0","pricing_plan_id":"cebpf4jnsgd1na2vs0mg"},{"bike_id":"efe0b02e-9dcd-4192-8f41-25a0bf494636","system_id":"levelo_inurba_marseille","lat":43.32475,"lon":5.36572,"is_reserved":false,"is_disabled":false,"rental_uris":{"android":"levelo://app?vid=efe0b02e-9dcd-4192-8f41-25a0bf494636","ios":"levelo://app?vid=efe0b02e-9dcd-4192-8f41-25a0bf494636"},"vehicle_type_id":"4","last_reported":1729862255,"current_range_meters":38800,"station_id":"ce4bhs12rcd13ifvqhvg","pricing_plan_id":"cebpf4jnsgd1na2vs0mg"},{"bike_id":"a6372292-563d-4771-a01d-bf6771d8264b","system_id":"levelo_inurba_marseille","lat":43.29845,"lon":5.36276,"is_reserved":false,"is_disabled":false,"rental_uris":{"android":"levelo://app?vid=a6372292-563d-4771-a01d-bf6771d8264b","ios":"levelo://app?vid=a6372292-563d-4771-a01d-bf6771d8264b"},"vehicle_type_id":"4","last_reported":1729862255,"current_range_meters":13600,"station_id":"ce4bgpp2rcd13ifvqc3g","pricing_plan_id":"cebpf4jnsgd1na2vs0mg"},{"bike_id":"212337c5-c27c-4ce8-a37e-735a2e6c27ae","system_id":"levelo_inurba_marseille","lat":43.31712,"lon":5.37767,"is_reserved":false,"is_disabled":false,"rental_uris":{"android":"levelo://app?vid=212337c5-c27c-4ce8-a37e-735a2e6c27ae","ios":"levelo://app?vid=212337c5-c27c-4ce8-a37e-735a2e6c27ae"},"vehicle_type_id":"4","last_reported":1729862255,"current_range_meters":38800,"station_id":"ce4bgth2rcd13ifvqch0","pricing_plan_id":"cebpf4jnsgd1na2vs0mg"},{"bike_id":"6a42efe1-6862-438c-9041-187a76c16409","system_id":"levelo_inurba_marseille","lat":43.3047,"lon":5.37897,"is_reserved":false,"is_disabled":false,"rental_uris":{"android":"levelo://app?vid=6a42efe1-6862-438c-9041-187a76c16409","ios":"levelo://app?vid=6a42efe1-6862-438c-9041-187a76c16409"},"vehicle_type_id":"4","last_reported":1729862255,"current_range_meters":37600,"station_id":"ce4bgup2rcd13ifvqcn0","pricing_plan_id":"cebpf4jnsgd1na2vs0mg"},{"bike_id":"48e380db-a09a-4558-9a32-ca03edf9c6fe","system_id":"levelo_inurba_marseille","lat":43.29898,"lon":5.43667,"is_reserved":false,"is_disabled":false,"rental_uris":{"android":"levelo://app?vid=48e380db-a09a-4558-9a32-ca03edf9c6fe","ios":"levelo://app?vid=48e380db-a09a-4558-9a32-ca03edf9c6fe"},"vehicle_type_id":"4","last_reported":1729862255,"current_range_meters":17600,"station_id":"ce4bhpp2rcd13ifvqhfg","pricing_plan_id":"cebpf4jnsgd1na2vs0mg"},{"bike_id":"82e5b345-77a3-4984-9ea4-c98235e5c41c","system_id":"levelo_inurba_marseille","lat":43.31716,"lon":5.37748,"is_reserved":false,"is_disabled":false,"rental_uris":{"android":"levelo://app?vid=82e5b345-77a3-4984-9ea4-c98235e5c41c","ios":"levelo://app?vid=82e5b345-77a3-4984-9ea4-c98235e5c41c"},"vehicle_type_id":"4","last_reported":1729862255,"current_range_meters":17200,"station_id":"ce4bgth2rcd13ifvqch0","pricing_plan_id":"cebpf4jnsgd1na2vs0mg"},{"bike_id":"000c9eb4-0f10-4dc6-84b2-7829018c9128","system_id":"levelo_inurba_marseille","lat":43.29196,"lon":5.35805,"is_reserved":false,"is_disabled":false,"rental_uris":{"android":"levelo://app?vid=000c9eb4-0f10-4dc6-84b2-7829018c9128","ios":"levelo://app?vid=000c9eb4-0f10-4dc6-84b2-7829018c9128"},"vehicle_type_id":"4","last_reported":1729862255,"current_range_meters":40000,"station_id":"ce4bhb12rcd13ifvqel0","pricing_plan_id":"cebpf4jnsgd1na2vs0mg"},{"bike_id":"3237f3e6-ca41-4b0f-b305-147965bbc2f6","system_id":"levelo_inurba_marseille","lat":43.29975,"lon":5.38483,"is_reserved":false,"is_disabled":false,"rental_uris":{"android":"levelo://app?vid=3237f3e6-ca41-4b0f-b305-147965bbc2f6","ios":"levelo://app?vid=3237f3e6-ca41-4b0f-b305-147965bbc2f6"},"vehicle_type_id":"4","last_reported":1729862255,"current_range_meters":2800,"station_id":"ce4bgj92rcd13ifvqbd0","pricing_plan_id":"cebpf4jnsgd1na2vs0mg"},{"bike_id":"e5608251-5561-4701-bb88-77eb4d0254d8","system_id":"levelo_inurba_marseille","lat":43.231537,"lon":5.437015,"is_reserved":false,"is_disabled":false,"rental_uris":{"android":"levelo://app?vid=e5608251-5561-4701-bb88-77eb4d0254d8","ios":"levelo://app?vid=e5608251-5561-4701-bb88-77eb4d0254d8"},"vehicle_type_id":"4","last_reported":1729862255,"current_range_meters":38800,"station_id":"ce4bhmp2rcd13ifvqgog","pricing_plan_id":"cebpf4jnsgd1na2vs0mg"},{"bike_id":"7691659f-eea1-4b4d-8db5-2728fcde3a23","system_id":"levelo_inurba_marseille","lat":43.29386,"lon":5.37528,"is_reserved":false,"is_disabled":false,"rental_uris":{"android":"levelo://app?vid=7691659f-eea1-4b4d-8db5-2728fcde3a23","ios":"levelo://app?vid=7691659f-eea1-4b4d-8db5-2728fcde3a23"},"vehicle_type_id":"4","last_reported":1729862255,"current_range_meters":26000,"station_id":"ce4bhr12rcd13ifvqhqg","pricing_plan_id":"cebpf4jnsgd1na2vs0mg"},{"bike_id":"f80d7c64-9690-47c4-82e6-2afe878fea68","system_id":"levelo_inurba_marseille","lat":43.30548,"lon":5.36541,"is_reserved":false,"is_disabled":false,"rental_uris":{"android":"levelo://app?vid=f80d7c64-9690-47c4-82e6-2afe878fea68","ios":"levelo://app?vid=f80d7c64-9690-47c4-82e6-2afe878fea68"},"vehicle_type_id":"4","last_reported":1729862255,"current_range_meters":31200,"station_id":"ce4bgs12rcd13ifvqcag","pricing_plan_id":"cebpf4jnsgd1na2vs0mg"},{"bike_id":"7d052d9c-a709-47e4-89bb-03a5311580b5","system_id":"levelo_inurba_marseille","lat":43.30133,"lon":5.39861,"is_reserved":false,"is_disabled":false,"rental_uris":{"android":"levelo://app?vid=7d052d9c-a709-47e4-89bb-03a5311580b5","ios":"levelo://app?vid=7d052d9c-a709-47e4-89bb-03a5311580b5"},"vehicle_type_id":"4","last_reported":1729862255,"current_range_meters":38000,"station_id":"ce4bh0h2rcd13ifvqd40","pricing_plan_id":"cebpf4jnsgd1na2vs0mg"},{"bike_id":"0fe77b0f-5131-4557-b571-bab2bbf01500","system_id":"levelo_inurba_marseille","lat":43.29802,"lon":5.38091,"is_reserved":false,"is_disabled":false,"rental_uris":{"android":"levelo://app?vid=0fe77b0f-5131-4557-b571-bab2bbf01500","ios":"levelo://app?vid=0fe77b0f-5131-4557-b571-bab2bbf01500"},"vehicle_type_id":"4","last_reported":1729862255,"current_range_meters":40000,"station_id":"ce4bgip2rcd13ifvqbb0","pricing_plan_id":"cebpf4jnsgd1na2vs0mg"},{"bike_id":"975f98a7-6983-4b5b-aef9-9213ca6bb4cd","system_id":"levelo_inurba_marseille","lat":43.337444,"lon":5.374475,"is_reserved":false,"is_disabled":false,"rental_uris":{"android":"levelo://app?vid=975f98a7-6983-4b5b-aef9-9213ca6bb4cd","ios":"levelo://app?vid=975f98a7-6983-4b5b-aef9-9213ca6bb4cd"},"vehicle_type_id":"4","last_reported":1729862255,"current_range_meters":27200,"station_id":"","pricing_plan_id":"cebpf4jnsgd1na2vs0mg"},{"bike_id":"19ef132f-0a4a-48cf-8e01-c74d639e28ab","system_id":"levelo_inurba_marseille","lat":43.24079,"lon":5.37757,"is_reserved":false,"is_disabled":false,"rental_uris":{"android":"levelo://app?vid=19ef132f-0a4a-48cf-8e01-c74d639e28ab","ios":"levelo://app?vid=19ef132f-0a4a-48cf-8e01-c74d639e28ab"},"vehicle_type_id":"4","last_reported":1729862255,"current_range_meters":10800,"station_id":"ce4bhnp2rcd13ifvqgvg","pricing_plan_id":"cebpf4jnsgd1na2vs0mg"},{"bike_id":"53065b4b-78ff-491e-882e-d55f89db7d61","system_id":"levelo_inurba_marseille","lat":43.31756,"lon":5.39014,"is_reserved":false,"is_disabled":false,"rental_uris":{"android":"levelo://app?vid=53065b4b-78ff-491e-882e-d55f89db7d61","ios":"levelo://app?vid=53065b4b-78ff-491e-882e-d55f89db7d61"},"vehicle_type_id":"4","last_reported":1729862255,"current_range_meters":3600,"station_id":"ce4bhqp2rcd13ifvqhng","pricing_plan_id":"cebpf4jnsgd1na2vs0mg"},{"bike_id":"0319048c-887f-4601-bbca-61b6de806fc8","system_id":"levelo_inurba_marseille","lat":43.27616,"lon":5.36115,"is_reserved":false,"is_disabled":false,"rental_uris":{"android":"levelo://app?vid=0319048c-887f-4601-bbca-61b6de806fc8","ios":"levelo://app?vid=0319048c-887f-4601-bbca-61b6de806fc8"},"vehicle_type_id":"4","last_reported":1729862255,"current_range_meters":39200,"station_id":"ce4bgj92rcd13ifvqbe0","pricing_plan_id":"cebpf4jnsgd1na2vs0mg"},{"bike_id":"03c9732f-39c3-486e-9b43-5c65909f3ea0","system_id":"levelo_inurba_marseille","lat":43.282562,"lon":5.350605,"is_reserved":false,"is_disabled":false,"rental_uris":{"android":"levelo://app?vid=03c9732f-39c3-486e-9b43-5c65909f3ea0","ios":"levelo://app?vid=03c9732f-39c3-486e-9b43-5c65909f3ea0"},"vehicle_type_id":"4","last_reported":1729862255,"current_range_meters":27600,"station_id":"","pricing_plan_id":"cebpf4jnsgd1na2vs0mg"},{"bike_id":"18cd883a-f1cd-4f34-98dc-7580d7e4256d","system_id":"levelo_inurba_marseille","lat":43.24645,"lon":5.38896,"is_reserved":false,"is_disabled":false,"rental_uris":{"android":"levelo://app?vid=18cd883a-f1cd-4f34-98dc-7580d7e4256d","ios":"levelo://app?vid=18cd883a-f1cd-4f34-98dc-7580d7e4256d"},"vehicle_type_id":"4","last_reported":1729862255,"current_range_meters":21600,"station_id":"ce4bhg12rcd13ifvqf60","pricing_plan_id":"cebpf4jnsgd1na2vs0mg"},{"bike_id":"b7de22ec-f13e-43a6-8212-09c92176816b","system_id":"levelo_inurba_marseille","lat":43.27843,"lon":5.39203,"is_reserved":false,"is_disabled":false,"rental_uris":{"android":"levelo://app?vid=b7de22ec-f13e-43a6-8212-09c92176816b","ios":"levelo://app?vid=b7de22ec-f13e-43a6-8212-09c92176816b"},"vehicle_type_id":"4","last_reported":1729862255,"current_range_meters":7200,"station_id":"ce4bhjp2rcd13ifvqga0","pricing_plan_id":"cebpf4jnsgd1na2vs0mg"},{"bike_id":"40321da8-c398-4ab8-927e-bee9aa84dcec","system_id":"levelo_inurba_marseille","lat":43.33756,"lon":5.37449,"is_reserved":false,"is_disabled":false,"rental_uris":{"android":"levelo://app?vid=40321da8-c398-4ab8-927e-bee9aa84dcec","ios":"levelo://app?vid=40321da8-c398-4ab8-927e-bee9aa84dcec"},"vehicle_type_id":"4","last_reported":1729862255,"current_range_meters":37600,"station_id":"","pricing_plan_id":"cebpf4jnsgd1na2vs0mg"},{"bike_id":"8366e6d0-9c94-41a3-b2d8-09fdcfeeeefc","system_id":"levelo_inurba_marseille","lat":43.30791,"lon":5.38164,"is_reserved":false,"is_disabled":false,"rental_uris":{"android":"levelo://app?vid=8366e6d0-9c94-41a3-b2d8-09fdcfeeeefc","ios":"levelo://app?vid=8366e6d0-9c94-41a3-b2d8-09fdcfeeeefc"},"vehicle_type_id":"4","last_reported":1729862255,"current_range_meters":16800,"station_id":"ce4bgt12rcd13ifvqce0","pricing_plan_id":"cebpf4jnsgd1na2vs0mg"},{"bike_id":"bef0f98e-928e-4943-83ce-7b60f0d730d7","system_id":"levelo_inurba_marseille","lat":43.22925,"lon":5.35378,"is_reserved":false,"is_disabled":false,"rental_uris":{"android":"levelo://app?vid=bef0f98e-928e-4943-83ce-7b60f0d730d7","ios":"levelo://app?vid=bef0f98e-928e-4943-83ce-7b60f0d730d7"},"vehicle_type_id":"4","last_reported":1729862255,"current_range_meters":36800,"station_id":"cpo3532slgdg3j2ikp40","pricing_plan_id":"cebpf4jnsgd1na2vs0mg"},{"bike_id":"66f020ae-5526-4ad0-8af9-6a968240ac52","system_id":"levelo_inurba_marseille","lat":43.3248,"lon":5.36565,"is_reserved":false,"is_disabled":false,"rental_uris":{"android":"levelo://app?vid=66f020ae-5526-4ad0-8af9-6a968240ac52","ios":"levelo://app?vid=66f020ae-5526-4ad0-8af9-6a968240ac52"},"vehicle_type_id":"4","last_reported":1729862255,"current_range_meters":37600,"station_id":"ce4bhs12rcd13ifvqhvg","pricing_plan_id":"cebpf4jnsgd1na2vs0mg"},{"bike_id":"61f8f08a-c8a9-46a4-8a3e-30f9921aa73a","system_id":"levelo_inurba_marseille","lat":43.30148,"lon":5.37423,"is_reserved":false,"is_disabled":false,"rental_uris":{"android":"levelo://app?vid=61f8f08a-c8a9-46a4-8a3e-30f9921aa73a","ios":"levelo://app?vid=61f8f08a-c8a9-46a4-8a3e-30f9921aa73a"},"vehicle_type_id":"4","last_reported":1729862255,"current_range_meters":36800,"station_id":"ce4bgs92rcd13ifvqcc0","pricing_plan_id":"cebpf4jnsgd1na2vs0mg"},{"bike_id":"e37a1f01-49ff-48a3-b013-684efccc22b2","system_id":"levelo_inurba_marseille","lat":43.265,"lon":5.39535,"is_reserved":false,"is_disabled":false,"rental_uris":{"android":"levelo://app?vid=e37a1f01-49ff-48a3-b013-684efccc22b2","ios":"levelo://app?vid=e37a1f01-49ff-48a3-b013-684efccc22b2"},"vehicle_type_id":"4","last_reported":1729862255,"current_range_meters":19200,"station_id":"ce4bhi12rcd13ifvqfq0","pricing_plan_id":"cebpf4jnsgd1na2vs0mg"},{"bike_id":"09dc4124-7fb5-4ba7-a1f0-258ed57ce86b","system_id":"levelo_inurba_marseille","lat":43.22928,"lon":5.35374,"is_reserved":false,"is_disabled":false,"rental_uris":{"android":"levelo://app?vid=09dc4124-7fb5-4ba7-a1f0-258ed57ce86b","ios":"levelo://app?vid=09dc4124-7fb5-4ba7-a1f0-258ed57ce86b"},"vehicle_type_id":"4","last_reported":1729862255,"current_range_meters":38400,"station_id":"cpo3532slgdg3j2ikp40","pricing_plan_id":"cebpf4jnsgd1na2vs0mg"},{"bike_id":"74742f40-fa2c-48fd-bf0d-6739b2845560","system_id":"levelo_inurba_marseille","lat":43.30358,"lon":5.39183,"is_reserved":false,"is_disabled":false,"rental_uris":{"android":"levelo://app?vid=74742f40-fa2c-48fd-bf0d-6739b2845560","ios":"levelo://app?vid=74742f40-fa2c-48fd-bf0d-6739b2845560"},"vehicle_type_id":"4","last_reported":1729862255,"current_range_meters":37600,"station_id":"ce4bgkh2rcd13ifvqbk0","pricing_plan_id":"cebpf4jnsgd1na2vs0mg"},{"bike_id":"42872a10-b6d5-45d3-adb2-f56a9298591a","system_id":"levelo_inurba_marseille","lat":43.29626,"lon":5.4059,"is_reserved":false,"is_disabled":false,"rental_uris":{"android":"levelo://app?vid=42872a10-b6d5-45d3-adb2-f56a9298591a","ios":"levelo://app?vid=42872a10-b6d5-45d3-adb2-f56a9298591a"},"vehicle_type_id":"4","last_reported":1729862255,"current_range_meters":39200,"station_id":"ce4bh0h2rcd13ifvqd60","pricing_plan_id":"cebpf4jnsgd1na2vs0mg"},{"bike_id":"9a1c6c58-3062-4a9d-a9d0-83b4a3a073db","system_id":"levelo_inurba_marseille","lat":43.29557,"lon":5.42292,"is_reserved":false,"is_disabled":false,"rental_uris":{"android":"levelo://app?vid=9a1c6c58-3062-4a9d-a9d0-83b4a3a073db","ios":"levelo://app?vid=9a1c6c58-3062-4a9d-a9d0-83b4a3a073db"},"vehicle_type_id":"4","last_reported":1729862255,"current_range_meters":20800,"station_id":"ce4bhph2rcd13ifvqhdg","pricing_plan_id":"cebpf4jnsgd1na2vs0mg"},{"bike_id":"624edaa0-d4e3-4898-9d4f-27e6775bc185","system_id":"levelo_inurba_marseille","lat":43.30145,"lon":5.37424,"is_reserved":false,"is_disabled":false,"rental_uris":{"android":"levelo://app?vid=624edaa0-d4e3-4898-9d4f-27e6775bc185","ios":"levelo://app?vid=624edaa0-d4e3-4898-9d4f-27e6775bc185"},"vehicle_type_id":"4","last_reported":1729862255,"current_range_meters":4400,"station_id":"ce4bgs92rcd13ifvqcc0","pricing_plan_id":"cebpf4jnsgd1na2vs0mg"},{"bike_id":"7ed2a6fd-de0b-4f8b-b564-948f5bec40c6","system_id":"levelo_inurba_marseille","lat":43.23149,"lon":5.4372,"is_reserved":false,"is_disabled":false,"rental_uris":{"android":"levelo://app?vid=7ed2a6fd-de0b-4f8b-b564-948f5bec40c6","ios":"levelo://app?vid=7ed2a6fd-de0b-4f8b-b564-948f5bec40c6"},"vehicle_type_id":"4","last_reported":1729862255,"current_range_meters":26000,"station_id":"ce4bhmp2rcd13ifvqgog","pricing_plan_id":"cebpf4jnsgd1na2vs0mg"},{"bike_id":"f347d2d3-8e62-42af-b56b-5696da48a0b0","system_id":"levelo_inurba_marseille","lat":43.26031,"lon":5.37549,"is_reserved":false,"is_disabled":false,"rental_uris":{"android":"levelo://app?vid=f347d2d3-8e62-42af-b56b-5696da48a0b0","ios":"levelo://app?vid=f347d2d3-8e62-42af-b56b-5696da48a0b0"},"vehicle_type_id":"4","last_reported":1729862255,"current_range_meters":38800,"station_id":"ce4bhgh2rcd13ifvqfa0","pricing_plan_id":"cebpf4jnsgd1na2vs0mg"},{"bike_id":"d51e70e3-e500-4ad8-afdb-77e572148b3c","system_id":"levelo_inurba_marseille","lat":43.3028,"lon":5.377,"is_reserved":false,"is_disabled":false,"rental_uris":{"android":"levelo://app?vid=d51e70e3-e500-4ad8-afdb-77e572148b3c","ios":"levelo://app?vid=d51e70e3-e500-4ad8-afdb-77e572148b3c"},"vehicle_type_id":"4","last_reported":1729862255,"current_range_meters":38400,"station_id":"ce4bguh2rcd13ifvqcj0","pricing_plan_id":"cebpf4jnsgd1na2vs0mg"},{"bike_id":"56c6f9f5-fdcb-4236-a945-56b86ab994b2","system_id":"levelo_inurba_marseille","lat":43.29225,"lon":5.36079,"is_reserved":false,"is_disabled":false,"rental_uris":{"android":"levelo://app?vid=56c6f9f5-fdcb-4236-a945-56b86ab994b2","ios":"levelo://app?vid=56c6f9f5-fdcb-4236-a945-56b86ab994b2"},"vehicle_type_id":"4","last_reported":1729862255,"current_range_meters":24400,"station_id":"ce4bhbh2rcd13ifvqeqg","pricing_plan_id":"cebpf4jnsgd1na2vs0mg"},{"bike_id":"103c0fd4-bc85-4d9d-b042-a4d344669667","system_id":"levelo_inurba_marseille","lat":43.33765,"lon":5.3742,"is_reserved":false,"is_disabled":false,"rental_uris":{"android":"levelo://app?vid=103c0fd4-bc85-4d9d-b042-a4d344669667","ios":"levelo://app?vid=103c0fd4-bc85-4d9d-b042-a4d344669667"},"vehicle_type_id":"4","last_reported":1729862255,"current_range_meters":38800,"station_id":"","pricing_plan_id":"cebpf4jnsgd1na2vs0mg"},{"bike_id":"0ef8fba8-39c8-4140-84b7-f273a0e855f5","system_id":"levelo_inurba_marseille","lat":43.2732,"lon":5.39085,"is_reserved":false,"is_disabled":false,"rental_uris":{"android":"levelo://app?vid=0ef8fba8-39c8-4140-84b7-f273a0e855f5","ios":"levelo://app?vid=0ef8fba8-39c8-4140-84b7-f273a0e855f5"},"vehicle_type_id":"4","last_reported":1729862255,"current_range_meters":35200,"station_id":"ce4bhgp2rcd13ifvqfe0","pricing_plan_id":"cebpf4jnsgd1na2vs0mg"},{"bike_id":"6ae5c146-3499-40d3-86c2-6885fd8ebd2d","system_id":"levelo_inurba_marseille","lat":43.29588,"lon":5.36733,"is_reserved":false,"is_disabled":false,"rental_uris":{"android":"levelo://app?vid=6ae5c146-3499-40d3-86c2-6885fd8ebd2d","ios":"levelo://app?vid=6ae5c146-3499-40d3-86c2-6885fd8ebd2d"},"vehicle_type_id":"4","last_reported":1729862255,"current_range_meters":38000,"station_id":"ce4bgph2rcd13ifvqc2g","pricing_plan_id":"cebpf4jnsgd1na2vs0mg"},{"bike_id":"bc64e5b4-b5f4-43c5-9bda-c4f00061d985","system_id":"levelo_inurba_marseille","lat":43.28425,"lon":5.3499,"is_reserved":false,"is_disabled":false,"rental_uris":{"android":"levelo://app?vid=bc64e5b4-b5f4-43c5-9bda-c4f00061d985","ios":"levelo://app?vid=bc64e5b4-b5f4-43c5-9bda-c4f00061d985"},"vehicle_type_id":"4","last_reported":1729862255,"current_range_meters":30400,"station_id":"ce4bhbh2rcd13ifvqepg","pricing_plan_id":"cebpf4jnsgd1na2vs0mg"},{"bike_id":"05b896ae-ddd6-4150-888f-6096f4d9d149","system_id":"levelo_inurba_marseille","lat":43.3047,"lon":5.37898,"is_reserved":false,"is_disabled":false,"rental_uris":{"android":"levelo://app?vid=05b896ae-ddd6-4150-888f-6096f4d9d149","ios":"levelo://app?vid=05b896ae-ddd6-4150-888f-6096f4d9d149"},"vehicle_type_id":"4","last_reported":1729862255,"current_range_meters":39200,"station_id":"ce4bgup2rcd13ifvqcn0","pricing_plan_id":"cebpf4jnsgd1na2vs0mg"},{"bike_id":"9048ce79-4249-4d03-b9fc-14121dd53378","system_id":"levelo_inurba_marseille","lat":43.30485,"lon":5.37911,"is_reserved":false,"is_disabled":false,"rental_uris":{"android":"levelo://app?vid=9048ce79-4249-4d03-b9fc-14121dd53378","ios":"levelo://app?vid=9048ce79-4249-4d03-b9fc-14121dd53378"},"vehicle_type_id":"4","last_reported":1729862255,"current_range_meters":38000,"station_id":"ce4bgup2rcd13ifvqcn0","pricing_plan_id":"cebpf4jnsgd1na2vs0mg"},{"bike_id":"845e1b95-4e1f-4f0b-93b0-d4c186b9d1bb","system_id":"levelo_inurba_marseille","lat":43.25575,"lon":5.38234,"is_reserved":false,"is_disabled":false,"rental_uris":{"android":"levelo://app?vid=845e1b95-4e1f-4f0b-93b0-d4c186b9d1bb","ios":"levelo://app?vid=845e1b95-4e1f-4f0b-93b0-d4c186b9d1bb"},"vehicle_type_id":"4","last_reported":1729862255,"current_range_meters":8000,"station_id":"ce4bhih2rcd13ifvqfs0","pricing_plan_id":"cebpf4jnsgd1na2vs0mg"},{"bike_id":"c3270562-ff03-4274-aa47-d60d1eca1186","system_id":"levelo_inurba_marseille","lat":43.29791,"lon":5.38103,"is_reserved":false,"is_disabled":false,"rental_uris":{"android":"levelo://app?vid=c3270562-ff03-4274-aa47-d60d1eca1186","ios":"levelo://app?vid=c3270562-ff03-4274-aa47-d60d1eca1186"},"vehicle_type_id":"4","last_reported":1729862255,"current_range_meters":24000,"station_id":"ce4bgip2rcd13ifvqbb0","pricing_plan_id":"cebpf4jnsgd1na2vs0mg"},{"bike_id":"6945c7f9-6d31-4e59-87a6-a51dcf202bdb","system_id":"levelo_inurba_marseille","lat":43.26028,"lon":5.37548,"is_reserved":false,"is_disabled":false,"rental_uris":{"android":"levelo://app?vid=6945c7f9-6d31-4e59-87a6-a51dcf202bdb","ios":"levelo://app?vid=6945c7f9-6d31-4e59-87a6-a51dcf202bdb"},"vehicle_type_id":"4","last_reported":1729862255,"current_range_meters":38800,"station_id":"ce4bhgh2rcd13ifvqfa0","pricing_plan_id":"cebpf4jnsgd1na2vs0mg"},{"bike_id":"3338aab7-00e7-46a2-a044-52ad9402459e","system_id":"levelo_inurba_marseille","lat":43.28999,"lon":5.35603,"is_reserved":false,"is_disabled":false,"rental_uris":{"android":"levelo://app?vid=3338aab7-00e7-46a2-a044-52ad9402459e","ios":"levelo://app?vid=3338aab7-00e7-46a2-a044-52ad9402459e"},"vehicle_type_id":"4","last_reported":1729862255,"current_range_meters":31200,"station_id":"ce4bhb92rcd13ifvqen0","pricing_plan_id":"cebpf4jnsgd1na2vs0mg"},{"bike_id":"292dca4a-9218-4bca-84ad-272c2a9f3d54","system_id":"levelo_inurba_marseille","lat":43.293243,"lon":5.376727,"is_reserved":false,"is_disabled":false,"rental_uris":{"android":"levelo://app?vid=292dca4a-9218-4bca-84ad-272c2a9f3d54","ios":"levelo://app?vid=292dca4a-9218-4bca-84ad-272c2a9f3d54"},"vehicle_type_id":"4","last_reported":1729862255,"current_range_meters":32000,"station_id":"ce4bh612rcd13ifvqe6g","pricing_plan_id":"cebpf4jnsgd1na2vs0mg"},{"bike_id":"51acb800-d39f-4134-a3db-79ea2069126d","system_id":"levelo_inurba_marseille","lat":43.30462,"lon":5.40184,"is_reserved":false,"is_disabled":false,"rental_uris":{"android":"levelo://app?vid=51acb800-d39f-4134-a3db-79ea2069126d","ios":"levelo://app?vid=51acb800-d39f-4134-a3db-79ea2069126d"},"vehicle_type_id":"4","last_reported":1729862255,"current_range_meters":16400,"station_id":"","pricing_plan_id":"cebpf4jnsgd1na2vs0mg"},{"bike_id":"6e3ca4c0-8be1-4bab-a2b2-eb74bdf08587","system_id":"levelo_inurba_marseille","lat":43.30153,"lon":5.3807,"is_reserved":false,"is_disabled":false,"rental_uris":{"android":"levelo://app?vid=6e3ca4c0-8be1-4bab-a2b2-eb74bdf08587","ios":"levelo://app?vid=6e3ca4c0-8be1-4bab-a2b2-eb74bdf08587"},"vehicle_type_id":"4","last_reported":1729862255,"current_range_meters":10000,"station_id":"ce4bgjp2rcd13ifvqbh0","pricing_plan_id":"cebpf4jnsgd1na2vs0mg"},{"bike_id":"39f5c1a3-2c4f-4694-a663-6b66ce697470","system_id":"levelo_inurba_marseille","lat":43.30312,"lon":5.3919,"is_reserved":false,"is_disabled":false,"rental_uris":{"android":"levelo://app?vid=39f5c1a3-2c4f-4694-a663-6b66ce697470","ios":"levelo://app?vid=39f5c1a3-2c4f-4694-a663-6b66ce697470"},"vehicle_type_id":"4","last_reported":1729862255,"current_range_meters":26000,"station_id":"ce4bgkh2rcd13ifvqbk0","pricing_plan_id":"cebpf4jnsgd1na2vs0mg"},{"bike_id":"bd995abb-12e7-47a6-b0b9-e1f25439576a","system_id":"levelo_inurba_marseille","lat":43.25007,"lon":5.38927,"is_reserved":false,"is_disabled":false,"rental_uris":{"android":"levelo://app?vid=bd995abb-12e7-47a6-b0b9-e1f25439576a","ios":"levelo://app?vid=bd995abb-12e7-47a6-b0b9-e1f25439576a"},"vehicle_type_id":"4","last_reported":1729862255,"current_range_meters":39200,"station_id":"ce4bhgp2rcd13ifvqfd0","pricing_plan_id":"cebpf4jnsgd1na2vs0mg"},{"bike_id":"45d69bed-7a09-4768-a23a-99b267181d0d","system_id":"levelo_inurba_marseille","lat":43.29015,"lon":5.3813,"is_reserved":false,"is_disabled":false,"rental_uris":{"android":"levelo://app?vid=45d69bed-7a09-4768-a23a-99b267181d0d","ios":"levelo://app?vid=45d69bed-7a09-4768-a23a-99b267181d0d"},"vehicle_type_id":"4","last_reported":1729862255,"current_range_meters":3200,"station_id":"ce4bh4p2rcd13ifvqe1g","pricing_plan_id":"cebpf4jnsgd1na2vs0mg"},{"bike_id":"94683425-7064-4cd9-870f-3dcd50c4b3b3","system_id":"levelo_inurba_marseille","lat":43.32293,"lon":5.38259,"is_reserved":false,"is_disabled":false,"rental_uris":{"android":"levelo://app?vid=94683425-7064-4cd9-870f-3dcd50c4b3b3","ios":"levelo://app?vid=94683425-7064-4cd9-870f-3dcd50c4b3b3"},"vehicle_type_id":"4","last_reported":1729862255,"current_range_meters":30800,"station_id":"ce4bhr12rcd13ifvqhqg","pricing_plan_id":"cebpf4jnsgd1na2vs0mg"},{"bike_id":"43e0342e-7c69-4ef3-9959-2e5c770bab9f","system_id":"levelo_inurba_marseille","lat":43.22929,"lon":5.35375,"is_reserved":false,"is_disabled":false,"rental_uris":{"android":"levelo://app?vid=43e0342e-7c69-4ef3-9959-2e5c770bab9f","ios":"levelo://app?vid=43e0342e-7c69-4ef3-9959-2e5c770bab9f"},"vehicle_type_id":"4","last_reported":1729862255,"current_range_meters":18800,"station_id":"cpo3532slgdg3j2ikp40","pricing_plan_id":"cebpf4jnsgd1na2vs0mg"},{"bike_id":"30506dd3-5dff-4893-9985-60fd5a91a751","system_id":"levelo_inurba_marseille","lat":43.29578,"lon":5.36733,"is_reserved":false,"is_disabled":false,"rental_uris":{"android":"levelo://app?vid=30506dd3-5dff-4893-9985-60fd5a91a751","ios":"levelo://app?vid=30506dd3-5dff-4893-9985-60fd5a91a751"},"vehicle_type_id":"4","last_reported":1729862255,"current_range_meters":22400,"station_id":"ce4bgph2rcd13ifvqc2g","pricing_plan_id":"cebpf4jnsgd1na2vs0mg"},{"bike_id":"2433563d-98be-465b-b4c0-7312b9ab3b86","system_id":"levelo_inurba_marseille","lat":43.29008,"lon":5.35613,"is_reserved":false,"is_disabled":false,"rental_uris":{"android":"levelo://app?vid=2433563d-98be-465b-b4c0-7312b9ab3b86","ios":"levelo://app?vid=2433563d-98be-465b-b4c0-7312b9ab3b86"},"vehicle_type_id":"4","last_reported":1729862255,"current_range_meters":25600,"station_id":"ce4bhb92rcd13ifvqen0","pricing_plan_id":"cebpf4jnsgd1na2vs0mg"},{"bike_id":"85801202-09cd-441a-8be0-f24118ce4d28","system_id":"levelo_inurba_marseille","lat":43.31886,"lon":5.4073,"is_reserved":false,"is_disabled":false,"rental_uris":{"android":"levelo://app?vid=85801202-09cd-441a-8be0-f24118ce4d28","ios":"levelo://app?vid=85801202-09cd-441a-8be0-f24118ce4d28"},"vehicle_type_id":"4","last_reported":1729862255,"current_range_meters":29600,"station_id":"ce4bhq12rcd13ifvqhig","pricing_plan_id":"cebpf4jnsgd1na2vs0mg"},{"bike_id":"69c50a7a-8960-41bd-bcf6-67af981ebe82","system_id":"levelo_inurba_marseille","lat":43.28847,"lon":5.35857,"is_reserved":false,"is_disabled":false,"rental_uris":{"android":"levelo://app?vid=69c50a7a-8960-41bd-bcf6-67af981ebe82","ios":"levelo://app?vid=69c50a7a-8960-41bd-bcf6-67af981ebe82"},"vehicle_type_id":"4","last_reported":1729862255,"current_range_meters":37600,"station_id":"ce4bhb12rcd13ifvqem0","pricing_plan_id":"cebpf4jnsgd1na2vs0mg"},{"bike_id":"828fe52e-1917-45a4-bccc-4d59bf498682","system_id":"levelo_inurba_marseille","lat":43.29225,"lon":5.36072,"is_reserved":false,"is_disabled":false,"rental_uris":{"android":"levelo://app?vid=828fe52e-1917-45a4-bccc-4d59bf498682","ios":"levelo://app?vid=828fe52e-1917-45a4-bccc-4d59bf498682"},"vehicle_type_id":"4","last_reported":1729862255,"current_range_meters":36800,"station_id":"ce4bhbh2rcd13ifvqeqg","pricing_plan_id":"cebpf4jnsgd1na2vs0mg"},{"bike_id":"80a83509-3b03-4bad-a9e3-0d95e18b0238","system_id":"levelo_inurba_marseille","lat":43.29007,"lon":5.35607,"is_reserved":false,"is_disabled":false,"rental_uris":{"android":"levelo://app?vid=80a83509-3b03-4bad-a9e3-0d95e18b0238","ios":"levelo://app?vid=80a83509-3b03-4bad-a9e3-0d95e18b0238"},"vehicle_type_id":"4","last_reported":1729862255,"current_range_meters":2800,"station_id":"ce4bhb92rcd13ifvqen0","pricing_plan_id":"cebpf4jnsgd1na2vs0mg"},{"bike_id":"9957a05c-438c-4d8f-beaa-5cc189bb6d6c","system_id":"levelo_inurba_marseille","lat":43.29969,"lon":5.38494,"is_reserved":false,"is_disabled":false,"rental_uris":{"android":"levelo://app?vid=9957a05c-438c-4d8f-beaa-5cc189bb6d6c","ios":"levelo://app?vid=9957a05c-438c-4d8f-beaa-5cc189bb6d6c"},"vehicle_type_id":"4","last_reported":1729862255,"current_range_meters":36000,"station_id":"ce4bgj92rcd13ifvqbd0","pricing_plan_id":"cebpf4jnsgd1na2vs0mg"},{"bike_id":"365a5e76-e012-4983-b8a9-1a07480bde83","system_id":"levelo_inurba_marseille","lat":43.23188,"lon":5.35536,"is_reserved":false,"is_disabled":false,"rental_uris":{"android":"levelo://app?vid=365a5e76-e012-4983-b8a9-1a07480bde83","ios":"levelo://app?vid=365a5e76-e012-4983-b8a9-1a07480bde83"},"vehicle_type_id":"4","last_reported":1729862255,"current_range_meters":40000,"station_id":"ce4bhu92rcd13ifvqi70","pricing_plan_id":"cebpf4jnsgd1na2vs0mg"},{"bike_id":"176c2bd2-7d0c-4278-833a-48f82a51f6ca","system_id":"levelo_inurba_marseille","lat":43.26193,"lon":5.37922,"is_reserved":false,"is_disabled":false,"rental_uris":{"android":"levelo://app?vid=176c2bd2-7d0c-4278-833a-48f82a51f6ca","ios":"levelo://app?vid=176c2bd2-7d0c-4278-833a-48f82a51f6ca"},"vehicle_type_id":"4","last_reported":1729862255,"current_range_meters":39200,"station_id":"ce4bhjp2rcd13ifvqg90","pricing_plan_id":"cebpf4jnsgd1na2vs0mg"},{"bike_id":"3f5f3fa1-0c19-4de3-ad0c-44d11a8221b5","system_id":"levelo_inurba_marseille","lat":43.31498,"lon":5.37304,"is_reserved":false,"is_disabled":false,"rental_uris":{"android":"levelo://app?vid=3f5f3fa1-0c19-4de3-ad0c-44d11a8221b5","ios":"levelo://app?vid=3f5f3fa1-0c19-4de3-ad0c-44d11a8221b5"},"vehicle_type_id":"4","last_reported":1729862255,"current_range_meters":31200,"station_id":"ce4bgt12rcd13ifvqcd0","pricing_plan_id":"cebpf4jnsgd1na2vs0mg"},{"bike_id":"41f153c9-6e2f-4115-a2bf-ece305a88b3a","system_id":"levelo_inurba_marseille","lat":43.2307,"lon":5.35489,"is_reserved":false,"is_disabled":false,"rental_uris":{"android":"levelo://app?vid=41f153c9-6e2f-4115-a2bf-ece305a88b3a","ios":"levelo://app?vid=41f153c9-6e2f-4115-a2bf-ece305a88b3a"},"vehicle_type_id":"4","last_reported":1729862255,"current_range_meters":30800,"station_id":"cpo3342slgdg3j2ifvpg","pricing_plan_id":"cebpf4jnsgd1na2vs0mg"},{"bike_id":"f1f3124d-156b-4ea3-8f8c-6dfee18217ad","system_id":"levelo_inurba_marseille","lat":43.27811,"lon":5.40712,"is_reserved":false,"is_disabled":false,"rental_uris":{"android":"levelo://app?vid=f1f3124d-156b-4ea3-8f8c-6dfee18217ad","ios":"levelo://app?vid=f1f3124d-156b-4ea3-8f8c-6dfee18217ad"},"vehicle_type_id":"4","last_reported":1729862255,"current_range_meters":37600,"station_id":"ce4bhnh2rcd13ifvqgtg","pricing_plan_id":"cebpf4jnsgd1na2vs0mg"},{"bike_id":"9b75049b-a480-4336-b5d5-a05ddf000c14","system_id":"levelo_inurba_marseille","lat":43.27175,"lon":5.40993,"is_reserved":false,"is_disabled":false,"rental_uris":{"android":"levelo://app?vid=9b75049b-a480-4336-b5d5-a05ddf000c14","ios":"levelo://app?vid=9b75049b-a480-4336-b5d5-a05ddf000c14"},"vehicle_type_id":"4","last_reported":1729862255,"current_range_meters":11600,"station_id":"ce4bhl12rcd13ifvqgf0","pricing_plan_id":"cebpf4jnsgd1na2vs0mg"},{"bike_id":"f4644fd1-7f23-48e1-b557-c706f7bf5c82","system_id":"levelo_inurba_marseille","lat":43.26483,"lon":5.39552,"is_reserved":false,"is_disabled":false,"rental_uris":{"android":"levelo://app?vid=f4644fd1-7f23-48e1-b557-c706f7bf5c82","ios":"levelo://app?vid=f4644fd1-7f23-48e1-b557-c706f7bf5c82"},"vehicle_type_id":"4","last_reported":1729862255,"current_range_meters":17600,"station_id":"ce4bhi12rcd13ifvqfq0","pricing_plan_id":"cebpf4jnsgd1na2vs0mg"},{"bike_id":"97f1e07d-8e13-4799-8207-7c17be29a464","system_id":"levelo_inurba_marseille","lat":43.28273,"lon":5.35066,"is_reserved":false,"is_disabled":false,"rental_uris":{"android":"levelo://app?vid=97f1e07d-8e13-4799-8207-7c17be29a464","ios":"levelo://app?vid=97f1e07d-8e13-4799-8207-7c17be29a464"},"vehicle_type_id":"4","last_reported":1729862255,"current_range_meters":11200,"station_id":"ce4bhbp2rcd13ifvqerg","pricing_plan_id":"cebpf4jnsgd1na2vs0mg"},{"bike_id":"ffaf6d1c-64f9-4c62-bbf1-b08f3ad9a305","system_id":"levelo_inurba_marseille","lat":43.33748,"lon":5.37454,"is_reserved":false,"is_disabled":false,"rental_uris":{"android":"levelo://app?vid=ffaf6d1c-64f9-4c62-bbf1-b08f3ad9a305","ios":"levelo://app?vid=ffaf6d1c-64f9-4c62-bbf1-b08f3ad9a305"},"vehicle_type_id":"4","last_reported":1729862255,"current_range_meters":22400,"station_id":"","pricing_plan_id":"cebpf4jnsgd1na2vs0mg"},{"bike_id":"a5d07162-d01a-4cdc-a758-61b99b2bb66f","system_id":"levelo_inurba_marseille","lat":43.28153,"lon":5.42639,"is_reserved":false,"is_disabled":false,"rental_uris":{"android":"levelo://app?vid=a5d07162-d01a-4cdc-a758-61b99b2bb66f","ios":"levelo://app?vid=a5d07162-d01a-4cdc-a758-61b99b2bb66f"},"vehicle_type_id":"4","last_reported":1729862255,"current_range_meters":18000,"station_id":"ce4bhnh2rcd13ifvqgug","pricing_plan_id":"cebpf4jnsgd1na2vs0mg"},{"bike_id":"9d3acf32-9ed0-4c2a-9f19-4a2270ba3bf3","system_id":"levelo_inurba_marseille","lat":43.30148,"lon":5.37415,"is_reserved":false,"is_disabled":false,"rental_uris":{"android":"levelo://app?vid=9d3acf32-9ed0-4c2a-9f19-4a2270ba3bf3","ios":"levelo://app?vid=9d3acf32-9ed0-4c2a-9f19-4a2270ba3bf3"},"vehicle_type_id":"4","last_reported":1729862255,"current_range_meters":38800,"station_id":"ce4bgs92rcd13ifvqcc0","pricing_plan_id":"cebpf4jnsgd1na2vs0mg"},{"bike_id":"8b030cca-c71f-46b9-af75-48e66e0f8a1e","system_id":"levelo_inurba_marseille","lat":43.24077,"lon":5.37755,"is_reserved":false,"is_disabled":false,"rental_uris":{"android":"levelo://app?vid=8b030cca-c71f-46b9-af75-48e66e0f8a1e","ios":"levelo://app?vid=8b030cca-c71f-46b9-af75-48e66e0f8a1e"},"vehicle_type_id":"4","last_reported":1729862255,"current_range_meters":6800,"station_id":"ce4bhnp2rcd13ifvqgvg","pricing_plan_id":"cebpf4jnsgd1na2vs0mg"},{"bike_id":"45d055d8-70e6-4165-a5ae-f57dd0ab9057","system_id":"levelo_inurba_marseille","lat":43.27569,"lon":5.38413,"is_reserved":false,"is_disabled":false,"rental_uris":{"android":"levelo://app?vid=45d055d8-70e6-4165-a5ae-f57dd0ab9057","ios":"levelo://app?vid=45d055d8-70e6-4165-a5ae-f57dd0ab9057"},"vehicle_type_id":"4","last_reported":1729862255,"current_range_meters":17600,"station_id":"ce4bhh92rcd13ifvqfi0","pricing_plan_id":"cebpf4jnsgd1na2vs0mg"},{"bike_id":"e4915fc6-4f7e-439b-a31d-5a0ca8bf3eda","system_id":"levelo_inurba_marseille","lat":43.30539,"lon":5.36697,"is_reserved":false,"is_disabled":false,"rental_uris":{"android":"levelo://app?vid=e4915fc6-4f7e-439b-a31d-5a0ca8bf3eda","ios":"levelo://app?vid=e4915fc6-4f7e-439b-a31d-5a0ca8bf3eda"},"vehicle_type_id":"4","last_reported":1729862255,"current_range_meters":38800,"station_id":"ce4bgrp2rcd13ifvqc9g","pricing_plan_id":"cebpf4jnsgd1na2vs0mg"},{"bike_id":"d33206cc-08ca-4272-b2ae-186cd8d57f10","system_id":"levelo_inurba_marseille","lat":43.2512,"lon":5.40327,"is_reserved":false,"is_disabled":false,"rental_uris":{"android":"levelo://app?vid=d33206cc-08ca-4272-b2ae-186cd8d57f10","ios":"levelo://app?vid=d33206cc-08ca-4272-b2ae-186cd8d57f10"},"vehicle_type_id":"4","last_reported":1729862255,"current_range_meters":11600,"station_id":"ce4bhlh2rcd13ifvqgig","pricing_plan_id":"cebpf4jnsgd1na2vs0mg"},{"bike_id":"249243ca-dcde-4ee2-a271-cecba04e02b5","system_id":"levelo_inurba_marseille","lat":43.27312,"lon":5.39077,"is_reserved":false,"is_disabled":false,"rental_uris":{"android":"levelo://app?vid=249243ca-dcde-4ee2-a271-cecba04e02b5","ios":"levelo://app?vid=249243ca-dcde-4ee2-a271-cecba04e02b5"},"vehicle_type_id":"4","last_reported":1729862255,"current_range_meters":39200,"station_id":"ce4bhgp2rcd13ifvqfe0","pricing_plan_id":"cebpf4jnsgd1na2vs0mg"},{"bike_id":"41f97f4d-0006-4831-904d-69361840ab69","system_id":"levelo_inurba_marseille","lat":43.29623,"lon":5.37169,"is_reserved":false,"is_disabled":false,"rental_uris":{"android":"levelo://app?vid=41f97f4d-0006-4831-904d-69361840ab69","ios":"levelo://app?vid=41f97f4d-0006-4831-904d-69361840ab69"},"vehicle_type_id":"4","last_reported":1729862255,"current_range_meters":18000,"station_id":"ce4bgnh2rcd13ifvqc0g","pricing_plan_id":"cebpf4jnsgd1na2vs0mg"},{"bike_id":"5d2a54d0-4e30-4ca8-91cb-41409e12dbd8","system_id":"levelo_inurba_marseille","lat":43.29307,"lon":5.37168,"is_reserved":false,"is_disabled":false,"rental_uris":{"android":"levelo://app?vid=5d2a54d0-4e30-4ca8-91cb-41409e12dbd8","ios":"levelo://app?vid=5d2a54d0-4e30-4ca8-91cb-41409e12dbd8"},"vehicle_type_id":"4","last_reported":1729862255,"current_range_meters":23200,"station_id":"","pricing_plan_id":"cebpf4jnsgd1na2vs0mg"},{"bike_id":"4249e025-1458-408b-828f-0e0f004c5f8c","system_id":"levelo_inurba_marseille","lat":43.25499,"lon":5.37649,"is_reserved":false,"is_disabled":false,"rental_uris":{"android":"levelo://app?vid=4249e025-1458-408b-828f-0e0f004c5f8c","ios":"levelo://app?vid=4249e025-1458-408b-828f-0e0f004c5f8c"},"vehicle_type_id":"4","last_reported":1729862255,"current_range_meters":32400,"station_id":"ce4bhh12rcd13ifvqff0","pricing_plan_id":"cebpf4jnsgd1na2vs0mg"},{"bike_id":"3d842674-b26d-4bd1-8c29-6b56ea1a1f40","system_id":"levelo_inurba_marseille","lat":43.25007,"lon":5.38936,"is_reserved":false,"is_disabled":false,"rental_uris":{"android":"levelo://app?vid=3d842674-b26d-4bd1-8c29-6b56ea1a1f40","ios":"levelo://app?vid=3d842674-b26d-4bd1-8c29-6b56ea1a1f40"},"vehicle_type_id":"4","last_reported":1729862255,"current_range_meters":24800,"station_id":"ce4bhgp2rcd13ifvqfd0","pricing_plan_id":"cebpf4jnsgd1na2vs0mg"},{"bike_id":"b431141d-35f6-4987-82f3-1e61a9a67b33","system_id":"levelo_inurba_marseille","lat":43.31494,"lon":5.37312,"is_reserved":false,"is_disabled":false,"rental_uris":{"android":"levelo://app?vid=b431141d-35f6-4987-82f3-1e61a9a67b33","ios":"levelo://app?vid=b431141d-35f6-4987-82f3-1e61a9a67b33"},"vehicle_type_id":"4","last_reported":1729862255,"current_range_meters":36000,"station_id":"ce4bgt12rcd13ifvqcd0","pricing_plan_id":"cebpf4jnsgd1na2vs0mg"},{"bike_id":"e741e878-4acf-498e-80a2-e7aac8e9a0c0","system_id":"levelo_inurba_marseille","lat":43.31117,"lon":5.37757,"is_reserved":false,"is_disabled":false,"rental_uris":{"android":"levelo://app?vid=e741e878-4acf-498e-80a2-e7aac8e9a0c0","ios":"levelo://app?vid=e741e878-4acf-498e-80a2-e7aac8e9a0c0"},"vehicle_type_id":"4","last_reported":1729862255,"current_range_meters":38800,"station_id":"ce4bgt92rcd13ifvqcg0","pricing_plan_id":"cebpf4jnsgd1na2vs0mg"},{"bike_id":"c6698e35-4448-455b-baae-688438b2c811","system_id":"levelo_inurba_marseille","lat":43.30138,"lon":5.39875,"is_reserved":false,"is_disabled":false,"rental_uris":{"android":"levelo://app?vid=c6698e35-4448-455b-baae-688438b2c811","ios":"levelo://app?vid=c6698e35-4448-455b-baae-688438b2c811"},"vehicle_type_id":"4","last_reported":1729862255,"current_range_meters":35200,"station_id":"ce4bh0h2rcd13ifvqd40","pricing_plan_id":"cebpf4jnsgd1na2vs0mg"},{"bike_id":"b8c9ac1e-bdf8-4af3-8039-13c51d6bb64d","system_id":"levelo_inurba_marseille","lat":43.30547,"lon":5.36696,"is_reserved":false,"is_disabled":false,"rental_uris":{"android":"levelo://app?vid=b8c9ac1e-bdf8-4af3-8039-13c51d6bb64d","ios":"levelo://app?vid=b8c9ac1e-bdf8-4af3-8039-13c51d6bb64d"},"vehicle_type_id":"4","last_reported":1729862255,"current_range_meters":40000,"station_id":"ce4bgrp2rcd13ifvqc9g","pricing_plan_id":"cebpf4jnsgd1na2vs0mg"},{"bike_id":"9b263669-fef7-4ad3-858f-68106bf48cd5","system_id":"levelo_inurba_marseille","lat":43.23194,"lon":5.35546,"is_reserved":false,"is_disabled":false,"rental_uris":{"android":"levelo://app?vid=9b263669-fef7-4ad3-858f-68106bf48cd5","ios":"levelo://app?vid=9b263669-fef7-4ad3-858f-68106bf48cd5"},"vehicle_type_id":"4","last_reported":1729862255,"current_range_meters":4400,"station_id":"ce4bhu92rcd13ifvqi70","pricing_plan_id":"cebpf4jnsgd1na2vs0mg"},{"bike_id":"fbc51d62-a6cf-4eff-8410-46378049feec","system_id":"levelo_inurba_marseille","lat":43.28706,"lon":5.39971,"is_reserved":false,"is_disabled":false,"rental_uris":{"android":"levelo://app?vid=fbc51d62-a6cf-4eff-8410-46378049feec","ios":"levelo://app?vid=fbc51d62-a6cf-4eff-8410-46378049feec"},"vehicle_type_id":"4","last_reported":1729862255,"current_range_meters":30000,"station_id":"ce4bho92rcd13ifvqh3g","pricing_plan_id":"cebpf4jnsgd1na2vs0mg"},{"bike_id":"00db6db4-3e33-46df-a4d8-0c8b145af454","system_id":"levelo_inurba_marseille","lat":43.33024,"lon":5.3904,"is_reserved":false,"is_disabled":false,"rental_uris":{"android":"levelo://app?vid=00db6db4-3e33-46df-a4d8-0c8b145af454","ios":"levelo://app?vid=00db6db4-3e33-46df-a4d8-0c8b145af454"},"vehicle_type_id":"4","last_reported":1729862255,"current_range_meters":16400,"station_id":"ce4bhr92rcd13ifvqhrg","pricing_plan_id":"cebpf4jnsgd1na2vs0mg"},{"bike_id":"0d8fe734-2662-47a5-a5e2-db2a5c8e764e","system_id":"levelo_inurba_marseille","lat":43.25492,"lon":5.37644,"is_reserved":false,"is_disabled":false,"rental_uris":{"android":"levelo://app?vid=0d8fe734-2662-47a5-a5e2-db2a5c8e764e","ios":"levelo://app?vid=0d8fe734-2662-47a5-a5e2-db2a5c8e764e"},"vehicle_type_id":"4","last_reported":1729862255,"current_range_meters":36000,"station_id":"ce4bhh12rcd13ifvqff0","pricing_plan_id":"cebpf4jnsgd1na2vs0mg"},{"bike_id":"96f4e97d-a2f3-4517-851e-513235052ad4","system_id":"levelo_inurba_marseille","lat":43.283447,"lon":5.381065,"is_reserved":false,"is_disabled":false,"rental_uris":{"android":"levelo://app?vid=96f4e97d-a2f3-4517-851e-513235052ad4","ios":"levelo://app?vid=96f4e97d-a2f3-4517-851e-513235052ad4"},"vehicle_type_id":"4","last_reported":1729862255,"current_range_meters":13600,"station_id":"ce4bgv12rcd13ifvqcp0","pricing_plan_id":"cebpf4jnsgd1na2vs0mg"},{"bike_id":"4ca8ad0a-be09-4f84-b34a-80128b20764b","system_id":"levelo_inurba_marseille","lat":43.30278,"lon":5.37702,"is_reserved":false,"is_disabled":false,"rental_uris":{"android":"levelo://app?vid=4ca8ad0a-be09-4f84-b34a-80128b20764b","ios":"levelo://app?vid=4ca8ad0a-be09-4f84-b34a-80128b20764b"},"vehicle_type_id":"4","last_reported":1729862255,"current_range_meters":32000,"station_id":"ce4bguh2rcd13ifvqcj0","pricing_plan_id":"cebpf4jnsgd1na2vs0mg"},{"bike_id":"544ea972-43f3-4076-8e49-cc32d72ffe4c","system_id":"levelo_inurba_marseille","lat":43.26566,"lon":5.38998,"is_reserved":false,"is_disabled":false,"rental_uris":{"android":"levelo://app?vid=544ea972-43f3-4076-8e49-cc32d72ffe4c","ios":"levelo://app?vid=544ea972-43f3-4076-8e49-cc32d72ffe4c"},"vehicle_type_id":"4","last_reported":1729862255,"current_range_meters":38400,"station_id":"ce4bhe12rcd13ifvqf30","pricing_plan_id":"cebpf4jnsgd1na2vs0mg"},{"bike_id":"ca928718-b5c2-450b-9e80-df82ee84e83f","system_id":"levelo_inurba_marseille","lat":43.30206,"lon":5.39476,"is_reserved":false,"is_disabled":false,"rental_uris":{"android":"levelo://app?vid=ca928718-b5c2-450b-9e80-df82ee84e83f","ios":"levelo://app?vid=ca928718-b5c2-450b-9e80-df82ee84e83f"},"vehicle_type_id":"4","last_reported":1729862255,"current_range_meters":23200,"station_id":"ce4bh0p2rcd13ifvqd70","pricing_plan_id":"cebpf4jnsgd1na2vs0mg"},{"bike_id":"546ec3f0-f78e-45d9-ab23-b9bfada138f8","system_id":"levelo_inurba_marseille","lat":43.26569,"lon":5.39002,"is_reserved":false,"is_disabled":false,"rental_uris":{"android":"levelo://app?vid=546ec3f0-f78e-45d9-ab23-b9bfada138f8","ios":"levelo://app?vid=546ec3f0-f78e-45d9-ab23-b9bfada138f8"},"vehicle_type_id":"4","last_reported":1729862255,"current_range_meters":18000,"station_id":"ce4bhe12rcd13ifvqf30","pricing_plan_id":"cebpf4jnsgd1na2vs0mg"},{"bike_id":"9a48ddcc-12c2-4ea7-9b57-ae882ce0af24","system_id":"levelo_inurba_marseille","lat":43.30475,"lon":5.37909,"is_reserved":false,"is_disabled":false,"rental_uris":{"android":"levelo://app?vid=9a48ddcc-12c2-4ea7-9b57-ae882ce0af24","ios":"levelo://app?vid=9a48ddcc-12c2-4ea7-9b57-ae882ce0af24"},"vehicle_type_id":"4","last_reported":1729862255,"current_range_meters":38800,"station_id":"ce4bgup2rcd13ifvqcn0","pricing_plan_id":"cebpf4jnsgd1na2vs0mg"},{"bike_id":"1a2ef90f-9170-44db-81d5-20b12ebbe911","system_id":"levelo_inurba_marseille","lat":43.30321,"lon":5.40441,"is_reserved":false,"is_disabled":false,"rental_uris":{"android":"levelo://app?vid=1a2ef90f-9170-44db-81d5-20b12ebbe911","ios":"levelo://app?vid=1a2ef90f-9170-44db-81d5-20b12ebbe911"},"vehicle_type_id":"4","last_reported":1729862255,"current_range_meters":28800,"station_id":"ce4bh012rcd13ifvqd10","pricing_plan_id":"cebpf4jnsgd1na2vs0mg"},{"bike_id":"351e9c5c-0a22-404a-a015-303eb54d5e2d","system_id":"levelo_inurba_marseille","lat":43.28416,"lon":5.34987,"is_reserved":false,"is_disabled":false,"rental_uris":{"android":"levelo://app?vid=351e9c5c-0a22-404a-a015-303eb54d5e2d","ios":"levelo://app?vid=351e9c5c-0a22-404a-a015-303eb54d5e2d"},"vehicle_type_id":"4","last_reported":1729862255,"current_range_meters":12400,"station_id":"ce4bhbh2rcd13ifvqepg","pricing_plan_id":"cebpf4jnsgd1na2vs0mg"},