{"last_updated":1733936932,"ttl":60,"version":"2.2","data":{"bikes":[{"bike_id":"5a1d5db3-014a-4e87-97d8-818e2656f060","system_id":"levelo_inurba_marseille","lat":43.25577,"lon":5.38226,"is_reserved":false,"is_disabled":false,"rental_uris":{"android":"levelo://app?vid=5a1d5db3-014a-4e87-97d8-818e2656f060","ios":"levelo://app?vid=5a1d5db3-014a-4e87-97d8-818e2656f060"},"vehicle_type_id":"4","last_reported":1733936933,"current_range_meters":5600,"station_id":"ce4bhih2rcd13ifvqfs0","pricing_plan_id":"cebpf4jnsgd1na2vs0mg"},{"bike_id":"f0104787-ce5d-47b4-be06-0c65f6183ab3","system_id":"levelo_inurba_marseille","lat":43.30893,"lon":5.3965,"is_reserved":false,"is_disabled":false,"rental_uris":{"android":"levelo://app?vid=f0104787-ce5d-47b4-be06-0c65f6183ab3","ios":"levelo://app?vid=f0104787-ce5d-47b4-be06-0c65f6183ab3"},"vehicle_type_id":"4","last_reported":1733936933,"current_range_meters":33200,"station_id":"ce4bh012rcd13ifvqcv0","pricing_plan_id":"cebpf4jnsgd1na2vs0mg"},{"bike_id":"b266efff-3a14-4d1a-a25a-c68ad062a1f4","system_id":"levelo_inurba_marseille","lat":43.24168,"lon":5.36387,"is_reserved":false,"is_disabled":false,"rental_uris":{"android":"levelo://app?vid=b266efff-3a14-4d1a-a25a-c68ad062a1f4","ios":"levelo://app?vid=b266efff-3a14-4d1a-a25a-c68ad062a1f4"},"vehicle_type_id":"4","last_reported":1733936933,"current_range_meters":8800,"station_id":"cpo36qri1sfpv3e86is0","pricing_plan_id":"cebpf4jnsgd1na2vs0mg"},{"bike_id":"3767836b-b5e0-41c2-b21d-bcce099d6653","system_id":"levelo_inurba_marseille","lat":43.23156,"lon":5.43718,"is_reserved":false,"is_disabled":false,"rental_uris":{"android":"levelo://app?vid=3767836b-b5e0-41c2-b21d-bcce099d6653","ios":"levelo://app?vid=3767836b-b5e0-41c2-b21d-bcce099d6653"},"vehicle_type_id":"4","last_reported":1733936933,"current_range_meters":24000,"station_id":"ce4bhmp2rcd13ifvqgog","pricing_plan_id":"cebpf4jnsgd1na2vs0mg"},{"bike_id":"5670ce38-2fe6-4f26-90c6-260269e35735","system_id":"levelo_inurba_marseille","lat":43.29016,"lon":5.38634,"is_reserved":false,"is_disabled":false,"rental_uris":{"android":"levelo://app?vid=5670ce38-2fe6-4f26-90c6-260269e35735","ios":"levelo://app?vid=5670ce38-2fe6-4f26-90c6-260269e35735"},"vehicle_type_id":"4","last_reported":1733936933,"current_range_meters":38000,"station_id":"ce4bh4p2rcd13ifvqe0g","pricing_plan_id":"cebpf4jnsgd1na2vs0mg"},{"bike_id":"9a419345-c074-4bed-a055-62578d579e76","system_id":"levelo_inurba_marseille","lat":43.2888,"lon":5.35846,"is_reserved":false,"is_disabled":false,"rental_uris":{"android":"levelo://app?vid=9a419345-c074-4bed-a055-62578d579e76","ios":"levelo://app?vid=9a419345-c074-4bed-a055-62578d579e76"},"vehicle_type_id":"4","last_reported":1733936933,"current_range_meters":20000,"station_id":"ce4bhb12rcd13ifvqem0","pricing_plan_id":"cebpf4jnsgd1na2vs0mg"},{"bike_id":"980f96eb-32c9-4906-98f6-c44dbf4c84a1","system_id":"levelo_inurba_marseille","lat":43.27455,"lon":5.40073,"is_reserved":false,"is_disabled":true,"rental_uris":{"android":"levelo://app?vid=980f96eb-32c9-4906-98f6-c44dbf4c84a1","ios":"levelo://app?vid=980f96eb-32c9-4906-98f6-c44dbf4c84a1"},"vehicle_type_id":"4","last_reported":1733936933,"current_range_meters":0,"station_id":"","pricing_plan_id":"cebpf4jnsgd1na2vs0mg"},{"bike_id":"21be252d-4634-43f3-a96e-6ac1317a234b","system_id":"levelo_inurba_marseille","lat":43.2938,"lon":5.37845,"is_reserved":false,"is_disabled":true,"rental_uris":{"android":"levelo://app?vid=21be252d-4634-43f3-a96e-6ac1317a234b","ios":"levelo://app?vid=21be252d-4634-43f3-a96e-6ac1317a234b"},"vehicle_type_id":"4","last_reported":1733936933,"current_range_meters":400,"station_id":"ce4bgjh2rcd13ifvqbf0","pricing_plan_id":"cebpf4jnsgd1na2vs0mg"},{"bike_id":"1a0383fe-ed85-46dd-989d-65fc52ab7a4a","system_id":"levelo_inurba_marseille","lat":43.25827,"lon":5.3943,"is_reserved":false,"is_disabled":false,"rental_uris":{"android":"levelo://app?vid=1a0383fe-ed85-46dd-989d-65fc52ab7a4a","ios":"levelo://app?vid=1a0383fe-ed85-46dd-989d-65fc52ab7a4a"},"vehicle_type_id":"4","last_reported":1733936933,"current_range_meters":35600,"station_id":"ce4bhip2rcd13ifvqft0","pricing_plan_id":"cebpf4jnsgd1na2vs0mg"},{"bike_id":"0db5aa65-4491-4fa7-b3cd-837cf2eebdd8","system_id":"levelo_inurba_marseille","lat":43.24652,"lon":5.38894,"is_reserved":false,"is_disabled":false,"rental_uris":{"android":"levelo://app?vid=0db5aa65-4491-4fa7-b3cd-837cf2eebdd8","ios":"levelo://app?vid=0db5aa65-4491-4fa7-b3cd-837cf2eebdd8"},"vehicle_type_id":"4","last_reported":1733936933,"current_range_meters":19200,"station_id":"ce4bhg12rcd13ifvqf60","pricing_plan_id":"cebpf4jnsgd1na2vs0mg"},{"bike_id":"d195dc54-7a2b-4973-88b9-a2ce35b64089","system_id":"levelo_inurba_marseille","lat":43.32366,"lon":5.38885,"is_reserved":false,"is_disabled":false,"rental_uris":{"android":"levelo://app?vid=d195dc54-7a2b-4973-88b9-a2ce35b64089","ios":"levelo://app?vid=d195dc54-7a2b-4973-88b9-a2ce35b64089"},"vehicle_type_id":"4","last_reported":1733936933,"current_range_meters":31200,"station_id":"ce4bhqp2rcd13ifvqhog","pricing_plan_id":"cebpf4jnsgd1na2vs0mg"},{"bike_id":"e07a9d9b-b9bc-475a-ab32-b71a16c6f1be","system_id":"levelo_inurba_marseille","lat":43.27995,"lon":5.41662,"is_reserved":false,"is_disabled":false,"rental_uris":{"android":"levelo://app?vid=e07a9d9b-b9bc-475a-ab32-b71a16c6f1be","ios":"levelo://app?vid=e07a9d9b-b9bc-475a-ab32-b71a16c6f1be"},"vehicle_type_id":"4","last_reported":1733936933,"current_range_meters":8000,"station_id":"ce4bho12rcd13ifvqh1g","pricing_plan_id":"cebpf4jnsgd1na2vs0mg"},{"bike_id":"eb005499-3c0e-4f41-9831-c070b319130e","system_id":"levelo_inurba_marseille","lat":43.28619,"lon":5.37055,"is_reserved":false,"is_disabled":true,"rental_uris":{"android":"levelo://app?vid=eb005499-3c0e-4f41-9831-c070b319130e","ios":"levelo://app?vid=eb005499-3c0e-4f41-9831-c070b319130e"},"vehicle_type_id":"4","last_reported":1733936933,"current_range_meters":0,"station_id":"ce4bht12rcd13ifvqi60","pricing_plan_id":"cebpf4jnsgd1na2vs0mg"},{"bike_id":"c30e2927-d1ce-4add-bd99-3834be65c25a","system_id":"levelo_inurba_marseille","lat":43.28857,"lon":5.35853,"is_reserved":false,"is_disabled":false,"rental_uris":{"android":"levelo://app?vid=c30e2927-d1ce-4add-bd99-3834be65c25a","ios":"levelo://app?vid=c30e2927-d1ce-4add-bd99-3834be65c25a"},"vehicle_type_id":"4","last_reported":1733936933,"current_range_meters":38400,"station_id":"ce4bhb12rcd13ifvqem0","pricing_plan_id":"cebpf4jnsgd1na2vs0mg"},{"bike_id":"65c67670-ea7c-426c-93dd-9c01c131e1ad","system_id":"levelo_inurba_marseille","lat":43.27959,"lon":5.41035,"is_reserved":false,"is_disabled":false,"rental_uris":{"android":"levelo://app?vid=65c67670-ea7c-426c-93dd-9c01c131e1ad","ios":"levelo://app?vid=65c67670-ea7c-426c-93dd-9c01c131e1ad"},"vehicle_type_id":"4","last_reported":1733936933,"current_range_meters":10000,"station_id":"ce4bhnp2rcd13ifvqh0g","pricing_plan_id":"cebpf4jnsgd1na2vs0mg"},{"bike_id":"d0d9198e-357a-4a8d-96ba-5bffb48b243c","system_id":"levelo_inurba_marseille","lat":43.29262,"lon":5.38422,"is_reserved":false,"is_disabled":false,"rental_uris":{"android":"levelo://app?vid=d0d9198e-357a-4a8d-96ba-5bffb48b243c","ios":"levelo://app?vid=d0d9198e-357a-4a8d-96ba-5bffb48b243c"},"vehicle_type_id":"4","last_reported":1733936933,"current_range_meters":12800,"station_id":"ce4bh692rcd13ifvqea0","pricing_plan_id":"cebpf4jnsgd1na2vs0mg"},{"bike_id":"e86487c6-1ee6-4d10-ae66-1c212f4fa081","system_id":"levelo_inurba_marseille","lat":43.29194,"lon":5.358,"is_reserved":false,"is_disabled":false,"rental_uris":{"android":"levelo://app?vid=e86487c6-1ee6-4d10-ae66-1c212f4fa081","ios":"levelo://app?vid=e86487c6-1ee6-4d10-ae66-1c212f4fa081"},"vehicle_type_id":"4","last_reported":1733936933,"current_range_meters":38800,"station_id":"ce4bhb12rcd13ifvqel0","pricing_plan_id":"cebpf4jnsgd1na2vs0mg"},{"bike_id":"52a52a1b-d5c0-40dc-876f-e41fb163e984","system_id":"levelo_inurba_marseille","lat":43.28702,"lon":5.39986,"is_reserved":false,"is_disabled":false,"rental_uris":{"android":"levelo://app?vid=52a52a1b-d5c0-40dc-876f-e41fb163e984","ios":"levelo://app?vid=52a52a1b-d5c0-40dc-876f-e41fb163e984"},"vehicle_type_id":"4","last_reported":1733936933,"current_range_meters":19200,"station_id":"ce4bho92rcd13ifvqh3g","pricing_plan_id":"cebpf4jnsgd1na2vs0mg"},{"bike_id":"d3dd1993-0c0f-473b-a6a3-df644092d64e","system_id":"levelo_inurba_marseille","lat":43.28018,"lon":5.36946,"is_reserved":false,"is_disabled":false,"rental_uris":{"android":"levelo://app?vid=d3dd1993-0c0f-473b-a6a3-df644092d64e","ios":"levelo://app?vid=d3dd1993-0c0f-473b-a6a3-df644092d64e"},"vehicle_type_id":"4","last_reported":1733936933,"current_range_meters":13600,"station_id":"ce4bha12rcd13ifvqef0","pricing_plan_id":"cebpf4jnsgd1na2vs0mg"},{"bike_id":"68e36170-fac2-4b8a-8970-eed8c2fcc142","system_id":"levelo_inurba_marseille","lat":43.30641,"lon":5.40093,"is_reserved":false,"is_disabled":false,"rental_uris":{"android":"levelo://app?vid=68e36170-fac2-4b8a-8970-eed8c2fcc142","ios":"levelo://app?vid=68e36170-fac2-4b8a-8970-eed8c2fcc142"},"vehicle_type_id":"4","last_reported":1733936933,"current_range_meters":21600,"station_id":"ce4bh112rcd13ifvqda0","pricing_plan_id":"cebpf4jnsgd1na2vs0mg"},{"bike_id":"0399ded0-8e24-4ed6-acfa-22e124b5cb22","system_id":"levelo_inurba_marseille","lat":43.295787,"lon":5.400127,"is_reserved":false,"is_disabled":true,"rental_uris":{"android":"levelo://app?vid=0399ded0-8e24-4ed6-acfa-22e124b5cb22","ios":"levelo://app?vid=0399ded0-8e24-4ed6-acfa-22e124b5cb22"},"vehicle_type_id":"4","last_reported":1733936933,"current_range_meters":0,"station_id":"ce4bh312rcd13ifvqdj0","pricing_plan_id":"cebpf4jnsgd1na2vs0mg"},{"bike_id":"36272bbc-2413-4d65-9f8d-f8eaf63041c0","system_id":"levelo_inurba_marseille","lat":43.2706,"lon":5.4026,"is_reserved":false,"is_disabled":true,"rental_uris":{"android":"levelo://app?vid=36272bbc-2413-4d65-9f8d-f8eaf63041c0","ios":"levelo://app?vid=36272bbc-2413-4d65-9f8d-f8eaf63041c0"},"vehicle_type_id":"4","last_reported":1733936933,"current_range_meters":26800,"station_id":"ce4bhk92rcd13ifvqgc0","pricing_plan_id":"cebpf4jnsgd1na2vs0mg"},{"bike_id":"fe4cab58-ba30-4c78-b62f-d4434eea7628","system_id":"levelo_inurba_marseille","lat":43.29468,"lon":5.3978,"is_reserved":false,"is_disabled":true,"rental_uris":{"android":"levelo://app?vid=fe4cab58-ba30-4c78-b62f-d4434eea7628","ios":"levelo://app?vid=fe4cab58-ba30-4c78-b62f-d4434eea7628"},"vehicle_type_id":"4","last_reported":1733936933,"current_range_meters":34800,"station_id":"ce4bh3h2rcd13ifvqdo0","pricing_plan_id":"cebpf4jnsgd1na2vs0mg"},{"bike_id":"187a9cac-9fe7-4437-bc4f-beab8d1e51ae","system_id":"levelo_inurba_marseille","lat":43.2956,"lon":5.42271,"is_reserved":false,"is_disabled":false,"rental_uris":{"android":"levelo://app?vid=187a9cac-9fe7-4437-bc4f-beab8d1e51ae","ios":"levelo://app?vid=187a9cac-9fe7-4437-bc4f-beab8d1e51ae"},"vehicle_type_id":"4","last_reported":1733936933,"current_range_meters":38000,"station_id":"ce4bhph2rcd13ifvqhdg","pricing_plan_id":"cebpf4jnsgd1na2vs0mg"},{"bike_id":"f26b5afe-24a3-4759-8319-5f7964951303","system_id":"levelo_inurba_marseille","lat":43.273048,"lon":5.390674,"is_reserved":false,"is_disabled":false,"rental_uris":{"android":"levelo://app?vid=f26b5afe-24a3-4759-8319-5f7964951303","ios":"levelo://app?vid=f26b5afe-24a3-4759-8319-5f7964951303"},"vehicle_type_id":"4","last_reported":1733936933,"current_range_meters":28000,"station_id":"ce4bhgp2rcd13ifvqfe0","pricing_plan_id":"cebpf4jnsgd1na2vs0mg"},{"bike_id":"28e149b9-ada2-4c5a-9466-7e904affd4bd","system_id":"levelo_inurba_marseille","lat":43.3025,"lon":5.37724,"is_reserved":false,"is_disabled":false,"rental_uris":{"android":"levelo://app?vid=28e149b9-ada2-4c5a-9466-7e904affd4bd","ios":"levelo://app?vid=28e149b9-ada2-4c5a-9466-7e904affd4bd"},"vehicle_type_id":"4","last_reported":1733936933,"current_range_meters":10800,"station_id":"ce4bguh2rcd13ifvqcj0","pricing_plan_id":"cebpf4jnsgd1na2vs0mg"},{"bike_id":"8979b88b-e0c9-465c-b920-54c929607786","system_id":"levelo_inurba_marseille","lat":43.30409,"lon":5.3679,"is_reserved":false,"is_disabled":false,"rental_uris":{"android":"levelo://app?vid=8979b88b-e0c9-465c-b920-54c929607786","ios":"levelo://app?vid=8979b88b-e0c9-465c-b920-54c929607786"},"vehicle_type_id":"4","last_reported":1733936933,"current_range_meters":18800,"station_id":"","pricing_plan_id":"cebpf4jnsgd1na2vs0mg"},{"bike_id":"3a56946e-b571-4f0a-89c3-228266a44430","system_id":"levelo_inurba_marseille","lat":43.26597,"lon":5.38971,"is_reserved":false,"is_disabled":false,"rental_uris":{"android":"levelo://app?vid=3a56946e-b571-4f0a-89c3-228266a44430","ios":"levelo://app?vid=3a56946e-b571-4f0a-89c3-228266a44430"},"vehicle_type_id":"4","last_reported":1733936933,"current_range_meters":6800,"station_id":"","pricing_plan_id":"cebpf4jnsgd1na2vs0mg"},{"bike_id":"8e746d82-7d91-4b81-b312-33b65e9b49fa","system_id":"levelo_inurba_marseille","lat":43.30935,"lon":5.40128,"is_reserved":false,"is_disabled":false,"rental_uris":{"android":"levelo://app?vid=8e746d82-7d91-4b81-b312-33b65e9b49fa","ios":"levelo://app?vid=8e746d82-7d91-4b81-b312-33b65e9b49fa"},"vehicle_type_id":"4","last_reported":1733936933,"current_range_meters":21600,"station_id":"ce4bgvp2rcd13ifvqct0","pricing_plan_id":"cebpf4jnsgd1na2vs0mg"},{"bike_id":"83d86471-0b95-4477-9349-a015d55c6b4b","system_id":"levelo_inurba_marseille","lat":43.32006,"lon":5.38158,"is_reserved":false,"is_disabled":true,"rental_uris":{"android":"levelo://app?vid=83d86471-0b95-4477-9349-a015d55c6b4b","ios":"levelo://app?vid=83d86471-0b95-4477-9349-a015d55c6b4b"},"vehicle_type_id":"4","last_reported":1733936933,"current_range_meters":1200,"station_id":"ce4bhr12rcd13ifvqhpg","pricing_plan_id":"cebpf4jnsgd1na2vs0mg"},{"bike_id":"5f5dd34b-1e43-4f4f-b1a5-260d1739ebfb","system_id":"levelo_inurba_marseille","lat":43.3015,"lon":5.38048,"is_reserved":false,"is_disabled":false,"rental_uris":{"android":"levelo://app?vid=5f5dd34b-1e43-4f4f-b1a5-260d1739ebfb","ios":"levelo://app?vid=5f5dd34b-1e43-4f4f-b1a5-260d1739ebfb"},"vehicle_type_id":"4","last_reported":1733936933,"current_range_meters":8400,"station_id":"ce4bgjp2rcd13ifvqbh0","pricing_plan_id":"cebpf4jnsgd1na2vs0mg"},{"bike_id":"90324b92-2d52-4f43-bd59-91b2038c3497","system_id":"levelo_inurba_marseille","lat":43.28979,"lon":5.36629,"is_reserved":false,"is_disabled":true,"rental_uris":{"android":"levelo://app?vid=90324b92-2d52-4f43-bd59-91b2038c3497","ios":"levelo://app?vid=90324b92-2d52-4f43-bd59-91b2038c3497"},"vehicle_type_id":"4","last_reported":1733936933,"current_range_meters":29600,"station_id":"ce4bhap2rcd13ifvqek0","pricing_plan_id":"cebpf4jnsgd1na2vs0mg"},{"bike_id":"b91ced6a-3a76-4146-837b-000bb22373ba","system_id":"levelo_inurba_marseille","lat":43.29428,"lon":5.3975,"is_reserved":false,"is_disabled":false,"rental_uris":{"android":"levelo://app?vid=b91ced6a-3a76-4146-837b-000bb22373ba","ios":"levelo://app?vid=b91ced6a-3a76-4146-837b-000bb22373ba"},"vehicle_type_id":"4","last_reported":1733936933,"current_range_meters":11600,"station_id":"ce4bh3h2rcd13ifvqdo0","pricing_plan_id":"cebpf4jnsgd1na2vs0mg"},{"bike_id":"383f4d16-4911-4d35-a7a5-72caa30c20b8","system_id":"levelo_inurba_marseille","lat":43.26029,"lon":5.37546,"is_reserved":false,"is_disabled":false,"rental_uris":{"android":"levelo://app?vid=383f4d16-4911-4d35-a7a5-72caa30c20b8","ios":"levelo://app?vid=383f4d16-4911-4d35-a7a5-72caa30c20b8"},"vehicle_type_id":"4","last_reported":1733936933,"current_range_meters":8400,"station_id":"ce4bhgh2rcd13ifvqfa0","pricing_plan_id":"cebpf4jnsgd1na2vs0mg"},{"bike_id":"615509c5-9f37-44e5-a161-de68f51b5d33","system_id":"levelo_inurba_marseille","lat":43.24181,"lon":5.39723,"is_reserved":false,"is_disabled":false,"rental_uris":{"android":"levelo://app?vid=615509c5-9f37-44e5-a161-de68f51b5d33","ios":"levelo://app?vid=615509c5-9f37-44e5-a161-de68f51b5d33"},"vehicle_type_id":"4","last_reported":1733936933,"current_range_meters":11600,"station_id":"ce4bhn12rcd13ifvqgpg","pricing_plan_id":"cebpf4jnsgd1na2vs0mg"},{"bike_id":"6faa6ee7-a588-4286-8e0c-a7deeaae5bab","system_id":"levelo_inurba_marseille","lat":43.27379,"lon":5.36242,"is_reserved":false,"is_disabled":false,"rental_uris":{"android":"levelo://app?vid=6faa6ee7-a588-4286-8e0c-a7deeaae5bab","ios":"levelo://app?vid=6faa6ee7-a588-4286-8e0c-a7deeaae5bab"},"vehicle_type_id":"4","last_reported":1733936933,"current_range_meters":38800,"station_id":"ce4bhbh2rcd13ifvqeo0","pricing_plan_id":"cebpf4jnsgd1na2vs0mg"},{"bike_id":"4a0e1b18-1d57-49ac-8eb9-e6082ebc8da3","system_id":"levelo_inurba_marseille","lat":43.28,"lon":5.40005,"is_reserved":false,"is_disabled":false,"rental_uris":{"android":"levelo://app?vid=4a0e1b18-1d57-49ac-8eb9-e6082ebc8da3","ios":"levelo://app?vid=4a0e1b18-1d57-49ac-8eb9-e6082ebc8da3"},"vehicle_type_id":"4","last_reported":1733936933,"current_range_meters":12400,"station_id":"ce4bho92rcd13ifvqh4g","pricing_plan_id":"cebpf4jnsgd1na2vs0mg"},{"bike_id":"223d67a5-9182-44fc-bae1-5db20bd84907","system_id":"levelo_inurba_marseille","lat":43.29032,"lon":5.35908,"is_reserved":false,"is_disabled":false,"rental_uris":{"android":"levelo://app?vid=223d67a5-9182-44fc-bae1-5db20bd84907","ios":"levelo://app?vid=223d67a5-9182-44fc-bae1-5db20bd84907"},"vehicle_type_id":"4","last_reported":1733936933,"current_range_meters":8800,"station_id":"ce4bha92rcd13ifvqeg0","pricing_plan_id":"cebpf4jnsgd1na2vs0mg"},{"bike_id":"716e3651-726d-4797-92a9-2212a7dacea5","system_id":"levelo_inurba_marseille","lat":43.29897,"lon":5.43666,"is_reserved":false,"is_disabled":false,"rental_uris":{"android":"levelo://app?vid=716e3651-726d-4797-92a9-2212a7dacea5","ios":"levelo://app?vid=716e3651-726d-4797-92a9-2212a7dacea5"},"vehicle_type_id":"4","last_reported":1733936933,"current_range_meters":38800,"station_id":"ce4bhpp2rcd13ifvqhfg","pricing_plan_id":"cebpf4jnsgd1na2vs0mg"},{"bike_id":"30b7f7b0-cffb-44e8-9e23-86428fe1183d","system_id":"levelo_inurba_marseille","lat":43.2306,"lon":5.35479,"is_reserved":false,"is_disabled":false,"rental_uris":{"android":"levelo://app?vid=30b7f7b0-cffb-44e8-9e23-86428fe1183d","ios":"levelo://app?vid=30b7f7b0-cffb-44e8-9e23-86428fe1183d"},"vehicle_type_id":"4","last_reported":1733936933,"current_range_meters":13600,"station_id":"cpo3342slgdg3j2ifvpg","pricing_plan_id":"cebpf4jnsgd1na2vs0mg"},{"bike_id":"33f06ed4-c8ad-43f5-b7ff-27c41657a24c","system_id":"levelo_inurba_marseille","lat":43.26218,"lon":5.37887,"is_reserved":false,"is_disabled":true,"rental_uris":{"android":"levelo://app?vid=33f06ed4-c8ad-43f5-b7ff-27c41657a24c","ios":"levelo://app?vid=33f06ed4-c8ad-43f5-b7ff-27c41657a24c"},"vehicle_type_id":"4","last_reported":1733936933,"current_range_meters":1200,"station_id":"ce4bhjp2rcd13ifvqg90","pricing_plan_id":"cebpf4jnsgd1na2vs0mg"},{"bike_id":"c459ecd8-6463-4387-8a27-adcf8dcee6f4","system_id":"levelo_inurba_marseille","lat":43.26568,"lon":5.37272,"is_reserved":false,"is_disabled":false,"rental_uris":{"android":"levelo://app?vid=c459ecd8-6463-4387-8a27-adcf8dcee6f4","ios":"levelo://app?vid=c459ecd8-6463-4387-8a27-adcf8dcee6f4"},"vehicle_type_id":"4","last_reported":1733936933,"current_range_meters":38800,"station_id":"ce4bhg12rcd13ifvqf70","pricing_plan_id":"cebpf4jnsgd1na2vs0mg"},{"bike_id":"655794c9-afb2-449a-a07b-18a9656afc04","system_id":"levelo_inurba_marseille","lat":43.28005,"lon":5.40005,"is_reserved":false,"is_disabled":false,"rental_uris":{"android":"levelo://app?vid=655794c9-afb2-449a-a07b-18a9656afc04","ios":"levelo://app?vid=655794c9-afb2-449a-a07b-18a9656afc04"},"vehicle_type_id":"4","last_reported":1733936933,"current_range_meters":28800,"station_id":"ce4bho92rcd13ifvqh4g","pricing_plan_id":"cebpf4jnsgd1na2vs0mg"},{"bike_id":"564bb544-816b-4d63-a2d2-271960a70de4","system_id":"levelo_inurba_marseille","lat":43.27372,"lon":5.36254,"is_reserved":false,"is_disabled":false,"rental_uris":{"android":"levelo://app?vid=564bb544-816b-4d63-a2d2-271960a70de4","ios":"levelo://app?vid=564bb544-816b-4d63-a2d2-271960a70de4"},"vehicle_type_id":"4","last_reported":1733936933,"current_range_meters":38800,"station_id":"ce4bhbh2rcd13ifvqeo0","pricing_plan_id":"cebpf4jnsgd1na2vs0mg"},{"bike_id":"6f7c90cd-79f3-4d32-b637-95d821984a5b","system_id":"levelo_inurba_marseille","lat":43.29364,"lon":5.37835,"is_reserved":false,"is_disabled":false,"rental_uris":{"android":"levelo://app?vid=6f7c90cd-79f3-4d32-b637-95d821984a5b","ios":"levelo://app?vid=6f7c90cd-79f3-4d32-b637-95d821984a5b"},"vehicle_type_id":"4","last_reported":1733936933,"current_range_meters":36000,"station_id":"ce4bgjh2rcd13ifvqbf0","pricing_plan_id":"cebpf4jnsgd1na2vs0mg"},{"bike_id":"412c0142-2385-4e8d-a376-8d4dbbec5f92","system_id":"levelo_inurba_marseille","lat":43.29428,"lon":5.39744,"is_reserved":false,"is_disabled":false,"rental_uris":{"android":"levelo://app?vid=412c0142-2385-4e8d-a376-8d4dbbec5f92","ios":"levelo://app?vid=412c0142-2385-4e8d-a376-8d4dbbec5f92"},"vehicle_type_id":"4","last_reported":1733936933,"current_range_meters":22800,"station_id":"ce4bh3h2rcd13ifvqdo0","pricing_plan_id":"cebpf4jnsgd1na2vs0mg"},{"bike_id":"0f17d2c4-bf96-42e6-978b-f52d4d5288cd","system_id":"levelo_inurba_marseille","lat":43.30325,"lon":5.40436,"is_reserved":false,"is_disabled":true,"rental_uris":{"android":"levelo://app?vid=0f17d2c4-bf96-42e6-978b-f52d4d5288cd","ios":"levelo://app?vid=0f17d2c4-bf96-42e6-978b-f52d4d5288cd"},"vehicle_type_id":"4","last_reported":1733936933,"current_range_meters":33200,"station_id":"ce4bh012rcd13ifvqd10","pricing_plan_id":"cebpf4jnsgd1na2vs0mg"},{"bike_id":"c90b2631-4329-40b5-ac80-9be4a9daf103","system_id":"levelo_inurba_marseille","lat":43.29653,"lon":5.40605,"is_reserved":false,"is_disabled":false,"rental_uris":{"android":"levelo://app?vid=c90b2631-4329-40b5-ac80-9be4a9daf103","ios":"levelo://app?vid=c90b2631-4329-40b5-ac80-9be4a9daf103"},"vehicle_type_id":"4","last_reported":1733936933,"current_range_meters":25600,"station_id":"ce4bh0h2rcd13ifvqd60","pricing_plan_id":"cebpf4jnsgd1na2vs0mg"},{"bike_id":"79263867-ab0b-431e-89dc-246e72ff457f","system_id":"levelo_inurba_marseille","lat":43.28685,"lon":5.38659,"is_reserved":false,"is_disabled":true,"rental_uris":{"android":"levelo://app?vid=79263867-ab0b-431e-89dc-246e72ff457f","ios":"levelo://app?vid=79263867-ab0b-431e-89dc-246e72ff457f"},"vehicle_type_id":"4","last_reported":1733936933,"current_range_meters":38800,"station_id":"ce4bh492rcd13ifvqdug","pricing_plan_id":"cebpf4jnsgd1na2vs0mg"},{"bike_id":"4da8f61d-0f2a-4234-a08c-151dfadd6b43","system_id":"levelo_inurba_marseille","lat":43.300373,"lon":5.36408,"is_reserved":false,"is_disabled":true,"rental_uris":{"android":"levelo://app?vid=4da8f61d-0f2a-4234-a08c-151dfadd6b43","ios":"levelo://app?vid=4da8f61d-0f2a-4234-a08c-151dfadd6b43"},"vehicle_type_id":"4","last_reported":1733936933,"current_range_meters":0,"station_id":"","pricing_plan_id":"cebpf4jnsgd1na2vs0mg"},{"bike_id":"8311f1e5-58d5-4f85-a55e-a996212d7253","system_id":"levelo_inurba_marseille","lat":43.26214,"lon":5.37438,"is_reserved":false,"is_disabled":false,"rental_uris":{"android":"levelo://app?vid=8311f1e5-58d5-4f85-a55e-a996212d7253","ios":"levelo://app?vid=8311f1e5-58d5-4f85-a55e-a996212d7253"},"vehicle_type_id":"4","last_reported":1733936933,"current_range_meters":28800,"station_id":"ce4bhgp2rcd13ifvqfc0","pricing_plan_id":"cebpf4jnsgd1na2vs0mg"},{"bike_id":"1c20ce50-f95d-46d6-915d-0b5746bb0fbd","system_id":"levelo_inurba_marseille","lat":43.24178,"lon":5.39729,"is_reserved":false,"is_disabled":false,"rental_uris":{"android":"levelo://app?vid=1c20ce50-f95d-46d6-915d-0b5746bb0fbd","ios":"levelo://app?vid=1c20ce50-f95d-46d6-915d-0b5746bb0fbd"},"vehicle_type_id":"4","last_reported":1733936933,"current_range_meters":4000,"station_id":"ce4bhn12rcd13ifvqgpg","pricing_plan_id":"cebpf4jnsgd1na2vs0mg"},{"bike_id":"8fb9cc1b-0cbf-4aaa-ab38-e84e2f8610a5","system_id":"levelo_inurba_marseille","lat":43.2867,"lon":5.38675,"is_reserved":false,"is_disabled":false,"rental_uris":{"android":"levelo://app?vid=8fb9cc1b-0cbf-4aaa-ab38-e84e2f8610a5","ios":"levelo://app?vid=8fb9cc1b-0cbf-4aaa-ab38-e84e2f8610a5"},"vehicle_type_id":"4","last_reported":1733936933,"current_range_meters":39200,"station_id":"ce4bh492rcd13ifvqdug","pricing_plan_id":"cebpf4jnsgd1na2vs0mg"},{"bike_id":"eb9e228a-1053-406e-b89e-e9a74964cd53","system_id":"levelo_inurba_marseille","lat":43.27935,"lon":5.41041,"is_reserved":false,"is_disabled":false,"rental_uris":{"android":"levelo://app?vid=eb9e228a-1053-406e-b89e-e9a74964cd53","ios":"levelo://app?vid=eb9e228a-1053-406e-b89e-e9a74964cd53"},"vehicle_type_id":"4","last_reported":1733936933,"current_range_meters":24000,"station_id":"ce4bhnp2rcd13ifvqh0g","pricing_plan_id":"cebpf4jnsgd1na2vs0mg"},{"bike_id":"af67ac53-ba21-4ff0-8334-95679e9ff2cc","system_id":"levelo_inurba_marseille","lat":43.278805,"lon":5.388003,"is_reserved":false,"is_disabled":true,"rental_uris":{"android":"levelo://app?vid=af67ac53-ba21-4ff0-8334-95679e9ff2cc","ios":"levelo://app?vid=af67ac53-ba21-4ff0-8334-95679e9ff2cc"},"vehicle_type_id":"4","last_reported":1733936933,"current_range_meters":0,"station_id":"","pricing_plan_id":"cebpf4jnsgd1na2vs0mg"},{"bike_id":"ab6bb814-6be0-4a23-8be0-7c219c550454","system_id":"levelo_inurba_marseille","lat":43.29437,"lon":5.3976,"is_reserved":false,"is_disabled":true,"rental_uris":{"android":"levelo://app?vid=ab6bb814-6be0-4a23-8be0-7c219c550454","ios":"levelo://app?vid=ab6bb814-6be0-4a23-8be0-7c219c550454"},"vehicle_type_id":"4","last_reported":1733936933,"current_range_meters":400,"station_id":"ce4bh3h2rcd13ifvqdo0","pricing_plan_id":"cebpf4jnsgd1na2vs0mg"},{"bike_id":"b2cdb644-4735-45f5-bda3-4b29448b7940","system_id":"levelo_inurba_marseille","lat":43.29369,"lon":5.37836,"is_reserved":false,"is_disabled":false,"rental_uris":{"android":"levelo://app?vid=b2cdb644-4735-45f5-bda3-4b29448b7940","ios":"levelo://app?vid=b2cdb644-4735-45f5-bda3-4b29448b7940"},"vehicle_type_id":"4","last_reported":1733936933,"current_range_meters":38000,"station_id":"ce4bgjh2rcd13ifvqbf0","pricing_plan_id":"cebpf4jnsgd1na2vs0mg"},{"bike_id":"3515f275-3f36-4944-bb58-334ae25026d3","system_id":"levelo_inurba_marseille","lat":43.27811,"lon":5.40719,"is_reserved":false,"is_disabled":false,"rental_uris":{"android":"levelo://app?vid=3515f275-3f36-4944-bb58-334ae25026d3","ios":"levelo://app?vid=3515f275-3f36-4944-bb58-334ae25026d3"},"vehicle_type_id":"4","last_reported":1733936933,"current_range_meters":22400,"station_id":"ce4bhnh2rcd13ifvqgtg","pricing_plan_id":"cebpf4jnsgd1na2vs0mg"},{"bike_id":"512311c6-8e27-4752-8fc0-b8cbde613e6b","system_id":"levelo_inurba_marseille","lat":43.26188,"lon":5.37441,"is_reserved":false,"is_disabled":false,"rental_uris":{"android":"levelo://app?vid=512311c6-8e27-4752-8fc0-b8cbde613e6b","ios":"levelo://app?vid=512311c6-8e27-4752-8fc0-b8cbde613e6b"},"vehicle_type_id":"4","last_reported":1733936933,"current_range_meters":15200,"station_id":"ce4bhgp2rcd13ifvqfc0","pricing_plan_id":"cebpf4jnsgd1na2vs0mg"},{"bike_id":"c3f87c2d-f647-4d71-89d3-fc010d8ba668","system_id":"levelo_inurba_marseille","lat":43.2849,"lon":5.38426,"is_reserved":false,"is_disabled":true,"rental_uris":{"android":"levelo://app?vid=c3f87c2d-f647-4d71-89d3-fc010d8ba668","ios":"levelo://app?vid=c3f87c2d-f647-4d71-89d3-fc010d8ba668"},"vehicle_type_id":"4","last_reported":1733936933,"current_range_meters":0,"station_id":"ce4bh512rcd13ifvqe3g","pricing_plan_id":"cebpf4jnsgd1na2vs0mg"},{"bike_id":"ad53aee5-a729-48be-8206-ea00c2981c19","system_id":"levelo_inurba_marseille","lat":43.305152,"lon":5.365351,"is_reserved":false,"is_disabled":true,"rental_uris":{"android":"levelo://app?vid=ad53aee5-a729-48be-8206-ea00c2981c19","ios":"levelo://app?vid=ad53aee5-a729-48be-8206-ea00c2981c19"},"vehicle_type_id":"4","last_reported":1733936933,"current_range_meters":0,"station_id":"","pricing_plan_id":"cebpf4jnsgd1na2vs0mg"},{"bike_id":"7d2bf50c-5f62-4bcb-93d6-9d9b8f36813d","system_id":"levelo_inurba_marseille","lat":43.3007,"lon":5.39947,"is_reserved":false,"is_disabled":false,"rental_uris":{"android":"levelo://app?vid=7d2bf50c-5f62-4bcb-93d6-9d9b8f36813d","ios":"levelo://app?vid=7d2bf50c-5f62-4bcb-93d6-9d9b8f36813d"},"vehicle_type_id":"4","last_reported":1733936933,"current_range_meters":19200,"station_id":"","pricing_plan_id":"cebpf4jnsgd1na2vs0mg"},{"bike_id":"0b3eeec8-03fc-4ec9-a747-da2e101f987f","system_id":"levelo_inurba_marseille","lat":43.23961,"lon":5.36631,"is_reserved":false,"is_disabled":false,"rental_uris":{"android":"levelo://app?vid=0b3eeec8-03fc-4ec9-a747-da2e101f987f","ios":"levelo://app?vid=0b3eeec8-03fc-4ec9-a747-da2e101f987f"},"vehicle_type_id":"4","last_reported":1733936933,"current_range_meters":30400,"station_id":"ce4bhi12rcd13ifvqfp0","pricing_plan_id":"cebpf4jnsgd1na2vs0mg"},{"bike_id":"26955912-9146-49da-803e-9cab65d3821f","system_id":"levelo_inurba_marseille","lat":43.25084,"lon":5.39524,"is_reserved":false,"is_disabled":false,"rental_uris":{"android":"levelo://app?vid=26955912-9146-49da-803e-9cab65d3821f","ios":"levelo://app?vid=26955912-9146-49da-803e-9cab65d3821f"},"vehicle_type_id":"4","last_reported":1733936933,"current_range_meters":34000,"station_id":"ce4bhm12rcd13ifvqgkg","pricing_plan_id":"cebpf4jnsgd1na2vs0mg"},{"bike_id":"e08def00-98d8-40ac-93f0-39361c6750fd","system_id":"levelo_inurba_marseille","lat":43.29568,"lon":5.37506,"is_reserved":false,"is_disabled":false,"rental_uris":{"android":"levelo://app?vid=e08def00-98d8-40ac-93f0-39361c6750fd","ios":"levelo://app?vid=e08def00-98d8-40ac-93f0-39361c6750fd"},"vehicle_type_id":"4","last_reported":1733936933,"current_range_meters":38400,"station_id":"ce4bgh92rcd13ifvqb50","pricing_plan_id":"cebpf4jnsgd1na2vs0mg"},{"bike_id":"f69cc59c-abf2-4d5d-aaf1-b3f84277e26a","system_id":"levelo_inurba_marseille","lat":43.29598,"lon":5.40215,"is_reserved":false,"is_disabled":false,"rental_uris":{"android":"levelo://app?vid=f69cc59c-abf2-4d5d-aaf1-b3f84277e26a","ios":"levelo://app?vid=f69cc59c-abf2-4d5d-aaf1-b3f84277e26a"},"vehicle_type_id":"4","last_reported":1733936933,"current_range_meters":25200,"station_id":"","pricing_plan_id":"cebpf4jnsgd1na2vs0mg"},{"bike_id":"0408a00e-21e6-4196-a326-b3724f0853de","system_id":"levelo_inurba_marseille","lat":43.2697,"lon":5.3865,"is_reserved":false,"is_disabled":false,"rental_uris":{"android":"levelo://app?vid=0408a00e-21e6-4196-a326-b3724f0853de","ios":"levelo://app?vid=0408a00e-21e6-4196-a326-b3724f0853de"},"vehicle_type_id":"4","last_reported":1733936933,"current_range_meters":37600,"station_id":"ce4bhh92rcd13ifvqfh0","pricing_plan_id":"cebpf4jnsgd1na2vs0mg"},{"bike_id":"0aaf9b22-f7e1-4e4f-a1a5-7a779d72a1d4","system_id":"levelo_inurba_marseille","lat":43.29847,"lon":5.3775,"is_reserved":false,"is_disabled":true,"rental_uris":{"android":"levelo://app?vid=0aaf9b22-f7e1-4e4f-a1a5-7a779d72a1d4","ios":"levelo://app?vid=0aaf9b22-f7e1-4e4f-a1a5-7a779d72a1d4"},"vehicle_type_id":"4","last_reported":1733936933,"current_range_meters":400,"station_id":"","pricing_plan_id":"cebpf4jnsgd1na2vs0mg"},{"bike_id":"cefa54cb-a0bd-4d51-b13e-03ea2047e36f","system_id":"levelo_inurba_marseille","lat":43.295818,"lon":5.375105,"is_reserved":false,"is_disabled":true,"rental_uris":{"android":"levelo://app?vid=cefa54cb-a0bd-4d51-b13e-03ea2047e36f","ios":"levelo://app?vid=cefa54cb-a0bd-4d51-b13e-03ea2047e36f"},"vehicle_type_id":"4","last_reported":1733936933,"current_range_meters":32000,"station_id":"ce4bgh92rcd13ifvqb50","pricing_plan_id":"cebpf4jnsgd1na2vs0mg"},{"bike_id":"a85501a2-1a09-455f-954b-c790a9d4e292","system_id":"levelo_inurba_marseille","lat":43.31078,"lon":5.42437,"is_reserved":false,"is_disabled":false,"rental_uris":{"android":"levelo://app?vid=a85501a2-1a09-455f-954b-c790a9d4e292","ios":"levelo://app?vid=a85501a2-1a09-455f-954b-c790a9d4e292"},"vehicle_type_id":"4","last_reported":1733936933,"current_range_meters":21600,"station_id":"ce4bhp92rcd13ifvqhag","pricing_plan_id":"cebpf4jnsgd1na2vs0mg"},{"bike_id":"b8e3a311-f02b-4399-af7b-1bfb5506fa2a","system_id":"levelo_inurba_marseille","lat":43.24646,"lon":5.38897,"is_reserved":false,"is_disabled":false,"rental_uris":{"android":"levelo://app?vid=b8e3a311-f02b-4399-af7b-1bfb5506fa2a","ios":"levelo://app?vid=b8e3a311-f02b-4399-af7b-1bfb5506fa2a"},"vehicle_type_id":"4","last_reported":1733936933,"current_range_meters":28000,"station_id":"ce4bhg12rcd13ifvqf60","pricing_plan_id":"cebpf4jnsgd1na2vs0mg"},{"bike_id":"8fbd2f7e-f3c4-4cdd-aad8-1bd6325a4759","system_id":"levelo_inurba_marseille","lat":43.29237,"lon":5.40917,"is_reserved":false,"is_disabled":false,"rental_uris":{"android":"levelo://app?vid=8fbd2f7e-f3c4-4cdd-aad8-1bd6325a4759","ios":"levelo://app?vid=8fbd2f7e-f3c4-4cdd-aad8-1bd6325a4759"},"vehicle_type_id":"4","last_reported":1733936933,"current_range_meters":38800,"station_id":"ce4bh192rcd13ifvqdc0","pricing_plan_id":"cebpf4jnsgd1na2vs0mg"},{"bike_id":"5e4f8e0e-b03a-4019-9fb8-3a5a9aec35bd","system_id":"levelo_inurba_marseille","lat":43.32291,"lon":5.38266,"is_reserved":false,"is_disabled":false,"rental_uris":{"android":"levelo://app?vid=5e4f8e0e-b03a-4019-9fb8-3a5a9aec35bd","ios":"levelo://app?vid=5e4f8e0e-b03a-4019-9fb8-3a5a9aec35bd"},"vehicle_type_id":"4","last_reported":1733936933,"current_range_meters":9600,"station_id":"ce4bhr12rcd13ifvqhqg","pricing_plan_id":"cebpf4jnsgd1na2vs0mg"},{"bike_id":"5746a913-59cb-4881-b851-217de753d5a3","system_id":"levelo_inurba_marseille","lat":43.25088,"lon":5.39521,"is_reserved":false,"is_disabled":false,"rental_uris":{"android":"levelo://app?vid=5746a913-59cb-4881-b851-217de753d5a3","ios":"levelo://app?vid=5746a913-59cb-4881-b851-217de753d5a3"},"vehicle_type_id":"4","last_reported":1733936933,"current_range_meters":28400,"station_id":"ce4bhm12rcd13ifvqgkg","pricing_plan_id":"cebpf4jnsgd1na2vs0mg"},{"bike_id":"fc6bce5c-fc82-4c38-916f-35df49872efb","system_id":"levelo_inurba_marseille","lat":43.31989,"lon":5.38158,"is_reserved":false,"is_disabled":true,"rental_uris":{"android":"levelo://app?vid=fc6bce5c-fc82-4c38-916f-35df49872efb","ios":"levelo://app?vid=fc6bce5c-fc82-4c38-916f-35df49872efb"},"vehicle_type_id":"4","last_reported":1733936933,"current_range_meters":800,"station_id":"ce4bhr12rcd13ifvqhpg","pricing_plan_id":"cebpf4jnsgd1na2vs0mg"},{"bike_id":"5d382e35-6fb0-494d-93a6-a813dce78fc3","system_id":"levelo_inurba_marseille","lat":43.30912,"lon":5.3684,"is_reserved":false,"is_disabled":false,"rental_uris":{"android":"levelo://app?vid=5d382e35-6fb0-494d-93a6-a813dce78fc3","ios":"levelo://app?vid=5d382e35-6fb0-494d-93a6-a813dce78fc3"},"vehicle_type_id":"4","last_reported":1733936933,"current_range_meters":28800,"station_id":"ce4bgn92rcd13ifvqbvg","pricing_plan_id":"cebpf4jnsgd1na2vs0mg"},{"bike_id":"6ff81125-71bf-40cc-a5d6-cc392c4e7a61","system_id":"levelo_inurba_marseille","lat":43.31753,"lon":5.39019,"is_reserved":false,"is_disabled":false,"rental_uris":{"android":"levelo://app?vid=6ff81125-71bf-40cc-a5d6-cc392c4e7a61","ios":"levelo://app?vid=6ff81125-71bf-40cc-a5d6-cc392c4e7a61"},"vehicle_type_id":"4","last_reported":1733936933,"current_range_meters":16000,"station_id":"ce4bhqp2rcd13ifvqhng","pricing_plan_id":"cebpf4jnsgd1na2vs0mg"},{"bike_id":"32081c96-f1c7-433b-932f-7b311ba352c3","system_id":"levelo_inurba_marseille","lat":43.23182,"lon":5.39986,"is_reserved":false,"is_disabled":false,"rental_uris":{"android":"levelo://app?vid=32081c96-f1c7-433b-932f-7b311ba352c3","ios":"levelo://app?vid=32081c96-f1c7-433b-932f-7b311ba352c3"},"vehicle_type_id":"4","last_reported":1733936933,"current_range_meters":20000,"station_id":"ce4bhn12rcd13ifvqgqg","pricing_plan_id":"cebpf4jnsgd1na2vs0mg"},{"bike_id":"c421937f-b3a9-4bfa-8481-6a4e353c01f9","system_id":"levelo_inurba_marseille","lat":43.26785,"lon":5.39416,"is_reserved":false,"is_disabled":false,"rental_uris":{"android":"levelo://app?vid=c421937f-b3a9-4bfa-8481-6a4e353c01f9","ios":"levelo://app?vid=c421937f-b3a9-4bfa-8481-6a4e353c01f9"},"vehicle_type_id":"4","last_reported":1733936933,"current_range_meters":32800,"station_id":"ce4bhh12rcd13ifvqfg0","pricing_plan_id":"cebpf4jnsgd1na2vs0mg"},{"bike_id":"08608175-32ab-4c3a-a92f-d131cb450c09","system_id":"levelo_inurba_marseille","lat":43.31127,"lon":5.37777,"is_reserved":false,"is_disabled":false,"rental_uris":{"android":"levelo://app?vid=08608175-32ab-4c3a-a92f-d131cb450c09","ios":"levelo://app?vid=08608175-32ab-4c3a-a92f-d131cb450c09"},"vehicle_type_id":"4","last_reported":1733936933,"current_range_meters":9200,"station_id":"ce4bgt92rcd13ifvqcg0","pricing_plan_id":"cebpf4jnsgd1na2vs0mg"},{"bike_id":"ef1675a4-1a15-40b4-af8d-26ca4e4efdd1","system_id":"levelo_inurba_marseille","lat":43.28691,"lon":5.37377,"is_reserved":false,"is_disabled":false,"rental_uris":{"android":"levelo://app?vid=ef1675a4-1a15-40b4-af8d-26ca4e4efdd1","ios":"levelo://app?vid=ef1675a4-1a15-40b4-af8d-26ca4e4efdd1"},"vehicle_type_id":"4","last_reported":1733936933,"current_range_meters":30000,"station_id":"ce4bh3p2rcd13ifvqdq0","pricing_plan_id":"cebpf4jnsgd1na2vs0mg"},{"bike_id":"84fc2ccf-3a1c-4784-8d2e-c03af5c604ae","system_id":"levelo_inurba_marseille","lat":43.2963,"lon":5.4059,"is_reserved":false,"is_disabled":false,"rental_uris":{"android":"levelo://app?vid=84fc2ccf-3a1c-4784-8d2e-c03af5c604ae","ios":"levelo://app?vid=84fc2ccf-3a1c-4784-8d2e-c03af5c604ae"},"vehicle_type_id":"4","last_reported":1733936933,"current_range_meters":3600,"station_id":"ce4bh0h2rcd13ifvqd60","pricing_plan_id":"cebpf4jnsgd1na2vs0mg"},{"bike_id":"440c0882-719b-4b38-aba1-872c74c75218","system_id":"levelo_inurba_marseille","lat":43.32319,"lon":5.38293,"is_reserved":false,"is_disabled":false,"rental_uris":{"android":"levelo://app?vid=440c0882-719b-4b38-aba1-872c74c75218","ios":"levelo://app?vid=440c0882-719b-4b38-aba1-872c74c75218"},"vehicle_type_id":"4","last_reported":1733936933,"current_range_meters":38800,"station_id":"ce4bhr12rcd13ifvqhqg","pricing_plan_id":"cebpf4jnsgd1na2vs0mg"},{"bike_id":"e43afc4d-2aae-42e0-9ad3-68e69869c487","system_id":"levelo_inurba_marseille","lat":43.25521,"lon":5.37638,"is_reserved":false,"is_disabled":false,"rental_uris":{"android":"levelo://app?vid=e43afc4d-2aae-42e0-9ad3-68e69869c487","ios":"levelo://app?vid=e43afc4d-2aae-42e0-9ad3-68e69869c487"},"vehicle_type_id":"4","last_reported":1733936933,"current_range_meters":38800,"station_id":"ce4bhh12rcd13ifvqff0","pricing_plan_id":"cebpf4jnsgd1na2vs0mg"},{"bike_id":"17d6af53-cdd6-436b-ade8-e0937b85b870","system_id":"levelo_inurba_marseille","lat":43.26943,"lon":5.38933,"is_reserved":false,"is_disabled":false,"rental_uris":{"android":"levelo://app?vid=17d6af53-cdd6-436b-ade8-e0937b85b870","ios":"levelo://app?vid=17d6af53-cdd6-436b-ade8-e0937b85b870"},"vehicle_type_id":"4","last_reported":1733936933,"current_range_meters":37600,"station_id":"ce4bhhh2rcd13ifvqfl0","pricing_plan_id":"cebpf4jnsgd1na2vs0mg"},{"bike_id":"accc15c2-75c8-4823-a61f-1d4d7e399167","system_id":"levelo_inurba_marseille","lat":43.2942,"lon":5.38612,"is_reserved":false,"is_disabled":true,"rental_uris":{"android":"levelo://app?vid=accc15c2-75c8-4823-a61f-1d4d7e399167","ios":"levelo://app?vid=accc15c2-75c8-4823-a61f-1d4d7e399167"},"vehicle_type_id":"4","last_reported":1733936933,"current_range_meters":10000,"station_id":"ce4bh2h2rcd13ifvqdh0","pricing_plan_id":"cebpf4jnsgd1na2vs0mg"},{"bike_id":"d74162f5-6694-4a60-80db-577368a60e57","system_id":"levelo_inurba_marseille","lat":43.29606,"lon":5.381,"is_reserved":false,"is_disabled":true,"rental_uris":{"android":"levelo://app?vid=d74162f5-6694-4a60-80db-577368a60e57","ios":"levelo://app?vid=d74162f5-6694-4a60-80db-577368a60e57"},"vehicle_type_id":"4","last_reported":1733936933,"current_range_meters":0,"station_id":"ce4bgl12rcd13ifvqbo0","pricing_plan_id":"cebpf4jnsgd1na2vs0mg"},{"bike_id":"20dec2c9-ca70-4520-b174-a81f4e369962","system_id":"levelo_inurba_marseille","lat":43.29561,"lon":5.42287,"is_reserved":false,"is_disabled":false,"rental_uris":{"android":"levelo://app?vid=20dec2c9-ca70-4520-b174-a81f4e369962","ios":"levelo://app?vid=20dec2c9-ca70-4520-b174-a81f4e369962"},"vehicle_type_id":"4","last_reported":1733936933,"current_range_meters":36400,"station_id":"ce4bhph2rcd13ifvqhdg","pricing_plan_id":"cebpf4jnsgd1na2vs0mg"},{"bike_id":"2c014ae4-7d58-406f-a0f3-e7beffdd9a3b","system_id":"levelo_inurba_marseille","lat":43.30095,"lon":5.39089,"is_reserved":false,"is_disabled":true,"rental_uris":{"android":"levelo://app?vid=2c014ae4-7d58-406f-a0f3-e7beffdd9a3b","ios":"levelo://app?vid=2c014ae4-7d58-406f-a0f3-e7beffdd9a3b"},"vehicle_type_id":"4","last_reported":1733936933,"current_range_meters":30800,"station_id":"ce4bh192rcd13ifvqdb0","pricing_plan_id":"cebpf4jnsgd1na2vs0mg"},{"bike_id":"f053eb9e-5241-4a9c-b6f1-6b0e8a400961","system_id":"levelo_inurba_marseille","lat":43.30813,"lon":5.43525,"is_reserved":false,"is_disabled":false,"rental_uris":{"android":"levelo://app?vid=f053eb9e-5241-4a9c-b6f1-6b0e8a400961","ios":"levelo://app?vid=f053eb9e-5241-4a9c-b6f1-6b0e8a400961"},"vehicle_type_id":"4","last_reported":1733936933,"current_range_meters":17600,"station_id":"ce4bhph2rcd13ifvqheg","pricing_plan_id":"cebpf4jnsgd1na2vs0mg"},{"bike_id":"e966d2c7-c9e1-4cb1-9a39-6325607b0be4","system_id":"levelo_inurba_marseille","lat":43.337444,"lon":5.374475,"is_reserved":false,"is_disabled":true,"rental_uris":{"android":"levelo://app?vid=e966d2c7-c9e1-4cb1-9a39-6325607b0be4","ios":"levelo://app?vid=e966d2c7-c9e1-4cb1-9a39-6325607b0be4"},"vehicle_type_id":"4","last_reported":1733936933,"current_range_meters":0,"station_id":"","pricing_plan_id":"cebpf4jnsgd1na2vs0mg"},{"bike_id":"466789ec-43b2-4361-97ef-af86c2fa484d","system_id":"levelo_inurba_marseille","lat":43.30883,"lon":5.39648,"is_reserved":false,"is_disabled":false,"rental_uris":{"android":"levelo://app?vid=466789ec-43b2-4361-97ef-af86c2fa484d","ios":"levelo://app?vid=466789ec-43b2-4361-97ef-af86c2fa484d"},"vehicle_type_id":"4","last_reported":1733936933,"current_range_meters":8400,"station_id":"ce4bh012rcd13ifvqcv0","pricing_plan_id":"cebpf4jnsgd1na2vs0mg"},{"bike_id":"312bb54d-7981-48b2-bad1-cc0be49295b2","system_id":"levelo_inurba_marseille","lat":43.288443,"lon":5.358563,"is_reserved":false,"is_disabled":false,"rental_uris":{"android":"levelo://app?vid=312bb54d-7981-48b2-bad1-cc0be49295b2","ios":"levelo://app?vid=312bb54d-7981-48b2-bad1-cc0be49295b2"},"vehicle_type_id":"4","last_reported":1733936933,"current_range_meters":38800,"station_id":"ce4bhb12rcd13ifvqem0","pricing_plan_id":"cebpf4jnsgd1na2vs0mg"},{"bike_id":"f0a4f587-2333-4a7a-8819-09121e495e1b","system_id":"levelo_inurba_marseille","lat":43.2292,"lon":5.35359,"is_reserved":false,"is_disabled":false,"rental_uris":{"android":"levelo://app?vid=f0a4f587-2333-4a7a-8819-09121e495e1b","ios":"levelo://app?vid=f0a4f587-2333-4a7a-8819-09121e495e1b"},"vehicle_type_id":"4","last_reported":1733936933,"current_range_meters":12800,"station_id":"cpo3532slgdg3j2ikp40","pricing_plan_id":"cebpf4jnsgd1na2vs0mg"},{"bike_id":"9d60585a-42b3-4d9a-ace5-13f7af63604f","system_id":"levelo_inurba_marseille","lat":43.29783,"lon":5.38105,"is_reserved":false,"is_disabled":false,"rental_uris":{"android":"levelo://app?vid=9d60585a-42b3-4d9a-ace5-13f7af63604f","ios":"levelo://app?vid=9d60585a-42b3-4d9a-ace5-13f7af63604f"},"vehicle_type_id":"4","last_reported":1733936933,"current_range_meters":5600,"station_id":"ce4bgip2rcd13ifvqbb0","pricing_plan_id":"cebpf4jnsgd1na2vs0mg"},{"bike_id":"17f59de1-b3ce-4e3a-95ec-402199b35e46","system_id":"levelo_inurba_marseille","lat":43.24638,"lon":5.38897,"is_reserved":false,"is_disabled":false,"rental_uris":{"android":"levelo://app?vid=17f59de1-b3ce-4e3a-95ec-402199b35e46","ios":"levelo://app?vid=17f59de1-b3ce-4e3a-95ec-402199b35e46"},"vehicle_type_id":"4","last_reported":1733936933,"current_range_meters":30800,"station_id":"ce4bhg12rcd13ifvqf60","pricing_plan_id":"cebpf4jnsgd1na2vs0mg"},{"bike_id":"e2b090ff-7c7f-4d4a-8f5b-c317e750043e","system_id":"levelo_inurba_marseille","lat":43.27071,"lon":5.42282,"is_reserved":false,"is_disabled":true,"rental_uris":{"android":"levelo://app?vid=e2b090ff-7c7f-4d4a-8f5b-c317e750043e","ios":"levelo://app?vid=e2b090ff-7c7f-4d4a-8f5b-c317e750043e"},"vehicle_type_id":"4","last_reported":1733936933,"current_range_meters":400,"station_id":"ce4bhk92rcd13ifvqgb0","pricing_plan_id":"cebpf4jnsgd1na2vs0mg"},{"bike_id":"1802c294-deb8-4890-b7ca-3e995fd26543","system_id":"levelo_inurba_marseille","lat":43.270695,"lon":5.4228,"is_reserved":false,"is_disabled":false,"rental_uris":{"android":"levelo://app?vid=1802c294-deb8-4890-b7ca-3e995fd26543","ios":"levelo://app?vid=1802c294-deb8-4890-b7ca-3e995fd26543"},"vehicle_type_id":"4","last_reported":1733936933,"current_range_meters":38000,"station_id":"ce4bhk92rcd13ifvqgb0","pricing_plan_id":"cebpf4jnsgd1na2vs0mg"},{"bike_id":"8db8b6fe-de7b-46b5-9318-5bed759ccf9f","system_id":"levelo_inurba_marseille","lat":43.26567,"lon":5.39,"is_reserved":false,"is_disabled":false,"rental_uris":{"android":"levelo://app?vid=8db8b6fe-de7b-46b5-9318-5bed759ccf9f","ios":"levelo://app?vid=8db8b6fe-de7b-46b5-9318-5bed759ccf9f"},"vehicle_type_id":"4","last_reported":1733936933,"current_range_meters":6800,"station_id":"ce4bhe12rcd13ifvqf30","pricing_plan_id":"cebpf4jnsgd1na2vs0mg"},{"bike_id":"0d126ae6-3759-43ec-981d-6cf2ee90204e","system_id":"levelo_inurba_marseille","lat":43.25488,"lon":5.37666,"is_reserved":false,"is_disabled":false,"rental_uris":{"android":"levelo://app?vid=0d126ae6-3759-43ec-981d-6cf2ee90204e","ios":"levelo://app?vid=0d126ae6-3759-43ec-981d-6cf2ee90204e"},"vehicle_type_id":"4","last_reported":1733936933,"current_range_meters":32800,"station_id":"ce4bhh12rcd13ifvqff0","pricing_plan_id":"cebpf4jnsgd1na2vs0mg"},{"bike_id":"fe4d47c1-dfb5-4e68-bfe4-126efd20c0c3","system_id":"levelo_inurba_marseille","lat":43.30775,"lon":5.37321,"is_reserved":false,"is_disabled":false,"rental_uris":{"android":"levelo://app?vid=fe4d47c1-dfb5-4e68-bfe4-126efd20c0c3","ios":"levelo://app?vid=fe4d47c1-dfb5-4e68-bfe4-126efd20c0c3"},"vehicle_type_id":"4","last_reported":1733936933,"current_range_meters":25600,"station_id":"","pricing_plan_id":"cebpf4jnsgd1na2vs0mg"},{"bike_id":"c92ad14c-6813-4c4d-97fa-fd4a2cb9c2fc","system_id":"levelo_inurba_marseille","lat":43.2795,"lon":5.41039,"is_reserved":false,"is_disabled":true,"rental_uris":{"android":"levelo://app?vid=c92ad14c-6813-4c4d-97fa-fd4a2cb9c2fc","ios":"levelo://app?vid=c92ad14c-6813-4c4d-97fa-fd4a2cb9c2fc"},"vehicle_type_id":"4","last_reported":1733936933,"current_range_meters":0,"station_id":"ce4bhnp2rcd13ifvqh0g","pricing_plan_id":"cebpf4jnsgd1na2vs0mg"},{"bike_id":"c6a61312-87a6-4235-96fe-4428fdc8a59b","system_id":"levelo_inurba_marseille","lat":43.28934,"lon":5.3663,"is_reserved":false,"is_disabled":false,"rental_uris":{"android":"levelo://app?vid=c6a61312-87a6-4235-96fe-4428fdc8a59b","ios":"levelo://app?vid=c6a61312-87a6-4235-96fe-4428fdc8a59b"},"vehicle_type_id":"4","last_reported":1733936933,"current_range_meters":33200,"station_id":"ce4bhap2rcd13ifvqek0","pricing_plan_id":"cebpf4jnsgd1na2vs0mg"},{"bike_id":"c346be12-582d-42dc-8dce-5e128ded35bf","system_id":"levelo_inurba_marseille","lat":43.32002,"lon":5.38158,"is_reserved":false,"is_disabled":false,"rental_uris":{"android":"levelo://app?vid=c346be12-582d-42dc-8dce-5e128ded35bf","ios":"levelo://app?vid=c346be12-582d-42dc-8dce-5e128ded35bf"},"vehicle_type_id":"4","last_reported":1733936933,"current_range_meters":25200,"station_id":"ce4bhr12rcd13ifvqhpg","pricing_plan_id":"cebpf4jnsgd1na2vs0mg"},{"bike_id":"2ae5757b-adfa-48df-983a-7f44e726878d","system_id":"levelo_inurba_marseille","lat":43.23154,"lon":5.43707,"is_reserved":false,"is_disabled":false,"rental_uris":{"android":"levelo://app?vid=2ae5757b-adfa-48df-983a-7f44e726878d","ios":"levelo://app?vid=2ae5757b-adfa-48df-983a-7f44e726878d"},"vehicle_type_id":"4","last_reported":1733936933,"current_range_meters":14400,"station_id":"ce4bhmp2rcd13ifvqgog","pricing_plan_id":"cebpf4jnsgd1na2vs0mg"},{"bike_id":"f660a001-8f8a-44ee-90cf-cc7bf378c516","system_id":"levelo_inurba_marseille","lat":43.24791,"lon":5.37435,"is_reserved":false,"is_disabled":false,"rental_uris":{"android":"levelo://app?vid=f660a001-8f8a-44ee-90cf-cc7bf378c516","ios":"levelo://app?vid=f660a001-8f8a-44ee-90cf-cc7bf378c516"},"vehicle_type_id":"4","last_reported":1733936933,"current_range_meters":38800,"station_id":"ce4bhgh2rcd13ifvqfb0","pricing_plan_id":"cebpf4jnsgd1na2vs0mg"},{"bike_id":"097a41bf-6635-41a6-b7a7-1173cae29ada","system_id":"levelo_inurba_marseille","lat":43.22994,"lon":5.3548,"is_reserved":false,"is_disabled":false,"rental_uris":{"android":"levelo://app?vid=097a41bf-6635-41a6-b7a7-1173cae29ada","ios":"levelo://app?vid=097a41bf-6635-41a6-b7a7-1173cae29ada"},"vehicle_type_id":"4","last_reported":1733936933,"current_range_meters":38800,"station_id":"cpo3532slgdg3j2ikp40","pricing_plan_id":"cebpf4jnsgd1na2vs0mg"},{"bike_id":"a90ab59e-9775-4bc6-a3e9-285e464122de","system_id":"levelo_inurba_marseille","lat":43.24649,"lon":5.3889,"is_reserved":false,"is_disabled":false,"rental_uris":{"android":"levelo://app?vid=a90ab59e-9775-4bc6-a3e9-285e464122de","ios":"levelo://app?vid=a90ab59e-9775-4bc6-a3e9-285e464122de"},"vehicle_type_id":"4","last_reported":1733936933,"current_range_meters":38400,"station_id":"ce4bhg12rcd13ifvqf60","pricing_plan_id":"cebpf4jnsgd1na2vs0mg"},{"bike_id":"cae92497-1611-462d-b412-5e1301d68b29","system_id":"levelo_inurba_marseille","lat":43.26539,"lon":5.37298,"is_reserved":false,"is_disabled":false,"rental_uris":{"android":"levelo://app?vid=cae92497-1611-462d-b412-5e1301d68b29","ios":"levelo://app?vid=cae92497-1611-462d-b412-5e1301d68b29"},"vehicle_type_id":"4","last_reported":1733936933,"current_range_meters":16000,"station_id":"ce4bhg12rcd13ifvqf70","pricing_plan_id":"cebpf4jnsgd1na2vs0mg"},{"bike_id":"e08a3c45-9a07-474f-9717-a27fa81c4ce9","system_id":"levelo_inurba_marseille","lat":43.30773,"lon":5.38753,"is_reserved":false,"is_disabled":true,"rental_uris":{"android":"levelo://app?vid=e08a3c45-9a07-474f-9717-a27fa81c4ce9","ios":"levelo://app?vid=e08a3c45-9a07-474f-9717-a27fa81c4ce9"},"vehicle_type_id":"4","last_reported":1733936933,"current_range_meters":800,"station_id":"","pricing_plan_id":"cebpf4jnsgd1na2vs0mg"},{"bike_id":"4a398bd7-199a-4ca3-85fa-4a7a269a2997","system_id":"levelo_inurba_marseille","lat":43.28933,"lon":5.38382,"is_reserved":false,"is_disabled":false,"rental_uris":{"android":"levelo://app?vid=4a398bd7-199a-4ca3-85fa-4a7a269a2997","ios":"levelo://app?vid=4a398bd7-199a-4ca3-85fa-4a7a269a2997"},"vehicle_type_id":"4","last_reported":1733936933,"current_range_meters":25200,"station_id":"ce4bh612rcd13ifvqe6g","pricing_plan_id":"cebpf4jnsgd1na2vs0mg"},{"bike_id":"ca15c5d9-ae35-4e3c-8bd7-996a7540383e","system_id":"levelo_inurba_marseille","lat":43.28095,"lon":5.37849,"is_reserved":false,"is_disabled":false,"rental_uris":{"android":"levelo://app?vid=ca15c5d9-ae35-4e3c-8bd7-996a7540383e","ios":"levelo://app?vid=ca15c5d9-ae35-4e3c-8bd7-996a7540383e"},"vehicle_type_id":"4","last_reported":1733936933,"current_range_meters":38400,"station_id":"ce4bha12rcd13ifvqee0","pricing_plan_id":"cebpf4jnsgd1na2vs0mg"},{"bike_id":"0d514f68-29b7-4049-844a-493370863f98","system_id":"levelo_inurba_marseille","lat":43.28379,"lon":5.38102,"is_reserved":false,"is_disabled":true,"rental_uris":{"android":"levelo://app?vid=0d514f68-29b7-4049-844a-493370863f98","ios":"levelo://app?vid=0d514f68-29b7-4049-844a-493370863f98"},"vehicle_type_id":"4","last_reported":1733936933,"current_range_meters":24800,"station_id":"ce4bh412rcd13ifvqdr0","pricing_plan_id":"cebpf4jnsgd1na2vs0mg"},{"bike_id":"bc119752-b234-4c77-b416-1126eb4f816b","system_id":"levelo_inurba_marseille","lat":43.25595,"lon":5.38222,"is_reserved":false,"is_disabled":false,"rental_uris":{"android":"levelo://app?vid=bc119752-b234-4c77-b416-1126eb4f816b","ios":"levelo://app?vid=bc119752-b234-4c77-b416-1126eb4f816b"},"vehicle_type_id":"4","last_reported":1733936933,"current_range_meters":37600,"station_id":"ce4bhih2rcd13ifvqfs0","pricing_plan_id":"cebpf4jnsgd1na2vs0mg"},{"bike_id":"e3f5cbcc-c0d9-4ed4-96fa-131656aa7cf7","system_id":"levelo_inurba_marseille","lat":43.29607,"lon":5.37489,"is_reserved":false,"is_disabled":true,"rental_uris":{"android":"levelo://app?vid=e3f5cbcc-c0d9-4ed4-96fa-131656aa7cf7","ios":"levelo://app?vid=e3f5cbcc-c0d9-4ed4-96fa-131656aa7cf7"},"vehicle_type_id":"4","last_reported":1733936933,"current_range_meters":37600,"station_id":"ce4bgh92rcd13ifvqb50","pricing_plan_id":"cebpf4jnsgd1na2vs0mg"},{"bike_id":"a56f9de4-6a91-4720-9e75-282f862dc823","system_id":"levelo_inurba_marseille","lat":43.24185,"lon":5.39723,"is_reserved":false,"is_disabled":false,"rental_uris":{"android":"levelo://app?vid=a56f9de4-6a91-4720-9e75-282f862dc823","ios":"levelo://app?vid=a56f9de4-6a91-4720-9e75-282f862dc823"},"vehicle_type_id":"4","last_reported":1733936933,"current_range_meters":20800,"station_id":"ce4bhn12rcd13ifvqgpg","pricing_plan_id":"cebpf4jnsgd1na2vs0mg"},{"bike_id":"af77a2c4-4f01-4eac-8bd5-698508bacd7c","system_id":"levelo_inurba_marseille","lat":43.27174,"lon":5.40996,"is_reserved":false,"is_disabled":false,"rental_uris":{"android":"levelo://app?vid=af77a2c4-4f01-4eac-8bd5-698508bacd7c","ios":"levelo://app?vid=af77a2c4-4f01-4eac-8bd5-698508bacd7c"},"vehicle_type_id":"4","last_reported":1733936933,"current_range_meters":24000,"station_id":"ce4bhl12rcd13ifvqgf0","pricing_plan_id":"cebpf4jnsgd1na2vs0mg"},{"bike_id":"e2a77f5d-1d63-4243-bf72-8b9ec30686b1","system_id":"levelo_inurba_marseille","lat":43.28713,"lon":5.37943,"is_reserved":false,"is_disabled":true,"rental_uris":{"android":"levelo://app?vid=e2a77f5d-1d63-4243-bf72-8b9ec30686b1","ios":"levelo://app?vid=e2a77f5d-1d63-4243-bf72-8b9ec30686b1"},"vehicle_type_id":"4","last_reported":1733936933,"current_range_meters":34800,"station_id":"ce4bh9p2rcd13ifvqec0","pricing_plan_id":"cebpf4jnsgd1na2vs0mg"},{"bike_id":"1a6c2e40-cc83-4202-a877-31ef6d077395","system_id":"levelo_inurba_marseille","lat":43.27166,"lon":5.40997,"is_reserved":false,"is_disabled":false,"rental_uris":{"android":"levelo://app?vid=1a6c2e40-cc83-4202-a877-31ef6d077395","ios":"levelo://app?vid=1a6c2e40-cc83-4202-a877-31ef6d077395"},"vehicle_type_id":"4","last_reported":1733936933,"current_range_meters":36800,"station_id":"ce4bhl12rcd13ifvqgf0","pricing_plan_id":"cebpf4jnsgd1na2vs0mg"},{"bike_id":"e25f7ae1-1719-4a15-a27a-d6efd4724a84","system_id":"levelo_inurba_marseille","lat":43.31694,"lon":5.40466,"is_reserved":false,"is_disabled":false,"rental_uris":{"android":"levelo://app?vid=e25f7ae1-1719-4a15-a27a-d6efd4724a84","ios":"levelo://app?vid=e25f7ae1-1719-4a15-a27a-d6efd4724a84"},"vehicle_type_id":"4","last_reported":1733936933,"current_range_meters":32800,"station_id":"ce4bh012rcd13ifvqd00","pricing_plan_id":"cebpf4jnsgd1na2vs0mg"},{"bike_id":"d5a8a8df-93cd-4089-9974-ae219978109f","system_id":"levelo_inurba_marseille","lat":43.25525,"lon":5.37637,"is_reserved":false,"is_disabled":false,"rental_uris":{"android":"levelo://app?vid=d5a8a8df-93cd-4089-9974-ae219978109f","ios":"levelo://app?vid=d5a8a8df-93cd-4089-9974-ae219978109f"},"vehicle_type_id":"4","last_reported":1733936933,"current_range_meters":26800,"station_id":"ce4bhh12rcd13ifvqff0","pricing_plan_id":"cebpf4jnsgd1na2vs0mg"},{"bike_id":"1c6a1060-cbf4-4ffc-840a-2ea0eec59224","system_id":"levelo_inurba_marseille","lat":43.27953,"lon":5.41043,"is_reserved":false,"is_disabled":false,"rental_uris":{"android":"levelo://app?vid=1c6a1060-cbf4-4ffc-840a-2ea0eec59224","ios":"levelo://app?vid=1c6a1060-cbf4-4ffc-840a-2ea0eec59224"},"vehicle_type_id":"4","last_reported":1733936933,"current_range_meters":7200,"station_id":"ce4bhnp2rcd13ifvqh0g","pricing_plan_id":"cebpf4jnsgd1na2vs0mg"},{"bike_id":"7d14352f-2486-44ae-a579-13995a94cf8b","system_id":"levelo_inurba_marseille","lat":43.31333,"lon":5.39683,"is_reserved":false,"is_disabled":false,"rental_uris":{"android":"levelo://app?vid=7d14352f-2486-44ae-a579-13995a94cf8b","ios":"levelo://app?vid=7d14352f-2486-44ae-a579-13995a94cf8b"},"vehicle_type_id":"4","last_reported":1733936933,"current_range_meters":13600,"station_id":"ce4bgvp2rcd13ifvqcu0","pricing_plan_id":"cebpf4jnsgd1na2vs0mg"},{"bike_id":"d991062a-4c76-430b-af5d-33c311aadcc2","system_id":"levelo_inurba_marseille","lat":43.30123,"lon":5.39852,"is_reserved":false,"is_disabled":false,"rental_uris":{"android":"levelo://app?vid=d991062a-4c76-430b-af5d-33c311aadcc2","ios":"levelo://app?vid=d991062a-4c76-430b-af5d-33c311aadcc2"},"vehicle_type_id":"4","last_reported":1733936933,"current_range_meters":22000,"station_id":"ce4bh0h2rcd13ifvqd40","pricing_plan_id":"cebpf4jnsgd1na2vs0mg"},{"bike_id":"a66c4b95-337e-4b9a-950c-e8c8d8e7a3a1","system_id":"levelo_inurba_marseille","lat":43.324799,"lon":5.365716,"is_reserved":false,"is_disabled":true,"rental_uris":{"android":"levelo://app?vid=a66c4b95-337e-4b9a-950c-e8c8d8e7a3a1","ios":"levelo://app?vid=a66c4b95-337e-4b9a-950c-e8c8d8e7a3a1"},"vehicle_type_id":"4","last_reported":1733936933,"current_range_meters":0,"station_id":"","pricing_plan_id":"cebpf4jnsgd1na2vs0mg"},{"bike_id":"f3a9949b-9068-4a1f-a433-c5cfd1182473","system_id":"levelo_inurba_marseille","lat":43.33727,"lon":5.39175,"is_reserved":false,"is_disabled":false,"rental_uris":{"android":"levelo://app?vid=f3a9949b-9068-4a1f-a433-c5cfd1182473","ios":"levelo://app?vid=f3a9949b-9068-4a1f-a433-c5cfd1182473"},"vehicle_type_id":"4","last_reported":1733936933,"current_range_meters":37600,"station_id":"ce4bhr92rcd13ifvqhsg","pricing_plan_id":"cebpf4jnsgd1na2vs0mg"},{"bike_id":"4b6ab6f2-3731-4710-b5fa-3ba990bb9aca","system_id":"levelo_inurba_marseille","lat":43.29022,"lon":5.38138,"is_reserved":false,"is_disabled":true,"rental_uris":{"android":"levelo://app?vid=4b6ab6f2-3731-4710-b5fa-3ba990bb9aca","ios":"levelo://app?vid=4b6ab6f2-3731-4710-b5fa-3ba990bb9aca"},"vehicle_type_id":"4","last_reported":1733936933,"current_range_meters":38000,"station_id":"ce4bh4p2rcd13ifvqe1g","pricing_plan_id":"cebpf4jnsgd1na2vs0mg"},{"bike_id":"0fcc5d50-75fc-4e1a-8f05-2cbb7445de50","system_id":"levelo_inurba_marseille","lat":43.27171,"lon":5.40991,"is_reserved":false,"is_disabled":false,"rental_uris":{"android":"levelo://app?vid=0fcc5d50-75fc-4e1a-8f05-2cbb7445de50","ios":"levelo://app?vid=0fcc5d50-75fc-4e1a-8f05-2cbb7445de50"},"vehicle_type_id":"4","last_reported":1733936933,"current_range_meters":14000,"station_id":"ce4bhl12rcd13ifvqgf0","pricing_plan_id":"cebpf4jnsgd1na2vs0mg"},{"bike_id":"a9c76b6e-786b-41a0-95fe-ed9ca9566adc","system_id":"levelo_inurba_marseille","lat":43.30946,"lon":5.39022,"is_reserved":false,"is_disabled":true,"rental_uris":{"android":"levelo://app?vid=a9c76b6e-786b-41a0-95fe-ed9ca9566adc","ios":"levelo://app?vid=a9c76b6e-786b-41a0-95fe-ed9ca9566adc"},"vehicle_type_id":"4","last_reported":1733936933,"current_range_meters":38800,"station_id":"ce4bgup2rcd13ifvqco0","pricing_plan_id":"cebpf4jnsgd1na2vs0mg"},{"bike_id":"3c7d8956-07af-4408-ae94-63514d5e362d","system_id":"levelo_inurba_marseille","lat":43.24667,"lon":5.38909,"is_reserved":false,"is_disabled":false,"rental_uris":{"android":"levelo://app?vid=3c7d8956-07af-4408-ae94-63514d5e362d","ios":"levelo://app?vid=3c7d8956-07af-4408-ae94-63514d5e362d"},"vehicle_type_id":"4","last_reported":1733936933,"current_range_meters":38800,"station_id":"ce4bhg12rcd13ifvqf60","pricing_plan_id":"cebpf4jnsgd1na2vs0mg"},{"bike_id":"2175ae3c-739a-49a6-8b88-c695a996a497","system_id":"levelo_inurba_marseille","lat":43.24071,"lon":5.37737,"is_reserved":false,"is_disabled":true,"rental_uris":{"android":"levelo://app?vid=2175ae3c-739a-49a6-8b88-c695a996a497","ios":"levelo://app?vid=2175ae3c-739a-49a6-8b88-c695a996a497"},"vehicle_type_id":"4","last_reported":1733936933,"current_range_meters":36400,"station_id":"ce4bhnp2rcd13ifvqgvg","pricing_plan_id":"cebpf4jnsgd1na2vs0mg"},{"bike_id":"10591005-6da7-4035-bcd5-173423f9a094","system_id":"levelo_inurba_marseille","lat":43.3266,"lon":5.40992,"is_reserved":false,"is_disabled":false,"rental_uris":{"android":"levelo://app?vid=10591005-6da7-4035-bcd5-173423f9a094","ios":"levelo://app?vid=10591005-6da7-4035-bcd5-173423f9a094"},"vehicle_type_id":"4","last_reported":1733936933,"current_range_meters":38000,"station_id":"ce4bhpp2rcd13ifvqhgg","pricing_plan_id":"cebpf4jnsgd1na2vs0mg"},{"bike_id":"bbcff5ca-4212-4f97-ad4e-cc9f02df715c","system_id":"levelo_inurba_marseille","lat":43.23184,"lon":5.39992,"is_reserved":false,"is_disabled":false,"rental_uris":{"android":"levelo://app?vid=bbcff5ca-4212-4f97-ad4e-cc9f02df715c","ios":"levelo://app?vid=bbcff5ca-4212-4f97-ad4e-cc9f02df715c"},"vehicle_type_id":"4","last_reported":1733936933,"current_range_meters":2800,"station_id":"ce4bhn12rcd13ifvqgqg","pricing_plan_id":"cebpf4jnsgd1na2vs0mg"},{"bike_id":"f4963636-80b0-415a-b409-7809a0baecc7","system_id":"levelo_inurba_marseille","lat":43.28039,"lon":5.36945,"is_reserved":false,"is_disabled":false,"rental_uris":{"android":"levelo://app?vid=f4963636-80b0-415a-b409-7809a0baecc7","ios":"levelo://app?vid=f4963636-80b0-415a-b409-7809a0baecc7"},"vehicle_type_id":"4","last_reported":1733936933,"current_range_meters":30800,"station_id":"ce4bha12rcd13ifvqef0","pricing_plan_id":"cebpf4jnsgd1na2vs0mg"},{"bike_id":"8453ac0b-4951-40e7-9b2c-960ae19641d9","system_id":"levelo_inurba_marseille","lat":43.3134,"lon":5.39692,"is_reserved":false,"is_disabled":false,"rental_uris":{"android":"levelo://app?vid=8453ac0b-4951-40e7-9b2c-960ae19641d9","ios":"levelo://app?vid=8453ac0b-4951-40e7-9b2c-960ae19641d9"},"vehicle_type_id":"4","last_reported":1733936933,"current_range_meters":3600,"station_id":"ce4bgvp2rcd13ifvqcu0","pricing_plan_id":"cebpf4jnsgd1na2vs0mg"},{"bike_id":"e28d523f-4287-411b-99fb-eb1e4e765117","system_id":"levelo_inurba_marseille","lat":43.29799,"lon":5.40409,"is_reserved":false,"is_disabled":false,"rental_uris":{"android":"levelo://app?vid=e28d523f-4287-411b-99fb-eb1e4e765117","ios":"levelo://app?vid=e28d523f-4287-411b-99fb-eb1e4e765117"},"vehicle_type_id":"4","last_reported":1733936933,"current_range_meters":34000,"station_id":"ce4bh112rcd13ifvqd90","pricing_plan_id":"cebpf4jnsgd1na2vs0mg"},{"bike_id":"62dc3d6f-14e9-4572-8025-9eaf9b53e0fb","system_id":"levelo_inurba_marseille","lat":43.286093,"lon":5.370627,"is_reserved":false,"is_disabled":false,"rental_uris":{"android":"levelo://app?vid=62dc3d6f-14e9-4572-8025-9eaf9b53e0fb","ios":"levelo://app?vid=62dc3d6f-14e9-4572-8025-9eaf9b53e0fb"},"vehicle_type_id":"4","last_reported":1733936933,"current_range_meters":38800,"station_id":"ce4bht12rcd13ifvqi60","pricing_plan_id":"cebpf4jnsgd1na2vs0mg"},{"bike_id":"785bfcf0-fc76-41f5-8975-9ee2ddaefb07","system_id":"levelo_inurba_marseille","lat":43.28586,"lon":5.39489,"is_reserved":false,"is_disabled":false,"rental_uris":{"android":"levelo://app?vid=785bfcf0-fc76-41f5-8975-9ee2ddaefb07","ios":"levelo://app?vid=785bfcf0-fc76-41f5-8975-9ee2ddaefb07"},"vehicle_type_id":"4","last_reported":1733936933,"current_range_meters":37600,"station_id":"ce4bh292rcd13ifvqdg0","pricing_plan_id":"cebpf4jnsgd1na2vs0mg"},{"bike_id":"3279a85d-7d56-4fba-9a2d-444c99335586","system_id":"levelo_inurba_marseille","lat":43.279541,"lon":5.395543,"is_reserved":false,"is_disabled":false,"rental_uris":{"android":"levelo://app?vid=3279a85d-7d56-4fba-9a2d-444c99335586","ios":"levelo://app?vid=3279a85d-7d56-4fba-9a2d-444c99335586"},"vehicle_type_id":"4","last_reported":1733936933,"current_range_meters":27200,"station_id":"ce4bhf92rcd13ifvqf40","pricing_plan_id":"cebpf4jnsgd1na2vs0mg"},{"bike_id":"b2426fa6-a7f6-4c3b-9324-81d7895e0adb","system_id":"levelo_inurba_marseille","lat":43.29618,"lon":5.38089,"is_reserved":false,"is_disabled":true,"rental_uris":{"android":"levelo://app?vid=b2426fa6-a7f6-4c3b-9324-81d7895e0adb","ios":"levelo://app?vid=b2426fa6-a7f6-4c3b-9324-81d7895e0adb"},"vehicle_type_id":"4","last_reported":1733936933,"current_range_meters":800,"station_id":"ce4bgl12rcd13ifvqbo0","pricing_plan_id":"cebpf4jnsgd1na2vs0mg"},{"bike_id":"ab1c6a12-19ac-4afb-af5f-776c48efacd2","system_id":"levelo_inurba_marseille","lat":43.232,"lon":5.3555,"is_reserved":false,"is_disabled":false,"rental_uris":{"android":"levelo://app?vid=ab1c6a12-19ac-4afb-af5f-776c48efacd2","ios":"levelo://app?vid=ab1c6a12-19ac-4afb-af5f-776c48efacd2"},"vehicle_type_id":"4","last_reported":1733936933,"current_range_meters":19600,"station_id":"ce4bhu92rcd13ifvqi70","pricing_plan_id":"cebpf4jnsgd1na2vs0mg"},{"bike_id":"1317b3b1-de33-43cb-ab9d-bcca98fc383d","system_id":"levelo_inurba_marseille","lat":43.28469,"lon":5.35875,"is_reserved":false,"is_disabled":false,"rental_uris":{"android":"levelo://app?vid=1317b3b1-de33-43cb-ab9d-bcca98fc383d","ios":"levelo://app?vid=1317b3b1-de33-43cb-ab9d-bcca98fc383d"},"vehicle_type_id":"4","last_reported":1733936933,"current_range_meters":38800,"station_id":"ce4bhah2rcd13ifvqei0","pricing_plan_id":"cebpf4jnsgd1na2vs0mg"},{"bike_id":"bfeaa8f2-1b87-4fae-9867-4c752a3577ac","system_id":"levelo_inurba_marseille","lat":43.27313,"lon":5.39045,"is_reserved":false,"is_disabled":true,"rental_uris":{"android":"levelo://app?vid=bfeaa8f2-1b87-4fae-9867-4c752a3577ac","ios":"levelo://app?vid=bfeaa8f2-1b87-4fae-9867-4c752a3577ac"},"vehicle_type_id":"4","last_reported":1733936933,"current_range_meters":400,"station_id":"ce4bhgp2rcd13ifvqfe0","pricing_plan_id":"cebpf4jnsgd1na2vs0mg"},{"bike_id":"034afd89-7884-46aa-947a-c5f301e52728","system_id":"levelo_inurba_marseille","lat":43.30889,"lon":5.39627,"is_reserved":false,"is_disabled":true,"rental_uris":{"android":"levelo://app?vid=034afd89-7884-46aa-947a-c5f301e52728","ios":"levelo://app?vid=034afd89-7884-46aa-947a-c5f301e52728"},"vehicle_type_id":"4","last_reported":1733936933,"current_range_meters":22800,"station_id":"ce4bh012rcd13ifvqcv0","pricing_plan_id":"cebpf4jnsgd1na2vs0mg"},{"bike_id":"8298dab2-43fc-4b2c-b20c-2960da57fd0d","system_id":"levelo_inurba_marseille","lat":43.26196,"lon":5.37443,"is_reserved":false,"is_disabled":false,"rental_uris":{"android":"levelo://app?vid=8298dab2-43fc-4b2c-b20c-2960da57fd0d","ios":"levelo://app?vid=8298dab2-43fc-4b2c-b20c-2960da57fd0d"},"vehicle_type_id":"4","last_reported":1733936933,"current_range_meters":38800,"station_id":"ce4bhgp2rcd13ifvqfc0","pricing_plan_id":"cebpf4jnsgd1na2vs0mg"},{"bike_id":"bc4d3f57-2485-4765-bbc0-8f90d4ec332c","system_id":"levelo_inurba_marseille","lat":43.2957,"lon":5.37512,"is_reserved":false,"is_disabled":true,"rental_uris":{"android":"levelo://app?vid=bc4d3f57-2485-4765-bbc0-8f90d4ec332c","ios":"levelo://app?vid=bc4d3f57-2485-4765-bbc0-8f90d4ec332c"},"vehicle_type_id":"4","last_reported":1733936933,"current_range_meters":800,"station_id":"ce4bgh92rcd13ifvqb50","pricing_plan_id":"cebpf4jnsgd1na2vs0mg"},{"bike_id":"235a27c5-32a3-4841-a68d-f35363ff4e8b","system_id":"levelo_inurba_marseille","lat":43.26582,"lon":5.37274,"is_reserved":false,"is_disabled":false,"rental_uris":{"android":"levelo://app?vid=235a27c5-32a3-4841-a68d-f35363ff4e8b","ios":"levelo://app?vid=235a27c5-32a3-4841-a68d-f35363ff4e8b"},"vehicle_type_id":"4","last_reported":1733936933,"current_range_meters":27600,"station_id":"ce4bhg12rcd13ifvqf70","pricing_plan_id":"cebpf4jnsgd1na2vs0mg"},{"bike_id":"1be2f911-5fc5-4852-be66-ffe435557077","system_id":"levelo_inurba_marseille","lat":43.24669,"lon":5.38166,"is_reserved":false,"is_disabled":false,"rental_uris":{"android":"levelo://app?vid=1be2f911-5fc5-4852-be66-ffe435557077","ios":"levelo://app?vid=1be2f911-5fc5-4852-be66-ffe435557077"},"vehicle_type_id":"4","last_reported":1733936933,"current_range_meters":38400,"station_id":"ce4bhih2rcd13ifvqfr0","pricing_plan_id":"cebpf4jnsgd1na2vs0mg"},{"bike_id":"1b9459f5-dcc2-4e43-84c1-999b14f8e0bb","system_id":"levelo_inurba_marseille","lat":43.25571,"lon":5.38228,"is_reserved":false,"is_disabled":false,"rental_uris":{"android":"levelo://app?vid=1b9459f5-dcc2-4e43-84c1-999b14f8e0bb","ios":"levelo://app?vid=1b9459f5-dcc2-4e43-84c1-999b14f8e0bb"},"vehicle_type_id":"4","last_reported":1733936933,"current_range_meters":18000,"station_id":"ce4bhih2rcd13ifvqfs0","pricing_plan_id":"cebpf4jnsgd1na2vs0mg"},{"bike_id":"06aea6f3-562f-4337-98eb-2f1af629b649","system_id":"levelo_inurba_marseille","lat":43.2936,"lon":5.37423,"is_reserved":false,"is_disabled":false,"rental_uris":{"android":"levelo://app?vid=06aea6f3-562f-4337-98eb-2f1af629b649","ios":"levelo://app?vid=06aea6f3-562f-4337-98eb-2f1af629b649"},"vehicle_type_id":"4","last_reported":1733936933,"current_range_meters":28800,"station_id":"","pricing_plan_id":"cebpf4jnsgd1na2vs0mg"},{"bike_id":"7f90f565-0d66-42dc-896d-0fa025e4897e","system_id":"levelo_inurba_marseille","lat":43.28738,"lon":5.36092,"is_reserved":false,"is_disabled":false,"rental_uris":{"android":"levelo://app?vid=7f90f565-0d66-42dc-896d-0fa025e4897e","ios":"levelo://app?vid=7f90f565-0d66-42dc-896d-0fa025e4897e"},"vehicle_type_id":"4","last_reported":1733936933,"current_range_meters":38000,"station_id":"cki0cbj6b192h4jlfktg","pricing_plan_id":"cebpf4jnsgd1na2vs0mg"},{"bike_id":"ee0186ce-5ee6-443a-aa7c-853a1e294ff2","system_id":"levelo_inurba_marseille","lat":43.29614,"lon":5.37712,"is_reserved":false,"is_disabled":true,"rental_uris":{"android":"levelo://app?vid=ee0186ce-5ee6-443a-aa7c-853a1e294ff2","ios":"levelo://app?vid=ee0186ce-5ee6-443a-aa7c-853a1e294ff2"},"vehicle_type_id":"4","last_reported":1733936933,"current_range_meters":23200,"station_id":"ce4bgi92rcd13ifvqb90","pricing_plan_id":"cebpf4jnsgd1na2vs0mg"},{"bike_id":"fb98fdff-942d-403c-8074-995c1273de9b","system_id":"levelo_inurba_marseille","lat":43.32002,"lon":5.38155,"is_reserved":false,"is_disabled":false,"rental_uris":{"android":"levelo://app?vid=fb98fdff-942d-403c-8074-995c1273de9b","ios":"levelo://app?vid=fb98fdff-942d-403c-8074-995c1273de9b"},"vehicle_type_id":"4","last_reported":1733936933,"current_range_meters":17200,"station_id":"ce4bhr12rcd13ifvqhpg","pricing_plan_id":"cebpf4jnsgd1na2vs0mg"},{"bike_id":"2c0e941a-a22c-46ac-a45b-80c76de84aa4","system_id":"levelo_inurba_marseille","lat":43.25104,"lon":5.39498,"is_reserved":false,"is_disabled":false,"rental_uris":{"android":"levelo://app?vid=2c0e941a-a22c-46ac-a45b-80c76de84aa4","ios":"levelo://app?vid=2c0e941a-a22c-46ac-a45b-80c76de84aa4"},"vehicle_type_id":"4","last_reported":1733936933,"current_range_meters":25200,"station_id":"ce4bhm12rcd13ifvqgkg","pricing_plan_id":"cebpf4jnsgd1na2vs0mg"},{"bike_id":"e67212d1-7ebb-428f-96ff-4a419c8d4f94","system_id":"levelo_inurba_marseille","lat":43.28157,"lon":5.42627,"is_reserved":false,"is_disabled":true,"rental_uris":{"android":"levelo://app?vid=e67212d1-7ebb-428f-96ff-4a419c8d4f94","ios":"levelo://app?vid=e67212d1-7ebb-428f-96ff-4a419c8d4f94"},"vehicle_type_id":"4","last_reported":1733936933,"current_range_meters":2000,"station_id":"ce4bhnh2rcd13ifvqgug","pricing_plan_id":"cebpf4jnsgd1na2vs0mg"},{"bike_id":"1c8a7a3b-20eb-480b-b246-0084b61e8baa","system_id":"levelo_inurba_marseille","lat":43.250883,"lon":5.3952,"is_reserved":false,"is_disabled":false,"rental_uris":{"android":"levelo://app?vid=1c8a7a3b-20eb-480b-b246-0084b61e8baa","ios":"levelo://app?vid=1c8a7a3b-20eb-480b-b246-0084b61e8baa"},"vehicle_type_id":"4","last_reported":1733936933,"current_range_meters":28800,"station_id":"ce4bhm12rcd13ifvqgkg","pricing_plan_id":"cebpf4jnsgd1na2vs0mg"},{"bike_id":"7e3bcb19-8f11-4238-9b87-7d565ad68b5f","system_id":"levelo_inurba_marseille","lat":43.25717,"lon":5.41112,"is_reserved":false,"is_disabled":true,"rental_uris":{"android":"levelo://app?vid=7e3bcb19-8f11-4238-9b87-7d565ad68b5f","ios":"levelo://app?vid=7e3bcb19-8f11-4238-9b87-7d565ad68b5f"},"vehicle_type_id":"4","last_reported":1733936933,"current_range_meters":2000,"station_id":"ce4bhkp2rcd13ifvqgd0","pricing_plan_id":"cebpf4jnsgd1na2vs0mg"},{"bike_id":"467a8ed9-8f9d-4f9c-a7a2-b2a4bc21bd4a","system_id":"levelo_inurba_marseille","lat":43.24649,"lon":5.38886,"is_reserved":false,"is_disabled":false,"rental_uris":{"android":"levelo://app?vid=467a8ed9-8f9d-4f9c-a7a2-b2a4bc21bd4a","ios":"levelo://app?vid=467a8ed9-8f9d-4f9c-a7a2-b2a4bc21bd4a"},"vehicle_type_id":"4","last_reported":1733936933,"current_range_meters":38400,"station_id":"ce4bhg12rcd13ifvqf60","pricing_plan_id":"cebpf4jnsgd1na2vs0mg"},{"bike_id":"16492b5b-37d8-452f-8923-009b71c8397d","system_id":"levelo_inurba_marseille","lat":43.25581,"lon":5.38235,"is_reserved":false,"is_disabled":false,"rental_uris":{"android":"levelo://app?vid=16492b5b-37d8-452f-8923-009b71c8397d","ios":"levelo://app?vid=16492b5b-37d8-452f-8923-009b71c8397d"},"vehicle_type_id":"4","last_reported":1733936933,"current_range_meters":30000,"station_id":"ce4bhih2rcd13ifvqfs0","pricing_plan_id":"cebpf4jnsgd1na2vs0mg"},{"bike_id":"33099d93-ce10-45ff-bd7c-95104a3498a9","system_id":"levelo_inurba_marseille","lat":43.27984,"lon":5.4169,"is_reserved":false,"is_disabled":true,"rental_uris":{"android":"levelo://app?vid=33099d93-ce10-45ff-bd7c-95104a3498a9","ios":"levelo://app?vid=33099d93-ce10-45ff-bd7c-95104a3498a9"},"vehicle_type_id":"4","last_reported":1733936933,"current_range_meters":0,"station_id":"ce4bho12rcd13ifvqh1g","pricing_plan_id":"cebpf4jnsgd1na2vs0mg"},{"bike_id":"4d9975b2-8caf-4dfe-9202-9f11fbd0b727","system_id":"levelo_inurba_marseille","lat":43.29522,"lon":5.37501,"is_reserved":false,"is_disabled":true,"rental_uris":{"android":"levelo://app?vid=4d9975b2-8caf-4dfe-9202-9f11fbd0b727","ios":"levelo://app?vid=4d9975b2-8caf-4dfe-9202-9f11fbd0b727"},"vehicle_type_id":"4","last_reported":1733936933,"current_range_meters":20800,"station_id":"ce4bgkp2rcd13ifvqbmg","pricing_plan_id":"cebpf4jnsgd1na2vs0mg"},{"bike_id":"a5589391-a7e4-412b-9a87-f917b2322580","system_id":"levelo_inurba_marseille","lat":43.23068,"lon":5.35492,"is_reserved":false,"is_disabled":false,"rental_uris":{"android":"levelo://app?vid=a5589391-a7e4-412b-9a87-f917b2322580","ios":"levelo://app?vid=a5589391-a7e4-412b-9a87-f917b2322580"},"vehicle_type_id":"4","last_reported":1733936933,"current_range_meters":20400,"station_id":"cpo3342slgdg3j2ifvpg","pricing_plan_id":"cebpf4jnsgd1na2vs0mg"},{"bike_id":"10caaad9-02ba-406e-9a86-0a7c35619637","system_id":"levelo_inurba_marseille","lat":43.29294,"lon":5.37453,"is_reserved":false,"is_disabled":false,"rental_uris":{"android":"levelo://app?vid=10caaad9-02ba-406e-9a86-0a7c35619637","ios":"levelo://app?vid=10caaad9-02ba-406e-9a86-0a7c35619637"},"vehicle_type_id":"4","last_reported":1733936933,"current_range_meters":28800,"station_id":"ce4bgi12rcd13ifvqb70","pricing_plan_id":"cebpf4jnsgd1na2vs0mg"},{"bike_id":"a5c3fe4d-d4db-4bbd-b35d-d8880e11912d","system_id":"levelo_inurba_marseille","lat":43.29226,"lon":5.36078,"is_reserved":false,"is_disabled":false,"rental_uris":{"android":"levelo://app?vid=a5c3fe4d-d4db-4bbd-b35d-d8880e11912d","ios":"levelo://app?vid=a5c3fe4d-d4db-4bbd-b35d-d8880e11912d"},"vehicle_type_id":"4","last_reported":1733936933,"current_range_meters":38000,"station_id":"ce4bhbh2rcd13ifvqeqg","pricing_plan_id":"cebpf4jnsgd1na2vs0mg"},{"bike_id":"5d45934d-d05c-4f24-8f37-3eea3f951ebe","system_id":"levelo_inurba_marseille","lat":43.30547,"lon":5.40456,"is_reserved":false,"is_disabled":false,"rental_uris":{"android":"levelo://app?vid=5d45934d-d05c-4f24-8f37-3eea3f951ebe","ios":"levelo://app?vid=5d45934d-d05c-4f24-8f37-3eea3f951ebe"},"vehicle_type_id":"4","last_reported":1733936933,"current_range_meters":30000,"station_id":"","pricing_plan_id":"cebpf4jnsgd1na2vs0mg"},{"bike_id":"71cdde36-91bf-4e73-ac25-205d7551cce8","system_id":"levelo_inurba_marseille","lat":43.29256,"lon":5.36085,"is_reserved":false,"is_disabled":false,"rental_uris":{"android":"levelo://app?vid=71cdde36-91bf-4e73-ac25-205d7551cce8","ios":"levelo://app?vid=71cdde36-91bf-4e73-ac25-205d7551cce8"},"vehicle_type_id":"4","last_reported":1733936933,"current_range_meters":11600,"station_id":"ce4bhbh2rcd13ifvqeqg","pricing_plan_id":"cebpf4jnsgd1na2vs0mg"},{"bike_id":"0d60883f-5f0e-4165-bd22-c47688360f6e","system_id":"levelo_inurba_marseille","lat":43.25498,"lon":5.37646,"is_reserved":false,"is_disabled":false,"rental_uris":{"android":"levelo://app?vid=0d60883f-5f0e-4165-bd22-c47688360f6e","ios":"levelo://app?vid=0d60883f-5f0e-4165-bd22-c47688360f6e"},"vehicle_type_id":"4","last_reported":1733936933,"current_range_meters":16800,"station_id":"ce4bhh12rcd13ifvqff0","pricing_plan_id":"cebpf4jnsgd1na2vs0mg"},{"bike_id":"2eb136b6-ed1c-4dce-a016-87e31124980d","system_id":"levelo_inurba_marseille","lat":43.32341,"lon":5.40624,"is_reserved":false,"is_disabled":false,"rental_uris":{"android":"levelo://app?vid=2eb136b6-ed1c-4dce-a016-87e31124980d","ios":"levelo://app?vid=2eb136b6-ed1c-4dce-a016-87e31124980d"},"vehicle_type_id":"4","last_reported":1733936933,"current_range_meters":24800,"station_id":"ce4bhq92rcd13ifvqhjg","pricing_plan_id":"cebpf4jnsgd1na2vs0mg"},{"bike_id":"91ccaeee-abb5-4396-97d5-8120f7953cb5","system_id":"levelo_inurba_marseille","lat":43.30435,"lon":5.38904,"is_reserved":false,"is_disabled":false,"rental_uris":{"android":"levelo://app?vid=91ccaeee-abb5-4396-97d5-8120f7953cb5","ios":"levelo://app?vid=91ccaeee-abb5-4396-97d5-8120f7953cb5"},"vehicle_type_id":"4","last_reported":1733936933,"current_range_meters":26800,"station_id":"ce4bgk12rcd13ifvqbi0","pricing_plan_id":"cebpf4jnsgd1na2vs0mg"},{"bike_id":"c95a260d-acf6-4469-9698-0e89b185e143","system_id":"levelo_inurba_marseille","lat":43.27581,"lon":5.38418,"is_reserved":false,"is_disabled":false,"rental_uris":{"android":"levelo://app?vid=c95a260d-acf6-4469-9698-0e89b185e143","ios":"levelo://app?vid=c95a260d-acf6-4469-9698-0e89b185e143"},"vehicle_type_id":"4","last_reported":1733936933,"current_range_meters":33200,"station_id":"ce4bhh92rcd13ifvqfi0","pricing_plan_id":"cebpf4jnsgd1na2vs0mg"},{"bike_id":"785718b3-fbd9-4911-8730-92904aa8360e","system_id":"levelo_inurba_marseille","lat":43.2781,"lon":5.40709,"is_reserved":false,"is_disabled":false,"rental_uris":{"android":"levelo://app?vid=785718b3-fbd9-4911-8730-92904aa8360e","ios":"levelo://app?vid=785718b3-fbd9-4911-8730-92904aa8360e"},"vehicle_type_id":"4","last_reported":1733936933,"current_range_meters":5600,"station_id":"ce4bhnh2rcd13ifvqgtg","pricing_plan_id":"cebpf4jnsgd1na2vs0mg"},{"bike_id":"ca3bf6a0-806c-4046-b219-bbea4c2ba646","system_id":"levelo_inurba_marseille","lat":43.23192,"lon":5.35541,"is_reserved":false,"is_disabled":false,"rental_uris":{"android":"levelo://app?vid=ca3bf6a0-806c-4046-b219-bbea4c2ba646","ios":"levelo://app?vid=ca3bf6a0-806c-4046-b219-bbea4c2ba646"},"vehicle_type_id":"4","last_reported":1733936933,"current_range_meters":29600,"station_id":"ce4bhu92rcd13ifvqi70","pricing_plan_id":"cebpf4jnsgd1na2vs0mg"},{"bike_id":"282d8b1c-2823-4a25-9c1d-fcd23da5b0b3","system_id":"levelo_inurba_marseille","lat":43.28153,"lon":5.42639,"is_reserved":false,"is_disabled":false,"rental_uris":{"android":"levelo://app?vid=282d8b1c-2823-4a25-9c1d-fcd23da5b0b3","ios":"levelo://app?vid=282d8b1c-2823-4a25-9c1d-fcd23da5b0b3"},"vehicle_type_id":"4","last_reported":1733936933,"current_range_meters":27600,"station_id":"ce4bhnh2rcd13ifvqgug","pricing_plan_id":"cebpf4jnsgd1na2vs0mg"},{"bike_id":"83d523e7-3efd-41c7-b7da-3a0414f12198","system_id":"levelo_inurba_marseille","lat":43.28852,"lon":5.35845,"is_reserved":false,"is_disabled":false,"rental_uris":{"android":"levelo://app?vid=83d523e7-3efd-41c7-b7da-3a0414f12198","ios":"levelo://app?vid=83d523e7-3efd-41c7-b7da-3a0414f12198"},"vehicle_type_id":"4","last_reported":1733936933,"current_range_meters":4800,"station_id":"ce4bhb12rcd13ifvqem0","pricing_plan_id":"cebpf4jnsgd1na2vs0mg"},{"bike_id":"46b2fdec-0870-4ae2-84dc-b1f57512351e","system_id":"levelo_inurba_marseille","lat":43.337444,"lon":5.374475,"is_reserved":false,"is_disabled":true,"rental_uris":{"android":"levelo://app?vid=46b2fdec-0870-4ae2-84dc-b1f57512351e","ios":"levelo://app?vid=46b2fdec-0870-4ae2-84dc-b1f57512351e"},"vehicle_type_id":"4","last_reported":1733936933,"current_range_meters":0,"station_id":"","pricing_plan_id":"cebpf4jnsgd1na2vs0mg"},{"bike_id":"48aa09fb-cc0a-47e8-af5d-a43a95435548","system_id":"levelo_inurba_marseille","lat":43.25,"lon":5.38915,"is_reserved":false,"is_disabled":false,"rental_uris":{"android":"levelo://app?vid=48aa09fb-cc0a-47e8-af5d-a43a95435548","ios":"levelo://app?vid=48aa09fb-cc0a-47e8-af5d-a43a95435548"},"vehicle_type_id":"4","last_reported":1733936933,"current_range_meters":28000,"station_id":"ce4bhgp2rcd13ifvqfd0","pricing_plan_id":"cebpf4jnsgd1na2vs0mg"},{"bike_id":"35895eb5-74aa-41b9-bcd9-4ac36daa1e6a","system_id":"levelo_inurba_marseille","lat":43.30552,"lon":5.38426,"is_reserved":false,"is_disabled":false,"rental_uris":{"android":"levelo://app?vid=35895eb5-74aa-41b9-bcd9-4ac36daa1e6a","ios":"levelo://app?vid=35895eb5-74aa-41b9-bcd9-4ac36daa1e6a"},"vehicle_type_id":"4","last_reported":1733936933,"current_range_meters":12400,"station_id":"ce4bgg92rcd13ifvqb30","pricing_plan_id":"cebpf4jnsgd1na2vs0mg"},{"bike_id":"630694bc-d2ad-43ca-84bf-71931a26ecb3","system_id":"levelo_inurba_marseille","lat":43.29249,"lon":5.3844,"is_reserved":false,"is_disabled":false,"rental_uris":{"android":"levelo://app?vid=630694bc-d2ad-43ca-84bf-71931a26ecb3","ios":"levelo://app?vid=630694bc-d2ad-43ca-84bf-71931a26ecb3"},"vehicle_type_id":"4","last_reported":1733936933,"current_range_meters":37600,"station_id":"ce4bh692rcd13ifvqea0","pricing_plan_id":"cebpf4jnsgd1na2vs0mg"},{"bike_id":"a75d3fb5-03a9-40bd-a1a8-05e40514d572","system_id":"levelo_inurba_marseille","lat":43.27128,"lon":5.41024,"is_reserved":false,"is_disabled":false,"rental_uris":{"android":"levelo://app?vid=a75d3fb5-03a9-40bd-a1a8-05e40514d572","ios":"levelo://app?vid=a75d3fb5-03a9-40bd-a1a8-05e40514d572"},"vehicle_type_id":"4","last_reported":1733936933,"current_range_meters":36400,"station_id":"ce4bhl12rcd13ifvqgf0","pricing_plan_id":"cebpf4jnsgd1na2vs0mg"},{"bike_id":"1e8fe257-e2eb-41d7-88a1-7895d02e6cad","system_id":"levelo_inurba_marseille","lat":43.27378,"lon":5.36222,"is_reserved":false,"is_disabled":false,"rental_uris":{"android":"levelo://app?vid=1e8fe257-e2eb-41d7-88a1-7895d02e6cad","ios":"levelo://app?vid=1e8fe257-e2eb-41d7-88a1-7895d02e6cad"},"vehicle_type_id":"4","last_reported":1733936933,"current_range_meters":39200,"station_id":"ce4bhbh2rcd13ifvqeo0","pricing_plan_id":"cebpf4jnsgd1na2vs0mg"},{"bike_id":"2ebd2fc6-13ac-4b60-8a2e-07cab16d51cc","system_id":"levelo_inurba_marseille","lat":43.24656,"lon":5.38885,"is_reserved":false,"is_disabled":false,"rental_uris":{"android":"levelo://app?vid=2ebd2fc6-13ac-4b60-8a2e-07cab16d51cc","ios":"levelo://app?vid=2ebd2fc6-13ac-4b60-8a2e-07cab16d51cc"},"vehicle_type_id":"4","last_reported":1733936933,"current_range_meters":22800,"station_id":"ce4bhg12rcd13ifvqf60","pricing_plan_id":"cebpf4jnsgd1na2vs0mg"},{"bike_id":"6aa0259b-01d4-4c48-a6f8-2188293cdbf0","system_id":"levelo_inurba_marseille","lat":43.29624,"lon":5.37171,"is_reserved":false,"is_disabled":false,"rental_uris":{"android":"levelo://app?vid=6aa0259b-01d4-4c48-a6f8-2188293cdbf0","ios":"levelo://app?vid=6aa0259b-01d4-4c48-a6f8-2188293cdbf0"},"vehicle_type_id":"4","last_reported":1733936933,"current_range_meters":28000,"station_id":"ce4bgnh2rcd13ifvqc0g","pricing_plan_id":"cebpf4jnsgd1na2vs0mg"},{"bike_id":"cfeef1d2-86d9-4c1b-8076-adb2f0d09c18","system_id":"levelo_inurba_marseille","lat":43.2947,"lon":5.37699,"is_reserved":false,"is_disabled":true,"rental_uris":{"android":"levelo://app?vid=cfeef1d2-86d9-4c1b-8076-adb2f0d09c18","ios":"levelo://app?vid=cfeef1d2-86d9-4c1b-8076-adb2f0d09c18"},"vehicle_type_id":"4","last_reported":1733936933,"current_range_meters":0,"station_id":"","pricing_plan_id":"cebpf4jnsgd1na2vs0mg"},{"bike_id":"6d05f7ba-808a-4403-b1f3-f8483fec843c","system_id":"levelo_inurba_marseille","lat":43.232,"lon":5.35559,"is_reserved":false,"is_disabled":false,"rental_uris":{"android":"levelo://app?vid=6d05f7ba-808a-4403-b1f3-f8483fec843c","ios":"levelo://app?vid=6d05f7ba-808a-4403-b1f3-f8483fec843c"},"vehicle_type_id":"4","last_reported":1733936933,"current_range_meters":36400,"station_id":"ce4bhu92rcd13ifvqi70","pricing_plan_id":"cebpf4jnsgd1na2vs0mg"},{"bike_id":"9f12de2e-0059-457c-b598-8ed722c5d0bd","system_id":"levelo_inurba_marseille","lat":43.28099,"lon":5.37846,"is_reserved":false,"is_disabled":false,"rental_uris":{"android":"levelo://app?vid=9f12de2e-0059-457c-b598-8ed722c5d0bd","ios":"levelo://app?vid=9f12de2e-0059-457c-b598-8ed722c5d0bd"},"vehicle_type_id":"4","last_reported":1733936933,"current_range_meters":24000,"station_id":"ce4bha12rcd13ifvqee0","pricing_plan_id":"cebpf4jnsgd1na2vs0mg"},{"bike_id":"0133a6a3-5a29-4cec-885d-9dd4bcfc6c6e","system_id":"levelo_inurba_marseille","lat":43.27208,"lon":5.40967,"is_reserved":false,"is_disabled":false,"rental_uris":{"android":"levelo://app?vid=0133a6a3-5a29-4cec-885d-9dd4bcfc6c6e","ios":"levelo://app?vid=0133a6a3-5a29-4cec-885d-9dd4bcfc6c6e"},"vehicle_type_id":"4","last_reported":1733936933,"current_range_meters":38800,"station_id":"ce4bhl12rcd13ifvqgf0","pricing_plan_id":"cebpf4jnsgd1na2vs0mg"},{"bike_id":"11b02ab4-503e-4c05-ac1c-aa102ea2e6c9","system_id":"levelo_inurba_marseille","lat":43.31335,"lon":5.39696,"is_reserved":false,"is_disabled":false,"rental_uris":{"android":"levelo://app?vid=11b02ab4-503e-4c05-ac1c-aa102ea2e6c9","ios":"levelo://app?vid=11b02ab4-503e-4c05-ac1c-aa102ea2e6c9"},"vehicle_type_id":"4","last_reported":1733936933,"current_range_meters":6800,"station_id":"ce4bgvp2rcd13ifvqcu0","pricing_plan_id":"cebpf4jnsgd1na2vs0mg"},{"bike_id":"9d5fa22f-b349-42f6-abc1-dcec0a7eafbf","system_id":"levelo_inurba_marseille","lat":43.30805,"lon":5.37307,"is_reserved":false,"is_disabled":true,"rental_uris":{"android":"levelo://app?vid=9d5fa22f-b349-42f6-abc1-dcec0a7eafbf","ios":"levelo://app?vid=9d5fa22f-b349-42f6-abc1-dcec0a7eafbf"},"vehicle_type_id":"4","last_reported":1733936933,"current_range_meters":0,"station_id":"","pricing_plan_id":"cebpf4jnsgd1na2vs0mg"},{"bike_id":"9c8c1480-9ffa-4086-913c-c2125a6eb848","system_id":"levelo_inurba_marseille","lat":43.22933,"lon":5.35379,"is_reserved":false,"is_disabled":true,"rental_uris":{"android":"levelo://app?vid=9c8c1480-9ffa-4086-913c-c2125a6eb848","ios":"levelo://app?vid=9c8c1480-9ffa-4086-913c-c2125a6eb848"},"vehicle_type_id":"4","last_reported":1733936933,"current_range_meters":38800,"station_id":"cpo3532slgdg3j2ikp40","pricing_plan_id":"cebpf4jnsgd1na2vs0mg"},{"bike_id":"0e9ee8e6-308b-43cf-8d13-c2c7b6d5df31","system_id":"levelo_inurba_marseille","lat":43.25508,"lon":5.37682,"is_reserved":false,"is_disabled":false,"rental_uris":{"android":"levelo://app?vid=0e9ee8e6-308b-43cf-8d13-c2c7b6d5df31","ios":"levelo://app?vid=0e9ee8e6-308b-43cf-8d13-c2c7b6d5df31"},"vehicle_type_id":"4","last_reported":1733936933,"current_range_meters":38800,"station_id":"ce4bhh12rcd13ifvqff0","pricing_plan_id":"cebpf4jnsgd1na2vs0mg"},{"bike_id":"6290b729-4589-46fa-a032-f8f63d3a3607","system_id":"levelo_inurba_marseille","lat":43.29625,"lon":5.37147,"is_reserved":false,"is_disabled":false,"rental_uris":{"android":"levelo://app?vid=6290b729-4589-46fa-a032-f8f63d3a3607","ios":"levelo://app?vid=6290b729-4589-46fa-a032-f8f63d3a3607"},"vehicle_type_id":"4","last_reported":1733936933,"current_range_meters":39200,"station_id":"ce4bgnh2rcd13ifvqc0g","pricing_plan_id":"cebpf4jnsgd1na2vs0mg"},{"bike_id":"59805652-78d3-4a9e-ab93-ccef054ac3df","system_id":"levelo_inurba_marseille","lat":43.29036,"lon":5.35896,"is_reserved":false,"is_disabled":false,"rental_uris":{"android":"levelo://app?vid=59805652-78d3-4a9e-ab93-ccef054ac3df","ios":"levelo://app?vid=59805652-78d3-4a9e-ab93-ccef054ac3df"},"vehicle_type_id":"4","last_reported":1733936933,"current_range_meters":7200,"station_id":"ce4bha92rcd13ifvqeg0","pricing_plan_id":"cebpf4jnsgd1na2vs0mg"},{"bike_id":"9ac7fa6e-2578-4832-8168-ade341fdc585","system_id":"levelo_inurba_marseille","lat":43.2841,"lon":5.428961,"is_reserved":false,"is_disabled":true,"rental_uris":{"android":"levelo://app?vid=9ac7fa6e-2578-4832-8168-ade341fdc585","ios":"levelo://app?vid=9ac7fa6e-2578-4832-8168-ade341fdc585"},"vehicle_type_id":"4","last_reported":1733936933,"current_range_meters":0,"station_id":"","pricing_plan_id":"cebpf4jnsgd1na2vs0mg"},{"bike_id":"93c2168a-bde5-4be6-bac0-024f2a0db281","system_id":"levelo_inurba_marseille","lat":43.30143,"lon":5.38784,"is_reserved":false,"is_disabled":false,"rental_uris":{"android":"levelo://app?vid=93c2168a-bde5-4be6-bac0-024f2a0db281","ios":"levelo://app?vid=93c2168a-bde5-4be6-bac0-024f2a0db281"},"vehicle_type_id":"4","last_reported":1733936933,"current_range_meters":30800,"station_id":"ce4bghh2rcd13ifvqb60","pricing_plan_id":"cebpf4jnsgd1na2vs0mg"},{"bike_id":"efb73eed-68d6-40b7-83b9-10e9c3569078","system_id":"levelo_inurba_marseille","lat":43.29305,"lon":5.37454,"is_reserved":false,"is_disabled":false,"rental_uris":{"android":"levelo://app?vid=efb73eed-68d6-40b7-83b9-10e9c3569078","ios":"levelo://app?vid=efb73eed-68d6-40b7-83b9-10e9c3569078"},"vehicle_type_id":"4","last_reported":1733936933,"current_range_meters":38800,"station_id":"ce4bgi12rcd13ifvqb70","pricing_plan_id":"cebpf4jnsgd1na2vs0mg"},{"bike_id":"cd0a934c-285e-4271-9238-b2a1a9588ec8","system_id":"levelo_inurba_marseille","lat":43.287188,"lon":5.379498,"is_reserved":false,"is_disabled":true,"rental_uris":{"android":"levelo://app?vid=cd0a934c-285e-4271-9238-b2a1a9588ec8","ios":"levelo://app?vid=cd0a934c-285e-4271-9238-b2a1a9588ec8"},"vehicle_type_id":"4","last_reported":1733936933,"current_range_meters":8800,"station_id":"ce4bh9p2rcd13ifvqec0","pricing_plan_id":"cebpf4jnsgd1na2vs0mg"},{"bike_id":"c9af9d56-fe68-4de2-8404-c8e15bbb259b","system_id":"levelo_inurba_marseille","lat":43.24547,"lon":5.39521,"is_reserved":false,"is_disabled":false,"rental_uris":{"android":"levelo://app?vid=c9af9d56-fe68-4de2-8404-c8e15bbb259b","ios":"levelo://app?vid=c9af9d56-fe68-4de2-8404-c8e15bbb259b"},"vehicle_type_id":"4","last_reported":1733936933,"current_range_meters":7200,"station_id":"ce4bhlp2rcd13ifvqgjg","pricing_plan_id":"cebpf4jnsgd1na2vs0mg"},{"bike_id":"29e8c479-359c-407b-b022-f647a4540165","system_id":"levelo_inurba_marseille","lat":43.27943,"lon":5.4104,"is_reserved":false,"is_disabled":false,"rental_uris":{"android":"levelo://app?vid=29e8c479-359c-407b-b022-f647a4540165","ios":"levelo://app?vid=29e8c479-359c-407b-b022-f647a4540165"},"vehicle_type_id":"4","last_reported":1733936933,"current_range_meters":26000,"station_id":"ce4bhnp2rcd13ifvqh0g","pricing_plan_id":"cebpf4jnsgd1na2vs0mg"},{"bike_id":"c74c116d-34b2-4475-a078-154e047e8cc8","system_id":"levelo_inurba_marseille","lat":43.32485,"lon":5.36559,"is_reserved":false,"is_disabled":true,"rental_uris":{"android":"levelo://app?vid=c74c116d-34b2-4475-a078-154e047e8cc8","ios":"levelo://app?vid=c74c116d-34b2-4475-a078-154e047e8cc8"},"vehicle_type_id":"4","last_reported":1733936933,"current_range_meters":0,"station_id":"ce4bhs12rcd13ifvqhvg","pricing_plan_id":"cebpf4jnsgd1na2vs0mg"},{"bike_id":"2170586e-f48b-488e-9cb8-fca4aa23e253","system_id":"levelo_inurba_marseille","lat":43.27389,"lon":5.36241,"is_reserved":false,"is_disabled":false,"rental_uris":{"android":"levelo://app?vid=2170586e-f48b-488e-9cb8-fca4aa23e253","ios":"levelo://app?vid=2170586e-f48b-488e-9cb8-fca4aa23e253"},"vehicle_type_id":"4","last_reported":1733936933,"current_range_meters":24400,"station_id":"ce4bhbh2rcd13ifvqeo0","pricing_plan_id":"cebpf4jnsgd1na2vs0mg"},{"bike_id":"fc3506e0-a704-48c7-ac5d-8420c5be3556","system_id":"levelo_inurba_marseille","lat":43.28421,"lon":5.34973,"is_reserved":false,"is_disabled":false,"rental_uris":{"android":"levelo://app?vid=fc3506e0-a704-48c7-ac5d-8420c5be3556","ios":"levelo://app?vid=fc3506e0-a704-48c7-ac5d-8420c5be3556"},"vehicle_type_id":"4","last_reported":1733936933,"current_range_meters":22800,"station_id":"ce4bhbh2rcd13ifvqepg","pricing_plan_id":"cebpf4jnsgd1na2vs0mg"},{"bike_id":"00435b21-1247-42bb-b305-d4ae9791fb1d","system_id":"levelo_inurba_marseille","lat":43.30424,"lon":5.41281,"is_reserved":false,"is_disabled":false,"rental_uris":{"android":"levelo://app?vid=00435b21-1247-42bb-b305-d4ae9791fb1d","ios":"levelo://app?vid=00435b21-1247-42bb-b305-d4ae9791fb1d"},"vehicle_type_id":"4","last_reported":1733936933,"current_range_meters":7200,"station_id":"ce4bhop2rcd13ifvqh8g","pricing_plan_id":"cebpf4jnsgd1na2vs0mg"},{"bike_id":"dc3d7a51-4954-4cee-8d90-a10249224c92","system_id":"levelo_inurba_marseille","lat":43.24173,"lon":5.39724,"is_reserved":false,"is_disabled":false,"rental_uris":{"android":"levelo://app?vid=dc3d7a51-4954-4cee-8d90-a10249224c92","ios":"levelo://app?vid=dc3d7a51-4954-4cee-8d90-a10249224c92"},"vehicle_type_id":"4","last_reported":1733936933,"current_range_meters":16800,"station_id":"ce4bhn12rcd13ifvqgpg","pricing_plan_id":"cebpf4jnsgd1na2vs0mg"},{"bike_id":"6c19a2af-1c78-480b-96e7-890a2320ed71","system_id":"levelo_inurba_marseille","lat":43.29254,"lon":5.40904,"is_reserved":false,"is_disabled":false,"rental_uris":{"android":"levelo://app?vid=6c19a2af-1c78-480b-96e7-890a2320ed71","ios":"levelo://app?vid=6c19a2af-1c78-480b-96e7-890a2320ed71"},"vehicle_type_id":"4","last_reported":1733936933,"current_range_meters":20400,"station_id":"ce4bh192rcd13ifvqdc0","pricing_plan_id":"cebpf4jnsgd1na2vs0mg"},{"bike_id":"b3764c07-04a0-4ea8-8519-308fac5aa3dd","system_id":"levelo_inurba_marseille","lat":43.30911,"lon":5.36854,"is_reserved":false,"is_disabled":false,"rental_uris":{"android":"levelo://app?vid=b3764c07-04a0-4ea8-8519-308fac5aa3dd","ios":"levelo://app?vid=b3764c07-04a0-4ea8-8519-308fac5aa3dd"},"vehicle_type_id":"4","last_reported":1733936933,"current_range_meters":34000,"station_id":"ce4bgn92rcd13ifvqbvg","pricing_plan_id":"cebpf4jnsgd1na2vs0mg"},{"bike_id":"bb013d87-f4d8-4ba4-8d46-20860a894e4e","system_id":"levelo_inurba_marseille","lat":43.269297,"lon":5.389272,"is_reserved":false,"is_disabled":true,"rental_uris":{"android":"levelo://app?vid=bb013d87-f4d8-4ba4-8d46-20860a894e4e","ios":"levelo://app?vid=bb013d87-f4d8-4ba4-8d46-20860a894e4e"},"vehicle_type_id":"4","last_reported":1733936933,"current_range_meters":0,"station_id":"ce4bhhh2rcd13ifvqfl0","pricing_plan_id":"cebpf4jnsgd1na2vs0mg"},{"bike_id":"79884e2a-714c-4b81-b94b-76b83bbc5371","system_id":"levelo_inurba_marseille","lat":43.29899,"lon":5.4366,"is_reserved":false,"is_disabled":false,"rental_uris":{"android":"levelo://app?vid=79884e2a-714c-4b81-b94b-76b83bbc5371","ios":"levelo://app?vid=79884e2a-714c-4b81-b94b-76b83bbc5371"},"vehicle_type_id":"4","last_reported":1733936933,"current_range_meters":18000,"station_id":"ce4bhpp2rcd13ifvqhfg","pricing_plan_id":"cebpf4jnsgd1na2vs0mg"},{"bike_id":"5510cf8e-5155-45e8-8485-b54caa8a1df2","system_id":"levelo_inurba_marseille","lat":43.29206,"lon":5.35828,"is_reserved":false,"is_disabled":false,"rental_uris":{"android":"levelo://app?vid=5510cf8e-5155-45e8-8485-b54caa8a1df2","ios":"levelo://app?vid=5510cf8e-5155-45e8-8485-b54caa8a1df2"},"vehicle_type_id":"4","last_reported":1733936933,"current_range_meters":8000,"station_id":"ce4bhb12rcd13ifvqel0","pricing_plan_id":"cebpf4jnsgd1na2vs0mg"},{"bike_id":"402d0123-53ea-4cdd-bdb1-b2b4c6034c16","system_id":"levelo_inurba_marseille","lat":43.28082,"lon":5.3966,"is_reserved":false,"is_disabled":false,"rental_uris":{"android":"levelo://app?vid=402d0123-53ea-4cdd-bdb1-b2b4c6034c16","ios":"levelo://app?vid=402d0123-53ea-4cdd-bdb1-b2b4c6034c16"},"vehicle_type_id":"4","last_reported":1733936933,"current_range_meters":24400,"station_id":"ce4bho12rcd13ifvqh2g","pricing_plan_id":"cebpf4jnsgd1na2vs0mg"},{"bike_id":"69b8517c-aea9-4279-b5b9-26cddc058d5d","system_id":"levelo_inurba_marseille","lat":43.29665,"lon":5.3783,"is_reserved":false,"is_disabled":false,"rental_uris":{"android":"levelo://app?vid=69b8517c-aea9-4279-b5b9-26cddc058d5d","ios":"levelo://app?vid=69b8517c-aea9-4279-b5b9-26cddc058d5d"},"vehicle_type_id":"4","last_reported":1733936933,"current_range_meters":35600,"station_id":"","pricing_plan_id":"cebpf4jnsgd1na2vs0mg"},{"bike_id":"7357c66a-c17d-46e5-9dc8-8bf2b8833f1f","system_id":"levelo_inurba_marseille","lat":43.32335,"lon":5.40615,"is_reserved":false,"is_disabled":false,"rental_uris":{"android":"levelo://app?vid=7357c66a-c17d-46e5-9dc8-8bf2b8833f1f","ios":"levelo://app?vid=7357c66a-c17d-46e5-9dc8-8bf2b8833f1f"},"vehicle_type_id":"4","last_reported":1733936933,"current_range_meters":34000,"station_id":"ce4bhq92rcd13ifvqhjg","pricing_plan_id":"cebpf4jnsgd1na2vs0mg"},{"bike_id":"1981fe83-6482-4ca1-bba1-7ddded8b3806","system_id":"levelo_inurba_marseille","lat":43.24654,"lon":5.38895,"is_reserved":false,"is_disabled":false,"rental_uris":{"android":"levelo://app?vid=1981fe83-6482-4ca1-bba1-7ddded8b3806","ios":"levelo://app?vid=1981fe83-6482-4ca1-bba1-7ddded8b3806"},"vehicle_type_id":"4","last_reported":1733936933,"current_range_meters":20400,"station_id":"ce4bhg12rcd13ifvqf60","pricing_plan_id":"cebpf4jnsgd1na2vs0mg"},{"bike_id":"993fdb1a-c2c2-434b-9557-f2e19d47c055","system_id":"levelo_inurba_marseille","lat":43.24541,"lon":5.3952,"is_reserved":false,"is_disabled":false,"rental_uris":{"android":"levelo://app?vid=993fdb1a-c2c2-434b-9557-f2e19d47c055","ios":"levelo://app?vid=993fdb1a-c2c2-434b-9557-f2e19d47c055"},"vehicle_type_id":"4","last_reported":1733936933,"current_range_meters":35600,"station_id":"ce4bhlp2rcd13ifvqgjg","pricing_plan_id":"cebpf4jnsgd1na2vs0mg"},{"bike_id":"9c6d5372-5aa9-48c8-bd5f-4f34cbb54b2e","system_id":"levelo_inurba_marseille","lat":43.26587,"lon":5.39035,"is_reserved":false,"is_disabled":false,"rental_uris":{"android":"levelo://app?vid=9c6d5372-5aa9-48c8-bd5f-4f34cbb54b2e","ios":"levelo://app?vid=9c6d5372-5aa9-48c8-bd5f-4f34cbb54b2e"},"vehicle_type_id":"4","last_reported":1733936933,"current_range_meters":32800,"station_id":"ce4bhe12rcd13ifvqf30","pricing_plan_id":"cebpf4jnsgd1na2vs0mg"},{"bike_id":"1f54600b-4c41-48d2-a04c-a543c525e0a3","system_id":"levelo_inurba_marseille","lat":43.29031,"lon":5.37552,"is_reserved":false,"is_disabled":true,"rental_uris":{"android":"levelo://app?vid=1f54600b-4c41-48d2-a04c-a543c525e0a3","ios":"levelo://app?vid=1f54600b-4c41-48d2-a04c-a543c525e0a3"},"vehicle_type_id":"4","last_reported":1733936933,"current_range_meters":36800,"station_id":"ce4bh692rcd13ifvqe90","pricing_plan_id":"cebpf4jnsgd1na2vs0mg"},{"bike_id":"9b03a4f7-775e-41fd-a790-e6966c83a8ba","system_id":"levelo_inurba_marseille","lat":43.26578,"lon":5.39015,"is_reserved":false,"is_disabled":false,"rental_uris":{"android":"levelo://app?vid=9b03a4f7-775e-41fd-a790-e6966c83a8ba","ios":"levelo://app?vid=9b03a4f7-775e-41fd-a790-e6966c83a8ba"},"vehicle_type_id":"4","last_reported":1733936933,"current_range_meters":22800,"station_id":"ce4bhe12rcd13ifvqf30","pricing_plan_id":"cebpf4jnsgd1na2vs0mg"},{"bike_id":"2001feda-6672-4212-8782-0a60f85f990a","system_id":"levelo_inurba_marseille","lat":43.26817,"lon":5.40279,"is_reserved":false,"is_disabled":false,"rental_uris":{"android":"levelo://app?vid=2001feda-6672-4212-8782-0a60f85f990a","ios":"levelo://app?vid=2001feda-6672-4212-8782-0a60f85f990a"},"vehicle_type_id":"4","last_reported":1733936933,"current_range_meters":30400,"station_id":"ce501612rcd8frsf0b60","pricing_plan_id":"cebpf4jnsgd1na2vs0mg"},{"bike_id":"5842d0ef-33e1-433e-9294-e583ce32069f","system_id":"levelo_inurba_marseille","lat":43.30156,"lon":5.37406,"is_reserved":false,"is_disabled":false,"rental_uris":{"android":"levelo://app?vid=5842d0ef-33e1-433e-9294-e583ce32069f","ios":"levelo://app?vid=5842d0ef-33e1-433e-9294-e583ce32069f"},"vehicle_type_id":"4","last_reported":1733936933,"current_range_meters":37600,"station_id":"ce4bgs92rcd13ifvqcc0","pricing_plan_id":"cebpf4jnsgd1na2vs0mg"},{"bike_id":"6a040588-e292-4b9b-9243-2774ba4ce77d","system_id":"levelo_inurba_marseille","lat":43.3031,"lon":5.36901,"is_reserved":false,"is_disabled":false,"rental_uris":{"android":"levelo://app?vid=6a040588-e292-4b9b-9243-2774ba4ce77d","ios":"levelo://app?vid=6a040588-e292-4b9b-9243-2774ba4ce77d"},"vehicle_type_id":"4","last_reported":1733936933,"current_range_meters":20800,"station_id":"ce4bgqh2rcd13ifvqc5g","pricing_plan_id":"cebpf4jnsgd1na2vs0mg"},{"bike_id":"c00fc456-731e-4180-812f-1191bbc6cea6","system_id":"levelo_inurba_marseille","lat":43.27186,"lon":5.40962,"is_reserved":false,"is_disabled":false,"rental_uris":{"android":"levelo://app?vid=c00fc456-731e-4180-812f-1191bbc6cea6","ios":"levelo://app?vid=c00fc456-731e-4180-812f-1191bbc6cea6"},