{"last_updated":1729483934,"ttl":60,"version":"2.2","data":{"bikes":[{"bike_id":"9184e00a-b6ec-4bae-bf55-7db7d1efed40","system_id":"levelo_inurba_marseille","lat":43.28365,"lon":5.38616,"is_reserved":false,"is_disabled":false,"rental_uris":{"android":"levelo://app?vid=9184e00a-b6ec-4bae-bf55-7db7d1efed40","ios":"levelo://app?vid=9184e00a-b6ec-4bae-bf55-7db7d1efed40"},"vehicle_type_id":"4","last_reported":1729483934,"current_range_meters":36800,"station_id":"ce4bh492rcd13ifvqdvg","pricing_plan_id":"cebpf4jnsgd1na2vs0mg"},{"bike_id":"e5ba63fb-ba26-4e57-b351-797a0cfa8d86","system_id":"levelo_inurba_marseille","lat":43.28924,"lon":5.38397,"is_reserved":false,"is_disabled":false,"rental_uris":{"android":"levelo://app?vid=e5ba63fb-ba26-4e57-b351-797a0cfa8d86","ios":"levelo://app?vid=e5ba63fb-ba26-4e57-b351-797a0cfa8d86"},"vehicle_type_id":"4","last_reported":1729483934,"current_range_meters":7200,"station_id":"ce4bh612rcd13ifvqe6g","pricing_plan_id":"cebpf4jnsgd1na2vs0mg"},{"bike_id":"3677322f-5b7f-40b9-acf6-5c59008a41eb","system_id":"levelo_inurba_marseille","lat":43.31128,"lon":5.37752,"is_reserved":false,"is_disabled":false,"rental_uris":{"android":"levelo://app?vid=3677322f-5b7f-40b9-acf6-5c59008a41eb","ios":"levelo://app?vid=3677322f-5b7f-40b9-acf6-5c59008a41eb"},"vehicle_type_id":"4","last_reported":1729483934,"current_range_meters":28400,"station_id":"ce4bgt92rcd13ifvqcg0","pricing_plan_id":"cebpf4jnsgd1na2vs0mg"},{"bike_id":"f2cf55f4-aa83-4a41-8c86-05d88bb3727e","system_id":"levelo_inurba_marseille","lat":43.3113,"lon":5.37752,"is_reserved":false,"is_disabled":false,"rental_uris":{"android":"levelo://app?vid=f2cf55f4-aa83-4a41-8c86-05d88bb3727e","ios":"levelo://app?vid=f2cf55f4-aa83-4a41-8c86-05d88bb3727e"},"vehicle_type_id":"4","last_reported":1729483934,"current_range_meters":20000,"station_id":"ce4bgt92rcd13ifvqcg0","pricing_plan_id":"cebpf4jnsgd1na2vs0mg"},{"bike_id":"2aae6609-bf72-4b69-8776-85ccbbd9b0e5","system_id":"levelo_inurba_marseille","lat":43.22931,"lon":5.35368,"is_reserved":false,"is_disabled":false,"rental_uris":{"android":"levelo://app?vid=2aae6609-bf72-4b69-8776-85ccbbd9b0e5","ios":"levelo://app?vid=2aae6609-bf72-4b69-8776-85ccbbd9b0e5"},"vehicle_type_id":"4","last_reported":1729483934,"current_range_meters":37600,"station_id":"cpo3532slgdg3j2ikp40","pricing_plan_id":"cebpf4jnsgd1na2vs0mg"},{"bike_id":"138f2d49-214b-48e8-9db4-98a6dc22aa3c","system_id":"levelo_inurba_marseille","lat":43.28436,"lon":5.39184,"is_reserved":false,"is_disabled":false,"rental_uris":{"android":"levelo://app?vid=138f2d49-214b-48e8-9db4-98a6dc22aa3c","ios":"levelo://app?vid=138f2d49-214b-48e8-9db4-98a6dc22aa3c"},"vehicle_type_id":"4","last_reported":1729483934,"current_range_meters":39200,"station_id":"ce4bhoh2rcd13ifvqh5g","pricing_plan_id":"cebpf4jnsgd1na2vs0mg"},{"bike_id":"685a354f-ff49-4ca8-a6ba-515d8049af7f","system_id":"levelo_inurba_marseille","lat":43.276174,"lon":5.361128,"is_reserved":false,"is_disabled":false,"rental_uris":{"android":"levelo://app?vid=685a354f-ff49-4ca8-a6ba-515d8049af7f","ios":"levelo://app?vid=685a354f-ff49-4ca8-a6ba-515d8049af7f"},"vehicle_type_id":"4","last_reported":1729483934,"current_range_meters":38800,"station_id":"ce4bgj92rcd13ifvqbe0","pricing_plan_id":"cebpf4jnsgd1na2vs0mg"},{"bike_id":"60ebfcc0-79d3-466d-9eb1-d46fa9900c2b","system_id":"levelo_inurba_marseille","lat":43.23181,"lon":5.39985,"is_reserved":false,"is_disabled":false,"rental_uris":{"android":"levelo://app?vid=60ebfcc0-79d3-466d-9eb1-d46fa9900c2b","ios":"levelo://app?vid=60ebfcc0-79d3-466d-9eb1-d46fa9900c2b"},"vehicle_type_id":"4","last_reported":1729483934,"current_range_meters":27600,"station_id":"ce4bhn12rcd13ifvqgqg","pricing_plan_id":"cebpf4jnsgd1na2vs0mg"},{"bike_id":"c26a172e-a0ff-4214-bbea-24c50739bea4","system_id":"levelo_inurba_marseille","lat":43.31126,"lon":5.37753,"is_reserved":false,"is_disabled":false,"rental_uris":{"android":"levelo://app?vid=c26a172e-a0ff-4214-bbea-24c50739bea4","ios":"levelo://app?vid=c26a172e-a0ff-4214-bbea-24c50739bea4"},"vehicle_type_id":"4","last_reported":1729483934,"current_range_meters":38800,"station_id":"ce4bgt92rcd13ifvqcg0","pricing_plan_id":"cebpf4jnsgd1na2vs0mg"},{"bike_id":"f069a0dc-5a55-4e02-b8d3-b52288048f52","system_id":"levelo_inurba_marseille","lat":43.30909,"lon":5.36856,"is_reserved":false,"is_disabled":false,"rental_uris":{"android":"levelo://app?vid=f069a0dc-5a55-4e02-b8d3-b52288048f52","ios":"levelo://app?vid=f069a0dc-5a55-4e02-b8d3-b52288048f52"},"vehicle_type_id":"4","last_reported":1729483934,"current_range_meters":38000,"station_id":"ce4bgn92rcd13ifvqbvg","pricing_plan_id":"cebpf4jnsgd1na2vs0mg"},{"bike_id":"e87b7e43-d266-42f2-bb17-a0593f82e999","system_id":"levelo_inurba_marseille","lat":43.31994,"lon":5.38151,"is_reserved":false,"is_disabled":false,"rental_uris":{"android":"levelo://app?vid=e87b7e43-d266-42f2-bb17-a0593f82e999","ios":"levelo://app?vid=e87b7e43-d266-42f2-bb17-a0593f82e999"},"vehicle_type_id":"4","last_reported":1729483934,"current_range_meters":16000,"station_id":"ce4bhr12rcd13ifvqhpg","pricing_plan_id":"cebpf4jnsgd1na2vs0mg"},{"bike_id":"c5e3e1df-1a2a-44f0-be91-b1d1b57c457b","system_id":"levelo_inurba_marseille","lat":43.29703,"lon":5.36611,"is_reserved":false,"is_disabled":false,"rental_uris":{"android":"levelo://app?vid=c5e3e1df-1a2a-44f0-be91-b1d1b57c457b","ios":"levelo://app?vid=c5e3e1df-1a2a-44f0-be91-b1d1b57c457b"},"vehicle_type_id":"4","last_reported":1729483934,"current_range_meters":38400,"station_id":"ce4bgn12rcd13ifvqbt0","pricing_plan_id":"cebpf4jnsgd1na2vs0mg"},{"bike_id":"921931b1-5cdf-46b7-9243-9a8cf25a811b","system_id":"levelo_inurba_marseille","lat":43.31756,"lon":5.39017,"is_reserved":false,"is_disabled":false,"rental_uris":{"android":"levelo://app?vid=921931b1-5cdf-46b7-9243-9a8cf25a811b","ios":"levelo://app?vid=921931b1-5cdf-46b7-9243-9a8cf25a811b"},"vehicle_type_id":"4","last_reported":1729483934,"current_range_meters":27600,"station_id":"ce4bhqp2rcd13ifvqhng","pricing_plan_id":"cebpf4jnsgd1na2vs0mg"},{"bike_id":"052de561-9e64-4457-95b6-6bc9edae7801","system_id":"levelo_inurba_marseille","lat":43.29524,"lon":5.39394,"is_reserved":false,"is_disabled":false,"rental_uris":{"android":"levelo://app?vid=052de561-9e64-4457-95b6-6bc9edae7801","ios":"levelo://app?vid=052de561-9e64-4457-95b6-6bc9edae7801"},"vehicle_type_id":"4","last_reported":1729483934,"current_range_meters":38800,"station_id":"ce4bh292rcd13ifvqdf0","pricing_plan_id":"cebpf4jnsgd1na2vs0mg"},{"bike_id":"702ded4a-acc0-402e-a905-a20471de1284","system_id":"levelo_inurba_marseille","lat":43.29593,"lon":5.38096,"is_reserved":false,"is_disabled":false,"rental_uris":{"android":"levelo://app?vid=702ded4a-acc0-402e-a905-a20471de1284","ios":"levelo://app?vid=702ded4a-acc0-402e-a905-a20471de1284"},"vehicle_type_id":"4","last_reported":1729483934,"current_range_meters":35200,"station_id":"ce4bgl12rcd13ifvqbo0","pricing_plan_id":"cebpf4jnsgd1na2vs0mg"},{"bike_id":"7a6ba3d7-846e-45d3-92b4-25ce5cda8a53","system_id":"levelo_inurba_marseille","lat":43.33728,"lon":5.39183,"is_reserved":false,"is_disabled":false,"rental_uris":{"android":"levelo://app?vid=7a6ba3d7-846e-45d3-92b4-25ce5cda8a53","ios":"levelo://app?vid=7a6ba3d7-846e-45d3-92b4-25ce5cda8a53"},"vehicle_type_id":"4","last_reported":1729483934,"current_range_meters":39200,"station_id":"ce4bhr92rcd13ifvqhsg","pricing_plan_id":"cebpf4jnsgd1na2vs0mg"},{"bike_id":"29dc69ab-e0fe-4b96-9cff-bca8448603d4","system_id":"levelo_inurba_marseille","lat":43.31761,"lon":5.39015,"is_reserved":false,"is_disabled":false,"rental_uris":{"android":"levelo://app?vid=29dc69ab-e0fe-4b96-9cff-bca8448603d4","ios":"levelo://app?vid=29dc69ab-e0fe-4b96-9cff-bca8448603d4"},"vehicle_type_id":"4","last_reported":1729483934,"current_range_meters":24800,"station_id":"ce4bhqp2rcd13ifvqhng","pricing_plan_id":"cebpf4jnsgd1na2vs0mg"},{"bike_id":"e8bfb2e9-6e95-4178-92fa-4adfe6334c3f","system_id":"levelo_inurba_marseille","lat":43.28077,"lon":5.39658,"is_reserved":false,"is_disabled":false,"rental_uris":{"android":"levelo://app?vid=e8bfb2e9-6e95-4178-92fa-4adfe6334c3f","ios":"levelo://app?vid=e8bfb2e9-6e95-4178-92fa-4adfe6334c3f"},"vehicle_type_id":"4","last_reported":1729483934,"current_range_meters":38800,"station_id":"ce4bho12rcd13ifvqh2g","pricing_plan_id":"cebpf4jnsgd1na2vs0mg"},{"bike_id":"75103d1e-a081-468d-94f9-30d9db95203e","system_id":"levelo_inurba_marseille","lat":43.28159,"lon":5.42649,"is_reserved":false,"is_disabled":false,"rental_uris":{"android":"levelo://app?vid=75103d1e-a081-468d-94f9-30d9db95203e","ios":"levelo://app?vid=75103d1e-a081-468d-94f9-30d9db95203e"},"vehicle_type_id":"4","last_reported":1729483934,"current_range_meters":26800,"station_id":"ce4bhnh2rcd13ifvqgug","pricing_plan_id":"cebpf4jnsgd1na2vs0mg"},{"bike_id":"b5b1494f-9fa3-417e-bc80-0d223074cefd","system_id":"levelo_inurba_marseille","lat":43.32365,"lon":5.38882,"is_reserved":false,"is_disabled":false,"rental_uris":{"android":"levelo://app?vid=b5b1494f-9fa3-417e-bc80-0d223074cefd","ios":"levelo://app?vid=b5b1494f-9fa3-417e-bc80-0d223074cefd"},"vehicle_type_id":"4","last_reported":1729483934,"current_range_meters":29600,"station_id":"ce4bhqp2rcd13ifvqhog","pricing_plan_id":"cebpf4jnsgd1na2vs0mg"},{"bike_id":"ad081356-b488-4acf-8f30-a8c789d3a0be","system_id":"levelo_inurba_marseille","lat":43.28942,"lon":5.39624,"is_reserved":false,"is_disabled":false,"rental_uris":{"android":"levelo://app?vid=ad081356-b488-4acf-8f30-a8c789d3a0be","ios":"levelo://app?vid=ad081356-b488-4acf-8f30-a8c789d3a0be"},"vehicle_type_id":"4","last_reported":1729483934,"current_range_meters":38800,"station_id":"ce4bh3h2rcd13ifvqdn0","pricing_plan_id":"cebpf4jnsgd1na2vs0mg"},{"bike_id":"3f02c07a-61b9-463a-a842-cee959a13b6f","system_id":"levelo_inurba_marseille","lat":43.25822,"lon":5.39438,"is_reserved":false,"is_disabled":false,"rental_uris":{"android":"levelo://app?vid=3f02c07a-61b9-463a-a842-cee959a13b6f","ios":"levelo://app?vid=3f02c07a-61b9-463a-a842-cee959a13b6f"},"vehicle_type_id":"4","last_reported":1729483934,"current_range_meters":37600,"station_id":"ce4bhip2rcd13ifvqft0","pricing_plan_id":"cebpf4jnsgd1na2vs0mg"},{"bike_id":"0f491606-ac20-4a1f-8f30-46b9fbdf2c51","system_id":"levelo_inurba_marseille","lat":43.23189,"lon":5.39976,"is_reserved":false,"is_disabled":false,"rental_uris":{"android":"levelo://app?vid=0f491606-ac20-4a1f-8f30-46b9fbdf2c51","ios":"levelo://app?vid=0f491606-ac20-4a1f-8f30-46b9fbdf2c51"},"vehicle_type_id":"4","last_reported":1729483934,"current_range_meters":13600,"station_id":"ce4bhn12rcd13ifvqgqg","pricing_plan_id":"cebpf4jnsgd1na2vs0mg"},{"bike_id":"448a96d9-b820-4029-ba2b-c7d4c3f23e0d","system_id":"levelo_inurba_marseille","lat":43.27376,"lon":5.36258,"is_reserved":false,"is_disabled":false,"rental_uris":{"android":"levelo://app?vid=448a96d9-b820-4029-ba2b-c7d4c3f23e0d","ios":"levelo://app?vid=448a96d9-b820-4029-ba2b-c7d4c3f23e0d"},"vehicle_type_id":"4","last_reported":1729483934,"current_range_meters":37600,"station_id":"ce4bhbh2rcd13ifvqeo0","pricing_plan_id":"cebpf4jnsgd1na2vs0mg"},{"bike_id":"16dac4f2-8478-493a-9a10-7049598541d2","system_id":"levelo_inurba_marseille","lat":43.28398,"lon":5.37509,"is_reserved":false,"is_disabled":false,"rental_uris":{"android":"levelo://app?vid=16dac4f2-8478-493a-9a10-7049598541d2","ios":"levelo://app?vid=16dac4f2-8478-493a-9a10-7049598541d2"},"vehicle_type_id":"4","last_reported":1729483934,"current_range_meters":38400,"station_id":"ce4bh412rcd13ifvqds0","pricing_plan_id":"cebpf4jnsgd1na2vs0mg"},{"bike_id":"930058b5-a542-44e1-9a8f-6ff096965cd6","system_id":"levelo_inurba_marseille","lat":43.28414,"lon":5.349833,"is_reserved":false,"is_disabled":false,"rental_uris":{"android":"levelo://app?vid=930058b5-a542-44e1-9a8f-6ff096965cd6","ios":"levelo://app?vid=930058b5-a542-44e1-9a8f-6ff096965cd6"},"vehicle_type_id":"4","last_reported":1729483934,"current_range_meters":25200,"station_id":"ce4bhbh2rcd13ifvqepg","pricing_plan_id":"cebpf4jnsgd1na2vs0mg"},{"bike_id":"007b32f2-d55b-454a-941e-fca8801044b6","system_id":"levelo_inurba_marseille","lat":43.26197,"lon":5.37935,"is_reserved":false,"is_disabled":false,"rental_uris":{"android":"levelo://app?vid=007b32f2-d55b-454a-941e-fca8801044b6","ios":"levelo://app?vid=007b32f2-d55b-454a-941e-fca8801044b6"},"vehicle_type_id":"4","last_reported":1729483934,"current_range_meters":37600,"station_id":"ce4bhjp2rcd13ifvqg90","pricing_plan_id":"cebpf4jnsgd1na2vs0mg"},{"bike_id":"daa21422-2602-408f-ae37-3bbface2680b","system_id":"levelo_inurba_marseille","lat":43.25866,"lon":5.39897,"is_reserved":false,"is_disabled":false,"rental_uris":{"android":"levelo://app?vid=daa21422-2602-408f-ae37-3bbface2680b","ios":"levelo://app?vid=daa21422-2602-408f-ae37-3bbface2680b"},"vehicle_type_id":"4","last_reported":1729483934,"current_range_meters":28400,"station_id":"ce4bhl92rcd13ifvqghg","pricing_plan_id":"cebpf4jnsgd1na2vs0mg"},{"bike_id":"4385264a-fc92-4c3e-958e-a25b26129730","system_id":"levelo_inurba_marseille","lat":43.28695,"lon":5.39987,"is_reserved":false,"is_disabled":false,"rental_uris":{"android":"levelo://app?vid=4385264a-fc92-4c3e-958e-a25b26129730","ios":"levelo://app?vid=4385264a-fc92-4c3e-958e-a25b26129730"},"vehicle_type_id":"4","last_reported":1729483934,"current_range_meters":36800,"station_id":"ce4bho92rcd13ifvqh3g","pricing_plan_id":"cebpf4jnsgd1na2vs0mg"},{"bike_id":"0110ffb5-a63d-45d5-b867-2e5bae3721ec","system_id":"levelo_inurba_marseille","lat":43.3266,"lon":5.40982,"is_reserved":false,"is_disabled":false,"rental_uris":{"android":"levelo://app?vid=0110ffb5-a63d-45d5-b867-2e5bae3721ec","ios":"levelo://app?vid=0110ffb5-a63d-45d5-b867-2e5bae3721ec"},"vehicle_type_id":"4","last_reported":1729483934,"current_range_meters":11600,"station_id":"ce4bhpp2rcd13ifvqhgg","pricing_plan_id":"cebpf4jnsgd1na2vs0mg"},{"bike_id":"f4301c02-1b81-46e9-992f-1f3f8d6be553","system_id":"levelo_inurba_marseille","lat":43.30321,"lon":5.40433,"is_reserved":false,"is_disabled":false,"rental_uris":{"android":"levelo://app?vid=f4301c02-1b81-46e9-992f-1f3f8d6be553","ios":"levelo://app?vid=f4301c02-1b81-46e9-992f-1f3f8d6be553"},"vehicle_type_id":"4","last_reported":1729483934,"current_range_meters":12800,"station_id":"ce4bh012rcd13ifvqd10","pricing_plan_id":"cebpf4jnsgd1na2vs0mg"},{"bike_id":"cffc72a1-9762-4ffa-83d6-8b9856072bf4","system_id":"levelo_inurba_marseille","lat":43.31722,"lon":5.424,"is_reserved":false,"is_disabled":false,"rental_uris":{"android":"levelo://app?vid=cffc72a1-9762-4ffa-83d6-8b9856072bf4","ios":"levelo://app?vid=cffc72a1-9762-4ffa-83d6-8b9856072bf4"},"vehicle_type_id":"4","last_reported":1729483934,"current_range_meters":38800,"station_id":"ce4bhp92rcd13ifvqhbg","pricing_plan_id":"cebpf4jnsgd1na2vs0mg"},{"bike_id":"bda848a9-9c0f-4e86-b399-a0580de506e0","system_id":"levelo_inurba_marseille","lat":43.27622,"lon":5.36108,"is_reserved":false,"is_disabled":false,"rental_uris":{"android":"levelo://app?vid=bda848a9-9c0f-4e86-b399-a0580de506e0","ios":"levelo://app?vid=bda848a9-9c0f-4e86-b399-a0580de506e0"},"vehicle_type_id":"4","last_reported":1729483934,"current_range_meters":37600,"station_id":"ce4bgj92rcd13ifvqbe0","pricing_plan_id":"cebpf4jnsgd1na2vs0mg"},{"bike_id":"37a4f9f2-5f27-41f6-8e49-92d6bbb82296","system_id":"levelo_inurba_marseille","lat":43.23193,"lon":5.35556,"is_reserved":false,"is_disabled":false,"rental_uris":{"android":"levelo://app?vid=37a4f9f2-5f27-41f6-8e49-92d6bbb82296","ios":"levelo://app?vid=37a4f9f2-5f27-41f6-8e49-92d6bbb82296"},"vehicle_type_id":"4","last_reported":1729483934,"current_range_meters":36800,"station_id":"ce4bhu92rcd13ifvqi70","pricing_plan_id":"cebpf4jnsgd1na2vs0mg"},{"bike_id":"e1967d5c-6489-4288-b6b9-65fd91de494e","system_id":"levelo_inurba_marseille","lat":43.31171,"lon":5.38713,"is_reserved":false,"is_disabled":false,"rental_uris":{"android":"levelo://app?vid=e1967d5c-6489-4288-b6b9-65fd91de494e","ios":"levelo://app?vid=e1967d5c-6489-4288-b6b9-65fd91de494e"},"vehicle_type_id":"4","last_reported":1729483934,"current_range_meters":39200,"station_id":"ce4bgv12rcd13ifvqcp0","pricing_plan_id":"cebpf4jnsgd1na2vs0mg"},{"bike_id":"5cd96af5-3e17-42ae-9025-24dfef705577","system_id":"levelo_inurba_marseille","lat":43.29192,"lon":5.393142,"is_reserved":false,"is_disabled":false,"rental_uris":{"android":"levelo://app?vid=5cd96af5-3e17-42ae-9025-24dfef705577","ios":"levelo://app?vid=5cd96af5-3e17-42ae-9025-24dfef705577"},"vehicle_type_id":"4","last_reported":1729483934,"current_range_meters":38800,"station_id":"ce4bh192rcd13ifvqdd0","pricing_plan_id":"cebpf4jnsgd1na2vs0mg"},{"bike_id":"f982a2ea-0271-43f3-b22e-ea172281f0ed","system_id":"levelo_inurba_marseille","lat":43.30476,"lon":5.37893,"is_reserved":false,"is_disabled":false,"rental_uris":{"android":"levelo://app?vid=f982a2ea-0271-43f3-b22e-ea172281f0ed","ios":"levelo://app?vid=f982a2ea-0271-43f3-b22e-ea172281f0ed"},"vehicle_type_id":"4","last_reported":1729483934,"current_range_meters":16000,"station_id":"ce4bgup2rcd13ifvqcn0","pricing_plan_id":"cebpf4jnsgd1na2vs0mg"},{"bike_id":"2a7d19b4-0a2b-429f-b4de-c6b211592f48","system_id":"levelo_inurba_marseille","lat":43.31327,"lon":5.39691,"is_reserved":false,"is_disabled":false,"rental_uris":{"android":"levelo://app?vid=2a7d19b4-0a2b-429f-b4de-c6b211592f48","ios":"levelo://app?vid=2a7d19b4-0a2b-429f-b4de-c6b211592f48"},"vehicle_type_id":"4","last_reported":1729483934,"current_range_meters":35600,"station_id":"ce4bgvp2rcd13ifvqcu0","pricing_plan_id":"cebpf4jnsgd1na2vs0mg"},{"bike_id":"a6eea21c-c617-45d9-88f7-71fcaa933585","system_id":"levelo_inurba_marseille","lat":43.29021,"lon":5.38134,"is_reserved":false,"is_disabled":false,"rental_uris":{"android":"levelo://app?vid=a6eea21c-c617-45d9-88f7-71fcaa933585","ios":"levelo://app?vid=a6eea21c-c617-45d9-88f7-71fcaa933585"},"vehicle_type_id":"4","last_reported":1729483934,"current_range_meters":36800,"station_id":"ce4bh4p2rcd13ifvqe1g","pricing_plan_id":"cebpf4jnsgd1na2vs0mg"},{"bike_id":"efd5dc80-a5e8-4b0c-9022-e046d98c4248","system_id":"levelo_inurba_marseille","lat":43.31334,"lon":5.397,"is_reserved":false,"is_disabled":false,"rental_uris":{"android":"levelo://app?vid=efd5dc80-a5e8-4b0c-9022-e046d98c4248","ios":"levelo://app?vid=efd5dc80-a5e8-4b0c-9022-e046d98c4248"},"vehicle_type_id":"4","last_reported":1729483934,"current_range_meters":39200,"station_id":"ce4bgvp2rcd13ifvqcu0","pricing_plan_id":"cebpf4jnsgd1na2vs0mg"},{"bike_id":"5b47cbfd-3740-4a35-b9bd-478cf093a87d","system_id":"levelo_inurba_marseille","lat":43.23958,"lon":5.3663,"is_reserved":false,"is_disabled":false,"rental_uris":{"android":"levelo://app?vid=5b47cbfd-3740-4a35-b9bd-478cf093a87d","ios":"levelo://app?vid=5b47cbfd-3740-4a35-b9bd-478cf093a87d"},"vehicle_type_id":"4","last_reported":1729483934,"current_range_meters":24800,"station_id":"ce4bhi12rcd13ifvqfp0","pricing_plan_id":"cebpf4jnsgd1na2vs0mg"},{"bike_id":"9cdd8dd9-b29f-454d-ae53-de682a959e62","system_id":"levelo_inurba_marseille","lat":43.32367,"lon":5.38884,"is_reserved":false,"is_disabled":false,"rental_uris":{"android":"levelo://app?vid=9cdd8dd9-b29f-454d-ae53-de682a959e62","ios":"levelo://app?vid=9cdd8dd9-b29f-454d-ae53-de682a959e62"},"vehicle_type_id":"4","last_reported":1729483934,"current_range_meters":38800,"station_id":"ce4bhqp2rcd13ifvqhog","pricing_plan_id":"cebpf4jnsgd1na2vs0mg"},{"bike_id":"6a239e90-1da0-443e-a751-9621878cc664","system_id":"levelo_inurba_marseille","lat":43.28423,"lon":5.34979,"is_reserved":false,"is_disabled":false,"rental_uris":{"android":"levelo://app?vid=6a239e90-1da0-443e-a751-9621878cc664","ios":"levelo://app?vid=6a239e90-1da0-443e-a751-9621878cc664"},"vehicle_type_id":"4","last_reported":1729483934,"current_range_meters":38800,"station_id":"ce4bhbh2rcd13ifvqepg","pricing_plan_id":"cebpf4jnsgd1na2vs0mg"},{"bike_id":"4eeaf0c9-1610-4ecb-acbf-9d8b7b9f4f98","system_id":"levelo_inurba_marseille","lat":43.30797,"lon":5.38157,"is_reserved":false,"is_disabled":false,"rental_uris":{"android":"levelo://app?vid=4eeaf0c9-1610-4ecb-acbf-9d8b7b9f4f98","ios":"levelo://app?vid=4eeaf0c9-1610-4ecb-acbf-9d8b7b9f4f98"},"vehicle_type_id":"4","last_reported":1729483934,"current_range_meters":4800,"station_id":"ce4bgt12rcd13ifvqce0","pricing_plan_id":"cebpf4jnsgd1na2vs0mg"},{"bike_id":"58342ce2-48b6-4554-b620-09ec4681a912","system_id":"levelo_inurba_marseille","lat":43.23955,"lon":5.36621,"is_reserved":false,"is_disabled":false,"rental_uris":{"android":"levelo://app?vid=58342ce2-48b6-4554-b620-09ec4681a912","ios":"levelo://app?vid=58342ce2-48b6-4554-b620-09ec4681a912"},"vehicle_type_id":"4","last_reported":1729483934,"current_range_meters":37600,"station_id":"ce4bhi12rcd13ifvqfp0","pricing_plan_id":"cebpf4jnsgd1na2vs0mg"},{"bike_id":"c50c7747-89f3-4458-8c6a-38a3fd3a8162","system_id":"levelo_inurba_marseille","lat":43.30262,"lon":5.40078,"is_reserved":false,"is_disabled":false,"rental_uris":{"android":"levelo://app?vid=c50c7747-89f3-4458-8c6a-38a3fd3a8162","ios":"levelo://app?vid=c50c7747-89f3-4458-8c6a-38a3fd3a8162"},"vehicle_type_id":"4","last_reported":1729483934,"current_range_meters":38000,"station_id":"ce4bgvh2rcd13ifvqcs0","pricing_plan_id":"cebpf4jnsgd1na2vs0mg"},{"bike_id":"ed56807b-c98e-4c13-b324-7b6dc4b81ac2","system_id":"levelo_inurba_marseille","lat":43.32351,"lon":5.40629,"is_reserved":false,"is_disabled":false,"rental_uris":{"android":"levelo://app?vid=ed56807b-c98e-4c13-b324-7b6dc4b81ac2","ios":"levelo://app?vid=ed56807b-c98e-4c13-b324-7b6dc4b81ac2"},"vehicle_type_id":"4","last_reported":1729483934,"current_range_meters":19200,"station_id":"ce4bhq92rcd13ifvqhjg","pricing_plan_id":"cebpf4jnsgd1na2vs0mg"},{"bike_id":"17c2e2b5-4d41-40ee-9ac7-27f2fafea751","system_id":"levelo_inurba_marseille","lat":43.28041,"lon":5.36942,"is_reserved":false,"is_disabled":false,"rental_uris":{"android":"levelo://app?vid=17c2e2b5-4d41-40ee-9ac7-27f2fafea751","ios":"levelo://app?vid=17c2e2b5-4d41-40ee-9ac7-27f2fafea751"},"vehicle_type_id":"4","last_reported":1729483934,"current_range_meters":28000,"station_id":"ce4bha12rcd13ifvqef0","pricing_plan_id":"cebpf4jnsgd1na2vs0mg"},{"bike_id":"57dd0012-e7c2-43e3-90a1-087125ac63fa","system_id":"levelo_inurba_marseille","lat":43.33753,"lon":5.37454,"is_reserved":false,"is_disabled":false,"rental_uris":{"android":"levelo://app?vid=57dd0012-e7c2-43e3-90a1-087125ac63fa","ios":"levelo://app?vid=57dd0012-e7c2-43e3-90a1-087125ac63fa"},"vehicle_type_id":"4","last_reported":1729483934,"current_range_meters":32400,"station_id":"","pricing_plan_id":"cebpf4jnsgd1na2vs0mg"},{"bike_id":"ad1c3d3d-b4cc-42d4-beb2-2f2573d3d2dd","system_id":"levelo_inurba_marseille","lat":43.31078,"lon":5.38355,"is_reserved":false,"is_disabled":false,"rental_uris":{"android":"levelo://app?vid=ad1c3d3d-b4cc-42d4-beb2-2f2573d3d2dd","ios":"levelo://app?vid=ad1c3d3d-b4cc-42d4-beb2-2f2573d3d2dd"},"vehicle_type_id":"4","last_reported":1729483934,"current_range_meters":38400,"station_id":"ce4bgv92rcd13ifvqcr0","pricing_plan_id":"cebpf4jnsgd1na2vs0mg"},{"bike_id":"7a0ab312-b352-44c4-87a1-5a8ea290c2b1","system_id":"levelo_inurba_marseille","lat":43.28158,"lon":5.42643,"is_reserved":false,"is_disabled":false,"rental_uris":{"android":"levelo://app?vid=7a0ab312-b352-44c4-87a1-5a8ea290c2b1","ios":"levelo://app?vid=7a0ab312-b352-44c4-87a1-5a8ea290c2b1"},"vehicle_type_id":"4","last_reported":1729483934,"current_range_meters":28800,"station_id":"ce4bhnh2rcd13ifvqgug","pricing_plan_id":"cebpf4jnsgd1na2vs0mg"},{"bike_id":"0a6df673-e856-4343-b24f-084796475cea","system_id":"levelo_inurba_marseille","lat":43.31488,"lon":5.37302,"is_reserved":false,"is_disabled":false,"rental_uris":{"android":"levelo://app?vid=0a6df673-e856-4343-b24f-084796475cea","ios":"levelo://app?vid=0a6df673-e856-4343-b24f-084796475cea"},"vehicle_type_id":"4","last_reported":1729483934,"current_range_meters":31200,"station_id":"ce4bgt12rcd13ifvqcd0","pricing_plan_id":"cebpf4jnsgd1na2vs0mg"},{"bike_id":"3b4bab88-ff26-4ed6-8e4d-0b21f8a87ff0","system_id":"levelo_inurba_marseille","lat":43.30145,"lon":5.37423,"is_reserved":false,"is_disabled":false,"rental_uris":{"android":"levelo://app?vid=3b4bab88-ff26-4ed6-8e4d-0b21f8a87ff0","ios":"levelo://app?vid=3b4bab88-ff26-4ed6-8e4d-0b21f8a87ff0"},"vehicle_type_id":"4","last_reported":1729483934,"current_range_meters":27600,"station_id":"ce4bgs92rcd13ifvqcc0","pricing_plan_id":"cebpf4jnsgd1na2vs0mg"},{"bike_id":"3b77581e-631c-40dd-a9c7-afc3c4336841","system_id":"levelo_inurba_marseille","lat":43.31178,"lon":5.38706,"is_reserved":false,"is_disabled":false,"rental_uris":{"android":"levelo://app?vid=3b77581e-631c-40dd-a9c7-afc3c4336841","ios":"levelo://app?vid=3b77581e-631c-40dd-a9c7-afc3c4336841"},"vehicle_type_id":"4","last_reported":1729483934,"current_range_meters":38000,"station_id":"ce4bgv12rcd13ifvqcp0","pricing_plan_id":"cebpf4jnsgd1na2vs0mg"},{"bike_id":"495d773a-77c3-4538-91d4-69a5f6ca5507","system_id":"levelo_inurba_marseille","lat":43.27374,"lon":5.36263,"is_reserved":false,"is_disabled":false,"rental_uris":{"android":"levelo://app?vid=495d773a-77c3-4538-91d4-69a5f6ca5507","ios":"levelo://app?vid=495d773a-77c3-4538-91d4-69a5f6ca5507"},"vehicle_type_id":"4","last_reported":1729483934,"current_range_meters":38400,"station_id":"ce4bhbh2rcd13ifvqeo0","pricing_plan_id":"cebpf4jnsgd1na2vs0mg"},{"bike_id":"578d4c27-76a2-4efb-a91a-3edfe8b3ee44","system_id":"levelo_inurba_marseille","lat":43.23181,"lon":5.3999,"is_reserved":false,"is_disabled":false,"rental_uris":{"android":"levelo://app?vid=578d4c27-76a2-4efb-a91a-3edfe8b3ee44","ios":"levelo://app?vid=578d4c27-76a2-4efb-a91a-3edfe8b3ee44"},"vehicle_type_id":"4","last_reported":1729483934,"current_range_meters":27600,"station_id":"ce4bhn12rcd13ifvqgqg","pricing_plan_id":"cebpf4jnsgd1na2vs0mg"},{"bike_id":"72252ee5-ba59-43f4-9c7c-8ce270e8d4b2","system_id":"levelo_inurba_marseille","lat":43.30952,"lon":5.39031,"is_reserved":false,"is_disabled":false,"rental_uris":{"android":"levelo://app?vid=72252ee5-ba59-43f4-9c7c-8ce270e8d4b2","ios":"levelo://app?vid=72252ee5-ba59-43f4-9c7c-8ce270e8d4b2"},"vehicle_type_id":"4","last_reported":1729483934,"current_range_meters":28800,"station_id":"ce4bgup2rcd13ifvqco0","pricing_plan_id":"cebpf4jnsgd1na2vs0mg"},{"bike_id":"d28524aa-7d6c-40ad-81f7-65db0ffe5cce","system_id":"levelo_inurba_marseille","lat":43.30135,"lon":5.39874,"is_reserved":false,"is_disabled":false,"rental_uris":{"android":"levelo://app?vid=d28524aa-7d6c-40ad-81f7-65db0ffe5cce","ios":"levelo://app?vid=d28524aa-7d6c-40ad-81f7-65db0ffe5cce"},"vehicle_type_id":"4","last_reported":1729483934,"current_range_meters":32400,"station_id":"ce4bh0h2rcd13ifvqd40","pricing_plan_id":"cebpf4jnsgd1na2vs0mg"},{"bike_id":"6fc5767c-7409-405d-8c24-4a08a7e916fc","system_id":"levelo_inurba_marseille","lat":43.24078,"lon":5.37752,"is_reserved":false,"is_disabled":false,"rental_uris":{"android":"levelo://app?vid=6fc5767c-7409-405d-8c24-4a08a7e916fc","ios":"levelo://app?vid=6fc5767c-7409-405d-8c24-4a08a7e916fc"},"vehicle_type_id":"4","last_reported":1729483934,"current_range_meters":38400,"station_id":"ce4bhnp2rcd13ifvqgvg","pricing_plan_id":"cebpf4jnsgd1na2vs0mg"},{"bike_id":"0c8d62df-ce7f-4d2a-93d3-2a0c7123f00e","system_id":"levelo_inurba_marseille","lat":43.27896,"lon":5.38,"is_reserved":false,"is_disabled":false,"rental_uris":{"android":"levelo://app?vid=0c8d62df-ce7f-4d2a-93d3-2a0c7123f00e","ios":"levelo://app?vid=0c8d62df-ce7f-4d2a-93d3-2a0c7123f00e"},"vehicle_type_id":"4","last_reported":1729483934,"current_range_meters":37600,"station_id":"ce4bhf92rcd13ifvqf50","pricing_plan_id":"cebpf4jnsgd1na2vs0mg"},{"bike_id":"e5e11fd8-f6f0-4663-b21c-76a39acf6bd5","system_id":"levelo_inurba_marseille","lat":43.30937,"lon":5.40142,"is_reserved":false,"is_disabled":false,"rental_uris":{"android":"levelo://app?vid=e5e11fd8-f6f0-4663-b21c-76a39acf6bd5","ios":"levelo://app?vid=e5e11fd8-f6f0-4663-b21c-76a39acf6bd5"},"vehicle_type_id":"4","last_reported":1729483934,"current_range_meters":36400,"station_id":"ce4bgvp2rcd13ifvqct0","pricing_plan_id":"cebpf4jnsgd1na2vs0mg"},{"bike_id":"7baafccc-f243-4381-9dc7-cb5a4f2816d8","system_id":"levelo_inurba_marseille","lat":43.26418,"lon":5.38692,"is_reserved":false,"is_disabled":false,"rental_uris":{"android":"levelo://app?vid=7baafccc-f243-4381-9dc7-cb5a4f2816d8","ios":"levelo://app?vid=7baafccc-f243-4381-9dc7-cb5a4f2816d8"},"vehicle_type_id":"4","last_reported":1729483934,"current_range_meters":16400,"station_id":"","pricing_plan_id":"cebpf4jnsgd1na2vs0mg"},{"bike_id":"f649ba29-fbd0-4bfe-89f9-8f962a7e95e5","system_id":"levelo_inurba_marseille","lat":43.315,"lon":5.373,"is_reserved":false,"is_disabled":false,"rental_uris":{"android":"levelo://app?vid=f649ba29-fbd0-4bfe-89f9-8f962a7e95e5","ios":"levelo://app?vid=f649ba29-fbd0-4bfe-89f9-8f962a7e95e5"},"vehicle_type_id":"4","last_reported":1729483934,"current_range_meters":36400,"station_id":"ce4bgt12rcd13ifvqcd0","pricing_plan_id":"cebpf4jnsgd1na2vs0mg"},{"bike_id":"68d7f74d-fd5e-4a51-bb32-689fcfb70385","system_id":"levelo_inurba_marseille","lat":43.2893,"lon":5.36627,"is_reserved":false,"is_disabled":false,"rental_uris":{"android":"levelo://app?vid=68d7f74d-fd5e-4a51-bb32-689fcfb70385","ios":"levelo://app?vid=68d7f74d-fd5e-4a51-bb32-689fcfb70385"},"vehicle_type_id":"4","last_reported":1729483934,"current_range_meters":38800,"station_id":"ce4bhap2rcd13ifvqek0","pricing_plan_id":"cebpf4jnsgd1na2vs0mg"},{"bike_id":"e36e8b70-cdbc-4b6c-9fe9-c4fbf657cc2e","system_id":"levelo_inurba_marseille","lat":43.31515,"lon":5.38964,"is_reserved":false,"is_disabled":false,"rental_uris":{"android":"levelo://app?vid=e36e8b70-cdbc-4b6c-9fe9-c4fbf657cc2e","ios":"levelo://app?vid=e36e8b70-cdbc-4b6c-9fe9-c4fbf657cc2e"},"vehicle_type_id":"4","last_reported":1729483934,"current_range_meters":24400,"station_id":"","pricing_plan_id":"cebpf4jnsgd1na2vs0mg"},{"bike_id":"bf6b57fc-4872-420f-a3f7-fe294bcf43f7","system_id":"levelo_inurba_marseille","lat":43.29258,"lon":5.40914,"is_reserved":false,"is_disabled":false,"rental_uris":{"android":"levelo://app?vid=bf6b57fc-4872-420f-a3f7-fe294bcf43f7","ios":"levelo://app?vid=bf6b57fc-4872-420f-a3f7-fe294bcf43f7"},"vehicle_type_id":"4","last_reported":1729483934,"current_range_meters":37600,"station_id":"ce4bh192rcd13ifvqdc0","pricing_plan_id":"cebpf4jnsgd1na2vs0mg"},{"bike_id":"1af5b995-94d1-41c5-a11e-19af38f6420d","system_id":"levelo_inurba_marseille","lat":43.26487,"lon":5.39546,"is_reserved":false,"is_disabled":false,"rental_uris":{"android":"levelo://app?vid=1af5b995-94d1-41c5-a11e-19af38f6420d","ios":"levelo://app?vid=1af5b995-94d1-41c5-a11e-19af38f6420d"},"vehicle_type_id":"4","last_reported":1729483934,"current_range_meters":37600,"station_id":"ce4bhi12rcd13ifvqfq0","pricing_plan_id":"cebpf4jnsgd1na2vs0mg"},{"bike_id":"8ee436f4-42cb-41e2-8e02-03f1512746b1","system_id":"levelo_inurba_marseille","lat":43.25582,"lon":5.38224,"is_reserved":false,"is_disabled":false,"rental_uris":{"android":"levelo://app?vid=8ee436f4-42cb-41e2-8e02-03f1512746b1","ios":"levelo://app?vid=8ee436f4-42cb-41e2-8e02-03f1512746b1"},"vehicle_type_id":"4","last_reported":1729483934,"current_range_meters":29600,"station_id":"ce4bhih2rcd13ifvqfs0","pricing_plan_id":"cebpf4jnsgd1na2vs0mg"},{"bike_id":"cd0dce23-200f-416c-916b-7be9d153fea3","system_id":"levelo_inurba_marseille","lat":43.26073,"lon":5.38559,"is_reserved":false,"is_disabled":false,"rental_uris":{"android":"levelo://app?vid=cd0dce23-200f-416c-916b-7be9d153fea3","ios":"levelo://app?vid=cd0dce23-200f-416c-916b-7be9d153fea3"},"vehicle_type_id":"4","last_reported":1729483934,"current_range_meters":16400,"station_id":"","pricing_plan_id":"cebpf4jnsgd1na2vs0mg"},{"bike_id":"53928c67-9a1e-42ca-af09-1851b26aa73d","system_id":"levelo_inurba_marseille","lat":43.2841,"lon":5.37516,"is_reserved":false,"is_disabled":false,"rental_uris":{"android":"levelo://app?vid=53928c67-9a1e-42ca-af09-1851b26aa73d","ios":"levelo://app?vid=53928c67-9a1e-42ca-af09-1851b26aa73d"},"vehicle_type_id":"4","last_reported":1729483934,"current_range_meters":35600,"station_id":"ce4bh412rcd13ifvqds0","pricing_plan_id":"cebpf4jnsgd1na2vs0mg"},{"bike_id":"23115ac6-aff5-45af-87d0-ffdacdb28fd5","system_id":"levelo_inurba_marseille","lat":43.22929,"lon":5.35376,"is_reserved":false,"is_disabled":false,"rental_uris":{"android":"levelo://app?vid=23115ac6-aff5-45af-87d0-ffdacdb28fd5","ios":"levelo://app?vid=23115ac6-aff5-45af-87d0-ffdacdb28fd5"},"vehicle_type_id":"4","last_reported":1729483934,"current_range_meters":37600,"station_id":"cpo3532slgdg3j2ikp40","pricing_plan_id":"cebpf4jnsgd1na2vs0mg"},{"bike_id":"9d3726d0-cffb-4f6a-86d4-545167846172","system_id":"levelo_inurba_marseille","lat":43.30426,"lon":5.39745,"is_reserved":false,"is_disabled":false,"rental_uris":{"android":"levelo://app?vid=9d3726d0-cffb-4f6a-86d4-545167846172","ios":"levelo://app?vid=9d3726d0-cffb-4f6a-86d4-545167846172"},"vehicle_type_id":"4","last_reported":1729483934,"current_range_meters":37600,"station_id":"ce4bh092rcd13ifvqd20","pricing_plan_id":"cebpf4jnsgd1na2vs0mg"},{"bike_id":"4baa99ae-2e1a-436a-bb1d-886404f1cc4d","system_id":"levelo_inurba_marseille","lat":43.28276,"lon":5.35059,"is_reserved":false,"is_disabled":false,"rental_uris":{"android":"levelo://app?vid=4baa99ae-2e1a-436a-bb1d-886404f1cc4d","ios":"levelo://app?vid=4baa99ae-2e1a-436a-bb1d-886404f1cc4d"},"vehicle_type_id":"4","last_reported":1729483934,"current_range_meters":38800,"station_id":"ce4bhbp2rcd13ifvqerg","pricing_plan_id":"cebpf4jnsgd1na2vs0mg"},{"bike_id":"7c0dd821-bfe8-4c2e-bc40-15ba4f4dd73b","system_id":"levelo_inurba_marseille","lat":43.25087,"lon":5.39521,"is_reserved":false,"is_disabled":false,"rental_uris":{"android":"levelo://app?vid=7c0dd821-bfe8-4c2e-bc40-15ba4f4dd73b","ios":"levelo://app?vid=7c0dd821-bfe8-4c2e-bc40-15ba4f4dd73b"},"vehicle_type_id":"4","last_reported":1729483934,"current_range_meters":36400,"station_id":"ce4bhm12rcd13ifvqgkg","pricing_plan_id":"cebpf4jnsgd1na2vs0mg"},{"bike_id":"3074eab9-5df2-4549-8df7-c8447d4f5d38","system_id":"levelo_inurba_marseille","lat":43.23188,"lon":5.39977,"is_reserved":false,"is_disabled":false,"rental_uris":{"android":"levelo://app?vid=3074eab9-5df2-4549-8df7-c8447d4f5d38","ios":"levelo://app?vid=3074eab9-5df2-4549-8df7-c8447d4f5d38"},"vehicle_type_id":"4","last_reported":1729483934,"current_range_meters":28800,"station_id":"ce4bhn12rcd13ifvqgqg","pricing_plan_id":"cebpf4jnsgd1na2vs0mg"},{"bike_id":"5fb83cb5-1b9e-44dc-ad82-fe8e448bfa99","system_id":"levelo_inurba_marseille","lat":43.32106,"lon":5.3678,"is_reserved":false,"is_disabled":false,"rental_uris":{"android":"levelo://app?vid=5fb83cb5-1b9e-44dc-ad82-fe8e448bfa99","ios":"levelo://app?vid=5fb83cb5-1b9e-44dc-ad82-fe8e448bfa99"},"vehicle_type_id":"4","last_reported":1729483934,"current_range_meters":37600,"station_id":"ce4bhrh2rcd13ifvqhug","pricing_plan_id":"cebpf4jnsgd1na2vs0mg"},{"bike_id":"ce664f76-069e-4d26-848b-5bba883a0f8f","system_id":"levelo_inurba_marseille","lat":43.284,"lon":5.3752,"is_reserved":false,"is_disabled":false,"rental_uris":{"android":"levelo://app?vid=ce664f76-069e-4d26-848b-5bba883a0f8f","ios":"levelo://app?vid=ce664f76-069e-4d26-848b-5bba883a0f8f"},"vehicle_type_id":"4","last_reported":1729483934,"current_range_meters":37600,"station_id":"ce4bh412rcd13ifvqds0","pricing_plan_id":"cebpf4jnsgd1na2vs0mg"},{"bike_id":"1c46af18-9fa9-4b20-aa2c-36f4cc2ac30e","system_id":"levelo_inurba_marseille","lat":43.31172,"lon":5.3871,"is_reserved":false,"is_disabled":false,"rental_uris":{"android":"levelo://app?vid=1c46af18-9fa9-4b20-aa2c-36f4cc2ac30e","ios":"levelo://app?vid=1c46af18-9fa9-4b20-aa2c-36f4cc2ac30e"},"vehicle_type_id":"4","last_reported":1729483934,"current_range_meters":38800,"station_id":"ce4bgv12rcd13ifvqcp0","pricing_plan_id":"cebpf4jnsgd1na2vs0mg"},{"bike_id":"f77d75a0-21c8-4ccc-bba5-f5d7d460aa1d","system_id":"levelo_inurba_marseille","lat":43.29553,"lon":5.42281,"is_reserved":false,"is_disabled":false,"rental_uris":{"android":"levelo://app?vid=f77d75a0-21c8-4ccc-bba5-f5d7d460aa1d","ios":"levelo://app?vid=f77d75a0-21c8-4ccc-bba5-f5d7d460aa1d"},"vehicle_type_id":"4","last_reported":1729483934,"current_range_meters":36000,"station_id":"ce4bhph2rcd13ifvqhdg","pricing_plan_id":"cebpf4jnsgd1na2vs0mg"},{"bike_id":"a611c09c-efe7-4064-b316-aa2365607348","system_id":"levelo_inurba_marseille","lat":43.29601,"lon":5.3809,"is_reserved":false,"is_disabled":false,"rental_uris":{"android":"levelo://app?vid=a611c09c-efe7-4064-b316-aa2365607348","ios":"levelo://app?vid=a611c09c-efe7-4064-b316-aa2365607348"},"vehicle_type_id":"4","last_reported":1729483934,"current_range_meters":38000,"station_id":"ce4bgl12rcd13ifvqbo0","pricing_plan_id":"cebpf4jnsgd1na2vs0mg"},{"bike_id":"d94abd10-f1f2-4572-ab8e-169add889ea4","system_id":"levelo_inurba_marseille","lat":43.28041,"lon":5.36944,"is_reserved":false,"is_disabled":false,"rental_uris":{"android":"levelo://app?vid=d94abd10-f1f2-4572-ab8e-169add889ea4","ios":"levelo://app?vid=d94abd10-f1f2-4572-ab8e-169add889ea4"},"vehicle_type_id":"4","last_reported":1729483934,"current_range_meters":28800,"station_id":"ce4bha12rcd13ifvqef0","pricing_plan_id":"cebpf4jnsgd1na2vs0mg"},{"bike_id":"fb4c1f40-f843-4a8a-8dc9-8cb92e4b3334","system_id":"levelo_inurba_marseille","lat":43.26947,"lon":5.4024,"is_reserved":false,"is_disabled":false,"rental_uris":{"android":"levelo://app?vid=fb4c1f40-f843-4a8a-8dc9-8cb92e4b3334","ios":"levelo://app?vid=fb4c1f40-f843-4a8a-8dc9-8cb92e4b3334"},"vehicle_type_id":"4","last_reported":1729483934,"current_range_meters":28800,"station_id":"cjm6bp8fraef2m0cb0m0","pricing_plan_id":"cebpf4jnsgd1na2vs0mg"},{"bike_id":"a79bce0c-a0b7-467d-9ece-663bed40c9d4","system_id":"levelo_inurba_marseille","lat":43.28851,"lon":5.35844,"is_reserved":false,"is_disabled":false,"rental_uris":{"android":"levelo://app?vid=a79bce0c-a0b7-467d-9ece-663bed40c9d4","ios":"levelo://app?vid=a79bce0c-a0b7-467d-9ece-663bed40c9d4"},"vehicle_type_id":"4","last_reported":1729483934,"current_range_meters":38400,"station_id":"ce4bhb12rcd13ifvqem0","pricing_plan_id":"cebpf4jnsgd1na2vs0mg"},{"bike_id":"13454362-fd7d-4b66-8ecf-bd98a641fd5a","system_id":"levelo_inurba_marseille","lat":43.28479,"lon":5.38408,"is_reserved":false,"is_disabled":false,"rental_uris":{"android":"levelo://app?vid=13454362-fd7d-4b66-8ecf-bd98a641fd5a","ios":"levelo://app?vid=13454362-fd7d-4b66-8ecf-bd98a641fd5a"},"vehicle_type_id":"4","last_reported":1729483934,"current_range_meters":28800,"station_id":"ce4bh512rcd13ifvqe3g","pricing_plan_id":"cebpf4jnsgd1na2vs0mg"},{"bike_id":"28cf6995-f40e-413a-bb6c-faa2a779d004","system_id":"levelo_inurba_marseille","lat":43.308031,"lon":5.381571,"is_reserved":false,"is_disabled":false,"rental_uris":{"android":"levelo://app?vid=28cf6995-f40e-413a-bb6c-faa2a779d004","ios":"levelo://app?vid=28cf6995-f40e-413a-bb6c-faa2a779d004"},"vehicle_type_id":"4","last_reported":1729483934,"current_range_meters":24000,"station_id":"ce4bgt12rcd13ifvqce0","pricing_plan_id":"cebpf4jnsgd1na2vs0mg"},{"bike_id":"f1c28dd6-b91c-4e8a-999e-93ab18dd5711","system_id":"levelo_inurba_marseille","lat":43.29631,"lon":5.40619,"is_reserved":false,"is_disabled":false,"rental_uris":{"android":"levelo://app?vid=f1c28dd6-b91c-4e8a-999e-93ab18dd5711","ios":"levelo://app?vid=f1c28dd6-b91c-4e8a-999e-93ab18dd5711"},"vehicle_type_id":"4","last_reported":1729483934,"current_range_meters":38400,"station_id":"ce4bh0h2rcd13ifvqd60","pricing_plan_id":"cebpf4jnsgd1na2vs0mg"},{"bike_id":"d10421cc-75da-4e5d-b214-b21e8b093140","system_id":"levelo_inurba_marseille","lat":43.29171,"lon":5.37151,"is_reserved":false,"is_disabled":false,"rental_uris":{"android":"levelo://app?vid=d10421cc-75da-4e5d-b214-b21e8b093140","ios":"levelo://app?vid=d10421cc-75da-4e5d-b214-b21e8b093140"},"vehicle_type_id":"4","last_reported":1729483934,"current_range_meters":38800,"station_id":"ce4bha92rcd13ifvqeh0","pricing_plan_id":"cebpf4jnsgd1na2vs0mg"},{"bike_id":"d06a881c-f80d-48b8-9719-6afcceb956d7","system_id":"levelo_inurba_marseille","lat":43.33026,"lon":5.39037,"is_reserved":false,"is_disabled":false,"rental_uris":{"android":"levelo://app?vid=d06a881c-f80d-48b8-9719-6afcceb956d7","ios":"levelo://app?vid=d06a881c-f80d-48b8-9719-6afcceb956d7"},"vehicle_type_id":"4","last_reported":1729483934,"current_range_meters":38800,"station_id":"ce4bhr92rcd13ifvqhrg","pricing_plan_id":"cebpf4jnsgd1na2vs0mg"},{"bike_id":"f4d3038a-f2d7-4f1c-b878-63b80a4d48a1","system_id":"levelo_inurba_marseille","lat":43.270786,"lon":5.422891,"is_reserved":false,"is_disabled":false,"rental_uris":{"android":"levelo://app?vid=f4d3038a-f2d7-4f1c-b878-63b80a4d48a1","ios":"levelo://app?vid=f4d3038a-f2d7-4f1c-b878-63b80a4d48a1"},"vehicle_type_id":"4","last_reported":1729483934,"current_range_meters":34000,"station_id":"ce4bhk92rcd13ifvqgb0","pricing_plan_id":"cebpf4jnsgd1na2vs0mg"},{"bike_id":"3701adb6-e87b-44e7-b5b8-a659a9565d5b","system_id":"levelo_inurba_marseille","lat":43.24072,"lon":5.3776,"is_reserved":false,"is_disabled":false,"rental_uris":{"android":"levelo://app?vid=3701adb6-e87b-44e7-b5b8-a659a9565d5b","ios":"levelo://app?vid=3701adb6-e87b-44e7-b5b8-a659a9565d5b"},"vehicle_type_id":"4","last_reported":1729483934,"current_range_meters":6800,"station_id":"ce4bhnp2rcd13ifvqgvg","pricing_plan_id":"cebpf4jnsgd1na2vs0mg"},{"bike_id":"c4b99141-232a-4680-9cb3-94d47dafff81","system_id":"levelo_inurba_marseille","lat":43.31499,"lon":5.37291,"is_reserved":false,"is_disabled":false,"rental_uris":{"android":"levelo://app?vid=c4b99141-232a-4680-9cb3-94d47dafff81","ios":"levelo://app?vid=c4b99141-232a-4680-9cb3-94d47dafff81"},"vehicle_type_id":"4","last_reported":1729483934,"current_range_meters":37600,"station_id":"ce4bgt12rcd13ifvqcd0","pricing_plan_id":"cebpf4jnsgd1na2vs0mg"},{"bike_id":"1e18c599-6c40-4c34-805b-3e674da0ddd0","system_id":"levelo_inurba_marseille","lat":43.284229,"lon":5.349961,"is_reserved":false,"is_disabled":false,"rental_uris":{"android":"levelo://app?vid=1e18c599-6c40-4c34-805b-3e674da0ddd0","ios":"levelo://app?vid=1e18c599-6c40-4c34-805b-3e674da0ddd0"},"vehicle_type_id":"4","last_reported":1729483934,"current_range_meters":38800,"station_id":"ce4bhbh2rcd13ifvqepg","pricing_plan_id":"cebpf4jnsgd1na2vs0mg"},{"bike_id":"766da900-471d-42f5-8cfa-8db494f945d7","system_id":"levelo_inurba_marseille","lat":43.289116,"lon":5.460546,"is_reserved":false,"is_disabled":false,"rental_uris":{"android":"levelo://app?vid=766da900-471d-42f5-8cfa-8db494f945d7","ios":"levelo://app?vid=766da900-471d-42f5-8cfa-8db494f945d7"},"vehicle_type_id":"4","last_reported":1729483934,"current_range_meters":20800,"station_id":"","pricing_plan_id":"cebpf4jnsgd1na2vs0mg"},{"bike_id":"943f9261-06f3-42d7-883c-753c8de0058b","system_id":"levelo_inurba_marseille","lat":43.28705,"lon":5.39986,"is_reserved":false,"is_disabled":false,"rental_uris":{"android":"levelo://app?vid=943f9261-06f3-42d7-883c-753c8de0058b","ios":"levelo://app?vid=943f9261-06f3-42d7-883c-753c8de0058b"},"vehicle_type_id":"4","last_reported":1729483934,"current_range_meters":38800,"station_id":"ce4bho92rcd13ifvqh3g","pricing_plan_id":"cebpf4jnsgd1na2vs0mg"},{"bike_id":"2b732e07-d55f-46d2-9872-de0a6a9ddc8d","system_id":"levelo_inurba_marseille","lat":43.27621,"lon":5.36107,"is_reserved":false,"is_disabled":false,"rental_uris":{"android":"levelo://app?vid=2b732e07-d55f-46d2-9872-de0a6a9ddc8d","ios":"levelo://app?vid=2b732e07-d55f-46d2-9872-de0a6a9ddc8d"},"vehicle_type_id":"4","last_reported":1729483934,"current_range_meters":38800,"station_id":"ce4bgj92rcd13ifvqbe0","pricing_plan_id":"cebpf4jnsgd1na2vs0mg"},{"bike_id":"97b3151a-beeb-4204-b70d-b8d1a0c99d9e","system_id":"levelo_inurba_marseille","lat":43.30462,"lon":5.37905,"is_reserved":false,"is_disabled":false,"rental_uris":{"android":"levelo://app?vid=97b3151a-beeb-4204-b70d-b8d1a0c99d9e","ios":"levelo://app?vid=97b3151a-beeb-4204-b70d-b8d1a0c99d9e"},"vehicle_type_id":"4","last_reported":1729483934,"current_range_meters":38800,"station_id":"ce4bgup2rcd13ifvqcn0","pricing_plan_id":"cebpf4jnsgd1na2vs0mg"},{"bike_id":"6b9d203a-0d44-47b8-9615-bd46a99162a3","system_id":"levelo_inurba_marseille","lat":43.2926,"lon":5.40907,"is_reserved":false,"is_disabled":false,"rental_uris":{"android":"levelo://app?vid=6b9d203a-0d44-47b8-9615-bd46a99162a3","ios":"levelo://app?vid=6b9d203a-0d44-47b8-9615-bd46a99162a3"},"vehicle_type_id":"4","last_reported":1729483934,"current_range_meters":38800,"station_id":"ce4bh192rcd13ifvqdc0","pricing_plan_id":"cebpf4jnsgd1na2vs0mg"},{"bike_id":"92542eec-fc46-4769-a4f4-a10258b9ecee","system_id":"levelo_inurba_marseille","lat":43.29253,"lon":5.40911,"is_reserved":false,"is_disabled":false,"rental_uris":{"android":"levelo://app?vid=92542eec-fc46-4769-a4f4-a10258b9ecee","ios":"levelo://app?vid=92542eec-fc46-4769-a4f4-a10258b9ecee"},"vehicle_type_id":"4","last_reported":1729483934,"current_range_meters":33600,"station_id":"ce4bh192rcd13ifvqdc0","pricing_plan_id":"cebpf4jnsgd1na2vs0mg"},{"bike_id":"be1073ca-0eaa-46aa-9475-1c4d2ebd8631","system_id":"levelo_inurba_marseille","lat":43.28847,"lon":5.39321,"is_reserved":false,"is_disabled":false,"rental_uris":{"android":"levelo://app?vid=be1073ca-0eaa-46aa-9475-1c4d2ebd8631","ios":"levelo://app?vid=be1073ca-0eaa-46aa-9475-1c4d2ebd8631"},"vehicle_type_id":"4","last_reported":1729483934,"current_range_meters":38000,"station_id":"ce4bh2p2rcd13ifvqdi0","pricing_plan_id":"cebpf4jnsgd1na2vs0mg"},{"bike_id":"58543eaf-b94d-4908-8b69-97dd3e4090a7","system_id":"levelo_inurba_marseille","lat":43.24179,"lon":5.3973,"is_reserved":false,"is_disabled":false,"rental_uris":{"android":"levelo://app?vid=58543eaf-b94d-4908-8b69-97dd3e4090a7","ios":"levelo://app?vid=58543eaf-b94d-4908-8b69-97dd3e4090a7"},"vehicle_type_id":"4","last_reported":1729483934,"current_range_meters":30400,"station_id":"ce4bhn12rcd13ifvqgpg","pricing_plan_id":"cebpf4jnsgd1na2vs0mg"},{"bike_id":"e29be81f-1b6e-4a10-8e56-4290146076a0","system_id":"levelo_inurba_marseille","lat":43.29982,"lon":5.37174,"is_reserved":false,"is_disabled":false,"rental_uris":{"android":"levelo://app?vid=e29be81f-1b6e-4a10-8e56-4290146076a0","ios":"levelo://app?vid=e29be81f-1b6e-4a10-8e56-4290146076a0"},"vehicle_type_id":"4","last_reported":1729483934,"current_range_meters":37600,"station_id":"ce4bgr92rcd13ifvqc7g","pricing_plan_id":"cebpf4jnsgd1na2vs0mg"},{"bike_id":"2660de38-4840-4aa8-bd39-a10c1be08f3d","system_id":"levelo_inurba_marseille","lat":43.28703,"lon":5.37378,"is_reserved":false,"is_disabled":false,"rental_uris":{"android":"levelo://app?vid=2660de38-4840-4aa8-bd39-a10c1be08f3d","ios":"levelo://app?vid=2660de38-4840-4aa8-bd39-a10c1be08f3d"},"vehicle_type_id":"4","last_reported":1729483934,"current_range_meters":39200,"station_id":"ce4bh3p2rcd13ifvqdq0","pricing_plan_id":"cebpf4jnsgd1na2vs0mg"},{"bike_id":"e4165dbd-d7e2-49b1-86de-b3128e01e161","system_id":"levelo_inurba_marseille","lat":43.28467,"lon":5.35886,"is_reserved":false,"is_disabled":false,"rental_uris":{"android":"levelo://app?vid=e4165dbd-d7e2-49b1-86de-b3128e01e161","ios":"levelo://app?vid=e4165dbd-d7e2-49b1-86de-b3128e01e161"},"vehicle_type_id":"4","last_reported":1729483934,"current_range_meters":38400,"station_id":"ce4bhah2rcd13ifvqei0","pricing_plan_id":"cebpf4jnsgd1na2vs0mg"},{"bike_id":"7ebb9208-408c-46db-9430-3e5cd5b669fd","system_id":"levelo_inurba_marseille","lat":43.28493,"lon":5.38556,"is_reserved":false,"is_disabled":false,"rental_uris":{"android":"levelo://app?vid=7ebb9208-408c-46db-9430-3e5cd5b669fd","ios":"levelo://app?vid=7ebb9208-408c-46db-9430-3e5cd5b669fd"},"vehicle_type_id":"4","last_reported":1729483934,"current_range_meters":8800,"station_id":"ce4bh8p2rcd13ifvqeb0","pricing_plan_id":"cebpf4jnsgd1na2vs0mg"},{"bike_id":"1104b19b-39e4-4f3f-a954-dd9a3478dd76","system_id":"levelo_inurba_marseille","lat":43.29223,"lon":5.36049,"is_reserved":false,"is_disabled":false,"rental_uris":{"android":"levelo://app?vid=1104b19b-39e4-4f3f-a954-dd9a3478dd76","ios":"levelo://app?vid=1104b19b-39e4-4f3f-a954-dd9a3478dd76"},"vehicle_type_id":"4","last_reported":1729483934,"current_range_meters":28000,"station_id":"ce4bhbh2rcd13ifvqeqg","pricing_plan_id":"cebpf4jnsgd1na2vs0mg"},{"bike_id":"f43a0bf8-048d-4cc4-9f8e-71c4531ec7ab","system_id":"levelo_inurba_marseille","lat":43.290312,"lon":5.386525,"is_reserved":false,"is_disabled":false,"rental_uris":{"android":"levelo://app?vid=f43a0bf8-048d-4cc4-9f8e-71c4531ec7ab","ios":"levelo://app?vid=f43a0bf8-048d-4cc4-9f8e-71c4531ec7ab"},"vehicle_type_id":"4","last_reported":1729483934,"current_range_meters":38800,"station_id":"ce4bh4p2rcd13ifvqe0g","pricing_plan_id":"cebpf4jnsgd1na2vs0mg"},{"bike_id":"4dc925a8-b4f5-4141-83f2-55afed4ab843","system_id":"levelo_inurba_marseille","lat":43.28695,"lon":5.37376,"is_reserved":false,"is_disabled":false,"rental_uris":{"android":"levelo://app?vid=4dc925a8-b4f5-4141-83f2-55afed4ab843","ios":"levelo://app?vid=4dc925a8-b4f5-4141-83f2-55afed4ab843"},"vehicle_type_id":"4","last_reported":1729483934,"current_range_meters":27600,"station_id":"ce4bh3p2rcd13ifvqdq0","pricing_plan_id":"cebpf4jnsgd1na2vs0mg"},{"bike_id":"3a90cd5a-8d84-4a1f-9da8-3547bb5d20c1","system_id":"levelo_inurba_marseille","lat":43.231939,"lon":5.355534,"is_reserved":false,"is_disabled":false,"rental_uris":{"android":"levelo://app?vid=3a90cd5a-8d84-4a1f-9da8-3547bb5d20c1","ios":"levelo://app?vid=3a90cd5a-8d84-4a1f-9da8-3547bb5d20c1"},"vehicle_type_id":"4","last_reported":1729483934,"current_range_meters":38800,"station_id":"ce4bhu92rcd13ifvqi70","pricing_plan_id":"cebpf4jnsgd1na2vs0mg"},{"bike_id":"a1d396a3-1842-4ccb-9c35-2fac21ba193b","system_id":"levelo_inurba_marseille","lat":43.32661,"lon":5.40983,"is_reserved":false,"is_disabled":false,"rental_uris":{"android":"levelo://app?vid=a1d396a3-1842-4ccb-9c35-2fac21ba193b","ios":"levelo://app?vid=a1d396a3-1842-4ccb-9c35-2fac21ba193b"},"vehicle_type_id":"4","last_reported":1729483934,"current_range_meters":39200,"station_id":"ce4bhpp2rcd13ifvqhgg","pricing_plan_id":"cebpf4jnsgd1na2vs0mg"},{"bike_id":"6b7c4a79-f2fd-494d-82b1-fb09d7c1f394","system_id":"levelo_inurba_marseille","lat":43.280705,"lon":5.396437,"is_reserved":false,"is_disabled":false,"rental_uris":{"android":"levelo://app?vid=6b7c4a79-f2fd-494d-82b1-fb09d7c1f394","ios":"levelo://app?vid=6b7c4a79-f2fd-494d-82b1-fb09d7c1f394"},"vehicle_type_id":"4","last_reported":1729483934,"current_range_meters":10000,"station_id":"ce4bho12rcd13ifvqh2g","pricing_plan_id":"cebpf4jnsgd1na2vs0mg"},{"bike_id":"bddf1334-d888-40f8-b6e9-18b5529cf0f4","system_id":"levelo_inurba_marseille","lat":43.3167,"lon":5.37542,"is_reserved":false,"is_disabled":false,"rental_uris":{"android":"levelo://app?vid=bddf1334-d888-40f8-b6e9-18b5529cf0f4","ios":"levelo://app?vid=bddf1334-d888-40f8-b6e9-18b5529cf0f4"},"vehicle_type_id":"4","last_reported":1729483934,"current_range_meters":18800,"station_id":"","pricing_plan_id":"cebpf4jnsgd1na2vs0mg"},{"bike_id":"27d7397b-3a64-4c8d-985f-c89fa0625145","system_id":"levelo_inurba_marseille","lat":43.23199,"lon":5.35548,"is_reserved":false,"is_disabled":false,"rental_uris":{"android":"levelo://app?vid=27d7397b-3a64-4c8d-985f-c89fa0625145","ios":"levelo://app?vid=27d7397b-3a64-4c8d-985f-c89fa0625145"},"vehicle_type_id":"4","last_reported":1729483934,"current_range_meters":38800,"station_id":"ce4bhu92rcd13ifvqi70","pricing_plan_id":"cebpf4jnsgd1na2vs0mg"},{"bike_id":"c47ccd47-d873-4fd2-ba35-77b6357180ca","system_id":"levelo_inurba_marseille","lat":43.2811,"lon":5.37845,"is_reserved":false,"is_disabled":false,"rental_uris":{"android":"levelo://app?vid=c47ccd47-d873-4fd2-ba35-77b6357180ca","ios":"levelo://app?vid=c47ccd47-d873-4fd2-ba35-77b6357180ca"},"vehicle_type_id":"4","last_reported":1729483934,"current_range_meters":38800,"station_id":"ce4bha12rcd13ifvqee0","pricing_plan_id":"cebpf4jnsgd1na2vs0mg"},{"bike_id":"8b3574f7-b190-4514-8868-3876eb8fb57f","system_id":"levelo_inurba_marseille","lat":43.28852,"lon":5.35834,"is_reserved":false,"is_disabled":false,"rental_uris":{"android":"levelo://app?vid=8b3574f7-b190-4514-8868-3876eb8fb57f","ios":"levelo://app?vid=8b3574f7-b190-4514-8868-3876eb8fb57f"},"vehicle_type_id":"4","last_reported":1729483934,"current_range_meters":38800,"station_id":"ce4bhb12rcd13ifvqem0","pricing_plan_id":"cebpf4jnsgd1na2vs0mg"},{"bike_id":"4b0e1ae9-90da-4b3c-97a7-9fcaa6ea9192","system_id":"levelo_inurba_marseille","lat":43.281031,"lon":5.378424,"is_reserved":false,"is_disabled":false,"rental_uris":{"android":"levelo://app?vid=4b0e1ae9-90da-4b3c-97a7-9fcaa6ea9192","ios":"levelo://app?vid=4b0e1ae9-90da-4b3c-97a7-9fcaa6ea9192"},"vehicle_type_id":"4","last_reported":1729483934,"current_range_meters":38800,"station_id":"ce4bha12rcd13ifvqee0","pricing_plan_id":"cebpf4jnsgd1na2vs0mg"},{"bike_id":"c03fbd20-86ef-48e9-8de5-9cb4bceff8ae","system_id":"levelo_inurba_marseille","lat":43.31278,"lon":5.40162,"is_reserved":false,"is_disabled":false,"rental_uris":{"android":"levelo://app?vid=c03fbd20-86ef-48e9-8de5-9cb4bceff8ae","ios":"levelo://app?vid=c03fbd20-86ef-48e9-8de5-9cb4bceff8ae"},"vehicle_type_id":"4","last_reported":1729483934,"current_range_meters":29600,"station_id":"ce4bh092rcd13ifvqd30","pricing_plan_id":"cebpf4jnsgd1na2vs0mg"},{"bike_id":"e482943d-14a0-4997-921f-3c820f6545c3","system_id":"levelo_inurba_marseille","lat":43.30647,"lon":5.40073,"is_reserved":false,"is_disabled":false,"rental_uris":{"android":"levelo://app?vid=e482943d-14a0-4997-921f-3c820f6545c3","ios":"levelo://app?vid=e482943d-14a0-4997-921f-3c820f6545c3"},"vehicle_type_id":"4","last_reported":1729483934,"current_range_meters":38800,"station_id":"ce4bh112rcd13ifvqda0","pricing_plan_id":"cebpf4jnsgd1na2vs0mg"},{"bike_id":"61f6fcba-0270-4e6f-bab2-fc32e0baeaf0","system_id":"levelo_inurba_marseille","lat":43.281076,"lon":5.378381,"is_reserved":false,"is_disabled":false,"rental_uris":{"android":"levelo://app?vid=61f6fcba-0270-4e6f-bab2-fc32e0baeaf0","ios":"levelo://app?vid=61f6fcba-0270-4e6f-bab2-fc32e0baeaf0"},"vehicle_type_id":"4","last_reported":1729483934,"current_range_meters":38800,"station_id":"ce4bha12rcd13ifvqee0","pricing_plan_id":"cebpf4jnsgd1na2vs0mg"},{"bike_id":"b7a735d7-f1dd-4ee6-9916-5d65507bb1f6","system_id":"levelo_inurba_marseille","lat":43.33608,"lon":5.41032,"is_reserved":false,"is_disabled":false,"rental_uris":{"android":"levelo://app?vid=b7a735d7-f1dd-4ee6-9916-5d65507bb1f6","ios":"levelo://app?vid=b7a735d7-f1dd-4ee6-9916-5d65507bb1f6"},"vehicle_type_id":"4","last_reported":1729483934,"current_range_meters":32800,"station_id":"ce4bhqh2rcd13ifvqhmg","pricing_plan_id":"cebpf4jnsgd1na2vs0mg"},{"bike_id":"3213665e-989c-4d22-9f5a-31c8522597dd","system_id":"levelo_inurba_marseille","lat":43.296,"lon":5.36142,"is_reserved":false,"is_disabled":false,"rental_uris":{"android":"levelo://app?vid=3213665e-989c-4d22-9f5a-31c8522597dd","ios":"levelo://app?vid=3213665e-989c-4d22-9f5a-31c8522597dd"},"vehicle_type_id":"4","last_reported":1729483934,"current_range_meters":12000,"station_id":"","pricing_plan_id":"cebpf4jnsgd1na2vs0mg"},{"bike_id":"4546d267-cf99-417e-9f1c-03a8c7b874d3","system_id":"levelo_inurba_marseille","lat":43.30151,"lon":5.38075,"is_reserved":false,"is_disabled":false,"rental_uris":{"android":"levelo://app?vid=4546d267-cf99-417e-9f1c-03a8c7b874d3","ios":"levelo://app?vid=4546d267-cf99-417e-9f1c-03a8c7b874d3"},"vehicle_type_id":"4","last_reported":1729483934,"current_range_meters":32800,"station_id":"ce4bgjp2rcd13ifvqbh0","pricing_plan_id":"cebpf4jnsgd1na2vs0mg"},{"bike_id":"584f6c19-9858-4b93-836c-f01a970b5e91","system_id":"levelo_inurba_marseille","lat":43.30474,"lon":5.37895,"is_reserved":false,"is_disabled":false,"rental_uris":{"android":"levelo://app?vid=584f6c19-9858-4b93-836c-f01a970b5e91","ios":"levelo://app?vid=584f6c19-9858-4b93-836c-f01a970b5e91"},"vehicle_type_id":"4","last_reported":1729483934,"current_range_meters":26000,"station_id":"ce4bgup2rcd13ifvqcn0","pricing_plan_id":"cebpf4jnsgd1na2vs0mg"},{"bike_id":"e0f52fbe-2799-4b21-adf4-9f6f2a2a4a15","system_id":"levelo_inurba_marseille","lat":43.31343,"lon":5.36717,"is_reserved":false,"is_disabled":false,"rental_uris":{"android":"levelo://app?vid=e0f52fbe-2799-4b21-adf4-9f6f2a2a4a15","ios":"levelo://app?vid=e0f52fbe-2799-4b21-adf4-9f6f2a2a4a15"},"vehicle_type_id":"4","last_reported":1729483934,"current_range_meters":38800,"station_id":"ce4bgr92rcd13ifvqc6g","pricing_plan_id":"cebpf4jnsgd1na2vs0mg"},{"bike_id":"9a2117f0-c5b0-4dc2-891b-026a24af23f1","system_id":"levelo_inurba_marseille","lat":43.3105,"lon":5.40092,"is_reserved":false,"is_disabled":false,"rental_uris":{"android":"levelo://app?vid=9a2117f0-c5b0-4dc2-891b-026a24af23f1","ios":"levelo://app?vid=9a2117f0-c5b0-4dc2-891b-026a24af23f1"},"vehicle_type_id":"4","last_reported":1729483934,"current_range_meters":32800,"station_id":"","pricing_plan_id":"cebpf4jnsgd1na2vs0mg"},{"bike_id":"150b2076-fa3d-4436-b76f-3b9f9d8be659","system_id":"levelo_inurba_marseille","lat":43.33612,"lon":5.4103,"is_reserved":false,"is_disabled":false,"rental_uris":{"android":"levelo://app?vid=150b2076-fa3d-4436-b76f-3b9f9d8be659","ios":"levelo://app?vid=150b2076-fa3d-4436-b76f-3b9f9d8be659"},"vehicle_type_id":"4","last_reported":1729483934,"current_range_meters":38800,"station_id":"ce4bhqh2rcd13ifvqhmg","pricing_plan_id":"cebpf4jnsgd1na2vs0mg"},{"bike_id":"85c464d2-b6dd-40c8-826b-f01a6bbc92a3","system_id":"levelo_inurba_marseille","lat":43.28468,"lon":5.35873,"is_reserved":false,"is_disabled":false,"rental_uris":{"android":"levelo://app?vid=85c464d2-b6dd-40c8-826b-f01a6bbc92a3","ios":"levelo://app?vid=85c464d2-b6dd-40c8-826b-f01a6bbc92a3"},"vehicle_type_id":"4","last_reported":1729483934,"current_range_meters":11600,"station_id":"ce4bhah2rcd13ifvqei0","pricing_plan_id":"cebpf4jnsgd1na2vs0mg"},{"bike_id":"2cfc7470-0924-496d-a1c3-b7271900a5b5","system_id":"levelo_inurba_marseille","lat":43.231941,"lon":5.355509,"is_reserved":false,"is_disabled":false,"rental_uris":{"android":"levelo://app?vid=2cfc7470-0924-496d-a1c3-b7271900a5b5","ios":"levelo://app?vid=2cfc7470-0924-496d-a1c3-b7271900a5b5"},"vehicle_type_id":"4","last_reported":1729483934,"current_range_meters":18000,"station_id":"ce4bhu92rcd13ifvqi70","pricing_plan_id":"cebpf4jnsgd1na2vs0mg"},{"bike_id":"aff3f06a-2b37-4af9-b818-32fc77ae61ee","system_id":"levelo_inurba_marseille","lat":43.29006,"lon":5.35612,"is_reserved":false,"is_disabled":false,"rental_uris":{"android":"levelo://app?vid=aff3f06a-2b37-4af9-b818-32fc77ae61ee","ios":"levelo://app?vid=aff3f06a-2b37-4af9-b818-32fc77ae61ee"},"vehicle_type_id":"4","last_reported":1729483934,"current_range_meters":37600,"station_id":"ce4bhb92rcd13ifvqen0","pricing_plan_id":"cebpf4jnsgd1na2vs0mg"},{"bike_id":"4c1d2f6a-1a95-4141-8232-9b31cb9bf249","system_id":"levelo_inurba_marseille","lat":43.26949,"lon":5.40252,"is_reserved":false,"is_disabled":false,"rental_uris":{"android":"levelo://app?vid=4c1d2f6a-1a95-4141-8232-9b31cb9bf249","ios":"levelo://app?vid=4c1d2f6a-1a95-4141-8232-9b31cb9bf249"},"vehicle_type_id":"4","last_reported":1729483934,"current_range_meters":28800,"station_id":"cjm6bp8fraef2m0cb0m0","pricing_plan_id":"cebpf4jnsgd1na2vs0mg"},{"bike_id":"c294329c-67d3-4719-8415-ae0d1f00af5d","system_id":"levelo_inurba_marseille","lat":43.25583,"lon":5.38239,"is_reserved":false,"is_disabled":false,"rental_uris":{"android":"levelo://app?vid=c294329c-67d3-4719-8415-ae0d1f00af5d","ios":"levelo://app?vid=c294329c-67d3-4719-8415-ae0d1f00af5d"},"vehicle_type_id":"4","last_reported":1729483934,"current_range_meters":24400,"station_id":"ce4bhih2rcd13ifvqfs0","pricing_plan_id":"cebpf4jnsgd1na2vs0mg"},{"bike_id":"5d5ca3e6-06a9-4ef4-88f8-e8d21bffc448","system_id":"levelo_inurba_marseille","lat":43.32347,"lon":5.40622,"is_reserved":false,"is_disabled":false,"rental_uris":{"android":"levelo://app?vid=5d5ca3e6-06a9-4ef4-88f8-e8d21bffc448","ios":"levelo://app?vid=5d5ca3e6-06a9-4ef4-88f8-e8d21bffc448"},"vehicle_type_id":"4","last_reported":1729483934,"current_range_meters":38800,"station_id":"ce4bhq92rcd13ifvqhjg","pricing_plan_id":"cebpf4jnsgd1na2vs0mg"},{"bike_id":"e9b0811a-76ac-4495-b381-390cc9f46d09","system_id":"levelo_inurba_marseille","lat":43.28483,"lon":5.38533,"is_reserved":false,"is_disabled":false,"rental_uris":{"android":"levelo://app?vid=e9b0811a-76ac-4495-b381-390cc9f46d09","ios":"levelo://app?vid=e9b0811a-76ac-4495-b381-390cc9f46d09"},"vehicle_type_id":"4","last_reported":1729483934,"current_range_meters":14800,"station_id":"ce4bh8p2rcd13ifvqeb0","pricing_plan_id":"cebpf4jnsgd1na2vs0mg"},{"bike_id":"ac69515a-2b4c-4f03-b511-e10ff5d0241f","system_id":"levelo_inurba_marseille","lat":43.3088,"lon":5.37183,"is_reserved":false,"is_disabled":false,"rental_uris":{"android":"levelo://app?vid=ac69515a-2b4c-4f03-b511-e10ff5d0241f","ios":"levelo://app?vid=ac69515a-2b4c-4f03-b511-e10ff5d0241f"},"vehicle_type_id":"4","last_reported":1729483934,"current_range_meters":13600,"station_id":"ce4bguh2rcd13ifvqckg","pricing_plan_id":"cebpf4jnsgd1na2vs0mg"},{"bike_id":"9b0cae09-aed8-4c2a-872b-df83b11d6d51","system_id":"levelo_inurba_marseille","lat":43.29981,"lon":5.37174,"is_reserved":false,"is_disabled":false,"rental_uris":{"android":"levelo://app?vid=9b0cae09-aed8-4c2a-872b-df83b11d6d51","ios":"levelo://app?vid=9b0cae09-aed8-4c2a-872b-df83b11d6d51"},"vehicle_type_id":"4","last_reported":1729483934,"current_range_meters":38400,"station_id":"ce4bgr92rcd13ifvqc7g","pricing_plan_id":"cebpf4jnsgd1na2vs0mg"},{"bike_id":"836dc57c-4fbc-47b4-b795-4de826fbae87","system_id":"levelo_inurba_marseille","lat":43.28463,"lon":5.35879,"is_reserved":false,"is_disabled":false,"rental_uris":{"android":"levelo://app?vid=836dc57c-4fbc-47b4-b795-4de826fbae87","ios":"levelo://app?vid=836dc57c-4fbc-47b4-b795-4de826fbae87"},"vehicle_type_id":"4","last_reported":1729483934,"current_range_meters":36400,"station_id":"ce4bhah2rcd13ifvqei0","pricing_plan_id":"cebpf4jnsgd1na2vs0mg"},{"bike_id":"12bd3036-1eeb-409e-83a9-f84f7c98205c","system_id":"levelo_inurba_marseille","lat":43.27617,"lon":5.36111,"is_reserved":false,"is_disabled":false,"rental_uris":{"android":"levelo://app?vid=12bd3036-1eeb-409e-83a9-f84f7c98205c","ios":"levelo://app?vid=12bd3036-1eeb-409e-83a9-f84f7c98205c"},"vehicle_type_id":"4","last_reported":1729483934,"current_range_meters":38800,"station_id":"ce4bgj92rcd13ifvqbe0","pricing_plan_id":"cebpf4jnsgd1na2vs0mg"},{"bike_id":"e034a4d4-a638-4801-9cff-fe6d11104dae","system_id":"levelo_inurba_marseille","lat":43.26788,"lon":5.39414,"is_reserved":false,"is_disabled":false,"rental_uris":{"android":"levelo://app?vid=e034a4d4-a638-4801-9cff-fe6d11104dae","ios":"levelo://app?vid=e034a4d4-a638-4801-9cff-fe6d11104dae"},"vehicle_type_id":"4","last_reported":1729483934,"current_range_meters":33600,"station_id":"ce4bhh12rcd13ifvqfg0","pricing_plan_id":"cebpf4jnsgd1na2vs0mg"},{"bike_id":"64b5b501-4c48-4b53-9a0e-1d299de56090","system_id":"levelo_inurba_marseille","lat":43.27973,"lon":5.38743,"is_reserved":false,"is_disabled":false,"rental_uris":{"android":"levelo://app?vid=64b5b501-4c48-4b53-9a0e-1d299de56090","ios":"levelo://app?vid=64b5b501-4c48-4b53-9a0e-1d299de56090"},"vehicle_type_id":"4","last_reported":1729483934,"current_range_meters":38800,"station_id":"ce4bhg12rcd13ifvqf80","pricing_plan_id":"cebpf4jnsgd1na2vs0mg"},{"bike_id":"6b4e08e6-d788-4a9b-85e2-6d7bc80fe1b5","system_id":"levelo_inurba_marseille","lat":43.29541,"lon":5.386395,"is_reserved":false,"is_disabled":false,"rental_uris":{"android":"levelo://app?vid=6b4e08e6-d788-4a9b-85e2-6d7bc80fe1b5","ios":"levelo://app?vid=6b4e08e6-d788-4a9b-85e2-6d7bc80fe1b5"},"vehicle_type_id":"4","last_reported":1729483934,"current_range_meters":30000,"station_id":"ce4bh0h2rcd13ifvqd60","pricing_plan_id":"cebpf4jnsgd1na2vs0mg"},{"bike_id":"aa677082-fed9-45db-a682-4d60a5639f85","system_id":"levelo_inurba_marseille","lat":43.30054,"lon":5.37035,"is_reserved":false,"is_disabled":false,"rental_uris":{"android":"levelo://app?vid=aa677082-fed9-45db-a682-4d60a5639f85","ios":"levelo://app?vid=aa677082-fed9-45db-a682-4d60a5639f85"},"vehicle_type_id":"4","last_reported":1729483934,"current_range_meters":28800,"station_id":"","pricing_plan_id":"cebpf4jnsgd1na2vs0mg"},{"bike_id":"94c753d5-5c6c-452e-a079-005102ca8c45","system_id":"levelo_inurba_marseille","lat":43.29042,"lon":5.35908,"is_reserved":false,"is_disabled":false,"rental_uris":{"android":"levelo://app?vid=94c753d5-5c6c-452e-a079-005102ca8c45","ios":"levelo://app?vid=94c753d5-5c6c-452e-a079-005102ca8c45"},"vehicle_type_id":"4","last_reported":1729483934,"current_range_meters":38800,"station_id":"ce4bha92rcd13ifvqeg0","pricing_plan_id":"cebpf4jnsgd1na2vs0mg"},{"bike_id":"6ac2a2e1-1b55-4a6c-8aed-bc4ee6d35ef1","system_id":"levelo_inurba_marseille","lat":43.31495,"lon":5.37296,"is_reserved":false,"is_disabled":false,"rental_uris":{"android":"levelo://app?vid=6ac2a2e1-1b55-4a6c-8aed-bc4ee6d35ef1","ios":"levelo://app?vid=6ac2a2e1-1b55-4a6c-8aed-bc4ee6d35ef1"},"vehicle_type_id":"4","last_reported":1729483934,"current_range_meters":38800,"station_id":"ce4bgt12rcd13ifvqcd0","pricing_plan_id":"cebpf4jnsgd1na2vs0mg"},{"bike_id":"4b795ddd-92d3-4e25-9485-892a18256e35","system_id":"levelo_inurba_marseille","lat":43.281496,"lon":5.4265,"is_reserved":false,"is_disabled":false,"rental_uris":{"android":"levelo://app?vid=4b795ddd-92d3-4e25-9485-892a18256e35","ios":"levelo://app?vid=4b795ddd-92d3-4e25-9485-892a18256e35"},"vehicle_type_id":"4","last_reported":1729483934,"current_range_meters":38400,"station_id":"ce4bhnh2rcd13ifvqgug","pricing_plan_id":"cebpf4jnsgd1na2vs0mg"},{"bike_id":"eaaa5fbc-63f7-46b3-b6d4-fd6dc86ad4e8","system_id":"levelo_inurba_marseille","lat":43.23955,"lon":5.36627,"is_reserved":false,"is_disabled":false,"rental_uris":{"android":"levelo://app?vid=eaaa5fbc-63f7-46b3-b6d4-fd6dc86ad4e8","ios":"levelo://app?vid=eaaa5fbc-63f7-46b3-b6d4-fd6dc86ad4e8"},"vehicle_type_id":"4","last_reported":1729483934,"current_range_meters":38000,"station_id":"ce4bhi12rcd13ifvqfp0","pricing_plan_id":"cebpf4jnsgd1na2vs0mg"},{"bike_id":"fdd4ca64-7354-4bd8-858b-84253a5ed2f9","system_id":"levelo_inurba_marseille","lat":43.33607,"lon":5.41024,"is_reserved":false,"is_disabled":false,"rental_uris":{"android":"levelo://app?vid=fdd4ca64-7354-4bd8-858b-84253a5ed2f9","ios":"levelo://app?vid=fdd4ca64-7354-4bd8-858b-84253a5ed2f9"},"vehicle_type_id":"4","last_reported":1729483934,"current_range_meters":27200,"station_id":"ce4bhqh2rcd13ifvqhmg","pricing_plan_id":"cebpf4jnsgd1na2vs0mg"},{"bike_id":"2a8cfce5-93d5-4a5e-832b-148482060dca","system_id":"levelo_inurba_marseille","lat":43.32366,"lon":5.38881,"is_reserved":false,"is_disabled":false,"rental_uris":{"android":"levelo://app?vid=2a8cfce5-93d5-4a5e-832b-148482060dca","ios":"levelo://app?vid=2a8cfce5-93d5-4a5e-832b-148482060dca"},"vehicle_type_id":"4","last_reported":1729483934,"current_range_meters":23200,"station_id":"ce4bhqp2rcd13ifvqhog","pricing_plan_id":"cebpf4jnsgd1na2vs0mg"},{"bike_id":"115e3db0-037e-43f4-8fed-cc520aa5d554","system_id":"levelo_inurba_marseille","lat":43.31369,"lon":5.38491,"is_reserved":false,"is_disabled":false,"rental_uris":{"android":"levelo://app?vid=115e3db0-037e-43f4-8fed-cc520aa5d554","ios":"levelo://app?vid=115e3db0-037e-43f4-8fed-cc520aa5d554"},"vehicle_type_id":"4","last_reported":1729483934,"current_range_meters":37600,"station_id":"ce4bgt92rcd13ifvqcf0","pricing_plan_id":"cebpf4jnsgd1na2vs0mg"},{"bike_id":"e75139cd-0b24-45ea-9021-32b59ec58ebd","system_id":"levelo_inurba_marseille","lat":43.24802,"lon":5.37454,"is_reserved":false,"is_disabled":false,"rental_uris":{"android":"levelo://app?vid=e75139cd-0b24-45ea-9021-32b59ec58ebd","ios":"levelo://app?vid=e75139cd-0b24-45ea-9021-32b59ec58ebd"},"vehicle_type_id":"4","last_reported":1729483934,"current_range_meters":38800,"station_id":"ce4bhgh2rcd13ifvqfb0","pricing_plan_id":"cebpf4jnsgd1na2vs0mg"},{"bike_id":"7687bc4e-3700-4f62-8b3c-d51151c2d9f9","system_id":"levelo_inurba_marseille","lat":43.26775,"lon":5.39428,"is_reserved":false,"is_disabled":false,"rental_uris":{"android":"levelo://app?vid=7687bc4e-3700-4f62-8b3c-d51151c2d9f9","ios":"levelo://app?vid=7687bc4e-3700-4f62-8b3c-d51151c2d9f9"},"vehicle_type_id":"4","last_reported":1729483934,"current_range_meters":33600,"station_id":"ce4bhh12rcd13ifvqfg0","pricing_plan_id":"cebpf4jnsgd1na2vs0mg"},{"bike_id":"b2c1343a-3efb-4af2-8d17-530273fb49cc","system_id":"levelo_inurba_marseille","lat":43.336,"lon":5.41021,"is_reserved":false,"is_disabled":false,"rental_uris":{"android":"levelo://app?vid=b2c1343a-3efb-4af2-8d17-530273fb49cc","ios":"levelo://app?vid=b2c1343a-3efb-4af2-8d17-530273fb49cc"},"vehicle_type_id":"4","last_reported":1729483934,"current_range_meters":2800,"station_id":"ce4bhqh2rcd13ifvqhmg","pricing_plan_id":"cebpf4jnsgd1na2vs0mg"},{"bike_id":"af95ced9-5b43-46e2-bfd7-64cf80b53320","system_id":"levelo_inurba_marseille","lat":43.31328,"lon":5.39696,"is_reserved":false,"is_disabled":false,"rental_uris":{"android":"levelo://app?vid=af95ced9-5b43-46e2-bfd7-64cf80b53320","ios":"levelo://app?vid=af95ced9-5b43-46e2-bfd7-64cf80b53320"},"vehicle_type_id":"4","last_reported":1729483934,"current_range_meters":29600,"station_id":"ce4bgvp2rcd13ifvqcu0","pricing_plan_id":"cebpf4jnsgd1na2vs0mg"},{"bike_id":"9cb0d92f-3b5d-4604-bbb8-cf8f5daee3e0","system_id":"levelo_inurba_marseille","lat":43.24656,"lon":5.38891,"is_reserved":false,"is_disabled":false,"rental_uris":{"android":"levelo://app?vid=9cb0d92f-3b5d-4604-bbb8-cf8f5daee3e0","ios":"levelo://app?vid=9cb0d92f-3b5d-4604-bbb8-cf8f5daee3e0"},"vehicle_type_id":"4","last_reported":1729483934,"current_range_meters":36400,"station_id":"ce4bhg12rcd13ifvqf60","pricing_plan_id":"cebpf4jnsgd1na2vs0mg"},{"bike_id":"fccb27b3-90f4-4411-a56b-003b7acda73c","system_id":"levelo_inurba_marseille","lat":43.2815,"lon":5.4264,"is_reserved":false,"is_disabled":false,"rental_uris":{"android":"levelo://app?vid=fccb27b3-90f4-4411-a56b-003b7acda73c","ios":"levelo://app?vid=fccb27b3-90f4-4411-a56b-003b7acda73c"},"vehicle_type_id":"4","last_reported":1729483934,"current_range_meters":29600,"station_id":"ce4bhnh2rcd13ifvqgug","pricing_plan_id":"cebpf4jnsgd1na2vs0mg"},{"bike_id":"282935c4-43ab-4b54-8fd3-5b03ec7ae879","system_id":"levelo_inurba_marseille","lat":43.27998,"lon":5.40014,"is_reserved":false,"is_disabled":false,"rental_uris":{"android":"levelo://app?vid=282935c4-43ab-4b54-8fd3-5b03ec7ae879","ios":"levelo://app?vid=282935c4-43ab-4b54-8fd3-5b03ec7ae879"},"vehicle_type_id":"4","last_reported":1729483934,"current_range_meters":37600,"station_id":"ce4bho92rcd13ifvqh4g","pricing_plan_id":"cebpf4jnsgd1na2vs0mg"},{"bike_id":"af00502d-b5af-402e-bab9-2b06b78e3677","system_id":"levelo_inurba_marseille","lat":43.31115,"lon":5.3776,"is_reserved":false,"is_disabled":false,"rental_uris":{"android":"levelo://app?vid=af00502d-b5af-402e-bab9-2b06b78e3677","ios":"levelo://app?vid=af00502d-b5af-402e-bab9-2b06b78e3677"},"vehicle_type_id":"4","last_reported":1729483934,"current_range_meters":5600,"station_id":"ce4bgt92rcd13ifvqcg0","pricing_plan_id":"cebpf4jnsgd1na2vs0mg"},{"bike_id":"d863885c-9de8-4c1e-b0fe-4dac0fde31c8","system_id":"levelo_inurba_marseille","lat":43.26195,"lon":5.37448,"is_reserved":false,"is_disabled":false,"rental_uris":{"android":"levelo://app?vid=d863885c-9de8-4c1e-b0fe-4dac0fde31c8","ios":"levelo://app?vid=d863885c-9de8-4c1e-b0fe-4dac0fde31c8"},"vehicle_type_id":"4","last_reported":1729483934,"current_range_meters":36000,"station_id":"ce4bhgp2rcd13ifvqfc0","pricing_plan_id":"cebpf4jnsgd1na2vs0mg"},{"bike_id":"1683d216-d715-408c-8da1-7acbf6f7c18e","system_id":"levelo_inurba_marseille","lat":43.28707,"lon":5.39979,"is_reserved":false,"is_disabled":false,"rental_uris":{"android":"levelo://app?vid=1683d216-d715-408c-8da1-7acbf6f7c18e","ios":"levelo://app?vid=1683d216-d715-408c-8da1-7acbf6f7c18e"},"vehicle_type_id":"4","last_reported":1729483934,"current_range_meters":38800,"station_id":"ce4bho92rcd13ifvqh3g","pricing_plan_id":"cebpf4jnsgd1na2vs0mg"},{"bike_id":"95ea7d9c-aa30-40c7-9fc3-d9eebe2c05b7","system_id":"levelo_inurba_marseille","lat":43.29278,"lon":5.40129,"is_reserved":false,"is_disabled":false,"rental_uris":{"android":"levelo://app?vid=95ea7d9c-aa30-40c7-9fc3-d9eebe2c05b7","ios":"levelo://app?vid=95ea7d9c-aa30-40c7-9fc3-d9eebe2c05b7"},"vehicle_type_id":"4","last_reported":1729483934,"current_range_meters":38800,"station_id":"ce4bh312rcd13ifvqdk0","pricing_plan_id":"cebpf4jnsgd1na2vs0mg"},{"bike_id":"cb0295a3-c7cd-4322-8777-42cb8fba286e","system_id":"levelo_inurba_marseille","lat":43.27057,"lon":5.40258,"is_reserved":false,"is_disabled":false,"rental_uris":{"android":"levelo://app?vid=cb0295a3-c7cd-4322-8777-42cb8fba286e","ios":"levelo://app?vid=cb0295a3-c7cd-4322-8777-42cb8fba286e"},"vehicle_type_id":"4","last_reported":1729483934,"current_range_meters":35200,"station_id":"ce4bhk92rcd13ifvqgc0","pricing_plan_id":"cebpf4jnsgd1na2vs0mg"},{"bike_id":"a833175e-1305-4b25-99ef-69e8de6efc8f","system_id":"levelo_inurba_marseille","lat":43.337271,"lon":5.391853,"is_reserved":false,"is_disabled":false,"rental_uris":{"android":"levelo://app?vid=a833175e-1305-4b25-99ef-69e8de6efc8f","ios":"levelo://app?vid=a833175e-1305-4b25-99ef-69e8de6efc8f"},"vehicle_type_id":"4","last_reported":1729483934,"current_range_meters":28400,"station_id":"ce4bhr92rcd13ifvqhsg","pricing_plan_id":"cebpf4jnsgd1na2vs0mg"},{"bike_id":"c45fe0be-d587-41d6-a0e3-3d22e2e72fb2","system_id":"levelo_inurba_marseille","lat":43.30325,"lon":5.4044,"is_reserved":false,"is_disabled":false,"rental_uris":{"android":"levelo://app?vid=c45fe0be-d587-41d6-a0e3-3d22e2e72fb2","ios":"levelo://app?vid=c45fe0be-d587-41d6-a0e3-3d22e2e72fb2"},"vehicle_type_id":"4","last_reported":1729483934,"current_range_meters":8000,"station_id":"ce4bh012rcd13ifvqd10","pricing_plan_id":"cebpf4jnsgd1na2vs0mg"},{"bike_id":"5e414d47-9a54-41ab-99e2-4c32a12b898f","system_id":"levelo_inurba_marseille","lat":43.31283,"lon":5.40166,"is_reserved":false,"is_disabled":false,"rental_uris":{"android":"levelo://app?vid=5e414d47-9a54-41ab-99e2-4c32a12b898f","ios":"levelo://app?vid=5e414d47-9a54-41ab-99e2-4c32a12b898f"},"vehicle_type_id":"4","last_reported":1729483934,"current_range_meters":38800,"station_id":"ce4bh092rcd13ifvqd30","pricing_plan_id":"cebpf4jnsgd1na2vs0mg"},{"bike_id":"adea3a59-bfe3-4359-9707-8838ade5bc09","system_id":"levelo_inurba_marseille","lat":43.28411,"lon":5.37578,"is_reserved":false,"is_disabled":false,"rental_uris":{"android":"levelo://app?vid=adea3a59-bfe3-4359-9707-8838ade5bc09","ios":"levelo://app?vid=adea3a59-bfe3-4359-9707-8838ade5bc09"},"vehicle_type_id":"4","last_reported":1729483934,"current_range_meters":32800,"station_id":"","pricing_plan_id":"cebpf4jnsgd1na2vs0mg"},{"bike_id":"4cf3e5d8-4f9a-4007-b965-622ecd99339e","system_id":"levelo_inurba_marseille","lat":43.31074,"lon":5.40085,"is_reserved":false,"is_disabled":false,"rental_uris":{"android":"levelo://app?vid=4cf3e5d8-4f9a-4007-b965-622ecd99339e","ios":"levelo://app?vid=4cf3e5d8-4f9a-4007-b965-622ecd99339e"},"vehicle_type_id":"4","last_reported":1729483934,"current_range_meters":6000,"station_id":"","pricing_plan_id":"cebpf4jnsgd1na2vs0mg"},{"bike_id":"3de5f9c6-824d-4fba-b9de-50e1c84c4cf7","system_id":"levelo_inurba_marseille","lat":43.28703,"lon":5.39971,"is_reserved":false,"is_disabled":false,"rental_uris":{"android":"levelo://app?vid=3de5f9c6-824d-4fba-b9de-50e1c84c4cf7","ios":"levelo://app?vid=3de5f9c6-824d-4fba-b9de-50e1c84c4cf7"},"vehicle_type_id":"4","last_reported":1729483934,"current_range_meters":39200,"station_id":"ce4bho92rcd13ifvqh3g","pricing_plan_id":"cebpf4jnsgd1na2vs0mg"},{"bike_id":"9421caad-2551-42be-b07b-74158ccb9f29","system_id":"levelo_inurba_marseille","lat":43.30883,"lon":5.3719,"is_reserved":false,"is_disabled":false,"rental_uris":{"android":"levelo://app?vid=9421caad-2551-42be-b07b-74158ccb9f29","ios":"levelo://app?vid=9421caad-2551-42be-b07b-74158ccb9f29"},"vehicle_type_id":"4","last_reported":1729483934,"current_range_meters":26800,"station_id":"ce4bguh2rcd13ifvqckg","pricing_plan_id":"cebpf4jnsgd1na2vs0mg"},{"bike_id":"eb28c191-e5cc-4e35-8818-10ea0b1447e3","system_id":"levelo_inurba_marseille","lat":43.303103,"lon":5.369117,"is_reserved":false,"is_disabled":false,"rental_uris":{"android":"levelo://app?vid=eb28c191-e5cc-4e35-8818-10ea0b1447e3","ios":"levelo://app?vid=eb28c191-e5cc-4e35-8818-10ea0b1447e3"},"vehicle_type_id":"4","last_reported":1729483934,"current_range_meters":38000,"station_id":"ce4bgqh2rcd13ifvqc5g","pricing_plan_id":"cebpf4jnsgd1na2vs0mg"},{"bike_id":"0c4c2a72-670f-4370-9b5d-a23174c51507","system_id":"levelo_inurba_marseille","lat":43.29919,"lon":5.38144,"is_reserved":false,"is_disabled":false,"rental_uris":{"android":"levelo://app?vid=0c4c2a72-670f-4370-9b5d-a23174c51507","ios":"levelo://app?vid=0c4c2a72-670f-4370-9b5d-a23174c51507"},"vehicle_type_id":"4","last_reported":1729483934,"current_range_meters":38400,"station_id":"ce4bgj12rcd13ifvqbc0","pricing_plan_id":"cebpf4jnsgd1na2vs0mg"},{"bike_id":"2afa9398-54a2-4161-bdfe-0b17240da32e","system_id":"levelo_inurba_marseille","lat":43.28701,"lon":5.39984,"is_reserved":false,"is_disabled":false,"rental_uris":{"android":"levelo://app?vid=2afa9398-54a2-4161-bdfe-0b17240da32e","ios":"levelo://app?vid=2afa9398-54a2-4161-bdfe-0b17240da32e"},"vehicle_type_id":"4","last_reported":1729483934,"current_range_meters":38000,"station_id":"ce4bho92rcd13ifvqh3g","pricing_plan_id":"cebpf4jnsgd1na2vs0mg"},{"bike_id":"a9497fe1-bc20-4783-aa3c-fbb63f514484","system_id":"levelo_inurba_marseille","lat":43.30536,"lon":5.36554,"is_reserved":false,"is_disabled":false,"rental_uris":{"android":"levelo://app?vid=a9497fe1-bc20-4783-aa3c-fbb63f514484","ios":"levelo://app?vid=a9497fe1-bc20-4783-aa3c-fbb63f514484"},"vehicle_type_id":"4","last_reported":1729483934,"current_range_meters":14400,"station_id":"ce4bgs12rcd13ifvqcag","pricing_plan_id":"cebpf4jnsgd1na2vs0mg"},{"bike_id":"d03065e2-5959-404d-a685-6d8313b408e6","system_id":"levelo_inurba_marseille","lat":43.26951,"lon":5.38629,"is_reserved":false,"is_disabled":false,"rental_uris":{"android":"levelo://app?vid=d03065e2-5959-404d-a685-6d8313b408e6","ios":"levelo://app?vid=d03065e2-5959-404d-a685-6d8313b408e6"},"vehicle_type_id":"4","last_reported":1729483934,"current_range_meters":30800,"station_id":"ce4bhh92rcd13ifvqfh0","pricing_plan_id":"cebpf4jnsgd1na2vs0mg"},{"bike_id":"e76cac2c-c290-4d17-9cd1-18f79aafb7b3","system_id":"levelo_inurba_marseille","lat":43.28371,"lon":5.38628,"is_reserved":false,"is_disabled":false,"rental_uris":{"android":"levelo://app?vid=e76cac2c-c290-4d17-9cd1-18f79aafb7b3","ios":"levelo://app?vid=e76cac2c-c290-4d17-9cd1-18f79aafb7b3"},"vehicle_type_id":"4","last_reported":1729483934,"current_range_meters":38800,"station_id":"ce4bh492rcd13ifvqdvg","pricing_plan_id":"cebpf4jnsgd1na2vs0mg"},{"bike_id":"0ed5e6b9-11e8-474d-83d8-ff3c014d00a9","system_id":"levelo_inurba_marseille","lat":43.31701,"lon":5.37789,"is_reserved":false,"is_disabled":false,"rental_uris":{"android":"levelo://app?vid=0ed5e6b9-11e8-474d-83d8-ff3c014d00a9","ios":"levelo://app?vid=0ed5e6b9-11e8-474d-83d8-ff3c014d00a9"},"vehicle_type_id":"4","last_reported":1729483934,"current_range_meters":24800,"station_id":"ce4bgth2rcd13ifvqch0","pricing_plan_id":"cebpf4jnsgd1na2vs0mg"},{"bike_id":"1a8c6dc3-114a-42a6-9675-a3da6921c3f3","system_id":"levelo_inurba_marseille","lat":43.296866,"lon":5.372874,"is_reserved":false,"is_disabled":false,"rental_uris":{"android":"levelo://app?vid=1a8c6dc3-114a-42a6-9675-a3da6921c3f3","ios":"levelo://app?vid=1a8c6dc3-114a-42a6-9675-a3da6921c3f3"},"vehicle_type_id":"4","last_reported":1729483934,"current_range_meters":38000,"station_id":"ce4bgk12rcd13ifvqbj0","pricing_plan_id":"cebpf4jnsgd1na2vs0mg"},{"bike_id":"544588ac-9264-4072-9f1a-b69be7d61e62","system_id":"levelo_inurba_marseille","lat":43.2811,"lon":5.37834,"is_reserved":false,"is_disabled":false,"rental_uris":{"android":"levelo://app?vid=544588ac-9264-4072-9f1a-b69be7d61e62","ios":"levelo://app?vid=544588ac-9264-4072-9f1a-b69be7d61e62"},"vehicle_type_id":"4","last_reported":1729483934,"current_range_meters":38400,"station_id":"ce4bha12rcd13ifvqee0","pricing_plan_id":"cebpf4jnsgd1na2vs0mg"},{"bike_id":"931da876-d0ed-4146-82c7-6d132f483c10","system_id":"levelo_inurba_marseille","lat":43.32102,"lon":5.36783,"is_reserved":false,"is_disabled":false,"rental_uris":{"android":"levelo://app?vid=931da876-d0ed-4146-82c7-6d132f483c10","ios":"levelo://app?vid=931da876-d0ed-4146-82c7-6d132f483c10"},"vehicle_type_id":"4","last_reported":1729483934,"current_range_meters":38000,"station_id":"ce4bhrh2rcd13ifvqhug","pricing_plan_id":"cebpf4jnsgd1na2vs0mg"},{"bike_id":"a4705844-1af2-4926-b690-9542bead35e7","system_id":"levelo_inurba_marseille","lat":43.25866,"lon":5.39901,"is_reserved":false,"is_disabled":false,"rental_uris":{"android":"levelo://app?vid=a4705844-1af2-4926-b690-9542bead35e7","ios":"levelo://app?vid=a4705844-1af2-4926-b690-9542bead35e7"},"vehicle_type_id":"4","last_reported":1729483934,"current_range_meters":34800,"station_id":"ce4bhl92rcd13ifvqghg","pricing_plan_id":"cebpf4jnsgd1na2vs0mg"},{"bike_id":"bbd7f862-bdaa-4ed6-a19c-0a720ae20bdc","system_id":"levelo_inurba_marseille","lat":43.27072,"lon":5.42265,"is_reserved":false,"is_disabled":false,"rental_uris":{"android":"levelo://app?vid=bbd7f862-bdaa-4ed6-a19c-0a720ae20bdc","ios":"levelo://app?vid=bbd7f862-bdaa-4ed6-a19c-0a720ae20bdc"},"vehicle_type_id":"4","last_reported":1729483934,"current_range_meters":26000,"station_id":"ce4bhk92rcd13ifvqgb0","pricing_plan_id":"cebpf4jnsgd1na2vs0mg"},{"bike_id":"2c262605-a444-40e1-8b27-6a2dcb95d67d","system_id":"levelo_inurba_marseille","lat":43.317614,"lon":5.390178,"is_reserved":false,"is_disabled":false,"rental_uris":{"android":"levelo://app?vid=2c262605-a444-40e1-8b27-6a2dcb95d67d","ios":"levelo://app?vid=2c262605-a444-40e1-8b27-6a2dcb95d67d"},"vehicle_type_id":"4","last_reported":1729483934,"current_range_meters":37600,"station_id":"ce4bhqp2rcd13ifvqhng","pricing_plan_id":"cebpf4jnsgd1na2vs0mg"},{"bike_id":"6eba1120-147e-4bac-b6d9-824faa8df75f","system_id":"levelo_inurba_marseille","lat":43.3133,"lon":5.396988,"is_reserved":false,"is_disabled":false,"rental_uris":{"android":"levelo://app?vid=6eba1120-147e-4bac-b6d9-824faa8df75f","ios":"levelo://app?vid=6eba1120-147e-4bac-b6d9-824faa8df75f"},"vehicle_type_id":"4","last_reported":1729483934,"current_range_meters":30800,"station_id":"ce4bgvp2rcd13ifvqcu0","pricing_plan_id":"cebpf4jnsgd1na2vs0mg"},{"bike_id":"5d04c9cc-1ae5-496c-bf88-2b1d0367378b","system_id":"levelo_inurba_marseille","lat":43.311685,"lon":5.387175,"is_reserved":false,"is_disabled":false,"rental_uris":{"android":"levelo://app?vid=5d04c9cc-1ae5-496c-bf88-2b1d0367378b","ios":"levelo://app?vid=5d04c9cc-1ae5-496c-bf88-2b1d0367378b"},"vehicle_type_id":"4","last_reported":1729483934,"current_range_meters":29600,"station_id":"ce4bgv12rcd13ifvqcp0","pricing_plan_id":"cebpf4jnsgd1na2vs0mg"},{"bike_id":"b122dc9a-f1c9-4551-b961-b2f3ff369bcc","system_id":"levelo_inurba_marseille","lat":43.32335,"lon":5.40619,"is_reserved":false,"is_disabled":false,"rental_uris":{"android":"levelo://app?vid=b122dc9a-f1c9-4551-b961-b2f3ff369bcc","ios":"levelo://app?vid=b122dc9a-f1c9-4551-b961-b2f3ff369bcc"},"vehicle_type_id":"4","last_reported":1729483934,"current_range_meters":6400,"station_id":"ce4bhq92rcd13ifvqhjg","pricing_plan_id":"cebpf4jnsgd1na2vs0mg"},{"bike_id":"b5cd4a32-ddd1-4a1e-9b4c-b2d28ec47ac5","system_id":"levelo_inurba_marseille","lat":43.28108,"lon":5.37831,"is_reserved":false,"is_disabled":false,"rental_uris":{"android":"levelo://app?vid=b5cd4a32-ddd1-4a1e-9b4c-b2d28ec47ac5","ios":"levelo://app?vid=b5cd4a32-ddd1-4a1e-9b4c-b2d28ec47ac5"},"vehicle_type_id":"4","last_reported":1729483934,"current_range_meters":38800,"station_id":"ce4bha12rcd13ifvqee0","pricing_plan_id":"cebpf4jnsgd1na2vs0mg"},{"bike_id":"0c1c7708-b979-4d7e-982d-190e9148b9a6","system_id":"levelo_inurba_marseille","lat":43.2668,"lon":5.38274,"is_reserved":false,"is_disabled":false,"rental_uris":{"android":"levelo://app?vid=0c1c7708-b979-4d7e-982d-190e9148b9a6","ios":"levelo://app?vid=0c1c7708-b979-4d7e-982d-190e9148b9a6"},"vehicle_type_id":"4","last_reported":1729483934,"current_range_meters":36800,"station_id":"ce4bhg92rcd13ifvqf90","pricing_plan_id":"cebpf4jnsgd1na2vs0mg"},{"bike_id":"724c3898-fa40-46b5-a6ca-5091666cabb4","system_id":"levelo_inurba_marseille","lat":43.231917,"lon":5.355465,"is_reserved":false,"is_disabled":false,"rental_uris":{"android":"levelo://app?vid=724c3898-fa40-46b5-a6ca-5091666cabb4","ios":"levelo://app?vid=724c3898-fa40-46b5-a6ca-5091666cabb4"},"vehicle_type_id":"4","last_reported":1729483934,"current_range_meters":38800,"station_id":"ce4bhu92rcd13ifvqi70","pricing_plan_id":"cebpf4jnsgd1na2vs0mg"},{"bike_id":"ab10841d-8e42-41a8-a9b0-1a36ff5954cc","system_id":"levelo_inurba_marseille","lat":43.29277,"lon":5.40127,"is_reserved":false,"is_disabled":false,"rental_uris":{"android":"levelo://app?vid=ab10841d-8e42-41a8-a9b0-1a36ff5954cc","ios":"levelo://app?vid=ab10841d-8e42-41a8-a9b0-1a36ff5954cc"},"vehicle_type_id":"4","last_reported":1729483934,"current_range_meters":38800,"station_id":"ce4bh312rcd13ifvqdk0","pricing_plan_id":"cebpf4jnsgd1na2vs0mg"},{"bike_id":"6b578d3c-d134-48e2-9662-c2d97d97ea58","system_id":"levelo_inurba_marseille","lat":43.31998,"lon":5.3815,"is_reserved":false,"is_disabled":false,"rental_uris":{"android":"levelo://app?vid=6b578d3c-d134-48e2-9662-c2d97d97ea58","ios":"levelo://app?vid=6b578d3c-d134-48e2-9662-c2d97d97ea58"},"vehicle_type_id":"4","last_reported":1729483934,"current_range_meters":37600,"station_id":"ce4bhr12rcd13ifvqhpg","pricing_plan_id":"cebpf4jnsgd1na2vs0mg"},{"bike_id":"4b9a8015-6f91-474f-bde0-01a77bd1a6a5","system_id":"levelo_inurba_marseille","lat":43.30214,"lon":5.39467,"is_reserved":false,"is_disabled":false,"rental_uris":{"android":"levelo://app?vid=4b9a8015-6f91-474f-bde0-01a77bd1a6a5","ios":"levelo://app?vid=4b9a8015-6f91-474f-bde0-01a77bd1a6a5"},"vehicle_type_id":"4","last_reported":1729483934,"current_range_meters":38000,"station_id":"ce4bh0p2rcd13ifvqd70","pricing_plan_id":"cebpf4jnsgd1na2vs0mg"},{"bike_id":"83341eed-4a77-4ec8-936f-2be77f1d3b59","system_id":"levelo_inurba_marseille","lat":43.30209,"lon":5.39461,"is_reserved":false,"is_disabled":false,"rental_uris":{"android":"levelo://app?vid=83341eed-4a77-4ec8-936f-2be77f1d3b59","ios":"levelo://app?vid=83341eed-4a77-4ec8-936f-2be77f1d3b59"},"vehicle_type_id":"4","last_reported":1729483934,"current_range_meters":34000,"station_id":"ce4bh0p2rcd13ifvqd70","pricing_plan_id":"cebpf4jnsgd1na2vs0mg"},{"bike_id":"e6fe4940-a098-49cc-8d38-77b9bd14611a","system_id":"levelo_inurba_marseille","lat":43.3211,"lon":5.36778,"is_reserved":false,"is_disabled":false,"rental_uris":{"android":"levelo://app?vid=e6fe4940-a098-49cc-8d38-77b9bd14611a","ios":"levelo://app?vid=e6fe4940-a098-49cc-8d38-77b9bd14611a"},"vehicle_type_id":"4","last_reported":1729483934,"current_range_meters":18800,"station_id":"ce4bhrh2rcd13ifvqhug","pricing_plan_id":"cebpf4jnsgd1na2vs0mg"},{"bike_id":"813f8a68-8dee-42ee-821c-e07a4137856f","system_id":"levelo_inurba_marseille","lat":43.27904,"lon":5.3801,"is_reserved":false,"is_disabled":false,"rental_uris":{"android":"levelo://app?vid=813f8a68-8dee-42ee-821c-e07a4137856f","ios":"levelo://app?vid=813f8a68-8dee-42ee-821c-e07a4137856f"},"vehicle_type_id":"4","last_reported":1729483934,"current_range_meters":8000,"station_id":"ce4bhf92rcd13ifvqf50","pricing_plan_id":"cebpf4jnsgd1na2vs0mg"},{"bike_id":"a26636ff-e6a9-465f-8584-c6bc1fb9aacd","system_id":"levelo_inurba_marseille","lat":43.2872,"lon":5.37949,"is_reserved":false,"is_disabled":false,"rental_uris":{"android":"levelo://app?vid=a26636ff-e6a9-465f-8584-c6bc1fb9aacd","ios":"levelo://app?vid=a26636ff-e6a9-465f-8584-c6bc1fb9aacd"},"vehicle_type_id":"4","last_reported":1729483934,"current_range_meters":38000,"station_id":"ce4bh9p2rcd13ifvqec0","pricing_plan_id":"cebpf4jnsgd1na2vs0mg"},{"bike_id":"563e8b6a-b39c-4c88-b0b1-c1b2277ee1d9","system_id":"levelo_inurba_marseille","lat":43.28106,"lon":5.378465,"is_reserved":false,"is_disabled":false,"rental_uris":{"android":"levelo://app?vid=563e8b6a-b39c-4c88-b0b1-c1b2277ee1d9","ios":"levelo://app?vid=563e8b6a-b39c-4c88-b0b1-c1b2277ee1d9"},"vehicle_type_id":"4","last_reported":1729483934,"current_range_meters":20000,"station_id":"ce4bha12rcd13ifvqee0","pricing_plan_id":"cebpf4jnsgd1na2vs0mg"},{"bike_id":"df0bb63b-7fea-4a2d-8350-fd6ac8120cce","system_id":"levelo_inurba_marseille","lat":43.29259,"lon":5.40907,"is_reserved":false,"is_disabled":false,"rental_uris":{"android":"levelo://app?vid=df0bb63b-7fea-4a2d-8350-fd6ac8120cce","ios":"levelo://app?vid=df0bb63b-7fea-4a2d-8350-fd6ac8120cce"},"vehicle_type_id":"4","last_reported":1729483934,"current_range_meters":10800,"station_id":"ce4bh192rcd13ifvqdc0","pricing_plan_id":"cebpf4jnsgd1na2vs0mg"},{"bike_id":"8bb60c49-8ed3-4f9b-891c-0805c36ed3e1","system_id":"levelo_inurba_marseille","lat":43.295579,"lon":5.422785,"is_reserved":false,"is_disabled":false,"rental_uris":{"android":"levelo://app?vid=8bb60c49-8ed3-4f9b-891c-0805c36ed3e1","ios":"levelo://app?vid=8bb60c49-8ed3-4f9b-891c-0805c36ed3e1"},"vehicle_type_id":"4","last_reported":1729483934,"current_range_meters":37600,"station_id":"ce4bhph2rcd13ifvqhdg","pricing_plan_id":"cebpf4jnsgd1na2vs0mg"},{"bike_id":"f3b18d4c-688e-4e02-9104-7f1d559134af","system_id":"levelo_inurba_marseille","lat":43.32074,"lon":5.36763,"is_reserved":false,"is_disabled":false,"rental_uris":{"android":"levelo://app?vid=f3b18d4c-688e-4e02-9104-7f1d559134af","ios":"levelo://app?vid=f3b18d4c-688e-4e02-9104-7f1d559134af"},"vehicle_type_id":"4","last_reported":1729483934,"current_range_meters":32400,"station_id":"ce4bhrh2rcd13ifvqhug","pricing_plan_id":"cebpf4jnsgd1na2vs0mg"},{"bike_id":"5c427ec6-b3e2-4bcb-bf5e-ebf0118ba7b9","system_id":"levelo_inurba_marseille","lat":43.304598,"lon":5.379027,"is_reserved":false,"is_disabled":false,"rental_uris":{"android":"levelo://app?vid=5c427ec6-b3e2-4bcb-bf5e-ebf0118ba7b9","ios":"levelo://app?vid=5c427ec6-b3e2-4bcb-bf5e-ebf0118ba7b9"},"vehicle_type_id":"4","last_reported":1729483934,"current_range_meters":28800,"station_id":"ce4bgup2rcd13ifvqcn0","pricing_plan_id":"cebpf4jnsgd1na2vs0mg"},{"bike_id":"55b42e44-e6a8-482c-887c-775307e27ba4","system_id":"levelo_inurba_marseille","lat":43.30149,"lon":5.38067,"is_reserved":false,"is_disabled":false,"rental_uris":{"android":"levelo://app?vid=55b42e44-e6a8-482c-887c-775307e27ba4","ios":"levelo://app?vid=55b42e44-e6a8-482c-887c-775307e27ba4"},"vehicle_type_id":"4","last_reported":1729483934,"current_range_meters":38000,"station_id":"ce4bgjp2rcd13ifvqbh0","pricing_plan_id":"cebpf4jnsgd1na2vs0mg"},{"bike_id":"7216d110-69e9-4988-8b56-3a8e70bd5494","system_id":"levelo_inurba_marseille","lat":43.29532,"lon":5.37497,"is_reserved":false,"is_disabled":false,"rental_uris":{"android":"levelo://app?vid=7216d110-69e9-4988-8b56-3a8e70bd5494","ios":"levelo://app?vid=7216d110-69e9-4988-8b56-3a8e70bd5494"},"vehicle_type_id":"4","last_reported":1729483934,"current_range_meters":37600,"station_id":"ce4bgkp2rcd13ifvqbmg","pricing_plan_id":"cebpf4jnsgd1na2vs0mg"},{"bike_id":"60a57c89-4e62-4fbe-94c5-1d58778bb647","system_id":"levelo_inurba_marseille","lat":43.23963,"lon":5.366352,"is_reserved":false,"is_disabled":false,"rental_uris":{"android":"levelo://app?vid=60a57c89-4e62-4fbe-94c5-1d58778bb647","ios":"levelo://app?vid=60a57c89-4e62-4fbe-94c5-1d58778bb647"},"vehicle_type_id":"4","last_reported":1729483934,"current_range_meters":28000,"station_id":"ce4bhi12rcd13ifvqfp0","pricing_plan_id":"cebpf4jnsgd1na2vs0mg"},{"bike_id":"7edb78b4-ac37-4dc6-ba53-f4bc85e5e3ea","system_id":"levelo_inurba_marseille","lat":43.31277,"lon":5.40164,"is_reserved":false,"is_disabled":false,"rental_uris":{"android":"levelo://app?vid=7edb78b4-ac37-4dc6-ba53-f4bc85e5e3ea","ios":"levelo://app?vid=7edb78b4-ac37-4dc6-ba53-f4bc85e5e3ea"},"vehicle_type_id":"4","last_reported":1729483934,"current_range_meters":38400,"station_id":"ce4bh092rcd13ifvqd30","pricing_plan_id":"cebpf4jnsgd1na2vs0mg"},{"bike_id":"f4136449-9460-4030-a711-33bcf5b01ae1","system_id":"levelo_inurba_marseille","lat":43.28666,"lon":5.36352,"is_reserved":false,"is_disabled":false,"rental_uris":{"android":"levelo://app?vid=f4136449-9460-4030-a711-33bcf5b01ae1","ios":"levelo://app?vid=f4136449-9460-4030-a711-33bcf5b01ae1"},"vehicle_type_id":"4","last_reported":1729483934,"current_range_meters":37600,"station_id":"ce4bhah2rcd13ifvqej0","pricing_plan_id":"cebpf4jnsgd1na2vs0mg"},{"bike_id":"3bf2ae1c-49b2-4936-93d0-295eb17bee45","system_id":"levelo_inurba_marseille","lat":43.23062,"lon":5.35489,"is_reserved":false,"is_disabled":false,"rental_uris":{"android":"levelo://app?vid=3bf2ae1c-49b2-4936-93d0-295eb17bee45","ios":"levelo://app?vid=3bf2ae1c-49b2-4936-93d0-295eb17bee45"},"vehicle_type_id":"4","last_reported":1729483934,"current_range_meters":38400,"station_id":"cpo3342slgdg3j2ifvpg","pricing_plan_id":"cebpf4jnsgd1na2vs0mg"},{"bike_id":"a4bf4c37-492b-43fb-8327-d4e18ba08dac","system_id":"levelo_inurba_marseille","lat":43.28278,"lon":5.35067,"is_reserved":false,"is_disabled":false,"rental_uris":{"android":"levelo://app?vid=a4bf4c37-492b-43fb-8327-d4e18ba08dac","ios":"levelo://app?vid=a4bf4c37-492b-43fb-8327-d4e18ba08dac"},"vehicle_type_id":"4","last_reported":1729483934,"current_range_meters":35600,"station_id":"ce4bhbp2rcd13ifvqerg","pricing_plan_id":"cebpf4jnsgd1na2vs0mg"},{"bike_id":"df22b311-39fc-43e3-865f-9c014d6f9eb7","system_id":"levelo_inurba_marseille","lat":43.30321,"lon":5.40436,"is_reserved":false,"is_disabled":false,"rental_uris":{"android":"levelo://app?vid=df22b311-39fc-43e3-865f-9c014d6f9eb7","ios":"levelo://app?vid=df22b311-39fc-43e3-865f-9c014d6f9eb7"},"vehicle_type_id":"4","last_reported":1729483934,"current_range_meters":25200,"station_id":"ce4bh012rcd13ifvqd10","pricing_plan_id":"cebpf4jnsgd1na2vs0mg"},{"bike_id":"6b6baa2c-542e-44ca-ac36-9508fb23c030","system_id":"levelo_inurba_marseille","lat":43.26944,"lon":5.40244,"is_reserved":false,"is_disabled":false,"rental_uris":{"android":"levelo://app?vid=6b6baa2c-542e-44ca-ac36-9508fb23c030","ios":"levelo://app?vid=6b6baa2c-542e-44ca-ac36-9508fb23c030"},"vehicle_type_id":"4","last_reported":1729483934,"current_range_meters":37600,"station_id":"cjm6bp8fraef2m0cb0m0","pricing_plan_id":"cebpf4jnsgd1na2vs0mg"},{"bike_id":"666e0536-0420-4706-8e49-6450568c8c72","system_id":"levelo_inurba_marseille","lat":43.285719,"lon":5.394956,"is_reserved":false,"is_disabled":false,"rental_uris":{"android":"levelo://app?vid=666e0536-0420-4706-8e49-6450568c8c72","ios":"levelo://app?vid=666e0536-0420-4706-8e49-6450568c8c72"},"vehicle_type_id":"4","last_reported":1729483934,"current_range_meters":38800,"station_id":"ce4bh292rcd13ifvqdg0","pricing_plan_id":"cebpf4jnsgd1na2vs0mg"},{"bike_id":"ea93ad3b-2f63-4f71-9050-1fa0b897a3ad","system_id":"levelo_inurba_marseille","lat":43.27552,"lon":5.38412,"is_reserved":false,"is_disabled":false,"rental_uris":{"android":"levelo://app?vid=ea93ad3b-2f63-4f71-9050-1fa0b897a3ad","ios":"levelo://app?vid=ea93ad3b-2f63-4f71-9050-1fa0b897a3ad"},"vehicle_type_id":"4","last_reported":1729483934,"current_range_meters":38000,"station_id":"ce4bhh92rcd13ifvqfi0","pricing_plan_id":"cebpf4jnsgd1na2vs0mg"},{"bike_id":"684997cb-a782-4cca-a670-ca233ed67c97","system_id":"levelo_inurba_marseille","lat":43.265489,"lon":5.372876,"is_reserved":false,"is_disabled":false,"rental_uris":{"android":"levelo://app?vid=684997cb-a782-4cca-a670-ca233ed67c97","ios":"levelo://app?vid=684997cb-a782-4cca-a670-ca233ed67c97"},"vehicle_type_id":"4","last_reported":1729483934,"current_range_meters":38800,"station_id":"ce4bhg12rcd13ifvqf70","pricing_plan_id":"cebpf4jnsgd1na2vs0mg"},{"bike_id":"62738b42-4d14-4992-87b3-65556f57f437","system_id":"levelo_inurba_marseille","lat":43.24392,"lon":5.37063,"is_reserved":false,"is_disabled":false,"rental_uris":{"android":"levelo://app?vid=62738b42-4d14-4992-87b3-65556f57f437","ios":"levelo://app?vid=62738b42-4d14-4992-87b3-65556f57f437"},"vehicle_type_id":"4","last_reported":1729483934,"current_range_meters":30000,"station_id":"ce4bhhh2rcd13ifvqfk0","pricing_plan_id":"cebpf4jnsgd1na2vs0mg"},{"bike_id":"f9f0e3bf-b1d4-410a-aae4-2168cc4371c1","system_id":"levelo_inurba_marseille","lat":43.28473,"lon":5.38415,"is_reserved":false,"is_disabled":false,"rental_uris":{"android":"levelo://app?vid=f9f0e3bf-b1d4-410a-aae4-2168cc4371c1","ios":"levelo://app?vid=f9f0e3bf-b1d4-410a-aae4-2168cc4371c1"},"vehicle_type_id":"4","last_reported":1729483934,"current_range_meters":38800,"station_id":"ce4bh512rcd13ifvqe3g","pricing_plan_id":"cebpf4jnsgd1na2vs0mg"},{"bike_id":"3208a7db-b2ba-42d5-b984-b06e7befcf38","system_id":"levelo_inurba_marseille","lat":43.31077,"lon":5.38356,"is_reserved":false,"is_disabled":false,"rental_uris":{"android":"levelo://app?vid=3208a7db-b2ba-42d5-b984-b06e7befcf38","ios":"levelo://app?vid=3208a7db-b2ba-42d5-b984-b06e7befcf38"},"vehicle_type_id":"4","last_reported":1729483934,"current_range_meters":38400,"station_id":"ce4bgv92rcd13ifvqcr0","pricing_plan_id":"cebpf4jnsgd1na2vs0mg"},{"bike_id":"a83a29fa-d202-4699-a5c6-67b8bf760a1e","system_id":"levelo_inurba_marseille","lat":43.30659,"lon":5.40079,"is_reserved":false,"is_disabled":false,"rental_uris":{"android":"levelo://app?vid=a83a29fa-d202-4699-a5c6-67b8bf760a1e","ios":"levelo://app?vid=a83a29fa-d202-4699-a5c6-67b8bf760a1e"},"vehicle_type_id":"4","last_reported":1729483934,"current_range_meters":38800,"station_id":"ce4bh112rcd13ifvqda0","pricing_plan_id":"cebpf4jnsgd1na2vs0mg"},{"bike_id":"9320523e-655b-4eb6-bcf8-45534da4704d","system_id":"levelo_inurba_marseille","lat":43.27814,"lon":5.40708,"is_reserved":false,"is_disabled":false,"rental_uris":{"android":"levelo://app?vid=9320523e-655b-4eb6-bcf8-45534da4704d","ios":"levelo://app?vid=9320523e-655b-4eb6-bcf8-45534da4704d"},"vehicle_type_id":"4","last_reported":1729483934,"current_range_meters":37600,"station_id":"ce4bhnh2rcd13ifvqgtg","pricing_plan_id":"cebpf4jnsgd1na2vs0mg"},{"bike_id":"1e489223-3fd9-4459-a32e-233b3b82752f","system_id":"levelo_inurba_marseille","lat":43.26941,"lon":5.40248,"is_reserved":false,"is_disabled":false,"rental_uris":{"android":"levelo://app?vid=1e489223-3fd9-4459-a32e-233b3b82752f","ios":"levelo://app?vid=1e489223-3fd9-4459-a32e-233b3b82752f"},"vehicle_type_id":"4","last_reported":1729483934,"current_range_meters":38800,"station_id":"cjm6bp8fraef2m0cb0m0","pricing_plan_id":"cebpf4jnsgd1na2vs0mg"},{"bike_id":"342bb506-8e82-4fe8-8123-2298181f1aa1","system_id":"levelo_inurba_marseille","lat":43.30797,"lon":5.38167,"is_reserved":false,"is_disabled":false,"rental_uris":{"android":"levelo://app?vid=342bb506-8e82-4fe8-8123-2298181f1aa1","ios":"levelo://app?vid=342bb506-8e82-4fe8-8123-2298181f1aa1"},"vehicle_type_id":"4","last_reported":1729483934,"current_range_meters":33600,"station_id":"","pricing_plan_id":"cebpf4jnsgd1na2vs0mg"},{"bike_id":"49f034c7-bcc2-44a1-a2c0-c64d1cae1fa9","system_id":"levelo_inurba_marseille","lat":43.27622,"lon":5.36117,"is_reserved":false,"is_disabled":false,"rental_uris":{"android":"levelo://app?vid=49f034c7-bcc2-44a1-a2c0-c64d1cae1fa9","ios":"levelo://app?vid=49f034c7-bcc2-44a1-a2c0-c64d1cae1fa9"},"vehicle_type_id":"4","last_reported":1729483934,"current_range_meters":38800,"station_id":"ce4bgj92rcd13ifvqbe0","pricing_plan_id":"cebpf4jnsgd1na2vs0mg"},{"bike_id":"8f4e6959-3abf-4fd4-8664-0804824d18bd","system_id":"levelo_inurba_marseille","lat":43.24389,"lon":5.37059,"is_reserved":false,"is_disabled":false,"rental_uris":{"android":"levelo://app?vid=8f4e6959-3abf-4fd4-8664-0804824d18bd","ios":"levelo://app?vid=8f4e6959-3abf-4fd4-8664-0804824d18bd"},"vehicle_type_id":"4","last_reported":1729483934,"current_range_meters":6400,"station_id":"ce4bhhh2rcd13ifvqfk0","pricing_plan_id":"cebpf4jnsgd1na2vs0mg"},{"bike_id":"62fbe90b-a9cf-4737-96e1-249789b420f5","system_id":"levelo_inurba_marseille","lat":43.30353,"lon":5.41881,"is_reserved":false,"is_disabled":false,"rental_uris":{"android":"levelo://app?vid=62fbe90b-a9cf-4737-96e1-249789b420f5","ios":"levelo://app?vid=62fbe90b-a9cf-4737-96e1-249789b420f5"},"vehicle_type_id":"4","last_reported":1729483934,"current_range_meters":39200,"station_id":"ce4bhop2rcd13ifvqh7g","pricing_plan_id":"cebpf4jnsgd1na2vs0mg"},