{"last_updated":1747825729,"ttl":60,"version":"2.2","data":{"bikes":[{"bike_id":"c0b9fd4f-e181-46ce-b0bf-f5119973334f","system_id":"levelo_inurba_marseille","lat":43.33771,"lon":5.37424,"is_reserved":false,"is_disabled":true,"rental_uris":{"android":"levelo://app?vid=c0b9fd4f-e181-46ce-b0bf-f5119973334f","ios":"levelo://app?vid=c0b9fd4f-e181-46ce-b0bf-f5119973334f"},"vehicle_type_id":"4","last_reported":1747825729,"current_range_meters":0,"station_id":"","pricing_plan_id":"cebpf4jnsgd1na2vs0mg"},{"bike_id":"1dec17c8-cbde-4354-8b6c-219f98c89710","system_id":"levelo_inurba_marseille","lat":43.291827,"lon":5.422652,"is_reserved":false,"is_disabled":true,"rental_uris":{"android":"levelo://app?vid=1dec17c8-cbde-4354-8b6c-219f98c89710","ios":"levelo://app?vid=1dec17c8-cbde-4354-8b6c-219f98c89710"},"vehicle_type_id":"4","last_reported":1747825729,"current_range_meters":0,"station_id":"","pricing_plan_id":"cebpf4jnsgd1na2vs0mg"},{"bike_id":"edcf38fb-2240-4153-9357-03ecf2ae4cfa","system_id":"levelo_inurba_marseille","lat":43.296215,"lon":5.371667,"is_reserved":false,"is_disabled":true,"rental_uris":{"android":"levelo://app?vid=edcf38fb-2240-4153-9357-03ecf2ae4cfa","ios":"levelo://app?vid=edcf38fb-2240-4153-9357-03ecf2ae4cfa"},"vehicle_type_id":"4","last_reported":1747825729,"current_range_meters":0,"station_id":"","pricing_plan_id":"cebpf4jnsgd1na2vs0mg"},{"bike_id":"e9dd3aa4-b5e7-4480-926d-d7f537719bfa","system_id":"levelo_inurba_marseille","lat":43.230331,"lon":5.401847,"is_reserved":false,"is_disabled":true,"rental_uris":{"android":"levelo://app?vid=e9dd3aa4-b5e7-4480-926d-d7f537719bfa","ios":"levelo://app?vid=e9dd3aa4-b5e7-4480-926d-d7f537719bfa"},"vehicle_type_id":"4","last_reported":1747825729,"current_range_meters":0,"station_id":"","pricing_plan_id":"cebpf4jnsgd1na2vs0mg"},{"bike_id":"14603e41-b2dd-4757-a53c-2e366aa4f983","system_id":"levelo_inurba_marseille","lat":43.26991,"lon":5.42819,"is_reserved":false,"is_disabled":true,"rental_uris":{"android":"levelo://app?vid=14603e41-b2dd-4757-a53c-2e366aa4f983","ios":"levelo://app?vid=14603e41-b2dd-4757-a53c-2e366aa4f983"},"vehicle_type_id":"4","last_reported":1747825729,"current_range_meters":0,"station_id":"","pricing_plan_id":"cebpf4jnsgd1na2vs0mg"},{"bike_id":"1deb47b4-01b5-43f0-9873-440ac33e3499","system_id":"levelo_inurba_marseille","lat":43.275901,"lon":5.360783,"is_reserved":false,"is_disabled":true,"rental_uris":{"android":"levelo://app?vid=1deb47b4-01b5-43f0-9873-440ac33e3499","ios":"levelo://app?vid=1deb47b4-01b5-43f0-9873-440ac33e3499"},"vehicle_type_id":"4","last_reported":1747825729,"current_range_meters":0,"station_id":"ce4bgj92rcd13ifvqbe0","pricing_plan_id":"cebpf4jnsgd1na2vs0mg"},{"bike_id":"276ea3ce-3bf0-4c20-90da-b7832f097f9d","system_id":"levelo_inurba_marseille","lat":43.30944,"lon":5.39031,"is_reserved":false,"is_disabled":true,"rental_uris":{"android":"levelo://app?vid=276ea3ce-3bf0-4c20-90da-b7832f097f9d","ios":"levelo://app?vid=276ea3ce-3bf0-4c20-90da-b7832f097f9d"},"vehicle_type_id":"4","last_reported":1747825729,"current_range_meters":0,"station_id":"ce4bgup2rcd13ifvqco0","pricing_plan_id":"cebpf4jnsgd1na2vs0mg"},{"bike_id":"73bbede7-3033-44c9-a3b1-c75a25f405ae","system_id":"levelo_inurba_marseille","lat":43.31678,"lon":5.4047,"is_reserved":false,"is_disabled":true,"rental_uris":{"android":"levelo://app?vid=73bbede7-3033-44c9-a3b1-c75a25f405ae","ios":"levelo://app?vid=73bbede7-3033-44c9-a3b1-c75a25f405ae"},"vehicle_type_id":"4","last_reported":1747825729,"current_range_meters":0,"station_id":"ce4bh012rcd13ifvqd00","pricing_plan_id":"cebpf4jnsgd1na2vs0mg"},{"bike_id":"120640cb-9b2c-4a12-bbf1-b6e5369c696c","system_id":"levelo_inurba_marseille","lat":43.292,"lon":5.39324,"is_reserved":false,"is_disabled":true,"rental_uris":{"android":"levelo://app?vid=120640cb-9b2c-4a12-bbf1-b6e5369c696c","ios":"levelo://app?vid=120640cb-9b2c-4a12-bbf1-b6e5369c696c"},"vehicle_type_id":"4","last_reported":1747825729,"current_range_meters":0,"station_id":"ce4bh192rcd13ifvqdd0","pricing_plan_id":"cebpf4jnsgd1na2vs0mg"},{"bike_id":"3d1d9ab7-b948-4a9f-9ce1-3a0e75d585fe","system_id":"levelo_inurba_marseille","lat":43.294098,"lon":5.386047,"is_reserved":false,"is_disabled":true,"rental_uris":{"android":"levelo://app?vid=3d1d9ab7-b948-4a9f-9ce1-3a0e75d585fe","ios":"levelo://app?vid=3d1d9ab7-b948-4a9f-9ce1-3a0e75d585fe"},"vehicle_type_id":"4","last_reported":1747825729,"current_range_meters":0,"station_id":"ce4bh2h2rcd13ifvqdh0","pricing_plan_id":"cebpf4jnsgd1na2vs0mg"},{"bike_id":"44763330-6d15-47e5-89ae-fb114675afd9","system_id":"levelo_inurba_marseille","lat":43.28672,"lon":5.38673,"is_reserved":false,"is_disabled":true,"rental_uris":{"android":"levelo://app?vid=44763330-6d15-47e5-89ae-fb114675afd9","ios":"levelo://app?vid=44763330-6d15-47e5-89ae-fb114675afd9"},"vehicle_type_id":"4","last_reported":1747825729,"current_range_meters":0,"station_id":"ce4bh492rcd13ifvqdug","pricing_plan_id":"cebpf4jnsgd1na2vs0mg"},{"bike_id":"a4c9545a-5849-4569-acac-bbb3105e35c8","system_id":"levelo_inurba_marseille","lat":43.28857,"lon":5.3585,"is_reserved":false,"is_disabled":true,"rental_uris":{"android":"levelo://app?vid=a4c9545a-5849-4569-acac-bbb3105e35c8","ios":"levelo://app?vid=a4c9545a-5849-4569-acac-bbb3105e35c8"},"vehicle_type_id":"4","last_reported":1747825729,"current_range_meters":0,"station_id":"ce4bhb12rcd13ifvqem0","pricing_plan_id":"cebpf4jnsgd1na2vs0mg"},{"bike_id":"71e007d5-a0fe-4561-bc3c-d3a6c48d1609","system_id":"levelo_inurba_marseille","lat":43.28424,"lon":5.34989,"is_reserved":false,"is_disabled":true,"rental_uris":{"android":"levelo://app?vid=71e007d5-a0fe-4561-bc3c-d3a6c48d1609","ios":"levelo://app?vid=71e007d5-a0fe-4561-bc3c-d3a6c48d1609"},"vehicle_type_id":"4","last_reported":1747825729,"current_range_meters":0,"station_id":"ce4bhbh2rcd13ifvqepg","pricing_plan_id":"cebpf4jnsgd1na2vs0mg"},{"bike_id":"d7fc569e-8ed7-4bd3-944a-c3a1627a9781","system_id":"levelo_inurba_marseille","lat":43.28439,"lon":5.34994,"is_reserved":false,"is_disabled":true,"rental_uris":{"android":"levelo://app?vid=d7fc569e-8ed7-4bd3-944a-c3a1627a9781","ios":"levelo://app?vid=d7fc569e-8ed7-4bd3-944a-c3a1627a9781"},"vehicle_type_id":"4","last_reported":1747825729,"current_range_meters":0,"station_id":"ce4bhbh2rcd13ifvqepg","pricing_plan_id":"cebpf4jnsgd1na2vs0mg"},{"bike_id":"4e64b7c3-1785-450e-a54f-12bbea8f1756","system_id":"levelo_inurba_marseille","lat":43.29276,"lon":5.36853,"is_reserved":false,"is_disabled":true,"rental_uris":{"android":"levelo://app?vid=4e64b7c3-1785-450e-a54f-12bbea8f1756","ios":"levelo://app?vid=4e64b7c3-1785-450e-a54f-12bbea8f1756"},"vehicle_type_id":"4","last_reported":1747825729,"current_range_meters":0,"station_id":"ce4bhbp2rcd13ifvqesg","pricing_plan_id":"cebpf4jnsgd1na2vs0mg"},{"bike_id":"0962179a-c021-4104-96ad-a553eb817d59","system_id":"levelo_inurba_marseille","lat":43.24802,"lon":5.37459,"is_reserved":false,"is_disabled":true,"rental_uris":{"android":"levelo://app?vid=0962179a-c021-4104-96ad-a553eb817d59","ios":"levelo://app?vid=0962179a-c021-4104-96ad-a553eb817d59"},"vehicle_type_id":"4","last_reported":1747825729,"current_range_meters":0,"station_id":"ce4bhgh2rcd13ifvqfb0","pricing_plan_id":"cebpf4jnsgd1na2vs0mg"},{"bike_id":"4c838c44-da1a-41f0-a099-927b86f9f689","system_id":"levelo_inurba_marseille","lat":43.23962,"lon":5.36626,"is_reserved":false,"is_disabled":true,"rental_uris":{"android":"levelo://app?vid=4c838c44-da1a-41f0-a099-927b86f9f689","ios":"levelo://app?vid=4c838c44-da1a-41f0-a099-927b86f9f689"},"vehicle_type_id":"4","last_reported":1747825729,"current_range_meters":0,"station_id":"ce4bhi12rcd13ifvqfp0","pricing_plan_id":"cebpf4jnsgd1na2vs0mg"},{"bike_id":"b8164cdf-c960-4181-afc1-bcfb759a3c5f","system_id":"levelo_inurba_marseille","lat":43.2707,"lon":5.42278,"is_reserved":false,"is_disabled":true,"rental_uris":{"android":"levelo://app?vid=b8164cdf-c960-4181-afc1-bcfb759a3c5f","ios":"levelo://app?vid=b8164cdf-c960-4181-afc1-bcfb759a3c5f"},"vehicle_type_id":"4","last_reported":1747825729,"current_range_meters":0,"station_id":"ce4bhk92rcd13ifvqgb0","pricing_plan_id":"cebpf4jnsgd1na2vs0mg"},{"bike_id":"2bdc3e2e-592d-4696-877b-38d9a83a4ef0","system_id":"levelo_inurba_marseille","lat":43.27495,"lon":5.42442,"is_reserved":false,"is_disabled":true,"rental_uris":{"android":"levelo://app?vid=2bdc3e2e-592d-4696-877b-38d9a83a4ef0","ios":"levelo://app?vid=2bdc3e2e-592d-4696-877b-38d9a83a4ef0"},"vehicle_type_id":"4","last_reported":1747825729,"current_range_meters":0,"station_id":"ce4bhn92rcd13ifvqgrg","pricing_plan_id":"cebpf4jnsgd1na2vs0mg"},{"bike_id":"56fa1ba6-f3fd-4eb7-b077-b29105a292fe","system_id":"levelo_inurba_marseille","lat":43.29906,"lon":5.37478,"is_reserved":false,"is_disabled":true,"rental_uris":{"android":"levelo://app?vid=56fa1ba6-f3fd-4eb7-b077-b29105a292fe","ios":"levelo://app?vid=56fa1ba6-f3fd-4eb7-b077-b29105a292fe"},"vehicle_type_id":"4","last_reported":1747825729,"current_range_meters":800,"station_id":"ce4bgjh2rcd13ifvqbg0","pricing_plan_id":"cebpf4jnsgd1na2vs0mg"},{"bike_id":"c91dc417-5579-473a-b3ff-4a862839019c","system_id":"levelo_inurba_marseille","lat":43.299825,"lon":5.371927,"is_reserved":false,"is_disabled":true,"rental_uris":{"android":"levelo://app?vid=c91dc417-5579-473a-b3ff-4a862839019c","ios":"levelo://app?vid=c91dc417-5579-473a-b3ff-4a862839019c"},"vehicle_type_id":"4","last_reported":1747825729,"current_range_meters":800,"station_id":"ce4bgr92rcd13ifvqc7g","pricing_plan_id":"cebpf4jnsgd1na2vs0mg"},{"bike_id":"66a23fa7-037d-42e9-ad70-52292542dcf8","system_id":"levelo_inurba_marseille","lat":43.30477,"lon":5.3791,"is_reserved":false,"is_disabled":true,"rental_uris":{"android":"levelo://app?vid=66a23fa7-037d-42e9-ad70-52292542dcf8","ios":"levelo://app?vid=66a23fa7-037d-42e9-ad70-52292542dcf8"},"vehicle_type_id":"4","last_reported":1747825729,"current_range_meters":800,"station_id":"ce4bgup2rcd13ifvqcn0","pricing_plan_id":"cebpf4jnsgd1na2vs0mg"},{"bike_id":"f26f85ce-d1ce-4a0c-91ab-c1cb84396873","system_id":"levelo_inurba_marseille","lat":43.24389,"lon":5.3706,"is_reserved":false,"is_disabled":true,"rental_uris":{"android":"levelo://app?vid=f26f85ce-d1ce-4a0c-91ab-c1cb84396873","ios":"levelo://app?vid=f26f85ce-d1ce-4a0c-91ab-c1cb84396873"},"vehicle_type_id":"4","last_reported":1747825729,"current_range_meters":800,"station_id":"ce4bhhh2rcd13ifvqfk0","pricing_plan_id":"cebpf4jnsgd1na2vs0mg"},{"bike_id":"d4f56fee-b685-4196-8519-1760a0e2a4d4","system_id":"levelo_inurba_marseille","lat":43.25114,"lon":5.40319,"is_reserved":false,"is_disabled":true,"rental_uris":{"android":"levelo://app?vid=d4f56fee-b685-4196-8519-1760a0e2a4d4","ios":"levelo://app?vid=d4f56fee-b685-4196-8519-1760a0e2a4d4"},"vehicle_type_id":"4","last_reported":1747825729,"current_range_meters":800,"station_id":"ce4bhlh2rcd13ifvqgig","pricing_plan_id":"cebpf4jnsgd1na2vs0mg"},{"bike_id":"43ecfee3-d9ac-4db2-a376-3eb8da4e7fd6","system_id":"levelo_inurba_marseille","lat":43.27497,"lon":5.42451,"is_reserved":false,"is_disabled":true,"rental_uris":{"android":"levelo://app?vid=43ecfee3-d9ac-4db2-a376-3eb8da4e7fd6","ios":"levelo://app?vid=43ecfee3-d9ac-4db2-a376-3eb8da4e7fd6"},"vehicle_type_id":"4","last_reported":1747825729,"current_range_meters":800,"station_id":"ce4bhn92rcd13ifvqgrg","pricing_plan_id":"cebpf4jnsgd1na2vs0mg"},{"bike_id":"2150c90f-31d5-49fd-89de-399fa134a212","system_id":"levelo_inurba_marseille","lat":43.3234,"lon":5.40613,"is_reserved":false,"is_disabled":true,"rental_uris":{"android":"levelo://app?vid=2150c90f-31d5-49fd-89de-399fa134a212","ios":"levelo://app?vid=2150c90f-31d5-49fd-89de-399fa134a212"},"vehicle_type_id":"4","last_reported":1747825729,"current_range_meters":800,"station_id":"ce4bhq92rcd13ifvqhjg","pricing_plan_id":"cebpf4jnsgd1na2vs0mg"},{"bike_id":"1c741986-0876-4520-ac61-e47cc5d5b1d3","system_id":"levelo_inurba_marseille","lat":43.321076,"lon":5.367797,"is_reserved":false,"is_disabled":true,"rental_uris":{"android":"levelo://app?vid=1c741986-0876-4520-ac61-e47cc5d5b1d3","ios":"levelo://app?vid=1c741986-0876-4520-ac61-e47cc5d5b1d3"},"vehicle_type_id":"4","last_reported":1747825729,"current_range_meters":800,"station_id":"ce4bhrh2rcd13ifvqhug","pricing_plan_id":"cebpf4jnsgd1na2vs0mg"},{"bike_id":"6cdef387-baab-4555-9f86-617fba94902a","system_id":"levelo_inurba_marseille","lat":43.32351,"lon":5.36754,"is_reserved":false,"is_disabled":true,"rental_uris":{"android":"levelo://app?vid=6cdef387-baab-4555-9f86-617fba94902a","ios":"levelo://app?vid=6cdef387-baab-4555-9f86-617fba94902a"},"vehicle_type_id":"4","last_reported":1747825729,"current_range_meters":800,"station_id":"ce4bhsh2rcd13ifvqi2g","pricing_plan_id":"cebpf4jnsgd1na2vs0mg"},{"bike_id":"20bee342-4a3f-4f34-940d-bb6cf00d52ae","system_id":"levelo_inurba_marseille","lat":43.26669,"lon":5.3857,"is_reserved":false,"is_disabled":true,"rental_uris":{"android":"levelo://app?vid=20bee342-4a3f-4f34-940d-bb6cf00d52ae","ios":"levelo://app?vid=20bee342-4a3f-4f34-940d-bb6cf00d52ae"},"vehicle_type_id":"4","last_reported":1747825729,"current_range_meters":1200,"station_id":"","pricing_plan_id":"cebpf4jnsgd1na2vs0mg"},{"bike_id":"220ab881-13f3-4554-a66e-fa9f6d844ae1","system_id":"levelo_inurba_marseille","lat":43.29729,"lon":5.376895,"is_reserved":false,"is_disabled":false,"rental_uris":{"android":"levelo://app?vid=220ab881-13f3-4554-a66e-fa9f6d844ae1","ios":"levelo://app?vid=220ab881-13f3-4554-a66e-fa9f6d844ae1"},"vehicle_type_id":"4","last_reported":1747825729,"current_range_meters":1200,"station_id":"ce4bgkh2rcd13ifvqbl0","pricing_plan_id":"cebpf4jnsgd1na2vs0mg"},{"bike_id":"3855bfdc-99dc-4ec5-b6b1-aa67494cb3e4","system_id":"levelo_inurba_marseille","lat":43.31224,"lon":5.36862,"is_reserved":false,"is_disabled":true,"rental_uris":{"android":"levelo://app?vid=3855bfdc-99dc-4ec5-b6b1-aa67494cb3e4","ios":"levelo://app?vid=3855bfdc-99dc-4ec5-b6b1-aa67494cb3e4"},"vehicle_type_id":"4","last_reported":1747825729,"current_range_meters":1200,"station_id":"ce4bgl92rcd13ifvqbq0","pricing_plan_id":"cebpf4jnsgd1na2vs0mg"},{"bike_id":"92f14edd-135b-4474-8578-03003f2191c0","system_id":"levelo_inurba_marseille","lat":43.31174,"lon":5.38687,"is_reserved":false,"is_disabled":true,"rental_uris":{"android":"levelo://app?vid=92f14edd-135b-4474-8578-03003f2191c0","ios":"levelo://app?vid=92f14edd-135b-4474-8578-03003f2191c0"},"vehicle_type_id":"4","last_reported":1747825729,"current_range_meters":1200,"station_id":"ce4bgv12rcd13ifvqcp0","pricing_plan_id":"cebpf4jnsgd1na2vs0mg"},{"bike_id":"6ad2729f-7ff6-4ffe-9685-5e66f46f07f9","system_id":"levelo_inurba_marseille","lat":43.30585,"lon":5.3935,"is_reserved":false,"is_disabled":true,"rental_uris":{"android":"levelo://app?vid=6ad2729f-7ff6-4ffe-9685-5e66f46f07f9","ios":"levelo://app?vid=6ad2729f-7ff6-4ffe-9685-5e66f46f07f9"},"vehicle_type_id":"4","last_reported":1747825729,"current_range_meters":1200,"station_id":"ce4bh0p2rcd13ifvqd80","pricing_plan_id":"cebpf4jnsgd1na2vs0mg"},{"bike_id":"cfdbf9ea-fe43-4734-b465-744a84c08df5","system_id":"levelo_inurba_marseille","lat":43.27956,"lon":5.38722,"is_reserved":false,"is_disabled":true,"rental_uris":{"android":"levelo://app?vid=cfdbf9ea-fe43-4734-b465-744a84c08df5","ios":"levelo://app?vid=cfdbf9ea-fe43-4734-b465-744a84c08df5"},"vehicle_type_id":"4","last_reported":1747825729,"current_range_meters":1200,"station_id":"ce4bhg12rcd13ifvqf80","pricing_plan_id":"cebpf4jnsgd1na2vs0mg"},{"bike_id":"06f61d0a-80e1-4ed2-9f20-f2a6e95a6399","system_id":"levelo_inurba_marseille","lat":43.33589,"lon":5.40997,"is_reserved":false,"is_disabled":true,"rental_uris":{"android":"levelo://app?vid=06f61d0a-80e1-4ed2-9f20-f2a6e95a6399","ios":"levelo://app?vid=06f61d0a-80e1-4ed2-9f20-f2a6e95a6399"},"vehicle_type_id":"4","last_reported":1747825729,"current_range_meters":1200,"station_id":"ce4bhqh2rcd13ifvqhmg","pricing_plan_id":"cebpf4jnsgd1na2vs0mg"},{"bike_id":"e7f470c6-dc44-421f-ad54-df6fe00485ff","system_id":"levelo_inurba_marseille","lat":43.31356,"lon":5.38493,"is_reserved":false,"is_disabled":true,"rental_uris":{"android":"levelo://app?vid=e7f470c6-dc44-421f-ad54-df6fe00485ff","ios":"levelo://app?vid=e7f470c6-dc44-421f-ad54-df6fe00485ff"},"vehicle_type_id":"4","last_reported":1747825729,"current_range_meters":1600,"station_id":"ce4bgt92rcd13ifvqcf0","pricing_plan_id":"cebpf4jnsgd1na2vs0mg"},{"bike_id":"33d3bbc7-12de-4e0f-8a1a-6ea61f51c09d","system_id":"levelo_inurba_marseille","lat":43.280327,"lon":5.369428,"is_reserved":false,"is_disabled":true,"rental_uris":{"android":"levelo://app?vid=33d3bbc7-12de-4e0f-8a1a-6ea61f51c09d","ios":"levelo://app?vid=33d3bbc7-12de-4e0f-8a1a-6ea61f51c09d"},"vehicle_type_id":"4","last_reported":1747825729,"current_range_meters":1600,"station_id":"ce4bha12rcd13ifvqef0","pricing_plan_id":"cebpf4jnsgd1na2vs0mg"},{"bike_id":"82952b1b-7ea4-498b-b0e9-d501e56fb491","system_id":"levelo_inurba_marseille","lat":43.281564,"lon":5.42641,"is_reserved":false,"is_disabled":true,"rental_uris":{"android":"levelo://app?vid=82952b1b-7ea4-498b-b0e9-d501e56fb491","ios":"levelo://app?vid=82952b1b-7ea4-498b-b0e9-d501e56fb491"},"vehicle_type_id":"4","last_reported":1747825729,"current_range_meters":1600,"station_id":"ce4bhnh2rcd13ifvqgug","pricing_plan_id":"cebpf4jnsgd1na2vs0mg"},{"bike_id":"28f76a41-c664-4ac0-8543-6fcb5b2eafc8","system_id":"levelo_inurba_marseille","lat":43.3199,"lon":5.3816,"is_reserved":false,"is_disabled":true,"rental_uris":{"android":"levelo://app?vid=28f76a41-c664-4ac0-8543-6fcb5b2eafc8","ios":"levelo://app?vid=28f76a41-c664-4ac0-8543-6fcb5b2eafc8"},"vehicle_type_id":"4","last_reported":1747825729,"current_range_meters":1600,"station_id":"ce4bhr12rcd13ifvqhpg","pricing_plan_id":"cebpf4jnsgd1na2vs0mg"},{"bike_id":"a95d023e-ff5d-47c4-b650-8db922aa5263","system_id":"levelo_inurba_marseille","lat":43.30528,"lon":5.38425,"is_reserved":false,"is_disabled":false,"rental_uris":{"android":"levelo://app?vid=a95d023e-ff5d-47c4-b650-8db922aa5263","ios":"levelo://app?vid=a95d023e-ff5d-47c4-b650-8db922aa5263"},"vehicle_type_id":"4","last_reported":1747825729,"current_range_meters":2000,"station_id":"ce4bgg92rcd13ifvqb30","pricing_plan_id":"cebpf4jnsgd1na2vs0mg"},{"bike_id":"00340f59-1083-4d95-af0a-998bd970c2a5","system_id":"levelo_inurba_marseille","lat":43.29303,"lon":5.37169,"is_reserved":false,"is_disabled":true,"rental_uris":{"android":"levelo://app?vid=00340f59-1083-4d95-af0a-998bd970c2a5","ios":"levelo://app?vid=00340f59-1083-4d95-af0a-998bd970c2a5"},"vehicle_type_id":"4","last_reported":1747825729,"current_range_meters":2000,"station_id":"ce4bgh92rcd13ifvqb40","pricing_plan_id":"cebpf4jnsgd1na2vs0mg"},{"bike_id":"a863f1eb-0058-4315-9365-275360febbd4","system_id":"levelo_inurba_marseille","lat":43.31371,"lon":5.36682,"is_reserved":false,"is_disabled":true,"rental_uris":{"android":"levelo://app?vid=a863f1eb-0058-4315-9365-275360febbd4","ios":"levelo://app?vid=a863f1eb-0058-4315-9365-275360febbd4"},"vehicle_type_id":"4","last_reported":1747825729,"current_range_meters":2000,"station_id":"ce4bgr92rcd13ifvqc6g","pricing_plan_id":"cebpf4jnsgd1na2vs0mg"},{"bike_id":"a0b18a67-2a1a-4861-a5ec-524ae34e9b45","system_id":"levelo_inurba_marseille","lat":43.28456,"lon":5.358829,"is_reserved":false,"is_disabled":true,"rental_uris":{"android":"levelo://app?vid=a0b18a67-2a1a-4861-a5ec-524ae34e9b45","ios":"levelo://app?vid=a0b18a67-2a1a-4861-a5ec-524ae34e9b45"},"vehicle_type_id":"4","last_reported":1747825729,"current_range_meters":2000,"station_id":"ce4bhah2rcd13ifvqei0","pricing_plan_id":"cebpf4jnsgd1na2vs0mg"},{"bike_id":"b38cf2cf-5836-4b73-81b9-05bd50d0f774","system_id":"levelo_inurba_marseille","lat":43.26559,"lon":5.37289,"is_reserved":false,"is_disabled":true,"rental_uris":{"android":"levelo://app?vid=b38cf2cf-5836-4b73-81b9-05bd50d0f774","ios":"levelo://app?vid=b38cf2cf-5836-4b73-81b9-05bd50d0f774"},"vehicle_type_id":"4","last_reported":1747825729,"current_range_meters":2000,"station_id":"ce4bhg12rcd13ifvqf70","pricing_plan_id":"cebpf4jnsgd1na2vs0mg"},{"bike_id":"ba59102a-6c47-4600-bcb9-76e5920c2815","system_id":"levelo_inurba_marseille","lat":43.31346,"lon":5.37212,"is_reserved":false,"is_disabled":false,"rental_uris":{"android":"levelo://app?vid=ba59102a-6c47-4600-bcb9-76e5920c2815","ios":"levelo://app?vid=ba59102a-6c47-4600-bcb9-76e5920c2815"},"vehicle_type_id":"4","last_reported":1747825729,"current_range_meters":2800,"station_id":"","pricing_plan_id":"cebpf4jnsgd1na2vs0mg"},{"bike_id":"eb308850-e6f9-46ee-965b-6a6b33505943","system_id":"levelo_inurba_marseille","lat":43.3027,"lon":5.37712,"is_reserved":false,"is_disabled":true,"rental_uris":{"android":"levelo://app?vid=eb308850-e6f9-46ee-965b-6a6b33505943","ios":"levelo://app?vid=eb308850-e6f9-46ee-965b-6a6b33505943"},"vehicle_type_id":"4","last_reported":1747825729,"current_range_meters":2800,"station_id":"ce4bguh2rcd13ifvqcj0","pricing_plan_id":"cebpf4jnsgd1na2vs0mg"},{"bike_id":"453c24bf-fef4-4fe1-a7c3-b82262e7b588","system_id":"levelo_inurba_marseille","lat":43.28716,"lon":5.3794,"is_reserved":false,"is_disabled":false,"rental_uris":{"android":"levelo://app?vid=453c24bf-fef4-4fe1-a7c3-b82262e7b588","ios":"levelo://app?vid=453c24bf-fef4-4fe1-a7c3-b82262e7b588"},"vehicle_type_id":"4","last_reported":1747825729,"current_range_meters":2800,"station_id":"ce4bh9p2rcd13ifvqec0","pricing_plan_id":"cebpf4jnsgd1na2vs0mg"},{"bike_id":"bf64ee77-0624-4bab-8304-edf7049983bd","system_id":"levelo_inurba_marseille","lat":43.28299,"lon":5.35082,"is_reserved":false,"is_disabled":false,"rental_uris":{"android":"levelo://app?vid=bf64ee77-0624-4bab-8304-edf7049983bd","ios":"levelo://app?vid=bf64ee77-0624-4bab-8304-edf7049983bd"},"vehicle_type_id":"4","last_reported":1747825729,"current_range_meters":2800,"station_id":"ce4bhbp2rcd13ifvqerg","pricing_plan_id":"cebpf4jnsgd1na2vs0mg"},{"bike_id":"d469ab5f-c54c-4000-b1a6-0c6caa003e80","system_id":"levelo_inurba_marseille","lat":43.24181,"lon":5.39727,"is_reserved":false,"is_disabled":false,"rental_uris":{"android":"levelo://app?vid=d469ab5f-c54c-4000-b1a6-0c6caa003e80","ios":"levelo://app?vid=d469ab5f-c54c-4000-b1a6-0c6caa003e80"},"vehicle_type_id":"4","last_reported":1747825729,"current_range_meters":2800,"station_id":"ce4bhn12rcd13ifvqgpg","pricing_plan_id":"cebpf4jnsgd1na2vs0mg"},{"bike_id":"c0e29b78-5ef8-450c-9879-72f4a478f9e5","system_id":"levelo_inurba_marseille","lat":43.33179,"lon":5.39577,"is_reserved":false,"is_disabled":false,"rental_uris":{"android":"levelo://app?vid=c0e29b78-5ef8-450c-9879-72f4a478f9e5","ios":"levelo://app?vid=c0e29b78-5ef8-450c-9879-72f4a478f9e5"},"vehicle_type_id":"4","last_reported":1747825729,"current_range_meters":3200,"station_id":"","pricing_plan_id":"cebpf4jnsgd1na2vs0mg"},{"bike_id":"15896029-cb80-44bc-a281-1e7f628ca8fc","system_id":"levelo_inurba_marseille","lat":43.29364,"lon":5.37847,"is_reserved":false,"is_disabled":false,"rental_uris":{"android":"levelo://app?vid=15896029-cb80-44bc-a281-1e7f628ca8fc","ios":"levelo://app?vid=15896029-cb80-44bc-a281-1e7f628ca8fc"},"vehicle_type_id":"4","last_reported":1747825729,"current_range_meters":3200,"station_id":"ce4bgjh2rcd13ifvqbf0","pricing_plan_id":"cebpf4jnsgd1na2vs0mg"},{"bike_id":"8b70831a-65a0-4eba-8c79-c4d846e840d7","system_id":"levelo_inurba_marseille","lat":43.29029,"lon":5.38647,"is_reserved":false,"is_disabled":false,"rental_uris":{"android":"levelo://app?vid=8b70831a-65a0-4eba-8c79-c4d846e840d7","ios":"levelo://app?vid=8b70831a-65a0-4eba-8c79-c4d846e840d7"},"vehicle_type_id":"4","last_reported":1747825729,"current_range_meters":3200,"station_id":"ce4bh4p2rcd13ifvqe0g","pricing_plan_id":"cebpf4jnsgd1na2vs0mg"},{"bike_id":"4c348ac5-0c0c-4c95-bf2a-4cd3c4c83724","system_id":"levelo_inurba_marseille","lat":43.2418,"lon":5.39726,"is_reserved":false,"is_disabled":false,"rental_uris":{"android":"levelo://app?vid=4c348ac5-0c0c-4c95-bf2a-4cd3c4c83724","ios":"levelo://app?vid=4c348ac5-0c0c-4c95-bf2a-4cd3c4c83724"},"vehicle_type_id":"4","last_reported":1747825729,"current_range_meters":3200,"station_id":"ce4bhn12rcd13ifvqgpg","pricing_plan_id":"cebpf4jnsgd1na2vs0mg"},{"bike_id":"30b5fdc2-95f3-4609-a725-1262c77633d5","system_id":"levelo_inurba_marseille","lat":43.31722,"lon":5.42401,"is_reserved":false,"is_disabled":false,"rental_uris":{"android":"levelo://app?vid=30b5fdc2-95f3-4609-a725-1262c77633d5","ios":"levelo://app?vid=30b5fdc2-95f3-4609-a725-1262c77633d5"},"vehicle_type_id":"4","last_reported":1747825729,"current_range_meters":3200,"station_id":"ce4bhp92rcd13ifvqhbg","pricing_plan_id":"cebpf4jnsgd1na2vs0mg"},{"bike_id":"8f0f531d-6a65-4647-8a6f-baa3d982f42f","system_id":"levelo_inurba_marseille","lat":43.28115,"lon":5.42555,"is_reserved":false,"is_disabled":false,"rental_uris":{"android":"levelo://app?vid=8f0f531d-6a65-4647-8a6f-baa3d982f42f","ios":"levelo://app?vid=8f0f531d-6a65-4647-8a6f-baa3d982f42f"},"vehicle_type_id":"4","last_reported":1747825729,"current_range_meters":3600,"station_id":"","pricing_plan_id":"cebpf4jnsgd1na2vs0mg"},{"bike_id":"a5bcf3ab-5daa-4dec-898b-27b2e944e103","system_id":"levelo_inurba_marseille","lat":43.27308,"lon":5.41023,"is_reserved":false,"is_disabled":false,"rental_uris":{"android":"levelo://app?vid=a5bcf3ab-5daa-4dec-898b-27b2e944e103","ios":"levelo://app?vid=a5bcf3ab-5daa-4dec-898b-27b2e944e103"},"vehicle_type_id":"4","last_reported":1747825729,"current_range_meters":3600,"station_id":"","pricing_plan_id":"cebpf4jnsgd1na2vs0mg"},{"bike_id":"91e00f16-5866-4023-8cc3-ce3355fabc30","system_id":"levelo_inurba_marseille","lat":43.29577,"lon":5.36744,"is_reserved":false,"is_disabled":false,"rental_uris":{"android":"levelo://app?vid=91e00f16-5866-4023-8cc3-ce3355fabc30","ios":"levelo://app?vid=91e00f16-5866-4023-8cc3-ce3355fabc30"},"vehicle_type_id":"4","last_reported":1747825729,"current_range_meters":3600,"station_id":"ce4bgph2rcd13ifvqc2g","pricing_plan_id":"cebpf4jnsgd1na2vs0mg"},{"bike_id":"6ed59ea0-7f1c-4925-825f-c48f54045eb2","system_id":"levelo_inurba_marseille","lat":43.299828,"lon":5.380866,"is_reserved":false,"is_disabled":false,"rental_uris":{"android":"levelo://app?vid=6ed59ea0-7f1c-4925-825f-c48f54045eb2","ios":"levelo://app?vid=6ed59ea0-7f1c-4925-825f-c48f54045eb2"},"vehicle_type_id":"4","last_reported":1747825729,"current_range_meters":3600,"station_id":"ce4bguh2rcd13ifvqckg","pricing_plan_id":"cebpf4jnsgd1na2vs0mg"},{"bike_id":"a3ac6c35-73fe-4db5-93af-02ca4a8a9376","system_id":"levelo_inurba_marseille","lat":43.30229,"lon":5.40044,"is_reserved":false,"is_disabled":false,"rental_uris":{"android":"levelo://app?vid=a3ac6c35-73fe-4db5-93af-02ca4a8a9376","ios":"levelo://app?vid=a3ac6c35-73fe-4db5-93af-02ca4a8a9376"},"vehicle_type_id":"4","last_reported":1747825729,"current_range_meters":3600,"station_id":"ce4bgvh2rcd13ifvqcs0","pricing_plan_id":"cebpf4jnsgd1na2vs0mg"},{"bike_id":"85eaca89-9437-48d0-9bca-a254337b88db","system_id":"levelo_inurba_marseille","lat":43.27468,"lon":5.40933,"is_reserved":false,"is_disabled":false,"rental_uris":{"android":"levelo://app?vid=85eaca89-9437-48d0-9bca-a254337b88db","ios":"levelo://app?vid=85eaca89-9437-48d0-9bca-a254337b88db"},"vehicle_type_id":"4","last_reported":1747825729,"current_range_meters":4400,"station_id":"","pricing_plan_id":"cebpf4jnsgd1na2vs0mg"},{"bike_id":"d9a3907c-19ac-4c93-ab32-71f7bb8e1205","system_id":"levelo_inurba_marseille","lat":43.26792,"lon":5.39408,"is_reserved":false,"is_disabled":false,"rental_uris":{"android":"levelo://app?vid=d9a3907c-19ac-4c93-ab32-71f7bb8e1205","ios":"levelo://app?vid=d9a3907c-19ac-4c93-ab32-71f7bb8e1205"},"vehicle_type_id":"4","last_reported":1747825729,"current_range_meters":4400,"station_id":"ce4bhh12rcd13ifvqfg0","pricing_plan_id":"cebpf4jnsgd1na2vs0mg"},{"bike_id":"1addcad7-d488-4e1c-b76c-777e91802e42","system_id":"levelo_inurba_marseille","lat":43.25084,"lon":5.39527,"is_reserved":false,"is_disabled":false,"rental_uris":{"android":"levelo://app?vid=1addcad7-d488-4e1c-b76c-777e91802e42","ios":"levelo://app?vid=1addcad7-d488-4e1c-b76c-777e91802e42"},"vehicle_type_id":"4","last_reported":1747825729,"current_range_meters":4400,"station_id":"ce4bhm12rcd13ifvqgkg","pricing_plan_id":"cebpf4jnsgd1na2vs0mg"},{"bike_id":"2d81cb84-0dfb-4f49-abb3-f7075b71eb10","system_id":"levelo_inurba_marseille","lat":43.289286,"lon":5.383952,"is_reserved":false,"is_disabled":false,"rental_uris":{"android":"levelo://app?vid=2d81cb84-0dfb-4f49-abb3-f7075b71eb10","ios":"levelo://app?vid=2d81cb84-0dfb-4f49-abb3-f7075b71eb10"},"vehicle_type_id":"4","last_reported":1747825729,"current_range_meters":4800,"station_id":"ce4bh612rcd13ifvqe6g","pricing_plan_id":"cebpf4jnsgd1na2vs0mg"},{"bike_id":"35f4f27b-865c-4da1-9bad-e26db9f7ba5f","system_id":"levelo_inurba_marseille","lat":43.25584,"lon":5.38215,"is_reserved":false,"is_disabled":false,"rental_uris":{"android":"levelo://app?vid=35f4f27b-865c-4da1-9bad-e26db9f7ba5f","ios":"levelo://app?vid=35f4f27b-865c-4da1-9bad-e26db9f7ba5f"},"vehicle_type_id":"4","last_reported":1747825729,"current_range_meters":4800,"station_id":"ce4bhih2rcd13ifvqfs0","pricing_plan_id":"cebpf4jnsgd1na2vs0mg"},{"bike_id":"f9ade574-fcbb-4e51-9d3e-a181772db4b1","system_id":"levelo_inurba_marseille","lat":43.27056,"lon":5.40261,"is_reserved":false,"is_disabled":false,"rental_uris":{"android":"levelo://app?vid=f9ade574-fcbb-4e51-9d3e-a181772db4b1","ios":"levelo://app?vid=f9ade574-fcbb-4e51-9d3e-a181772db4b1"},"vehicle_type_id":"4","last_reported":1747825729,"current_range_meters":4800,"station_id":"ce4bhk92rcd13ifvqgc0","pricing_plan_id":"cebpf4jnsgd1na2vs0mg"},{"bike_id":"8a77c670-a7af-4ac0-9918-4e6c1c91e962","system_id":"levelo_inurba_marseille","lat":43.25049,"lon":5.39526,"is_reserved":false,"is_disabled":false,"rental_uris":{"android":"levelo://app?vid=8a77c670-a7af-4ac0-9918-4e6c1c91e962","ios":"levelo://app?vid=8a77c670-a7af-4ac0-9918-4e6c1c91e962"},"vehicle_type_id":"4","last_reported":1747825729,"current_range_meters":4800,"station_id":"ce4bhm12rcd13ifvqgkg","pricing_plan_id":"cebpf4jnsgd1na2vs0mg"},{"bike_id":"62521c7a-32b7-4f83-99f1-82aa2c393e80","system_id":"levelo_inurba_marseille","lat":43.32482,"lon":5.36559,"is_reserved":false,"is_disabled":false,"rental_uris":{"android":"levelo://app?vid=62521c7a-32b7-4f83-99f1-82aa2c393e80","ios":"levelo://app?vid=62521c7a-32b7-4f83-99f1-82aa2c393e80"},"vehicle_type_id":"4","last_reported":1747825729,"current_range_meters":4800,"station_id":"ce4bhs12rcd13ifvqhvg","pricing_plan_id":"cebpf4jnsgd1na2vs0mg"},{"bike_id":"10f82511-78f9-4537-a4e3-3c8c0ce14ef4","system_id":"levelo_inurba_marseille","lat":43.32485,"lon":5.36554,"is_reserved":false,"is_disabled":false,"rental_uris":{"android":"levelo://app?vid=10f82511-78f9-4537-a4e3-3c8c0ce14ef4","ios":"levelo://app?vid=10f82511-78f9-4537-a4e3-3c8c0ce14ef4"},"vehicle_type_id":"4","last_reported":1747825729,"current_range_meters":4800,"station_id":"ce4bhs12rcd13ifvqhvg","pricing_plan_id":"cebpf4jnsgd1na2vs0mg"},{"bike_id":"04b8408e-d775-4c46-ab69-465af288abc6","system_id":"levelo_inurba_marseille","lat":43.29422,"lon":5.38626,"is_reserved":false,"is_disabled":false,"rental_uris":{"android":"levelo://app?vid=04b8408e-d775-4c46-ab69-465af288abc6","ios":"levelo://app?vid=04b8408e-d775-4c46-ab69-465af288abc6"},"vehicle_type_id":"4","last_reported":1747825729,"current_range_meters":5600,"station_id":"ce4bh2h2rcd13ifvqdh0","pricing_plan_id":"cebpf4jnsgd1na2vs0mg"},{"bike_id":"ff523201-568a-4aa4-86e2-49259a57c89e","system_id":"levelo_inurba_marseille","lat":43.28417,"lon":5.34986,"is_reserved":false,"is_disabled":false,"rental_uris":{"android":"levelo://app?vid=ff523201-568a-4aa4-86e2-49259a57c89e","ios":"levelo://app?vid=ff523201-568a-4aa4-86e2-49259a57c89e"},"vehicle_type_id":"4","last_reported":1747825729,"current_range_meters":5600,"station_id":"ce4bhbh2rcd13ifvqepg","pricing_plan_id":"cebpf4jnsgd1na2vs0mg"},{"bike_id":"ecb6da83-4520-47f7-9c38-4990af6000e3","system_id":"levelo_inurba_marseille","lat":43.28613,"lon":5.35101,"is_reserved":false,"is_disabled":false,"rental_uris":{"android":"levelo://app?vid=ecb6da83-4520-47f7-9c38-4990af6000e3","ios":"levelo://app?vid=ecb6da83-4520-47f7-9c38-4990af6000e3"},"vehicle_type_id":"4","last_reported":1747825729,"current_range_meters":5600,"station_id":"ce4bhch2rcd13ifvqeug","pricing_plan_id":"cebpf4jnsgd1na2vs0mg"},{"bike_id":"e40320ee-7d80-44d7-8a02-d009e3cb310a","system_id":"levelo_inurba_marseille","lat":43.2314,"lon":5.43715,"is_reserved":false,"is_disabled":false,"rental_uris":{"android":"levelo://app?vid=e40320ee-7d80-44d7-8a02-d009e3cb310a","ios":"levelo://app?vid=e40320ee-7d80-44d7-8a02-d009e3cb310a"},"vehicle_type_id":"4","last_reported":1747825729,"current_range_meters":5600,"station_id":"ce4bhmp2rcd13ifvqgog","pricing_plan_id":"cebpf4jnsgd1na2vs0mg"},{"bike_id":"3e680780-4dac-4539-8217-ea1fc02fa0d5","system_id":"levelo_inurba_marseille","lat":43.30535,"lon":5.36704,"is_reserved":false,"is_disabled":false,"rental_uris":{"android":"levelo://app?vid=3e680780-4dac-4539-8217-ea1fc02fa0d5","ios":"levelo://app?vid=3e680780-4dac-4539-8217-ea1fc02fa0d5"},"vehicle_type_id":"4","last_reported":1747825729,"current_range_meters":6000,"station_id":"ce4bgrp2rcd13ifvqc9g","pricing_plan_id":"cebpf4jnsgd1na2vs0mg"},{"bike_id":"10ff257d-b40f-41a6-92d3-49c041d80fca","system_id":"levelo_inurba_marseille","lat":43.25503,"lon":5.37661,"is_reserved":false,"is_disabled":false,"rental_uris":{"android":"levelo://app?vid=10ff257d-b40f-41a6-92d3-49c041d80fca","ios":"levelo://app?vid=10ff257d-b40f-41a6-92d3-49c041d80fca"},"vehicle_type_id":"4","last_reported":1747825729,"current_range_meters":6000,"station_id":"ce4bhh12rcd13ifvqff0","pricing_plan_id":"cebpf4jnsgd1na2vs0mg"},{"bike_id":"ac7357c5-402c-44a2-bf68-55151ae509aa","system_id":"levelo_inurba_marseille","lat":43.26781,"lon":5.39417,"is_reserved":false,"is_disabled":false,"rental_uris":{"android":"levelo://app?vid=ac7357c5-402c-44a2-bf68-55151ae509aa","ios":"levelo://app?vid=ac7357c5-402c-44a2-bf68-55151ae509aa"},"vehicle_type_id":"4","last_reported":1747825729,"current_range_meters":6000,"station_id":"ce4bhh12rcd13ifvqfg0","pricing_plan_id":"cebpf4jnsgd1na2vs0mg"},{"bike_id":"faacc704-ee1e-4415-bdfa-f66229f85398","system_id":"levelo_inurba_marseille","lat":43.2574,"lon":5.41073,"is_reserved":false,"is_disabled":false,"rental_uris":{"android":"levelo://app?vid=faacc704-ee1e-4415-bdfa-f66229f85398","ios":"levelo://app?vid=faacc704-ee1e-4415-bdfa-f66229f85398"},"vehicle_type_id":"4","last_reported":1747825729,"current_range_meters":6000,"station_id":"ce4bhkp2rcd13ifvqgd0","pricing_plan_id":"cebpf4jnsgd1na2vs0mg"},{"bike_id":"165d67e7-7820-413e-9335-5112e6b2d1ca","system_id":"levelo_inurba_marseille","lat":43.32661,"lon":5.40982,"is_reserved":false,"is_disabled":false,"rental_uris":{"android":"levelo://app?vid=165d67e7-7820-413e-9335-5112e6b2d1ca","ios":"levelo://app?vid=165d67e7-7820-413e-9335-5112e6b2d1ca"},"vehicle_type_id":"4","last_reported":1747825729,"current_range_meters":6000,"station_id":"ce4bhpp2rcd13ifvqhgg","pricing_plan_id":"cebpf4jnsgd1na2vs0mg"},{"bike_id":"c1e8085f-73a5-4598-be3c-0bad91937a79","system_id":"levelo_inurba_marseille","lat":43.30541,"lon":5.36542,"is_reserved":false,"is_disabled":false,"rental_uris":{"android":"levelo://app?vid=c1e8085f-73a5-4598-be3c-0bad91937a79","ios":"levelo://app?vid=c1e8085f-73a5-4598-be3c-0bad91937a79"},"vehicle_type_id":"4","last_reported":1747825729,"current_range_meters":6400,"station_id":"ce4bgs12rcd13ifvqcag","pricing_plan_id":"cebpf4jnsgd1na2vs0mg"},{"bike_id":"71cef436-e66c-492e-b128-ca26d5ce4fe9","system_id":"levelo_inurba_marseille","lat":43.26215,"lon":5.37442,"is_reserved":false,"is_disabled":false,"rental_uris":{"android":"levelo://app?vid=71cef436-e66c-492e-b128-ca26d5ce4fe9","ios":"levelo://app?vid=71cef436-e66c-492e-b128-ca26d5ce4fe9"},"vehicle_type_id":"4","last_reported":1747825729,"current_range_meters":6400,"station_id":"ce4bhgp2rcd13ifvqfc0","pricing_plan_id":"cebpf4jnsgd1na2vs0mg"},{"bike_id":"4e52e8c8-3d4b-4866-bf0a-ed2bc08563ee","system_id":"levelo_inurba_marseille","lat":43.26955,"lon":5.38635,"is_reserved":false,"is_disabled":false,"rental_uris":{"android":"levelo://app?vid=4e52e8c8-3d4b-4866-bf0a-ed2bc08563ee","ios":"levelo://app?vid=4e52e8c8-3d4b-4866-bf0a-ed2bc08563ee"},"vehicle_type_id":"4","last_reported":1747825729,"current_range_meters":6400,"station_id":"ce4bhh92rcd13ifvqfh0","pricing_plan_id":"cebpf4jnsgd1na2vs0mg"},{"bike_id":"00cb99e8-0d75-4db1-bcd5-27f07b38577d","system_id":"levelo_inurba_marseille","lat":43.28,"lon":5.4,"is_reserved":false,"is_disabled":false,"rental_uris":{"android":"levelo://app?vid=00cb99e8-0d75-4db1-bcd5-27f07b38577d","ios":"levelo://app?vid=00cb99e8-0d75-4db1-bcd5-27f07b38577d"},"vehicle_type_id":"4","last_reported":1747825729,"current_range_meters":6400,"station_id":"ce4bho92rcd13ifvqh4g","pricing_plan_id":"cebpf4jnsgd1na2vs0mg"},{"bike_id":"f67bb61c-32fe-4af5-8e50-8d69d1063903","system_id":"levelo_inurba_marseille","lat":43.32039,"lon":5.41552,"is_reserved":false,"is_disabled":false,"rental_uris":{"android":"levelo://app?vid=f67bb61c-32fe-4af5-8e50-8d69d1063903","ios":"levelo://app?vid=f67bb61c-32fe-4af5-8e50-8d69d1063903"},"vehicle_type_id":"4","last_reported":1747825729,"current_range_meters":6400,"station_id":"ce4bhq92rcd13ifvqhkg","pricing_plan_id":"cebpf4jnsgd1na2vs0mg"},{"bike_id":"bffbaf88-357a-4e87-a68c-a9a27a6e01e6","system_id":"levelo_inurba_marseille","lat":43.26215,"lon":5.42115,"is_reserved":false,"is_disabled":false,"rental_uris":{"android":"levelo://app?vid=bffbaf88-357a-4e87-a68c-a9a27a6e01e6","ios":"levelo://app?vid=bffbaf88-357a-4e87-a68c-a9a27a6e01e6"},"vehicle_type_id":"4","last_reported":1747825729,"current_range_meters":6800,"station_id":"","pricing_plan_id":"cebpf4jnsgd1na2vs0mg"},{"bike_id":"4dd3e4df-3e9f-4a24-bbb8-326c9b3f2605","system_id":"levelo_inurba_marseille","lat":43.262318,"lon":5.417375,"is_reserved":false,"is_disabled":false,"rental_uris":{"android":"levelo://app?vid=4dd3e4df-3e9f-4a24-bbb8-326c9b3f2605","ios":"levelo://app?vid=4dd3e4df-3e9f-4a24-bbb8-326c9b3f2605"},"vehicle_type_id":"4","last_reported":1747825729,"current_range_meters":6800,"station_id":"","pricing_plan_id":"cebpf4jnsgd1na2vs0mg"},{"bike_id":"2054fceb-a0ae-47a1-8ab1-0a794b8907f9","system_id":"levelo_inurba_marseille","lat":43.297436,"lon":5.390541,"is_reserved":false,"is_disabled":false,"rental_uris":{"android":"levelo://app?vid=2054fceb-a0ae-47a1-8ab1-0a794b8907f9","ios":"levelo://app?vid=2054fceb-a0ae-47a1-8ab1-0a794b8907f9"},"vehicle_type_id":"4","last_reported":1747825729,"current_range_meters":6800,"station_id":"","pricing_plan_id":"cebpf4jnsgd1na2vs0mg"},{"bike_id":"559b35e6-1af9-49a8-a151-99590d48c023","system_id":"levelo_inurba_marseille","lat":43.3091,"lon":5.36849,"is_reserved":false,"is_disabled":false,"rental_uris":{"android":"levelo://app?vid=559b35e6-1af9-49a8-a151-99590d48c023","ios":"levelo://app?vid=559b35e6-1af9-49a8-a151-99590d48c023"},"vehicle_type_id":"4","last_reported":1747825729,"current_range_meters":6800,"station_id":"ce4bgn92rcd13ifvqbvg","pricing_plan_id":"cebpf4jnsgd1na2vs0mg"},{"bike_id":"d0b6d1e3-af36-4bf3-b60f-31bf11e9159a","system_id":"levelo_inurba_marseille","lat":43.29872,"lon":5.36287,"is_reserved":false,"is_disabled":false,"rental_uris":{"android":"levelo://app?vid=d0b6d1e3-af36-4bf3-b60f-31bf11e9159a","ios":"levelo://app?vid=d0b6d1e3-af36-4bf3-b60f-31bf11e9159a"},"vehicle_type_id":"4","last_reported":1747825729,"current_range_meters":6800,"station_id":"ce4bgpp2rcd13ifvqc3g","pricing_plan_id":"cebpf4jnsgd1na2vs0mg"},{"bike_id":"7514cf23-e4d0-46c9-89df-0f8b92d56ab7","system_id":"levelo_inurba_marseille","lat":43.30904,"lon":5.37202,"is_reserved":false,"is_disabled":false,"rental_uris":{"android":"levelo://app?vid=7514cf23-e4d0-46c9-89df-0f8b92d56ab7","ios":"levelo://app?vid=7514cf23-e4d0-46c9-89df-0f8b92d56ab7"},"vehicle_type_id":"4","last_reported":1747825729,"current_range_meters":6800,"station_id":"ce4bguh2rcd13ifvqckg","pricing_plan_id":"cebpf4jnsgd1na2vs0mg"},{"bike_id":"3ea66e7c-bead-4e1f-b1e7-0e81d77d1807","system_id":"levelo_inurba_marseille","lat":43.30595,"lon":5.39365,"is_reserved":false,"is_disabled":false,"rental_uris":{"android":"levelo://app?vid=3ea66e7c-bead-4e1f-b1e7-0e81d77d1807","ios":"levelo://app?vid=3ea66e7c-bead-4e1f-b1e7-0e81d77d1807"},"vehicle_type_id":"4","last_reported":1747825729,"current_range_meters":6800,"station_id":"ce4bh0p2rcd13ifvqd80","pricing_plan_id":"cebpf4jnsgd1na2vs0mg"},{"bike_id":"c9be6c56-98c9-4394-bab3-eeebb8aabe49","system_id":"levelo_inurba_marseille","lat":43.29434,"lon":5.39754,"is_reserved":false,"is_disabled":false,"rental_uris":{"android":"levelo://app?vid=c9be6c56-98c9-4394-bab3-eeebb8aabe49","ios":"levelo://app?vid=c9be6c56-98c9-4394-bab3-eeebb8aabe49"},"vehicle_type_id":"4","last_reported":1747825729,"current_range_meters":6800,"station_id":"ce4bh3h2rcd13ifvqdo0","pricing_plan_id":"cebpf4jnsgd1na2vs0mg"},{"bike_id":"1c0d4498-0de9-4c0e-b11f-6f5a085faac8","system_id":"levelo_inurba_marseille","lat":43.27046,"lon":5.4025,"is_reserved":false,"is_disabled":false,"rental_uris":{"android":"levelo://app?vid=1c0d4498-0de9-4c0e-b11f-6f5a085faac8","ios":"levelo://app?vid=1c0d4498-0de9-4c0e-b11f-6f5a085faac8"},"vehicle_type_id":"4","last_reported":1747825729,"current_range_meters":6800,"station_id":"ce4bhk92rcd13ifvqgc0","pricing_plan_id":"cebpf4jnsgd1na2vs0mg"},{"bike_id":"aaed6d56-8e6c-4be8-b9ea-1de555c2f33c","system_id":"levelo_inurba_marseille","lat":43.231544,"lon":5.437176,"is_reserved":false,"is_disabled":false,"rental_uris":{"android":"levelo://app?vid=aaed6d56-8e6c-4be8-b9ea-1de555c2f33c","ios":"levelo://app?vid=aaed6d56-8e6c-4be8-b9ea-1de555c2f33c"},"vehicle_type_id":"4","last_reported":1747825729,"current_range_meters":6800,"station_id":"ce4bhmp2rcd13ifvqgog","pricing_plan_id":"cebpf4jnsgd1na2vs0mg"},{"bike_id":"8b533d5a-8464-4492-b066-9d3bfa56377d","system_id":"levelo_inurba_marseille","lat":43.21743,"lon":5.34601,"is_reserved":false,"is_disabled":false,"rental_uris":{"android":"levelo://app?vid=8b533d5a-8464-4492-b066-9d3bfa56377d","ios":"levelo://app?vid=8b533d5a-8464-4492-b066-9d3bfa56377d"},"vehicle_type_id":"4","last_reported":1747825729,"current_range_meters":6800,"station_id":"st_cvj6r9ubvosntc0bgbag","pricing_plan_id":"cebpf4jnsgd1na2vs0mg"},{"bike_id":"71e146ad-5169-4dc5-a288-c7c746aad618","system_id":"levelo_inurba_marseille","lat":43.33203,"lon":5.39573,"is_reserved":false,"is_disabled":false,"rental_uris":{"android":"levelo://app?vid=71e146ad-5169-4dc5-a288-c7c746aad618","ios":"levelo://app?vid=71e146ad-5169-4dc5-a288-c7c746aad618"},"vehicle_type_id":"4","last_reported":1747825729,"current_range_meters":7200,"station_id":"","pricing_plan_id":"cebpf4jnsgd1na2vs0mg"},{"bike_id":"98667e92-0560-4f96-9391-7c0cce8f19a1","system_id":"levelo_inurba_marseille","lat":43.28457,"lon":5.35892,"is_reserved":false,"is_disabled":false,"rental_uris":{"android":"levelo://app?vid=98667e92-0560-4f96-9391-7c0cce8f19a1","ios":"levelo://app?vid=98667e92-0560-4f96-9391-7c0cce8f19a1"},"vehicle_type_id":"4","last_reported":1747825729,"current_range_meters":7200,"station_id":"ce4bhah2rcd13ifvqei0","pricing_plan_id":"cebpf4jnsgd1na2vs0mg"},{"bike_id":"a771f950-7af0-4fad-88ac-7f68b7e2f051","system_id":"levelo_inurba_marseille","lat":43.23961,"lon":5.36629,"is_reserved":false,"is_disabled":false,"rental_uris":{"android":"levelo://app?vid=a771f950-7af0-4fad-88ac-7f68b7e2f051","ios":"levelo://app?vid=a771f950-7af0-4fad-88ac-7f68b7e2f051"},"vehicle_type_id":"4","last_reported":1747825729,"current_range_meters":7200,"station_id":"ce4bhi12rcd13ifvqfp0","pricing_plan_id":"cebpf4jnsgd1na2vs0mg"},{"bike_id":"b8b511c7-6f48-45be-97af-1e0036b54cc5","system_id":"levelo_inurba_marseille","lat":43.27354,"lon":5.42413,"is_reserved":false,"is_disabled":false,"rental_uris":{"android":"levelo://app?vid=b8b511c7-6f48-45be-97af-1e0036b54cc5","ios":"levelo://app?vid=b8b511c7-6f48-45be-97af-1e0036b54cc5"},"vehicle_type_id":"4","last_reported":1747825729,"current_range_meters":8000,"station_id":"","pricing_plan_id":"cebpf4jnsgd1na2vs0mg"},{"bike_id":"10309234-ebd9-4d07-918c-0e2a56d95dfb","system_id":"levelo_inurba_marseille","lat":43.30177,"lon":5.38071,"is_reserved":false,"is_disabled":false,"rental_uris":{"android":"levelo://app?vid=10309234-ebd9-4d07-918c-0e2a56d95dfb","ios":"levelo://app?vid=10309234-ebd9-4d07-918c-0e2a56d95dfb"},"vehicle_type_id":"4","last_reported":1747825729,"current_range_meters":8000,"station_id":"ce4bgjp2rcd13ifvqbh0","pricing_plan_id":"cebpf4jnsgd1na2vs0mg"},{"bike_id":"4d9e79fb-97c0-40c3-8d6a-f063797c3e79","system_id":"levelo_inurba_marseille","lat":43.31069,"lon":5.38352,"is_reserved":false,"is_disabled":false,"rental_uris":{"android":"levelo://app?vid=4d9e79fb-97c0-40c3-8d6a-f063797c3e79","ios":"levelo://app?vid=4d9e79fb-97c0-40c3-8d6a-f063797c3e79"},"vehicle_type_id":"4","last_reported":1747825729,"current_range_meters":8000,"station_id":"ce4bgv92rcd13ifvqcr0","pricing_plan_id":"cebpf4jnsgd1na2vs0mg"},{"bike_id":"eff64f30-3ef2-45db-aba4-b67ffd1c3abb","system_id":"levelo_inurba_marseille","lat":43.29198,"lon":5.39318,"is_reserved":false,"is_disabled":false,"rental_uris":{"android":"levelo://app?vid=eff64f30-3ef2-45db-aba4-b67ffd1c3abb","ios":"levelo://app?vid=eff64f30-3ef2-45db-aba4-b67ffd1c3abb"},"vehicle_type_id":"4","last_reported":1747825729,"current_range_meters":8000,"station_id":"ce4bh192rcd13ifvqdd0","pricing_plan_id":"cebpf4jnsgd1na2vs0mg"},{"bike_id":"119414dd-a64a-482e-b0a3-d8cde5e6007d","system_id":"levelo_inurba_marseille","lat":43.2781,"lon":5.40714,"is_reserved":false,"is_disabled":false,"rental_uris":{"android":"levelo://app?vid=119414dd-a64a-482e-b0a3-d8cde5e6007d","ios":"levelo://app?vid=119414dd-a64a-482e-b0a3-d8cde5e6007d"},"vehicle_type_id":"4","last_reported":1747825729,"current_range_meters":8000,"station_id":"ce4bhnh2rcd13ifvqgtg","pricing_plan_id":"cebpf4jnsgd1na2vs0mg"},{"bike_id":"d432b018-2a72-4f2c-9393-4b986dc48fc9","system_id":"levelo_inurba_marseille","lat":43.28075,"lon":5.39662,"is_reserved":false,"is_disabled":false,"rental_uris":{"android":"levelo://app?vid=d432b018-2a72-4f2c-9393-4b986dc48fc9","ios":"levelo://app?vid=d432b018-2a72-4f2c-9393-4b986dc48fc9"},"vehicle_type_id":"4","last_reported":1747825729,"current_range_meters":8000,"station_id":"ce4bho12rcd13ifvqh2g","pricing_plan_id":"cebpf4jnsgd1na2vs0mg"},{"bike_id":"e8162579-a5ad-485f-ad83-fec8a2ebe7e1","system_id":"levelo_inurba_marseille","lat":43.26826,"lon":5.39099,"is_reserved":false,"is_disabled":false,"rental_uris":{"android":"levelo://app?vid=e8162579-a5ad-485f-ad83-fec8a2ebe7e1","ios":"levelo://app?vid=e8162579-a5ad-485f-ad83-fec8a2ebe7e1"},"vehicle_type_id":"4","last_reported":1747825729,"current_range_meters":8400,"station_id":"","pricing_plan_id":"cebpf4jnsgd1na2vs0mg"},{"bike_id":"7b90bbd6-6b9c-4f18-86e7-55e5e43c995c","system_id":"levelo_inurba_marseille","lat":43.26104,"lon":5.41473,"is_reserved":false,"is_disabled":false,"rental_uris":{"android":"levelo://app?vid=7b90bbd6-6b9c-4f18-86e7-55e5e43c995c","ios":"levelo://app?vid=7b90bbd6-6b9c-4f18-86e7-55e5e43c995c"},"vehicle_type_id":"4","last_reported":1747825729,"current_range_meters":8400,"station_id":"","pricing_plan_id":"cebpf4jnsgd1na2vs0mg"},{"bike_id":"dd9d25cb-a17e-4f54-8e76-25a410946556","system_id":"levelo_inurba_marseille","lat":43.28271,"lon":5.35068,"is_reserved":false,"is_disabled":false,"rental_uris":{"android":"levelo://app?vid=dd9d25cb-a17e-4f54-8e76-25a410946556","ios":"levelo://app?vid=dd9d25cb-a17e-4f54-8e76-25a410946556"},"vehicle_type_id":"4","last_reported":1747825729,"current_range_meters":8400,"station_id":"","pricing_plan_id":"cebpf4jnsgd1na2vs0mg"},{"bike_id":"9b3f8e5a-be8a-484d-bf29-04759dd5fcb3","system_id":"levelo_inurba_marseille","lat":43.30546,"lon":5.36532,"is_reserved":false,"is_disabled":false,"rental_uris":{"android":"levelo://app?vid=9b3f8e5a-be8a-484d-bf29-04759dd5fcb3","ios":"levelo://app?vid=9b3f8e5a-be8a-484d-bf29-04759dd5fcb3"},"vehicle_type_id":"4","last_reported":1747825729,"current_range_meters":8400,"station_id":"ce4bgs12rcd13ifvqcag","pricing_plan_id":"cebpf4jnsgd1na2vs0mg"},{"bike_id":"50ac6a6d-0d91-49e8-a0de-240113c8218b","system_id":"levelo_inurba_marseille","lat":43.28416,"lon":5.3752,"is_reserved":false,"is_disabled":false,"rental_uris":{"android":"levelo://app?vid=50ac6a6d-0d91-49e8-a0de-240113c8218b","ios":"levelo://app?vid=50ac6a6d-0d91-49e8-a0de-240113c8218b"},"vehicle_type_id":"4","last_reported":1747825729,"current_range_meters":8400,"station_id":"ce4bh412rcd13ifvqds0","pricing_plan_id":"cebpf4jnsgd1na2vs0mg"},{"bike_id":"623b0873-a1b5-4858-9145-f29c5d7783b5","system_id":"levelo_inurba_marseille","lat":43.26554,"lon":5.37281,"is_reserved":false,"is_disabled":false,"rental_uris":{"android":"levelo://app?vid=623b0873-a1b5-4858-9145-f29c5d7783b5","ios":"levelo://app?vid=623b0873-a1b5-4858-9145-f29c5d7783b5"},"vehicle_type_id":"4","last_reported":1747825729,"current_range_meters":8400,"station_id":"ce4bhg12rcd13ifvqf70","pricing_plan_id":"cebpf4jnsgd1na2vs0mg"},{"bike_id":"3552fbf2-b43a-446f-93f5-d695fc251b73","system_id":"levelo_inurba_marseille","lat":43.25171,"lon":5.37532,"is_reserved":false,"is_disabled":false,"rental_uris":{"android":"levelo://app?vid=3552fbf2-b43a-446f-93f5-d695fc251b73","ios":"levelo://app?vid=3552fbf2-b43a-446f-93f5-d695fc251b73"},"vehicle_type_id":"4","last_reported":1747825729,"current_range_meters":8800,"station_id":"","pricing_plan_id":"cebpf4jnsgd1na2vs0mg"},{"bike_id":"dc80936a-51b4-4ef9-b71e-e259b58f2ac3","system_id":"levelo_inurba_marseille","lat":43.33185,"lon":5.3959,"is_reserved":false,"is_disabled":false,"rental_uris":{"android":"levelo://app?vid=dc80936a-51b4-4ef9-b71e-e259b58f2ac3","ios":"levelo://app?vid=dc80936a-51b4-4ef9-b71e-e259b58f2ac3"},"vehicle_type_id":"4","last_reported":1747825729,"current_range_meters":8800,"station_id":"","pricing_plan_id":"cebpf4jnsgd1na2vs0mg"},{"bike_id":"945f77ba-12e3-438c-ac62-fd0ac5b03722","system_id":"levelo_inurba_marseille","lat":43.27621,"lon":5.36103,"is_reserved":false,"is_disabled":false,"rental_uris":{"android":"levelo://app?vid=945f77ba-12e3-438c-ac62-fd0ac5b03722","ios":"levelo://app?vid=945f77ba-12e3-438c-ac62-fd0ac5b03722"},"vehicle_type_id":"4","last_reported":1747825729,"current_range_meters":8800,"station_id":"ce4bgj92rcd13ifvqbe0","pricing_plan_id":"cebpf4jnsgd1na2vs0mg"},{"bike_id":"0c19fbeb-42ad-4f5a-a5a6-b82fca91ac12","system_id":"levelo_inurba_marseille","lat":43.280355,"lon":5.36936,"is_reserved":false,"is_disabled":false,"rental_uris":{"android":"levelo://app?vid=0c19fbeb-42ad-4f5a-a5a6-b82fca91ac12","ios":"levelo://app?vid=0c19fbeb-42ad-4f5a-a5a6-b82fca91ac12"},"vehicle_type_id":"4","last_reported":1747825729,"current_range_meters":8800,"station_id":"ce4bha12rcd13ifvqef0","pricing_plan_id":"cebpf4jnsgd1na2vs0mg"},{"bike_id":"9c51d666-1644-4f56-9213-445f99048dc2","system_id":"levelo_inurba_marseille","lat":43.25499,"lon":5.37647,"is_reserved":false,"is_disabled":false,"rental_uris":{"android":"levelo://app?vid=9c51d666-1644-4f56-9213-445f99048dc2","ios":"levelo://app?vid=9c51d666-1644-4f56-9213-445f99048dc2"},"vehicle_type_id":"4","last_reported":1747825729,"current_range_meters":8800,"station_id":"ce4bhh12rcd13ifvqff0","pricing_plan_id":"cebpf4jnsgd1na2vs0mg"},{"bike_id":"68211546-20a7-4d18-a9cc-1bc4ae770ed5","system_id":"levelo_inurba_marseille","lat":43.27696,"lon":5.38882,"is_reserved":false,"is_disabled":false,"rental_uris":{"android":"levelo://app?vid=68211546-20a7-4d18-a9cc-1bc4ae770ed5","ios":"levelo://app?vid=68211546-20a7-4d18-a9cc-1bc4ae770ed5"},"vehicle_type_id":"4","last_reported":1747825729,"current_range_meters":8800,"station_id":"ce4bhi12rcd13ifvqfo0","pricing_plan_id":"cebpf4jnsgd1na2vs0mg"},{"bike_id":"7163c180-fced-40f4-bb49-90f589986b7a","system_id":"levelo_inurba_marseille","lat":43.24545,"lon":5.39524,"is_reserved":false,"is_disabled":false,"rental_uris":{"android":"levelo://app?vid=7163c180-fced-40f4-bb49-90f589986b7a","ios":"levelo://app?vid=7163c180-fced-40f4-bb49-90f589986b7a"},"vehicle_type_id":"4","last_reported":1747825729,"current_range_meters":8800,"station_id":"ce4bhlp2rcd13ifvqgjg","pricing_plan_id":"cebpf4jnsgd1na2vs0mg"},{"bike_id":"b4dfcdc2-6479-4783-9eb0-5b6bef6a5c8e","system_id":"levelo_inurba_marseille","lat":43.23143,"lon":5.43729,"is_reserved":false,"is_disabled":false,"rental_uris":{"android":"levelo://app?vid=b4dfcdc2-6479-4783-9eb0-5b6bef6a5c8e","ios":"levelo://app?vid=b4dfcdc2-6479-4783-9eb0-5b6bef6a5c8e"},"vehicle_type_id":"4","last_reported":1747825729,"current_range_meters":8800,"station_id":"ce4bhmp2rcd13ifvqgog","pricing_plan_id":"cebpf4jnsgd1na2vs0mg"},{"bike_id":"90956d0d-991e-4e60-b5aa-bfb4029d1725","system_id":"levelo_inurba_marseille","lat":43.27987,"lon":5.41649,"is_reserved":false,"is_disabled":false,"rental_uris":{"android":"levelo://app?vid=90956d0d-991e-4e60-b5aa-bfb4029d1725","ios":"levelo://app?vid=90956d0d-991e-4e60-b5aa-bfb4029d1725"},"vehicle_type_id":"4","last_reported":1747825729,"current_range_meters":8800,"station_id":"ce4bho12rcd13ifvqh1g","pricing_plan_id":"cebpf4jnsgd1na2vs0mg"},{"bike_id":"1c1345fe-714e-4c02-b2b9-a549c7b5fb19","system_id":"levelo_inurba_marseille","lat":43.32486,"lon":5.36551,"is_reserved":false,"is_disabled":false,"rental_uris":{"android":"levelo://app?vid=1c1345fe-714e-4c02-b2b9-a549c7b5fb19","ios":"levelo://app?vid=1c1345fe-714e-4c02-b2b9-a549c7b5fb19"},"vehicle_type_id":"4","last_reported":1747825729,"current_range_meters":8800,"station_id":"ce4bhs12rcd13ifvqhvg","pricing_plan_id":"cebpf4jnsgd1na2vs0mg"},{"bike_id":"738d422a-e7cc-489e-9c51-560411a1c463","system_id":"levelo_inurba_marseille","lat":43.28416,"lon":5.34983,"is_reserved":false,"is_disabled":false,"rental_uris":{"android":"levelo://app?vid=738d422a-e7cc-489e-9c51-560411a1c463","ios":"levelo://app?vid=738d422a-e7cc-489e-9c51-560411a1c463"},"vehicle_type_id":"4","last_reported":1747825729,"current_range_meters":9200,"station_id":"ce4bhbh2rcd13ifvqepg","pricing_plan_id":"cebpf4jnsgd1na2vs0mg"},{"bike_id":"c3c11b11-8507-45b4-bd48-1e3bdd46fbbe","system_id":"levelo_inurba_marseille","lat":43.23203,"lon":5.39986,"is_reserved":false,"is_disabled":false,"rental_uris":{"android":"levelo://app?vid=c3c11b11-8507-45b4-bd48-1e3bdd46fbbe","ios":"levelo://app?vid=c3c11b11-8507-45b4-bd48-1e3bdd46fbbe"},"vehicle_type_id":"4","last_reported":1747825729,"current_range_meters":9200,"station_id":"ce4bhn12rcd13ifvqgqg","pricing_plan_id":"cebpf4jnsgd1na2vs0mg"},{"bike_id":"b372620f-8132-4e7e-8d1a-e467489438c7","system_id":"levelo_inurba_marseille","lat":43.28697,"lon":5.39982,"is_reserved":false,"is_disabled":false,"rental_uris":{"android":"levelo://app?vid=b372620f-8132-4e7e-8d1a-e467489438c7","ios":"levelo://app?vid=b372620f-8132-4e7e-8d1a-e467489438c7"},"vehicle_type_id":"4","last_reported":1747825729,"current_range_meters":9200,"station_id":"ce4bho92rcd13ifvqh3g","pricing_plan_id":"cebpf4jnsgd1na2vs0mg"},{"bike_id":"1ff4dd87-bf56-4ab1-8365-aad71fcb827c","system_id":"levelo_inurba_marseille","lat":43.316076,"lon":5.423906,"is_reserved":false,"is_disabled":false,"rental_uris":{"android":"levelo://app?vid=1ff4dd87-bf56-4ab1-8365-aad71fcb827c","ios":"levelo://app?vid=1ff4dd87-bf56-4ab1-8365-aad71fcb827c"},"vehicle_type_id":"4","last_reported":1747825729,"current_range_meters":9200,"station_id":"ce4bhp92rcd13ifvqhbg","pricing_plan_id":"cebpf4jnsgd1na2vs0mg"},{"bike_id":"d39fb79a-f02f-47e4-b8f0-9346b4d8f867","system_id":"levelo_inurba_marseille","lat":43.33017,"lon":5.39031,"is_reserved":false,"is_disabled":false,"rental_uris":{"android":"levelo://app?vid=d39fb79a-f02f-47e4-b8f0-9346b4d8f867","ios":"levelo://app?vid=d39fb79a-f02f-47e4-b8f0-9346b4d8f867"},"vehicle_type_id":"4","last_reported":1747825729,"current_range_meters":9200,"station_id":"ce4bhr92rcd13ifvqhrg","pricing_plan_id":"cebpf4jnsgd1na2vs0mg"},{"bike_id":"b6b7a408-e272-4be3-bbc5-c1e928c19443","system_id":"levelo_inurba_marseille","lat":43.30614,"lon":5.39389,"is_reserved":false,"is_disabled":false,"rental_uris":{"android":"levelo://app?vid=b6b7a408-e272-4be3-bbc5-c1e928c19443","ios":"levelo://app?vid=b6b7a408-e272-4be3-bbc5-c1e928c19443"},"vehicle_type_id":"4","last_reported":1747825729,"current_range_meters":9600,"station_id":"ce4bh0p2rcd13ifvqd80","pricing_plan_id":"cebpf4jnsgd1na2vs0mg"},{"bike_id":"e3934b85-8c3a-4288-8fb7-a810f7a88ff7","system_id":"levelo_inurba_marseille","lat":43.28415,"lon":5.34987,"is_reserved":false,"is_disabled":false,"rental_uris":{"android":"levelo://app?vid=e3934b85-8c3a-4288-8fb7-a810f7a88ff7","ios":"levelo://app?vid=e3934b85-8c3a-4288-8fb7-a810f7a88ff7"},"vehicle_type_id":"4","last_reported":1747825729,"current_range_meters":9600,"station_id":"ce4bhbh2rcd13ifvqepg","pricing_plan_id":"cebpf4jnsgd1na2vs0mg"},{"bike_id":"3a12f6f8-b587-475f-b77b-4c8525b29997","system_id":"levelo_inurba_marseille","lat":43.2829,"lon":5.35072,"is_reserved":false,"is_disabled":false,"rental_uris":{"android":"levelo://app?vid=3a12f6f8-b587-475f-b77b-4c8525b29997","ios":"levelo://app?vid=3a12f6f8-b587-475f-b77b-4c8525b29997"},"vehicle_type_id":"4","last_reported":1747825729,"current_range_meters":9600,"station_id":"ce4bhbp2rcd13ifvqerg","pricing_plan_id":"cebpf4jnsgd1na2vs0mg"},{"bike_id":"2f34c329-54fe-438b-a307-b47c6ac8481c","system_id":"levelo_inurba_marseille","lat":43.29901,"lon":5.43654,"is_reserved":false,"is_disabled":false,"rental_uris":{"android":"levelo://app?vid=2f34c329-54fe-438b-a307-b47c6ac8481c","ios":"levelo://app?vid=2f34c329-54fe-438b-a307-b47c6ac8481c"},"vehicle_type_id":"4","last_reported":1747825729,"current_range_meters":9600,"station_id":"ce4bhpp2rcd13ifvqhfg","pricing_plan_id":"cebpf4jnsgd1na2vs0mg"},{"bike_id":"77fa3ba5-4ebc-456f-a5e5-2e256982b936","system_id":"levelo_inurba_marseille","lat":43.262103,"lon":5.3744,"is_reserved":false,"is_disabled":false,"rental_uris":{"android":"levelo://app?vid=77fa3ba5-4ebc-456f-a5e5-2e256982b936","ios":"levelo://app?vid=77fa3ba5-4ebc-456f-a5e5-2e256982b936"},"vehicle_type_id":"4","last_reported":1747825729,"current_range_meters":10000,"station_id":"ce4bhgp2rcd13ifvqfc0","pricing_plan_id":"cebpf4jnsgd1na2vs0mg"},{"bike_id":"af4e87b2-1020-430c-b28e-4591beadf001","system_id":"levelo_inurba_marseille","lat":43.24655,"lon":5.38168,"is_reserved":false,"is_disabled":false,"rental_uris":{"android":"levelo://app?vid=af4e87b2-1020-430c-b28e-4591beadf001","ios":"levelo://app?vid=af4e87b2-1020-430c-b28e-4591beadf001"},"vehicle_type_id":"4","last_reported":1747825729,"current_range_meters":10000,"station_id":"ce4bhih2rcd13ifvqfr0","pricing_plan_id":"cebpf4jnsgd1na2vs0mg"},{"bike_id":"6fa2a045-306c-4146-823c-182cbdf87330","system_id":"levelo_inurba_marseille","lat":43.23173,"lon":5.39981,"is_reserved":false,"is_disabled":false,"rental_uris":{"android":"levelo://app?vid=6fa2a045-306c-4146-823c-182cbdf87330","ios":"levelo://app?vid=6fa2a045-306c-4146-823c-182cbdf87330"},"vehicle_type_id":"4","last_reported":1747825729,"current_range_meters":10000,"station_id":"ce4bhn12rcd13ifvqgqg","pricing_plan_id":"cebpf4jnsgd1na2vs0mg"},{"bike_id":"cc0fb06d-3123-4c4a-a92a-ea0e657a9677","system_id":"levelo_inurba_marseille","lat":43.2749,"lon":5.42456,"is_reserved":false,"is_disabled":false,"rental_uris":{"android":"levelo://app?vid=cc0fb06d-3123-4c4a-a92a-ea0e657a9677","ios":"levelo://app?vid=cc0fb06d-3123-4c4a-a92a-ea0e657a9677"},"vehicle_type_id":"4","last_reported":1747825729,"current_range_meters":10000,"station_id":"ce4bhn92rcd13ifvqgrg","pricing_plan_id":"cebpf4jnsgd1na2vs0mg"},{"bike_id":"ac70773b-c59e-46c4-8f40-2eaec85b616f","system_id":"levelo_inurba_marseille","lat":43.28992,"lon":5.35904,"is_reserved":false,"is_disabled":false,"rental_uris":{"android":"levelo://app?vid=ac70773b-c59e-46c4-8f40-2eaec85b616f","ios":"levelo://app?vid=ac70773b-c59e-46c4-8f40-2eaec85b616f"},"vehicle_type_id":"4","last_reported":1747825729,"current_range_meters":10800,"station_id":"","pricing_plan_id":"cebpf4jnsgd1na2vs0mg"},{"bike_id":"38a83504-5724-4900-bcfd-4f34a95715ac","system_id":"levelo_inurba_marseille","lat":43.29007,"lon":5.35597,"is_reserved":false,"is_disabled":false,"rental_uris":{"android":"levelo://app?vid=38a83504-5724-4900-bcfd-4f34a95715ac","ios":"levelo://app?vid=38a83504-5724-4900-bcfd-4f34a95715ac"},"vehicle_type_id":"4","last_reported":1747825729,"current_range_meters":10800,"station_id":"ce4bhb92rcd13ifvqen0","pricing_plan_id":"cebpf4jnsgd1na2vs0mg"},{"bike_id":"1df42cc4-ca0d-46b2-9f71-092b4713b502","system_id":"levelo_inurba_marseille","lat":43.290057,"lon":5.356107,"is_reserved":false,"is_disabled":false,"rental_uris":{"android":"levelo://app?vid=1df42cc4-ca0d-46b2-9f71-092b4713b502","ios":"levelo://app?vid=1df42cc4-ca0d-46b2-9f71-092b4713b502"},"vehicle_type_id":"4","last_reported":1747825729,"current_range_meters":10800,"station_id":"ce4bhb92rcd13ifvqen0","pricing_plan_id":"cebpf4jnsgd1na2vs0mg"},{"bike_id":"d1b4589a-7c49-4dbd-86c1-6d0edccb851e","system_id":"levelo_inurba_marseille","lat":43.26555,"lon":5.37283,"is_reserved":false,"is_disabled":false,"rental_uris":{"android":"levelo://app?vid=d1b4589a-7c49-4dbd-86c1-6d0edccb851e","ios":"levelo://app?vid=d1b4589a-7c49-4dbd-86c1-6d0edccb851e"},"vehicle_type_id":"4","last_reported":1747825729,"current_range_meters":10800,"station_id":"ce4bhg12rcd13ifvqf70","pricing_plan_id":"cebpf4jnsgd1na2vs0mg"},{"bike_id":"efd236b9-9a84-47e9-8ada-b6b1fdad4475","system_id":"levelo_inurba_marseille","lat":43.25113,"lon":5.40315,"is_reserved":false,"is_disabled":false,"rental_uris":{"android":"levelo://app?vid=efd236b9-9a84-47e9-8ada-b6b1fdad4475","ios":"levelo://app?vid=efd236b9-9a84-47e9-8ada-b6b1fdad4475"},"vehicle_type_id":"4","last_reported":1747825729,"current_range_meters":10800,"station_id":"ce4bhlh2rcd13ifvqgig","pricing_plan_id":"cebpf4jnsgd1na2vs0mg"},{"bike_id":"c2b36c6e-6850-4767-9aeb-3784cc866fbb","system_id":"levelo_inurba_marseille","lat":43.24176,"lon":5.39725,"is_reserved":false,"is_disabled":false,"rental_uris":{"android":"levelo://app?vid=c2b36c6e-6850-4767-9aeb-3784cc866fbb","ios":"levelo://app?vid=c2b36c6e-6850-4767-9aeb-3784cc866fbb"},"vehicle_type_id":"4","last_reported":1747825729,"current_range_meters":10800,"station_id":"ce4bhn12rcd13ifvqgpg","pricing_plan_id":"cebpf4jnsgd1na2vs0mg"},{"bike_id":"5b009fdc-f92a-47f0-9035-ba585882ed80","system_id":"levelo_inurba_marseille","lat":43.29524,"lon":5.42294,"is_reserved":false,"is_disabled":false,"rental_uris":{"android":"levelo://app?vid=5b009fdc-f92a-47f0-9035-ba585882ed80","ios":"levelo://app?vid=5b009fdc-f92a-47f0-9035-ba585882ed80"},"vehicle_type_id":"4","last_reported":1747825729,"current_range_meters":10800,"station_id":"ce4bhph2rcd13ifvqhdg","pricing_plan_id":"cebpf4jnsgd1na2vs0mg"},{"bike_id":"c06c87aa-99e3-4b89-97dc-fd6edd7b18f0","system_id":"levelo_inurba_marseille","lat":43.321035,"lon":5.367729,"is_reserved":false,"is_disabled":false,"rental_uris":{"android":"levelo://app?vid=c06c87aa-99e3-4b89-97dc-fd6edd7b18f0","ios":"levelo://app?vid=c06c87aa-99e3-4b89-97dc-fd6edd7b18f0"},"vehicle_type_id":"4","last_reported":1747825729,"current_range_meters":10800,"station_id":"ce4bhrh2rcd13ifvqhug","pricing_plan_id":"cebpf4jnsgd1na2vs0mg"},{"bike_id":"324231ab-033b-40ae-97d2-7b70e0442b0c","system_id":"levelo_inurba_marseille","lat":43.312338,"lon":5.368564,"is_reserved":false,"is_disabled":false,"rental_uris":{"android":"levelo://app?vid=324231ab-033b-40ae-97d2-7b70e0442b0c","ios":"levelo://app?vid=324231ab-033b-40ae-97d2-7b70e0442b0c"},"vehicle_type_id":"4","last_reported":1747825729,"current_range_meters":11200,"station_id":"ce4bgl92rcd13ifvqbq0","pricing_plan_id":"cebpf4jnsgd1na2vs0mg"},{"bike_id":"201ce3f8-6c9a-42ab-88f7-635cc2b58fa4","system_id":"levelo_inurba_marseille","lat":43.31701,"lon":5.37717,"is_reserved":false,"is_disabled":false,"rental_uris":{"android":"levelo://app?vid=201ce3f8-6c9a-42ab-88f7-635cc2b58fa4","ios":"levelo://app?vid=201ce3f8-6c9a-42ab-88f7-635cc2b58fa4"},"vehicle_type_id":"4","last_reported":1747825729,"current_range_meters":11200,"station_id":"ce4bgth2rcd13ifvqch0","pricing_plan_id":"cebpf4jnsgd1na2vs0mg"},{"bike_id":"8d7aace3-340a-49ad-8deb-48049ff2aa18","system_id":"levelo_inurba_marseille","lat":43.29012,"lon":5.35613,"is_reserved":false,"is_disabled":false,"rental_uris":{"android":"levelo://app?vid=8d7aace3-340a-49ad-8deb-48049ff2aa18","ios":"levelo://app?vid=8d7aace3-340a-49ad-8deb-48049ff2aa18"},"vehicle_type_id":"4","last_reported":1747825729,"current_range_meters":11200,"station_id":"ce4bhb92rcd13ifvqen0","pricing_plan_id":"cebpf4jnsgd1na2vs0mg"},{"bike_id":"232d933a-5d46-408d-bd2a-f2806fa69d49","system_id":"levelo_inurba_marseille","lat":43.28417,"lon":5.34979,"is_reserved":false,"is_disabled":false,"rental_uris":{"android":"levelo://app?vid=232d933a-5d46-408d-bd2a-f2806fa69d49","ios":"levelo://app?vid=232d933a-5d46-408d-bd2a-f2806fa69d49"},"vehicle_type_id":"4","last_reported":1747825729,"current_range_meters":11200,"station_id":"ce4bhbh2rcd13ifvqepg","pricing_plan_id":"cebpf4jnsgd1na2vs0mg"},{"bike_id":"81b7d2ac-53e4-4160-abb6-5a0d9a7479c2","system_id":"levelo_inurba_marseille","lat":43.24659,"lon":5.38158,"is_reserved":false,"is_disabled":false,"rental_uris":{"android":"levelo://app?vid=81b7d2ac-53e4-4160-abb6-5a0d9a7479c2","ios":"levelo://app?vid=81b7d2ac-53e4-4160-abb6-5a0d9a7479c2"},"vehicle_type_id":"4","last_reported":1747825729,"current_range_meters":11200,"station_id":"ce4bhih2rcd13ifvqfr0","pricing_plan_id":"cebpf4jnsgd1na2vs0mg"},{"bike_id":"364ae54a-a4e8-4f98-bb7e-085a1430e118","system_id":"levelo_inurba_marseille","lat":43.23178,"lon":5.39992,"is_reserved":false,"is_disabled":false,"rental_uris":{"android":"levelo://app?vid=364ae54a-a4e8-4f98-bb7e-085a1430e118","ios":"levelo://app?vid=364ae54a-a4e8-4f98-bb7e-085a1430e118"},"vehicle_type_id":"4","last_reported":1747825729,"current_range_meters":11200,"station_id":"ce4bhn12rcd13ifvqgqg","pricing_plan_id":"cebpf4jnsgd1na2vs0mg"},{"bike_id":"cd60cada-d276-4479-a342-a208c3b3420e","system_id":"levelo_inurba_marseille","lat":43.3414,"lon":5.40901,"is_reserved":false,"is_disabled":false,"rental_uris":{"android":"levelo://app?vid=cd60cada-d276-4479-a342-a208c3b3420e","ios":"levelo://app?vid=cd60cada-d276-4479-a342-a208c3b3420e"},"vehicle_type_id":"4","last_reported":1747825729,"current_range_meters":11200,"station_id":"ce4bhqh2rcd13ifvqhlg","pricing_plan_id":"cebpf4jnsgd1na2vs0mg"},{"bike_id":"4f764108-3975-49f2-a1a2-f48f9ce0a3ae","system_id":"levelo_inurba_marseille","lat":43.31754,"lon":5.39014,"is_reserved":false,"is_disabled":false,"rental_uris":{"android":"levelo://app?vid=4f764108-3975-49f2-a1a2-f48f9ce0a3ae","ios":"levelo://app?vid=4f764108-3975-49f2-a1a2-f48f9ce0a3ae"},"vehicle_type_id":"4","last_reported":1747825729,"current_range_meters":11200,"station_id":"ce4bhqp2rcd13ifvqhng","pricing_plan_id":"cebpf4jnsgd1na2vs0mg"},{"bike_id":"3c3c06e9-a7af-4fd2-9333-941f416f117a","system_id":"levelo_inurba_marseille","lat":43.32492,"lon":5.36545,"is_reserved":false,"is_disabled":false,"rental_uris":{"android":"levelo://app?vid=3c3c06e9-a7af-4fd2-9333-941f416f117a","ios":"levelo://app?vid=3c3c06e9-a7af-4fd2-9333-941f416f117a"},"vehicle_type_id":"4","last_reported":1747825729,"current_range_meters":11200,"station_id":"ce4bhs12rcd13ifvqhvg","pricing_plan_id":"cebpf4jnsgd1na2vs0mg"},{"bike_id":"7ed08b0c-975a-4aac-ae2d-e32c9398583d","system_id":"levelo_inurba_marseille","lat":43.29254,"lon":5.40897,"is_reserved":false,"is_disabled":false,"rental_uris":{"android":"levelo://app?vid=7ed08b0c-975a-4aac-ae2d-e32c9398583d","ios":"levelo://app?vid=7ed08b0c-975a-4aac-ae2d-e32c9398583d"},"vehicle_type_id":"4","last_reported":1747825729,"current_range_meters":11600,"station_id":"ce4bh192rcd13ifvqdc0","pricing_plan_id":"cebpf4jnsgd1na2vs0mg"},{"bike_id":"bd352f34-b030-4a16-8e89-90f665a92dd9","system_id":"levelo_inurba_marseille","lat":43.28422,"lon":5.34973,"is_reserved":false,"is_disabled":false,"rental_uris":{"android":"levelo://app?vid=bd352f34-b030-4a16-8e89-90f665a92dd9","ios":"levelo://app?vid=bd352f34-b030-4a16-8e89-90f665a92dd9"},"vehicle_type_id":"4","last_reported":1747825729,"current_range_meters":11600,"station_id":"ce4bhbh2rcd13ifvqepg","pricing_plan_id":"cebpf4jnsgd1na2vs0mg"},{"bike_id":"d3794132-a70f-416f-8f79-15d73a23ca4b","system_id":"levelo_inurba_marseille","lat":43.24645,"lon":5.38889,"is_reserved":false,"is_disabled":false,"rental_uris":{"android":"levelo://app?vid=d3794132-a70f-416f-8f79-15d73a23ca4b","ios":"levelo://app?vid=d3794132-a70f-416f-8f79-15d73a23ca4b"},"vehicle_type_id":"4","last_reported":1747825729,"current_range_meters":11600,"station_id":"ce4bhg12rcd13ifvqf60","pricing_plan_id":"cebpf4jnsgd1na2vs0mg"},{"bike_id":"9f5924fd-63c3-4981-879a-84c2a6d0e7b1","system_id":"levelo_inurba_marseille","lat":43.26787,"lon":5.394,"is_reserved":false,"is_disabled":false,"rental_uris":{"android":"levelo://app?vid=9f5924fd-63c3-4981-879a-84c2a6d0e7b1","ios":"levelo://app?vid=9f5924fd-63c3-4981-879a-84c2a6d0e7b1"},"vehicle_type_id":"4","last_reported":1747825729,"current_range_meters":11600,"station_id":"ce4bhh12rcd13ifvqfg0","pricing_plan_id":"cebpf4jnsgd1na2vs0mg"},{"bike_id":"ff20aec8-3bde-472a-93f5-2f5453ad60e2","system_id":"levelo_inurba_marseille","lat":43.25711,"lon":5.41114,"is_reserved":false,"is_disabled":false,"rental_uris":{"android":"levelo://app?vid=ff20aec8-3bde-472a-93f5-2f5453ad60e2","ios":"levelo://app?vid=ff20aec8-3bde-472a-93f5-2f5453ad60e2"},"vehicle_type_id":"4","last_reported":1747825729,"current_range_meters":11600,"station_id":"ce4bhkp2rcd13ifvqgd0","pricing_plan_id":"cebpf4jnsgd1na2vs0mg"},{"bike_id":"3b782a7a-d3ce-416d-9295-3db8a5ce71e1","system_id":"levelo_inurba_marseille","lat":43.23152,"lon":5.43707,"is_reserved":false,"is_disabled":false,"rental_uris":{"android":"levelo://app?vid=3b782a7a-d3ce-416d-9295-3db8a5ce71e1","ios":"levelo://app?vid=3b782a7a-d3ce-416d-9295-3db8a5ce71e1"},"vehicle_type_id":"4","last_reported":1747825729,"current_range_meters":11600,"station_id":"ce4bhmp2rcd13ifvqgog","pricing_plan_id":"cebpf4jnsgd1na2vs0mg"},{"bike_id":"812fa841-0b74-4a66-8e01-ac7b6abb4a4c","system_id":"levelo_inurba_marseille","lat":43.23152,"lon":5.43712,"is_reserved":false,"is_disabled":false,"rental_uris":{"android":"levelo://app?vid=812fa841-0b74-4a66-8e01-ac7b6abb4a4c","ios":"levelo://app?vid=812fa841-0b74-4a66-8e01-ac7b6abb4a4c"},"vehicle_type_id":"4","last_reported":1747825729,"current_range_meters":11600,"station_id":"ce4bhmp2rcd13ifvqgog","pricing_plan_id":"cebpf4jnsgd1na2vs0mg"},{"bike_id":"8851cff4-46e9-44b9-b7ba-264e49842410","system_id":"levelo_inurba_marseille","lat":43.32333,"lon":5.40615,"is_reserved":false,"is_disabled":false,"rental_uris":{"android":"levelo://app?vid=8851cff4-46e9-44b9-b7ba-264e49842410","ios":"levelo://app?vid=8851cff4-46e9-44b9-b7ba-264e49842410"},"vehicle_type_id":"4","last_reported":1747825729,"current_range_meters":11600,"station_id":"ce4bhq92rcd13ifvqhjg","pricing_plan_id":"cebpf4jnsgd1na2vs0mg"},{"bike_id":"a5da4095-5539-455f-89e8-eae92c7a461b","system_id":"levelo_inurba_marseille","lat":43.296589,"lon":5.400092,"is_reserved":false,"is_disabled":false,"rental_uris":{"android":"levelo://app?vid=a5da4095-5539-455f-89e8-eae92c7a461b","ios":"levelo://app?vid=a5da4095-5539-455f-89e8-eae92c7a461b"},"vehicle_type_id":"4","last_reported":1747825729,"current_range_meters":12000,"station_id":"ce4bh312rcd13ifvqdj0","pricing_plan_id":"cebpf4jnsgd1na2vs0mg"},{"bike_id":"fef25e92-19eb-4f8c-97c3-d7e2c39f39c2","system_id":"levelo_inurba_marseille","lat":43.29033,"lon":5.38128,"is_reserved":false,"is_disabled":false,"rental_uris":{"android":"levelo://app?vid=fef25e92-19eb-4f8c-97c3-d7e2c39f39c2","ios":"levelo://app?vid=fef25e92-19eb-4f8c-97c3-d7e2c39f39c2"},"vehicle_type_id":"4","last_reported":1747825729,"current_range_meters":12000,"station_id":"ce4bh4p2rcd13ifvqe1g","pricing_plan_id":"cebpf4jnsgd1na2vs0mg"},{"bike_id":"ec0e6992-91d2-4d48-b571-a2608bf7ebbc","system_id":"levelo_inurba_marseille","lat":43.28666,"lon":5.3636,"is_reserved":false,"is_disabled":false,"rental_uris":{"android":"levelo://app?vid=ec0e6992-91d2-4d48-b571-a2608bf7ebbc","ios":"levelo://app?vid=ec0e6992-91d2-4d48-b571-a2608bf7ebbc"},"vehicle_type_id":"4","last_reported":1747825729,"current_range_meters":12000,"station_id":"ce4bhah2rcd13ifvqej0","pricing_plan_id":"cebpf4jnsgd1na2vs0mg"},{"bike_id":"40fda01c-c07a-44ad-81f0-d700ef8e8c86","system_id":"levelo_inurba_marseille","lat":43.282811,"lon":5.350936,"is_reserved":false,"is_disabled":false,"rental_uris":{"android":"levelo://app?vid=40fda01c-c07a-44ad-81f0-d700ef8e8c86","ios":"levelo://app?vid=40fda01c-c07a-44ad-81f0-d700ef8e8c86"},"vehicle_type_id":"4","last_reported":1747825729,"current_range_meters":12000,"station_id":"ce4bhbp2rcd13ifvqerg","pricing_plan_id":"cebpf4jnsgd1na2vs0mg"},{"bike_id":"15fece08-8fc5-430f-a21c-4d8a316b0217","system_id":"levelo_inurba_marseille","lat":43.23956,"lon":5.36645,"is_reserved":false,"is_disabled":false,"rental_uris":{"android":"levelo://app?vid=15fece08-8fc5-430f-a21c-4d8a316b0217","ios":"levelo://app?vid=15fece08-8fc5-430f-a21c-4d8a316b0217"},"vehicle_type_id":"4","last_reported":1747825729,"current_range_meters":12000,"station_id":"ce4bhi12rcd13ifvqfp0","pricing_plan_id":"cebpf4jnsgd1na2vs0mg"},{"bike_id":"1a340bac-8012-4c7c-b50a-247d19f083a9","system_id":"levelo_inurba_marseille","lat":43.22501,"lon":5.34763,"is_reserved":false,"is_disabled":false,"rental_uris":{"android":"levelo://app?vid=1a340bac-8012-4c7c-b50a-247d19f083a9","ios":"levelo://app?vid=1a340bac-8012-4c7c-b50a-247d19f083a9"},"vehicle_type_id":"4","last_reported":1747825729,"current_range_meters":12000,"station_id":"st_cvj5dfep6f1abm77gieg","pricing_plan_id":"cebpf4jnsgd1na2vs0mg"},{"bike_id":"750b9bcf-97e9-4197-bd49-eeac7fb5b822","system_id":"levelo_inurba_marseille","lat":43.28421,"lon":5.34976,"is_reserved":false,"is_disabled":false,"rental_uris":{"android":"levelo://app?vid=750b9bcf-97e9-4197-bd49-eeac7fb5b822","ios":"levelo://app?vid=750b9bcf-97e9-4197-bd49-eeac7fb5b822"},"vehicle_type_id":"4","last_reported":1747825729,"current_range_meters":12400,"station_id":"ce4bhbh2rcd13ifvqepg","pricing_plan_id":"cebpf4jnsgd1na2vs0mg"},{"bike_id":"7752cba4-3205-474a-82f7-119286c114ed","system_id":"levelo_inurba_marseille","lat":43.26556,"lon":5.37287,"is_reserved":false,"is_disabled":false,"rental_uris":{"android":"levelo://app?vid=7752cba4-3205-474a-82f7-119286c114ed","ios":"levelo://app?vid=7752cba4-3205-474a-82f7-119286c114ed"},"vehicle_type_id":"4","last_reported":1747825729,"current_range_meters":12400,"station_id":"ce4bhg12rcd13ifvqf70","pricing_plan_id":"cebpf4jnsgd1na2vs0mg"},{"bike_id":"9a145c1e-0a3d-4290-a9ab-dd835c8a830e","system_id":"levelo_inurba_marseille","lat":43.23963,"lon":5.36645,"is_reserved":false,"is_disabled":false,"rental_uris":{"android":"levelo://app?vid=9a145c1e-0a3d-4290-a9ab-dd835c8a830e","ios":"levelo://app?vid=9a145c1e-0a3d-4290-a9ab-dd835c8a830e"},"vehicle_type_id":"4","last_reported":1747825729,"current_range_meters":12400,"station_id":"ce4bhi12rcd13ifvqfp0","pricing_plan_id":"cebpf4jnsgd1na2vs0mg"},{"bike_id":"c75716b2-0378-4c34-ab41-b6e79d64159e","system_id":"levelo_inurba_marseille","lat":43.25582,"lon":5.38225,"is_reserved":false,"is_disabled":false,"rental_uris":{"android":"levelo://app?vid=c75716b2-0378-4c34-ab41-b6e79d64159e","ios":"levelo://app?vid=c75716b2-0378-4c34-ab41-b6e79d64159e"},"vehicle_type_id":"4","last_reported":1747825729,"current_range_meters":12400,"station_id":"ce4bhih2rcd13ifvqfs0","pricing_plan_id":"cebpf4jnsgd1na2vs0mg"},{"bike_id":"42192e01-f367-4dc7-ac5e-2317e0319d89","system_id":"levelo_inurba_marseille","lat":43.25859,"lon":5.399,"is_reserved":false,"is_disabled":false,"rental_uris":{"android":"levelo://app?vid=42192e01-f367-4dc7-ac5e-2317e0319d89","ios":"levelo://app?vid=42192e01-f367-4dc7-ac5e-2317e0319d89"},"vehicle_type_id":"4","last_reported":1747825729,"current_range_meters":12400,"station_id":"ce4bhl92rcd13ifvqghg","pricing_plan_id":"cebpf4jnsgd1na2vs0mg"},{"bike_id":"5129874e-b935-427a-b833-f77610762b6a","system_id":"levelo_inurba_marseille","lat":43.25114,"lon":5.4032,"is_reserved":false,"is_disabled":false,"rental_uris":{"android":"levelo://app?vid=5129874e-b935-427a-b833-f77610762b6a","ios":"levelo://app?vid=5129874e-b935-427a-b833-f77610762b6a"},"vehicle_type_id":"4","last_reported":1747825729,"current_range_meters":12400,"station_id":"ce4bhlh2rcd13ifvqgig","pricing_plan_id":"cebpf4jnsgd1na2vs0mg"},{"bike_id":"0cc58957-c5b7-42c1-abec-33957dbb5986","system_id":"levelo_inurba_marseille","lat":43.292626,"lon":5.376228,"is_reserved":false,"is_disabled":false,"rental_uris":{"android":"levelo://app?vid=0cc58957-c5b7-42c1-abec-33957dbb5986","ios":"levelo://app?vid=0cc58957-c5b7-42c1-abec-33957dbb5986"},"vehicle_type_id":"4","last_reported":1747825729,"current_range_meters":12800,"station_id":"ce4bgi12rcd13ifvqb80","pricing_plan_id":"cebpf4jnsgd1na2vs0mg"},{"bike_id":"54c1e4c9-f33f-437e-bfdd-3675750803ea","system_id":"levelo_inurba_marseille","lat":43.3054,"lon":5.36519,"is_reserved":false,"is_disabled":false,"rental_uris":{"android":"levelo://app?vid=54c1e4c9-f33f-437e-bfdd-3675750803ea","ios":"levelo://app?vid=54c1e4c9-f33f-437e-bfdd-3675750803ea"},"vehicle_type_id":"4","last_reported":1747825729,"current_range_meters":12800,"station_id":"ce4bgs12rcd13ifvqcag","pricing_plan_id":"cebpf4jnsgd1na2vs0mg"},{"bike_id":"60eb3d17-79ab-4d24-a2b0-d4854fc43a90","system_id":"levelo_inurba_marseille","lat":43.29006,"lon":5.35611,"is_reserved":false,"is_disabled":false,"rental_uris":{"android":"levelo://app?vid=60eb3d17-79ab-4d24-a2b0-d4854fc43a90","ios":"levelo://app?vid=60eb3d17-79ab-4d24-a2b0-d4854fc43a90"},"vehicle_type_id":"4","last_reported":1747825729,"current_range_meters":12800,"station_id":"ce4bhb92rcd13ifvqen0","pricing_plan_id":"cebpf4jnsgd1na2vs0mg"},{"bike_id":"06506600-078d-492c-8bea-696dbbb025e6","system_id":"levelo_inurba_marseille","lat":43.286187,"lon":5.350947,"is_reserved":false,"is_disabled":false,"rental_uris":{"android":"levelo://app?vid=06506600-078d-492c-8bea-696dbbb025e6","ios":"levelo://app?vid=06506600-078d-492c-8bea-696dbbb025e6"},"vehicle_type_id":"4","last_reported":1747825729,"current_range_meters":12800,"station_id":"ce4bhch2rcd13ifvqeug","pricing_plan_id":"cebpf4jnsgd1na2vs0mg"},{"bike_id":"120c77ac-e603-404f-94d2-094850d09f86","system_id":"levelo_inurba_marseille","lat":43.25932,"lon":5.40905,"is_reserved":false,"is_disabled":false,"rental_uris":{"android":"levelo://app?vid=120c77ac-e603-404f-94d2-094850d09f86","ios":"levelo://app?vid=120c77ac-e603-404f-94d2-094850d09f86"},"vehicle_type_id":"4","last_reported":1747825729,"current_range_meters":12800,"station_id":"ce4bhm92rcd13ifvqglg","pricing_plan_id":"cebpf4jnsgd1na2vs0mg"},{"bike_id":"6d2bd3ee-75c7-4318-a5e5-c02642b43578","system_id":"levelo_inurba_marseille","lat":43.28982,"lon":5.37836,"is_reserved":false,"is_disabled":false,"rental_uris":{"android":"levelo://app?vid=6d2bd3ee-75c7-4318-a5e5-c02642b43578","ios":"levelo://app?vid=6d2bd3ee-75c7-4318-a5e5-c02642b43578"},"vehicle_type_id":"4","last_reported":1747825729,"current_range_meters":13600,"station_id":"ce4bh9p2rcd13ifvqed0","pricing_plan_id":"cebpf4jnsgd1na2vs0mg"},{"bike_id":"554d6cac-d8a3-49a6-86ab-3dbc24eeff83","system_id":"levelo_inurba_marseille","lat":43.24647,"lon":5.38889,"is_reserved":false,"is_disabled":false,"rental_uris":{"android":"levelo://app?vid=554d6cac-d8a3-49a6-86ab-3dbc24eeff83","ios":"levelo://app?vid=554d6cac-d8a3-49a6-86ab-3dbc24eeff83"},"vehicle_type_id":"4","last_reported":1747825729,"current_range_meters":13600,"station_id":"ce4bhg12rcd13ifvqf60","pricing_plan_id":"cebpf4jnsgd1na2vs0mg"},{"bike_id":"966b7919-f980-40a1-9f1c-7cfb89a776aa","system_id":"levelo_inurba_marseille","lat":43.26056,"lon":5.39398,"is_reserved":false,"is_disabled":false,"rental_uris":{"android":"levelo://app?vid=966b7919-f980-40a1-9f1c-7cfb89a776aa","ios":"levelo://app?vid=966b7919-f980-40a1-9f1c-7cfb89a776aa"},"vehicle_type_id":"4","last_reported":1747825729,"current_range_meters":13600,"station_id":"ce4bhh92rcd13ifvqfj0","pricing_plan_id":"cebpf4jnsgd1na2vs0mg"},{"bike_id":"55ada97c-beb0-40df-9ce9-70fc5a2c0caa","system_id":"levelo_inurba_marseille","lat":43.27213,"lon":5.39181,"is_reserved":false,"is_disabled":false,"rental_uris":{"android":"levelo://app?vid=55ada97c-beb0-40df-9ce9-70fc5a2c0caa","ios":"levelo://app?vid=55ada97c-beb0-40df-9ce9-70fc5a2c0caa"},"vehicle_type_id":"4","last_reported":1747825729,"current_range_meters":13600,"station_id":"ce4bhhp2rcd13ifvqfm0","pricing_plan_id":"cebpf4jnsgd1na2vs0mg"},{"bike_id":"60bd9881-5084-43e2-bd51-bf012147f24a","system_id":"levelo_inurba_marseille","lat":43.27075,"lon":5.42275,"is_reserved":false,"is_disabled":false,"rental_uris":{"android":"levelo://app?vid=60bd9881-5084-43e2-bd51-bf012147f24a","ios":"levelo://app?vid=60bd9881-5084-43e2-bd51-bf012147f24a"},"vehicle_type_id":"4","last_reported":1747825729,"current_range_meters":13600,"station_id":"ce4bhk92rcd13ifvqgb0","pricing_plan_id":"cebpf4jnsgd1na2vs0mg"},{"bike_id":"baa21f7f-e7ce-48dd-968e-5a277cd8724f","system_id":"levelo_inurba_marseille","lat":43.31506,"lon":5.37296,"is_reserved":false,"is_disabled":false,"rental_uris":{"android":"levelo://app?vid=baa21f7f-e7ce-48dd-968e-5a277cd8724f","ios":"levelo://app?vid=baa21f7f-e7ce-48dd-968e-5a277cd8724f"},"vehicle_type_id":"4","last_reported":1747825729,"current_range_meters":14000,"station_id":"","pricing_plan_id":"cebpf4jnsgd1na2vs0mg"},{"bike_id":"8ff65956-2719-4d69-b58a-cc196ffba85b","system_id":"levelo_inurba_marseille","lat":43.29099,"lon":5.38177,"is_reserved":false,"is_disabled":false,"rental_uris":{"android":"levelo://app?vid=8ff65956-2719-4d69-b58a-cc196ffba85b","ios":"levelo://app?vid=8ff65956-2719-4d69-b58a-cc196ffba85b"},"vehicle_type_id":"4","last_reported":1747825729,"current_range_meters":14000,"station_id":"ce4bh512rcd13ifvqe2g","pricing_plan_id":"cebpf4jnsgd1na2vs0mg"},{"bike_id":"2925f58e-b67e-4b3a-bb15-ff300a389b79","system_id":"levelo_inurba_marseille","lat":43.265,"lon":5.39536,"is_reserved":false,"is_disabled":false,"rental_uris":{"android":"levelo://app?vid=2925f58e-b67e-4b3a-bb15-ff300a389b79","ios":"levelo://app?vid=2925f58e-b67e-4b3a-bb15-ff300a389b79"},"vehicle_type_id":"4","last_reported":1747825729,"current_range_meters":14000,"station_id":"ce4bhi12rcd13ifvqfq0","pricing_plan_id":"cebpf4jnsgd1na2vs0mg"},{"bike_id":"e2cb30a3-06d3-4a8d-8bb5-0556ae31c6ff","system_id":"levelo_inurba_marseille","lat":43.24546,"lon":5.39522,"is_reserved":false,"is_disabled":false,"rental_uris":{"android":"levelo://app?vid=e2cb30a3-06d3-4a8d-8bb5-0556ae31c6ff","ios":"levelo://app?vid=e2cb30a3-06d3-4a8d-8bb5-0556ae31c6ff"},"vehicle_type_id":"4","last_reported":1747825729,"current_range_meters":14000,"station_id":"ce4bhlp2rcd13ifvqgjg","pricing_plan_id":"cebpf4jnsgd1na2vs0mg"},{"bike_id":"0eadc85f-86cf-4906-9692-254b0d7297bf","system_id":"levelo_inurba_marseille","lat":43.231458,"lon":5.437137,"is_reserved":false,"is_disabled":false,"rental_uris":{"android":"levelo://app?vid=0eadc85f-86cf-4906-9692-254b0d7297bf","ios":"levelo://app?vid=0eadc85f-86cf-4906-9692-254b0d7297bf"},"vehicle_type_id":"4","last_reported":1747825729,"current_range_meters":14000,"station_id":"ce4bhmp2rcd13ifvqgog","pricing_plan_id":"cebpf4jnsgd1na2vs0mg"},{"bike_id":"824a86f4-99ca-47bd-ae65-1ed008ec6a72","system_id":"levelo_inurba_marseille","lat":43.33182,"lon":5.39575,"is_reserved":false,"is_disabled":false,"rental_uris":{"android":"levelo://app?vid=824a86f4-99ca-47bd-ae65-1ed008ec6a72","ios":"levelo://app?vid=824a86f4-99ca-47bd-ae65-1ed008ec6a72"},"vehicle_type_id":"4","last_reported":1747825729,"current_range_meters":14400,"station_id":"","pricing_plan_id":"cebpf4jnsgd1na2vs0mg"},{"bike_id":"16f83e60-4acc-4607-aafe-11718f120450","system_id":"levelo_inurba_marseille","lat":43.29931,"lon":5.36536,"is_reserved":false,"is_disabled":false,"rental_uris":{"android":"levelo://app?vid=16f83e60-4acc-4607-aafe-11718f120450","ios":"levelo://app?vid=16f83e60-4acc-4607-aafe-11718f120450"},"vehicle_type_id":"4","last_reported":1747825729,"current_range_meters":14400,"station_id":"ce4bgm92rcd13ifvqbr0","pricing_plan_id":"cebpf4jnsgd1na2vs0mg"},{"bike_id":"0516bbc1-0725-4b48-8cd2-b53f618cfc6f","system_id":"levelo_inurba_marseille","lat":43.2959,"lon":5.36718,"is_reserved":false,"is_disabled":false,"rental_uris":{"android":"levelo://app?vid=0516bbc1-0725-4b48-8cd2-b53f618cfc6f","ios":"levelo://app?vid=0516bbc1-0725-4b48-8cd2-b53f618cfc6f"},"vehicle_type_id":"4","last_reported":1747825729,"current_range_meters":14400,"station_id":"ce4bgph2rcd13ifvqc2g","pricing_plan_id":"cebpf4jnsgd1na2vs0mg"},{"bike_id":"b3587b2b-6a5a-49d2-a281-5295094c959f","system_id":"levelo_inurba_marseille","lat":43.29037,"lon":5.39958,"is_reserved":false,"is_disabled":false,"rental_uris":{"android":"levelo://app?vid=b3587b2b-6a5a-49d2-a281-5295094c959f","ios":"levelo://app?vid=b3587b2b-6a5a-49d2-a281-5295094c959f"},"vehicle_type_id":"4","last_reported":1747825729,"current_range_meters":14400,"station_id":"ce4bh392rcd13ifvqdm0","pricing_plan_id":"cebpf4jnsgd1na2vs0mg"},{"bike_id":"3712461b-e0ad-49ef-a8fe-58f841cef756","system_id":"levelo_inurba_marseille","lat":43.27068,"lon":5.42279,"is_reserved":false,"is_disabled":false,"rental_uris":{"android":"levelo://app?vid=3712461b-e0ad-49ef-a8fe-58f841cef756","ios":"levelo://app?vid=3712461b-e0ad-49ef-a8fe-58f841cef756"},"vehicle_type_id":"4","last_reported":1747825729,"current_range_meters":14400,"station_id":"ce4bhk92rcd13ifvqgb0","pricing_plan_id":"cebpf4jnsgd1na2vs0mg"},{"bike_id":"3c0300aa-3669-4f50-ae12-06c5f9beef96","system_id":"levelo_inurba_marseille","lat":43.25868,"lon":5.39895,"is_reserved":false,"is_disabled":false,"rental_uris":{"android":"levelo://app?vid=3c0300aa-3669-4f50-ae12-06c5f9beef96","ios":"levelo://app?vid=3c0300aa-3669-4f50-ae12-06c5f9beef96"},"vehicle_type_id":"4","last_reported":1747825729,"current_range_meters":14400,"station_id":"ce4bhl92rcd13ifvqghg","pricing_plan_id":"cebpf4jnsgd1na2vs0mg"},{"bike_id":"89dc7079-9502-431c-942e-f2f474af2ed4","system_id":"levelo_inurba_marseille","lat":43.26793,"lon":5.4025,"is_reserved":false,"is_disabled":false,"rental_uris":{"android":"levelo://app?vid=89dc7079-9502-431c-942e-f2f474af2ed4","ios":"levelo://app?vid=89dc7079-9502-431c-942e-f2f474af2ed4"},"vehicle_type_id":"4","last_reported":1747825729,"current_range_meters":14400,"station_id":"ce501612rcd8frsf0b60","pricing_plan_id":"cebpf4jnsgd1na2vs0mg"},{"bike_id":"9ab9a453-c610-4ee6-bfe9-c53b25fc7671","system_id":"levelo_inurba_marseille","lat":43.266689,"lon":5.395689,"is_reserved":false,"is_disabled":false,"rental_uris":{"android":"levelo://app?vid=9ab9a453-c610-4ee6-bfe9-c53b25fc7671","ios":"levelo://app?vid=9ab9a453-c610-4ee6-bfe9-c53b25fc7671"},"vehicle_type_id":"4","last_reported":1747825729,"current_range_meters":14800,"station_id":"","pricing_plan_id":"cebpf4jnsgd1na2vs0mg"},{"bike_id":"f9fb40c0-1fcd-48cb-8e26-3f2dc0fb2451","system_id":"levelo_inurba_marseille","lat":43.33751,"lon":5.37509,"is_reserved":false,"is_disabled":false,"rental_uris":{"android":"levelo://app?vid=f9fb40c0-1fcd-48cb-8e26-3f2dc0fb2451","ios":"levelo://app?vid=f9fb40c0-1fcd-48cb-8e26-3f2dc0fb2451"},"vehicle_type_id":"4","last_reported":1747825729,"current_range_meters":14800,"station_id":"","pricing_plan_id":"cebpf4jnsgd1na2vs0mg"},{"bike_id":"16cbe5a3-a65d-4898-baf3-91b7a2cc0bdb","system_id":"levelo_inurba_marseille","lat":43.29304,"lon":5.37173,"is_reserved":false,"is_disabled":false,"rental_uris":{"android":"levelo://app?vid=16cbe5a3-a65d-4898-baf3-91b7a2cc0bdb","ios":"levelo://app?vid=16cbe5a3-a65d-4898-baf3-91b7a2cc0bdb"},"vehicle_type_id":"4","last_reported":1747825729,"current_range_meters":14800,"station_id":"ce4bgh92rcd13ifvqb40","pricing_plan_id":"cebpf4jnsgd1na2vs0mg"},{"bike_id":"26f7fb37-fe13-47bd-bc32-8bb1df144be9","system_id":"levelo_inurba_marseille","lat":43.29261,"lon":5.37613,"is_reserved":false,"is_disabled":false,"rental_uris":{"android":"levelo://app?vid=26f7fb37-fe13-47bd-bc32-8bb1df144be9","ios":"levelo://app?vid=26f7fb37-fe13-47bd-bc32-8bb1df144be9"},"vehicle_type_id":"4","last_reported":1747825729,"current_range_meters":14800,"station_id":"ce4bgi12rcd13ifvqb80","pricing_plan_id":"cebpf4jnsgd1na2vs0mg"},{"bike_id":"f693b179-d4c4-4ee0-8a73-552a9c1888ff","system_id":"levelo_inurba_marseille","lat":43.25925,"lon":5.40936,"is_reserved":false,"is_disabled":false,"rental_uris":{"android":"levelo://app?vid=f693b179-d4c4-4ee0-8a73-552a9c1888ff","ios":"levelo://app?vid=f693b179-d4c4-4ee0-8a73-552a9c1888ff"},"vehicle_type_id":"4","last_reported":1747825729,"current_range_meters":14800,"station_id":"ce4bhm92rcd13ifvqglg","pricing_plan_id":"cebpf4jnsgd1na2vs0mg"},{"bike_id":"87fc21bf-d497-442b-ac08-f0fe66da3e84","system_id":"levelo_inurba_marseille","lat":43.22504,"lon":5.34777,"is_reserved":false,"is_disabled":false,"rental_uris":{"android":"levelo://app?vid=87fc21bf-d497-442b-ac08-f0fe66da3e84","ios":"levelo://app?vid=87fc21bf-d497-442b-ac08-f0fe66da3e84"},"vehicle_type_id":"4","last_reported":1747825729,"current_range_meters":15200,"station_id":"","pricing_plan_id":"cebpf4jnsgd1na2vs0mg"},{"bike_id":"5b5efb23-6534-49b2-9c2d-afdca2f2ec76","system_id":"levelo_inurba_marseille","lat":43.29846,"lon":5.36275,"is_reserved":false,"is_disabled":false,"rental_uris":{"android":"levelo://app?vid=5b5efb23-6534-49b2-9c2d-afdca2f2ec76","ios":"levelo://app?vid=5b5efb23-6534-49b2-9c2d-afdca2f2ec76"},"vehicle_type_id":"4","last_reported":1747825729,"current_range_meters":15200,"station_id":"ce4bgpp2rcd13ifvqc3g","pricing_plan_id":"cebpf4jnsgd1na2vs0mg"},{"bike_id":"1c6b2cc5-0117-4eb4-91c7-bd68d0b2ec05","system_id":"levelo_inurba_marseille","lat":43.31379,"lon":5.36705,"is_reserved":false,"is_disabled":false,"rental_uris":{"android":"levelo://app?vid=1c6b2cc5-0117-4eb4-91c7-bd68d0b2ec05","ios":"levelo://app?vid=1c6b2cc5-0117-4eb4-91c7-bd68d0b2ec05"},"vehicle_type_id":"4","last_reported":1747825729,"current_range_meters":15200,"station_id":"ce4bgr92rcd13ifvqc6g","pricing_plan_id":"cebpf4jnsgd1na2vs0mg"},{"bike_id":"aaa4466f-224b-4b85-aac5-481139aa4ebe","system_id":"levelo_inurba_marseille","lat":43.2481,"lon":5.37452,"is_reserved":false,"is_disabled":false,"rental_uris":{"android":"levelo://app?vid=aaa4466f-224b-4b85-aac5-481139aa4ebe","ios":"levelo://app?vid=aaa4466f-224b-4b85-aac5-481139aa4ebe"},"vehicle_type_id":"4","last_reported":1747825729,"current_range_meters":15200,"station_id":"ce4bhgh2rcd13ifvqfb0","pricing_plan_id":"cebpf4jnsgd1na2vs0mg"},{"bike_id":"f66e78c6-87c4-40a8-af86-44a444cbdcf9","system_id":"levelo_inurba_marseille","lat":43.24542,"lon":5.39525,"is_reserved":false,"is_disabled":false,"rental_uris":{"android":"levelo://app?vid=f66e78c6-87c4-40a8-af86-44a444cbdcf9","ios":"levelo://app?vid=f66e78c6-87c4-40a8-af86-44a444cbdcf9"},"vehicle_type_id":"4","last_reported":1747825729,"current_range_meters":15200,"station_id":"ce4bhlp2rcd13ifvqgjg","pricing_plan_id":"cebpf4jnsgd1na2vs0mg"},{"bike_id":"ec1e5af5-a2c9-40c7-8196-abeddc2c4e77","system_id":"levelo_inurba_marseille","lat":43.33593,"lon":5.40969,"is_reserved":false,"is_disabled":false,"rental_uris":{"android":"levelo://app?vid=ec1e5af5-a2c9-40c7-8196-abeddc2c4e77","ios":"levelo://app?vid=ec1e5af5-a2c9-40c7-8196-abeddc2c4e77"},"vehicle_type_id":"4","last_reported":1747825729,"current_range_meters":15200,"station_id":"ce4bhqh2rcd13ifvqhmg","pricing_plan_id":"cebpf4jnsgd1na2vs0mg"},{"bike_id":"2f0a1feb-50db-4325-a09f-8911bb62ecff","system_id":"levelo_inurba_marseille","lat":43.28266,"lon":5.35073,"is_reserved":false,"is_disabled":false,"rental_uris":{"android":"levelo://app?vid=2f0a1feb-50db-4325-a09f-8911bb62ecff","ios":"levelo://app?vid=2f0a1feb-50db-4325-a09f-8911bb62ecff"},"vehicle_type_id":"4","last_reported":1747825729,"current_range_meters":16000,"station_id":"ce4bhbp2rcd13ifvqerg","pricing_plan_id":"cebpf4jnsgd1na2vs0mg"},{"bike_id":"dbd701ce-b74f-4507-88cf-7d2b64f801da","system_id":"levelo_inurba_marseille","lat":43.2593,"lon":5.40894,"is_reserved":false,"is_disabled":false,"rental_uris":{"android":"levelo://app?vid=dbd701ce-b74f-4507-88cf-7d2b64f801da","ios":"levelo://app?vid=dbd701ce-b74f-4507-88cf-7d2b64f801da"},"vehicle_type_id":"4","last_reported":1747825729,"current_range_meters":16000,"station_id":"ce4bhm92rcd13ifvqglg","pricing_plan_id":"cebpf4jnsgd1na2vs0mg"},{"bike_id":"0552706d-7ee7-4fee-97ae-ee5ed92102cb","system_id":"levelo_inurba_marseille","lat":43.33606,"lon":5.41018,"is_reserved":false,"is_disabled":false,"rental_uris":{"android":"levelo://app?vid=0552706d-7ee7-4fee-97ae-ee5ed92102cb","ios":"levelo://app?vid=0552706d-7ee7-4fee-97ae-ee5ed92102cb"},"vehicle_type_id":"4","last_reported":1747825729,"current_range_meters":16000,"station_id":"ce4bhqh2rcd13ifvqhmg","pricing_plan_id":"cebpf4jnsgd1na2vs0mg"},{"bike_id":"c9a00e74-029a-454e-8e85-1b3d994b9d78","system_id":"levelo_inurba_marseille","lat":43.21197,"lon":5.35054,"is_reserved":false,"is_disabled":false,"rental_uris":{"android":"levelo://app?vid=c9a00e74-029a-454e-8e85-1b3d994b9d78","ios":"levelo://app?vid=c9a00e74-029a-454e-8e85-1b3d994b9d78"},"vehicle_type_id":"4","last_reported":1747825729,"current_range_meters":16000,"station_id":"st_cvj6sg6p6f1abm77japg","pricing_plan_id":"cebpf4jnsgd1na2vs0mg"},{"bike_id":"87987afe-4534-47e9-920e-2df9e4427a38","system_id":"levelo_inurba_marseille","lat":43.30526,"lon":5.36546,"is_reserved":false,"is_disabled":false,"rental_uris":{"android":"levelo://app?vid=87987afe-4534-47e9-920e-2df9e4427a38","ios":"levelo://app?vid=87987afe-4534-47e9-920e-2df9e4427a38"},"vehicle_type_id":"4","last_reported":1747825729,"current_range_meters":16400,"station_id":"ce4bgs12rcd13ifvqcag","pricing_plan_id":"cebpf4jnsgd1na2vs0mg"},{"bike_id":"80944d0d-0653-4b15-90ea-f3de15483e8c","system_id":"levelo_inurba_marseille","lat":43.28269,"lon":5.35055,"is_reserved":false,"is_disabled":false,"rental_uris":{"android":"levelo://app?vid=80944d0d-0653-4b15-90ea-f3de15483e8c","ios":"levelo://app?vid=80944d0d-0653-4b15-90ea-f3de15483e8c"},"vehicle_type_id":"4","last_reported":1747825729,"current_range_meters":16400,"station_id":"ce4bhbp2rcd13ifvqerg","pricing_plan_id":"cebpf4jnsgd1na2vs0mg"},{"bike_id":"d32f3042-a34d-4b47-a48a-9c3bd2223417","system_id":"levelo_inurba_marseille","lat":43.26545,"lon":5.37261,"is_reserved":false,"is_disabled":false,"rental_uris":{"android":"levelo://app?vid=d32f3042-a34d-4b47-a48a-9c3bd2223417","ios":"levelo://app?vid=d32f3042-a34d-4b47-a48a-9c3bd2223417"},"vehicle_type_id":"4","last_reported":1747825729,"current_range_meters":16400,"station_id":"ce4bhg12rcd13ifvqf70","pricing_plan_id":"cebpf4jnsgd1na2vs0mg"},{"bike_id":"12c09609-4001-47c0-92c5-ffbf91b4aa05","system_id":"levelo_inurba_marseille","lat":43.25584,"lon":5.38231,"is_reserved":false,"is_disabled":false,"rental_uris":{"android":"levelo://app?vid=12c09609-4001-47c0-92c5-ffbf91b4aa05","ios":"levelo://app?vid=12c09609-4001-47c0-92c5-ffbf91b4aa05"},"vehicle_type_id":"4","last_reported":1747825729,"current_range_meters":16400,"station_id":"ce4bhih2rcd13ifvqfs0","pricing_plan_id":"cebpf4jnsgd1na2vs0mg"},{"bike_id":"e3120b8b-8871-4a05-b522-497a98c26691","system_id":"levelo_inurba_marseille","lat":43.25871,"lon":5.3989,"is_reserved":false,"is_disabled":false,"rental_uris":{"android":"levelo://app?vid=e3120b8b-8871-4a05-b522-497a98c26691","ios":"levelo://app?vid=e3120b8b-8871-4a05-b522-497a98c26691"},"vehicle_type_id":"4","last_reported":1747825729,"current_range_meters":16400,"station_id":"ce4bhl92rcd13ifvqghg","pricing_plan_id":"cebpf4jnsgd1na2vs0mg"},{"bike_id":"2a091273-af2a-4bf6-992f-b33dd14099b3","system_id":"levelo_inurba_marseille","lat":43.25934,"lon":5.40907,"is_reserved":false,"is_disabled":false,"rental_uris":{"android":"levelo://app?vid=2a091273-af2a-4bf6-992f-b33dd14099b3","ios":"levelo://app?vid=2a091273-af2a-4bf6-992f-b33dd14099b3"},"vehicle_type_id":"4","last_reported":1747825729,"current_range_meters":16400,"station_id":"ce4bhm92rcd13ifvqglg","pricing_plan_id":"cebpf4jnsgd1na2vs0mg"},{"bike_id":"367001af-20e0-499c-b98c-752a74b4fbcf","system_id":"levelo_inurba_marseille","lat":43.23157,"lon":5.43709,"is_reserved":false,"is_disabled":false,"rental_uris":{"android":"levelo://app?vid=367001af-20e0-499c-b98c-752a74b4fbcf","ios":"levelo://app?vid=367001af-20e0-499c-b98c-752a74b4fbcf"},"vehicle_type_id":"4","last_reported":1747825729,"current_range_meters":16400,"station_id":"ce4bhmp2rcd13ifvqgog","pricing_plan_id":"cebpf4jnsgd1na2vs0mg"},{"bike_id":"cab1bc3a-d133-45d1-b5e2-49215a305917","system_id":"levelo_inurba_marseille","lat":43.2319,"lon":5.39987,"is_reserved":false,"is_disabled":false,"rental_uris":{"android":"levelo://app?vid=cab1bc3a-d133-45d1-b5e2-49215a305917","ios":"levelo://app?vid=cab1bc3a-d133-45d1-b5e2-49215a305917"},"vehicle_type_id":"4","last_reported":1747825729,"current_range_meters":16400,"station_id":"ce4bhn12rcd13ifvqgqg","pricing_plan_id":"cebpf4jnsgd1na2vs0mg"},{"bike_id":"83df6315-59f2-4f1d-8766-748b0e7b6b41","system_id":"levelo_inurba_marseille","lat":43.27993,"lon":5.40019,"is_reserved":false,"is_disabled":false,"rental_uris":{"android":"levelo://app?vid=83df6315-59f2-4f1d-8766-748b0e7b6b41","ios":"levelo://app?vid=83df6315-59f2-4f1d-8766-748b0e7b6b41"},"vehicle_type_id":"4","last_reported":1747825729,"current_range_meters":16400,"station_id":"ce4bho92rcd13ifvqh4g","pricing_plan_id":"cebpf4jnsgd1na2vs0mg"},{"bike_id":"1a091a66-2e68-4ded-9fc5-3d6f9e9f6f62","system_id":"levelo_inurba_marseille","lat":43.321,"lon":5.36781,"is_reserved":false,"is_disabled":false,"rental_uris":{"android":"levelo://app?vid=1a091a66-2e68-4ded-9fc5-3d6f9e9f6f62","ios":"levelo://app?vid=1a091a66-2e68-4ded-9fc5-3d6f9e9f6f62"},"vehicle_type_id":"4","last_reported":1747825729,"current_range_meters":16400,"station_id":"ce4bhrh2rcd13ifvqhug","pricing_plan_id":"cebpf4jnsgd1na2vs0mg"},{"bike_id":"3455aa94-2d4e-4471-a483-311d5ff5433a","system_id":"levelo_inurba_marseille","lat":43.26942,"lon":5.40246,"is_reserved":false,"is_disabled":false,"rental_uris":{"android":"levelo://app?vid=3455aa94-2d4e-4471-a483-311d5ff5433a","ios":"levelo://app?vid=3455aa94-2d4e-4471-a483-311d5ff5433a"},"vehicle_type_id":"4","last_reported":1747825729,"current_range_meters":16400,"station_id":"cjm6bp8fraef2m0cb0m0","pricing_plan_id":"cebpf4jnsgd1na2vs0mg"},{"bike_id":"46838dcc-bfcd-47f7-9e26-97ebaf4848eb","system_id":"levelo_inurba_marseille","lat":43.211939,"lon":5.350717,"is_reserved":false,"is_disabled":false,"rental_uris":{"android":"levelo://app?vid=46838dcc-bfcd-47f7-9e26-97ebaf4848eb","ios":"levelo://app?vid=46838dcc-bfcd-47f7-9e26-97ebaf4848eb"},"vehicle_type_id":"4","last_reported":1747825729,"current_range_meters":16400,"station_id":"st_cvj6sg6p6f1abm77japg","pricing_plan_id":"cebpf4jnsgd1na2vs0mg"},{"bike_id":"c339e758-fb9c-41f6-8219-8747cdbe2320","system_id":"levelo_inurba_marseille","lat":43.30544,"lon":5.3653,"is_reserved":false,"is_disabled":false,"rental_uris":{"android":"levelo://app?vid=c339e758-fb9c-41f6-8219-8747cdbe2320","ios":"levelo://app?vid=c339e758-fb9c-41f6-8219-8747cdbe2320"},"vehicle_type_id":"4","last_reported":1747825729,"current_range_meters":16800,"station_id":"ce4bgs12rcd13ifvqcag","pricing_plan_id":"cebpf4jnsgd1na2vs0mg"},{"bike_id":"57b31fa6-636d-4738-bfd8-9ade96759a20","system_id":"levelo_inurba_marseille","lat":43.30593,"lon":5.39349,"is_reserved":false,"is_disabled":false,"rental_uris":{"android":"levelo://app?vid=57b31fa6-636d-4738-bfd8-9ade96759a20","ios":"levelo://app?vid=57b31fa6-636d-4738-bfd8-9ade96759a20"},"vehicle_type_id":"4","last_reported":1747825729,"current_range_meters":16800,"station_id":"ce4bh0p2rcd13ifvqd80","pricing_plan_id":"cebpf4jnsgd1na2vs0mg"},{"bike_id":"4acf0f29-8bf6-4926-b62f-78fced93ff1f","system_id":"levelo_inurba_marseille","lat":43.28613,"lon":5.35101,"is_reserved":false,"is_disabled":false,"rental_uris":{"android":"levelo://app?vid=4acf0f29-8bf6-4926-b62f-78fced93ff1f","ios":"levelo://app?vid=4acf0f29-8bf6-4926-b62f-78fced93ff1f"},"vehicle_type_id":"4","last_reported":1747825729,"current_range_meters":16800,"station_id":"ce4bhch2rcd13ifvqeug","pricing_plan_id":"cebpf4jnsgd1na2vs0mg"},