{"last_updated":1684055134,"ttl":30,"version":"2.2","data":{"bikes":[{"bike_id":"24abea9d-acff-40a0-8816-0a2f4e1dca42","system_id":"levelo_inurba_marseille","lat":43.31341,"lon":5.367098,"is_reserved":false,"is_disabled":false,"rental_uris":{"android":"levelo://app?vid=24abea9d-acff-40a0-8816-0a2f4e1dca42","ios":"levelo://app?vid=24abea9d-acff-40a0-8816-0a2f4e1dca42"},"vehicle_type_id":"4","last_reported":1684055135,"current_range_meters":30000,"station_id":"ce4bgr92rcd13ifvqc6g","pricing_plan_id":"free"},{"bike_id":"e6987441-362a-40f3-92bc-e5f9ecf6b8a9","system_id":"levelo_inurba_marseille","lat":43.31341,"lon":5.367098,"is_reserved":false,"is_disabled":false,"rental_uris":{"android":"levelo://app?vid=e6987441-362a-40f3-92bc-e5f9ecf6b8a9","ios":"levelo://app?vid=e6987441-362a-40f3-92bc-e5f9ecf6b8a9"},"vehicle_type_id":"4","last_reported":1684055135,"current_range_meters":30000,"station_id":"ce4bgr92rcd13ifvqc6g","pricing_plan_id":"free"},{"bike_id":"09c876cf-0b1b-4188-b85c-3c6995193ab3","system_id":"levelo_inurba_marseille","lat":43.31341,"lon":5.367098,"is_reserved":false,"is_disabled":false,"rental_uris":{"android":"levelo://app?vid=09c876cf-0b1b-4188-b85c-3c6995193ab3","ios":"levelo://app?vid=09c876cf-0b1b-4188-b85c-3c6995193ab3"},"vehicle_type_id":"4","last_reported":1684055135,"current_range_meters":29600,"station_id":"ce4bgr92rcd13ifvqc6g","pricing_plan_id":"free"},{"bike_id":"febc23c5-0cf4-48a3-bb4c-63084f78e6ac","system_id":"levelo_inurba_marseille","lat":43.31341,"lon":5.367098,"is_reserved":false,"is_disabled":false,"rental_uris":{"android":"levelo://app?vid=febc23c5-0cf4-48a3-bb4c-63084f78e6ac","ios":"levelo://app?vid=febc23c5-0cf4-48a3-bb4c-63084f78e6ac"},"vehicle_type_id":"4","last_reported":1684055135,"current_range_meters":31200,"station_id":"ce4bgr92rcd13ifvqc6g","pricing_plan_id":"free"},{"bike_id":"dcd566cd-4193-4d6e-8699-75ef45649505","system_id":"levelo_inurba_marseille","lat":43.313391,"lon":5.36706,"is_reserved":false,"is_disabled":false,"rental_uris":{"android":"levelo://app?vid=dcd566cd-4193-4d6e-8699-75ef45649505","ios":"levelo://app?vid=dcd566cd-4193-4d6e-8699-75ef45649505"},"vehicle_type_id":"4","last_reported":1684055135,"current_range_meters":26400,"station_id":"ce4bgr92rcd13ifvqc6g","pricing_plan_id":"free"},{"bike_id":"831b07ab-f194-4459-8e8b-0f4fa3d89a6c","system_id":"levelo_inurba_marseille","lat":43.312239,"lon":5.368562,"is_reserved":false,"is_disabled":false,"rental_uris":{"android":"levelo://app?vid=831b07ab-f194-4459-8e8b-0f4fa3d89a6c","ios":"levelo://app?vid=831b07ab-f194-4459-8e8b-0f4fa3d89a6c"},"vehicle_type_id":"4","last_reported":1684055135,"current_range_meters":30000,"station_id":"ce4bgl92rcd13ifvqbq0","pricing_plan_id":"free"},{"bike_id":"71b4b514-8551-431a-9fa6-dd4d82ac9363","system_id":"levelo_inurba_marseille","lat":43.312239,"lon":5.368562,"is_reserved":false,"is_disabled":false,"rental_uris":{"android":"levelo://app?vid=71b4b514-8551-431a-9fa6-dd4d82ac9363","ios":"levelo://app?vid=71b4b514-8551-431a-9fa6-dd4d82ac9363"},"vehicle_type_id":"4","last_reported":1684055135,"current_range_meters":31200,"station_id":"ce4bgl92rcd13ifvqbq0","pricing_plan_id":"free"},{"bike_id":"f797ecaa-7bf8-4df9-9ffe-c1010d3a4c25","system_id":"levelo_inurba_marseille","lat":43.312239,"lon":5.368562,"is_reserved":false,"is_disabled":false,"rental_uris":{"android":"levelo://app?vid=f797ecaa-7bf8-4df9-9ffe-c1010d3a4c25","ios":"levelo://app?vid=f797ecaa-7bf8-4df9-9ffe-c1010d3a4c25"},"vehicle_type_id":"4","last_reported":1684055135,"current_range_meters":31200,"station_id":"ce4bgl92rcd13ifvqbq0","pricing_plan_id":"free"},{"bike_id":"78639281-da9b-4878-980b-0e688644d586","system_id":"levelo_inurba_marseille","lat":43.312239,"lon":5.368562,"is_reserved":false,"is_disabled":false,"rental_uris":{"android":"levelo://app?vid=78639281-da9b-4878-980b-0e688644d586","ios":"levelo://app?vid=78639281-da9b-4878-980b-0e688644d586"},"vehicle_type_id":"4","last_reported":1684055135,"current_range_meters":22000,"station_id":"ce4bgl92rcd13ifvqbq0","pricing_plan_id":"free"},{"bike_id":"1d93fcc2-b93a-40ec-83bf-d6e9a533d6b0","system_id":"levelo_inurba_marseille","lat":43.308614,"lon":5.372098,"is_reserved":false,"is_disabled":false,"rental_uris":{"android":"levelo://app?vid=1d93fcc2-b93a-40ec-83bf-d6e9a533d6b0","ios":"levelo://app?vid=1d93fcc2-b93a-40ec-83bf-d6e9a533d6b0"},"vehicle_type_id":"4","last_reported":1684055135,"current_range_meters":31200,"station_id":"ce4bguh2rcd13ifvqckg","pricing_plan_id":"free"},{"bike_id":"1f64b040-fb5d-421e-b479-849ead874972","system_id":"levelo_inurba_marseille","lat":43.30871,"lon":5.3717,"is_reserved":false,"is_disabled":false,"rental_uris":{"android":"levelo://app?vid=1f64b040-fb5d-421e-b479-849ead874972","ios":"levelo://app?vid=1f64b040-fb5d-421e-b479-849ead874972"},"vehicle_type_id":"4","last_reported":1684055135,"current_range_meters":31200,"station_id":"","pricing_plan_id":"free"},{"bike_id":"cb2a9ae9-4ec0-4b19-a522-379755c6397e","system_id":"levelo_inurba_marseille","lat":43.30886,"lon":5.37198,"is_reserved":false,"is_disabled":false,"rental_uris":{"android":"levelo://app?vid=cb2a9ae9-4ec0-4b19-a522-379755c6397e","ios":"levelo://app?vid=cb2a9ae9-4ec0-4b19-a522-379755c6397e"},"vehicle_type_id":"4","last_reported":1684055135,"current_range_meters":26400,"station_id":"","pricing_plan_id":"free"},{"bike_id":"ef42665b-7a58-430a-a09b-24ad7325a98d","system_id":"levelo_inurba_marseille","lat":43.30588,"lon":5.36563,"is_reserved":false,"is_disabled":false,"rental_uris":{"android":"levelo://app?vid=ef42665b-7a58-430a-a09b-24ad7325a98d","ios":"levelo://app?vid=ef42665b-7a58-430a-a09b-24ad7325a98d"},"vehicle_type_id":"4","last_reported":1684055135,"current_range_meters":12800,"station_id":"","pricing_plan_id":"free"},{"bike_id":"ee42b753-7dc7-4dd5-9bf1-4ee43dbcb77f","system_id":"levelo_inurba_marseille","lat":43.305706,"lon":5.365654,"is_reserved":false,"is_disabled":false,"rental_uris":{"android":"levelo://app?vid=ee42b753-7dc7-4dd5-9bf1-4ee43dbcb77f","ios":"levelo://app?vid=ee42b753-7dc7-4dd5-9bf1-4ee43dbcb77f"},"vehicle_type_id":"4","last_reported":1684055135,"current_range_meters":30800,"station_id":"ce4bgs12rcd13ifvqcag","pricing_plan_id":"free"},{"bike_id":"dbd8c66e-2d88-4af3-abef-fad15e31f005","system_id":"levelo_inurba_marseille","lat":43.305368,"lon":5.367343,"is_reserved":false,"is_disabled":false,"rental_uris":{"android":"levelo://app?vid=dbd8c66e-2d88-4af3-abef-fad15e31f005","ios":"levelo://app?vid=dbd8c66e-2d88-4af3-abef-fad15e31f005"},"vehicle_type_id":"4","last_reported":1684055135,"current_range_meters":29600,"station_id":"ce4bgrp2rcd13ifvqc9g","pricing_plan_id":"free"},{"bike_id":"9018c11a-b4a2-49d9-bb89-e1d8612f7a9a","system_id":"levelo_inurba_marseille","lat":43.305706,"lon":5.365654,"is_reserved":false,"is_disabled":false,"rental_uris":{"android":"levelo://app?vid=9018c11a-b4a2-49d9-bb89-e1d8612f7a9a","ios":"levelo://app?vid=9018c11a-b4a2-49d9-bb89-e1d8612f7a9a"},"vehicle_type_id":"4","last_reported":1684055135,"current_range_meters":28400,"station_id":"ce4bgs12rcd13ifvqcag","pricing_plan_id":"free"},{"bike_id":"4d78c5a7-1523-4a85-aeb8-3ec1bd55e0c1","system_id":"levelo_inurba_marseille","lat":43.305706,"lon":5.365654,"is_reserved":false,"is_disabled":false,"rental_uris":{"android":"levelo://app?vid=4d78c5a7-1523-4a85-aeb8-3ec1bd55e0c1","ios":"levelo://app?vid=4d78c5a7-1523-4a85-aeb8-3ec1bd55e0c1"},"vehicle_type_id":"4","last_reported":1684055135,"current_range_meters":25200,"station_id":"ce4bgs12rcd13ifvqcag","pricing_plan_id":"free"},{"bike_id":"9cb17d7a-cd0e-46b6-a171-b83b7735d0c2","system_id":"levelo_inurba_marseille","lat":43.305368,"lon":5.367343,"is_reserved":false,"is_disabled":false,"rental_uris":{"android":"levelo://app?vid=9cb17d7a-cd0e-46b6-a171-b83b7735d0c2","ios":"levelo://app?vid=9cb17d7a-cd0e-46b6-a171-b83b7735d0c2"},"vehicle_type_id":"4","last_reported":1684055135,"current_range_meters":14000,"station_id":"ce4bgrp2rcd13ifvqc9g","pricing_plan_id":"free"},{"bike_id":"87458fa8-4792-4fb7-9853-ce1572ad6276","system_id":"levelo_inurba_marseille","lat":43.305706,"lon":5.365654,"is_reserved":false,"is_disabled":false,"rental_uris":{"android":"levelo://app?vid=87458fa8-4792-4fb7-9853-ce1572ad6276","ios":"levelo://app?vid=87458fa8-4792-4fb7-9853-ce1572ad6276"},"vehicle_type_id":"4","last_reported":1684055135,"current_range_meters":31200,"station_id":"ce4bgs12rcd13ifvqcag","pricing_plan_id":"free"},{"bike_id":"13240473-3def-42a3-b095-8602f843b467","system_id":"levelo_inurba_marseille","lat":43.305706,"lon":5.365654,"is_reserved":false,"is_disabled":false,"rental_uris":{"android":"levelo://app?vid=13240473-3def-42a3-b095-8602f843b467","ios":"levelo://app?vid=13240473-3def-42a3-b095-8602f843b467"},"vehicle_type_id":"4","last_reported":1684055135,"current_range_meters":20000,"station_id":"ce4bgs12rcd13ifvqcag","pricing_plan_id":"free"},{"bike_id":"200eaba4-b409-4b23-9802-e4111d101ffd","system_id":"levelo_inurba_marseille","lat":43.305706,"lon":5.365654,"is_reserved":false,"is_disabled":false,"rental_uris":{"android":"levelo://app?vid=200eaba4-b409-4b23-9802-e4111d101ffd","ios":"levelo://app?vid=200eaba4-b409-4b23-9802-e4111d101ffd"},"vehicle_type_id":"4","last_reported":1684055135,"current_range_meters":29600,"station_id":"ce4bgs12rcd13ifvqcag","pricing_plan_id":"free"},{"bike_id":"37443179-1f22-4e57-958f-25a4f7aae3dc","system_id":"levelo_inurba_marseille","lat":43.305706,"lon":5.365654,"is_reserved":false,"is_disabled":false,"rental_uris":{"android":"levelo://app?vid=37443179-1f22-4e57-958f-25a4f7aae3dc","ios":"levelo://app?vid=37443179-1f22-4e57-958f-25a4f7aae3dc"},"vehicle_type_id":"4","last_reported":1684055135,"current_range_meters":24800,"station_id":"ce4bgs12rcd13ifvqcag","pricing_plan_id":"free"},{"bike_id":"fca00784-2e75-4453-a59d-99531596f0c9","system_id":"levelo_inurba_marseille","lat":43.305706,"lon":5.365654,"is_reserved":false,"is_disabled":false,"rental_uris":{"android":"levelo://app?vid=fca00784-2e75-4453-a59d-99531596f0c9","ios":"levelo://app?vid=fca00784-2e75-4453-a59d-99531596f0c9"},"vehicle_type_id":"4","last_reported":1684055135,"current_range_meters":30400,"station_id":"ce4bgs12rcd13ifvqcag","pricing_plan_id":"free"},{"bike_id":"2ad787c7-02e3-46f4-bfe3-51a52df73058","system_id":"levelo_inurba_marseille","lat":43.305706,"lon":5.365654,"is_reserved":false,"is_disabled":false,"rental_uris":{"android":"levelo://app?vid=2ad787c7-02e3-46f4-bfe3-51a52df73058","ios":"levelo://app?vid=2ad787c7-02e3-46f4-bfe3-51a52df73058"},"vehicle_type_id":"4","last_reported":1684055135,"current_range_meters":30000,"station_id":"ce4bgs12rcd13ifvqcag","pricing_plan_id":"free"},{"bike_id":"16c5cbb5-9cd5-4f5f-af46-f2cadf6be593","system_id":"levelo_inurba_marseille","lat":43.305706,"lon":5.365654,"is_reserved":false,"is_disabled":false,"rental_uris":{"android":"levelo://app?vid=16c5cbb5-9cd5-4f5f-af46-f2cadf6be593","ios":"levelo://app?vid=16c5cbb5-9cd5-4f5f-af46-f2cadf6be593"},"vehicle_type_id":"4","last_reported":1684055135,"current_range_meters":24000,"station_id":"ce4bgs12rcd13ifvqcag","pricing_plan_id":"free"},{"bike_id":"0db3ca76-8d39-470d-82e1-4167226e3252","system_id":"levelo_inurba_marseille","lat":43.305706,"lon":5.365654,"is_reserved":false,"is_disabled":false,"rental_uris":{"android":"levelo://app?vid=0db3ca76-8d39-470d-82e1-4167226e3252","ios":"levelo://app?vid=0db3ca76-8d39-470d-82e1-4167226e3252"},"vehicle_type_id":"4","last_reported":1684055135,"current_range_meters":31200,"station_id":"ce4bgs12rcd13ifvqcag","pricing_plan_id":"free"},{"bike_id":"2449bf41-2170-429c-a41f-c625fbbebacd","system_id":"levelo_inurba_marseille","lat":43.305989,"lon":5.37225,"is_reserved":false,"is_disabled":false,"rental_uris":{"android":"levelo://app?vid=2449bf41-2170-429c-a41f-c625fbbebacd","ios":"levelo://app?vid=2449bf41-2170-429c-a41f-c625fbbebacd"},"vehicle_type_id":"4","last_reported":1684055135,"current_range_meters":30400,"station_id":"ce4bgqh2rcd13ifvqc4g","pricing_plan_id":"free"},{"bike_id":"86346738-7eb7-40cf-bbbe-1e9402b85f12","system_id":"levelo_inurba_marseille","lat":43.305989,"lon":5.37225,"is_reserved":false,"is_disabled":false,"rental_uris":{"android":"levelo://app?vid=86346738-7eb7-40cf-bbbe-1e9402b85f12","ios":"levelo://app?vid=86346738-7eb7-40cf-bbbe-1e9402b85f12"},"vehicle_type_id":"4","last_reported":1684055135,"current_range_meters":27200,"station_id":"ce4bgqh2rcd13ifvqc4g","pricing_plan_id":"free"},{"bike_id":"46473ef5-0d1e-4272-b85b-4cf1dd4ae982","system_id":"levelo_inurba_marseille","lat":43.305989,"lon":5.37225,"is_reserved":false,"is_disabled":false,"rental_uris":{"android":"levelo://app?vid=46473ef5-0d1e-4272-b85b-4cf1dd4ae982","ios":"levelo://app?vid=46473ef5-0d1e-4272-b85b-4cf1dd4ae982"},"vehicle_type_id":"4","last_reported":1684055135,"current_range_meters":31200,"station_id":"ce4bgqh2rcd13ifvqc4g","pricing_plan_id":"free"},{"bike_id":"5c1ff087-ae53-4ed3-9329-0bbad1983a33","system_id":"levelo_inurba_marseille","lat":43.305989,"lon":5.37225,"is_reserved":false,"is_disabled":false,"rental_uris":{"android":"levelo://app?vid=5c1ff087-ae53-4ed3-9329-0bbad1983a33","ios":"levelo://app?vid=5c1ff087-ae53-4ed3-9329-0bbad1983a33"},"vehicle_type_id":"4","last_reported":1684055135,"current_range_meters":27600,"station_id":"ce4bgqh2rcd13ifvqc4g","pricing_plan_id":"free"},{"bike_id":"9f6debf8-a185-478a-a3ff-21a37c1d2ecd","system_id":"levelo_inurba_marseille","lat":43.305989,"lon":5.37225,"is_reserved":false,"is_disabled":false,"rental_uris":{"android":"levelo://app?vid=9f6debf8-a185-478a-a3ff-21a37c1d2ecd","ios":"levelo://app?vid=9f6debf8-a185-478a-a3ff-21a37c1d2ecd"},"vehicle_type_id":"4","last_reported":1684055135,"current_range_meters":30000,"station_id":"ce4bgqh2rcd13ifvqc4g","pricing_plan_id":"free"},{"bike_id":"151d50bc-3aee-48d5-9527-783274464e00","system_id":"levelo_inurba_marseille","lat":43.31187,"lon":5.37759,"is_reserved":false,"is_disabled":false,"rental_uris":{"android":"levelo://app?vid=151d50bc-3aee-48d5-9527-783274464e00","ios":"levelo://app?vid=151d50bc-3aee-48d5-9527-783274464e00"},"vehicle_type_id":"4","last_reported":1684055135,"current_range_meters":9600,"station_id":"","pricing_plan_id":"free"},{"bike_id":"ecdc5015-01d1-4b53-a9d9-0aa1b2d14064","system_id":"levelo_inurba_marseille","lat":43.31115,"lon":5.37762,"is_reserved":false,"is_disabled":false,"rental_uris":{"android":"levelo://app?vid=ecdc5015-01d1-4b53-a9d9-0aa1b2d14064","ios":"levelo://app?vid=ecdc5015-01d1-4b53-a9d9-0aa1b2d14064"},"vehicle_type_id":"4","last_reported":1684055135,"current_range_meters":26000,"station_id":"ce4bgt92rcd13ifvqcg0","pricing_plan_id":"free"},{"bike_id":"84bda977-ebdf-437d-9ae9-737052ef034a","system_id":"levelo_inurba_marseille","lat":43.3112,"lon":5.37766,"is_reserved":false,"is_disabled":false,"rental_uris":{"android":"levelo://app?vid=84bda977-ebdf-437d-9ae9-737052ef034a","ios":"levelo://app?vid=84bda977-ebdf-437d-9ae9-737052ef034a"},"vehicle_type_id":"4","last_reported":1684055135,"current_range_meters":24400,"station_id":"ce4bgt92rcd13ifvqcg0","pricing_plan_id":"free"},{"bike_id":"93b0e58d-acbd-41e8-8b94-2c704b260b4f","system_id":"levelo_inurba_marseille","lat":43.317075,"lon":5.377367,"is_reserved":false,"is_disabled":false,"rental_uris":{"android":"levelo://app?vid=93b0e58d-acbd-41e8-8b94-2c704b260b4f","ios":"levelo://app?vid=93b0e58d-acbd-41e8-8b94-2c704b260b4f"},"vehicle_type_id":"4","last_reported":1684055135,"current_range_meters":31200,"station_id":"ce4bgth2rcd13ifvqch0","pricing_plan_id":"free"},{"bike_id":"bb4337ef-3e5c-4266-b473-290d00dc32e9","system_id":"levelo_inurba_marseille","lat":43.303037,"lon":5.368936,"is_reserved":false,"is_disabled":false,"rental_uris":{"android":"levelo://app?vid=bb4337ef-3e5c-4266-b473-290d00dc32e9","ios":"levelo://app?vid=bb4337ef-3e5c-4266-b473-290d00dc32e9"},"vehicle_type_id":"4","last_reported":1684055135,"current_range_meters":4800,"station_id":"ce4bgqh2rcd13ifvqc5g","pricing_plan_id":"free"},{"bike_id":"e65abc92-459b-4c95-8e12-ad0cf93504ff","system_id":"levelo_inurba_marseille","lat":43.305706,"lon":5.365654,"is_reserved":false,"is_disabled":false,"rental_uris":{"android":"levelo://app?vid=e65abc92-459b-4c95-8e12-ad0cf93504ff","ios":"levelo://app?vid=e65abc92-459b-4c95-8e12-ad0cf93504ff"},"vehicle_type_id":"4","last_reported":1684055135,"current_range_meters":13600,"station_id":"ce4bgs12rcd13ifvqcag","pricing_plan_id":"free"},{"bike_id":"302b4fcc-3978-4d02-80cd-7f686292546e","system_id":"levelo_inurba_marseille","lat":43.30304,"lon":5.368987,"is_reserved":false,"is_disabled":false,"rental_uris":{"android":"levelo://app?vid=302b4fcc-3978-4d02-80cd-7f686292546e","ios":"levelo://app?vid=302b4fcc-3978-4d02-80cd-7f686292546e"},"vehicle_type_id":"4","last_reported":1684055135,"current_range_meters":26000,"station_id":"ce4bgqh2rcd13ifvqc5g","pricing_plan_id":"free"},{"bike_id":"8e4f528e-4e13-4ae7-941e-5a47790d406c","system_id":"levelo_inurba_marseille","lat":43.315289,"lon":5.380349,"is_reserved":false,"is_disabled":false,"rental_uris":{"android":"levelo://app?vid=8e4f528e-4e13-4ae7-941e-5a47790d406c","ios":"levelo://app?vid=8e4f528e-4e13-4ae7-941e-5a47790d406c"},"vehicle_type_id":"4","last_reported":1684055135,"current_range_meters":24000,"station_id":"ce4bhsp2rcd13ifvqi50","pricing_plan_id":"free"},{"bike_id":"b71c3e1c-f191-4218-a929-264a4ed26997","system_id":"levelo_inurba_marseille","lat":43.315289,"lon":5.380349,"is_reserved":false,"is_disabled":false,"rental_uris":{"android":"levelo://app?vid=b71c3e1c-f191-4218-a929-264a4ed26997","ios":"levelo://app?vid=b71c3e1c-f191-4218-a929-264a4ed26997"},"vehicle_type_id":"4","last_reported":1684055135,"current_range_meters":30000,"station_id":"ce4bhsp2rcd13ifvqi50","pricing_plan_id":"free"},{"bike_id":"b8ae1045-8136-4e3f-9d69-ffea148830e0","system_id":"levelo_inurba_marseille","lat":43.3153,"lon":5.38035,"is_reserved":false,"is_disabled":false,"rental_uris":{"android":"levelo://app?vid=b8ae1045-8136-4e3f-9d69-ffea148830e0","ios":"levelo://app?vid=b8ae1045-8136-4e3f-9d69-ffea148830e0"},"vehicle_type_id":"4","last_reported":1684055135,"current_range_meters":23600,"station_id":"ce4bhsp2rcd13ifvqi50","pricing_plan_id":"free"},{"bike_id":"4f771b04-864c-4e16-9678-f9511e13d0df","system_id":"levelo_inurba_marseille","lat":43.30242,"lon":5.36909,"is_reserved":false,"is_disabled":false,"rental_uris":{"android":"levelo://app?vid=4f771b04-864c-4e16-9678-f9511e13d0df","ios":"levelo://app?vid=4f771b04-864c-4e16-9678-f9511e13d0df"},"vehicle_type_id":"4","last_reported":1684055135,"current_range_meters":22000,"station_id":"","pricing_plan_id":"free"},{"bike_id":"31c379d8-f6a1-4784-af89-4ce76b207c64","system_id":"levelo_inurba_marseille","lat":43.304606,"lon":5.379026,"is_reserved":false,"is_disabled":false,"rental_uris":{"android":"levelo://app?vid=31c379d8-f6a1-4784-af89-4ce76b207c64","ios":"levelo://app?vid=31c379d8-f6a1-4784-af89-4ce76b207c64"},"vehicle_type_id":"4","last_reported":1684055135,"current_range_meters":27600,"station_id":"ce4bgup2rcd13ifvqcn0","pricing_plan_id":"free"},{"bike_id":"560dd8ae-a848-4b17-928a-0b9197fcb1c3","system_id":"levelo_inurba_marseille","lat":43.304606,"lon":5.379026,"is_reserved":false,"is_disabled":false,"rental_uris":{"android":"levelo://app?vid=560dd8ae-a848-4b17-928a-0b9197fcb1c3","ios":"levelo://app?vid=560dd8ae-a848-4b17-928a-0b9197fcb1c3"},"vehicle_type_id":"4","last_reported":1684055135,"current_range_meters":29200,"station_id":"ce4bgup2rcd13ifvqcn0","pricing_plan_id":"free"},{"bike_id":"2fea3bfe-4513-4e7a-8ec9-b5a42d7fc9b0","system_id":"levelo_inurba_marseille","lat":43.304606,"lon":5.379026,"is_reserved":false,"is_disabled":false,"rental_uris":{"android":"levelo://app?vid=2fea3bfe-4513-4e7a-8ec9-b5a42d7fc9b0","ios":"levelo://app?vid=2fea3bfe-4513-4e7a-8ec9-b5a42d7fc9b0"},"vehicle_type_id":"4","last_reported":1684055135,"current_range_meters":24000,"station_id":"ce4bgup2rcd13ifvqcn0","pricing_plan_id":"free"},{"bike_id":"27e3ad0d-7f15-45fc-b485-8709add66d05","system_id":"levelo_inurba_marseille","lat":43.304606,"lon":5.379026,"is_reserved":false,"is_disabled":false,"rental_uris":{"android":"levelo://app?vid=27e3ad0d-7f15-45fc-b485-8709add66d05","ios":"levelo://app?vid=27e3ad0d-7f15-45fc-b485-8709add66d05"},"vehicle_type_id":"4","last_reported":1684055135,"current_range_meters":30800,"station_id":"ce4bgup2rcd13ifvqcn0","pricing_plan_id":"free"},{"bike_id":"22db9de9-d3cf-4578-bf45-d686bea36ace","system_id":"levelo_inurba_marseille","lat":43.304606,"lon":5.379026,"is_reserved":false,"is_disabled":false,"rental_uris":{"android":"levelo://app?vid=22db9de9-d3cf-4578-bf45-d686bea36ace","ios":"levelo://app?vid=22db9de9-d3cf-4578-bf45-d686bea36ace"},"vehicle_type_id":"4","last_reported":1684055135,"current_range_meters":31200,"station_id":"ce4bgup2rcd13ifvqcn0","pricing_plan_id":"free"},{"bike_id":"c45937f1-d27d-4af1-aa37-1afeb8b3a0d0","system_id":"levelo_inurba_marseille","lat":43.304606,"lon":5.379026,"is_reserved":false,"is_disabled":false,"rental_uris":{"android":"levelo://app?vid=c45937f1-d27d-4af1-aa37-1afeb8b3a0d0","ios":"levelo://app?vid=c45937f1-d27d-4af1-aa37-1afeb8b3a0d0"},"vehicle_type_id":"4","last_reported":1684055135,"current_range_meters":12000,"station_id":"ce4bgup2rcd13ifvqcn0","pricing_plan_id":"free"},{"bike_id":"ccbed042-a768-40a3-85c1-ed7e88950d87","system_id":"levelo_inurba_marseille","lat":43.304606,"lon":5.379026,"is_reserved":false,"is_disabled":false,"rental_uris":{"android":"levelo://app?vid=ccbed042-a768-40a3-85c1-ed7e88950d87","ios":"levelo://app?vid=ccbed042-a768-40a3-85c1-ed7e88950d87"},"vehicle_type_id":"4","last_reported":1684055135,"current_range_meters":31600,"station_id":"ce4bgup2rcd13ifvqcn0","pricing_plan_id":"free"},{"bike_id":"5f1fef8a-a1dd-479c-b9bb-abb98bcb3246","system_id":"levelo_inurba_marseille","lat":43.304606,"lon":5.379026,"is_reserved":false,"is_disabled":false,"rental_uris":{"android":"levelo://app?vid=5f1fef8a-a1dd-479c-b9bb-abb98bcb3246","ios":"levelo://app?vid=5f1fef8a-a1dd-479c-b9bb-abb98bcb3246"},"vehicle_type_id":"4","last_reported":1684055135,"current_range_meters":27600,"station_id":"ce4bgup2rcd13ifvqcn0","pricing_plan_id":"free"},{"bike_id":"3706aa15-a0b2-4b38-83b1-ebc65494fffb","system_id":"levelo_inurba_marseille","lat":43.304606,"lon":5.379026,"is_reserved":false,"is_disabled":false,"rental_uris":{"android":"levelo://app?vid=3706aa15-a0b2-4b38-83b1-ebc65494fffb","ios":"levelo://app?vid=3706aa15-a0b2-4b38-83b1-ebc65494fffb"},"vehicle_type_id":"4","last_reported":1684055135,"current_range_meters":15600,"station_id":"ce4bgup2rcd13ifvqcn0","pricing_plan_id":"free"},{"bike_id":"71b357f4-122d-4014-a715-fab6452b98f7","system_id":"levelo_inurba_marseille","lat":43.304606,"lon":5.379026,"is_reserved":false,"is_disabled":false,"rental_uris":{"android":"levelo://app?vid=71b357f4-122d-4014-a715-fab6452b98f7","ios":"levelo://app?vid=71b357f4-122d-4014-a715-fab6452b98f7"},"vehicle_type_id":"4","last_reported":1684055135,"current_range_meters":24000,"station_id":"ce4bgup2rcd13ifvqcn0","pricing_plan_id":"free"},{"bike_id":"0e4385b1-bf46-455c-ba85-b1c8ebc3ae57","system_id":"levelo_inurba_marseille","lat":43.304606,"lon":5.379026,"is_reserved":false,"is_disabled":false,"rental_uris":{"android":"levelo://app?vid=0e4385b1-bf46-455c-ba85-b1c8ebc3ae57","ios":"levelo://app?vid=0e4385b1-bf46-455c-ba85-b1c8ebc3ae57"},"vehicle_type_id":"4","last_reported":1684055135,"current_range_meters":26800,"station_id":"ce4bgup2rcd13ifvqcn0","pricing_plan_id":"free"},{"bike_id":"8b0517c8-e7bb-4f9e-954c-7c0789a5ced5","system_id":"levelo_inurba_marseille","lat":43.304606,"lon":5.379026,"is_reserved":false,"is_disabled":false,"rental_uris":{"android":"levelo://app?vid=8b0517c8-e7bb-4f9e-954c-7c0789a5ced5","ios":"levelo://app?vid=8b0517c8-e7bb-4f9e-954c-7c0789a5ced5"},"vehicle_type_id":"4","last_reported":1684055135,"current_range_meters":31200,"station_id":"ce4bgup2rcd13ifvqcn0","pricing_plan_id":"free"},{"bike_id":"5647464b-8e56-46f9-b5ba-616ff7924d98","system_id":"levelo_inurba_marseille","lat":43.32001,"lon":5.38147,"is_reserved":false,"is_disabled":false,"rental_uris":{"android":"levelo://app?vid=5647464b-8e56-46f9-b5ba-616ff7924d98","ios":"levelo://app?vid=5647464b-8e56-46f9-b5ba-616ff7924d98"},"vehicle_type_id":"4","last_reported":1684055135,"current_range_meters":11600,"station_id":"","pricing_plan_id":"free"},{"bike_id":"ea3a5b10-8c37-4ba0-a15a-2bc587607283","system_id":"levelo_inurba_marseille","lat":43.298433,"lon":5.362774,"is_reserved":false,"is_disabled":false,"rental_uris":{"android":"levelo://app?vid=ea3a5b10-8c37-4ba0-a15a-2bc587607283","ios":"levelo://app?vid=ea3a5b10-8c37-4ba0-a15a-2bc587607283"},"vehicle_type_id":"4","last_reported":1684055135,"current_range_meters":30000,"station_id":"ce4bgpp2rcd13ifvqc3g","pricing_plan_id":"free"},{"bike_id":"33c665b6-d077-4cff-aeba-b142315e8083","system_id":"levelo_inurba_marseille","lat":43.305364,"lon":5.384119,"is_reserved":false,"is_disabled":false,"rental_uris":{"android":"levelo://app?vid=33c665b6-d077-4cff-aeba-b142315e8083","ios":"levelo://app?vid=33c665b6-d077-4cff-aeba-b142315e8083"},"vehicle_type_id":"4","last_reported":1684055135,"current_range_meters":29600,"station_id":"ce4bgg92rcd13ifvqb30","pricing_plan_id":"free"},{"bike_id":"1c12acd4-7d12-4565-8ca4-1d1f27fc59f4","system_id":"levelo_inurba_marseille","lat":43.298433,"lon":5.362774,"is_reserved":false,"is_disabled":false,"rental_uris":{"android":"levelo://app?vid=1c12acd4-7d12-4565-8ca4-1d1f27fc59f4","ios":"levelo://app?vid=1c12acd4-7d12-4565-8ca4-1d1f27fc59f4"},"vehicle_type_id":"4","last_reported":1684055135,"current_range_meters":31600,"station_id":"ce4bgpp2rcd13ifvqc3g","pricing_plan_id":"free"},{"bike_id":"205914fb-c270-453d-8329-6d1d83256173","system_id":"levelo_inurba_marseille","lat":43.298433,"lon":5.362774,"is_reserved":false,"is_disabled":false,"rental_uris":{"android":"levelo://app?vid=205914fb-c270-453d-8329-6d1d83256173","ios":"levelo://app?vid=205914fb-c270-453d-8329-6d1d83256173"},"vehicle_type_id":"4","last_reported":1684055135,"current_range_meters":31200,"station_id":"ce4bgpp2rcd13ifvqc3g","pricing_plan_id":"free"},{"bike_id":"969f1ca0-95c4-47e5-acea-a58c3ffb3ffc","system_id":"levelo_inurba_marseille","lat":43.298433,"lon":5.362774,"is_reserved":false,"is_disabled":false,"rental_uris":{"android":"levelo://app?vid=969f1ca0-95c4-47e5-acea-a58c3ffb3ffc","ios":"levelo://app?vid=969f1ca0-95c4-47e5-acea-a58c3ffb3ffc"},"vehicle_type_id":"4","last_reported":1684055135,"current_range_meters":7200,"station_id":"ce4bgpp2rcd13ifvqc3g","pricing_plan_id":"free"},{"bike_id":"41aeb1aa-3d87-4127-b9f8-4d5460115b22","system_id":"levelo_inurba_marseille","lat":43.298433,"lon":5.362774,"is_reserved":false,"is_disabled":false,"rental_uris":{"android":"levelo://app?vid=41aeb1aa-3d87-4127-b9f8-4d5460115b22","ios":"levelo://app?vid=41aeb1aa-3d87-4127-b9f8-4d5460115b22"},"vehicle_type_id":"4","last_reported":1684055135,"current_range_meters":23600,"station_id":"ce4bgpp2rcd13ifvqc3g","pricing_plan_id":"free"},{"bike_id":"6a47e10d-3036-470a-9d20-19c656f5486d","system_id":"levelo_inurba_marseille","lat":43.298433,"lon":5.362774,"is_reserved":false,"is_disabled":false,"rental_uris":{"android":"levelo://app?vid=6a47e10d-3036-470a-9d20-19c656f5486d","ios":"levelo://app?vid=6a47e10d-3036-470a-9d20-19c656f5486d"},"vehicle_type_id":"4","last_reported":1684055135,"current_range_meters":30800,"station_id":"ce4bgpp2rcd13ifvqc3g","pricing_plan_id":"free"},{"bike_id":"f3069f7d-18e7-4a25-9b94-319295793bee","system_id":"levelo_inurba_marseille","lat":43.299243,"lon":5.37481,"is_reserved":false,"is_disabled":false,"rental_uris":{"android":"levelo://app?vid=f3069f7d-18e7-4a25-9b94-319295793bee","ios":"levelo://app?vid=f3069f7d-18e7-4a25-9b94-319295793bee"},"vehicle_type_id":"4","last_reported":1684055135,"current_range_meters":23600,"station_id":"ce4bgjh2rcd13ifvqbg0","pricing_plan_id":"free"},{"bike_id":"c3571467-17f5-42cf-94df-276334d4b22a","system_id":"levelo_inurba_marseille","lat":43.298433,"lon":5.362774,"is_reserved":false,"is_disabled":false,"rental_uris":{"android":"levelo://app?vid=c3571467-17f5-42cf-94df-276334d4b22a","ios":"levelo://app?vid=c3571467-17f5-42cf-94df-276334d4b22a"},"vehicle_type_id":"4","last_reported":1684055135,"current_range_meters":20000,"station_id":"ce4bgpp2rcd13ifvqc3g","pricing_plan_id":"free"},{"bike_id":"4d3bbd5f-a31e-421d-b242-6ad1bf85d74a","system_id":"levelo_inurba_marseille","lat":43.298433,"lon":5.362774,"is_reserved":false,"is_disabled":false,"rental_uris":{"android":"levelo://app?vid=4d3bbd5f-a31e-421d-b242-6ad1bf85d74a","ios":"levelo://app?vid=4d3bbd5f-a31e-421d-b242-6ad1bf85d74a"},"vehicle_type_id":"4","last_reported":1684055135,"current_range_meters":28000,"station_id":"ce4bgpp2rcd13ifvqc3g","pricing_plan_id":"free"},{"bike_id":"e35de995-8d08-4712-8651-67b81bc5760c","system_id":"levelo_inurba_marseille","lat":43.311722,"lon":5.387247,"is_reserved":false,"is_disabled":false,"rental_uris":{"android":"levelo://app?vid=e35de995-8d08-4712-8651-67b81bc5760c","ios":"levelo://app?vid=e35de995-8d08-4712-8651-67b81bc5760c"},"vehicle_type_id":"4","last_reported":1684055135,"current_range_meters":5600,"station_id":"ce4bgv12rcd13ifvqcp0","pricing_plan_id":"free"},{"bike_id":"2f96f4b7-d3f1-4b87-b98f-caf50ba6d13d","system_id":"levelo_inurba_marseille","lat":43.32764,"lon":5.36699,"is_reserved":false,"is_disabled":false,"rental_uris":{"android":"levelo://app?vid=2f96f4b7-d3f1-4b87-b98f-caf50ba6d13d","ios":"levelo://app?vid=2f96f4b7-d3f1-4b87-b98f-caf50ba6d13d"},"vehicle_type_id":"4","last_reported":1684055135,"current_range_meters":8400,"station_id":"","pricing_plan_id":"free"},{"bike_id":"d3acda88-c4fd-4879-b874-44072c3c9dbc","system_id":"levelo_inurba_marseille","lat":43.297794,"lon":5.370888,"is_reserved":false,"is_disabled":false,"rental_uris":{"android":"levelo://app?vid=d3acda88-c4fd-4879-b874-44072c3c9dbc","ios":"levelo://app?vid=d3acda88-c4fd-4879-b874-44072c3c9dbc"},"vehicle_type_id":"4","last_reported":1684055135,"current_range_meters":24000,"station_id":"ce4bgop2rcd13ifvqc1g","pricing_plan_id":"free"},{"bike_id":"fc0b1b04-c329-4dcf-bf4d-f47a83066660","system_id":"levelo_inurba_marseille","lat":43.328371,"lon":5.366909,"is_reserved":false,"is_disabled":false,"rental_uris":{"android":"levelo://app?vid=fc0b1b04-c329-4dcf-bf4d-f47a83066660","ios":"levelo://app?vid=fc0b1b04-c329-4dcf-bf4d-f47a83066660"},"vehicle_type_id":"4","last_reported":1684055135,"current_range_meters":24000,"station_id":"ce4bhs92rcd13ifvqi0g","pricing_plan_id":"free"},{"bike_id":"b449a4e4-2b40-420f-9a30-3bbbb718557f","system_id":"levelo_inurba_marseille","lat":43.328371,"lon":5.366912,"is_reserved":false,"is_disabled":false,"rental_uris":{"android":"levelo://app?vid=b449a4e4-2b40-420f-9a30-3bbbb718557f","ios":"levelo://app?vid=b449a4e4-2b40-420f-9a30-3bbbb718557f"},"vehicle_type_id":"4","last_reported":1684055135,"current_range_meters":17200,"station_id":"ce4bhs92rcd13ifvqi0g","pricing_plan_id":"free"},{"bike_id":"05dd3660-fb8d-4649-b95f-77a48f876534","system_id":"levelo_inurba_marseille","lat":43.328371,"lon":5.366909,"is_reserved":false,"is_disabled":false,"rental_uris":{"android":"levelo://app?vid=05dd3660-fb8d-4649-b95f-77a48f876534","ios":"levelo://app?vid=05dd3660-fb8d-4649-b95f-77a48f876534"},"vehicle_type_id":"4","last_reported":1684055135,"current_range_meters":31200,"station_id":"ce4bhs92rcd13ifvqi0g","pricing_plan_id":"free"},{"bike_id":"34c470f1-ed41-47d6-8d65-5c286939ee04","system_id":"levelo_inurba_marseille","lat":43.328371,"lon":5.366912,"is_reserved":false,"is_disabled":false,"rental_uris":{"android":"levelo://app?vid=34c470f1-ed41-47d6-8d65-5c286939ee04","ios":"levelo://app?vid=34c470f1-ed41-47d6-8d65-5c286939ee04"},"vehicle_type_id":"4","last_reported":1684055135,"current_range_meters":16000,"station_id":"ce4bhs92rcd13ifvqi0g","pricing_plan_id":"free"},{"bike_id":"8b551262-3438-4831-9812-be7a47f77893","system_id":"levelo_inurba_marseille","lat":43.328371,"lon":5.366909,"is_reserved":false,"is_disabled":false,"rental_uris":{"android":"levelo://app?vid=8b551262-3438-4831-9812-be7a47f77893","ios":"levelo://app?vid=8b551262-3438-4831-9812-be7a47f77893"},"vehicle_type_id":"4","last_reported":1684055135,"current_range_meters":30800,"station_id":"ce4bhs92rcd13ifvqi0g","pricing_plan_id":"free"},{"bike_id":"b60b2146-6e25-4d40-acc1-c67a07b5be20","system_id":"levelo_inurba_marseille","lat":43.328371,"lon":5.366909,"is_reserved":false,"is_disabled":false,"rental_uris":{"android":"levelo://app?vid=b60b2146-6e25-4d40-acc1-c67a07b5be20","ios":"levelo://app?vid=b60b2146-6e25-4d40-acc1-c67a07b5be20"},"vehicle_type_id":"4","last_reported":1684055135,"current_range_meters":31200,"station_id":"ce4bhs92rcd13ifvqi0g","pricing_plan_id":"free"},{"bike_id":"439e171b-885c-4b84-971d-3c43043903d7","system_id":"levelo_inurba_marseille","lat":43.328371,"lon":5.366912,"is_reserved":false,"is_disabled":false,"rental_uris":{"android":"levelo://app?vid=439e171b-885c-4b84-971d-3c43043903d7","ios":"levelo://app?vid=439e171b-885c-4b84-971d-3c43043903d7"},"vehicle_type_id":"4","last_reported":1684055135,"current_range_meters":24400,"station_id":"ce4bhs92rcd13ifvqi0g","pricing_plan_id":"free"},{"bike_id":"ad50fbdc-6818-49a3-976a-84468e8cc53b","system_id":"levelo_inurba_marseille","lat":43.328371,"lon":5.366912,"is_reserved":false,"is_disabled":false,"rental_uris":{"android":"levelo://app?vid=ad50fbdc-6818-49a3-976a-84468e8cc53b","ios":"levelo://app?vid=ad50fbdc-6818-49a3-976a-84468e8cc53b"},"vehicle_type_id":"4","last_reported":1684055135,"current_range_meters":31200,"station_id":"ce4bhs92rcd13ifvqi0g","pricing_plan_id":"free"},{"bike_id":"216acc05-cd3c-4a35-b67b-82ab6e8e46bc","system_id":"levelo_inurba_marseille","lat":43.32829,"lon":5.36688,"is_reserved":false,"is_disabled":false,"rental_uris":{"android":"levelo://app?vid=216acc05-cd3c-4a35-b67b-82ab6e8e46bc","ios":"levelo://app?vid=216acc05-cd3c-4a35-b67b-82ab6e8e46bc"},"vehicle_type_id":"4","last_reported":1684055135,"current_range_meters":16400,"station_id":"ce4bhs92rcd13ifvqi0g","pricing_plan_id":"free"},{"bike_id":"98fc616f-05d8-4d1d-9c58-d04644bf4fef","system_id":"levelo_inurba_marseille","lat":43.328371,"lon":5.366912,"is_reserved":false,"is_disabled":false,"rental_uris":{"android":"levelo://app?vid=98fc616f-05d8-4d1d-9c58-d04644bf4fef","ios":"levelo://app?vid=98fc616f-05d8-4d1d-9c58-d04644bf4fef"},"vehicle_type_id":"4","last_reported":1684055135,"current_range_meters":29600,"station_id":"ce4bhs92rcd13ifvqi0g","pricing_plan_id":"free"},{"bike_id":"5bc79a87-8c51-4256-972d-10ecdbdb6305","system_id":"levelo_inurba_marseille","lat":43.328371,"lon":5.366912,"is_reserved":false,"is_disabled":false,"rental_uris":{"android":"levelo://app?vid=5bc79a87-8c51-4256-972d-10ecdbdb6305","ios":"levelo://app?vid=5bc79a87-8c51-4256-972d-10ecdbdb6305"},"vehicle_type_id":"4","last_reported":1684055135,"current_range_meters":16000,"station_id":"ce4bhs92rcd13ifvqi0g","pricing_plan_id":"free"},{"bike_id":"9a3d7d7e-a3a8-457b-98eb-b021d728676d","system_id":"levelo_inurba_marseille","lat":43.328371,"lon":5.366909,"is_reserved":false,"is_disabled":false,"rental_uris":{"android":"levelo://app?vid=9a3d7d7e-a3a8-457b-98eb-b021d728676d","ios":"levelo://app?vid=9a3d7d7e-a3a8-457b-98eb-b021d728676d"},"vehicle_type_id":"4","last_reported":1684055135,"current_range_meters":20400,"station_id":"ce4bhs92rcd13ifvqi0g","pricing_plan_id":"free"},{"bike_id":"19dbfe5d-9e77-4915-8c62-a8b2b75c629f","system_id":"levelo_inurba_marseille","lat":43.29717,"lon":5.36615,"is_reserved":false,"is_disabled":false,"rental_uris":{"android":"levelo://app?vid=19dbfe5d-9e77-4915-8c62-a8b2b75c629f","ios":"levelo://app?vid=19dbfe5d-9e77-4915-8c62-a8b2b75c629f"},"vehicle_type_id":"4","last_reported":1684055135,"current_range_meters":4800,"station_id":"","pricing_plan_id":"free"},{"bike_id":"ef619222-d86f-4984-a46f-cda033f9cc5b","system_id":"levelo_inurba_marseille","lat":43.328371,"lon":5.366912,"is_reserved":false,"is_disabled":false,"rental_uris":{"android":"levelo://app?vid=ef619222-d86f-4984-a46f-cda033f9cc5b","ios":"levelo://app?vid=ef619222-d86f-4984-a46f-cda033f9cc5b"},"vehicle_type_id":"4","last_reported":1684055135,"current_range_meters":30800,"station_id":"ce4bhs92rcd13ifvqi0g","pricing_plan_id":"free"},{"bike_id":"f7e16b9b-dda5-4bba-9d80-00bc064f0f46","system_id":"levelo_inurba_marseille","lat":43.32835,"lon":5.36679,"is_reserved":false,"is_disabled":false,"rental_uris":{"android":"levelo://app?vid=f7e16b9b-dda5-4bba-9d80-00bc064f0f46","ios":"levelo://app?vid=f7e16b9b-dda5-4bba-9d80-00bc064f0f46"},"vehicle_type_id":"4","last_reported":1684055135,"current_range_meters":14800,"station_id":"ce4bhs92rcd13ifvqi0g","pricing_plan_id":"free"},{"bike_id":"b0e4b9cb-f5b2-435d-96a5-9d5bb43dcfd2","system_id":"levelo_inurba_marseille","lat":43.29714,"lon":5.3661,"is_reserved":false,"is_disabled":false,"rental_uris":{"android":"levelo://app?vid=b0e4b9cb-f5b2-435d-96a5-9d5bb43dcfd2","ios":"levelo://app?vid=b0e4b9cb-f5b2-435d-96a5-9d5bb43dcfd2"},"vehicle_type_id":"4","last_reported":1684055135,"current_range_meters":27200,"station_id":"","pricing_plan_id":"free"},{"bike_id":"aaca5fdf-1dee-4b81-aa4f-2d7102ec2d0c","system_id":"levelo_inurba_marseille","lat":43.32836,"lon":5.3669,"is_reserved":false,"is_disabled":false,"rental_uris":{"android":"levelo://app?vid=aaca5fdf-1dee-4b81-aa4f-2d7102ec2d0c","ios":"levelo://app?vid=aaca5fdf-1dee-4b81-aa4f-2d7102ec2d0c"},"vehicle_type_id":"4","last_reported":1684055135,"current_range_meters":19600,"station_id":"ce4bhs92rcd13ifvqi0g","pricing_plan_id":"free"},{"bike_id":"52f13db3-d52c-4a36-b653-2a406c5f36e9","system_id":"levelo_inurba_marseille","lat":43.296129,"lon":5.370777,"is_reserved":false,"is_disabled":false,"rental_uris":{"android":"levelo://app?vid=52f13db3-d52c-4a36-b653-2a406c5f36e9","ios":"levelo://app?vid=52f13db3-d52c-4a36-b653-2a406c5f36e9"},"vehicle_type_id":"4","last_reported":1684055135,"current_range_meters":25600,"station_id":"ce4bgnh2rcd13ifvqc0g","pricing_plan_id":"free"},{"bike_id":"71f095af-5cd7-4446-9898-e2cfd01fcc7c","system_id":"levelo_inurba_marseille","lat":43.296129,"lon":5.370777,"is_reserved":false,"is_disabled":false,"rental_uris":{"android":"levelo://app?vid=71f095af-5cd7-4446-9898-e2cfd01fcc7c","ios":"levelo://app?vid=71f095af-5cd7-4446-9898-e2cfd01fcc7c"},"vehicle_type_id":"4","last_reported":1684055135,"current_range_meters":20000,"station_id":"ce4bgnh2rcd13ifvqc0g","pricing_plan_id":"free"},{"bike_id":"35d9912d-a31f-4868-a135-45a2b24e3c65","system_id":"levelo_inurba_marseille","lat":43.29573,"lon":5.367355,"is_reserved":false,"is_disabled":false,"rental_uris":{"android":"levelo://app?vid=35d9912d-a31f-4868-a135-45a2b24e3c65","ios":"levelo://app?vid=35d9912d-a31f-4868-a135-45a2b24e3c65"},"vehicle_type_id":"4","last_reported":1684055135,"current_range_meters":31200,"station_id":"ce4bgph2rcd13ifvqc2g","pricing_plan_id":"free"},{"bike_id":"f739e524-346a-4bf1-9771-377169e6b980","system_id":"levelo_inurba_marseille","lat":43.29573,"lon":5.367355,"is_reserved":false,"is_disabled":false,"rental_uris":{"android":"levelo://app?vid=f739e524-346a-4bf1-9771-377169e6b980","ios":"levelo://app?vid=f739e524-346a-4bf1-9771-377169e6b980"},"vehicle_type_id":"4","last_reported":1684055135,"current_range_meters":23200,"station_id":"ce4bgph2rcd13ifvqc2g","pricing_plan_id":"free"},{"bike_id":"27058e82-8977-4914-af1a-ad76eddcd8f9","system_id":"levelo_inurba_marseille","lat":43.29573,"lon":5.367355,"is_reserved":false,"is_disabled":false,"rental_uris":{"android":"levelo://app?vid=27058e82-8977-4914-af1a-ad76eddcd8f9","ios":"levelo://app?vid=27058e82-8977-4914-af1a-ad76eddcd8f9"},"vehicle_type_id":"4","last_reported":1684055135,"current_range_meters":17600,"station_id":"ce4bgph2rcd13ifvqc2g","pricing_plan_id":"free"},{"bike_id":"eccbc263-0c5a-4cd5-a44d-6c7ea73118e0","system_id":"levelo_inurba_marseille","lat":43.296129,"lon":5.370777,"is_reserved":false,"is_disabled":false,"rental_uris":{"android":"levelo://app?vid=eccbc263-0c5a-4cd5-a44d-6c7ea73118e0","ios":"levelo://app?vid=eccbc263-0c5a-4cd5-a44d-6c7ea73118e0"},"vehicle_type_id":"4","last_reported":1684055135,"current_range_meters":30400,"station_id":"ce4bgnh2rcd13ifvqc0g","pricing_plan_id":"free"},{"bike_id":"1197b576-82d3-4fa6-8faa-9fbc5b30e25b","system_id":"levelo_inurba_marseille","lat":43.29726,"lon":5.37689,"is_reserved":false,"is_disabled":false,"rental_uris":{"android":"levelo://app?vid=1197b576-82d3-4fa6-8faa-9fbc5b30e25b","ios":"levelo://app?vid=1197b576-82d3-4fa6-8faa-9fbc5b30e25b"},"vehicle_type_id":"4","last_reported":1684055135,"current_range_meters":0,"station_id":"","pricing_plan_id":"free"},{"bike_id":"eeb98850-8a68-43a8-9551-47d4b2fb7662","system_id":"levelo_inurba_marseille","lat":43.309589,"lon":5.390258,"is_reserved":false,"is_disabled":false,"rental_uris":{"android":"levelo://app?vid=eeb98850-8a68-43a8-9551-47d4b2fb7662","ios":"levelo://app?vid=eeb98850-8a68-43a8-9551-47d4b2fb7662"},"vehicle_type_id":"4","last_reported":1684055135,"current_range_meters":31600,"station_id":"ce4bgup2rcd13ifvqco0","pricing_plan_id":"free"},{"bike_id":"5a6c3b1b-b8eb-4eaa-82db-1c51f70c2b79","system_id":"levelo_inurba_marseille","lat":43.309589,"lon":5.390258,"is_reserved":false,"is_disabled":false,"rental_uris":{"android":"levelo://app?vid=5a6c3b1b-b8eb-4eaa-82db-1c51f70c2b79","ios":"levelo://app?vid=5a6c3b1b-b8eb-4eaa-82db-1c51f70c2b79"},"vehicle_type_id":"4","last_reported":1684055135,"current_range_meters":24800,"station_id":"ce4bgup2rcd13ifvqco0","pricing_plan_id":"free"},{"bike_id":"c4972440-0edb-4590-95e2-8012ae1775b1","system_id":"levelo_inurba_marseille","lat":43.309589,"lon":5.390258,"is_reserved":false,"is_disabled":false,"rental_uris":{"android":"levelo://app?vid=c4972440-0edb-4590-95e2-8012ae1775b1","ios":"levelo://app?vid=c4972440-0edb-4590-95e2-8012ae1775b1"},"vehicle_type_id":"4","last_reported":1684055135,"current_range_meters":30800,"station_id":"ce4bgup2rcd13ifvqco0","pricing_plan_id":"free"},{"bike_id":"309d0d2d-1b44-4f27-b750-6baa1f46ccba","system_id":"levelo_inurba_marseille","lat":43.309589,"lon":5.390258,"is_reserved":false,"is_disabled":false,"rental_uris":{"android":"levelo://app?vid=309d0d2d-1b44-4f27-b750-6baa1f46ccba","ios":"levelo://app?vid=309d0d2d-1b44-4f27-b750-6baa1f46ccba"},"vehicle_type_id":"4","last_reported":1684055135,"current_range_meters":30400,"station_id":"ce4bgup2rcd13ifvqco0","pricing_plan_id":"free"},{"bike_id":"b14d555f-1417-4866-a107-aac5622b58c4","system_id":"levelo_inurba_marseille","lat":43.309589,"lon":5.390258,"is_reserved":false,"is_disabled":false,"rental_uris":{"android":"levelo://app?vid=b14d555f-1417-4866-a107-aac5622b58c4","ios":"levelo://app?vid=b14d555f-1417-4866-a107-aac5622b58c4"},"vehicle_type_id":"4","last_reported":1684055135,"current_range_meters":19600,"station_id":"ce4bgup2rcd13ifvqco0","pricing_plan_id":"free"},{"bike_id":"b9c5ccae-9ed6-43fa-b427-0fb6eac72783","system_id":"levelo_inurba_marseille","lat":43.309589,"lon":5.390258,"is_reserved":false,"is_disabled":false,"rental_uris":{"android":"levelo://app?vid=b9c5ccae-9ed6-43fa-b427-0fb6eac72783","ios":"levelo://app?vid=b9c5ccae-9ed6-43fa-b427-0fb6eac72783"},"vehicle_type_id":"4","last_reported":1684055135,"current_range_meters":29200,"station_id":"ce4bgup2rcd13ifvqco0","pricing_plan_id":"free"},{"bike_id":"92e339d3-21f3-438e-8201-fe359df47132","system_id":"levelo_inurba_marseille","lat":43.29706,"lon":5.37727,"is_reserved":false,"is_disabled":false,"rental_uris":{"android":"levelo://app?vid=92e339d3-21f3-438e-8201-fe359df47132","ios":"levelo://app?vid=92e339d3-21f3-438e-8201-fe359df47132"},"vehicle_type_id":"4","last_reported":1684055135,"current_range_meters":29600,"station_id":"","pricing_plan_id":"free"},{"bike_id":"57c3029e-a82c-41e0-8094-bac2abcea413","system_id":"levelo_inurba_marseille","lat":43.309589,"lon":5.390258,"is_reserved":false,"is_disabled":false,"rental_uris":{"android":"levelo://app?vid=57c3029e-a82c-41e0-8094-bac2abcea413","ios":"levelo://app?vid=57c3029e-a82c-41e0-8094-bac2abcea413"},"vehicle_type_id":"4","last_reported":1684055135,"current_range_meters":28400,"station_id":"ce4bgup2rcd13ifvqco0","pricing_plan_id":"free"},{"bike_id":"59782408-da8f-4234-a790-f6275cdc67ac","system_id":"levelo_inurba_marseille","lat":43.309589,"lon":5.390258,"is_reserved":false,"is_disabled":false,"rental_uris":{"android":"levelo://app?vid=59782408-da8f-4234-a790-f6275cdc67ac","ios":"levelo://app?vid=59782408-da8f-4234-a790-f6275cdc67ac"},"vehicle_type_id":"4","last_reported":1684055135,"current_range_meters":30000,"station_id":"ce4bgup2rcd13ifvqco0","pricing_plan_id":"free"},{"bike_id":"363d09ac-48e9-461f-b825-1766b1b502c3","system_id":"levelo_inurba_marseille","lat":43.309589,"lon":5.390258,"is_reserved":false,"is_disabled":false,"rental_uris":{"android":"levelo://app?vid=363d09ac-48e9-461f-b825-1766b1b502c3","ios":"levelo://app?vid=363d09ac-48e9-461f-b825-1766b1b502c3"},"vehicle_type_id":"4","last_reported":1684055135,"current_range_meters":26000,"station_id":"ce4bgup2rcd13ifvqco0","pricing_plan_id":"free"},{"bike_id":"be1ed82e-206d-4caf-b060-ca67c034763e","system_id":"levelo_inurba_marseille","lat":43.309589,"lon":5.390258,"is_reserved":false,"is_disabled":false,"rental_uris":{"android":"levelo://app?vid=be1ed82e-206d-4caf-b060-ca67c034763e","ios":"levelo://app?vid=be1ed82e-206d-4caf-b060-ca67c034763e"},"vehicle_type_id":"4","last_reported":1684055135,"current_range_meters":28000,"station_id":"ce4bgup2rcd13ifvqco0","pricing_plan_id":"free"},{"bike_id":"5bd6f28e-0bdc-4ca7-b39a-b08c12afb0cd","system_id":"levelo_inurba_marseille","lat":43.309589,"lon":5.390258,"is_reserved":false,"is_disabled":false,"rental_uris":{"android":"levelo://app?vid=5bd6f28e-0bdc-4ca7-b39a-b08c12afb0cd","ios":"levelo://app?vid=5bd6f28e-0bdc-4ca7-b39a-b08c12afb0cd"},"vehicle_type_id":"4","last_reported":1684055135,"current_range_meters":21600,"station_id":"ce4bgup2rcd13ifvqco0","pricing_plan_id":"free"},{"bike_id":"808e25be-9bda-49c7-af44-68800ae9ce5e","system_id":"levelo_inurba_marseille","lat":43.309589,"lon":5.390258,"is_reserved":false,"is_disabled":false,"rental_uris":{"android":"levelo://app?vid=808e25be-9bda-49c7-af44-68800ae9ce5e","ios":"levelo://app?vid=808e25be-9bda-49c7-af44-68800ae9ce5e"},"vehicle_type_id":"4","last_reported":1684055135,"current_range_meters":27600,"station_id":"ce4bgup2rcd13ifvqco0","pricing_plan_id":"free"},{"bike_id":"8d249c4e-5841-43df-a8c1-1ee71a14ff90","system_id":"levelo_inurba_marseille","lat":43.31759,"lon":5.3901,"is_reserved":false,"is_disabled":false,"rental_uris":{"android":"levelo://app?vid=8d249c4e-5841-43df-a8c1-1ee71a14ff90","ios":"levelo://app?vid=8d249c4e-5841-43df-a8c1-1ee71a14ff90"},"vehicle_type_id":"4","last_reported":1684055135,"current_range_meters":26000,"station_id":"ce4bhqp2rcd13ifvqhng","pricing_plan_id":"free"},{"bike_id":"7e101d88-7926-4513-a08a-b2a6fdb92c65","system_id":"levelo_inurba_marseille","lat":43.31757,"lon":5.39015,"is_reserved":false,"is_disabled":false,"rental_uris":{"android":"levelo://app?vid=7e101d88-7926-4513-a08a-b2a6fdb92c65","ios":"levelo://app?vid=7e101d88-7926-4513-a08a-b2a6fdb92c65"},"vehicle_type_id":"4","last_reported":1684055135,"current_range_meters":26400,"station_id":"ce4bhqp2rcd13ifvqhng","pricing_plan_id":"free"},{"bike_id":"2e4072c4-97ae-412f-891d-364f103e5e6c","system_id":"levelo_inurba_marseille","lat":43.31758,"lon":5.39016,"is_reserved":false,"is_disabled":false,"rental_uris":{"android":"levelo://app?vid=2e4072c4-97ae-412f-891d-364f103e5e6c","ios":"levelo://app?vid=2e4072c4-97ae-412f-891d-364f103e5e6c"},"vehicle_type_id":"4","last_reported":1684055135,"current_range_meters":14800,"station_id":"ce4bhqp2rcd13ifvqhng","pricing_plan_id":"free"},{"bike_id":"1b325cea-ceaa-42a6-b5b5-d830a284156d","system_id":"levelo_inurba_marseille","lat":43.31757,"lon":5.39017,"is_reserved":false,"is_disabled":false,"rental_uris":{"android":"levelo://app?vid=1b325cea-ceaa-42a6-b5b5-d830a284156d","ios":"levelo://app?vid=1b325cea-ceaa-42a6-b5b5-d830a284156d"},"vehicle_type_id":"4","last_reported":1684055135,"current_range_meters":23200,"station_id":"ce4bhqp2rcd13ifvqhng","pricing_plan_id":"free"},{"bike_id":"1b8e8455-d974-44bb-9a4e-7e7867c76231","system_id":"levelo_inurba_marseille","lat":43.31757,"lon":5.39019,"is_reserved":false,"is_disabled":false,"rental_uris":{"android":"levelo://app?vid=1b8e8455-d974-44bb-9a4e-7e7867c76231","ios":"levelo://app?vid=1b8e8455-d974-44bb-9a4e-7e7867c76231"},"vehicle_type_id":"4","last_reported":1684055135,"current_range_meters":13600,"station_id":"ce4bhqp2rcd13ifvqhng","pricing_plan_id":"free"},{"bike_id":"46fe8492-485e-4b45-949b-3fd957712adc","system_id":"levelo_inurba_marseille","lat":43.31754,"lon":5.39021,"is_reserved":false,"is_disabled":false,"rental_uris":{"android":"levelo://app?vid=46fe8492-485e-4b45-949b-3fd957712adc","ios":"levelo://app?vid=46fe8492-485e-4b45-949b-3fd957712adc"},"vehicle_type_id":"4","last_reported":1684055135,"current_range_meters":11200,"station_id":"ce4bhqp2rcd13ifvqhng","pricing_plan_id":"free"},{"bike_id":"eb214527-8203-4410-a520-f2f2d1c67bb7","system_id":"levelo_inurba_marseille","lat":43.317557,"lon":5.390173,"is_reserved":false,"is_disabled":false,"rental_uris":{"android":"levelo://app?vid=eb214527-8203-4410-a520-f2f2d1c67bb7","ios":"levelo://app?vid=eb214527-8203-4410-a520-f2f2d1c67bb7"},"vehicle_type_id":"4","last_reported":1684055135,"current_range_meters":30800,"station_id":"ce4bhqp2rcd13ifvqhng","pricing_plan_id":"free"},{"bike_id":"72b4f6d3-6be1-4d91-8d93-3831d7a5aedd","system_id":"levelo_inurba_marseille","lat":43.298037,"lon":5.381066,"is_reserved":false,"is_disabled":false,"rental_uris":{"android":"levelo://app?vid=72b4f6d3-6be1-4d91-8d93-3831d7a5aedd","ios":"levelo://app?vid=72b4f6d3-6be1-4d91-8d93-3831d7a5aedd"},"vehicle_type_id":"4","last_reported":1684055135,"current_range_meters":27600,"station_id":"ce4bgip2rcd13ifvqbb0","pricing_plan_id":"free"},{"bike_id":"588d3ccf-2866-4c65-a2b7-84e904452c99","system_id":"levelo_inurba_marseille","lat":43.298037,"lon":5.381066,"is_reserved":false,"is_disabled":false,"rental_uris":{"android":"levelo://app?vid=588d3ccf-2866-4c65-a2b7-84e904452c99","ios":"levelo://app?vid=588d3ccf-2866-4c65-a2b7-84e904452c99"},"vehicle_type_id":"4","last_reported":1684055135,"current_range_meters":23600,"station_id":"ce4bgip2rcd13ifvqbb0","pricing_plan_id":"free"},{"bike_id":"1c257a26-4638-4f21-abd9-98324b3ad1a7","system_id":"levelo_inurba_marseille","lat":43.298037,"lon":5.381066,"is_reserved":false,"is_disabled":false,"rental_uris":{"android":"levelo://app?vid=1c257a26-4638-4f21-abd9-98324b3ad1a7","ios":"levelo://app?vid=1c257a26-4638-4f21-abd9-98324b3ad1a7"},"vehicle_type_id":"4","last_reported":1684055135,"current_range_meters":31200,"station_id":"ce4bgip2rcd13ifvqbb0","pricing_plan_id":"free"},{"bike_id":"d0465428-5dff-4d82-92a8-888b1a39cdc7","system_id":"levelo_inurba_marseille","lat":43.295748,"lon":5.37522,"is_reserved":false,"is_disabled":false,"rental_uris":{"android":"levelo://app?vid=d0465428-5dff-4d82-92a8-888b1a39cdc7","ios":"levelo://app?vid=d0465428-5dff-4d82-92a8-888b1a39cdc7"},"vehicle_type_id":"4","last_reported":1684055135,"current_range_meters":26800,"station_id":"ce4bgh92rcd13ifvqb50","pricing_plan_id":"free"},{"bike_id":"bc60067f-ad1c-473d-823f-643f6086cf5e","system_id":"levelo_inurba_marseille","lat":43.29791,"lon":5.38102,"is_reserved":false,"is_disabled":false,"rental_uris":{"android":"levelo://app?vid=bc60067f-ad1c-473d-823f-643f6086cf5e","ios":"levelo://app?vid=bc60067f-ad1c-473d-823f-643f6086cf5e"},"vehicle_type_id":"4","last_reported":1684055135,"current_range_meters":24000,"station_id":"ce4bgip2rcd13ifvqbb0","pricing_plan_id":"free"},{"bike_id":"d157399e-6357-4f98-bff2-5dac531e0e26","system_id":"levelo_inurba_marseille","lat":43.295748,"lon":5.37522,"is_reserved":false,"is_disabled":false,"rental_uris":{"android":"levelo://app?vid=d157399e-6357-4f98-bff2-5dac531e0e26","ios":"levelo://app?vid=d157399e-6357-4f98-bff2-5dac531e0e26"},"vehicle_type_id":"4","last_reported":1684055135,"current_range_meters":28000,"station_id":"ce4bgh92rcd13ifvqb50","pricing_plan_id":"free"},{"bike_id":"e37bc95e-d1db-41aa-bb66-3e72648fdf6c","system_id":"levelo_inurba_marseille","lat":43.29784,"lon":5.38097,"is_reserved":false,"is_disabled":false,"rental_uris":{"android":"levelo://app?vid=e37bc95e-d1db-41aa-bb66-3e72648fdf6c","ios":"levelo://app?vid=e37bc95e-d1db-41aa-bb66-3e72648fdf6c"},"vehicle_type_id":"4","last_reported":1684055135,"current_range_meters":28800,"station_id":"ce4bgip2rcd13ifvqbb0","pricing_plan_id":"free"},{"bike_id":"92ac4415-45ee-4c61-96c5-cba6ebfb0db0","system_id":"levelo_inurba_marseille","lat":43.295748,"lon":5.37522,"is_reserved":false,"is_disabled":false,"rental_uris":{"android":"levelo://app?vid=92ac4415-45ee-4c61-96c5-cba6ebfb0db0","ios":"levelo://app?vid=92ac4415-45ee-4c61-96c5-cba6ebfb0db0"},"vehicle_type_id":"4","last_reported":1684055135,"current_range_meters":30000,"station_id":"ce4bgh92rcd13ifvqb50","pricing_plan_id":"free"},{"bike_id":"dd4afff2-8569-42ef-a6ea-46fde8ab17ec","system_id":"levelo_inurba_marseille","lat":43.295748,"lon":5.37522,"is_reserved":false,"is_disabled":false,"rental_uris":{"android":"levelo://app?vid=dd4afff2-8569-42ef-a6ea-46fde8ab17ec","ios":"levelo://app?vid=dd4afff2-8569-42ef-a6ea-46fde8ab17ec"},"vehicle_type_id":"4","last_reported":1684055135,"current_range_meters":17200,"station_id":"ce4bgh92rcd13ifvqb50","pricing_plan_id":"free"},{"bike_id":"81ebbd79-41a3-49f9-939b-1b79b83f26e3","system_id":"levelo_inurba_marseille","lat":43.29779,"lon":5.38109,"is_reserved":false,"is_disabled":false,"rental_uris":{"android":"levelo://app?vid=81ebbd79-41a3-49f9-939b-1b79b83f26e3","ios":"levelo://app?vid=81ebbd79-41a3-49f9-939b-1b79b83f26e3"},"vehicle_type_id":"4","last_reported":1684055135,"current_range_meters":22000,"station_id":"ce4bgip2rcd13ifvqbb0","pricing_plan_id":"free"},{"bike_id":"613d06fd-fbf9-4c80-a3c5-e1c1669d8376","system_id":"levelo_inurba_marseille","lat":43.296277,"lon":5.377108,"is_reserved":false,"is_disabled":false,"rental_uris":{"android":"levelo://app?vid=613d06fd-fbf9-4c80-a3c5-e1c1669d8376","ios":"levelo://app?vid=613d06fd-fbf9-4c80-a3c5-e1c1669d8376"},"vehicle_type_id":"4","last_reported":1684055135,"current_range_meters":28800,"station_id":"ce4bgi92rcd13ifvqb90","pricing_plan_id":"free"},{"bike_id":"9cfc3a51-8b9c-4c44-b444-c01a9df5fa74","system_id":"levelo_inurba_marseille","lat":43.296277,"lon":5.377108,"is_reserved":false,"is_disabled":false,"rental_uris":{"android":"levelo://app?vid=9cfc3a51-8b9c-4c44-b444-c01a9df5fa74","ios":"levelo://app?vid=9cfc3a51-8b9c-4c44-b444-c01a9df5fa74"},"vehicle_type_id":"4","last_reported":1684055135,"current_range_meters":28000,"station_id":"ce4bgi92rcd13ifvqb90","pricing_plan_id":"free"},{"bike_id":"0f887280-1569-4d8a-a89e-da496a68fa66","system_id":"levelo_inurba_marseille","lat":43.295279,"lon":5.375048,"is_reserved":false,"is_disabled":false,"rental_uris":{"android":"levelo://app?vid=0f887280-1569-4d8a-a89e-da496a68fa66","ios":"levelo://app?vid=0f887280-1569-4d8a-a89e-da496a68fa66"},"vehicle_type_id":"4","last_reported":1684055135,"current_range_meters":17600,"station_id":"ce4bgkp2rcd13ifvqbmg","pricing_plan_id":"free"},{"bike_id":"2d720bc8-e0d9-4783-ab29-1a9e42ca334c","system_id":"levelo_inurba_marseille","lat":43.295279,"lon":5.375048,"is_reserved":false,"is_disabled":false,"rental_uris":{"android":"levelo://app?vid=2d720bc8-e0d9-4783-ab29-1a9e42ca334c","ios":"levelo://app?vid=2d720bc8-e0d9-4783-ab29-1a9e42ca334c"},"vehicle_type_id":"4","last_reported":1684055135,"current_range_meters":2000,"station_id":"ce4bgkp2rcd13ifvqbmg","pricing_plan_id":"free"},{"bike_id":"b1cb06bc-7c3d-4d8a-84a0-254469e431d0","system_id":"levelo_inurba_marseille","lat":43.299707,"lon":5.384859,"is_reserved":false,"is_disabled":false,"rental_uris":{"android":"levelo://app?vid=b1cb06bc-7c3d-4d8a-84a0-254469e431d0","ios":"levelo://app?vid=b1cb06bc-7c3d-4d8a-84a0-254469e431d0"},"vehicle_type_id":"4","last_reported":1684055135,"current_range_meters":28800,"station_id":"ce4bgj92rcd13ifvqbd0","pricing_plan_id":"free"},{"bike_id":"e79316e3-8b3b-419c-8fbb-e314d03e0dec","system_id":"levelo_inurba_marseille","lat":43.295279,"lon":5.375048,"is_reserved":false,"is_disabled":false,"rental_uris":{"android":"levelo://app?vid=e79316e3-8b3b-419c-8fbb-e314d03e0dec","ios":"levelo://app?vid=e79316e3-8b3b-419c-8fbb-e314d03e0dec"},"vehicle_type_id":"4","last_reported":1684055135,"current_range_meters":30800,"station_id":"ce4bgkp2rcd13ifvqbmg","pricing_plan_id":"free"},{"bike_id":"d818135b-942e-4daa-9585-3e6a815182d1","system_id":"levelo_inurba_marseille","lat":43.295279,"lon":5.375048,"is_reserved":false,"is_disabled":false,"rental_uris":{"android":"levelo://app?vid=d818135b-942e-4daa-9585-3e6a815182d1","ios":"levelo://app?vid=d818135b-942e-4daa-9585-3e6a815182d1"},"vehicle_type_id":"4","last_reported":1684055135,"current_range_meters":12400,"station_id":"ce4bgkp2rcd13ifvqbmg","pricing_plan_id":"free"},{"bike_id":"a874549d-f027-4bb9-851c-d42f05b1019d","system_id":"levelo_inurba_marseille","lat":43.295279,"lon":5.375048,"is_reserved":false,"is_disabled":false,"rental_uris":{"android":"levelo://app?vid=a874549d-f027-4bb9-851c-d42f05b1019d","ios":"levelo://app?vid=a874549d-f027-4bb9-851c-d42f05b1019d"},"vehicle_type_id":"4","last_reported":1684055135,"current_range_meters":30800,"station_id":"ce4bgkp2rcd13ifvqbmg","pricing_plan_id":"free"},{"bike_id":"ed3e3292-2b06-420c-8575-bfd3dc79f56b","system_id":"levelo_inurba_marseille","lat":43.295279,"lon":5.375048,"is_reserved":false,"is_disabled":false,"rental_uris":{"android":"levelo://app?vid=ed3e3292-2b06-420c-8575-bfd3dc79f56b","ios":"levelo://app?vid=ed3e3292-2b06-420c-8575-bfd3dc79f56b"},"vehicle_type_id":"4","last_reported":1684055135,"current_range_meters":4400,"station_id":"ce4bgkp2rcd13ifvqbmg","pricing_plan_id":"free"},{"bike_id":"82edfb00-e27f-40a9-9a56-89b659b09b88","system_id":"levelo_inurba_marseille","lat":43.295279,"lon":5.375048,"is_reserved":false,"is_disabled":false,"rental_uris":{"android":"levelo://app?vid=82edfb00-e27f-40a9-9a56-89b659b09b88","ios":"levelo://app?vid=82edfb00-e27f-40a9-9a56-89b659b09b88"},"vehicle_type_id":"4","last_reported":1684055135,"current_range_meters":30400,"station_id":"ce4bgkp2rcd13ifvqbmg","pricing_plan_id":"free"},{"bike_id":"98d43089-ff1e-40ee-a123-f18e174ce1c4","system_id":"levelo_inurba_marseille","lat":43.31453,"lon":5.3927,"is_reserved":false,"is_disabled":false,"rental_uris":{"android":"levelo://app?vid=98d43089-ff1e-40ee-a123-f18e174ce1c4","ios":"levelo://app?vid=98d43089-ff1e-40ee-a123-f18e174ce1c4"},"vehicle_type_id":"4","last_reported":1684055135,"current_range_meters":400,"station_id":"","pricing_plan_id":"free"},{"bike_id":"6f6b02ce-a50b-443a-a31d-aed834771e7b","system_id":"levelo_inurba_marseille","lat":43.31449,"lon":5.39288,"is_reserved":false,"is_disabled":false,"rental_uris":{"android":"levelo://app?vid=6f6b02ce-a50b-443a-a31d-aed834771e7b","ios":"levelo://app?vid=6f6b02ce-a50b-443a-a31d-aed834771e7b"},"vehicle_type_id":"4","last_reported":1684055135,"current_range_meters":2800,"station_id":"","pricing_plan_id":"free"},{"bike_id":"6a2642fc-b753-4208-985a-371364f6d403","system_id":"levelo_inurba_marseille","lat":43.293085,"lon":5.371775,"is_reserved":false,"is_disabled":false,"rental_uris":{"android":"levelo://app?vid=6a2642fc-b753-4208-985a-371364f6d403","ios":"levelo://app?vid=6a2642fc-b753-4208-985a-371364f6d403"},"vehicle_type_id":"4","last_reported":1684055135,"current_range_meters":24000,"station_id":"","pricing_plan_id":"free"},{"bike_id":"b864bbb2-4e29-46a1-887d-83536ed85ac2","system_id":"levelo_inurba_marseille","lat":43.305994,"lon":5.393687,"is_reserved":false,"is_disabled":false,"rental_uris":{"android":"levelo://app?vid=b864bbb2-4e29-46a1-887d-83536ed85ac2","ios":"levelo://app?vid=b864bbb2-4e29-46a1-887d-83536ed85ac2"},"vehicle_type_id":"4","last_reported":1684055135,"current_range_meters":15200,"station_id":"ce4bh0p2rcd13ifvqd80","pricing_plan_id":"free"},{"bike_id":"b9919bf9-1fd7-4f7c-992a-1735b04b663e","system_id":"levelo_inurba_marseille","lat":43.29226,"lon":5.36055,"is_reserved":false,"is_disabled":false,"rental_uris":{"android":"levelo://app?vid=b9919bf9-1fd7-4f7c-992a-1735b04b663e","ios":"levelo://app?vid=b9919bf9-1fd7-4f7c-992a-1735b04b663e"},"vehicle_type_id":"4","last_reported":1684055135,"current_range_meters":22800,"station_id":"","pricing_plan_id":"free"},{"bike_id":"1e2ea9b7-a361-4aa2-a38d-4d60228da173","system_id":"levelo_inurba_marseille","lat":43.29226,"lon":5.36051,"is_reserved":false,"is_disabled":false,"rental_uris":{"android":"levelo://app?vid=1e2ea9b7-a361-4aa2-a38d-4d60228da173","ios":"levelo://app?vid=1e2ea9b7-a361-4aa2-a38d-4d60228da173"},"vehicle_type_id":"4","last_reported":1684055135,"current_range_meters":27600,"station_id":"","pricing_plan_id":"free"},{"bike_id":"68da6d6a-d0cb-4466-b2e0-dd1b933823ba","system_id":"levelo_inurba_marseille","lat":43.29222,"lon":5.36054,"is_reserved":false,"is_disabled":false,"rental_uris":{"android":"levelo://app?vid=68da6d6a-d0cb-4466-b2e0-dd1b933823ba","ios":"levelo://app?vid=68da6d6a-d0cb-4466-b2e0-dd1b933823ba"},"vehicle_type_id":"4","last_reported":1684055135,"current_range_meters":17600,"station_id":"","pricing_plan_id":"free"},{"bike_id":"71310500-a00d-4f63-a692-41782e820f55","system_id":"levelo_inurba_marseille","lat":43.29222,"lon":5.3604,"is_reserved":false,"is_disabled":false,"rental_uris":{"android":"levelo://app?vid=71310500-a00d-4f63-a692-41782e820f55","ios":"levelo://app?vid=71310500-a00d-4f63-a692-41782e820f55"},"vehicle_type_id":"4","last_reported":1684055135,"current_range_meters":21200,"station_id":"","pricing_plan_id":"free"},{"bike_id":"00fc14d7-b20c-4a1e-a5b2-40754ae237aa","system_id":"levelo_inurba_marseille","lat":43.298764,"lon":5.388973,"is_reserved":false,"is_disabled":false,"rental_uris":{"android":"levelo://app?vid=00fc14d7-b20c-4a1e-a5b2-40754ae237aa","ios":"levelo://app?vid=00fc14d7-b20c-4a1e-a5b2-40754ae237aa"},"vehicle_type_id":"4","last_reported":1684055135,"current_range_meters":16800,"station_id":"ce4bh392rcd13ifvqdl0","pricing_plan_id":"free"},{"bike_id":"8fb4f7d8-856c-462d-be16-ce46c14da3dd","system_id":"levelo_inurba_marseille","lat":43.29596,"lon":5.38536,"is_reserved":false,"is_disabled":false,"rental_uris":{"android":"levelo://app?vid=8fb4f7d8-856c-462d-be16-ce46c14da3dd","ios":"levelo://app?vid=8fb4f7d8-856c-462d-be16-ce46c14da3dd"},"vehicle_type_id":"4","last_reported":1684055135,"current_range_meters":19600,"station_id":"","pricing_plan_id":"free"},{"bike_id":"0de22fe6-f5bd-4a91-a882-a56a52302f31","system_id":"levelo_inurba_marseille","lat":43.309038,"lon":5.396546,"is_reserved":false,"is_disabled":false,"rental_uris":{"android":"levelo://app?vid=0de22fe6-f5bd-4a91-a882-a56a52302f31","ios":"levelo://app?vid=0de22fe6-f5bd-4a91-a882-a56a52302f31"},"vehicle_type_id":"4","last_reported":1684055135,"current_range_meters":16800,"station_id":"ce4bh012rcd13ifvqcv0","pricing_plan_id":"free"},{"bike_id":"a44435ac-430e-495b-be02-3c56d97b1615","system_id":"levelo_inurba_marseille","lat":43.29199,"lon":5.358092,"is_reserved":false,"is_disabled":false,"rental_uris":{"android":"levelo://app?vid=a44435ac-430e-495b-be02-3c56d97b1615","ios":"levelo://app?vid=a44435ac-430e-495b-be02-3c56d97b1615"},"vehicle_type_id":"4","last_reported":1684055135,"current_range_meters":28800,"station_id":"ce4bhb12rcd13ifvqel0","pricing_plan_id":"free"},{"bike_id":"da42fdc4-1e46-4b6a-9199-894601431afa","system_id":"levelo_inurba_marseille","lat":43.309038,"lon":5.396546,"is_reserved":false,"is_disabled":false,"rental_uris":{"android":"levelo://app?vid=da42fdc4-1e46-4b6a-9199-894601431afa","ios":"levelo://app?vid=da42fdc4-1e46-4b6a-9199-894601431afa"},"vehicle_type_id":"4","last_reported":1684055135,"current_range_meters":30400,"station_id":"ce4bh012rcd13ifvqcv0","pricing_plan_id":"free"},{"bike_id":"57bae30c-b9d6-4a78-a27e-cb4858b99418","system_id":"levelo_inurba_marseille","lat":43.309038,"lon":5.396546,"is_reserved":false,"is_disabled":false,"rental_uris":{"android":"levelo://app?vid=57bae30c-b9d6-4a78-a27e-cb4858b99418","ios":"levelo://app?vid=57bae30c-b9d6-4a78-a27e-cb4858b99418"},"vehicle_type_id":"4","last_reported":1684055135,"current_range_meters":19200,"station_id":"ce4bh012rcd13ifvqcv0","pricing_plan_id":"free"},{"bike_id":"5f065ca9-3ba2-4c59-888c-7c829bc79e91","system_id":"levelo_inurba_marseille","lat":43.309038,"lon":5.396546,"is_reserved":false,"is_disabled":false,"rental_uris":{"android":"levelo://app?vid=5f065ca9-3ba2-4c59-888c-7c829bc79e91","ios":"levelo://app?vid=5f065ca9-3ba2-4c59-888c-7c829bc79e91"},"vehicle_type_id":"4","last_reported":1684055135,"current_range_meters":31200,"station_id":"ce4bh012rcd13ifvqcv0","pricing_plan_id":"free"},{"bike_id":"d1f2650c-cb31-4240-ab99-dba3642cee68","system_id":"levelo_inurba_marseille","lat":43.313291,"lon":5.396838,"is_reserved":false,"is_disabled":false,"rental_uris":{"android":"levelo://app?vid=d1f2650c-cb31-4240-ab99-dba3642cee68","ios":"levelo://app?vid=d1f2650c-cb31-4240-ab99-dba3642cee68"},"vehicle_type_id":"4","last_reported":1684055135,"current_range_meters":14800,"station_id":"ce4bgvp2rcd13ifvqcu0","pricing_plan_id":"free"},{"bike_id":"f54d2ac5-2892-476e-b185-b228218c5273","system_id":"levelo_inurba_marseille","lat":43.309038,"lon":5.396546,"is_reserved":false,"is_disabled":false,"rental_uris":{"android":"levelo://app?vid=f54d2ac5-2892-476e-b185-b228218c5273","ios":"levelo://app?vid=f54d2ac5-2892-476e-b185-b228218c5273"},"vehicle_type_id":"4","last_reported":1684055135,"current_range_meters":28800,"station_id":"ce4bh012rcd13ifvqcv0","pricing_plan_id":"free"},{"bike_id":"723c5ffd-0b1b-44cf-8cb5-bc8afe360d1d","system_id":"levelo_inurba_marseille","lat":43.309038,"lon":5.396546,"is_reserved":false,"is_disabled":false,"rental_uris":{"android":"levelo://app?vid=723c5ffd-0b1b-44cf-8cb5-bc8afe360d1d","ios":"levelo://app?vid=723c5ffd-0b1b-44cf-8cb5-bc8afe360d1d"},"vehicle_type_id":"4","last_reported":1684055135,"current_range_meters":31200,"station_id":"ce4bh012rcd13ifvqcv0","pricing_plan_id":"free"},{"bike_id":"6ecba386-08a5-4a9c-a522-c4a06567f860","system_id":"levelo_inurba_marseille","lat":43.29191,"lon":5.35798,"is_reserved":false,"is_disabled":false,"rental_uris":{"android":"levelo://app?vid=6ecba386-08a5-4a9c-a522-c4a06567f860","ios":"levelo://app?vid=6ecba386-08a5-4a9c-a522-c4a06567f860"},"vehicle_type_id":"4","last_reported":1684055135,"current_range_meters":29600,"station_id":"","pricing_plan_id":"free"},{"bike_id":"37a4893f-16a4-4651-88c3-b64ea39cb114","system_id":"levelo_inurba_marseille","lat":43.29189,"lon":5.358,"is_reserved":false,"is_disabled":false,"rental_uris":{"android":"levelo://app?vid=37a4893f-16a4-4651-88c3-b64ea39cb114","ios":"levelo://app?vid=37a4893f-16a4-4651-88c3-b64ea39cb114"},"vehicle_type_id":"4","last_reported":1684055135,"current_range_meters":30800,"station_id":"","pricing_plan_id":"free"},{"bike_id":"caa3a155-042e-4332-ae2d-e502e48a4926","system_id":"levelo_inurba_marseille","lat":43.30889,"lon":5.39647,"is_reserved":false,"is_disabled":false,"rental_uris":{"android":"levelo://app?vid=caa3a155-042e-4332-ae2d-e502e48a4926","ios":"levelo://app?vid=caa3a155-042e-4332-ae2d-e502e48a4926"},"vehicle_type_id":"4","last_reported":1684055135,"current_range_meters":28800,"station_id":"ce4bh012rcd13ifvqcv0","pricing_plan_id":"free"},{"bike_id":"ecc07bf2-2a65-4e84-b64a-05eb7e45264c","system_id":"levelo_inurba_marseille","lat":43.2919,"lon":5.35787,"is_reserved":false,"is_disabled":false,"rental_uris":{"android":"levelo://app?vid=ecc07bf2-2a65-4e84-b64a-05eb7e45264c","ios":"levelo://app?vid=ecc07bf2-2a65-4e84-b64a-05eb7e45264c"},"vehicle_type_id":"4","last_reported":1684055135,"current_range_meters":30000,"station_id":"","pricing_plan_id":"free"},{"bike_id":"bb459314-17f6-417f-93dd-1cdb5c32a679","system_id":"levelo_inurba_marseille","lat":43.313291,"lon":5.396838,"is_reserved":false,"is_disabled":false,"rental_uris":{"android":"levelo://app?vid=bb459314-17f6-417f-93dd-1cdb5c32a679","ios":"levelo://app?vid=bb459314-17f6-417f-93dd-1cdb5c32a679"},"vehicle_type_id":"4","last_reported":1684055135,"current_range_meters":26800,"station_id":"ce4bgvp2rcd13ifvqcu0","pricing_plan_id":"free"},{"bike_id":"e45f9ceb-d7cf-44ac-ac01-ed8ef1fde44f","system_id":"levelo_inurba_marseille","lat":43.313291,"lon":5.396838,"is_reserved":false,"is_disabled":false,"rental_uris":{"android":"levelo://app?vid=e45f9ceb-d7cf-44ac-ac01-ed8ef1fde44f","ios":"levelo://app?vid=e45f9ceb-d7cf-44ac-ac01-ed8ef1fde44f"},"vehicle_type_id":"4","last_reported":1684055135,"current_range_meters":21200,"station_id":"ce4bgvp2rcd13ifvqcu0","pricing_plan_id":"free"},{"bike_id":"a1cbd7f1-b1d6-46ee-8d7a-e685f12f07db","system_id":"levelo_inurba_marseille","lat":43.313291,"lon":5.396838,"is_reserved":false,"is_disabled":false,"rental_uris":{"android":"levelo://app?vid=a1cbd7f1-b1d6-46ee-8d7a-e685f12f07db","ios":"levelo://app?vid=a1cbd7f1-b1d6-46ee-8d7a-e685f12f07db"},"vehicle_type_id":"4","last_reported":1684055135,"current_range_meters":22000,"station_id":"ce4bgvp2rcd13ifvqcu0","pricing_plan_id":"free"},{"bike_id":"4667b277-eec9-41c5-8e0c-e05fa308b839","system_id":"levelo_inurba_marseille","lat":43.290631,"lon":5.359244,"is_reserved":false,"is_disabled":false,"rental_uris":{"android":"levelo://app?vid=4667b277-eec9-41c5-8e0c-e05fa308b839","ios":"levelo://app?vid=4667b277-eec9-41c5-8e0c-e05fa308b839"},"vehicle_type_id":"4","last_reported":1684055135,"current_range_meters":30400,"station_id":"ce4bha92rcd13ifvqeg0","pricing_plan_id":"free"},{"bike_id":"f0c9015e-49bf-47ff-bf43-264620ff557d","system_id":"levelo_inurba_marseille","lat":43.29042,"lon":5.35902,"is_reserved":false,"is_disabled":false,"rental_uris":{"android":"levelo://app?vid=f0c9015e-49bf-47ff-bf43-264620ff557d","ios":"levelo://app?vid=f0c9015e-49bf-47ff-bf43-264620ff557d"},"vehicle_type_id":"4","last_reported":1684055135,"current_range_meters":26000,"station_id":"","pricing_plan_id":"free"},{"bike_id":"833ec788-fd0f-478e-a139-d78d86914b8d","system_id":"levelo_inurba_marseille","lat":43.290631,"lon":5.359244,"is_reserved":false,"is_disabled":false,"rental_uris":{"android":"levelo://app?vid=833ec788-fd0f-478e-a139-d78d86914b8d","ios":"levelo://app?vid=833ec788-fd0f-478e-a139-d78d86914b8d"},"vehicle_type_id":"4","last_reported":1684055135,"current_range_meters":29600,"station_id":"ce4bha92rcd13ifvqeg0","pricing_plan_id":"free"},{"bike_id":"898ad62c-7b44-48c9-bc93-09f6d5634813","system_id":"levelo_inurba_marseille","lat":43.29036,"lon":5.3592,"is_reserved":false,"is_disabled":false,"rental_uris":{"android":"levelo://app?vid=898ad62c-7b44-48c9-bc93-09f6d5634813","ios":"levelo://app?vid=898ad62c-7b44-48c9-bc93-09f6d5634813"},"vehicle_type_id":"4","last_reported":1684055135,"current_range_meters":30800,"station_id":"ce4bha92rcd13ifvqeg0","pricing_plan_id":"free"},{"bike_id":"5f15ca38-2411-466e-9499-deef8b727ddb","system_id":"levelo_inurba_marseille","lat":43.29036,"lon":5.35917,"is_reserved":false,"is_disabled":false,"rental_uris":{"android":"levelo://app?vid=5f15ca38-2411-466e-9499-deef8b727ddb","ios":"levelo://app?vid=5f15ca38-2411-466e-9499-deef8b727ddb"},"vehicle_type_id":"4","last_reported":1684055135,"current_range_meters":29600,"station_id":"","pricing_plan_id":"free"},{"bike_id":"1ea73195-37e9-406e-a709-506f8392c5c1","system_id":"levelo_inurba_marseille","lat":43.29032,"lon":5.35921,"is_reserved":false,"is_disabled":false,"rental_uris":{"android":"levelo://app?vid=1ea73195-37e9-406e-a709-506f8392c5c1","ios":"levelo://app?vid=1ea73195-37e9-406e-a709-506f8392c5c1"},"vehicle_type_id":"4","last_reported":1684055135,"current_range_meters":18000,"station_id":"","pricing_plan_id":"free"},{"bike_id":"67c6f728-4968-41ce-8357-69752ff675f4","system_id":"levelo_inurba_marseille","lat":43.290631,"lon":5.359244,"is_reserved":false,"is_disabled":false,"rental_uris":{"android":"levelo://app?vid=67c6f728-4968-41ce-8357-69752ff675f4","ios":"levelo://app?vid=67c6f728-4968-41ce-8357-69752ff675f4"},"vehicle_type_id":"4","last_reported":1684055135,"current_range_meters":31200,"station_id":"ce4bha92rcd13ifvqeg0","pricing_plan_id":"free"},{"bike_id":"08e758c1-0412-4c02-982a-42cdc55b5264","system_id":"levelo_inurba_marseille","lat":43.29032,"lon":5.35916,"is_reserved":false,"is_disabled":false,"rental_uris":{"android":"levelo://app?vid=08e758c1-0412-4c02-982a-42cdc55b5264","ios":"levelo://app?vid=08e758c1-0412-4c02-982a-42cdc55b5264"},"vehicle_type_id":"4","last_reported":1684055135,"current_range_meters":24400,"station_id":"ce4bha92rcd13ifvqeg0","pricing_plan_id":"free"},{"bike_id":"9f129774-36e1-42f1-8229-a7c2be11d89e","system_id":"levelo_inurba_marseille","lat":43.3048,"lon":5.39697,"is_reserved":false,"is_disabled":false,"rental_uris":{"android":"levelo://app?vid=9f129774-36e1-42f1-8229-a7c2be11d89e","ios":"levelo://app?vid=9f129774-36e1-42f1-8229-a7c2be11d89e"},"vehicle_type_id":"4","last_reported":1684055135,"current_range_meters":16400,"station_id":"","pricing_plan_id":"free"},{"bike_id":"bedee10e-5dfc-450e-8b51-ca83bf1109a6","system_id":"levelo_inurba_marseille","lat":43.30488,"lon":5.39703,"is_reserved":false,"is_disabled":false,"rental_uris":{"android":"levelo://app?vid=bedee10e-5dfc-450e-8b51-ca83bf1109a6","ios":"levelo://app?vid=bedee10e-5dfc-450e-8b51-ca83bf1109a6"},"vehicle_type_id":"4","last_reported":1684055135,"current_range_meters":0,"station_id":"","pricing_plan_id":"free"},{"bike_id":"8612f6e6-10ba-42b2-957b-f815fa4db70d","system_id":"levelo_inurba_marseille","lat":43.290327,"lon":5.375711,"is_reserved":false,"is_disabled":false,"rental_uris":{"android":"levelo://app?vid=8612f6e6-10ba-42b2-957b-f815fa4db70d","ios":"levelo://app?vid=8612f6e6-10ba-42b2-957b-f815fa4db70d"},"vehicle_type_id":"4","last_reported":1684055135,"current_range_meters":9600,"station_id":"ce4bh692rcd13ifvqe90","pricing_plan_id":"free"},{"bike_id":"54b2b449-b115-4fde-a927-6380934936e3","system_id":"levelo_inurba_marseille","lat":43.304274,"lon":5.397513,"is_reserved":false,"is_disabled":false,"rental_uris":{"android":"levelo://app?vid=54b2b449-b115-4fde-a927-6380934936e3","ios":"levelo://app?vid=54b2b449-b115-4fde-a927-6380934936e3"},"vehicle_type_id":"4","last_reported":1684055135,"current_range_meters":30000,"station_id":"ce4bh092rcd13ifvqd20","pricing_plan_id":"free"},{"bike_id":"19d810ab-8370-4eb6-8eb4-3f94413eb503","system_id":"levelo_inurba_marseille","lat":43.33042,"lon":5.38915,"is_reserved":false,"is_disabled":false,"rental_uris":{"android":"levelo://app?vid=19d810ab-8370-4eb6-8eb4-3f94413eb503","ios":"levelo://app?vid=19d810ab-8370-4eb6-8eb4-3f94413eb503"},"vehicle_type_id":"4","last_reported":1684055135,"current_range_meters":12800,"station_id":"ce4bhr92rcd13ifvqhrg","pricing_plan_id":"free"},{"bike_id":"9b34a26f-1256-4b06-a2cd-2e6177e89d22","system_id":"levelo_inurba_marseille","lat":43.33042,"lon":5.38918,"is_reserved":false,"is_disabled":false,"rental_uris":{"android":"levelo://app?vid=9b34a26f-1256-4b06-a2cd-2e6177e89d22","ios":"levelo://app?vid=9b34a26f-1256-4b06-a2cd-2e6177e89d22"},"vehicle_type_id":"4","last_reported":1684055135,"current_range_meters":24000,"station_id":"ce4bhr92rcd13ifvqhrg","pricing_plan_id":"free"},{"bike_id":"b8d0a2d7-4443-405c-9e1e-71d351b2ac12","system_id":"levelo_inurba_marseille","lat":43.33041,"lon":5.38922,"is_reserved":false,"is_disabled":false,"rental_uris":{"android":"levelo://app?vid=b8d0a2d7-4443-405c-9e1e-71d351b2ac12","ios":"levelo://app?vid=b8d0a2d7-4443-405c-9e1e-71d351b2ac12"},"vehicle_type_id":"4","last_reported":1684055135,"current_range_meters":18400,"station_id":"ce4bhr92rcd13ifvqhrg","pricing_plan_id":"free"},{"bike_id":"d9c65fb5-b538-43a6-8b06-cce8ee9f5b2a","system_id":"levelo_inurba_marseille","lat":43.33042,"lon":5.38921,"is_reserved":false,"is_disabled":false,"rental_uris":{"android":"levelo://app?vid=d9c65fb5-b538-43a6-8b06-cce8ee9f5b2a","ios":"levelo://app?vid=d9c65fb5-b538-43a6-8b06-cce8ee9f5b2a"},"vehicle_type_id":"4","last_reported":1684055135,"current_range_meters":26000,"station_id":"ce4bhr92rcd13ifvqhrg","pricing_plan_id":"free"},{"bike_id":"99d11ff8-cd4f-4243-907c-822c17bc769b","system_id":"levelo_inurba_marseille","lat":43.33042,"lon":5.38922,"is_reserved":false,"is_disabled":false,"rental_uris":{"android":"levelo://app?vid=99d11ff8-cd4f-4243-907c-822c17bc769b","ios":"levelo://app?vid=99d11ff8-cd4f-4243-907c-822c17bc769b"},"vehicle_type_id":"4","last_reported":1684055135,"current_range_meters":17200,"station_id":"ce4bhr92rcd13ifvqhrg","pricing_plan_id":"free"},{"bike_id":"7862b149-7ae4-48e2-9a75-855e46824b5b","system_id":"levelo_inurba_marseille","lat":43.290104,"lon":5.356111,"is_reserved":false,"is_disabled":false,"rental_uris":{"android":"levelo://app?vid=7862b149-7ae4-48e2-9a75-855e46824b5b","ios":"levelo://app?vid=7862b149-7ae4-48e2-9a75-855e46824b5b"},"vehicle_type_id":"4","last_reported":1684055135,"current_range_meters":10400,"station_id":"ce4bhb92rcd13ifvqen0","pricing_plan_id":"free"},{"bike_id":"754ef565-0150-4f0d-8c0d-a8a5d6927613","system_id":"levelo_inurba_marseille","lat":43.33044,"lon":5.38922,"is_reserved":false,"is_disabled":false,"rental_uris":{"android":"levelo://app?vid=754ef565-0150-4f0d-8c0d-a8a5d6927613","ios":"levelo://app?vid=754ef565-0150-4f0d-8c0d-a8a5d6927613"},"vehicle_type_id":"4","last_reported":1684055135,"current_range_meters":15600,"station_id":"ce4bhr92rcd13ifvqhrg","pricing_plan_id":"free"},{"bike_id":"f13eb56e-0fd7-4df4-94bf-fa8ffe4e5a27","system_id":"levelo_inurba_marseille","lat":43.29007,"lon":5.35603,"is_reserved":false,"is_disabled":false,"rental_uris":{"android":"levelo://app?vid=f13eb56e-0fd7-4df4-94bf-fa8ffe4e5a27","ios":"levelo://app?vid=f13eb56e-0fd7-4df4-94bf-fa8ffe4e5a27"},"vehicle_type_id":"4","last_reported":1684055135,"current_range_meters":0,"station_id":"ce4bhb92rcd13ifvqen0","pricing_plan_id":"free"},{"bike_id":"127ebec0-5800-449e-bff9-d1fd823ca15c","system_id":"levelo_inurba_marseille","lat":43.33046,"lon":5.38921,"is_reserved":false,"is_disabled":false,"rental_uris":{"android":"levelo://app?vid=127ebec0-5800-449e-bff9-d1fd823ca15c","ios":"levelo://app?vid=127ebec0-5800-449e-bff9-d1fd823ca15c"},"vehicle_type_id":"4","last_reported":1684055135,"current_range_meters":1600,"station_id":"ce4bhr92rcd13ifvqhrg","pricing_plan_id":"free"},{"bike_id":"28c1e377-839a-4343-9a7a-489f5c05ed8f","system_id":"levelo_inurba_marseille","lat":43.290104,"lon":5.356111,"is_reserved":false,"is_disabled":false,"rental_uris":{"android":"levelo://app?vid=28c1e377-839a-4343-9a7a-489f5c05ed8f","ios":"levelo://app?vid=28c1e377-839a-4343-9a7a-489f5c05ed8f"},"vehicle_type_id":"4","last_reported":1684055135,"current_range_meters":26800,"station_id":"ce4bhb92rcd13ifvqen0","pricing_plan_id":"free"},{"bike_id":"06f11ba2-bd02-433e-a6cc-9d5c4dc5c623","system_id":"levelo_inurba_marseille","lat":43.290104,"lon":5.356111,"is_reserved":false,"is_disabled":false,"rental_uris":{"android":"levelo://app?vid=06f11ba2-bd02-433e-a6cc-9d5c4dc5c623","ios":"levelo://app?vid=06f11ba2-bd02-433e-a6cc-9d5c4dc5c623"},"vehicle_type_id":"4","last_reported":1684055135,"current_range_meters":23600,"station_id":"ce4bhb92rcd13ifvqen0","pricing_plan_id":"free"},{"bike_id":"327a2576-84c5-4c81-bdce-b9f41a421562","system_id":"levelo_inurba_marseille","lat":43.291,"lon":5.38113,"is_reserved":false,"is_disabled":false,"rental_uris":{"android":"levelo://app?vid=327a2576-84c5-4c81-bdce-b9f41a421562","ios":"levelo://app?vid=327a2576-84c5-4c81-bdce-b9f41a421562"},"vehicle_type_id":"4","last_reported":1684055135,"current_range_meters":31600,"station_id":"ce4bh512rcd13ifvqe2g","pricing_plan_id":"free"},{"bike_id":"b2a86a95-8df1-4310-9b3a-b8cc9a2a5257","system_id":"levelo_inurba_marseille","lat":43.290103,"lon":5.356114,"is_reserved":false,"is_disabled":false,"rental_uris":{"android":"levelo://app?vid=b2a86a95-8df1-4310-9b3a-b8cc9a2a5257","ios":"levelo://app?vid=b2a86a95-8df1-4310-9b3a-b8cc9a2a5257"},"vehicle_type_id":"4","last_reported":1684055135,"current_range_meters":28800,"station_id":"ce4bhb92rcd13ifvqen0","pricing_plan_id":"free"},{"bike_id":"37b2f650-6127-4e35-ae3d-75c99d848bed","system_id":"levelo_inurba_marseille","lat":43.290995,"lon":5.381361,"is_reserved":false,"is_disabled":false,"rental_uris":{"android":"levelo://app?vid=37b2f650-6127-4e35-ae3d-75c99d848bed","ios":"levelo://app?vid=37b2f650-6127-4e35-ae3d-75c99d848bed"},"vehicle_type_id":"4","last_reported":1684055135,"current_range_meters":12400,"station_id":"ce4bh512rcd13ifvqe2g","pricing_plan_id":"free"},{"bike_id":"1b96b17b-d1fc-4e92-a84c-2b273e819118","system_id":"levelo_inurba_marseille","lat":43.290995,"lon":5.381361,"is_reserved":false,"is_disabled":false,"rental_uris":{"android":"levelo://app?vid=1b96b17b-d1fc-4e92-a84c-2b273e819118","ios":"levelo://app?vid=1b96b17b-d1fc-4e92-a84c-2b273e819118"},"vehicle_type_id":"4","last_reported":1684055135,"current_range_meters":31600,"station_id":"ce4bh512rcd13ifvqe2g","pricing_plan_id":"free"},{"bike_id":"cad193f2-44f3-4b2a-bd83-5b224084ecef","system_id":"levelo_inurba_marseille","lat":43.29798,"lon":5.39344,"is_reserved":false,"is_disabled":false,"rental_uris":{"android":"levelo://app?vid=cad193f2-44f3-4b2a-bd83-5b224084ecef","ios":"levelo://app?vid=cad193f2-44f3-4b2a-bd83-5b224084ecef"},"vehicle_type_id":"4","last_reported":1684055135,"current_range_meters":26800,"station_id":"ce4bh212rcd13ifvqde0","pricing_plan_id":"free"},{"bike_id":"2d15947b-c62e-4a11-a551-874de57dd937","system_id":"levelo_inurba_marseille","lat":43.30977,"lon":5.40067,"is_reserved":false,"is_disabled":false,"rental_uris":{"android":"levelo://app?vid=2d15947b-c62e-4a11-a551-874de57dd937","ios":"levelo://app?vid=2d15947b-c62e-4a11-a551-874de57dd937"},"vehicle_type_id":"4","last_reported":1684055135,"current_range_meters":18400,"station_id":"","pricing_plan_id":"free"},{"bike_id":"18febf40-3efd-4f9a-b7de-d602abb8784b","system_id":"levelo_inurba_marseille","lat":43.290094,"lon":5.381264,"is_reserved":false,"is_disabled":false,"rental_uris":{"android":"levelo://app?vid=18febf40-3efd-4f9a-b7de-d602abb8784b","ios":"levelo://app?vid=18febf40-3efd-4f9a-b7de-d602abb8784b"},"vehicle_type_id":"4","last_reported":1684055135,"current_range_meters":15200,"station_id":"ce4bh4p2rcd13ifvqe1g","pricing_plan_id":"free"},{"bike_id":"db598f6b-45fe-4536-ba87-d40f0b61dc35","system_id":"levelo_inurba_marseille","lat":43.28856,"lon":5.358371,"is_reserved":false,"is_disabled":false,"rental_uris":{"android":"levelo://app?vid=db598f6b-45fe-4536-ba87-d40f0b61dc35","ios":"levelo://app?vid=db598f6b-45fe-4536-ba87-d40f0b61dc35"},"vehicle_type_id":"4","last_reported":1684055135,"current_range_meters":16800,"station_id":"ce4bhb12rcd13ifvqem0","pricing_plan_id":"free"},{"bike_id":"235bfca5-3523-4573-9b75-a1fadb68ed6a","system_id":"levelo_inurba_marseille","lat":43.337328,"lon":5.374538,"is_reserved":false,"is_disabled":false,"rental_uris":{"android":"levelo://app?vid=235bfca5-3523-4573-9b75-a1fadb68ed6a","ios":"levelo://app?vid=235bfca5-3523-4573-9b75-a1fadb68ed6a"},"vehicle_type_id":"4","last_reported":1684055135,"current_range_meters":28000,"station_id":"ce4bhah2rcd13ifvqei0","pricing_plan_id":"free"},{"bike_id":"5b3ce0e7-ddde-4f08-9689-05c27b8dd4cc","system_id":"levelo_inurba_marseille","lat":43.337436,"lon":5.374627,"is_reserved":false,"is_disabled":false,"rental_uris":{"android":"levelo://app?vid=5b3ce0e7-ddde-4f08-9689-05c27b8dd4cc","ios":"levelo://app?vid=5b3ce0e7-ddde-4f08-9689-05c27b8dd4cc"},"vehicle_type_id":"4","last_reported":1684055135,"current_range_meters":28400,"station_id":"ce4bhnp2rcd13ifvqgvg","pricing_plan_id":"free"},{"bike_id":"543ddb2f-aa54-4606-b0cd-00c9b901d856","system_id":"levelo_inurba_marseille","lat":43.30642,"lon":5.401031,"is_reserved":false,"is_disabled":false,"rental_uris":{"android":"levelo://app?vid=543ddb2f-aa54-4606-b0cd-00c9b901d856","ios":"levelo://app?vid=543ddb2f-aa54-4606-b0cd-00c9b901d856"},"vehicle_type_id":"4","last_reported":1684055135,"current_range_meters":30800,"station_id":"ce4bh112rcd13ifvqda0","pricing_plan_id":"free"},{"bike_id":"432302e1-dbd9-498e-809d-a8c2625e29cd","system_id":"levelo_inurba_marseille","lat":43.30642,"lon":5.401031,"is_reserved":false,"is_disabled":false,"rental_uris":{"android":"levelo://app?vid=432302e1-dbd9-498e-809d-a8c2625e29cd","ios":"levelo://app?vid=432302e1-dbd9-498e-809d-a8c2625e29cd"},"vehicle_type_id":"4","last_reported":1684055135,"current_range_meters":31200,"station_id":"ce4bh112rcd13ifvqda0","pricing_plan_id":"free"},{"bike_id":"3aa7e966-4bbe-4429-bc02-6ee6f2aab7d4","system_id":"levelo_inurba_marseille","lat":43.30642,"lon":5.401031,"is_reserved":false,"is_disabled":false,"rental_uris":{"android":"levelo://app?vid=3aa7e966-4bbe-4429-bc02-6ee6f2aab7d4","ios":"levelo://app?vid=3aa7e966-4bbe-4429-bc02-6ee6f2aab7d4"},"vehicle_type_id":"4","last_reported":1684055135,"current_range_meters":12800,"station_id":"ce4bh112rcd13ifvqda0","pricing_plan_id":"free"},{"bike_id":"672f9f68-4a71-44d0-a866-0efc6db92c59","system_id":"levelo_inurba_marseille","lat":43.30642,"lon":5.401031,"is_reserved":false,"is_disabled":false,"rental_uris":{"android":"levelo://app?vid=672f9f68-4a71-44d0-a866-0efc6db92c59","ios":"levelo://app?vid=672f9f68-4a71-44d0-a866-0efc6db92c59"},"vehicle_type_id":"4","last_reported":1684055135,"current_range_meters":10000,"station_id":"ce4bh112rcd13ifvqda0","pricing_plan_id":"free"},{"bike_id":"3e04f633-a37a-4dbe-bb29-0eb874b9b80d","system_id":"levelo_inurba_marseille","lat":43.301117,"lon":5.398795,"is_reserved":false,"is_disabled":false,"rental_uris":{"android":"levelo://app?vid=3e04f633-a37a-4dbe-bb29-0eb874b9b80d","ios":"levelo://app?vid=3e04f633-a37a-4dbe-bb29-0eb874b9b80d"},"vehicle_type_id":"4","last_reported":1684055135,"current_range_meters":22400,"station_id":"ce4bh0h2rcd13ifvqd40","pricing_plan_id":"free"},{"bike_id":"3eccdf85-cecc-4db7-8a22-f768d053d8cb","system_id":"levelo_inurba_marseille","lat":43.298681,"lon":5.397225,"is_reserved":false,"is_disabled":false,"rental_uris":{"android":"levelo://app?vid=3eccdf85-cecc-4db7-8a22-f768d053d8cb","ios":"levelo://app?vid=3eccdf85-cecc-4db7-8a22-f768d053d8cb"},"vehicle_type_id":"4","last_reported":1684055135,"current_range_meters":31200,"station_id":"ce4bh0h2rcd13ifvqd50","pricing_plan_id":"free"},{"bike_id":"0b8789bf-2c55-4c13-8b81-d0a033ab7f34","system_id":"levelo_inurba_marseille","lat":43.298681,"lon":5.397225,"is_reserved":false,"is_disabled":false,"rental_uris":{"android":"levelo://app?vid=0b8789bf-2c55-4c13-8b81-d0a033ab7f34","ios":"levelo://app?vid=0b8789bf-2c55-4c13-8b81-d0a033ab7f34"},"vehicle_type_id":"4","last_reported":1684055135,"current_range_meters":26400,"station_id":"ce4bh0h2rcd13ifvqd50","pricing_plan_id":"free"},{"bike_id":"4d500a4d-6c6c-47fa-8f40-5327c1a14aa6","system_id":"levelo_inurba_marseille","lat":43.298681,"lon":5.397225,"is_reserved":false,"is_disabled":false,"rental_uris":{"android":"levelo://app?vid=4d500a4d-6c6c-47fa-8f40-5327c1a14aa6","ios":"levelo://app?vid=4d500a4d-6c6c-47fa-8f40-5327c1a14aa6"},"vehicle_type_id":"4","last_reported":1684055135,"current_range_meters":32000,"station_id":"ce4bh0h2rcd13ifvqd50","pricing_plan_id":"free"},{"bike_id":"4e694e8e-c5fc-46ac-bc98-16e75cbf6f33","system_id":"levelo_inurba_marseille","lat":43.286593,"lon":5.363346,"is_reserved":false,"is_disabled":false,"rental_uris":{"android":"levelo://app?vid=4e694e8e-c5fc-46ac-bc98-16e75cbf6f33","ios":"levelo://app?vid=4e694e8e-c5fc-46ac-bc98-16e75cbf6f33"},"vehicle_type_id":"4","last_reported":1684055135,"current_range_meters":29200,"station_id":"ce4bhah2rcd13ifvqej0","pricing_plan_id":"free"},{"bike_id":"10476e13-c415-465b-bc86-8e999f07d4ca","system_id":"levelo_inurba_marseille","lat":43.286593,"lon":5.363346,"is_reserved":false,"is_disabled":false,"rental_uris":{"android":"levelo://app?vid=10476e13-c415-465b-bc86-8e999f07d4ca","ios":"levelo://app?vid=10476e13-c415-465b-bc86-8e999f07d4ca"},"vehicle_type_id":"4","last_reported":1684055135,"current_range_meters":17600,"station_id":"ce4bhah2rcd13ifvqej0","pricing_plan_id":"free"},{"bike_id":"35be71c0-beaa-494c-ba1d-895735629bb1","system_id":"levelo_inurba_marseille","lat":43.29029,"lon":5.38639,"is_reserved":false,"is_disabled":false,"rental_uris":{"android":"levelo://app?vid=35be71c0-beaa-494c-ba1d-895735629bb1","ios":"levelo://app?vid=35be71c0-beaa-494c-ba1d-895735629bb1"},"vehicle_type_id":"4","last_reported":1684055135,"current_range_meters":25600,"station_id":"ce4bh4p2rcd13ifvqe0g","pricing_plan_id":"free"},{"bike_id":"de402486-4ac5-4568-8c69-b724c720c119","system_id":"levelo_inurba_marseille","lat":43.302759,"lon":5.400793,"is_reserved":false,"is_disabled":false,"rental_uris":{"android":"levelo://app?vid=de402486-4ac5-4568-8c69-b724c720c119","ios":"levelo://app?vid=de402486-4ac5-4568-8c69-b724c720c119"},"vehicle_type_id":"4","last_reported":1684055135,"current_range_meters":22000,"station_id":"ce4bgvh2rcd13ifvqcs0","pricing_plan_id":"free"},{"bike_id":"7de83389-1a30-48ed-af4f-00a8b1e72174","system_id":"levelo_inurba_marseille","lat":43.29025,"lon":5.38636,"is_reserved":false,"is_disabled":false,"rental_uris":{"android":"levelo://app?vid=7de83389-1a30-48ed-af4f-00a8b1e72174","ios":"levelo://app?vid=7de83389-1a30-48ed-af4f-00a8b1e72174"},"vehicle_type_id":"4","last_reported":1684055135,"current_range_meters":31200,"station_id":"ce4bh4p2rcd13ifvqe0g","pricing_plan_id":"free"},{"bike_id":"16732054-ca12-4b0c-b0c8-6340644ab1f8","system_id":"levelo_inurba_marseille","lat":43.302759,"lon":5.400793,"is_reserved":false,"is_disabled":false,"rental_uris":{"android":"levelo://app?vid=16732054-ca12-4b0c-b0c8-6340644ab1f8","ios":"levelo://app?vid=16732054-ca12-4b0c-b0c8-6340644ab1f8"},"vehicle_type_id":"4","last_reported":1684055135,"current_range_meters":13600,"station_id":"ce4bgvh2rcd13ifvqcs0","pricing_plan_id":"free"},{"bike_id":"f92a6ef8-543c-4289-b85b-9c1358d8cb48","system_id":"levelo_inurba_marseille","lat":43.302759,"lon":5.400793,"is_reserved":false,"is_disabled":false,"rental_uris":{"android":"levelo://app?vid=f92a6ef8-543c-4289-b85b-9c1358d8cb48","ios":"levelo://app?vid=f92a6ef8-543c-4289-b85b-9c1358d8cb48"},"vehicle_type_id":"4","last_reported":1684055135,"current_range_meters":31200,"station_id":"ce4bgvh2rcd13ifvqcs0","pricing_plan_id":"free"},{"bike_id":"978d4e1c-432d-4e74-a1e4-0ff5c69a2e1b","system_id":"levelo_inurba_marseille","lat":43.302759,"lon":5.400793,"is_reserved":false,"is_disabled":false,"rental_uris":{"android":"levelo://app?vid=978d4e1c-432d-4e74-a1e4-0ff5c69a2e1b","ios":"levelo://app?vid=978d4e1c-432d-4e74-a1e4-0ff5c69a2e1b"},"vehicle_type_id":"4","last_reported":1684055135,"current_range_meters":17600,"station_id":"ce4bgvh2rcd13ifvqcs0","pricing_plan_id":"free"},{"bike_id":"3229c96a-c583-4477-b668-531e431d5aeb","system_id":"levelo_inurba_marseille","lat":43.302759,"lon":5.400793,"is_reserved":false,"is_disabled":false,"rental_uris":{"android":"levelo://app?vid=3229c96a-c583-4477-b668-531e431d5aeb","ios":"levelo://app?vid=3229c96a-c583-4477-b668-531e431d5aeb"},"vehicle_type_id":"4","last_reported":1684055135,"current_range_meters":29600,"station_id":"ce4bgvh2rcd13ifvqcs0","pricing_plan_id":"free"},{"bike_id":"9aa6d738-d9ae-4daa-a149-dbc028502389","system_id":"levelo_inurba_marseille","lat":43.302759,"lon":5.400793,"is_reserved":false,"is_disabled":false,"rental_uris":{"android":"levelo://app?vid=9aa6d738-d9ae-4daa-a149-dbc028502389","ios":"levelo://app?vid=9aa6d738-d9ae-4daa-a149-dbc028502389"},"vehicle_type_id":"4","last_reported":1684055135,"current_range_meters":31200,"station_id":"ce4bgvh2rcd13ifvqcs0","pricing_plan_id":"free"},{"bike_id":"e6b38e8f-eacc-4d33-aa8c-08708bde4b7d","system_id":"levelo_inurba_marseille","lat":43.302759,"lon":5.400793,"is_reserved":false,"is_disabled":false,"rental_uris":{"android":"levelo://app?vid=e6b38e8f-eacc-4d33-aa8c-08708bde4b7d","ios":"levelo://app?vid=e6b38e8f-eacc-4d33-aa8c-08708bde4b7d"},"vehicle_type_id":"4","last_reported":1684055135,"current_range_meters":18000,"station_id":"ce4bgvh2rcd13ifvqcs0","pricing_plan_id":"free"},{"bike_id":"50130c5e-7e38-410b-8dfa-ccebcddb86be","system_id":"levelo_inurba_marseille","lat":43.286039,"lon":5.370681,"is_reserved":false,"is_disabled":false,"rental_uris":{"android":"levelo://app?vid=50130c5e-7e38-410b-8dfa-ccebcddb86be","ios":"levelo://app?vid=50130c5e-7e38-410b-8dfa-ccebcddb86be"},"vehicle_type_id":"4","last_reported":1684055135,"current_range_meters":22800,"station_id":"ce4bht12rcd13ifvqi60","pricing_plan_id":"free"},{"bike_id":"89f28c74-c944-40b1-9257-5eaef1337f75","system_id":"levelo_inurba_marseille","lat":43.287185,"lon":5.379373,"is_reserved":false,"is_disabled":false,"rental_uris":{"android":"levelo://app?vid=89f28c74-c944-40b1-9257-5eaef1337f75","ios":"levelo://app?vid=89f28c74-c944-40b1-9257-5eaef1337f75"},"vehicle_type_id":"4","last_reported":1684055135,"current_range_meters":24800,"station_id":"ce4bh9p2rcd13ifvqec0","pricing_plan_id":"free"},{"bike_id":"dab96cfe-9e28-487f-af9b-a993b255cc06","system_id":"levelo_inurba_marseille","lat":43.287184,"lon":5.37937,"is_reserved":false,"is_disabled":false,"rental_uris":{"android":"levelo://app?vid=dab96cfe-9e28-487f-af9b-a993b255cc06","ios":"levelo://app?vid=dab96cfe-9e28-487f-af9b-a993b255cc06"},"vehicle_type_id":"4","last_reported":1684055135,"current_range_meters":12000,"station_id":"ce4bh9p2rcd13ifvqec0","pricing_plan_id":"free"},{"bike_id":"b3798c8a-7a31-46bc-b4f5-85d588418842","system_id":"levelo_inurba_marseille","lat":43.316517,"lon":5.404375,"is_reserved":false,"is_disabled":false,"rental_uris":{"android":"levelo://app?vid=b3798c8a-7a31-46bc-b4f5-85d588418842","ios":"levelo://app?vid=b3798c8a-7a31-46bc-b4f5-85d588418842"},"vehicle_type_id":"4","last_reported":1684055135,"current_range_meters":28800,"station_id":"ce4bh012rcd13ifvqd00","pricing_plan_id":"free"},{"bike_id":"1018ceab-4439-4ce5-aadc-392d4b7ef1ad","system_id":"levelo_inurba_marseille","lat":43.316517,"lon":5.404375,"is_reserved":false,"is_disabled":false,"rental_uris":{"android":"levelo://app?vid=1018ceab-4439-4ce5-aadc-392d4b7ef1ad","ios":"levelo://app?vid=1018ceab-4439-4ce5-aadc-392d4b7ef1ad"},"vehicle_type_id":"4","last_reported":1684055135,"current_range_meters":29600,"station_id":"ce4bh012rcd13ifvqd00","pricing_plan_id":"free"},{"bike_id":"265e0f36-6502-4974-bcbd-8b73cfd3b4ec","system_id":"levelo_inurba_marseille","lat":43.284534,"lon":5.358662,"is_reserved":false,"is_disabled":false,"rental_uris":{"android":"levelo://app?vid=265e0f36-6502-4974-bcbd-8b73cfd3b4ec","ios":"levelo://app?vid=265e0f36-6502-4974-bcbd-8b73cfd3b4ec"},"vehicle_type_id":"4","last_reported":1684055135,"current_range_meters":30400,"station_id":"ce4bhah2rcd13ifvqei0","pricing_plan_id":"free"},{"bike_id":"11d665f9-31b2-421b-9ed7-76cf0e8d0c93","system_id":"levelo_inurba_marseille","lat":43.284534,"lon":5.358662,"is_reserved":false,"is_disabled":false,"rental_uris":{"android":"levelo://app?vid=11d665f9-31b2-421b-9ed7-76cf0e8d0c93","ios":"levelo://app?vid=11d665f9-31b2-421b-9ed7-76cf0e8d0c93"},"vehicle_type_id":"4","last_reported":1684055135,"current_range_meters":18400,"station_id":"ce4bhah2rcd13ifvqei0","pricing_plan_id":"free"},{"bike_id":"470af7ff-41e7-40c3-9106-1c4321a7ab75","system_id":"levelo_inurba_marseille","lat":43.29889,"lon":5.40252,"is_reserved":false,"is_disabled":false,"rental_uris":{"android":"levelo://app?vid=470af7ff-41e7-40c3-9106-1c4321a7ab75","ios":"levelo://app?vid=470af7ff-41e7-40c3-9106-1c4321a7ab75"},"vehicle_type_id":"4","last_reported":1684055135,"current_range_meters":14000,"station_id":"ce4bh112rcd13ifvqd90","pricing_plan_id":"free"},{"bike_id":"4e827552-b7fe-40ee-ae3f-44353bb18d25","system_id":"levelo_inurba_marseille","lat":43.33718,"lon":5.39197,"is_reserved":false,"is_disabled":false,"rental_uris":{"android":"levelo://app?vid=4e827552-b7fe-40ee-ae3f-44353bb18d25","ios":"levelo://app?vid=4e827552-b7fe-40ee-ae3f-44353bb18d25"},"vehicle_type_id":"4","last_reported":1684055135,"current_range_meters":9200,"station_id":"","pricing_plan_id":"free"},{"bike_id":"07510b90-3c6d-4ec7-bbe4-4d59396501fe","system_id":"levelo_inurba_marseille","lat":43.28489,"lon":5.38415,"is_reserved":false,"is_disabled":false,"rental_uris":{"android":"levelo://app?vid=07510b90-3c6d-4ec7-bbe4-4d59396501fe","ios":"levelo://app?vid=07510b90-3c6d-4ec7-bbe4-4d59396501fe"},"vehicle_type_id":"4","last_reported":1684055135,"current_range_meters":31200,"station_id":"ce4bh512rcd13ifvqe3g","pricing_plan_id":"free"},{"bike_id":"2d0e8c76-e00b-418c-b455-5ad364cfba93","system_id":"levelo_inurba_marseille","lat":43.33736,"lon":5.39185,"is_reserved":false,"is_disabled":false,"rental_uris":{"android":"levelo://app?vid=2d0e8c76-e00b-418c-b455-5ad364cfba93","ios":"levelo://app?vid=2d0e8c76-e00b-418c-b455-5ad364cfba93"},"vehicle_type_id":"4","last_reported":1684055135,"current_range_meters":4000,"station_id":"ce4bhr92rcd13ifvqhsg","pricing_plan_id":"free"},{"bike_id":"ba7aa913-9040-4670-8e19-c182538420d2","system_id":"levelo_inurba_marseille","lat":43.31924,"lon":5.40803,"is_reserved":false,"is_disabled":false,"rental_uris":{"android":"levelo://app?vid=ba7aa913-9040-4670-8e19-c182538420d2","ios":"levelo://app?vid=ba7aa913-9040-4670-8e19-c182538420d2"},"vehicle_type_id":"4","last_reported":1684055135,"current_range_meters":21200,"station_id":"ce4bhq12rcd13ifvqhig","pricing_plan_id":"free"},{"bike_id":"e6ddcbbd-3f19-418a-b98d-cc1fcda16c71","system_id":"levelo_inurba_marseille","lat":43.2885,"lon":5.39316,"is_reserved":false,"is_disabled":false,"rental_uris":{"android":"levelo://app?vid=e6ddcbbd-3f19-418a-b98d-cc1fcda16c71","ios":"levelo://app?vid=e6ddcbbd-3f19-418a-b98d-cc1fcda16c71"},"vehicle_type_id":"4","last_reported":1684055135,"current_range_meters":28400,"station_id":"ce4bh2p2rcd13ifvqdi0","pricing_plan_id":"free"},{"bike_id":"c42410fe-918c-4c9c-9a70-1b3010fec0a5","system_id":"levelo_inurba_marseille","lat":43.288501,"lon":5.393087,"is_reserved":false,"is_disabled":false,"rental_uris":{"android":"levelo://app?vid=c42410fe-918c-4c9c-9a70-1b3010fec0a5","ios":"levelo://app?vid=c42410fe-918c-4c9c-9a70-1b3010fec0a5"},"vehicle_type_id":"4","last_reported":1684055135,"current_range_meters":25600,"station_id":"ce4bh2p2rcd13ifvqdi0","pricing_plan_id":"free"},{"bike_id":"1ab592d5-cfce-41fb-9375-ea6d2dd539ae","system_id":"levelo_inurba_marseille","lat":43.283494,"lon":5.380945,"is_reserved":false,"is_disabled":false,"rental_uris":{"android":"levelo://app?vid=1ab592d5-cfce-41fb-9375-ea6d2dd539ae","ios":"levelo://app?vid=1ab592d5-cfce-41fb-9375-ea6d2dd539ae"},"vehicle_type_id":"4","last_reported":1684055135,"current_range_meters":26000,"station_id":"ce4bh412rcd13ifvqdr0","pricing_plan_id":"free"},{"bike_id":"5dcea229-638a-4f6f-817f-c836099d1118","system_id":"levelo_inurba_marseille","lat":43.283494,"lon":5.380945,"is_reserved":false,"is_disabled":false,"rental_uris":{"android":"levelo://app?vid=5dcea229-638a-4f6f-817f-c836099d1118","ios":"levelo://app?vid=5dcea229-638a-4f6f-817f-c836099d1118"},"vehicle_type_id":"4","last_reported":1684055135,"current_range_meters":23600,"station_id":"ce4bh412rcd13ifvqdr0","pricing_plan_id":"free"},{"bike_id":"802456b4-f5fc-4d14-93d6-849c12f57f19","system_id":"levelo_inurba_marseille","lat":43.28424,"lon":5.34996,"is_reserved":false,"is_disabled":false,"rental_uris":{"android":"levelo://app?vid=802456b4-f5fc-4d14-93d6-849c12f57f19","ios":"levelo://app?vid=802456b4-f5fc-4d14-93d6-849c12f57f19"},"vehicle_type_id":"4","last_reported":1684055135,"current_range_meters":26000,"station_id":"ce4bhbh2rcd13ifvqepg","pricing_plan_id":"free"},{"bike_id":"86e0845f-9aa9-4ddf-baae-38e4d42a8573","system_id":"levelo_inurba_marseille","lat":43.28427,"lon":5.34984,"is_reserved":false,"is_disabled":false,"rental_uris":{"android":"levelo://app?vid=86e0845f-9aa9-4ddf-baae-38e4d42a8573","ios":"levelo://app?vid=86e0845f-9aa9-4ddf-baae-38e4d42a8573"},"vehicle_type_id":"4","last_reported":1684055135,"current_range_meters":25200,"station_id":"ce4bhbh2rcd13ifvqepg","pricing_plan_id":"free"},