{"last_updated":1740575881,"ttl":60,"version":"2.2","data":{"bikes":[{"bike_id":"32051caa-6d3b-4823-86eb-1db1883ba585","system_id":"levelo_inurba_marseille","lat":43.31481,"lon":5.37311,"is_reserved":false,"is_disabled":false,"rental_uris":{"android":"levelo://app?vid=32051caa-6d3b-4823-86eb-1db1883ba585","ios":"levelo://app?vid=32051caa-6d3b-4823-86eb-1db1883ba585"},"vehicle_type_id":"4","last_reported":1740575881,"current_range_meters":1200,"station_id":"ce4bgt12rcd13ifvqcd0","pricing_plan_id":"cebpf4jnsgd1na2vs0mg"},{"bike_id":"1821a30f-f3bb-4caa-8391-0f891f8716c3","system_id":"levelo_inurba_marseille","lat":43.302169,"lon":5.386948,"is_reserved":false,"is_disabled":false,"rental_uris":{"android":"levelo://app?vid=1821a30f-f3bb-4caa-8391-0f891f8716c3","ios":"levelo://app?vid=1821a30f-f3bb-4caa-8391-0f891f8716c3"},"vehicle_type_id":"4","last_reported":1740575881,"current_range_meters":3200,"station_id":"ce4bgt12rcd13ifvqcd0","pricing_plan_id":"cebpf4jnsgd1na2vs0mg"},{"bike_id":"da277411-3d7b-498b-9266-a849ee1a4b3d","system_id":"levelo_inurba_marseille","lat":43.24135,"lon":5.39718,"is_reserved":false,"is_disabled":false,"rental_uris":{"android":"levelo://app?vid=da277411-3d7b-498b-9266-a849ee1a4b3d","ios":"levelo://app?vid=da277411-3d7b-498b-9266-a849ee1a4b3d"},"vehicle_type_id":"4","last_reported":1740575881,"current_range_meters":2800,"station_id":"ce4bhn12rcd13ifvqgpg","pricing_plan_id":"cebpf4jnsgd1na2vs0mg"},{"bike_id":"b1390c52-917d-4eb2-9a5a-de5ed9ba5ddc","system_id":"levelo_inurba_marseille","lat":43.29895,"lon":5.43664,"is_reserved":false,"is_disabled":false,"rental_uris":{"android":"levelo://app?vid=b1390c52-917d-4eb2-9a5a-de5ed9ba5ddc","ios":"levelo://app?vid=b1390c52-917d-4eb2-9a5a-de5ed9ba5ddc"},"vehicle_type_id":"4","last_reported":1740575881,"current_range_meters":3600,"station_id":"ce4bhpp2rcd13ifvqhfg","pricing_plan_id":"cebpf4jnsgd1na2vs0mg"},{"bike_id":"4f05f3ee-6013-44c5-8283-3b2791627fda","system_id":"levelo_inurba_marseille","lat":43.2837,"lon":5.38632,"is_reserved":false,"is_disabled":false,"rental_uris":{"android":"levelo://app?vid=4f05f3ee-6013-44c5-8283-3b2791627fda","ios":"levelo://app?vid=4f05f3ee-6013-44c5-8283-3b2791627fda"},"vehicle_type_id":"4","last_reported":1740575881,"current_range_meters":4000,"station_id":"ce4bh492rcd13ifvqdvg","pricing_plan_id":"cebpf4jnsgd1na2vs0mg"},{"bike_id":"427a2aae-3da9-4b42-bdf8-a714535ba4d7","system_id":"levelo_inurba_marseille","lat":43.29296,"lon":5.37453,"is_reserved":false,"is_disabled":false,"rental_uris":{"android":"levelo://app?vid=427a2aae-3da9-4b42-bdf8-a714535ba4d7","ios":"levelo://app?vid=427a2aae-3da9-4b42-bdf8-a714535ba4d7"},"vehicle_type_id":"4","last_reported":1740575881,"current_range_meters":4000,"station_id":"ce4bgi12rcd13ifvqb70","pricing_plan_id":"cebpf4jnsgd1na2vs0mg"},{"bike_id":"901e21cf-d8ae-47f3-bbe6-116e9f3a210b","system_id":"levelo_inurba_marseille","lat":43.26937,"lon":5.40257,"is_reserved":false,"is_disabled":false,"rental_uris":{"android":"levelo://app?vid=901e21cf-d8ae-47f3-bbe6-116e9f3a210b","ios":"levelo://app?vid=901e21cf-d8ae-47f3-bbe6-116e9f3a210b"},"vehicle_type_id":"4","last_reported":1740575881,"current_range_meters":4400,"station_id":"cjm6bp8fraef2m0cb0m0","pricing_plan_id":"cebpf4jnsgd1na2vs0mg"},{"bike_id":"541d9dfc-969e-444b-bf53-23cceeb77b2f","system_id":"levelo_inurba_marseille","lat":43.23151,"lon":5.43722,"is_reserved":false,"is_disabled":false,"rental_uris":{"android":"levelo://app?vid=541d9dfc-969e-444b-bf53-23cceeb77b2f","ios":"levelo://app?vid=541d9dfc-969e-444b-bf53-23cceeb77b2f"},"vehicle_type_id":"4","last_reported":1740575881,"current_range_meters":4400,"station_id":"ce4bhmp2rcd13ifvqgog","pricing_plan_id":"cebpf4jnsgd1na2vs0mg"},{"bike_id":"cef6b586-e806-49a5-b11c-d7c285784f00","system_id":"levelo_inurba_marseille","lat":43.30598,"lon":5.39362,"is_reserved":false,"is_disabled":false,"rental_uris":{"android":"levelo://app?vid=cef6b586-e806-49a5-b11c-d7c285784f00","ios":"levelo://app?vid=cef6b586-e806-49a5-b11c-d7c285784f00"},"vehicle_type_id":"4","last_reported":1740575881,"current_range_meters":4400,"station_id":"ce4bh0p2rcd13ifvqd80","pricing_plan_id":"cebpf4jnsgd1na2vs0mg"},{"bike_id":"c6f708ae-dd99-4fdc-99e6-1fea89a10df9","system_id":"levelo_inurba_marseille","lat":43.30887,"lon":5.39659,"is_reserved":false,"is_disabled":false,"rental_uris":{"android":"levelo://app?vid=c6f708ae-dd99-4fdc-99e6-1fea89a10df9","ios":"levelo://app?vid=c6f708ae-dd99-4fdc-99e6-1fea89a10df9"},"vehicle_type_id":"4","last_reported":1740575881,"current_range_meters":4400,"station_id":"ce4bh012rcd13ifvqcv0","pricing_plan_id":"cebpf4jnsgd1na2vs0mg"},{"bike_id":"9dddb1e0-e67e-4e90-b84a-eeafc6eee4ce","system_id":"levelo_inurba_marseille","lat":43.25583,"lon":5.38228,"is_reserved":false,"is_disabled":false,"rental_uris":{"android":"levelo://app?vid=9dddb1e0-e67e-4e90-b84a-eeafc6eee4ce","ios":"levelo://app?vid=9dddb1e0-e67e-4e90-b84a-eeafc6eee4ce"},"vehicle_type_id":"4","last_reported":1740575881,"current_range_meters":4800,"station_id":"ce4bhih2rcd13ifvqfs0","pricing_plan_id":"cebpf4jnsgd1na2vs0mg"},{"bike_id":"45569f5a-88b0-4ffe-a7fd-f06369e7b696","system_id":"levelo_inurba_marseille","lat":43.28683,"lon":5.38654,"is_reserved":false,"is_disabled":false,"rental_uris":{"android":"levelo://app?vid=45569f5a-88b0-4ffe-a7fd-f06369e7b696","ios":"levelo://app?vid=45569f5a-88b0-4ffe-a7fd-f06369e7b696"},"vehicle_type_id":"4","last_reported":1740575881,"current_range_meters":5600,"station_id":"ce4bh492rcd13ifvqdug","pricing_plan_id":"cebpf4jnsgd1na2vs0mg"},{"bike_id":"e07c4d3e-b317-4b10-b919-c6146de26647","system_id":"levelo_inurba_marseille","lat":43.32541,"lon":5.41447,"is_reserved":false,"is_disabled":false,"rental_uris":{"android":"levelo://app?vid=e07c4d3e-b317-4b10-b919-c6146de26647","ios":"levelo://app?vid=e07c4d3e-b317-4b10-b919-c6146de26647"},"vehicle_type_id":"4","last_reported":1740575881,"current_range_meters":5600,"station_id":"ce4bhq12rcd13ifvqhhg","pricing_plan_id":"cebpf4jnsgd1na2vs0mg"},{"bike_id":"b6eb1e76-a88a-437e-98c4-9a612de71195","system_id":"levelo_inurba_marseille","lat":43.23155,"lon":5.43713,"is_reserved":false,"is_disabled":false,"rental_uris":{"android":"levelo://app?vid=b6eb1e76-a88a-437e-98c4-9a612de71195","ios":"levelo://app?vid=b6eb1e76-a88a-437e-98c4-9a612de71195"},"vehicle_type_id":"4","last_reported":1740575881,"current_range_meters":5600,"station_id":"ce4bhmp2rcd13ifvqgog","pricing_plan_id":"cebpf4jnsgd1na2vs0mg"},{"bike_id":"7fc90eb1-9957-475e-9192-17ed554f6215","system_id":"levelo_inurba_marseille","lat":43.25924,"lon":5.40884,"is_reserved":false,"is_disabled":false,"rental_uris":{"android":"levelo://app?vid=7fc90eb1-9957-475e-9192-17ed554f6215","ios":"levelo://app?vid=7fc90eb1-9957-475e-9192-17ed554f6215"},"vehicle_type_id":"4","last_reported":1740575881,"current_range_meters":5600,"station_id":"ce4bhm92rcd13ifvqglg","pricing_plan_id":"cebpf4jnsgd1na2vs0mg"},{"bike_id":"e00d5cdc-f77e-4efd-a76b-368102f36671","system_id":"levelo_inurba_marseille","lat":43.29435,"lon":5.39757,"is_reserved":false,"is_disabled":false,"rental_uris":{"android":"levelo://app?vid=e00d5cdc-f77e-4efd-a76b-368102f36671","ios":"levelo://app?vid=e00d5cdc-f77e-4efd-a76b-368102f36671"},"vehicle_type_id":"4","last_reported":1740575881,"current_range_meters":5600,"station_id":"ce4bh3h2rcd13ifvqdo0","pricing_plan_id":"cebpf4jnsgd1na2vs0mg"},{"bike_id":"1fb0e46b-bdba-4a0b-8c63-b6e48236eaf3","system_id":"levelo_inurba_marseille","lat":43.313276,"lon":5.367364,"is_reserved":false,"is_disabled":false,"rental_uris":{"android":"levelo://app?vid=1fb0e46b-bdba-4a0b-8c63-b6e48236eaf3","ios":"levelo://app?vid=1fb0e46b-bdba-4a0b-8c63-b6e48236eaf3"},"vehicle_type_id":"4","last_reported":1740575881,"current_range_meters":6000,"station_id":"ce4bgr92rcd13ifvqc6g","pricing_plan_id":"cebpf4jnsgd1na2vs0mg"},{"bike_id":"37952043-09ff-4815-981b-e6a0e1926342","system_id":"levelo_inurba_marseille","lat":43.28977,"lon":5.37837,"is_reserved":false,"is_disabled":false,"rental_uris":{"android":"levelo://app?vid=37952043-09ff-4815-981b-e6a0e1926342","ios":"levelo://app?vid=37952043-09ff-4815-981b-e6a0e1926342"},"vehicle_type_id":"4","last_reported":1740575881,"current_range_meters":6000,"station_id":"ce4bh9p2rcd13ifvqed0","pricing_plan_id":"cebpf4jnsgd1na2vs0mg"},{"bike_id":"4242ac5b-27c1-4aec-9f82-2fac9f8c98d2","system_id":"levelo_inurba_marseille","lat":43.28715,"lon":5.37387,"is_reserved":false,"is_disabled":false,"rental_uris":{"android":"levelo://app?vid=4242ac5b-27c1-4aec-9f82-2fac9f8c98d2","ios":"levelo://app?vid=4242ac5b-27c1-4aec-9f82-2fac9f8c98d2"},"vehicle_type_id":"4","last_reported":1740575881,"current_range_meters":3600,"station_id":"ce4bh3p2rcd13ifvqdq0","pricing_plan_id":"cebpf4jnsgd1na2vs0mg"},{"bike_id":"b1972140-1da0-4f7e-8b80-e8a619c92c7a","system_id":"levelo_inurba_marseille","lat":43.29263,"lon":5.38435,"is_reserved":false,"is_disabled":false,"rental_uris":{"android":"levelo://app?vid=b1972140-1da0-4f7e-8b80-e8a619c92c7a","ios":"levelo://app?vid=b1972140-1da0-4f7e-8b80-e8a619c92c7a"},"vehicle_type_id":"4","last_reported":1740575881,"current_range_meters":6400,"station_id":"","pricing_plan_id":"cebpf4jnsgd1na2vs0mg"},{"bike_id":"203e2b02-6293-4ea1-b2f8-caa9150bc685","system_id":"levelo_inurba_marseille","lat":43.26558,"lon":5.39012,"is_reserved":false,"is_disabled":false,"rental_uris":{"android":"levelo://app?vid=203e2b02-6293-4ea1-b2f8-caa9150bc685","ios":"levelo://app?vid=203e2b02-6293-4ea1-b2f8-caa9150bc685"},"vehicle_type_id":"4","last_reported":1740575881,"current_range_meters":6400,"station_id":"ce4bhe12rcd13ifvqf30","pricing_plan_id":"cebpf4jnsgd1na2vs0mg"},{"bike_id":"65451835-734d-497f-b164-82a4b2aebeb3","system_id":"levelo_inurba_marseille","lat":43.29003,"lon":5.35612,"is_reserved":false,"is_disabled":false,"rental_uris":{"android":"levelo://app?vid=65451835-734d-497f-b164-82a4b2aebeb3","ios":"levelo://app?vid=65451835-734d-497f-b164-82a4b2aebeb3"},"vehicle_type_id":"4","last_reported":1740575881,"current_range_meters":0,"station_id":"ce4bhb92rcd13ifvqen0","pricing_plan_id":"cebpf4jnsgd1na2vs0mg"},{"bike_id":"387047f4-e46a-4181-ac82-9ff855d006f9","system_id":"levelo_inurba_marseille","lat":43.28977,"lon":5.37842,"is_reserved":false,"is_disabled":false,"rental_uris":{"android":"levelo://app?vid=387047f4-e46a-4181-ac82-9ff855d006f9","ios":"levelo://app?vid=387047f4-e46a-4181-ac82-9ff855d006f9"},"vehicle_type_id":"4","last_reported":1740575881,"current_range_meters":6400,"station_id":"ce4bh9p2rcd13ifvqed0","pricing_plan_id":"cebpf4jnsgd1na2vs0mg"},{"bike_id":"351c4523-4f33-4802-8c63-407e38af38fc","system_id":"levelo_inurba_marseille","lat":43.26564,"lon":5.3901,"is_reserved":false,"is_disabled":false,"rental_uris":{"android":"levelo://app?vid=351c4523-4f33-4802-8c63-407e38af38fc","ios":"levelo://app?vid=351c4523-4f33-4802-8c63-407e38af38fc"},"vehicle_type_id":"4","last_reported":1740575881,"current_range_meters":6800,"station_id":"ce4bhe12rcd13ifvqf30","pricing_plan_id":"cebpf4jnsgd1na2vs0mg"},{"bike_id":"e5c275a2-a964-47d8-9489-ed1126cf4cef","system_id":"levelo_inurba_marseille","lat":43.29621,"lon":5.37905,"is_reserved":false,"is_disabled":false,"rental_uris":{"android":"levelo://app?vid=e5c275a2-a964-47d8-9489-ed1126cf4cef","ios":"levelo://app?vid=e5c275a2-a964-47d8-9489-ed1126cf4cef"},"vehicle_type_id":"4","last_reported":1740575881,"current_range_meters":6800,"station_id":"","pricing_plan_id":"cebpf4jnsgd1na2vs0mg"},{"bike_id":"d5da5fe3-7f7e-4ac8-afb5-e7e4186750cc","system_id":"levelo_inurba_marseille","lat":43.30544,"lon":5.36725,"is_reserved":false,"is_disabled":false,"rental_uris":{"android":"levelo://app?vid=d5da5fe3-7f7e-4ac8-afb5-e7e4186750cc","ios":"levelo://app?vid=d5da5fe3-7f7e-4ac8-afb5-e7e4186750cc"},"vehicle_type_id":"4","last_reported":1740575881,"current_range_meters":6800,"station_id":"ce4bgrp2rcd13ifvqc9g","pricing_plan_id":"cebpf4jnsgd1na2vs0mg"},{"bike_id":"7afc2fe8-aa5f-43f2-b8e9-023a4279d933","system_id":"levelo_inurba_marseille","lat":43.28347,"lon":5.38102,"is_reserved":false,"is_disabled":false,"rental_uris":{"android":"levelo://app?vid=7afc2fe8-aa5f-43f2-b8e9-023a4279d933","ios":"levelo://app?vid=7afc2fe8-aa5f-43f2-b8e9-023a4279d933"},"vehicle_type_id":"4","last_reported":1740575881,"current_range_meters":6800,"station_id":"ce4bh412rcd13ifvqdr0","pricing_plan_id":"cebpf4jnsgd1na2vs0mg"},{"bike_id":"0d99d542-8ecb-4eb1-b860-ea6af7dd502a","system_id":"levelo_inurba_marseille","lat":43.26212,"lon":5.37439,"is_reserved":false,"is_disabled":false,"rental_uris":{"android":"levelo://app?vid=0d99d542-8ecb-4eb1-b860-ea6af7dd502a","ios":"levelo://app?vid=0d99d542-8ecb-4eb1-b860-ea6af7dd502a"},"vehicle_type_id":"4","last_reported":1740575881,"current_range_meters":6800,"station_id":"ce4bhgp2rcd13ifvqfc0","pricing_plan_id":"cebpf4jnsgd1na2vs0mg"},{"bike_id":"2896d892-ad5e-47b7-85f0-91eb678fa5fc","system_id":"levelo_inurba_marseille","lat":43.28361,"lon":5.38648,"is_reserved":false,"is_disabled":false,"rental_uris":{"android":"levelo://app?vid=2896d892-ad5e-47b7-85f0-91eb678fa5fc","ios":"levelo://app?vid=2896d892-ad5e-47b7-85f0-91eb678fa5fc"},"vehicle_type_id":"4","last_reported":1740575881,"current_range_meters":6800,"station_id":"ce4bh492rcd13ifvqdvg","pricing_plan_id":"cebpf4jnsgd1na2vs0mg"},{"bike_id":"e4cd531c-53f6-497b-b684-69896df31ea1","system_id":"levelo_inurba_marseille","lat":43.24175,"lon":5.39744,"is_reserved":false,"is_disabled":false,"rental_uris":{"android":"levelo://app?vid=e4cd531c-53f6-497b-b684-69896df31ea1","ios":"levelo://app?vid=e4cd531c-53f6-497b-b684-69896df31ea1"},"vehicle_type_id":"4","last_reported":1740575881,"current_range_meters":6800,"station_id":"ce4bhn12rcd13ifvqgpg","pricing_plan_id":"cebpf4jnsgd1na2vs0mg"},{"bike_id":"3b6547c7-63ad-43c6-b150-77c1b7065c7e","system_id":"levelo_inurba_marseille","lat":43.30955,"lon":5.39038,"is_reserved":false,"is_disabled":false,"rental_uris":{"android":"levelo://app?vid=3b6547c7-63ad-43c6-b150-77c1b7065c7e","ios":"levelo://app?vid=3b6547c7-63ad-43c6-b150-77c1b7065c7e"},"vehicle_type_id":"4","last_reported":1740575881,"current_range_meters":6800,"station_id":"ce4bgup2rcd13ifvqco0","pricing_plan_id":"cebpf4jnsgd1na2vs0mg"},{"bike_id":"7c45866a-bd99-4c12-9747-66203f12a96e","system_id":"levelo_inurba_marseille","lat":43.23133,"lon":5.35513,"is_reserved":false,"is_disabled":false,"rental_uris":{"android":"levelo://app?vid=7c45866a-bd99-4c12-9747-66203f12a96e","ios":"levelo://app?vid=7c45866a-bd99-4c12-9747-66203f12a96e"},"vehicle_type_id":"4","last_reported":1740575881,"current_range_meters":6800,"station_id":"","pricing_plan_id":"cebpf4jnsgd1na2vs0mg"},{"bike_id":"7cb2ec13-9150-4ba0-8600-71e4c8b933c1","system_id":"levelo_inurba_marseille","lat":43.28264,"lon":5.35066,"is_reserved":false,"is_disabled":false,"rental_uris":{"android":"levelo://app?vid=7cb2ec13-9150-4ba0-8600-71e4c8b933c1","ios":"levelo://app?vid=7cb2ec13-9150-4ba0-8600-71e4c8b933c1"},"vehicle_type_id":"4","last_reported":1740575881,"current_range_meters":6800,"station_id":"ce4bhbp2rcd13ifvqerg","pricing_plan_id":"cebpf4jnsgd1na2vs0mg"},{"bike_id":"fd989f9b-c206-42e1-9b73-4174141497be","system_id":"levelo_inurba_marseille","lat":43.30881,"lon":5.39633,"is_reserved":false,"is_disabled":false,"rental_uris":{"android":"levelo://app?vid=fd989f9b-c206-42e1-9b73-4174141497be","ios":"levelo://app?vid=fd989f9b-c206-42e1-9b73-4174141497be"},"vehicle_type_id":"4","last_reported":1740575881,"current_range_meters":6800,"station_id":"ce4bh012rcd13ifvqcv0","pricing_plan_id":"cebpf4jnsgd1na2vs0mg"},{"bike_id":"1bc7f7de-597b-4b94-afd9-e3c6d4fa2761","system_id":"levelo_inurba_marseille","lat":43.23179,"lon":5.39987,"is_reserved":false,"is_disabled":false,"rental_uris":{"android":"levelo://app?vid=1bc7f7de-597b-4b94-afd9-e3c6d4fa2761","ios":"levelo://app?vid=1bc7f7de-597b-4b94-afd9-e3c6d4fa2761"},"vehicle_type_id":"4","last_reported":1740575881,"current_range_meters":6800,"station_id":"ce4bhn12rcd13ifvqgqg","pricing_plan_id":"cebpf4jnsgd1na2vs0mg"},{"bike_id":"d195c036-1441-4910-bcb8-60d709890867","system_id":"levelo_inurba_marseille","lat":43.24165,"lon":5.36403,"is_reserved":false,"is_disabled":false,"rental_uris":{"android":"levelo://app?vid=d195c036-1441-4910-bcb8-60d709890867","ios":"levelo://app?vid=d195c036-1441-4910-bcb8-60d709890867"},"vehicle_type_id":"4","last_reported":1740575881,"current_range_meters":8000,"station_id":"cpo36qri1sfpv3e86is0","pricing_plan_id":"cebpf4jnsgd1na2vs0mg"},{"bike_id":"50f2f691-3db0-4845-adf1-c96e09ac40a1","system_id":"levelo_inurba_marseille","lat":43.3009,"lon":5.39073,"is_reserved":false,"is_disabled":false,"rental_uris":{"android":"levelo://app?vid=50f2f691-3db0-4845-adf1-c96e09ac40a1","ios":"levelo://app?vid=50f2f691-3db0-4845-adf1-c96e09ac40a1"},"vehicle_type_id":"4","last_reported":1740575881,"current_range_meters":7200,"station_id":"ce4bh192rcd13ifvqdb0","pricing_plan_id":"cebpf4jnsgd1na2vs0mg"},{"bike_id":"5713724b-bc01-4ed5-85d5-bc16050657ce","system_id":"levelo_inurba_marseille","lat":43.25909,"lon":5.40918,"is_reserved":false,"is_disabled":false,"rental_uris":{"android":"levelo://app?vid=5713724b-bc01-4ed5-85d5-bc16050657ce","ios":"levelo://app?vid=5713724b-bc01-4ed5-85d5-bc16050657ce"},"vehicle_type_id":"4","last_reported":1740575881,"current_range_meters":7200,"station_id":"ce4bhm92rcd13ifvqglg","pricing_plan_id":"cebpf4jnsgd1na2vs0mg"},{"bike_id":"c405406a-0919-45e3-83f8-567ea8622701","system_id":"levelo_inurba_marseille","lat":43.2418,"lon":5.39734,"is_reserved":false,"is_disabled":false,"rental_uris":{"android":"levelo://app?vid=c405406a-0919-45e3-83f8-567ea8622701","ios":"levelo://app?vid=c405406a-0919-45e3-83f8-567ea8622701"},"vehicle_type_id":"4","last_reported":1740575881,"current_range_meters":7200,"station_id":"ce4bhn12rcd13ifvqgpg","pricing_plan_id":"cebpf4jnsgd1na2vs0mg"},{"bike_id":"8a347558-4d24-4798-bc0f-3e92792b691e","system_id":"levelo_inurba_marseille","lat":43.312242,"lon":5.368444,"is_reserved":false,"is_disabled":false,"rental_uris":{"android":"levelo://app?vid=8a347558-4d24-4798-bc0f-3e92792b691e","ios":"levelo://app?vid=8a347558-4d24-4798-bc0f-3e92792b691e"},"vehicle_type_id":"4","last_reported":1740575881,"current_range_meters":8000,"station_id":"ce4bgl92rcd13ifvqbq0","pricing_plan_id":"cebpf4jnsgd1na2vs0mg"},{"bike_id":"4901e00b-aac3-4c9b-9df6-42b91626ab8f","system_id":"levelo_inurba_marseille","lat":43.28933,"lon":5.36396,"is_reserved":false,"is_disabled":false,"rental_uris":{"android":"levelo://app?vid=4901e00b-aac3-4c9b-9df6-42b91626ab8f","ios":"levelo://app?vid=4901e00b-aac3-4c9b-9df6-42b91626ab8f"},"vehicle_type_id":"4","last_reported":1740575881,"current_range_meters":7200,"station_id":"ce4bhc92rcd13ifvqetg","pricing_plan_id":"cebpf4jnsgd1na2vs0mg"},{"bike_id":"778715b6-7401-4fd7-b59d-edef73e0977a","system_id":"levelo_inurba_marseille","lat":43.30125,"lon":5.39866,"is_reserved":false,"is_disabled":false,"rental_uris":{"android":"levelo://app?vid=778715b6-7401-4fd7-b59d-edef73e0977a","ios":"levelo://app?vid=778715b6-7401-4fd7-b59d-edef73e0977a"},"vehicle_type_id":"4","last_reported":1740575881,"current_range_meters":8800,"station_id":"ce4bh0h2rcd13ifvqd40","pricing_plan_id":"cebpf4jnsgd1na2vs0mg"},{"bike_id":"a9d3fb29-3c5c-4408-a179-e9882d00c725","system_id":"levelo_inurba_marseille","lat":43.28933,"lon":5.36645,"is_reserved":false,"is_disabled":false,"rental_uris":{"android":"levelo://app?vid=a9d3fb29-3c5c-4408-a179-e9882d00c725","ios":"levelo://app?vid=a9d3fb29-3c5c-4408-a179-e9882d00c725"},"vehicle_type_id":"4","last_reported":1740575881,"current_range_meters":8000,"station_id":"ce4bhap2rcd13ifvqek0","pricing_plan_id":"cebpf4jnsgd1na2vs0mg"},{"bike_id":"d25a07e2-96a3-479b-97d0-d78d99cc4a49","system_id":"levelo_inurba_marseille","lat":43.30469,"lon":5.37914,"is_reserved":false,"is_disabled":false,"rental_uris":{"android":"levelo://app?vid=d25a07e2-96a3-479b-97d0-d78d99cc4a49","ios":"levelo://app?vid=d25a07e2-96a3-479b-97d0-d78d99cc4a49"},"vehicle_type_id":"4","last_reported":1740575881,"current_range_meters":9200,"station_id":"ce4bgup2rcd13ifvqcn0","pricing_plan_id":"cebpf4jnsgd1na2vs0mg"},{"bike_id":"0a3f5ff5-949d-4cf4-a30b-f6d782a87c75","system_id":"levelo_inurba_marseille","lat":43.2558,"lon":5.38248,"is_reserved":false,"is_disabled":false,"rental_uris":{"android":"levelo://app?vid=0a3f5ff5-949d-4cf4-a30b-f6d782a87c75","ios":"levelo://app?vid=0a3f5ff5-949d-4cf4-a30b-f6d782a87c75"},"vehicle_type_id":"4","last_reported":1740575881,"current_range_meters":8800,"station_id":"ce4bhih2rcd13ifvqfs0","pricing_plan_id":"cebpf4jnsgd1na2vs0mg"},{"bike_id":"68f1a107-4e0a-482b-bb69-435f4976fc1d","system_id":"levelo_inurba_marseille","lat":43.30595,"lon":5.39336,"is_reserved":false,"is_disabled":false,"rental_uris":{"android":"levelo://app?vid=68f1a107-4e0a-482b-bb69-435f4976fc1d","ios":"levelo://app?vid=68f1a107-4e0a-482b-bb69-435f4976fc1d"},"vehicle_type_id":"4","last_reported":1740575881,"current_range_meters":8800,"station_id":"ce4bh0p2rcd13ifvqd80","pricing_plan_id":"cebpf4jnsgd1na2vs0mg"},{"bike_id":"3cbe9595-0c2b-4998-aa87-61e54223aee5","system_id":"levelo_inurba_marseille","lat":43.23139,"lon":5.43705,"is_reserved":false,"is_disabled":false,"rental_uris":{"android":"levelo://app?vid=3cbe9595-0c2b-4998-aa87-61e54223aee5","ios":"levelo://app?vid=3cbe9595-0c2b-4998-aa87-61e54223aee5"},"vehicle_type_id":"4","last_reported":1740575881,"current_range_meters":8400,"station_id":"ce4bhmp2rcd13ifvqgog","pricing_plan_id":"cebpf4jnsgd1na2vs0mg"},{"bike_id":"05f51bd6-bf8c-4b6c-ba2f-d7bf7cec3006","system_id":"levelo_inurba_marseille","lat":43.23192,"lon":5.35554,"is_reserved":false,"is_disabled":false,"rental_uris":{"android":"levelo://app?vid=05f51bd6-bf8c-4b6c-ba2f-d7bf7cec3006","ios":"levelo://app?vid=05f51bd6-bf8c-4b6c-ba2f-d7bf7cec3006"},"vehicle_type_id":"4","last_reported":1740575881,"current_range_meters":8400,"station_id":"ce4bhu92rcd13ifvqi70","pricing_plan_id":"cebpf4jnsgd1na2vs0mg"},{"bike_id":"9f6b1a57-8b18-4910-92c4-7c3c71b26e15","system_id":"levelo_inurba_marseille","lat":43.23337,"lon":5.35993,"is_reserved":false,"is_disabled":false,"rental_uris":{"android":"levelo://app?vid=9f6b1a57-8b18-4910-92c4-7c3c71b26e15","ios":"levelo://app?vid=9f6b1a57-8b18-4910-92c4-7c3c71b26e15"},"vehicle_type_id":"4","last_reported":1740575881,"current_range_meters":8800,"station_id":"","pricing_plan_id":"cebpf4jnsgd1na2vs0mg"},{"bike_id":"a1ca3ad0-4f52-4569-bb87-4293f6934d8b","system_id":"levelo_inurba_marseille","lat":43.23199,"lon":5.35545,"is_reserved":false,"is_disabled":false,"rental_uris":{"android":"levelo://app?vid=a1ca3ad0-4f52-4569-bb87-4293f6934d8b","ios":"levelo://app?vid=a1ca3ad0-4f52-4569-bb87-4293f6934d8b"},"vehicle_type_id":"4","last_reported":1740575881,"current_range_meters":8400,"station_id":"ce4bhu92rcd13ifvqi70","pricing_plan_id":"cebpf4jnsgd1na2vs0mg"},{"bike_id":"8801f531-d481-4160-b34e-40afc4ee14bc","system_id":"levelo_inurba_marseille","lat":43.23147,"lon":5.43702,"is_reserved":false,"is_disabled":false,"rental_uris":{"android":"levelo://app?vid=8801f531-d481-4160-b34e-40afc4ee14bc","ios":"levelo://app?vid=8801f531-d481-4160-b34e-40afc4ee14bc"},"vehicle_type_id":"4","last_reported":1740575881,"current_range_meters":8800,"station_id":"ce4bhmp2rcd13ifvqgog","pricing_plan_id":"cebpf4jnsgd1na2vs0mg"},{"bike_id":"bb0c7672-5984-45f2-8ca3-eb3e90172afc","system_id":"levelo_inurba_marseille","lat":43.26195,"lon":5.37444,"is_reserved":false,"is_disabled":false,"rental_uris":{"android":"levelo://app?vid=bb0c7672-5984-45f2-8ca3-eb3e90172afc","ios":"levelo://app?vid=bb0c7672-5984-45f2-8ca3-eb3e90172afc"},"vehicle_type_id":"4","last_reported":1740575881,"current_range_meters":8400,"station_id":"ce4bhgp2rcd13ifvqfc0","pricing_plan_id":"cebpf4jnsgd1na2vs0mg"},{"bike_id":"947255be-8fd6-438a-96ed-0e25471f1b2a","system_id":"levelo_inurba_marseille","lat":43.26563,"lon":5.3901,"is_reserved":false,"is_disabled":false,"rental_uris":{"android":"levelo://app?vid=947255be-8fd6-438a-96ed-0e25471f1b2a","ios":"levelo://app?vid=947255be-8fd6-438a-96ed-0e25471f1b2a"},"vehicle_type_id":"4","last_reported":1740575881,"current_range_meters":8800,"station_id":"ce4bhe12rcd13ifvqf30","pricing_plan_id":"cebpf4jnsgd1na2vs0mg"},{"bike_id":"16c694c0-81b8-47ac-8e74-17468f5223ea","system_id":"levelo_inurba_marseille","lat":43.27076,"lon":5.4227,"is_reserved":false,"is_disabled":false,"rental_uris":{"android":"levelo://app?vid=16c694c0-81b8-47ac-8e74-17468f5223ea","ios":"levelo://app?vid=16c694c0-81b8-47ac-8e74-17468f5223ea"},"vehicle_type_id":"4","last_reported":1740575881,"current_range_meters":8800,"station_id":"ce4bhk92rcd13ifvqgb0","pricing_plan_id":"cebpf4jnsgd1na2vs0mg"},{"bike_id":"aaa0828e-da0d-4896-8244-54f9b64f71de","system_id":"levelo_inurba_marseille","lat":43.30301,"lon":5.36887,"is_reserved":false,"is_disabled":false,"rental_uris":{"android":"levelo://app?vid=aaa0828e-da0d-4896-8244-54f9b64f71de","ios":"levelo://app?vid=aaa0828e-da0d-4896-8244-54f9b64f71de"},"vehicle_type_id":"4","last_reported":1740575881,"current_range_meters":8800,"station_id":"ce4bgqh2rcd13ifvqc5g","pricing_plan_id":"cebpf4jnsgd1na2vs0mg"},{"bike_id":"338ea397-fc1c-4285-90cc-058db7682af1","system_id":"levelo_inurba_marseille","lat":43.23146,"lon":5.43715,"is_reserved":false,"is_disabled":false,"rental_uris":{"android":"levelo://app?vid=338ea397-fc1c-4285-90cc-058db7682af1","ios":"levelo://app?vid=338ea397-fc1c-4285-90cc-058db7682af1"},"vehicle_type_id":"4","last_reported":1740575881,"current_range_meters":8800,"station_id":"ce4bhmp2rcd13ifvqgog","pricing_plan_id":"cebpf4jnsgd1na2vs0mg"},{"bike_id":"125df677-f590-4d12-aa40-6c29907d0936","system_id":"levelo_inurba_marseille","lat":43.295306,"lon":5.385444,"is_reserved":false,"is_disabled":false,"rental_uris":{"android":"levelo://app?vid=125df677-f590-4d12-aa40-6c29907d0936","ios":"levelo://app?vid=125df677-f590-4d12-aa40-6c29907d0936"},"vehicle_type_id":"4","last_reported":1740575881,"current_range_meters":9200,"station_id":"ce4bgih2rcd13ifvqba0","pricing_plan_id":"cebpf4jnsgd1na2vs0mg"},{"bike_id":"21ed6aa5-a2ab-4cca-9cf6-c5c2f44b2395","system_id":"levelo_inurba_marseille","lat":43.30352,"lon":5.41875,"is_reserved":false,"is_disabled":false,"rental_uris":{"android":"levelo://app?vid=21ed6aa5-a2ab-4cca-9cf6-c5c2f44b2395","ios":"levelo://app?vid=21ed6aa5-a2ab-4cca-9cf6-c5c2f44b2395"},"vehicle_type_id":"4","last_reported":1740575881,"current_range_meters":8800,"station_id":"ce4bhop2rcd13ifvqh7g","pricing_plan_id":"cebpf4jnsgd1na2vs0mg"},{"bike_id":"0c97dafb-2098-482c-adec-c887e8bc751a","system_id":"levelo_inurba_marseille","lat":43.240708,"lon":5.377663,"is_reserved":false,"is_disabled":false,"rental_uris":{"android":"levelo://app?vid=0c97dafb-2098-482c-adec-c887e8bc751a","ios":"levelo://app?vid=0c97dafb-2098-482c-adec-c887e8bc751a"},"vehicle_type_id":"4","last_reported":1740575881,"current_range_meters":9200,"station_id":"ce4bhnp2rcd13ifvqgvg","pricing_plan_id":"cebpf4jnsgd1na2vs0mg"},{"bike_id":"009cdcb2-4b54-438b-a5c4-f7ef8e65d688","system_id":"levelo_inurba_marseille","lat":43.27325,"lon":5.39113,"is_reserved":false,"is_disabled":false,"rental_uris":{"android":"levelo://app?vid=009cdcb2-4b54-438b-a5c4-f7ef8e65d688","ios":"levelo://app?vid=009cdcb2-4b54-438b-a5c4-f7ef8e65d688"},"vehicle_type_id":"4","last_reported":1740575881,"current_range_meters":9200,"station_id":"ce4bhgp2rcd13ifvqfe0","pricing_plan_id":"cebpf4jnsgd1na2vs0mg"},{"bike_id":"fc41e6ae-b9a2-4bd7-9807-f146f880c64f","system_id":"levelo_inurba_marseille","lat":43.2952,"lon":5.39034,"is_reserved":false,"is_disabled":false,"rental_uris":{"android":"levelo://app?vid=fc41e6ae-b9a2-4bd7-9807-f146f880c64f","ios":"levelo://app?vid=fc41e6ae-b9a2-4bd7-9807-f146f880c64f"},"vehicle_type_id":"4","last_reported":1740575881,"current_range_meters":12000,"station_id":"ce4bh3p2rcd13ifvqdp0","pricing_plan_id":"cebpf4jnsgd1na2vs0mg"},{"bike_id":"5c6985dc-39ed-4e13-a926-bcfab86848fa","system_id":"levelo_inurba_marseille","lat":43.29025,"lon":5.3865,"is_reserved":false,"is_disabled":false,"rental_uris":{"android":"levelo://app?vid=5c6985dc-39ed-4e13-a926-bcfab86848fa","ios":"levelo://app?vid=5c6985dc-39ed-4e13-a926-bcfab86848fa"},"vehicle_type_id":"4","last_reported":1740575881,"current_range_meters":9200,"station_id":"ce4bh4p2rcd13ifvqe0g","pricing_plan_id":"cebpf4jnsgd1na2vs0mg"},{"bike_id":"c52acbad-9974-48d6-b92b-1d6c12a1b66d","system_id":"levelo_inurba_marseille","lat":43.25958,"lon":5.40872,"is_reserved":false,"is_disabled":false,"rental_uris":{"android":"levelo://app?vid=c52acbad-9974-48d6-b92b-1d6c12a1b66d","ios":"levelo://app?vid=c52acbad-9974-48d6-b92b-1d6c12a1b66d"},"vehicle_type_id":"4","last_reported":1740575881,"current_range_meters":9600,"station_id":"ce4bhm92rcd13ifvqglg","pricing_plan_id":"cebpf4jnsgd1na2vs0mg"},{"bike_id":"96f76bf2-8703-409c-ba6a-2fdb65a73fa3","system_id":"levelo_inurba_marseille","lat":43.283173,"lon":5.350253,"is_reserved":false,"is_disabled":false,"rental_uris":{"android":"levelo://app?vid=96f76bf2-8703-409c-ba6a-2fdb65a73fa3","ios":"levelo://app?vid=96f76bf2-8703-409c-ba6a-2fdb65a73fa3"},"vehicle_type_id":"4","last_reported":1740575881,"current_range_meters":10000,"station_id":"ce4bhbp2rcd13ifvqerg","pricing_plan_id":"cebpf4jnsgd1na2vs0mg"},{"bike_id":"c1e1cfc9-4e56-4f7a-94a9-2d01d9bb2a93","system_id":"levelo_inurba_marseille","lat":43.24811,"lon":5.37461,"is_reserved":false,"is_disabled":false,"rental_uris":{"android":"levelo://app?vid=c1e1cfc9-4e56-4f7a-94a9-2d01d9bb2a93","ios":"levelo://app?vid=c1e1cfc9-4e56-4f7a-94a9-2d01d9bb2a93"},"vehicle_type_id":"4","last_reported":1740575881,"current_range_meters":10000,"station_id":"ce4bhgh2rcd13ifvqfb0","pricing_plan_id":"cebpf4jnsgd1na2vs0mg"},{"bike_id":"7c8aaa9b-e43a-43de-8b4f-a531a44d3724","system_id":"levelo_inurba_marseille","lat":43.27932,"lon":5.41026,"is_reserved":false,"is_disabled":false,"rental_uris":{"android":"levelo://app?vid=7c8aaa9b-e43a-43de-8b4f-a531a44d3724","ios":"levelo://app?vid=7c8aaa9b-e43a-43de-8b4f-a531a44d3724"},"vehicle_type_id":"4","last_reported":1740575881,"current_range_meters":9600,"station_id":"ce4bhnp2rcd13ifvqh0g","pricing_plan_id":"cebpf4jnsgd1na2vs0mg"},{"bike_id":"6b286004-f086-4023-9675-02a95f8e917b","system_id":"levelo_inurba_marseille","lat":43.30954,"lon":5.39035,"is_reserved":false,"is_disabled":true,"rental_uris":{"android":"levelo://app?vid=6b286004-f086-4023-9675-02a95f8e917b","ios":"levelo://app?vid=6b286004-f086-4023-9675-02a95f8e917b"},"vehicle_type_id":"4","last_reported":1740575881,"current_range_meters":9600,"station_id":"ce4bgup2rcd13ifvqco0","pricing_plan_id":"cebpf4jnsgd1na2vs0mg"},{"bike_id":"b007f058-4163-4bbe-ba13-50835769bd43","system_id":"levelo_inurba_marseille","lat":43.31707,"lon":5.437098,"is_reserved":false,"is_disabled":false,"rental_uris":{"android":"levelo://app?vid=b007f058-4163-4bbe-ba13-50835769bd43","ios":"levelo://app?vid=b007f058-4163-4bbe-ba13-50835769bd43"},"vehicle_type_id":"4","last_reported":1740575881,"current_range_meters":9600,"station_id":"ce4bhp92rcd13ifvqhcg","pricing_plan_id":"cebpf4jnsgd1na2vs0mg"},{"bike_id":"7e47af87-28e7-42f8-a37f-dec8ec9f24b8","system_id":"levelo_inurba_marseille","lat":43.30254,"lon":5.40076,"is_reserved":false,"is_disabled":false,"rental_uris":{"android":"levelo://app?vid=7e47af87-28e7-42f8-a37f-dec8ec9f24b8","ios":"levelo://app?vid=7e47af87-28e7-42f8-a37f-dec8ec9f24b8"},"vehicle_type_id":"4","last_reported":1740575881,"current_range_meters":9200,"station_id":"ce4bgvh2rcd13ifvqcs0","pricing_plan_id":"cebpf4jnsgd1na2vs0mg"},{"bike_id":"2fe7e234-c0ac-4342-b51b-afc9c292d188","system_id":"levelo_inurba_marseille","lat":43.25086,"lon":5.39524,"is_reserved":false,"is_disabled":false,"rental_uris":{"android":"levelo://app?vid=2fe7e234-c0ac-4342-b51b-afc9c292d188","ios":"levelo://app?vid=2fe7e234-c0ac-4342-b51b-afc9c292d188"},"vehicle_type_id":"4","last_reported":1740575881,"current_range_meters":8800,"station_id":"ce4bhm12rcd13ifvqgkg","pricing_plan_id":"cebpf4jnsgd1na2vs0mg"},{"bike_id":"68307e54-4bf1-4175-b0d8-726606b2225e","system_id":"levelo_inurba_marseille","lat":43.31712,"lon":5.37779,"is_reserved":false,"is_disabled":false,"rental_uris":{"android":"levelo://app?vid=68307e54-4bf1-4175-b0d8-726606b2225e","ios":"levelo://app?vid=68307e54-4bf1-4175-b0d8-726606b2225e"},"vehicle_type_id":"4","last_reported":1740575881,"current_range_meters":9600,"station_id":"ce4bgth2rcd13ifvqch0","pricing_plan_id":"cebpf4jnsgd1na2vs0mg"},{"bike_id":"a18d2462-6430-4fa5-8ce7-637ac348b4cd","system_id":"levelo_inurba_marseille","lat":43.27947,"lon":5.41049,"is_reserved":false,"is_disabled":false,"rental_uris":{"android":"levelo://app?vid=a18d2462-6430-4fa5-8ce7-637ac348b4cd","ios":"levelo://app?vid=a18d2462-6430-4fa5-8ce7-637ac348b4cd"},"vehicle_type_id":"4","last_reported":1740575881,"current_range_meters":9600,"station_id":"ce4bhnp2rcd13ifvqh0g","pricing_plan_id":"cebpf4jnsgd1na2vs0mg"},{"bike_id":"eec6fd0c-47b2-4d60-b5a3-3d356fdee7e7","system_id":"levelo_inurba_marseille","lat":43.23154,"lon":5.43716,"is_reserved":false,"is_disabled":false,"rental_uris":{"android":"levelo://app?vid=eec6fd0c-47b2-4d60-b5a3-3d356fdee7e7","ios":"levelo://app?vid=eec6fd0c-47b2-4d60-b5a3-3d356fdee7e7"},"vehicle_type_id":"4","last_reported":1740575881,"current_range_meters":9600,"station_id":"ce4bhmp2rcd13ifvqgog","pricing_plan_id":"cebpf4jnsgd1na2vs0mg"},{"bike_id":"5c3c4bdb-cf56-4e38-a7ec-d6836fec0c92","system_id":"levelo_inurba_marseille","lat":43.330791,"lon":5.388518,"is_reserved":false,"is_disabled":false,"rental_uris":{"android":"levelo://app?vid=5c3c4bdb-cf56-4e38-a7ec-d6836fec0c92","ios":"levelo://app?vid=5c3c4bdb-cf56-4e38-a7ec-d6836fec0c92"},"vehicle_type_id":"4","last_reported":1740575881,"current_range_meters":8400,"station_id":"ce4bhr92rcd13ifvqhrg","pricing_plan_id":"cebpf4jnsgd1na2vs0mg"},{"bike_id":"d0801915-0de0-4f9d-9726-750b42c06614","system_id":"levelo_inurba_marseille","lat":43.32101,"lon":5.3677,"is_reserved":false,"is_disabled":false,"rental_uris":{"android":"levelo://app?vid=d0801915-0de0-4f9d-9726-750b42c06614","ios":"levelo://app?vid=d0801915-0de0-4f9d-9726-750b42c06614"},"vehicle_type_id":"4","last_reported":1740575881,"current_range_meters":9600,"station_id":"ce4bhrh2rcd13ifvqhug","pricing_plan_id":"cebpf4jnsgd1na2vs0mg"},{"bike_id":"98b238a9-4025-493e-bfff-4f030bc1db49","system_id":"levelo_inurba_marseille","lat":43.3089,"lon":5.3966,"is_reserved":false,"is_disabled":false,"rental_uris":{"android":"levelo://app?vid=98b238a9-4025-493e-bfff-4f030bc1db49","ios":"levelo://app?vid=98b238a9-4025-493e-bfff-4f030bc1db49"},"vehicle_type_id":"4","last_reported":1740575881,"current_range_meters":9600,"station_id":"ce4bh012rcd13ifvqcv0","pricing_plan_id":"cebpf4jnsgd1na2vs0mg"},{"bike_id":"b7a311c0-b08e-4dde-96a5-093323e33ff3","system_id":"levelo_inurba_marseille","lat":43.29831,"lon":5.36282,"is_reserved":false,"is_disabled":false,"rental_uris":{"android":"levelo://app?vid=b7a311c0-b08e-4dde-96a5-093323e33ff3","ios":"levelo://app?vid=b7a311c0-b08e-4dde-96a5-093323e33ff3"},"vehicle_type_id":"4","last_reported":1740575881,"current_range_meters":10000,"station_id":"ce4bgpp2rcd13ifvqc3g","pricing_plan_id":"cebpf4jnsgd1na2vs0mg"},{"bike_id":"261556eb-c6ed-4781-a967-bc98c917e52c","system_id":"levelo_inurba_marseille","lat":43.24178,"lon":5.39723,"is_reserved":false,"is_disabled":false,"rental_uris":{"android":"levelo://app?vid=261556eb-c6ed-4781-a967-bc98c917e52c","ios":"levelo://app?vid=261556eb-c6ed-4781-a967-bc98c917e52c"},"vehicle_type_id":"4","last_reported":1740575881,"current_range_meters":10000,"station_id":"ce4bhn12rcd13ifvqgpg","pricing_plan_id":"cebpf4jnsgd1na2vs0mg"},{"bike_id":"ea630c8a-0ecd-4bee-b693-0df46eb3303f","system_id":"levelo_inurba_marseille","lat":43.30912,"lon":5.40165,"is_reserved":false,"is_disabled":false,"rental_uris":{"android":"levelo://app?vid=ea630c8a-0ecd-4bee-b693-0df46eb3303f","ios":"levelo://app?vid=ea630c8a-0ecd-4bee-b693-0df46eb3303f"},"vehicle_type_id":"4","last_reported":1740575881,"current_range_meters":8800,"station_id":"ce4bgvp2rcd13ifvqct0","pricing_plan_id":"cebpf4jnsgd1na2vs0mg"},{"bike_id":"38b44a1a-0f2e-4299-96c9-9e57e4ad0aac","system_id":"levelo_inurba_marseille","lat":43.285434,"lon":5.351405,"is_reserved":false,"is_disabled":false,"rental_uris":{"android":"levelo://app?vid=38b44a1a-0f2e-4299-96c9-9e57e4ad0aac","ios":"levelo://app?vid=38b44a1a-0f2e-4299-96c9-9e57e4ad0aac"},"vehicle_type_id":"4","last_reported":1740575881,"current_range_meters":14800,"station_id":"ce4bhb92rcd13ifvqen0","pricing_plan_id":"cebpf4jnsgd1na2vs0mg"},{"bike_id":"01783c60-cdd4-4925-b30f-2f3020328abe","system_id":"levelo_inurba_marseille","lat":43.25502,"lon":5.37651,"is_reserved":false,"is_disabled":false,"rental_uris":{"android":"levelo://app?vid=01783c60-cdd4-4925-b30f-2f3020328abe","ios":"levelo://app?vid=01783c60-cdd4-4925-b30f-2f3020328abe"},"vehicle_type_id":"4","last_reported":1740575881,"current_range_meters":10800,"station_id":"ce4bhh12rcd13ifvqff0","pricing_plan_id":"cebpf4jnsgd1na2vs0mg"},{"bike_id":"67ee95a1-160f-49c1-b11e-b3640680cd0d","system_id":"levelo_inurba_marseille","lat":43.32116,"lon":5.36778,"is_reserved":false,"is_disabled":false,"rental_uris":{"android":"levelo://app?vid=67ee95a1-160f-49c1-b11e-b3640680cd0d","ios":"levelo://app?vid=67ee95a1-160f-49c1-b11e-b3640680cd0d"},"vehicle_type_id":"4","last_reported":1740575881,"current_range_meters":11200,"station_id":"ce4bhrh2rcd13ifvqhug","pricing_plan_id":"cebpf4jnsgd1na2vs0mg"},{"bike_id":"bd3f440a-75eb-43c7-b5ee-aa6446d6b7f8","system_id":"levelo_inurba_marseille","lat":43.25111,"lon":5.40325,"is_reserved":false,"is_disabled":false,"rental_uris":{"android":"levelo://app?vid=bd3f440a-75eb-43c7-b5ee-aa6446d6b7f8","ios":"levelo://app?vid=bd3f440a-75eb-43c7-b5ee-aa6446d6b7f8"},"vehicle_type_id":"4","last_reported":1740575881,"current_range_meters":10800,"station_id":"ce4bhlh2rcd13ifvqgig","pricing_plan_id":"cebpf4jnsgd1na2vs0mg"},{"bike_id":"99e760f2-43bd-403f-9422-c898151892af","system_id":"levelo_inurba_marseille","lat":43.279,"lon":5.38026,"is_reserved":false,"is_disabled":false,"rental_uris":{"android":"levelo://app?vid=99e760f2-43bd-403f-9422-c898151892af","ios":"levelo://app?vid=99e760f2-43bd-403f-9422-c898151892af"},"vehicle_type_id":"4","last_reported":1740575881,"current_range_meters":10800,"station_id":"ce4bhf92rcd13ifvqf50","pricing_plan_id":"cebpf4jnsgd1na2vs0mg"},{"bike_id":"3b813646-2f34-401c-a684-d6f0dbc0aa61","system_id":"levelo_inurba_marseille","lat":43.25484,"lon":5.37646,"is_reserved":false,"is_disabled":false,"rental_uris":{"android":"levelo://app?vid=3b813646-2f34-401c-a684-d6f0dbc0aa61","ios":"levelo://app?vid=3b813646-2f34-401c-a684-d6f0dbc0aa61"},"vehicle_type_id":"4","last_reported":1740575881,"current_range_meters":11200,"station_id":"ce4bhh12rcd13ifvqff0","pricing_plan_id":"cebpf4jnsgd1na2vs0mg"},{"bike_id":"45ac4e55-c7aa-4a65-99c8-81935b8b8498","system_id":"levelo_inurba_marseille","lat":43.24803,"lon":5.37454,"is_reserved":false,"is_disabled":false,"rental_uris":{"android":"levelo://app?vid=45ac4e55-c7aa-4a65-99c8-81935b8b8498","ios":"levelo://app?vid=45ac4e55-c7aa-4a65-99c8-81935b8b8498"},"vehicle_type_id":"4","last_reported":1740575881,"current_range_meters":10800,"station_id":"ce4bhgh2rcd13ifvqfb0","pricing_plan_id":"cebpf4jnsgd1na2vs0mg"},{"bike_id":"0a2a238b-c24a-4d57-9c72-8be74aa41340","system_id":"levelo_inurba_marseille","lat":43.31335,"lon":5.36718,"is_reserved":false,"is_disabled":false,"rental_uris":{"android":"levelo://app?vid=0a2a238b-c24a-4d57-9c72-8be74aa41340","ios":"levelo://app?vid=0a2a238b-c24a-4d57-9c72-8be74aa41340"},"vehicle_type_id":"4","last_reported":1740575881,"current_range_meters":11200,"station_id":"ce4bgr92rcd13ifvqc6g","pricing_plan_id":"cebpf4jnsgd1na2vs0mg"},{"bike_id":"aba7df5b-65a8-4e34-bd8a-87ba55f2c995","system_id":"levelo_inurba_marseille","lat":43.31718,"lon":5.37756,"is_reserved":false,"is_disabled":false,"rental_uris":{"android":"levelo://app?vid=aba7df5b-65a8-4e34-bd8a-87ba55f2c995","ios":"levelo://app?vid=aba7df5b-65a8-4e34-bd8a-87ba55f2c995"},"vehicle_type_id":"4","last_reported":1740575881,"current_range_meters":11200,"station_id":"ce4bgth2rcd13ifvqch0","pricing_plan_id":"cebpf4jnsgd1na2vs0mg"},{"bike_id":"ed8ca2c9-5baa-4183-b634-b3b25df7cea1","system_id":"levelo_inurba_marseille","lat":43.30325,"lon":5.40432,"is_reserved":false,"is_disabled":false,"rental_uris":{"android":"levelo://app?vid=ed8ca2c9-5baa-4183-b634-b3b25df7cea1","ios":"levelo://app?vid=ed8ca2c9-5baa-4183-b634-b3b25df7cea1"},"vehicle_type_id":"4","last_reported":1740575881,"current_range_meters":10800,"station_id":"ce4bh012rcd13ifvqd10","pricing_plan_id":"cebpf4jnsgd1na2vs0mg"},{"bike_id":"5b2f2c36-c8b5-45da-b42f-dad1bdf0d5bd","system_id":"levelo_inurba_marseille","lat":43.28152,"lon":5.42652,"is_reserved":false,"is_disabled":false,"rental_uris":{"android":"levelo://app?vid=5b2f2c36-c8b5-45da-b42f-dad1bdf0d5bd","ios":"levelo://app?vid=5b2f2c36-c8b5-45da-b42f-dad1bdf0d5bd"},"vehicle_type_id":"4","last_reported":1740575881,"current_range_meters":11200,"station_id":"ce4bhnh2rcd13ifvqgug","pricing_plan_id":"cebpf4jnsgd1na2vs0mg"},{"bike_id":"86b43e3a-ca58-476f-ad09-ef822f8704e3","system_id":"levelo_inurba_marseille","lat":43.30885,"lon":5.39657,"is_reserved":false,"is_disabled":false,"rental_uris":{"android":"levelo://app?vid=86b43e3a-ca58-476f-ad09-ef822f8704e3","ios":"levelo://app?vid=86b43e3a-ca58-476f-ad09-ef822f8704e3"},"vehicle_type_id":"4","last_reported":1740575881,"current_range_meters":10000,"station_id":"ce4bh012rcd13ifvqcv0","pricing_plan_id":"cebpf4jnsgd1na2vs0mg"},{"bike_id":"37aee153-09c2-4cb5-bdbc-6e60b24fb2d2","system_id":"levelo_inurba_marseille","lat":43.29195,"lon":5.35804,"is_reserved":false,"is_disabled":false,"rental_uris":{"android":"levelo://app?vid=37aee153-09c2-4cb5-bdbc-6e60b24fb2d2","ios":"levelo://app?vid=37aee153-09c2-4cb5-bdbc-6e60b24fb2d2"},"vehicle_type_id":"4","last_reported":1740575881,"current_range_meters":14000,"station_id":"ce4bhb12rcd13ifvqel0","pricing_plan_id":"cebpf4jnsgd1na2vs0mg"},{"bike_id":"0fc980b7-2ffb-414e-9d50-2f41a281a2ae","system_id":"levelo_inurba_marseille","lat":43.28147,"lon":5.42649,"is_reserved":false,"is_disabled":false,"rental_uris":{"android":"levelo://app?vid=0fc980b7-2ffb-414e-9d50-2f41a281a2ae","ios":"levelo://app?vid=0fc980b7-2ffb-414e-9d50-2f41a281a2ae"},"vehicle_type_id":"4","last_reported":1740575881,"current_range_meters":11200,"station_id":"ce4bhnh2rcd13ifvqgug","pricing_plan_id":"cebpf4jnsgd1na2vs0mg"},{"bike_id":"a575f4dc-276f-4f6f-bc4c-8972fb7f85cb","system_id":"levelo_inurba_marseille","lat":43.25825,"lon":5.39424,"is_reserved":false,"is_disabled":false,"rental_uris":{"android":"levelo://app?vid=a575f4dc-276f-4f6f-bc4c-8972fb7f85cb","ios":"levelo://app?vid=a575f4dc-276f-4f6f-bc4c-8972fb7f85cb"},"vehicle_type_id":"4","last_reported":1740575881,"current_range_meters":9600,"station_id":"ce4bhip2rcd13ifvqft0","pricing_plan_id":"cebpf4jnsgd1na2vs0mg"},{"bike_id":"9713c2d9-3b19-4217-97be-c2241cc8de47","system_id":"levelo_inurba_marseille","lat":43.28109,"lon":5.37812,"is_reserved":false,"is_disabled":false,"rental_uris":{"android":"levelo://app?vid=9713c2d9-3b19-4217-97be-c2241cc8de47","ios":"levelo://app?vid=9713c2d9-3b19-4217-97be-c2241cc8de47"},"vehicle_type_id":"4","last_reported":1740575881,"current_range_meters":11600,"station_id":"ce4bha12rcd13ifvqee0","pricing_plan_id":"cebpf4jnsgd1na2vs0mg"},{"bike_id":"30b3726c-8d80-40f3-ade7-ad341bdcee20","system_id":"levelo_inurba_marseille","lat":43.2998,"lon":5.38511,"is_reserved":false,"is_disabled":false,"rental_uris":{"android":"levelo://app?vid=30b3726c-8d80-40f3-ade7-ad341bdcee20","ios":"levelo://app?vid=30b3726c-8d80-40f3-ade7-ad341bdcee20"},"vehicle_type_id":"4","last_reported":1740575881,"current_range_meters":4400,"station_id":"ce4bgj92rcd13ifvqbd0","pricing_plan_id":"cebpf4jnsgd1na2vs0mg"},{"bike_id":"1d8d2b2e-c3d0-4c5a-8528-f72969669e89","system_id":"levelo_inurba_marseille","lat":43.25505,"lon":5.37645,"is_reserved":false,"is_disabled":false,"rental_uris":{"android":"levelo://app?vid=1d8d2b2e-c3d0-4c5a-8528-f72969669e89","ios":"levelo://app?vid=1d8d2b2e-c3d0-4c5a-8528-f72969669e89"},"vehicle_type_id":"4","last_reported":1740575881,"current_range_meters":11600,"station_id":"ce4bhh12rcd13ifvqff0","pricing_plan_id":"cebpf4jnsgd1na2vs0mg"},{"bike_id":"90d62200-3998-4d07-9f1e-720136404e6a","system_id":"levelo_inurba_marseille","lat":43.28,"lon":5.4002,"is_reserved":false,"is_disabled":false,"rental_uris":{"android":"levelo://app?vid=90d62200-3998-4d07-9f1e-720136404e6a","ios":"levelo://app?vid=90d62200-3998-4d07-9f1e-720136404e6a"},"vehicle_type_id":"4","last_reported":1740575881,"current_range_meters":12000,"station_id":"ce4bho92rcd13ifvqh4g","pricing_plan_id":"cebpf4jnsgd1na2vs0mg"},{"bike_id":"df2b6808-8c0d-4f30-9be3-8afa5e31f82f","system_id":"levelo_inurba_marseille","lat":43.30881,"lon":5.39643,"is_reserved":false,"is_disabled":false,"rental_uris":{"android":"levelo://app?vid=df2b6808-8c0d-4f30-9be3-8afa5e31f82f","ios":"levelo://app?vid=df2b6808-8c0d-4f30-9be3-8afa5e31f82f"},"vehicle_type_id":"4","last_reported":1740575881,"current_range_meters":11600,"station_id":"ce4bh012rcd13ifvqcv0","pricing_plan_id":"cebpf4jnsgd1na2vs0mg"},{"bike_id":"892ec2a1-329c-4584-aeed-ad1895bfe3e4","system_id":"levelo_inurba_marseille","lat":43.26553,"lon":5.37284,"is_reserved":false,"is_disabled":false,"rental_uris":{"android":"levelo://app?vid=892ec2a1-329c-4584-aeed-ad1895bfe3e4","ios":"levelo://app?vid=892ec2a1-329c-4584-aeed-ad1895bfe3e4"},"vehicle_type_id":"4","last_reported":1740575881,"current_range_meters":12000,"station_id":"ce4bhg12rcd13ifvqf70","pricing_plan_id":"cebpf4jnsgd1na2vs0mg"},{"bike_id":"763b0198-834c-4f4a-902d-698b7b01f999","system_id":"levelo_inurba_marseille","lat":43.30882,"lon":5.3965,"is_reserved":false,"is_disabled":false,"rental_uris":{"android":"levelo://app?vid=763b0198-834c-4f4a-902d-698b7b01f999","ios":"levelo://app?vid=763b0198-834c-4f4a-902d-698b7b01f999"},"vehicle_type_id":"4","last_reported":1740575881,"current_range_meters":9600,"station_id":"ce4bh012rcd13ifvqcv0","pricing_plan_id":"cebpf4jnsgd1na2vs0mg"},{"bike_id":"9a20fe7e-bc3b-4161-9eac-4c3dcec69d8f","system_id":"levelo_inurba_marseille","lat":43.27564,"lon":5.38427,"is_reserved":false,"is_disabled":false,"rental_uris":{"android":"levelo://app?vid=9a20fe7e-bc3b-4161-9eac-4c3dcec69d8f","ios":"levelo://app?vid=9a20fe7e-bc3b-4161-9eac-4c3dcec69d8f"},"vehicle_type_id":"4","last_reported":1740575881,"current_range_meters":10800,"station_id":"ce4bhh92rcd13ifvqfi0","pricing_plan_id":"cebpf4jnsgd1na2vs0mg"},{"bike_id":"0b2f5009-1e4e-4593-8abd-b74dc1937c26","system_id":"levelo_inurba_marseille","lat":43.23182,"lon":5.399887,"is_reserved":false,"is_disabled":false,"rental_uris":{"android":"levelo://app?vid=0b2f5009-1e4e-4593-8abd-b74dc1937c26","ios":"levelo://app?vid=0b2f5009-1e4e-4593-8abd-b74dc1937c26"},"vehicle_type_id":"4","last_reported":1740575881,"current_range_meters":12000,"station_id":"ce4bhn12rcd13ifvqgqg","pricing_plan_id":"cebpf4jnsgd1na2vs0mg"},{"bike_id":"52832f17-343d-4a4b-8f6f-f4e9f87b0780","system_id":"levelo_inurba_marseille","lat":43.30416,"lon":5.41284,"is_reserved":false,"is_disabled":false,"rental_uris":{"android":"levelo://app?vid=52832f17-343d-4a4b-8f6f-f4e9f87b0780","ios":"levelo://app?vid=52832f17-343d-4a4b-8f6f-f4e9f87b0780"},"vehicle_type_id":"4","last_reported":1740575881,"current_range_meters":12000,"station_id":"ce4bhop2rcd13ifvqh8g","pricing_plan_id":"cebpf4jnsgd1na2vs0mg"},{"bike_id":"2f91c367-2cf8-49d9-8aad-cc00d46f9ede","system_id":"levelo_inurba_marseille","lat":43.29073,"lon":5.37159,"is_reserved":false,"is_disabled":false,"rental_uris":{"android":"levelo://app?vid=2f91c367-2cf8-49d9-8aad-cc00d46f9ede","ios":"levelo://app?vid=2f91c367-2cf8-49d9-8aad-cc00d46f9ede"},"vehicle_type_id":"4","last_reported":1740575881,"current_range_meters":11600,"station_id":"ce4bh5p2rcd13ifvqe4g","pricing_plan_id":"cebpf4jnsgd1na2vs0mg"},{"bike_id":"7c9cd80a-e5de-4f68-bca0-c6fc876262c6","system_id":"levelo_inurba_marseille","lat":43.28361,"lon":5.38639,"is_reserved":false,"is_disabled":false,"rental_uris":{"android":"levelo://app?vid=7c9cd80a-e5de-4f68-bca0-c6fc876262c6","ios":"levelo://app?vid=7c9cd80a-e5de-4f68-bca0-c6fc876262c6"},"vehicle_type_id":"4","last_reported":1740575881,"current_range_meters":12000,"station_id":"ce4bh492rcd13ifvqdvg","pricing_plan_id":"cebpf4jnsgd1na2vs0mg"},{"bike_id":"587e219c-397e-4771-a64f-cd811a3cc087","system_id":"levelo_inurba_marseille","lat":43.32476,"lon":5.36548,"is_reserved":false,"is_disabled":false,"rental_uris":{"android":"levelo://app?vid=587e219c-397e-4771-a64f-cd811a3cc087","ios":"levelo://app?vid=587e219c-397e-4771-a64f-cd811a3cc087"},"vehicle_type_id":"4","last_reported":1740575881,"current_range_meters":12000,"station_id":"ce4bhs12rcd13ifvqhvg","pricing_plan_id":"cebpf4jnsgd1na2vs0mg"},{"bike_id":"bc07e9a7-50af-4660-b0f1-01d1486f91be","system_id":"levelo_inurba_marseille","lat":43.30491,"lon":5.37914,"is_reserved":false,"is_disabled":false,"rental_uris":{"android":"levelo://app?vid=bc07e9a7-50af-4660-b0f1-01d1486f91be","ios":"levelo://app?vid=bc07e9a7-50af-4660-b0f1-01d1486f91be"},"vehicle_type_id":"4","last_reported":1740575881,"current_range_meters":12400,"station_id":"ce4bgup2rcd13ifvqcn0","pricing_plan_id":"cebpf4jnsgd1na2vs0mg"},{"bike_id":"634b0db3-eb2a-44d3-b72b-43fb39e98206","system_id":"levelo_inurba_marseille","lat":43.28707,"lon":5.3739,"is_reserved":false,"is_disabled":false,"rental_uris":{"android":"levelo://app?vid=634b0db3-eb2a-44d3-b72b-43fb39e98206","ios":"levelo://app?vid=634b0db3-eb2a-44d3-b72b-43fb39e98206"},"vehicle_type_id":"4","last_reported":1740575881,"current_range_meters":12400,"station_id":"ce4bh3p2rcd13ifvqdq0","pricing_plan_id":"cebpf4jnsgd1na2vs0mg"},{"bike_id":"d47e2fd8-3a54-4f9f-b187-49bb04a8bdb0","system_id":"levelo_inurba_marseille","lat":43.29713,"lon":5.37696,"is_reserved":false,"is_disabled":false,"rental_uris":{"android":"levelo://app?vid=d47e2fd8-3a54-4f9f-b187-49bb04a8bdb0","ios":"levelo://app?vid=d47e2fd8-3a54-4f9f-b187-49bb04a8bdb0"},"vehicle_type_id":"4","last_reported":1740575881,"current_range_meters":12400,"station_id":"ce4bgkh2rcd13ifvqbl0","pricing_plan_id":"cebpf4jnsgd1na2vs0mg"},{"bike_id":"f9eed1e4-1895-44e2-8624-cc9551693ed5","system_id":"levelo_inurba_marseille","lat":43.29854,"lon":5.3629,"is_reserved":false,"is_disabled":false,"rental_uris":{"android":"levelo://app?vid=f9eed1e4-1895-44e2-8624-cc9551693ed5","ios":"levelo://app?vid=f9eed1e4-1895-44e2-8624-cc9551693ed5"},"vehicle_type_id":"4","last_reported":1740575881,"current_range_meters":12800,"station_id":"ce4bgpp2rcd13ifvqc3g","pricing_plan_id":"cebpf4jnsgd1na2vs0mg"},{"bike_id":"d5ef1571-c6b9-4f13-96ed-bfaef3f9a56f","system_id":"levelo_inurba_marseille","lat":43.28953,"lon":5.36396,"is_reserved":false,"is_disabled":true,"rental_uris":{"android":"levelo://app?vid=d5ef1571-c6b9-4f13-96ed-bfaef3f9a56f","ios":"levelo://app?vid=d5ef1571-c6b9-4f13-96ed-bfaef3f9a56f"},"vehicle_type_id":"4","last_reported":1740575881,"current_range_meters":12800,"station_id":"ce4bhc92rcd13ifvqetg","pricing_plan_id":"cebpf4jnsgd1na2vs0mg"},{"bike_id":"0f5e10c3-1d50-4ef5-b91b-125e522e96a2","system_id":"levelo_inurba_marseille","lat":43.23183,"lon":5.39982,"is_reserved":false,"is_disabled":false,"rental_uris":{"android":"levelo://app?vid=0f5e10c3-1d50-4ef5-b91b-125e522e96a2","ios":"levelo://app?vid=0f5e10c3-1d50-4ef5-b91b-125e522e96a2"},"vehicle_type_id":"4","last_reported":1740575881,"current_range_meters":12400,"station_id":"ce4bhn12rcd13ifvqgqg","pricing_plan_id":"cebpf4jnsgd1na2vs0mg"},{"bike_id":"f41688e2-172f-42dc-90a1-23f61049305c","system_id":"levelo_inurba_marseille","lat":43.303175,"lon":5.386346,"is_reserved":false,"is_disabled":false,"rental_uris":{"android":"levelo://app?vid=f41688e2-172f-42dc-90a1-23f61049305c","ios":"levelo://app?vid=f41688e2-172f-42dc-90a1-23f61049305c"},"vehicle_type_id":"4","last_reported":1740575881,"current_range_meters":12800,"station_id":"ce4bgrp2rcd13ifvqc9g","pricing_plan_id":"cebpf4jnsgd1na2vs0mg"},{"bike_id":"6870dd4d-0932-4a1c-8b40-41780d878a21","system_id":"levelo_inurba_marseille","lat":43.28609,"lon":5.37058,"is_reserved":false,"is_disabled":false,"rental_uris":{"android":"levelo://app?vid=6870dd4d-0932-4a1c-8b40-41780d878a21","ios":"levelo://app?vid=6870dd4d-0932-4a1c-8b40-41780d878a21"},"vehicle_type_id":"4","last_reported":1740575881,"current_range_meters":13600,"station_id":"ce4bht12rcd13ifvqi60","pricing_plan_id":"cebpf4jnsgd1na2vs0mg"},{"bike_id":"9d8fd715-6506-497f-b998-3f021ad2c404","system_id":"levelo_inurba_marseille","lat":43.25929,"lon":5.40897,"is_reserved":false,"is_disabled":false,"rental_uris":{"android":"levelo://app?vid=9d8fd715-6506-497f-b998-3f021ad2c404","ios":"levelo://app?vid=9d8fd715-6506-497f-b998-3f021ad2c404"},"vehicle_type_id":"4","last_reported":1740575881,"current_range_meters":13600,"station_id":"ce4bhm92rcd13ifvqglg","pricing_plan_id":"cebpf4jnsgd1na2vs0mg"},{"bike_id":"4d9278da-8984-4f0f-96a4-1910c7929870","system_id":"levelo_inurba_marseille","lat":43.25728,"lon":5.41109,"is_reserved":false,"is_disabled":false,"rental_uris":{"android":"levelo://app?vid=4d9278da-8984-4f0f-96a4-1910c7929870","ios":"levelo://app?vid=4d9278da-8984-4f0f-96a4-1910c7929870"},"vehicle_type_id":"4","last_reported":1740575881,"current_range_meters":13600,"station_id":"ce4bhkp2rcd13ifvqgd0","pricing_plan_id":"cebpf4jnsgd1na2vs0mg"},{"bike_id":"65e8f8dd-53e2-4729-b441-c5d9a0776539","system_id":"levelo_inurba_marseille","lat":43.30575,"lon":5.37219,"is_reserved":false,"is_disabled":false,"rental_uris":{"android":"levelo://app?vid=65e8f8dd-53e2-4729-b441-c5d9a0776539","ios":"levelo://app?vid=65e8f8dd-53e2-4729-b441-c5d9a0776539"},"vehicle_type_id":"4","last_reported":1740575881,"current_range_meters":13600,"station_id":"ce4bgqh2rcd13ifvqc4g","pricing_plan_id":"cebpf4jnsgd1na2vs0mg"},{"bike_id":"d872eafb-fec3-4e73-bc38-203ac3352389","system_id":"levelo_inurba_marseille","lat":43.25121,"lon":5.4032,"is_reserved":false,"is_disabled":false,"rental_uris":{"android":"levelo://app?vid=d872eafb-fec3-4e73-bc38-203ac3352389","ios":"levelo://app?vid=d872eafb-fec3-4e73-bc38-203ac3352389"},"vehicle_type_id":"4","last_reported":1740575881,"current_range_meters":13600,"station_id":"ce4bhlh2rcd13ifvqgig","pricing_plan_id":"cebpf4jnsgd1na2vs0mg"},{"bike_id":"511df7e7-1330-4159-bb5d-325216084662","system_id":"levelo_inurba_marseille","lat":43.26553,"lon":5.37287,"is_reserved":false,"is_disabled":false,"rental_uris":{"android":"levelo://app?vid=511df7e7-1330-4159-bb5d-325216084662","ios":"levelo://app?vid=511df7e7-1330-4159-bb5d-325216084662"},"vehicle_type_id":"4","last_reported":1740575881,"current_range_meters":13600,"station_id":"ce4bhg12rcd13ifvqf70","pricing_plan_id":"cebpf4jnsgd1na2vs0mg"},{"bike_id":"ad9571bc-5194-4f71-90ef-f1cb0835f36e","system_id":"levelo_inurba_marseille","lat":43.25493,"lon":5.37657,"is_reserved":false,"is_disabled":false,"rental_uris":{"android":"levelo://app?vid=ad9571bc-5194-4f71-90ef-f1cb0835f36e","ios":"levelo://app?vid=ad9571bc-5194-4f71-90ef-f1cb0835f36e"},"vehicle_type_id":"4","last_reported":1740575881,"current_range_meters":14000,"station_id":"ce4bhh12rcd13ifvqff0","pricing_plan_id":"cebpf4jnsgd1na2vs0mg"},{"bike_id":"458228c6-c940-452b-8cd3-fed51d26c59e","system_id":"levelo_inurba_marseille","lat":43.29916,"lon":5.37484,"is_reserved":false,"is_disabled":false,"rental_uris":{"android":"levelo://app?vid=458228c6-c940-452b-8cd3-fed51d26c59e","ios":"levelo://app?vid=458228c6-c940-452b-8cd3-fed51d26c59e"},"vehicle_type_id":"4","last_reported":1740575881,"current_range_meters":14000,"station_id":"ce4bgjh2rcd13ifvqbg0","pricing_plan_id":"cebpf4jnsgd1na2vs0mg"},{"bike_id":"02028f5d-7181-4e7f-80ba-abb06cf96801","system_id":"levelo_inurba_marseille","lat":43.28417,"lon":5.34993,"is_reserved":false,"is_disabled":false,"rental_uris":{"android":"levelo://app?vid=02028f5d-7181-4e7f-80ba-abb06cf96801","ios":"levelo://app?vid=02028f5d-7181-4e7f-80ba-abb06cf96801"},"vehicle_type_id":"4","last_reported":1740575881,"current_range_meters":14000,"station_id":"ce4bhbh2rcd13ifvqepg","pricing_plan_id":"cebpf4jnsgd1na2vs0mg"},{"bike_id":"f66913d8-adc8-4497-b81a-8613461ae8a9","system_id":"levelo_inurba_marseille","lat":43.28421,"lon":5.34973,"is_reserved":false,"is_disabled":false,"rental_uris":{"android":"levelo://app?vid=f66913d8-adc8-4497-b81a-8613461ae8a9","ios":"levelo://app?vid=f66913d8-adc8-4497-b81a-8613461ae8a9"},"vehicle_type_id":"4","last_reported":1740575881,"current_range_meters":14400,"station_id":"ce4bhbh2rcd13ifvqepg","pricing_plan_id":"cebpf4jnsgd1na2vs0mg"},{"bike_id":"620faf8f-9860-4e84-b6cd-4559a0b9a89c","system_id":"levelo_inurba_marseille","lat":43.32488,"lon":5.3655,"is_reserved":false,"is_disabled":false,"rental_uris":{"android":"levelo://app?vid=620faf8f-9860-4e84-b6cd-4559a0b9a89c","ios":"levelo://app?vid=620faf8f-9860-4e84-b6cd-4559a0b9a89c"},"vehicle_type_id":"4","last_reported":1740575881,"current_range_meters":14400,"station_id":"ce4bhs12rcd13ifvqhvg","pricing_plan_id":"cebpf4jnsgd1na2vs0mg"},{"bike_id":"0ce13444-a4d1-47cb-a2c3-883895bd70b5","system_id":"levelo_inurba_marseille","lat":43.29266,"lon":5.38447,"is_reserved":false,"is_disabled":false,"rental_uris":{"android":"levelo://app?vid=0ce13444-a4d1-47cb-a2c3-883895bd70b5","ios":"levelo://app?vid=0ce13444-a4d1-47cb-a2c3-883895bd70b5"},"vehicle_type_id":"4","last_reported":1740575881,"current_range_meters":14000,"station_id":"ce4bh692rcd13ifvqea0","pricing_plan_id":"cebpf4jnsgd1na2vs0mg"},{"bike_id":"1ca5b1d5-5a53-46dd-b1b2-e83fd71df428","system_id":"levelo_inurba_marseille","lat":43.27949,"lon":5.41039,"is_reserved":false,"is_disabled":false,"rental_uris":{"android":"levelo://app?vid=1ca5b1d5-5a53-46dd-b1b2-e83fd71df428","ios":"levelo://app?vid=1ca5b1d5-5a53-46dd-b1b2-e83fd71df428"},"vehicle_type_id":"4","last_reported":1740575881,"current_range_meters":14000,"station_id":"ce4bhnp2rcd13ifvqh0g","pricing_plan_id":"cebpf4jnsgd1na2vs0mg"},{"bike_id":"159b2741-d8d0-4030-87b9-19d44dcb0fc5","system_id":"levelo_inurba_marseille","lat":43.28474,"lon":5.38421,"is_reserved":false,"is_disabled":false,"rental_uris":{"android":"levelo://app?vid=159b2741-d8d0-4030-87b9-19d44dcb0fc5","ios":"levelo://app?vid=159b2741-d8d0-4030-87b9-19d44dcb0fc5"},"vehicle_type_id":"4","last_reported":1740575881,"current_range_meters":14000,"station_id":"ce4bh512rcd13ifvqe3g","pricing_plan_id":"cebpf4jnsgd1na2vs0mg"},{"bike_id":"05d3ed84-27f8-4bce-9877-c99295e35460","system_id":"levelo_inurba_marseille","lat":43.23152,"lon":5.43708,"is_reserved":false,"is_disabled":false,"rental_uris":{"android":"levelo://app?vid=05d3ed84-27f8-4bce-9877-c99295e35460","ios":"levelo://app?vid=05d3ed84-27f8-4bce-9877-c99295e35460"},"vehicle_type_id":"4","last_reported":1740575881,"current_range_meters":14400,"station_id":"ce4bhmp2rcd13ifvqgog","pricing_plan_id":"cebpf4jnsgd1na2vs0mg"},{"bike_id":"0c376520-429d-4b9b-a87e-02a9b6f74102","system_id":"levelo_inurba_marseille","lat":43.29286,"lon":5.40093,"is_reserved":false,"is_disabled":false,"rental_uris":{"android":"levelo://app?vid=0c376520-429d-4b9b-a87e-02a9b6f74102","ios":"levelo://app?vid=0c376520-429d-4b9b-a87e-02a9b6f74102"},"vehicle_type_id":"4","last_reported":1740575881,"current_range_meters":14400,"station_id":"ce4bh312rcd13ifvqdk0","pricing_plan_id":"cebpf4jnsgd1na2vs0mg"},{"bike_id":"32a0413a-55a8-4ca0-9b53-934e5dee4be0","system_id":"levelo_inurba_marseille","lat":43.28701,"lon":5.37396,"is_reserved":false,"is_disabled":false,"rental_uris":{"android":"levelo://app?vid=32a0413a-55a8-4ca0-9b53-934e5dee4be0","ios":"levelo://app?vid=32a0413a-55a8-4ca0-9b53-934e5dee4be0"},"vehicle_type_id":"4","last_reported":1740575881,"current_range_meters":13600,"station_id":"ce4bh3p2rcd13ifvqdq0","pricing_plan_id":"cebpf4jnsgd1na2vs0mg"},{"bike_id":"c18a78e3-560a-4e3c-be55-e823511d3e57","system_id":"levelo_inurba_marseille","lat":43.23153,"lon":5.43701,"is_reserved":false,"is_disabled":false,"rental_uris":{"android":"levelo://app?vid=c18a78e3-560a-4e3c-be55-e823511d3e57","ios":"levelo://app?vid=c18a78e3-560a-4e3c-be55-e823511d3e57"},"vehicle_type_id":"4","last_reported":1740575881,"current_range_meters":14800,"station_id":"ce4bhmp2rcd13ifvqgog","pricing_plan_id":"cebpf4jnsgd1na2vs0mg"},{"bike_id":"9dc7e2d5-119c-4c57-96cd-7fcca21c9c6c","system_id":"levelo_inurba_marseille","lat":43.32476,"lon":5.36582,"is_reserved":false,"is_disabled":false,"rental_uris":{"android":"levelo://app?vid=9dc7e2d5-119c-4c57-96cd-7fcca21c9c6c","ios":"levelo://app?vid=9dc7e2d5-119c-4c57-96cd-7fcca21c9c6c"},"vehicle_type_id":"4","last_reported":1740575881,"current_range_meters":15200,"station_id":"ce4bhs12rcd13ifvqhvg","pricing_plan_id":"cebpf4jnsgd1na2vs0mg"},{"bike_id":"19e4983d-b74d-4524-9c14-80fb6905f947","system_id":"levelo_inurba_marseille","lat":43.32094,"lon":5.36773,"is_reserved":false,"is_disabled":false,"rental_uris":{"android":"levelo://app?vid=19e4983d-b74d-4524-9c14-80fb6905f947","ios":"levelo://app?vid=19e4983d-b74d-4524-9c14-80fb6905f947"},"vehicle_type_id":"4","last_reported":1740575881,"current_range_meters":14800,"station_id":"ce4bhrh2rcd13ifvqhug","pricing_plan_id":"cebpf4jnsgd1na2vs0mg"},{"bike_id":"41bcbd39-dc6c-4708-80c1-49116771c9e4","system_id":"levelo_inurba_marseille","lat":43.2894,"lon":5.36686,"is_reserved":false,"is_disabled":false,"rental_uris":{"android":"levelo://app?vid=41bcbd39-dc6c-4708-80c1-49116771c9e4","ios":"levelo://app?vid=41bcbd39-dc6c-4708-80c1-49116771c9e4"},"vehicle_type_id":"4","last_reported":1740575881,"current_range_meters":15200,"station_id":"ce4bhap2rcd13ifvqek0","pricing_plan_id":"cebpf4jnsgd1na2vs0mg"},{"bike_id":"f4c79d00-18bc-4a8b-8cc1-27673ac530a0","system_id":"levelo_inurba_marseille","lat":43.29975,"lon":5.38489,"is_reserved":false,"is_disabled":false,"rental_uris":{"android":"levelo://app?vid=f4c79d00-18bc-4a8b-8cc1-27673ac530a0","ios":"levelo://app?vid=f4c79d00-18bc-4a8b-8cc1-27673ac530a0"},"vehicle_type_id":"4","last_reported":1740575881,"current_range_meters":14400,"station_id":"ce4bgj92rcd13ifvqbd0","pricing_plan_id":"cebpf4jnsgd1na2vs0mg"},{"bike_id":"3e2fb493-45cf-43d5-b727-2aaee5107cd1","system_id":"levelo_inurba_marseille","lat":43.30134,"lon":5.38779,"is_reserved":false,"is_disabled":false,"rental_uris":{"android":"levelo://app?vid=3e2fb493-45cf-43d5-b727-2aaee5107cd1","ios":"levelo://app?vid=3e2fb493-45cf-43d5-b727-2aaee5107cd1"},"vehicle_type_id":"4","last_reported":1740575881,"current_range_meters":14800,"station_id":"ce4bghh2rcd13ifvqb60","pricing_plan_id":"cebpf4jnsgd1na2vs0mg"},{"bike_id":"3fefd632-ceb6-4e6f-ac3b-6af1be92e2b5","system_id":"levelo_inurba_marseille","lat":43.23174,"lon":5.3999,"is_reserved":false,"is_disabled":false,"rental_uris":{"android":"levelo://app?vid=3fefd632-ceb6-4e6f-ac3b-6af1be92e2b5","ios":"levelo://app?vid=3fefd632-ceb6-4e6f-ac3b-6af1be92e2b5"},"vehicle_type_id":"4","last_reported":1740575881,"current_range_meters":16000,"station_id":"ce4bhn12rcd13ifvqgqg","pricing_plan_id":"cebpf4jnsgd1na2vs0mg"},{"bike_id":"fe1631a9-3e67-49e1-85fd-125ba8b56f7d","system_id":"levelo_inurba_marseille","lat":43.27072,"lon":5.42289,"is_reserved":false,"is_disabled":false,"rental_uris":{"android":"levelo://app?vid=fe1631a9-3e67-49e1-85fd-125ba8b56f7d","ios":"levelo://app?vid=fe1631a9-3e67-49e1-85fd-125ba8b56f7d"},"vehicle_type_id":"4","last_reported":1740575881,"current_range_meters":16000,"station_id":"ce4bhk92rcd13ifvqgb0","pricing_plan_id":"cebpf4jnsgd1na2vs0mg"},{"bike_id":"f9072efe-f6bb-4090-8507-74a37ee33385","system_id":"levelo_inurba_marseille","lat":43.28788,"lon":5.35233,"is_reserved":false,"is_disabled":false,"rental_uris":{"android":"levelo://app?vid=f9072efe-f6bb-4090-8507-74a37ee33385","ios":"levelo://app?vid=f9072efe-f6bb-4090-8507-74a37ee33385"},"vehicle_type_id":"4","last_reported":1740575881,"current_range_meters":15200,"station_id":"ce4bha92rcd13ifvqeg0","pricing_plan_id":"cebpf4jnsgd1na2vs0mg"},{"bike_id":"ad5291e1-8eb3-448c-aea2-bcc75fa0f4c9","system_id":"levelo_inurba_marseille","lat":43.29273,"lon":5.36846,"is_reserved":false,"is_disabled":false,"rental_uris":{"android":"levelo://app?vid=ad5291e1-8eb3-448c-aea2-bcc75fa0f4c9","ios":"levelo://app?vid=ad5291e1-8eb3-448c-aea2-bcc75fa0f4c9"},"vehicle_type_id":"4","last_reported":1740575881,"current_range_meters":16800,"station_id":"ce4bhbp2rcd13ifvqesg","pricing_plan_id":"cebpf4jnsgd1na2vs0mg"},{"bike_id":"c1f5384a-71a2-4dad-80de-d395c09980f5","system_id":"levelo_inurba_marseille","lat":43.31365,"lon":5.3668,"is_reserved":false,"is_disabled":false,"rental_uris":{"android":"levelo://app?vid=c1f5384a-71a2-4dad-80de-d395c09980f5","ios":"levelo://app?vid=c1f5384a-71a2-4dad-80de-d395c09980f5"},"vehicle_type_id":"4","last_reported":1740575881,"current_range_meters":16400,"station_id":"ce4bgr92rcd13ifvqc6g","pricing_plan_id":"cebpf4jnsgd1na2vs0mg"},{"bike_id":"eef1c740-0b96-412e-a425-2f1f9dc0b604","system_id":"levelo_inurba_marseille","lat":43.30425,"lon":5.38893,"is_reserved":false,"is_disabled":false,"rental_uris":{"android":"levelo://app?vid=eef1c740-0b96-412e-a425-2f1f9dc0b604","ios":"levelo://app?vid=eef1c740-0b96-412e-a425-2f1f9dc0b604"},"vehicle_type_id":"4","last_reported":1740575881,"current_range_meters":16000,"station_id":"ce4bgk12rcd13ifvqbi0","pricing_plan_id":"cebpf4jnsgd1na2vs0mg"},{"bike_id":"17973595-0627-4cbe-be09-6d52168568c1","system_id":"levelo_inurba_marseille","lat":43.27806,"lon":5.40708,"is_reserved":false,"is_disabled":false,"rental_uris":{"android":"levelo://app?vid=17973595-0627-4cbe-be09-6d52168568c1","ios":"levelo://app?vid=17973595-0627-4cbe-be09-6d52168568c1"},"vehicle_type_id":"4","last_reported":1740575881,"current_range_meters":16000,"station_id":"ce4bhnh2rcd13ifvqgtg","pricing_plan_id":"cebpf4jnsgd1na2vs0mg"},{"bike_id":"d79740e8-2b58-4dab-9092-7c075618d6db","system_id":"levelo_inurba_marseille","lat":43.23175,"lon":5.39978,"is_reserved":false,"is_disabled":false,"rental_uris":{"android":"levelo://app?vid=d79740e8-2b58-4dab-9092-7c075618d6db","ios":"levelo://app?vid=d79740e8-2b58-4dab-9092-7c075618d6db"},"vehicle_type_id":"4","last_reported":1740575881,"current_range_meters":16000,"station_id":"ce4bhn12rcd13ifvqgqg","pricing_plan_id":"cebpf4jnsgd1na2vs0mg"},{"bike_id":"f3c1842a-b552-4e04-b90a-c61f62f8a561","system_id":"levelo_inurba_marseille","lat":43.26199,"lon":5.37449,"is_reserved":false,"is_disabled":false,"rental_uris":{"android":"levelo://app?vid=f3c1842a-b552-4e04-b90a-c61f62f8a561","ios":"levelo://app?vid=f3c1842a-b552-4e04-b90a-c61f62f8a561"},"vehicle_type_id":"4","last_reported":1740575881,"current_range_meters":16400,"station_id":"ce4bhgp2rcd13ifvqfc0","pricing_plan_id":"cebpf4jnsgd1na2vs0mg"},{"bike_id":"e739437e-cb68-4a15-9f00-63739e5c52fa","system_id":"levelo_inurba_marseille","lat":43.28154,"lon":5.42642,"is_reserved":false,"is_disabled":false,"rental_uris":{"android":"levelo://app?vid=e739437e-cb68-4a15-9f00-63739e5c52fa","ios":"levelo://app?vid=e739437e-cb68-4a15-9f00-63739e5c52fa"},"vehicle_type_id":"4","last_reported":1740575881,"current_range_meters":16400,"station_id":"ce4bhnh2rcd13ifvqgug","pricing_plan_id":"cebpf4jnsgd1na2vs0mg"},{"bike_id":"d0eed576-967a-4a22-90f0-1b8c0372f57a","system_id":"levelo_inurba_marseille","lat":43.25001,"lon":5.38926,"is_reserved":false,"is_disabled":false,"rental_uris":{"android":"levelo://app?vid=d0eed576-967a-4a22-90f0-1b8c0372f57a","ios":"levelo://app?vid=d0eed576-967a-4a22-90f0-1b8c0372f57a"},"vehicle_type_id":"4","last_reported":1740575881,"current_range_meters":16400,"station_id":"ce4bhgp2rcd13ifvqfd0","pricing_plan_id":"cebpf4jnsgd1na2vs0mg"},{"bike_id":"7f5dbe42-da8b-47f5-9beb-ac4cf767c9c8","system_id":"levelo_inurba_marseille","lat":43.312149,"lon":5.368772,"is_reserved":false,"is_disabled":false,"rental_uris":{"android":"levelo://app?vid=7f5dbe42-da8b-47f5-9beb-ac4cf767c9c8","ios":"levelo://app?vid=7f5dbe42-da8b-47f5-9beb-ac4cf767c9c8"},"vehicle_type_id":"4","last_reported":1740575881,"current_range_meters":16400,"station_id":"ce4bgl92rcd13ifvqbq0","pricing_plan_id":"cebpf4jnsgd1na2vs0mg"},{"bike_id":"bc7461ca-1682-41e7-9fc6-e3f877a41ac9","system_id":"levelo_inurba_marseille","lat":43.29192,"lon":5.3581,"is_reserved":false,"is_disabled":false,"rental_uris":{"android":"levelo://app?vid=bc7461ca-1682-41e7-9fc6-e3f877a41ac9","ios":"levelo://app?vid=bc7461ca-1682-41e7-9fc6-e3f877a41ac9"},"vehicle_type_id":"4","last_reported":1740575881,"current_range_meters":16000,"station_id":"ce4bhb12rcd13ifvqel0","pricing_plan_id":"cebpf4jnsgd1na2vs0mg"},{"bike_id":"c81a71b5-725f-45bd-8a34-41e6bba0b7fc","system_id":"levelo_inurba_marseille","lat":43.30475,"lon":5.37911,"is_reserved":false,"is_disabled":false,"rental_uris":{"android":"levelo://app?vid=c81a71b5-725f-45bd-8a34-41e6bba0b7fc","ios":"levelo://app?vid=c81a71b5-725f-45bd-8a34-41e6bba0b7fc"},"vehicle_type_id":"4","last_reported":1740575881,"current_range_meters":16800,"station_id":"ce4bgup2rcd13ifvqcn0","pricing_plan_id":"cebpf4jnsgd1na2vs0mg"},{"bike_id":"14db290c-95f6-4ab6-a427-22bcb2234046","system_id":"levelo_inurba_marseille","lat":43.28445,"lon":5.39206,"is_reserved":false,"is_disabled":false,"rental_uris":{"android":"levelo://app?vid=14db290c-95f6-4ab6-a427-22bcb2234046","ios":"levelo://app?vid=14db290c-95f6-4ab6-a427-22bcb2234046"},"vehicle_type_id":"4","last_reported":1740575881,"current_range_meters":16400,"station_id":"ce4bhoh2rcd13ifvqh5g","pricing_plan_id":"cebpf4jnsgd1na2vs0mg"},{"bike_id":"f35d6126-178c-4c08-8343-6bcc4ce94aad","system_id":"levelo_inurba_marseille","lat":43.24179,"lon":5.39727,"is_reserved":false,"is_disabled":false,"rental_uris":{"android":"levelo://app?vid=f35d6126-178c-4c08-8343-6bcc4ce94aad","ios":"levelo://app?vid=f35d6126-178c-4c08-8343-6bcc4ce94aad"},"vehicle_type_id":"4","last_reported":1740575881,"current_range_meters":16400,"station_id":"ce4bhn12rcd13ifvqgpg","pricing_plan_id":"cebpf4jnsgd1na2vs0mg"},{"bike_id":"988d3551-a5f4-40dd-9956-75ad952a9a24","system_id":"levelo_inurba_marseille","lat":43.291866,"lon":5.358014,"is_reserved":false,"is_disabled":false,"rental_uris":{"android":"levelo://app?vid=988d3551-a5f4-40dd-9956-75ad952a9a24","ios":"levelo://app?vid=988d3551-a5f4-40dd-9956-75ad952a9a24"},"vehicle_type_id":"4","last_reported":1740575881,"current_range_meters":16400,"station_id":"ce4bhb12rcd13ifvqel0","pricing_plan_id":"cebpf4jnsgd1na2vs0mg"},{"bike_id":"034c6501-d76f-447e-bd17-5193d124ca28","system_id":"levelo_inurba_marseille","lat":43.301185,"lon":5.398688,"is_reserved":false,"is_disabled":false,"rental_uris":{"android":"levelo://app?vid=034c6501-d76f-447e-bd17-5193d124ca28","ios":"levelo://app?vid=034c6501-d76f-447e-bd17-5193d124ca28"},"vehicle_type_id":"4","last_reported":1740575881,"current_range_meters":16400,"station_id":"ce4bh392rcd13ifvqdl0","pricing_plan_id":"cebpf4jnsgd1na2vs0mg"},{"bike_id":"6d5fa45a-73a1-46fb-8e37-58fdd6e80caf","system_id":"levelo_inurba_marseille","lat":43.28355,"lon":5.38097,"is_reserved":false,"is_disabled":false,"rental_uris":{"android":"levelo://app?vid=6d5fa45a-73a1-46fb-8e37-58fdd6e80caf","ios":"levelo://app?vid=6d5fa45a-73a1-46fb-8e37-58fdd6e80caf"},"vehicle_type_id":"4","last_reported":1740575881,"current_range_meters":16800,"station_id":"ce4bh412rcd13ifvqdr0","pricing_plan_id":"cebpf4jnsgd1na2vs0mg"},{"bike_id":"30a71111-bf3d-4c21-ad67-8d0972e27cbb","system_id":"levelo_inurba_marseille","lat":43.29259,"lon":5.40901,"is_reserved":false,"is_disabled":false,"rental_uris":{"android":"levelo://app?vid=30a71111-bf3d-4c21-ad67-8d0972e27cbb","ios":"levelo://app?vid=30a71111-bf3d-4c21-ad67-8d0972e27cbb"},"vehicle_type_id":"4","last_reported":1740575881,"current_range_meters":16400,"station_id":"ce4bh192rcd13ifvqdc0","pricing_plan_id":"cebpf4jnsgd1na2vs0mg"},{"bike_id":"a92380cc-78fd-4545-85ce-2589fea4cafc","system_id":"levelo_inurba_marseille","lat":43.27679,"lon":5.38886,"is_reserved":false,"is_disabled":false,"rental_uris":{"android":"levelo://app?vid=a92380cc-78fd-4545-85ce-2589fea4cafc","ios":"levelo://app?vid=a92380cc-78fd-4545-85ce-2589fea4cafc"},"vehicle_type_id":"4","last_reported":1740575881,"current_range_meters":16800,"station_id":"ce4bhi12rcd13ifvqfo0","pricing_plan_id":"cebpf4jnsgd1na2vs0mg"},{"bike_id":"128d9f19-560e-4907-b2b5-99db2fe70c71","system_id":"levelo_inurba_marseille","lat":43.33764,"lon":5.37435,"is_reserved":false,"is_disabled":false,"rental_uris":{"android":"levelo://app?vid=128d9f19-560e-4907-b2b5-99db2fe70c71","ios":"levelo://app?vid=128d9f19-560e-4907-b2b5-99db2fe70c71"},"vehicle_type_id":"4","last_reported":1740575881,"current_range_meters":17200,"station_id":"","pricing_plan_id":"cebpf4jnsgd1na2vs0mg"},{"bike_id":"164ecb62-d5e6-4f55-b2b0-0615560becff","system_id":"levelo_inurba_marseille","lat":43.28033,"lon":5.36949,"is_reserved":false,"is_disabled":false,"rental_uris":{"android":"levelo://app?vid=164ecb62-d5e6-4f55-b2b0-0615560becff","ios":"levelo://app?vid=164ecb62-d5e6-4f55-b2b0-0615560becff"},"vehicle_type_id":"4","last_reported":1740575881,"current_range_meters":17200,"station_id":"ce4bha12rcd13ifvqef0","pricing_plan_id":"cebpf4jnsgd1na2vs0mg"},{"bike_id":"ecf2d4e0-a710-4798-a02a-aca4fc8b72dc","system_id":"levelo_inurba_marseille","lat":43.28353,"lon":5.38104,"is_reserved":false,"is_disabled":false,"rental_uris":{"android":"levelo://app?vid=ecf2d4e0-a710-4798-a02a-aca4fc8b72dc","ios":"levelo://app?vid=ecf2d4e0-a710-4798-a02a-aca4fc8b72dc"},"vehicle_type_id":"4","last_reported":1740575881,"current_range_meters":16800,"station_id":"ce4bh412rcd13ifvqdr0","pricing_plan_id":"cebpf4jnsgd1na2vs0mg"},{"bike_id":"072059ca-b533-4201-a9d8-cc256662ae7d","system_id":"levelo_inurba_marseille","lat":43.23172,"lon":5.43723,"is_reserved":false,"is_disabled":false,"rental_uris":{"android":"levelo://app?vid=072059ca-b533-4201-a9d8-cc256662ae7d","ios":"levelo://app?vid=072059ca-b533-4201-a9d8-cc256662ae7d"},"vehicle_type_id":"4","last_reported":1740575881,"current_range_meters":16800,"station_id":"ce4bhmp2rcd13ifvqgog","pricing_plan_id":"cebpf4jnsgd1na2vs0mg"},{"bike_id":"c846b99b-51ad-4769-adfb-7038119d22c8","system_id":"levelo_inurba_marseille","lat":43.29843,"lon":5.37655,"is_reserved":false,"is_disabled":false,"rental_uris":{"android":"levelo://app?vid=c846b99b-51ad-4769-adfb-7038119d22c8","ios":"levelo://app?vid=c846b99b-51ad-4769-adfb-7038119d22c8"},"vehicle_type_id":"4","last_reported":1740575881,"current_range_meters":17200,"station_id":"","pricing_plan_id":"cebpf4jnsgd1na2vs0mg"},{"bike_id":"dfd108fa-40f0-4f77-9aa3-60c5019f786d","system_id":"levelo_inurba_marseille","lat":43.28701,"lon":5.37386,"is_reserved":false,"is_disabled":false,"rental_uris":{"android":"levelo://app?vid=dfd108fa-40f0-4f77-9aa3-60c5019f786d","ios":"levelo://app?vid=dfd108fa-40f0-4f77-9aa3-60c5019f786d"},"vehicle_type_id":"4","last_reported":1740575881,"current_range_meters":16800,"station_id":"ce4bh3p2rcd13ifvqdq0","pricing_plan_id":"cebpf4jnsgd1na2vs0mg"},{"bike_id":"7ec42236-2837-4efd-84de-fb4fe4439efa","system_id":"levelo_inurba_marseille","lat":43.24078,"lon":5.37743,"is_reserved":false,"is_disabled":false,"rental_uris":{"android":"levelo://app?vid=7ec42236-2837-4efd-84de-fb4fe4439efa","ios":"levelo://app?vid=7ec42236-2837-4efd-84de-fb4fe4439efa"},"vehicle_type_id":"4","last_reported":1740575881,"current_range_meters":16400,"station_id":"ce4bhnp2rcd13ifvqgvg","pricing_plan_id":"cebpf4jnsgd1na2vs0mg"},{"bike_id":"d52621a7-0a55-4e5b-8a76-da13389902cc","system_id":"levelo_inurba_marseille","lat":43.25364,"lon":5.42601,"is_reserved":false,"is_disabled":false,"rental_uris":{"android":"levelo://app?vid=d52621a7-0a55-4e5b-8a76-da13389902cc","ios":"levelo://app?vid=d52621a7-0a55-4e5b-8a76-da13389902cc"},"vehicle_type_id":"4","last_reported":1740575881,"current_range_meters":16800,"station_id":"","pricing_plan_id":"cebpf4jnsgd1na2vs0mg"},{"bike_id":"92ef393e-531d-473a-be26-fa92b6713f16","system_id":"levelo_inurba_marseille","lat":43.23146,"lon":5.43715,"is_reserved":false,"is_disabled":false,"rental_uris":{"android":"levelo://app?vid=92ef393e-531d-473a-be26-fa92b6713f16","ios":"levelo://app?vid=92ef393e-531d-473a-be26-fa92b6713f16"},"vehicle_type_id":"4","last_reported":1740575881,"current_range_meters":16800,"station_id":"ce4bhmp2rcd13ifvqgog","pricing_plan_id":"cebpf4jnsgd1na2vs0mg"},{"bike_id":"5f7b420b-32f0-45cf-bc00-07beba71a552","system_id":"levelo_inurba_marseille","lat":43.24807,"lon":5.3746,"is_reserved":false,"is_disabled":false,"rental_uris":{"android":"levelo://app?vid=5f7b420b-32f0-45cf-bc00-07beba71a552","ios":"levelo://app?vid=5f7b420b-32f0-45cf-bc00-07beba71a552"},"vehicle_type_id":"4","last_reported":1740575881,"current_range_meters":17200,"station_id":"ce4bhgh2rcd13ifvqfb0","pricing_plan_id":"cebpf4jnsgd1na2vs0mg"},{"bike_id":"c94245a2-b930-42f4-b759-065cc68c713c","system_id":"levelo_inurba_marseille","lat":43.279,"lon":5.38012,"is_reserved":false,"is_disabled":false,"rental_uris":{"android":"levelo://app?vid=c94245a2-b930-42f4-b759-065cc68c713c","ios":"levelo://app?vid=c94245a2-b930-42f4-b759-065cc68c713c"},"vehicle_type_id":"4","last_reported":1740575881,"current_range_meters":16800,"station_id":"ce4bhf92rcd13ifvqf50","pricing_plan_id":"cebpf4jnsgd1na2vs0mg"},{"bike_id":"32022f30-217e-4459-b186-dd7b6ca601cd","system_id":"levelo_inurba_marseille","lat":43.27801,"lon":5.40701,"is_reserved":false,"is_disabled":false,"rental_uris":{"android":"levelo://app?vid=32022f30-217e-4459-b186-dd7b6ca601cd","ios":"levelo://app?vid=32022f30-217e-4459-b186-dd7b6ca601cd"},"vehicle_type_id":"4","last_reported":1740575881,"current_range_meters":17200,"station_id":"ce4bhnh2rcd13ifvqgtg","pricing_plan_id":"cebpf4jnsgd1na2vs0mg"},{"bike_id":"4b614e92-ff70-436b-bd52-2ee5e5970032","system_id":"levelo_inurba_marseille","lat":43.31223,"lon":5.3687,"is_reserved":false,"is_disabled":false,"rental_uris":{"android":"levelo://app?vid=4b614e92-ff70-436b-bd52-2ee5e5970032","ios":"levelo://app?vid=4b614e92-ff70-436b-bd52-2ee5e5970032"},"vehicle_type_id":"4","last_reported":1740575881,"current_range_meters":17200,"station_id":"ce4bgl92rcd13ifvqbq0","pricing_plan_id":"cebpf4jnsgd1na2vs0mg"},{"bike_id":"bfa6f7d2-c3a6-4c76-b5b5-4810d3f504bd","system_id":"levelo_inurba_marseille","lat":43.27056,"lon":5.40271,"is_reserved":false,"is_disabled":false,"rental_uris":{"android":"levelo://app?vid=bfa6f7d2-c3a6-4c76-b5b5-4810d3f504bd","ios":"levelo://app?vid=bfa6f7d2-c3a6-4c76-b5b5-4810d3f504bd"},"vehicle_type_id":"4","last_reported":1740575881,"current_range_meters":17200,"station_id":"ce4bhk92rcd13ifvqgc0","pricing_plan_id":"cebpf4jnsgd1na2vs0mg"},{"bike_id":"ee7498ac-afae-4101-a827-ddb2ec43033c","system_id":"levelo_inurba_marseille","lat":43.23188,"lon":5.39994,"is_reserved":false,"is_disabled":false,"rental_uris":{"android":"levelo://app?vid=ee7498ac-afae-4101-a827-ddb2ec43033c","ios":"levelo://app?vid=ee7498ac-afae-4101-a827-ddb2ec43033c"},"vehicle_type_id":"4","last_reported":1740575881,"current_range_meters":17200,"station_id":"ce4bhn12rcd13ifvqgqg","pricing_plan_id":"cebpf4jnsgd1na2vs0mg"},{"bike_id":"dce6a45d-a186-4622-b6ab-8415b11af67e","system_id":"levelo_inurba_marseille","lat":43.28938,"lon":5.36389,"is_reserved":false,"is_disabled":false,"rental_uris":{"android":"levelo://app?vid=dce6a45d-a186-4622-b6ab-8415b11af67e","ios":"levelo://app?vid=dce6a45d-a186-4622-b6ab-8415b11af67e"},"vehicle_type_id":"4","last_reported":1740575881,"current_range_meters":16800,"station_id":"ce4bhc92rcd13ifvqetg","pricing_plan_id":"cebpf4jnsgd1na2vs0mg"},{"bike_id":"6ba41880-4bfc-44b3-a52e-522b481bab64","system_id":"levelo_inurba_marseille","lat":43.28377,"lon":5.38638,"is_reserved":false,"is_disabled":false,"rental_uris":{"android":"levelo://app?vid=6ba41880-4bfc-44b3-a52e-522b481bab64","ios":"levelo://app?vid=6ba41880-4bfc-44b3-a52e-522b481bab64"},"vehicle_type_id":"4","last_reported":1740575881,"current_range_meters":18000,"station_id":"ce4bh492rcd13ifvqdvg","pricing_plan_id":"cebpf4jnsgd1na2vs0mg"},{"bike_id":"66df6a1e-596a-4325-912b-c2b8ba928525","system_id":"levelo_inurba_marseille","lat":43.30291,"lon":5.39221,"is_reserved":false,"is_disabled":false,"rental_uris":{"android":"levelo://app?vid=66df6a1e-596a-4325-912b-c2b8ba928525","ios":"levelo://app?vid=66df6a1e-596a-4325-912b-c2b8ba928525"},"vehicle_type_id":"4","last_reported":1740575881,"current_range_meters":17200,"station_id":"ce4bgkh2rcd13ifvqbk0","pricing_plan_id":"cebpf4jnsgd1na2vs0mg"},{"bike_id":"450a8708-2510-4e55-bc4d-72d560bb11b8","system_id":"levelo_inurba_marseille","lat":43.31718,"lon":5.42402,"is_reserved":false,"is_disabled":false,"rental_uris":{"android":"levelo://app?vid=450a8708-2510-4e55-bc4d-72d560bb11b8","ios":"levelo://app?vid=450a8708-2510-4e55-bc4d-72d560bb11b8"},"vehicle_type_id":"4","last_reported":1740575881,"current_range_meters":17200,"station_id":"ce4bhp92rcd13ifvqhbg","pricing_plan_id":"cebpf4jnsgd1na2vs0mg"},{"bike_id":"c960a6fc-b546-4c93-a520-c1731c5fec94","system_id":"levelo_inurba_marseille","lat":43.28408,"lon":5.34978,"is_reserved":false,"is_disabled":false,"rental_uris":{"android":"levelo://app?vid=c960a6fc-b546-4c93-a520-c1731c5fec94","ios":"levelo://app?vid=c960a6fc-b546-4c93-a520-c1731c5fec94"},"vehicle_type_id":"4","last_reported":1740575881,"current_range_meters":17200,"station_id":"ce4bhbh2rcd13ifvqepg","pricing_plan_id":"cebpf4jnsgd1na2vs0mg"},{"bike_id":"4e2d0c9b-a305-462c-b78e-d94f06ea04a0","system_id":"levelo_inurba_marseille","lat":43.29257,"lon":5.38431,"is_reserved":false,"is_disabled":true,"rental_uris":{"android":"levelo://app?vid=4e2d0c9b-a305-462c-b78e-d94f06ea04a0","ios":"levelo://app?vid=4e2d0c9b-a305-462c-b78e-d94f06ea04a0"},"vehicle_type_id":"4","last_reported":1740575881,"current_range_meters":17600,"station_id":"ce4bh692rcd13ifvqea0","pricing_plan_id":"cebpf4jnsgd1na2vs0mg"},{"bike_id":"c72b354a-7ac8-4b70-a688-e6c0ed969746","system_id":"levelo_inurba_marseille","lat":43.29316,"lon":5.37163,"is_reserved":false,"is_disabled":true,"rental_uris":{"android":"levelo://app?vid=c72b354a-7ac8-4b70-a688-e6c0ed969746","ios":"levelo://app?vid=c72b354a-7ac8-4b70-a688-e6c0ed969746"},"vehicle_type_id":"4","last_reported":1740575881,"current_range_meters":17200,"station_id":"ce4bgh92rcd13ifvqb40","pricing_plan_id":"cebpf4jnsgd1na2vs0mg"},{"bike_id":"cdb1f9ed-47e0-4956-9e39-d11da92ab4d2","system_id":"levelo_inurba_marseille","lat":43.30545,"lon":5.37296,"is_reserved":false,"is_disabled":false,"rental_uris":{"android":"levelo://app?vid=cdb1f9ed-47e0-4956-9e39-d11da92ab4d2","ios":"levelo://app?vid=cdb1f9ed-47e0-4956-9e39-d11da92ab4d2"},"vehicle_type_id":"4","last_reported":1740575881,"current_range_meters":17200,"station_id":"ce4bgqh2rcd13ifvqc4g","pricing_plan_id":"cebpf4jnsgd1na2vs0mg"},{"bike_id":"6202b189-9ebb-4798-abff-1e28411d61ad","system_id":"levelo_inurba_marseille","lat":43.23151,"lon":5.43711,"is_reserved":false,"is_disabled":false,"rental_uris":{"android":"levelo://app?vid=6202b189-9ebb-4798-abff-1e28411d61ad","ios":"levelo://app?vid=6202b189-9ebb-4798-abff-1e28411d61ad"},"vehicle_type_id":"4","last_reported":1740575881,"current_range_meters":16800,"station_id":"ce4bhmp2rcd13ifvqgog","pricing_plan_id":"cebpf4jnsgd1na2vs0mg"},{"bike_id":"2b11ad2b-9103-47a6-b8bd-35cb560a6640","system_id":"levelo_inurba_marseille","lat":43.2842,"lon":5.34986,"is_reserved":false,"is_disabled":false,"rental_uris":{"android":"levelo://app?vid=2b11ad2b-9103-47a6-b8bd-35cb560a6640","ios":"levelo://app?vid=2b11ad2b-9103-47a6-b8bd-35cb560a6640"},"vehicle_type_id":"4","last_reported":1740575881,"current_range_meters":18000,"station_id":"ce4bhbh2rcd13ifvqepg","pricing_plan_id":"cebpf4jnsgd1na2vs0mg"},{"bike_id":"9ce32efb-e360-4f18-a4da-9e7ab30417be","system_id":"levelo_inurba_marseille","lat":43.26201,"lon":5.37931,"is_reserved":false,"is_disabled":false,"rental_uris":{"android":"levelo://app?vid=9ce32efb-e360-4f18-a4da-9e7ab30417be","ios":"levelo://app?vid=9ce32efb-e360-4f18-a4da-9e7ab30417be"},"vehicle_type_id":"4","last_reported":1740575881,"current_range_meters":17600,"station_id":"ce4bhjp2rcd13ifvqg90","pricing_plan_id":"cebpf4jnsgd1na2vs0mg"},{"bike_id":"89e44665-812f-48fa-aa8d-ed00c6be9914","system_id":"levelo_inurba_marseille","lat":43.25814,"lon":5.39434,"is_reserved":false,"is_disabled":false,"rental_uris":{"android":"levelo://app?vid=89e44665-812f-48fa-aa8d-ed00c6be9914","ios":"levelo://app?vid=89e44665-812f-48fa-aa8d-ed00c6be9914"},"vehicle_type_id":"4","last_reported":1740575881,"current_range_meters":16400,"station_id":"ce4bhip2rcd13ifvqft0","pricing_plan_id":"cebpf4jnsgd1na2vs0mg"},{"bike_id":"19e09a69-c57f-482a-b847-7f66783bd645","system_id":"levelo_inurba_marseille","lat":43.27826,"lon":5.40688,"is_reserved":false,"is_disabled":false,"rental_uris":{"android":"levelo://app?vid=19e09a69-c57f-482a-b847-7f66783bd645","ios":"levelo://app?vid=19e09a69-c57f-482a-b847-7f66783bd645"},"vehicle_type_id":"4","last_reported":1740575881,"current_range_meters":18000,"station_id":"ce4bhnh2rcd13ifvqgtg","pricing_plan_id":"cebpf4jnsgd1na2vs0mg"},{"bike_id":"c36d4bb1-1668-4290-899b-3d8cbbddc3f9","system_id":"levelo_inurba_marseille","lat":43.29802,"lon":5.381,"is_reserved":false,"is_disabled":false,"rental_uris":{"android":"levelo://app?vid=c36d4bb1-1668-4290-899b-3d8cbbddc3f9","ios":"levelo://app?vid=c36d4bb1-1668-4290-899b-3d8cbbddc3f9"},"vehicle_type_id":"4","last_reported":1740575881,"current_range_meters":17200,"station_id":"ce4bgip2rcd13ifvqbb0","pricing_plan_id":"cebpf4jnsgd1na2vs0mg"},{"bike_id":"717fc18f-340b-43e7-9ce7-a99dbfbeaa98","system_id":"levelo_inurba_marseille","lat":43.26678,"lon":5.38264,"is_reserved":false,"is_disabled":false,"rental_uris":{"android":"levelo://app?vid=717fc18f-340b-43e7-9ce7-a99dbfbeaa98","ios":"levelo://app?vid=717fc18f-340b-43e7-9ce7-a99dbfbeaa98"},"vehicle_type_id":"4","last_reported":1740575881,"current_range_meters":18000,"station_id":"ce4bhg92rcd13ifvqf90","pricing_plan_id":"cebpf4jnsgd1na2vs0mg"},{"bike_id":"b18e534b-d341-46a4-a4e7-5b5e70cb54a6","system_id":"levelo_inurba_marseille","lat":43.26794,"lon":5.3941,"is_reserved":false,"is_disabled":false,"rental_uris":{"android":"levelo://app?vid=b18e534b-d341-46a4-a4e7-5b5e70cb54a6","ios":"levelo://app?vid=b18e534b-d341-46a4-a4e7-5b5e70cb54a6"},"vehicle_type_id":"4","last_reported":1740575881,"current_range_meters":17600,"station_id":"ce4bhh12rcd13ifvqfg0","pricing_plan_id":"cebpf4jnsgd1na2vs0mg"},{"bike_id":"788c279b-8e7b-4dba-ad6a-434b6d719c7d","system_id":"levelo_inurba_marseille","lat":43.31705,"lon":5.37759,"is_reserved":false,"is_disabled":false,"rental_uris":{"android":"levelo://app?vid=788c279b-8e7b-4dba-ad6a-434b6d719c7d","ios":"levelo://app?vid=788c279b-8e7b-4dba-ad6a-434b6d719c7d"},"vehicle_type_id":"4","last_reported":1740575881,"current_range_meters":17600,"station_id":"ce4bgth2rcd13ifvqch0","pricing_plan_id":"cebpf4jnsgd1na2vs0mg"},{"bike_id":"06e21217-ed0a-4df7-92a4-acf8801a47f0","system_id":"levelo_inurba_marseille","lat":43.29705,"lon":5.37696,"is_reserved":false,"is_disabled":false,"rental_uris":{"android":"levelo://app?vid=06e21217-ed0a-4df7-92a4-acf8801a47f0","ios":"levelo://app?vid=06e21217-ed0a-4df7-92a4-acf8801a47f0"},"vehicle_type_id":"4","last_reported":1740575881,"current_range_meters":15200,"station_id":"ce4bgkh2rcd13ifvqbl0","pricing_plan_id":"cebpf4jnsgd1na2vs0mg"},{"bike_id":"48e2093a-a85b-413e-a3cf-ab7c3fc1ef8f","system_id":"levelo_inurba_marseille","lat":43.28614,"lon":5.35102,"is_reserved":false,"is_disabled":false,"rental_uris":{"android":"levelo://app?vid=48e2093a-a85b-413e-a3cf-ab7c3fc1ef8f","ios":"levelo://app?vid=48e2093a-a85b-413e-a3cf-ab7c3fc1ef8f"},"vehicle_type_id":"4","last_reported":1740575881,"current_range_meters":17600,"station_id":"ce4bhch2rcd13ifvqeug","pricing_plan_id":"cebpf4jnsgd1na2vs0mg"},{"bike_id":"29cd5d61-d8c4-4b6a-9e53-4ca32b67f1bb","system_id":"levelo_inurba_marseille","lat":43.25719,"lon":5.41109,"is_reserved":false,"is_disabled":false,"rental_uris":{"android":"levelo://app?vid=29cd5d61-d8c4-4b6a-9e53-4ca32b67f1bb","ios":"levelo://app?vid=29cd5d61-d8c4-4b6a-9e53-4ca32b67f1bb"},"vehicle_type_id":"4","last_reported":1740575881,"current_range_meters":17600,"station_id":"ce4bhkp2rcd13ifvqgd0","pricing_plan_id":"cebpf4jnsgd1na2vs0mg"},{"bike_id":"32f214d4-48cd-4578-adbd-e868b819d60c","system_id":"levelo_inurba_marseille","lat":43.23144,"lon":5.43717,"is_reserved":false,"is_disabled":false,"rental_uris":{"android":"levelo://app?vid=32f214d4-48cd-4578-adbd-e868b819d60c","ios":"levelo://app?vid=32f214d4-48cd-4578-adbd-e868b819d60c"},"vehicle_type_id":"4","last_reported":1740575881,"current_range_meters":17600,"station_id":"ce4bhmp2rcd13ifvqgog","pricing_plan_id":"cebpf4jnsgd1na2vs0mg"},{"bike_id":"04967103-1ea7-4f7a-be85-126c298c8066","system_id":"levelo_inurba_marseille","lat":43.270621,"lon":5.402625,"is_reserved":false,"is_disabled":false,"rental_uris":{"android":"levelo://app?vid=04967103-1ea7-4f7a-be85-126c298c8066","ios":"levelo://app?vid=04967103-1ea7-4f7a-be85-126c298c8066"},"vehicle_type_id":"4","last_reported":1740575881,"current_range_meters":17600,"station_id":"ce4bhk92rcd13ifvqgc0","pricing_plan_id":"cebpf4jnsgd1na2vs0mg"},{"bike_id":"0e8b71e6-6610-4f86-b66d-c85bca9133c2","system_id":"levelo_inurba_marseille","lat":43.27672,"lon":5.38891,"is_reserved":false,"is_disabled":false,"rental_uris":{"android":"levelo://app?vid=0e8b71e6-6610-4f86-b66d-c85bca9133c2","ios":"levelo://app?vid=0e8b71e6-6610-4f86-b66d-c85bca9133c2"},"vehicle_type_id":"4","last_reported":1740575881,"current_range_meters":18000,"station_id":"ce4bhi12rcd13ifvqfo0","pricing_plan_id":"cebpf4jnsgd1na2vs0mg"},{"bike_id":"adbbb9c3-0896-43f7-b8df-61246fe30ff2","system_id":"levelo_inurba_marseille","lat":43.28071,"lon":5.3966,"is_reserved":false,"is_disabled":false,"rental_uris":{"android":"levelo://app?vid=adbbb9c3-0896-43f7-b8df-61246fe30ff2","ios":"levelo://app?vid=adbbb9c3-0896-43f7-b8df-61246fe30ff2"},"vehicle_type_id":"4","last_reported":1740575881,"current_range_meters":18000,"station_id":"ce4bho12rcd13ifvqh2g","pricing_plan_id":"cebpf4jnsgd1na2vs0mg"},{"bike_id":"f9960b39-a005-483a-9711-897b2b03b323","system_id":"levelo_inurba_marseille","lat":43.28352,"lon":5.3864,"is_reserved":false,"is_disabled":false,"rental_uris":{"android":"levelo://app?vid=f9960b39-a005-483a-9711-897b2b03b323","ios":"levelo://app?vid=f9960b39-a005-483a-9711-897b2b03b323"},"vehicle_type_id":"4","last_reported":1740575881,"current_range_meters":18000,"station_id":"ce4bh492rcd13ifvqdvg","pricing_plan_id":"cebpf4jnsgd1na2vs0mg"},{"bike_id":"dc1deb5f-be60-47dd-a397-2458bf714b12","system_id":"levelo_inurba_marseille","lat":43.247765,"lon":5.373906,"is_reserved":false,"is_disabled":false,"rental_uris":{"android":"levelo://app?vid=dc1deb5f-be60-47dd-a397-2458bf714b12","ios":"levelo://app?vid=dc1deb5f-be60-47dd-a397-2458bf714b12"},"vehicle_type_id":"4","last_reported":1740575881,"current_range_meters":18000,"station_id":"cpo3342slgdg3j2ifvpg","pricing_plan_id":"cebpf4jnsgd1na2vs0mg"},{"bike_id":"a8dac662-04f9-46b7-b335-a013d510eb4a","system_id":"levelo_inurba_marseille","lat":43.30892,"lon":5.39649,"is_reserved":false,"is_disabled":false,"rental_uris":{"android":"levelo://app?vid=a8dac662-04f9-46b7-b335-a013d510eb4a","ios":"levelo://app?vid=a8dac662-04f9-46b7-b335-a013d510eb4a"},"vehicle_type_id":"4","last_reported":1740575881,"current_range_meters":17200,"station_id":"ce4bh012rcd13ifvqcv0","pricing_plan_id":"cebpf4jnsgd1na2vs0mg"},{"bike_id":"254d7c8f-8d23-4a20-8b72-ab4521cc3fb8","system_id":"levelo_inurba_marseille","lat":43.26942,"lon":5.40237,"is_reserved":false,"is_disabled":false,"rental_uris":{"android":"levelo://app?vid=254d7c8f-8d23-4a20-8b72-ab4521cc3fb8","ios":"levelo://app?vid=254d7c8f-8d23-4a20-8b72-ab4521cc3fb8"},"vehicle_type_id":"4","last_reported":1740575881,"current_range_meters":17600,"station_id":"cjm6bp8fraef2m0cb0m0","pricing_plan_id":"cebpf4jnsgd1na2vs0mg"},{"bike_id":"5d5be880-7a9f-45e2-891d-6423ac0bd3f4","system_id":"levelo_inurba_marseille","lat":43.32551,"lon":5.41423,"is_reserved":false,"is_disabled":false,"rental_uris":{"android":"levelo://app?vid=5d5be880-7a9f-45e2-891d-6423ac0bd3f4","ios":"levelo://app?vid=5d5be880-7a9f-45e2-891d-6423ac0bd3f4"},"vehicle_type_id":"4","last_reported":1740575881,"current_range_meters":17600,"station_id":"ce4bhq12rcd13ifvqhhg","pricing_plan_id":"cebpf4jnsgd1na2vs0mg"},{"bike_id":"9f6bdf16-5ee9-4bb0-9e57-1e79a97b42d0","system_id":"levelo_inurba_marseille","lat":43.28997,"lon":5.3561,"is_reserved":false,"is_disabled":false,"rental_uris":{"android":"levelo://app?vid=9f6bdf16-5ee9-4bb0-9e57-1e79a97b42d0","ios":"levelo://app?vid=9f6bdf16-5ee9-4bb0-9e57-1e79a97b42d0"},"vehicle_type_id":"4","last_reported":1740575881,"current_range_meters":18000,"station_id":"ce4bhb92rcd13ifvqen0","pricing_plan_id":"cebpf4jnsgd1na2vs0mg"},{"bike_id":"c347de43-65e2-490b-b05e-188aa167e6ac","system_id":"levelo_inurba_marseille","lat":43.27941,"lon":5.41034,"is_reserved":false,"is_disabled":false,"rental_uris":{"android":"levelo://app?vid=c347de43-65e2-490b-b05e-188aa167e6ac","ios":"levelo://app?vid=c347de43-65e2-490b-b05e-188aa167e6ac"},"vehicle_type_id":"4","last_reported":1740575881,"current_range_meters":18000,"station_id":"ce4bhnp2rcd13ifvqh0g","pricing_plan_id":"cebpf4jnsgd1na2vs0mg"},{"bike_id":"3f44eb8d-2659-46fe-b363-fc0b12ab0922","system_id":"levelo_inurba_marseille","lat":43.28079,"lon":5.39658,"is_reserved":false,"is_disabled":false,"rental_uris":{"android":"levelo://app?vid=3f44eb8d-2659-46fe-b363-fc0b12ab0922","ios":"levelo://app?vid=3f44eb8d-2659-46fe-b363-fc0b12ab0922"},"vehicle_type_id":"4","last_reported":1740575881,"current_range_meters":18000,"station_id":"ce4bho12rcd13ifvqh2g","pricing_plan_id":"cebpf4jnsgd1na2vs0mg"},{"bike_id":"aa377b00-912b-46c2-8a69-4583c0a0b1d9","system_id":"levelo_inurba_marseille","lat":43.31534,"lon":5.38032,"is_reserved":false,"is_disabled":false,"rental_uris":{"android":"levelo://app?vid=aa377b00-912b-46c2-8a69-4583c0a0b1d9","ios":"levelo://app?vid=aa377b00-912b-46c2-8a69-4583c0a0b1d9"},"vehicle_type_id":"4","last_reported":1740575881,"current_range_meters":18000,"station_id":"ce4bhsp2rcd13ifvqi50","pricing_plan_id":"cebpf4jnsgd1na2vs0mg"},{"bike_id":"f4fab912-e9d2-4f91-b3db-58c1f0b95884","system_id":"levelo_inurba_marseille","lat":43.2987,"lon":5.39733,"is_reserved":false,"is_disabled":false,"rental_uris":{"android":"levelo://app?vid=f4fab912-e9d2-4f91-b3db-58c1f0b95884","ios":"levelo://app?vid=f4fab912-e9d2-4f91-b3db-58c1f0b95884"},"vehicle_type_id":"4","last_reported":1740575881,"current_range_meters":18800,"station_id":"ce4bh0h2rcd13ifvqd50","pricing_plan_id":"cebpf4jnsgd1na2vs0mg"},{"bike_id":"f5900fd7-5ebc-4e9b-ae58-1b8e740df4a2","system_id":"levelo_inurba_marseille","lat":43.27807,"lon":5.407,"is_reserved":false,"is_disabled":false,"rental_uris":{"android":"levelo://app?vid=f5900fd7-5ebc-4e9b-ae58-1b8e740df4a2","ios":"levelo://app?vid=f5900fd7-5ebc-4e9b-ae58-1b8e740df4a2"},"vehicle_type_id":"4","last_reported":1740575881,"current_range_meters":18800,"station_id":"ce4bhnh2rcd13ifvqgtg","pricing_plan_id":"cebpf4jnsgd1na2vs0mg"},{"bike_id":"74edbbca-361e-4908-9052-c391ebb2fb2e","system_id":"levelo_inurba_marseille","lat":43.27048,"lon":5.40271,"is_reserved":false,"is_disabled":false,"rental_uris":{"android":"levelo://app?vid=74edbbca-361e-4908-9052-c391ebb2fb2e","ios":"levelo://app?vid=74edbbca-361e-4908-9052-c391ebb2fb2e"},"vehicle_type_id":"4","last_reported":1740575881,"current_range_meters":18800,"station_id":"ce4bhk92rcd13ifvqgc0","pricing_plan_id":"cebpf4jnsgd1na2vs0mg"},{"bike_id":"3de9aeda-1f9a-4bbc-8b90-e02a49e56ca9","system_id":"levelo_inurba_marseille","lat":43.23195,"lon":5.35544,"is_reserved":false,"is_disabled":false,"rental_uris":{"android":"levelo://app?vid=3de9aeda-1f9a-4bbc-8b90-e02a49e56ca9","ios":"levelo://app?vid=3de9aeda-1f9a-4bbc-8b90-e02a49e56ca9"},"vehicle_type_id":"4","last_reported":1740575881,"current_range_meters":18800,"station_id":"ce4bhu92rcd13ifvqi70","pricing_plan_id":"cebpf4jnsgd1na2vs0mg"},{"bike_id":"3ef28e37-6e52-4e31-a38c-a7d348d4f135","system_id":"levelo_inurba_marseille","lat":43.28259,"lon":5.35083,"is_reserved":false,"is_disabled":false,"rental_uris":{"android":"levelo://app?vid=3ef28e37-6e52-4e31-a38c-a7d348d4f135","ios":"levelo://app?vid=3ef28e37-6e52-4e31-a38c-a7d348d4f135"},"vehicle_type_id":"4","last_reported":1740575881,"current_range_meters":19200,"station_id":"ce4bhbp2rcd13ifvqerg","pricing_plan_id":"cebpf4jnsgd1na2vs0mg"},{"bike_id":"7772d9e1-55f7-474b-b04f-ae72bb953020","system_id":"levelo_inurba_marseille","lat":43.29965,"lon":5.37164,"is_reserved":false,"is_disabled":false,"rental_uris":{"android":"levelo://app?vid=7772d9e1-55f7-474b-b04f-ae72bb953020","ios":"levelo://app?vid=7772d9e1-55f7-474b-b04f-ae72bb953020"},"vehicle_type_id":"4","last_reported":1740575881,"current_range_meters":19600,"station_id":"ce4bgr92rcd13ifvqc7g","pricing_plan_id":"cebpf4jnsgd1na2vs0mg"},{"bike_id":"896fa85b-e6c2-4284-b540-4f908ecc715f","system_id":"levelo_inurba_marseille","lat":43.29298,"lon":5.37177,"is_reserved":false,"is_disabled":false,"rental_uris":{"android":"levelo://app?vid=896fa85b-e6c2-4284-b540-4f908ecc715f","ios":"levelo://app?vid=896fa85b-e6c2-4284-b540-4f908ecc715f"},"vehicle_type_id":"4","last_reported":1740575881,"current_range_meters":19200,"station_id":"ce4bgh92rcd13ifvqb40","pricing_plan_id":"cebpf4jnsgd1na2vs0mg"},{"bike_id":"201b43e1-9166-4b93-9ecb-211bb1985890","system_id":"levelo_inurba_marseille","lat":43.32351,"lon":5.36748,"is_reserved":false,"is_disabled":false,"rental_uris":{"android":"levelo://app?vid=201b43e1-9166-4b93-9ecb-211bb1985890","ios":"levelo://app?vid=201b43e1-9166-4b93-9ecb-211bb1985890"},"vehicle_type_id":"4","last_reported":1740575881,"current_range_meters":19200,"station_id":"ce4bhsh2rcd13ifvqi2g","pricing_plan_id":"cebpf4jnsgd1na2vs0mg"},{"bike_id":"1e3d123a-2faa-4cd7-b940-9e2627687e28","system_id":"levelo_inurba_marseille","lat":43.30201,"lon":5.39468,"is_reserved":false,"is_disabled":false,"rental_uris":{"android":"levelo://app?vid=1e3d123a-2faa-4cd7-b940-9e2627687e28","ios":"levelo://app?vid=1e3d123a-2faa-4cd7-b940-9e2627687e28"},"vehicle_type_id":"4","last_reported":1740575881,"current_range_meters":19600,"station_id":"ce4bh0p2rcd13ifvqd70","pricing_plan_id":"cebpf4jnsgd1na2vs0mg"},{"bike_id":"cbb7817f-40cd-4754-ab96-eb96394c0643","system_id":"levelo_inurba_marseille","lat":43.23154,"lon":5.437,"is_reserved":false,"is_disabled":false,"rental_uris":{"android":"levelo://app?vid=cbb7817f-40cd-4754-ab96-eb96394c0643","ios":"levelo://app?vid=cbb7817f-40cd-4754-ab96-eb96394c0643"},"vehicle_type_id":"4","last_reported":1740575881,"current_range_meters":19600,"station_id":"ce4bhmp2rcd13ifvqgog","pricing_plan_id":"cebpf4jnsgd1na2vs0mg"},{"bike_id":"74efc9ff-6ef3-4868-964e-8ca4569b828d","system_id":"levelo_inurba_marseille","lat":43.29938,"lon":5.36517,"is_reserved":false,"is_disabled":false,"rental_uris":{"android":"levelo://app?vid=74efc9ff-6ef3-4868-964e-8ca4569b828d","ios":"levelo://app?vid=74efc9ff-6ef3-4868-964e-8ca4569b828d"},"vehicle_type_id":"4","last_reported":1740575881,"current_range_meters":19200,"station_id":"ce4bgm92rcd13ifvqbr0","pricing_plan_id":"cebpf4jnsgd1na2vs0mg"},{"bike_id":"54135f9e-f4d2-4c4d-8a01-152ceeebad33","system_id":"levelo_inurba_marseille","lat":43.25931,"lon":5.40911,"is_reserved":false,"is_disabled":false,"rental_uris":{"android":"levelo://app?vid=54135f9e-f4d2-4c4d-8a01-152ceeebad33","ios":"levelo://app?vid=54135f9e-f4d2-4c4d-8a01-152ceeebad33"},"vehicle_type_id":"4","last_reported":1740575881,"current_range_meters":19200,"station_id":"ce4bhm92rcd13ifvqglg","pricing_plan_id":"cebpf4jnsgd1na2vs0mg"},{"bike_id":"40e25f70-02b5-4811-add6-6e8dbc26a035","system_id":"levelo_inurba_marseille","lat":43.28419,"lon":5.34989,"is_reserved":false,"is_disabled":false,"rental_uris":{"android":"levelo://app?vid=40e25f70-02b5-4811-add6-6e8dbc26a035","ios":"levelo://app?vid=40e25f70-02b5-4811-add6-6e8dbc26a035"},"vehicle_type_id":"4","last_reported":1740575881,"current_range_meters":19600,"station_id":"ce4bhbh2rcd13ifvqepg","pricing_plan_id":"cebpf4jnsgd1na2vs0mg"},