{"last_updated":1692821160,"ttl":30,"version":"2.2","data":{"bikes":[{"bike_id":"f22ca441-4e4e-4660-b824-b2f46943e54d","system_id":"levelo_inurba_marseille","lat":43.31238,"lon":5.36848,"is_reserved":false,"is_disabled":false,"rental_uris":{"android":"levelo://app?vid=f22ca441-4e4e-4660-b824-b2f46943e54d","ios":"levelo://app?vid=f22ca441-4e4e-4660-b824-b2f46943e54d"},"vehicle_type_id":"4","last_reported":1692821160,"current_range_meters":31200,"station_id":"ce4bgl92rcd13ifvqbq0","pricing_plan_id":"free"},{"bike_id":"7e616d51-b9c1-4847-a565-fddcd27ecd40","system_id":"levelo_inurba_marseille","lat":43.312239,"lon":5.368562,"is_reserved":false,"is_disabled":false,"rental_uris":{"android":"levelo://app?vid=7e616d51-b9c1-4847-a565-fddcd27ecd40","ios":"levelo://app?vid=7e616d51-b9c1-4847-a565-fddcd27ecd40"},"vehicle_type_id":"4","last_reported":1692821160,"current_range_meters":0,"station_id":"ce4bgl92rcd13ifvqbq0","pricing_plan_id":"free"},{"bike_id":"37eb0359-eca4-4433-9687-bdcf80879891","system_id":"levelo_inurba_marseille","lat":43.312239,"lon":5.368562,"is_reserved":false,"is_disabled":false,"rental_uris":{"android":"levelo://app?vid=37eb0359-eca4-4433-9687-bdcf80879891","ios":"levelo://app?vid=37eb0359-eca4-4433-9687-bdcf80879891"},"vehicle_type_id":"4","last_reported":1692821160,"current_range_meters":12800,"station_id":"ce4bgl92rcd13ifvqbq0","pricing_plan_id":"free"},{"bike_id":"5a231f5c-81f2-4ab0-b5e4-69d39f654e06","system_id":"levelo_inurba_marseille","lat":43.309076,"lon":5.368465,"is_reserved":false,"is_disabled":false,"rental_uris":{"android":"levelo://app?vid=5a231f5c-81f2-4ab0-b5e4-69d39f654e06","ios":"levelo://app?vid=5a231f5c-81f2-4ab0-b5e4-69d39f654e06"},"vehicle_type_id":"4","last_reported":1692821160,"current_range_meters":6000,"station_id":"ce4bgn92rcd13ifvqbvg","pricing_plan_id":"free"},{"bike_id":"d2be997d-44d2-40a5-bb20-02aeaaf65fa5","system_id":"levelo_inurba_marseille","lat":43.314811,"lon":5.373103,"is_reserved":false,"is_disabled":false,"rental_uris":{"android":"levelo://app?vid=d2be997d-44d2-40a5-bb20-02aeaaf65fa5","ios":"levelo://app?vid=d2be997d-44d2-40a5-bb20-02aeaaf65fa5"},"vehicle_type_id":"4","last_reported":1692821160,"current_range_meters":31200,"station_id":"ce4bgt12rcd13ifvqcd0","pricing_plan_id":"free"},{"bike_id":"afda45b2-c258-420e-99b2-a2fed28213c4","system_id":"levelo_inurba_marseille","lat":43.309039,"lon":5.371797,"is_reserved":false,"is_disabled":false,"rental_uris":{"android":"levelo://app?vid=afda45b2-c258-420e-99b2-a2fed28213c4","ios":"levelo://app?vid=afda45b2-c258-420e-99b2-a2fed28213c4"},"vehicle_type_id":"4","last_reported":1692821160,"current_range_meters":8000,"station_id":"ce4bguh2rcd13ifvqckg","pricing_plan_id":"free"},{"bike_id":"92b1616e-45bf-4536-a958-6bc2946d4b6d","system_id":"levelo_inurba_marseille","lat":43.305714,"lon":5.365633,"is_reserved":false,"is_disabled":false,"rental_uris":{"android":"levelo://app?vid=92b1616e-45bf-4536-a958-6bc2946d4b6d","ios":"levelo://app?vid=92b1616e-45bf-4536-a958-6bc2946d4b6d"},"vehicle_type_id":"4","last_reported":1692821160,"current_range_meters":9200,"station_id":"ce4bgs12rcd13ifvqcag","pricing_plan_id":"free"},{"bike_id":"aaebfa27-a693-4bb4-bc1f-5e28710c1226","system_id":"levelo_inurba_marseille","lat":43.30529,"lon":5.3672,"is_reserved":false,"is_disabled":false,"rental_uris":{"android":"levelo://app?vid=aaebfa27-a693-4bb4-bc1f-5e28710c1226","ios":"levelo://app?vid=aaebfa27-a693-4bb4-bc1f-5e28710c1226"},"vehicle_type_id":"4","last_reported":1692821160,"current_range_meters":13200,"station_id":"ce4bgrp2rcd13ifvqc9g","pricing_plan_id":"free"},{"bike_id":"9fbe6e18-d192-44c2-98b5-cafb68b41aa4","system_id":"levelo_inurba_marseille","lat":43.30534,"lon":5.36548,"is_reserved":false,"is_disabled":false,"rental_uris":{"android":"levelo://app?vid=9fbe6e18-d192-44c2-98b5-cafb68b41aa4","ios":"levelo://app?vid=9fbe6e18-d192-44c2-98b5-cafb68b41aa4"},"vehicle_type_id":"4","last_reported":1692821160,"current_range_meters":21200,"station_id":"ce4bgs12rcd13ifvqcag","pricing_plan_id":"free"},{"bike_id":"d42fdb58-0b0c-4575-a6f3-6686b49f30b0","system_id":"levelo_inurba_marseille","lat":43.305989,"lon":5.37225,"is_reserved":false,"is_disabled":false,"rental_uris":{"android":"levelo://app?vid=d42fdb58-0b0c-4575-a6f3-6686b49f30b0","ios":"levelo://app?vid=d42fdb58-0b0c-4575-a6f3-6686b49f30b0"},"vehicle_type_id":"4","last_reported":1692821160,"current_range_meters":26800,"station_id":"ce4bgqh2rcd13ifvqc4g","pricing_plan_id":"free"},{"bike_id":"39c18854-4b16-4574-bead-ce289fde9f13","system_id":"levelo_inurba_marseille","lat":43.305989,"lon":5.37225,"is_reserved":false,"is_disabled":false,"rental_uris":{"android":"levelo://app?vid=39c18854-4b16-4574-bead-ce289fde9f13","ios":"levelo://app?vid=39c18854-4b16-4574-bead-ce289fde9f13"},"vehicle_type_id":"4","last_reported":1692821160,"current_range_meters":0,"station_id":"ce4bgqh2rcd13ifvqc4g","pricing_plan_id":"free"},{"bike_id":"82b23b01-3055-4657-9387-b52c638d588d","system_id":"levelo_inurba_marseille","lat":43.305989,"lon":5.37225,"is_reserved":false,"is_disabled":false,"rental_uris":{"android":"levelo://app?vid=82b23b01-3055-4657-9387-b52c638d588d","ios":"levelo://app?vid=82b23b01-3055-4657-9387-b52c638d588d"},"vehicle_type_id":"4","last_reported":1692821160,"current_range_meters":28800,"station_id":"ce4bgqh2rcd13ifvqc4g","pricing_plan_id":"free"},{"bike_id":"656d3cad-865d-46e3-bd59-51dfd902540b","system_id":"levelo_inurba_marseille","lat":43.30591,"lon":5.37238,"is_reserved":false,"is_disabled":false,"rental_uris":{"android":"levelo://app?vid=656d3cad-865d-46e3-bd59-51dfd902540b","ios":"levelo://app?vid=656d3cad-865d-46e3-bd59-51dfd902540b"},"vehicle_type_id":"4","last_reported":1692821160,"current_range_meters":12800,"station_id":"","pricing_plan_id":"free"},{"bike_id":"b6ab66b1-1c5d-4742-a542-b27016cab657","system_id":"levelo_inurba_marseille","lat":43.311125,"lon":5.377624,"is_reserved":false,"is_disabled":false,"rental_uris":{"android":"levelo://app?vid=b6ab66b1-1c5d-4742-a542-b27016cab657","ios":"levelo://app?vid=b6ab66b1-1c5d-4742-a542-b27016cab657"},"vehicle_type_id":"4","last_reported":1692821160,"current_range_meters":10400,"station_id":"ce4bgt92rcd13ifvqcg0","pricing_plan_id":"free"},{"bike_id":"a98f1a3c-7a59-4fab-b07d-e3c840cbf3a8","system_id":"levelo_inurba_marseille","lat":43.311131,"lon":5.377651,"is_reserved":false,"is_disabled":false,"rental_uris":{"android":"levelo://app?vid=a98f1a3c-7a59-4fab-b07d-e3c840cbf3a8","ios":"levelo://app?vid=a98f1a3c-7a59-4fab-b07d-e3c840cbf3a8"},"vehicle_type_id":"4","last_reported":1692821160,"current_range_meters":0,"station_id":"ce4bgt92rcd13ifvqcg0","pricing_plan_id":"free"},{"bike_id":"b594a8cb-c974-49ec-9422-e047edc939fe","system_id":"levelo_inurba_marseille","lat":43.311125,"lon":5.377624,"is_reserved":false,"is_disabled":false,"rental_uris":{"android":"levelo://app?vid=b594a8cb-c974-49ec-9422-e047edc939fe","ios":"levelo://app?vid=b594a8cb-c974-49ec-9422-e047edc939fe"},"vehicle_type_id":"4","last_reported":1692821160,"current_range_meters":7200,"station_id":"ce4bgt92rcd13ifvqcg0","pricing_plan_id":"free"},{"bike_id":"25b99eff-857e-4d4a-ad56-722ae7ce2a85","system_id":"levelo_inurba_marseille","lat":43.311125,"lon":5.377624,"is_reserved":false,"is_disabled":false,"rental_uris":{"android":"levelo://app?vid=25b99eff-857e-4d4a-ad56-722ae7ce2a85","ios":"levelo://app?vid=25b99eff-857e-4d4a-ad56-722ae7ce2a85"},"vehicle_type_id":"4","last_reported":1692821160,"current_range_meters":20800,"station_id":"ce4bgt92rcd13ifvqcg0","pricing_plan_id":"free"},{"bike_id":"d7f63373-5c59-47b8-ab60-947bc1cb7e0e","system_id":"levelo_inurba_marseille","lat":43.307945,"lon":5.376487,"is_reserved":false,"is_disabled":false,"rental_uris":{"android":"levelo://app?vid=d7f63373-5c59-47b8-ab60-947bc1cb7e0e","ios":"levelo://app?vid=d7f63373-5c59-47b8-ab60-947bc1cb7e0e"},"vehicle_type_id":"4","last_reported":1692821160,"current_range_meters":13600,"station_id":"ce4bgv92rcd13ifvqcq0","pricing_plan_id":"free"},{"bike_id":"e148af1b-1d2c-420a-84d4-325e772d6178","system_id":"levelo_inurba_marseille","lat":43.307945,"lon":5.376487,"is_reserved":false,"is_disabled":false,"rental_uris":{"android":"levelo://app?vid=e148af1b-1d2c-420a-84d4-325e772d6178","ios":"levelo://app?vid=e148af1b-1d2c-420a-84d4-325e772d6178"},"vehicle_type_id":"4","last_reported":1692821160,"current_range_meters":21200,"station_id":"ce4bgv92rcd13ifvqcq0","pricing_plan_id":"free"},{"bike_id":"67b0e08b-97c4-42e5-85d9-b4060e6f3401","system_id":"levelo_inurba_marseille","lat":43.31939,"lon":5.37457,"is_reserved":false,"is_disabled":false,"rental_uris":{"android":"levelo://app?vid=67b0e08b-97c4-42e5-85d9-b4060e6f3401","ios":"levelo://app?vid=67b0e08b-97c4-42e5-85d9-b4060e6f3401"},"vehicle_type_id":"4","last_reported":1692821160,"current_range_meters":31200,"station_id":"","pricing_plan_id":"free"},{"bike_id":"874e34a8-80c1-4d79-8e18-aa1bd38adad4","system_id":"levelo_inurba_marseille","lat":43.317065,"lon":5.377313,"is_reserved":false,"is_disabled":false,"rental_uris":{"android":"levelo://app?vid=874e34a8-80c1-4d79-8e18-aa1bd38adad4","ios":"levelo://app?vid=874e34a8-80c1-4d79-8e18-aa1bd38adad4"},"vehicle_type_id":"4","last_reported":1692821160,"current_range_meters":0,"station_id":"ce4bgth2rcd13ifvqch0","pricing_plan_id":"free"},{"bike_id":"1d324255-d307-47dd-bdae-8aed608e2ff8","system_id":"levelo_inurba_marseille","lat":43.30304,"lon":5.368987,"is_reserved":false,"is_disabled":false,"rental_uris":{"android":"levelo://app?vid=1d324255-d307-47dd-bdae-8aed608e2ff8","ios":"levelo://app?vid=1d324255-d307-47dd-bdae-8aed608e2ff8"},"vehicle_type_id":"4","last_reported":1692821160,"current_range_meters":4000,"station_id":"ce4bgqh2rcd13ifvqc5g","pricing_plan_id":"free"},{"bike_id":"0f20967b-aded-44a8-81a5-82097375b4c8","system_id":"levelo_inurba_marseille","lat":43.30299,"lon":5.36859,"is_reserved":false,"is_disabled":false,"rental_uris":{"android":"levelo://app?vid=0f20967b-aded-44a8-81a5-82097375b4c8","ios":"levelo://app?vid=0f20967b-aded-44a8-81a5-82097375b4c8"},"vehicle_type_id":"4","last_reported":1692821160,"current_range_meters":0,"station_id":"ce4bgqh2rcd13ifvqc5g","pricing_plan_id":"free"},{"bike_id":"25befe6b-2307-463d-97fb-06f6d5d38dd9","system_id":"levelo_inurba_marseille","lat":43.307862,"lon":5.381639,"is_reserved":false,"is_disabled":false,"rental_uris":{"android":"levelo://app?vid=25befe6b-2307-463d-97fb-06f6d5d38dd9","ios":"levelo://app?vid=25befe6b-2307-463d-97fb-06f6d5d38dd9"},"vehicle_type_id":"4","last_reported":1692821160,"current_range_meters":19200,"station_id":"ce4bgt12rcd13ifvqce0","pricing_plan_id":"free"},{"bike_id":"c1713a34-d312-471a-af08-432ff5efa977","system_id":"levelo_inurba_marseille","lat":43.304606,"lon":5.379026,"is_reserved":false,"is_disabled":false,"rental_uris":{"android":"levelo://app?vid=c1713a34-d312-471a-af08-432ff5efa977","ios":"levelo://app?vid=c1713a34-d312-471a-af08-432ff5efa977"},"vehicle_type_id":"4","last_reported":1692821160,"current_range_meters":4400,"station_id":"ce4bgup2rcd13ifvqcn0","pricing_plan_id":"free"},{"bike_id":"5fe6218c-dbb5-49e6-a1ff-a36e8894b1ef","system_id":"levelo_inurba_marseille","lat":43.30143,"lon":5.37422,"is_reserved":false,"is_disabled":false,"rental_uris":{"android":"levelo://app?vid=5fe6218c-dbb5-49e6-a1ff-a36e8894b1ef","ios":"levelo://app?vid=5fe6218c-dbb5-49e6-a1ff-a36e8894b1ef"},"vehicle_type_id":"4","last_reported":1692821160,"current_range_meters":20800,"station_id":"ce4bgs92rcd13ifvqcc0","pricing_plan_id":"free"},{"bike_id":"ad5cfe70-32e3-4fca-8baa-12058cf65b57","system_id":"levelo_inurba_marseille","lat":43.30139,"lon":5.37417,"is_reserved":false,"is_disabled":false,"rental_uris":{"android":"levelo://app?vid=ad5cfe70-32e3-4fca-8baa-12058cf65b57","ios":"levelo://app?vid=ad5cfe70-32e3-4fca-8baa-12058cf65b57"},"vehicle_type_id":"4","last_reported":1692821160,"current_range_meters":17200,"station_id":"ce4bgs92rcd13ifvqcc0","pricing_plan_id":"free"},{"bike_id":"5be708f1-9aa7-489a-b1f6-f4b2c5e6f6d5","system_id":"levelo_inurba_marseille","lat":43.319935,"lon":5.381699,"is_reserved":false,"is_disabled":false,"rental_uris":{"android":"levelo://app?vid=5be708f1-9aa7-489a-b1f6-f4b2c5e6f6d5","ios":"levelo://app?vid=5be708f1-9aa7-489a-b1f6-f4b2c5e6f6d5"},"vehicle_type_id":"4","last_reported":1692821160,"current_range_meters":21200,"station_id":"ce4bhr12rcd13ifvqhpg","pricing_plan_id":"free"},{"bike_id":"0da3b7f3-557a-44e1-986f-caeaec8a9b87","system_id":"levelo_inurba_marseille","lat":43.319935,"lon":5.381699,"is_reserved":false,"is_disabled":false,"rental_uris":{"android":"levelo://app?vid=0da3b7f3-557a-44e1-986f-caeaec8a9b87","ios":"levelo://app?vid=0da3b7f3-557a-44e1-986f-caeaec8a9b87"},"vehicle_type_id":"4","last_reported":1692821160,"current_range_meters":27200,"station_id":"ce4bhr12rcd13ifvqhpg","pricing_plan_id":"free"},{"bike_id":"fdb1f38b-7bcd-4d38-ad6b-915bfa02cfb9","system_id":"levelo_inurba_marseille","lat":43.31363,"lon":5.38497,"is_reserved":false,"is_disabled":false,"rental_uris":{"android":"levelo://app?vid=fdb1f38b-7bcd-4d38-ad6b-915bfa02cfb9","ios":"levelo://app?vid=fdb1f38b-7bcd-4d38-ad6b-915bfa02cfb9"},"vehicle_type_id":"4","last_reported":1692821160,"current_range_meters":26800,"station_id":"ce4bgt92rcd13ifvqcf0","pricing_plan_id":"free"},{"bike_id":"b4b01be9-0e2c-4808-a85e-27db8cdd43bf","system_id":"levelo_inurba_marseille","lat":43.299222,"lon":5.365554,"is_reserved":false,"is_disabled":false,"rental_uris":{"android":"levelo://app?vid=b4b01be9-0e2c-4808-a85e-27db8cdd43bf","ios":"levelo://app?vid=b4b01be9-0e2c-4808-a85e-27db8cdd43bf"},"vehicle_type_id":"4","last_reported":1692821160,"current_range_meters":5200,"station_id":"ce4bgm92rcd13ifvqbr0","pricing_plan_id":"free"},{"bike_id":"95dc9ecf-047e-4c3a-bb12-a5676cb36ad4","system_id":"levelo_inurba_marseille","lat":43.3216,"lon":5.38166,"is_reserved":false,"is_disabled":false,"rental_uris":{"android":"levelo://app?vid=95dc9ecf-047e-4c3a-bb12-a5676cb36ad4","ios":"levelo://app?vid=95dc9ecf-047e-4c3a-bb12-a5676cb36ad4"},"vehicle_type_id":"4","last_reported":1692821160,"current_range_meters":2400,"station_id":"","pricing_plan_id":"free"},{"bike_id":"ff528a57-2d81-4535-85f4-e70ce2eeae0d","system_id":"levelo_inurba_marseille","lat":43.30553,"lon":5.38411,"is_reserved":false,"is_disabled":false,"rental_uris":{"android":"levelo://app?vid=ff528a57-2d81-4535-85f4-e70ce2eeae0d","ios":"levelo://app?vid=ff528a57-2d81-4535-85f4-e70ce2eeae0d"},"vehicle_type_id":"4","last_reported":1692821160,"current_range_meters":11200,"station_id":"ce4bgg92rcd13ifvqb30","pricing_plan_id":"free"},{"bike_id":"24c6a229-6687-4e08-b189-af026801f440","system_id":"levelo_inurba_marseille","lat":43.29853,"lon":5.36284,"is_reserved":false,"is_disabled":false,"rental_uris":{"android":"levelo://app?vid=24c6a229-6687-4e08-b189-af026801f440","ios":"levelo://app?vid=24c6a229-6687-4e08-b189-af026801f440"},"vehicle_type_id":"4","last_reported":1692821160,"current_range_meters":24400,"station_id":"ce4bgpp2rcd13ifvqc3g","pricing_plan_id":"free"},{"bike_id":"d04885e8-aac0-475c-9cd4-d4d7202ac276","system_id":"levelo_inurba_marseille","lat":43.2985,"lon":5.36285,"is_reserved":false,"is_disabled":false,"rental_uris":{"android":"levelo://app?vid=d04885e8-aac0-475c-9cd4-d4d7202ac276","ios":"levelo://app?vid=d04885e8-aac0-475c-9cd4-d4d7202ac276"},"vehicle_type_id":"4","last_reported":1692821160,"current_range_meters":24400,"station_id":"ce4bgpp2rcd13ifvqc3g","pricing_plan_id":"free"},{"bike_id":"9a9ad2a6-143d-4dc6-9d09-64e4e083a726","system_id":"levelo_inurba_marseille","lat":43.30533,"lon":5.38417,"is_reserved":false,"is_disabled":false,"rental_uris":{"android":"levelo://app?vid=9a9ad2a6-143d-4dc6-9d09-64e4e083a726","ios":"levelo://app?vid=9a9ad2a6-143d-4dc6-9d09-64e4e083a726"},"vehicle_type_id":"4","last_reported":1692821160,"current_range_meters":8000,"station_id":"ce4bgg92rcd13ifvqb30","pricing_plan_id":"free"},{"bike_id":"44d0c00c-838f-4f00-8ad2-d2b4b4eabf9a","system_id":"levelo_inurba_marseille","lat":43.298433,"lon":5.362774,"is_reserved":false,"is_disabled":false,"rental_uris":{"android":"levelo://app?vid=44d0c00c-838f-4f00-8ad2-d2b4b4eabf9a","ios":"levelo://app?vid=44d0c00c-838f-4f00-8ad2-d2b4b4eabf9a"},"vehicle_type_id":"4","last_reported":1692821160,"current_range_meters":6400,"station_id":"ce4bgpp2rcd13ifvqc3g","pricing_plan_id":"free"},{"bike_id":"a0d5a212-b52b-478a-a560-cdb874da7485","system_id":"levelo_inurba_marseille","lat":43.30541,"lon":5.38424,"is_reserved":false,"is_disabled":false,"rental_uris":{"android":"levelo://app?vid=a0d5a212-b52b-478a-a560-cdb874da7485","ios":"levelo://app?vid=a0d5a212-b52b-478a-a560-cdb874da7485"},"vehicle_type_id":"4","last_reported":1692821160,"current_range_meters":21200,"station_id":"ce4bgg92rcd13ifvqb30","pricing_plan_id":"free"},{"bike_id":"643de869-e2f0-4677-8480-d35d9e48689d","system_id":"levelo_inurba_marseille","lat":43.298433,"lon":5.362774,"is_reserved":false,"is_disabled":false,"rental_uris":{"android":"levelo://app?vid=643de869-e2f0-4677-8480-d35d9e48689d","ios":"levelo://app?vid=643de869-e2f0-4677-8480-d35d9e48689d"},"vehicle_type_id":"4","last_reported":1692821160,"current_range_meters":17200,"station_id":"ce4bgpp2rcd13ifvqc3g","pricing_plan_id":"free"},{"bike_id":"744f173d-a979-4a1c-9668-0b5d2034944e","system_id":"levelo_inurba_marseille","lat":43.30546,"lon":5.38431,"is_reserved":false,"is_disabled":false,"rental_uris":{"android":"levelo://app?vid=744f173d-a979-4a1c-9668-0b5d2034944e","ios":"levelo://app?vid=744f173d-a979-4a1c-9668-0b5d2034944e"},"vehicle_type_id":"4","last_reported":1692821160,"current_range_meters":1600,"station_id":"ce4bgg92rcd13ifvqb30","pricing_plan_id":"free"},{"bike_id":"b43a1c55-4172-4cf3-9a98-f2f4f56fe117","system_id":"levelo_inurba_marseille","lat":43.298433,"lon":5.362774,"is_reserved":false,"is_disabled":false,"rental_uris":{"android":"levelo://app?vid=b43a1c55-4172-4cf3-9a98-f2f4f56fe117","ios":"levelo://app?vid=b43a1c55-4172-4cf3-9a98-f2f4f56fe117"},"vehicle_type_id":"4","last_reported":1692821160,"current_range_meters":16800,"station_id":"ce4bgpp2rcd13ifvqc3g","pricing_plan_id":"free"},{"bike_id":"96a8acf0-09cf-40c6-8dc5-a9d04e4a5dbe","system_id":"levelo_inurba_marseille","lat":43.305364,"lon":5.384119,"is_reserved":false,"is_disabled":false,"rental_uris":{"android":"levelo://app?vid=96a8acf0-09cf-40c6-8dc5-a9d04e4a5dbe","ios":"levelo://app?vid=96a8acf0-09cf-40c6-8dc5-a9d04e4a5dbe"},"vehicle_type_id":"4","last_reported":1692821160,"current_range_meters":25600,"station_id":"ce4bgg92rcd13ifvqb30","pricing_plan_id":"free"},{"bike_id":"4973f51c-7927-4030-ba15-26746c0e2a64","system_id":"levelo_inurba_marseille","lat":43.298433,"lon":5.362774,"is_reserved":false,"is_disabled":false,"rental_uris":{"android":"levelo://app?vid=4973f51c-7927-4030-ba15-26746c0e2a64","ios":"levelo://app?vid=4973f51c-7927-4030-ba15-26746c0e2a64"},"vehicle_type_id":"4","last_reported":1692821160,"current_range_meters":0,"station_id":"ce4bgpp2rcd13ifvqc3g","pricing_plan_id":"free"},{"bike_id":"98fa8074-cf3a-4043-a6bc-d7938a702940","system_id":"levelo_inurba_marseille","lat":43.30538,"lon":5.38427,"is_reserved":false,"is_disabled":false,"rental_uris":{"android":"levelo://app?vid=98fa8074-cf3a-4043-a6bc-d7938a702940","ios":"levelo://app?vid=98fa8074-cf3a-4043-a6bc-d7938a702940"},"vehicle_type_id":"4","last_reported":1692821160,"current_range_meters":10400,"station_id":"ce4bgg92rcd13ifvqb30","pricing_plan_id":"free"},{"bike_id":"d7d63fec-8548-4196-b61f-b72ca1f04f16","system_id":"levelo_inurba_marseille","lat":43.298433,"lon":5.362774,"is_reserved":false,"is_disabled":false,"rental_uris":{"android":"levelo://app?vid=d7d63fec-8548-4196-b61f-b72ca1f04f16","ios":"levelo://app?vid=d7d63fec-8548-4196-b61f-b72ca1f04f16"},"vehicle_type_id":"4","last_reported":1692821160,"current_range_meters":0,"station_id":"ce4bgpp2rcd13ifvqc3g","pricing_plan_id":"free"},{"bike_id":"3ab2b5f4-287d-425c-af12-22f03219803d","system_id":"levelo_inurba_marseille","lat":43.305364,"lon":5.384119,"is_reserved":false,"is_disabled":false,"rental_uris":{"android":"levelo://app?vid=3ab2b5f4-287d-425c-af12-22f03219803d","ios":"levelo://app?vid=3ab2b5f4-287d-425c-af12-22f03219803d"},"vehicle_type_id":"4","last_reported":1692821160,"current_range_meters":21600,"station_id":"ce4bgg92rcd13ifvqb30","pricing_plan_id":"free"},{"bike_id":"b885f463-e8c5-42cc-902f-7152167ce1c7","system_id":"levelo_inurba_marseille","lat":43.299243,"lon":5.374807,"is_reserved":false,"is_disabled":false,"rental_uris":{"android":"levelo://app?vid=b885f463-e8c5-42cc-902f-7152167ce1c7","ios":"levelo://app?vid=b885f463-e8c5-42cc-902f-7152167ce1c7"},"vehicle_type_id":"4","last_reported":1692821160,"current_range_meters":31200,"station_id":"ce4bgjh2rcd13ifvqbg0","pricing_plan_id":"free"},{"bike_id":"986c67ef-66bc-45e3-99bf-0764229d1408","system_id":"levelo_inurba_marseille","lat":43.298433,"lon":5.362774,"is_reserved":false,"is_disabled":false,"rental_uris":{"android":"levelo://app?vid=986c67ef-66bc-45e3-99bf-0764229d1408","ios":"levelo://app?vid=986c67ef-66bc-45e3-99bf-0764229d1408"},"vehicle_type_id":"4","last_reported":1692821160,"current_range_meters":3600,"station_id":"ce4bgpp2rcd13ifvqc3g","pricing_plan_id":"free"},{"bike_id":"6cf2bd07-2409-4670-8e75-0906ea44a17d","system_id":"levelo_inurba_marseille","lat":43.298433,"lon":5.362774,"is_reserved":false,"is_disabled":false,"rental_uris":{"android":"levelo://app?vid=6cf2bd07-2409-4670-8e75-0906ea44a17d","ios":"levelo://app?vid=6cf2bd07-2409-4670-8e75-0906ea44a17d"},"vehicle_type_id":"4","last_reported":1692821160,"current_range_meters":14000,"station_id":"ce4bgpp2rcd13ifvqc3g","pricing_plan_id":"free"},{"bike_id":"5be1b0ce-f413-42c0-b30a-16dd7df74e68","system_id":"levelo_inurba_marseille","lat":43.30533,"lon":5.38431,"is_reserved":false,"is_disabled":false,"rental_uris":{"android":"levelo://app?vid=5be1b0ce-f413-42c0-b30a-16dd7df74e68","ios":"levelo://app?vid=5be1b0ce-f413-42c0-b30a-16dd7df74e68"},"vehicle_type_id":"4","last_reported":1692821160,"current_range_meters":24400,"station_id":"ce4bgg92rcd13ifvqb30","pricing_plan_id":"free"},{"bike_id":"2f9e2def-2173-4eb4-a460-9a385f59debe","system_id":"levelo_inurba_marseille","lat":43.299243,"lon":5.37481,"is_reserved":false,"is_disabled":false,"rental_uris":{"android":"levelo://app?vid=2f9e2def-2173-4eb4-a460-9a385f59debe","ios":"levelo://app?vid=2f9e2def-2173-4eb4-a460-9a385f59debe"},"vehicle_type_id":"4","last_reported":1692821160,"current_range_meters":31200,"station_id":"ce4bgjh2rcd13ifvqbg0","pricing_plan_id":"free"},{"bike_id":"28b61df1-b3e0-41df-81d8-7602fcd6b448","system_id":"levelo_inurba_marseille","lat":43.311722,"lon":5.387247,"is_reserved":false,"is_disabled":false,"rental_uris":{"android":"levelo://app?vid=28b61df1-b3e0-41df-81d8-7602fcd6b448","ios":"levelo://app?vid=28b61df1-b3e0-41df-81d8-7602fcd6b448"},"vehicle_type_id":"4","last_reported":1692821160,"current_range_meters":23600,"station_id":"ce4bgv12rcd13ifvqcp0","pricing_plan_id":"free"},{"bike_id":"2e1aa339-03e6-4b0a-a601-1252355f7400","system_id":"levelo_inurba_marseille","lat":43.31168,"lon":5.38721,"is_reserved":false,"is_disabled":false,"rental_uris":{"android":"levelo://app?vid=2e1aa339-03e6-4b0a-a601-1252355f7400","ios":"levelo://app?vid=2e1aa339-03e6-4b0a-a601-1252355f7400"},"vehicle_type_id":"4","last_reported":1692821160,"current_range_meters":0,"station_id":"ce4bgv12rcd13ifvqcp0","pricing_plan_id":"free"},{"bike_id":"a8087356-4aa0-44a8-9515-ea6a873c2a26","system_id":"levelo_inurba_marseille","lat":43.311722,"lon":5.387247,"is_reserved":false,"is_disabled":false,"rental_uris":{"android":"levelo://app?vid=a8087356-4aa0-44a8-9515-ea6a873c2a26","ios":"levelo://app?vid=a8087356-4aa0-44a8-9515-ea6a873c2a26"},"vehicle_type_id":"4","last_reported":1692821160,"current_range_meters":5200,"station_id":"ce4bgv12rcd13ifvqcp0","pricing_plan_id":"free"},{"bike_id":"04d4fcd9-a249-4bea-8219-b8f17d1ddd2f","system_id":"levelo_inurba_marseille","lat":43.311722,"lon":5.387247,"is_reserved":false,"is_disabled":false,"rental_uris":{"android":"levelo://app?vid=04d4fcd9-a249-4bea-8219-b8f17d1ddd2f","ios":"levelo://app?vid=04d4fcd9-a249-4bea-8219-b8f17d1ddd2f"},"vehicle_type_id":"4","last_reported":1692821160,"current_range_meters":22000,"station_id":"ce4bgv12rcd13ifvqcp0","pricing_plan_id":"free"},{"bike_id":"35eec3a1-aa54-4990-8eb4-78e6c0dd24d0","system_id":"levelo_inurba_marseille","lat":43.29916,"lon":5.37522,"is_reserved":false,"is_disabled":false,"rental_uris":{"android":"levelo://app?vid=35eec3a1-aa54-4990-8eb4-78e6c0dd24d0","ios":"levelo://app?vid=35eec3a1-aa54-4990-8eb4-78e6c0dd24d0"},"vehicle_type_id":"4","last_reported":1692821160,"current_range_meters":20000,"station_id":"ce4bgjh2rcd13ifvqbg0","pricing_plan_id":"free"},{"bike_id":"2b9a2fce-dba0-4cf4-b5cf-3855da61766b","system_id":"levelo_inurba_marseille","lat":43.32641,"lon":5.37495,"is_reserved":false,"is_disabled":false,"rental_uris":{"android":"levelo://app?vid=2b9a2fce-dba0-4cf4-b5cf-3855da61766b","ios":"levelo://app?vid=2b9a2fce-dba0-4cf4-b5cf-3855da61766b"},"vehicle_type_id":"4","last_reported":1692821160,"current_range_meters":27600,"station_id":"ce4bhqp2rcd13ifvqhog","pricing_plan_id":"free"},{"bike_id":"f7e494b3-f605-4beb-88d7-27f25f31d493","system_id":"levelo_inurba_marseille","lat":43.297774,"lon":5.370875,"is_reserved":false,"is_disabled":false,"rental_uris":{"android":"levelo://app?vid=f7e494b3-f605-4beb-88d7-27f25f31d493","ios":"levelo://app?vid=f7e494b3-f605-4beb-88d7-27f25f31d493"},"vehicle_type_id":"4","last_reported":1692821160,"current_range_meters":3600,"station_id":"ce4bgop2rcd13ifvqc1g","pricing_plan_id":"free"},{"bike_id":"2a09bcab-564c-4c25-a81c-83b9bf5e9c67","system_id":"levelo_inurba_marseille","lat":43.32828,"lon":5.36692,"is_reserved":false,"is_disabled":false,"rental_uris":{"android":"levelo://app?vid=2a09bcab-564c-4c25-a81c-83b9bf5e9c67","ios":"levelo://app?vid=2a09bcab-564c-4c25-a81c-83b9bf5e9c67"},"vehicle_type_id":"4","last_reported":1692821160,"current_range_meters":25600,"station_id":"ce4bhs92rcd13ifvqi0g","pricing_plan_id":"free"},{"bike_id":"a966849e-6e31-4751-82f7-99fb5f414fe9","system_id":"levelo_inurba_marseille","lat":43.32832,"lon":5.36694,"is_reserved":false,"is_disabled":false,"rental_uris":{"android":"levelo://app?vid=a966849e-6e31-4751-82f7-99fb5f414fe9","ios":"levelo://app?vid=a966849e-6e31-4751-82f7-99fb5f414fe9"},"vehicle_type_id":"4","last_reported":1692821160,"current_range_meters":25600,"station_id":"ce4bhs92rcd13ifvqi0g","pricing_plan_id":"free"},{"bike_id":"dd789220-e7b5-42c1-b9dc-dc4243148021","system_id":"levelo_inurba_marseille","lat":43.297163,"lon":5.365866,"is_reserved":false,"is_disabled":false,"rental_uris":{"android":"levelo://app?vid=dd789220-e7b5-42c1-b9dc-dc4243148021","ios":"levelo://app?vid=dd789220-e7b5-42c1-b9dc-dc4243148021"},"vehicle_type_id":"4","last_reported":1692821160,"current_range_meters":31200,"station_id":"ce4bgn12rcd13ifvqbt0","pricing_plan_id":"free"},{"bike_id":"f8f450b9-f7e5-4835-a734-7e20bdc3d29a","system_id":"levelo_inurba_marseille","lat":43.297163,"lon":5.365866,"is_reserved":false,"is_disabled":false,"rental_uris":{"android":"levelo://app?vid=f8f450b9-f7e5-4835-a734-7e20bdc3d29a","ios":"levelo://app?vid=f8f450b9-f7e5-4835-a734-7e20bdc3d29a"},"vehicle_type_id":"4","last_reported":1692821160,"current_range_meters":21200,"station_id":"ce4bgn12rcd13ifvqbt0","pricing_plan_id":"free"},{"bike_id":"d264ceca-a24e-4e97-80d6-ac962d1c97fd","system_id":"levelo_inurba_marseille","lat":43.297163,"lon":5.365866,"is_reserved":false,"is_disabled":false,"rental_uris":{"android":"levelo://app?vid=d264ceca-a24e-4e97-80d6-ac962d1c97fd","ios":"levelo://app?vid=d264ceca-a24e-4e97-80d6-ac962d1c97fd"},"vehicle_type_id":"4","last_reported":1692821160,"current_range_meters":17200,"station_id":"ce4bgn12rcd13ifvqbt0","pricing_plan_id":"free"},{"bike_id":"d817ec7c-9b0f-480a-ae93-420ffa2c613e","system_id":"levelo_inurba_marseille","lat":43.29682,"lon":5.3729,"is_reserved":false,"is_disabled":false,"rental_uris":{"android":"levelo://app?vid=d817ec7c-9b0f-480a-ae93-420ffa2c613e","ios":"levelo://app?vid=d817ec7c-9b0f-480a-ae93-420ffa2c613e"},"vehicle_type_id":"4","last_reported":1692821160,"current_range_meters":24800,"station_id":"ce4bgk12rcd13ifvqbj0","pricing_plan_id":"free"},{"bike_id":"24a0106b-338f-4c82-97af-9e9c8d6de438","system_id":"levelo_inurba_marseille","lat":43.32422,"lon":5.38365,"is_reserved":false,"is_disabled":false,"rental_uris":{"android":"levelo://app?vid=24a0106b-338f-4c82-97af-9e9c8d6de438","ios":"levelo://app?vid=24a0106b-338f-4c82-97af-9e9c8d6de438"},"vehicle_type_id":"4","last_reported":1692821160,"current_range_meters":19600,"station_id":"","pricing_plan_id":"free"},{"bike_id":"585f64cc-34f6-4cdf-8053-2d7451a9c579","system_id":"levelo_inurba_marseille","lat":43.29627,"lon":5.37149,"is_reserved":false,"is_disabled":false,"rental_uris":{"android":"levelo://app?vid=585f64cc-34f6-4cdf-8053-2d7451a9c579","ios":"levelo://app?vid=585f64cc-34f6-4cdf-8053-2d7451a9c579"},"vehicle_type_id":"4","last_reported":1692821160,"current_range_meters":16000,"station_id":"","pricing_plan_id":"free"},{"bike_id":"d3139180-8ba9-4c91-b6e4-8baae3c22113","system_id":"levelo_inurba_marseille","lat":43.296129,"lon":5.370777,"is_reserved":false,"is_disabled":false,"rental_uris":{"android":"levelo://app?vid=d3139180-8ba9-4c91-b6e4-8baae3c22113","ios":"levelo://app?vid=d3139180-8ba9-4c91-b6e4-8baae3c22113"},"vehicle_type_id":"4","last_reported":1692821160,"current_range_meters":30800,"station_id":"ce4bgnh2rcd13ifvqc0g","pricing_plan_id":"free"},{"bike_id":"57fadba7-ebe1-402b-bcbb-8264bad86cb7","system_id":"levelo_inurba_marseille","lat":43.29573,"lon":5.367355,"is_reserved":false,"is_disabled":false,"rental_uris":{"android":"levelo://app?vid=57fadba7-ebe1-402b-bcbb-8264bad86cb7","ios":"levelo://app?vid=57fadba7-ebe1-402b-bcbb-8264bad86cb7"},"vehicle_type_id":"4","last_reported":1692821160,"current_range_meters":31200,"station_id":"ce4bgph2rcd13ifvqc2g","pricing_plan_id":"free"},{"bike_id":"bb155e93-116e-494a-9911-2df351c7dae8","system_id":"levelo_inurba_marseille","lat":43.29613,"lon":5.37198,"is_reserved":false,"is_disabled":false,"rental_uris":{"android":"levelo://app?vid=bb155e93-116e-494a-9911-2df351c7dae8","ios":"levelo://app?vid=bb155e93-116e-494a-9911-2df351c7dae8"},"vehicle_type_id":"4","last_reported":1692821160,"current_range_meters":23600,"station_id":"","pricing_plan_id":"free"},{"bike_id":"4e09d16e-d38c-42de-b383-cdb21a5bbe05","system_id":"levelo_inurba_marseille","lat":43.317557,"lon":5.390173,"is_reserved":false,"is_disabled":false,"rental_uris":{"android":"levelo://app?vid=4e09d16e-d38c-42de-b383-cdb21a5bbe05","ios":"levelo://app?vid=4e09d16e-d38c-42de-b383-cdb21a5bbe05"},"vehicle_type_id":"4","last_reported":1692821160,"current_range_meters":8000,"station_id":"ce4bhqp2rcd13ifvqhng","pricing_plan_id":"free"},{"bike_id":"2c93ce6f-c5e1-4ec9-9941-ebb7469bb8f2","system_id":"levelo_inurba_marseille","lat":43.317557,"lon":5.390173,"is_reserved":false,"is_disabled":false,"rental_uris":{"android":"levelo://app?vid=2c93ce6f-c5e1-4ec9-9941-ebb7469bb8f2","ios":"levelo://app?vid=2c93ce6f-c5e1-4ec9-9941-ebb7469bb8f2"},"vehicle_type_id":"4","last_reported":1692821160,"current_range_meters":31200,"station_id":"ce4bhqp2rcd13ifvqhng","pricing_plan_id":"free"},{"bike_id":"97b048fb-164c-4ea5-a08f-009e2635f9f7","system_id":"levelo_inurba_marseille","lat":43.298037,"lon":5.381066,"is_reserved":false,"is_disabled":false,"rental_uris":{"android":"levelo://app?vid=97b048fb-164c-4ea5-a08f-009e2635f9f7","ios":"levelo://app?vid=97b048fb-164c-4ea5-a08f-009e2635f9f7"},"vehicle_type_id":"4","last_reported":1692821160,"current_range_meters":18000,"station_id":"ce4bgip2rcd13ifvqbb0","pricing_plan_id":"free"},{"bike_id":"bcb423ac-5fba-420a-8116-c2ef8790680b","system_id":"levelo_inurba_marseille","lat":43.298037,"lon":5.381066,"is_reserved":false,"is_disabled":false,"rental_uris":{"android":"levelo://app?vid=bcb423ac-5fba-420a-8116-c2ef8790680b","ios":"levelo://app?vid=bcb423ac-5fba-420a-8116-c2ef8790680b"},"vehicle_type_id":"4","last_reported":1692821160,"current_range_meters":13600,"station_id":"ce4bgip2rcd13ifvqbb0","pricing_plan_id":"free"},{"bike_id":"32e5488b-8fcf-4e07-b929-506bc0507e76","system_id":"levelo_inurba_marseille","lat":43.295748,"lon":5.37522,"is_reserved":false,"is_disabled":false,"rental_uris":{"android":"levelo://app?vid=32e5488b-8fcf-4e07-b929-506bc0507e76","ios":"levelo://app?vid=32e5488b-8fcf-4e07-b929-506bc0507e76"},"vehicle_type_id":"4","last_reported":1692821160,"current_range_meters":6400,"station_id":"ce4bgh92rcd13ifvqb50","pricing_plan_id":"free"},{"bike_id":"cdeee7ce-ec63-40e8-b66e-99200ec23e80","system_id":"levelo_inurba_marseille","lat":43.30432,"lon":5.38893,"is_reserved":false,"is_disabled":false,"rental_uris":{"android":"levelo://app?vid=cdeee7ce-ec63-40e8-b66e-99200ec23e80","ios":"levelo://app?vid=cdeee7ce-ec63-40e8-b66e-99200ec23e80"},"vehicle_type_id":"4","last_reported":1692821160,"current_range_meters":4000,"station_id":"ce4bgk12rcd13ifvqbi0","pricing_plan_id":"free"},{"bike_id":"66567019-6481-44d4-b5d6-89f9b26d48d3","system_id":"levelo_inurba_marseille","lat":43.304274,"lon":5.388873,"is_reserved":false,"is_disabled":false,"rental_uris":{"android":"levelo://app?vid=66567019-6481-44d4-b5d6-89f9b26d48d3","ios":"levelo://app?vid=66567019-6481-44d4-b5d6-89f9b26d48d3"},"vehicle_type_id":"4","last_reported":1692821160,"current_range_meters":26800,"station_id":"ce4bgk12rcd13ifvqbi0","pricing_plan_id":"free"},{"bike_id":"291d5634-461c-4af1-aaa9-568ba13c92c3","system_id":"levelo_inurba_marseille","lat":43.29623,"lon":5.3772,"is_reserved":false,"is_disabled":false,"rental_uris":{"android":"levelo://app?vid=291d5634-461c-4af1-aaa9-568ba13c92c3","ios":"levelo://app?vid=291d5634-461c-4af1-aaa9-568ba13c92c3"},"vehicle_type_id":"4","last_reported":1692821160,"current_range_meters":3200,"station_id":"ce4bgi92rcd13ifvqb90","pricing_plan_id":"free"},{"bike_id":"a4df99ce-0488-49dd-a888-94686f562e88","system_id":"levelo_inurba_marseille","lat":43.29547,"lon":5.3747,"is_reserved":false,"is_disabled":false,"rental_uris":{"android":"levelo://app?vid=a4df99ce-0488-49dd-a888-94686f562e88","ios":"levelo://app?vid=a4df99ce-0488-49dd-a888-94686f562e88"},"vehicle_type_id":"4","last_reported":1692821160,"current_range_meters":27200,"station_id":"ce4bgkp2rcd13ifvqbmg","pricing_plan_id":"free"},{"bike_id":"952a19e7-6602-41c3-942f-79cfb514366f","system_id":"levelo_inurba_marseille","lat":43.29754,"lon":5.38087,"is_reserved":false,"is_disabled":false,"rental_uris":{"android":"levelo://app?vid=952a19e7-6602-41c3-942f-79cfb514366f","ios":"levelo://app?vid=952a19e7-6602-41c3-942f-79cfb514366f"},"vehicle_type_id":"4","last_reported":1692821160,"current_range_meters":27200,"station_id":"","pricing_plan_id":"free"},{"bike_id":"5e373281-f436-43f5-af51-51247f646c30","system_id":"levelo_inurba_marseille","lat":43.287184,"lon":5.37937,"is_reserved":false,"is_disabled":false,"rental_uris":{"android":"levelo://app?vid=5e373281-f436-43f5-af51-51247f646c30","ios":"levelo://app?vid=5e373281-f436-43f5-af51-51247f646c30"},"vehicle_type_id":"4","last_reported":1692821160,"current_range_meters":4800,"station_id":"ce4bh9p2rcd13ifvqec0","pricing_plan_id":"free"},{"bike_id":"329b52da-6179-4119-8885-76b50cbdc2a9","system_id":"levelo_inurba_marseille","lat":43.299707,"lon":5.384859,"is_reserved":false,"is_disabled":false,"rental_uris":{"android":"levelo://app?vid=329b52da-6179-4119-8885-76b50cbdc2a9","ios":"levelo://app?vid=329b52da-6179-4119-8885-76b50cbdc2a9"},"vehicle_type_id":"4","last_reported":1692821160,"current_range_meters":20800,"station_id":"ce4bgj92rcd13ifvqbd0","pricing_plan_id":"free"},{"bike_id":"deacb73d-beca-4a9c-ba52-9233800aee1f","system_id":"levelo_inurba_marseille","lat":43.301252,"lon":5.387877,"is_reserved":false,"is_disabled":false,"rental_uris":{"android":"levelo://app?vid=deacb73d-beca-4a9c-ba52-9233800aee1f","ios":"levelo://app?vid=deacb73d-beca-4a9c-ba52-9233800aee1f"},"vehicle_type_id":"4","last_reported":1692821160,"current_range_meters":26000,"station_id":"","pricing_plan_id":"free"},{"bike_id":"828dede6-92f9-4c93-ad20-df1fdc8a0c35","system_id":"levelo_inurba_marseille","lat":43.32364,"lon":5.3888,"is_reserved":false,"is_disabled":false,"rental_uris":{"android":"levelo://app?vid=828dede6-92f9-4c93-ad20-df1fdc8a0c35","ios":"levelo://app?vid=828dede6-92f9-4c93-ad20-df1fdc8a0c35"},"vehicle_type_id":"4","last_reported":1692821160,"current_range_meters":16000,"station_id":"ce4bhqp2rcd13ifvqhog","pricing_plan_id":"free"},{"bike_id":"373c4bdf-e363-4db2-b092-deabc3a4907a","system_id":"levelo_inurba_marseille","lat":43.32367,"lon":5.388836,"is_reserved":false,"is_disabled":false,"rental_uris":{"android":"levelo://app?vid=373c4bdf-e363-4db2-b092-deabc3a4907a","ios":"levelo://app?vid=373c4bdf-e363-4db2-b092-deabc3a4907a"},"vehicle_type_id":"4","last_reported":1692821160,"current_range_meters":30800,"station_id":"ce4bhqp2rcd13ifvqhog","pricing_plan_id":"free"},{"bike_id":"7c7d326f-cdfb-41e6-abbb-d7c1d9d2955d","system_id":"levelo_inurba_marseille","lat":43.32367,"lon":5.388836,"is_reserved":false,"is_disabled":false,"rental_uris":{"android":"levelo://app?vid=7c7d326f-cdfb-41e6-abbb-d7c1d9d2955d","ios":"levelo://app?vid=7c7d326f-cdfb-41e6-abbb-d7c1d9d2955d"},"vehicle_type_id":"4","last_reported":1692821160,"current_range_meters":27200,"station_id":"ce4bhqp2rcd13ifvqhog","pricing_plan_id":"free"},{"bike_id":"32ecad24-e92e-4fa4-967e-7876de8b623c","system_id":"levelo_inurba_marseille","lat":43.32368,"lon":5.38877,"is_reserved":false,"is_disabled":false,"rental_uris":{"android":"levelo://app?vid=32ecad24-e92e-4fa4-967e-7876de8b623c","ios":"levelo://app?vid=32ecad24-e92e-4fa4-967e-7876de8b623c"},"vehicle_type_id":"4","last_reported":1692821160,"current_range_meters":14800,"station_id":"ce4bhqp2rcd13ifvqhog","pricing_plan_id":"free"},{"bike_id":"00883cd9-a56a-4720-bb55-237d0136a4a1","system_id":"levelo_inurba_marseille","lat":43.32365,"lon":5.3888,"is_reserved":false,"is_disabled":false,"rental_uris":{"android":"levelo://app?vid=00883cd9-a56a-4720-bb55-237d0136a4a1","ios":"levelo://app?vid=00883cd9-a56a-4720-bb55-237d0136a4a1"},"vehicle_type_id":"4","last_reported":1692821160,"current_range_meters":29600,"station_id":"ce4bhqp2rcd13ifvqhog","pricing_plan_id":"free"},{"bike_id":"baab8f95-6cb5-4cdb-8709-d526f67d1483","system_id":"levelo_inurba_marseille","lat":43.32367,"lon":5.388836,"is_reserved":false,"is_disabled":false,"rental_uris":{"android":"levelo://app?vid=baab8f95-6cb5-4cdb-8709-d526f67d1483","ios":"levelo://app?vid=baab8f95-6cb5-4cdb-8709-d526f67d1483"},"vehicle_type_id":"4","last_reported":1692821160,"current_range_meters":30000,"station_id":"ce4bhqp2rcd13ifvqhog","pricing_plan_id":"free"},{"bike_id":"546c1590-e508-4530-9d13-371674c664b8","system_id":"levelo_inurba_marseille","lat":43.32373,"lon":5.38877,"is_reserved":false,"is_disabled":false,"rental_uris":{"android":"levelo://app?vid=546c1590-e508-4530-9d13-371674c664b8","ios":"levelo://app?vid=546c1590-e508-4530-9d13-371674c664b8"},"vehicle_type_id":"4","last_reported":1692821160,"current_range_meters":26000,"station_id":"ce4bhqp2rcd13ifvqhog","pricing_plan_id":"free"},{"bike_id":"d7fb9c00-6bf8-4bfa-822f-aac11f42d8d9","system_id":"levelo_inurba_marseille","lat":43.32368,"lon":5.38885,"is_reserved":false,"is_disabled":false,"rental_uris":{"android":"levelo://app?vid=d7fb9c00-6bf8-4bfa-822f-aac11f42d8d9","ios":"levelo://app?vid=d7fb9c00-6bf8-4bfa-822f-aac11f42d8d9"},"vehicle_type_id":"4","last_reported":1692821160,"current_range_meters":30000,"station_id":"ce4bhqp2rcd13ifvqhog","pricing_plan_id":"free"},{"bike_id":"d5288a56-1e31-4d12-bf06-1cd0ec26aa79","system_id":"levelo_inurba_marseille","lat":43.32364,"lon":5.3889,"is_reserved":false,"is_disabled":false,"rental_uris":{"android":"levelo://app?vid=d5288a56-1e31-4d12-bf06-1cd0ec26aa79","ios":"levelo://app?vid=d5288a56-1e31-4d12-bf06-1cd0ec26aa79"},"vehicle_type_id":"4","last_reported":1692821160,"current_range_meters":27600,"station_id":"ce4bhqp2rcd13ifvqhog","pricing_plan_id":"free"},{"bike_id":"49c5a9f4-e27f-4512-858e-1859315046f2","system_id":"levelo_inurba_marseille","lat":43.32372,"lon":5.388845,"is_reserved":false,"is_disabled":false,"rental_uris":{"android":"levelo://app?vid=49c5a9f4-e27f-4512-858e-1859315046f2","ios":"levelo://app?vid=49c5a9f4-e27f-4512-858e-1859315046f2"},"vehicle_type_id":"4","last_reported":1692821160,"current_range_meters":31200,"station_id":"ce4bhqp2rcd13ifvqhog","pricing_plan_id":"free"},{"bike_id":"c5bc3cba-282e-484d-b591-63b5722745ec","system_id":"levelo_inurba_marseille","lat":43.32367,"lon":5.388836,"is_reserved":false,"is_disabled":false,"rental_uris":{"android":"levelo://app?vid=c5bc3cba-282e-484d-b591-63b5722745ec","ios":"levelo://app?vid=c5bc3cba-282e-484d-b591-63b5722745ec"},"vehicle_type_id":"4","last_reported":1692821160,"current_range_meters":9600,"station_id":"ce4bhqp2rcd13ifvqhog","pricing_plan_id":"free"},{"bike_id":"a5ec69c4-07ee-4c50-8775-821329b65a3d","system_id":"levelo_inurba_marseille","lat":43.32368,"lon":5.3889,"is_reserved":false,"is_disabled":false,"rental_uris":{"android":"levelo://app?vid=a5ec69c4-07ee-4c50-8775-821329b65a3d","ios":"levelo://app?vid=a5ec69c4-07ee-4c50-8775-821329b65a3d"},"vehicle_type_id":"4","last_reported":1692821160,"current_range_meters":30400,"station_id":"ce4bhqp2rcd13ifvqhog","pricing_plan_id":"free"},{"bike_id":"086ccc2b-b3e2-402c-9fd3-6512af113421","system_id":"levelo_inurba_marseille","lat":43.32364,"lon":5.38894,"is_reserved":false,"is_disabled":false,"rental_uris":{"android":"levelo://app?vid=086ccc2b-b3e2-402c-9fd3-6512af113421","ios":"levelo://app?vid=086ccc2b-b3e2-402c-9fd3-6512af113421"},"vehicle_type_id":"4","last_reported":1692821160,"current_range_meters":27200,"station_id":"ce4bhqp2rcd13ifvqhog","pricing_plan_id":"free"},{"bike_id":"806c2268-3423-46f3-b665-6097df066def","system_id":"levelo_inurba_marseille","lat":43.32375,"lon":5.38884,"is_reserved":false,"is_disabled":false,"rental_uris":{"android":"levelo://app?vid=806c2268-3423-46f3-b665-6097df066def","ios":"levelo://app?vid=806c2268-3423-46f3-b665-6097df066def"},"vehicle_type_id":"4","last_reported":1692821160,"current_range_meters":31200,"station_id":"ce4bhqp2rcd13ifvqhog","pricing_plan_id":"free"},{"bike_id":"9622801f-a665-42a8-bdea-eba2330a474a","system_id":"levelo_inurba_marseille","lat":43.32363,"lon":5.38898,"is_reserved":false,"is_disabled":false,"rental_uris":{"android":"levelo://app?vid=9622801f-a665-42a8-bdea-eba2330a474a","ios":"levelo://app?vid=9622801f-a665-42a8-bdea-eba2330a474a"},"vehicle_type_id":"4","last_reported":1692821160,"current_range_meters":28800,"station_id":"ce4bhqp2rcd13ifvqhog","pricing_plan_id":"free"},{"bike_id":"fa8e9340-8016-4a54-9355-42e5c0a5d2cc","system_id":"levelo_inurba_marseille","lat":43.29602,"lon":5.381084,"is_reserved":false,"is_disabled":false,"rental_uris":{"android":"levelo://app?vid=fa8e9340-8016-4a54-9355-42e5c0a5d2cc","ios":"levelo://app?vid=fa8e9340-8016-4a54-9355-42e5c0a5d2cc"},"vehicle_type_id":"4","last_reported":1692821160,"current_range_meters":14400,"station_id":"ce4bgl12rcd13ifvqbo0","pricing_plan_id":"free"},{"bike_id":"e2b1b2a0-f604-4925-be81-b52a85a3ddcc","system_id":"levelo_inurba_marseille","lat":43.29602,"lon":5.381084,"is_reserved":false,"is_disabled":false,"rental_uris":{"android":"levelo://app?vid=e2b1b2a0-f604-4925-be81-b52a85a3ddcc","ios":"levelo://app?vid=e2b1b2a0-f604-4925-be81-b52a85a3ddcc"},"vehicle_type_id":"4","last_reported":1692821160,"current_range_meters":5600,"station_id":"ce4bgl12rcd13ifvqbo0","pricing_plan_id":"free"},{"bike_id":"223b2a47-1469-4944-a2f6-f808166d5ccc","system_id":"levelo_inurba_marseille","lat":43.293058,"lon":5.371819,"is_reserved":false,"is_disabled":false,"rental_uris":{"android":"levelo://app?vid=223b2a47-1469-4944-a2f6-f808166d5ccc","ios":"levelo://app?vid=223b2a47-1469-4944-a2f6-f808166d5ccc"},"vehicle_type_id":"4","last_reported":1692821160,"current_range_meters":13200,"station_id":"ce4bgh92rcd13ifvqb40","pricing_plan_id":"free"},{"bike_id":"c82820a4-650b-48eb-9c5a-416c8c541161","system_id":"levelo_inurba_marseille","lat":43.293051,"lon":5.371813,"is_reserved":false,"is_disabled":false,"rental_uris":{"android":"levelo://app?vid=c82820a4-650b-48eb-9c5a-416c8c541161","ios":"levelo://app?vid=c82820a4-650b-48eb-9c5a-416c8c541161"},"vehicle_type_id":"4","last_reported":1692821160,"current_range_meters":14000,"station_id":"ce4bgh92rcd13ifvqb40","pricing_plan_id":"free"},{"bike_id":"88f256bb-d624-441d-8897-cb2a80fbfdfb","system_id":"levelo_inurba_marseille","lat":43.29721,"lon":5.3848,"is_reserved":false,"is_disabled":false,"rental_uris":{"android":"levelo://app?vid=88f256bb-d624-441d-8897-cb2a80fbfdfb","ios":"levelo://app?vid=88f256bb-d624-441d-8897-cb2a80fbfdfb"},"vehicle_type_id":"4","last_reported":1692821160,"current_range_meters":0,"station_id":"","pricing_plan_id":"free"},{"bike_id":"38fef587-7cc5-4800-b069-87b8f296a10a","system_id":"levelo_inurba_marseille","lat":43.293009,"lon":5.374584,"is_reserved":false,"is_disabled":false,"rental_uris":{"android":"levelo://app?vid=38fef587-7cc5-4800-b069-87b8f296a10a","ios":"levelo://app?vid=38fef587-7cc5-4800-b069-87b8f296a10a"},"vehicle_type_id":"4","last_reported":1692821160,"current_range_meters":31200,"station_id":"ce4bgi12rcd13ifvqb70","pricing_plan_id":"free"},{"bike_id":"0724f352-a262-45b7-9b71-9a09ff17d945","system_id":"levelo_inurba_marseille","lat":43.303002,"lon":5.392142,"is_reserved":false,"is_disabled":false,"rental_uris":{"android":"levelo://app?vid=0724f352-a262-45b7-9b71-9a09ff17d945","ios":"levelo://app?vid=0724f352-a262-45b7-9b71-9a09ff17d945"},"vehicle_type_id":"4","last_reported":1692821160,"current_range_meters":25600,"station_id":"ce4bgkh2rcd13ifvqbk0","pricing_plan_id":"free"},{"bike_id":"59d4a7cc-c4d8-47e1-a63f-2e26b5d209c3","system_id":"levelo_inurba_marseille","lat":43.2936,"lon":5.37835,"is_reserved":false,"is_disabled":false,"rental_uris":{"android":"levelo://app?vid=59d4a7cc-c4d8-47e1-a63f-2e26b5d209c3","ios":"levelo://app?vid=59d4a7cc-c4d8-47e1-a63f-2e26b5d209c3"},"vehicle_type_id":"4","last_reported":1692821160,"current_range_meters":31200,"station_id":"ce4bgjh2rcd13ifvqbf0","pricing_plan_id":"free"},{"bike_id":"e749ca76-8f00-4d8a-824d-8532d1f30ee1","system_id":"levelo_inurba_marseille","lat":43.2936,"lon":5.37835,"is_reserved":false,"is_disabled":false,"rental_uris":{"android":"levelo://app?vid=e749ca76-8f00-4d8a-824d-8532d1f30ee1","ios":"levelo://app?vid=e749ca76-8f00-4d8a-824d-8532d1f30ee1"},"vehicle_type_id":"4","last_reported":1692821160,"current_range_meters":0,"station_id":"ce4bgjh2rcd13ifvqbf0","pricing_plan_id":"free"},{"bike_id":"ac2ceb12-bc20-4654-bc02-9f9a66646b41","system_id":"levelo_inurba_marseille","lat":43.29882,"lon":5.38912,"is_reserved":false,"is_disabled":false,"rental_uris":{"android":"levelo://app?vid=ac2ceb12-bc20-4654-bc02-9f9a66646b41","ios":"levelo://app?vid=ac2ceb12-bc20-4654-bc02-9f9a66646b41"},"vehicle_type_id":"4","last_reported":1692821160,"current_range_meters":12000,"station_id":"ce4bh392rcd13ifvqdl0","pricing_plan_id":"free"},{"bike_id":"b5b4dd43-d91b-4768-a2c9-4b8e9b252665","system_id":"levelo_inurba_marseille","lat":43.309897,"lon":5.39636,"is_reserved":false,"is_disabled":false,"rental_uris":{"android":"levelo://app?vid=b5b4dd43-d91b-4768-a2c9-4b8e9b252665","ios":"levelo://app?vid=b5b4dd43-d91b-4768-a2c9-4b8e9b252665"},"vehicle_type_id":"4","last_reported":1692821160,"current_range_meters":12000,"station_id":"ce4bh012rcd13ifvqcv0","pricing_plan_id":"free"},{"bike_id":"8a3658ce-1cba-4d9c-b806-0783e49410d8","system_id":"levelo_inurba_marseille","lat":43.31332,"lon":5.39674,"is_reserved":false,"is_disabled":false,"rental_uris":{"android":"levelo://app?vid=8a3658ce-1cba-4d9c-b806-0783e49410d8","ios":"levelo://app?vid=8a3658ce-1cba-4d9c-b806-0783e49410d8"},"vehicle_type_id":"4","last_reported":1692821160,"current_range_meters":15600,"station_id":"ce4bgvp2rcd13ifvqcu0","pricing_plan_id":"free"},{"bike_id":"6d0241da-f34a-47be-8b96-83c9274ff498","system_id":"levelo_inurba_marseille","lat":43.3133,"lon":5.39687,"is_reserved":false,"is_disabled":false,"rental_uris":{"android":"levelo://app?vid=6d0241da-f34a-47be-8b96-83c9274ff498","ios":"levelo://app?vid=6d0241da-f34a-47be-8b96-83c9274ff498"},"vehicle_type_id":"4","last_reported":1692821160,"current_range_meters":26400,"station_id":"ce4bgvp2rcd13ifvqcu0","pricing_plan_id":"free"},{"bike_id":"4f0c0446-1f7e-4e3e-8e1e-cd9526c53add","system_id":"levelo_inurba_marseille","lat":43.309038,"lon":5.396546,"is_reserved":false,"is_disabled":false,"rental_uris":{"android":"levelo://app?vid=4f0c0446-1f7e-4e3e-8e1e-cd9526c53add","ios":"levelo://app?vid=4f0c0446-1f7e-4e3e-8e1e-cd9526c53add"},"vehicle_type_id":"4","last_reported":1692821160,"current_range_meters":26400,"station_id":"ce4bh012rcd13ifvqcv0","pricing_plan_id":"free"},{"bike_id":"76391f75-8a50-4ea1-9c78-2b5222350cc8","system_id":"levelo_inurba_marseille","lat":43.313291,"lon":5.396838,"is_reserved":false,"is_disabled":false,"rental_uris":{"android":"levelo://app?vid=76391f75-8a50-4ea1-9c78-2b5222350cc8","ios":"levelo://app?vid=76391f75-8a50-4ea1-9c78-2b5222350cc8"},"vehicle_type_id":"4","last_reported":1692821160,"current_range_meters":16000,"station_id":"ce4bgvp2rcd13ifvqcu0","pricing_plan_id":"free"},{"bike_id":"0539f750-6ac9-4355-b11e-71aa2b1bcca6","system_id":"levelo_inurba_marseille","lat":43.30889,"lon":5.39655,"is_reserved":false,"is_disabled":false,"rental_uris":{"android":"levelo://app?vid=0539f750-6ac9-4355-b11e-71aa2b1bcca6","ios":"levelo://app?vid=0539f750-6ac9-4355-b11e-71aa2b1bcca6"},"vehicle_type_id":"4","last_reported":1692821160,"current_range_meters":20400,"station_id":"ce4bh012rcd13ifvqcv0","pricing_plan_id":"free"},{"bike_id":"b77bf549-92cf-4765-8f71-c4954199d44d","system_id":"levelo_inurba_marseille","lat":43.30882,"lon":5.39656,"is_reserved":false,"is_disabled":false,"rental_uris":{"android":"levelo://app?vid=b77bf549-92cf-4765-8f71-c4954199d44d","ios":"levelo://app?vid=b77bf549-92cf-4765-8f71-c4954199d44d"},"vehicle_type_id":"4","last_reported":1692821160,"current_range_meters":2400,"station_id":"ce4bh012rcd13ifvqcv0","pricing_plan_id":"free"},{"bike_id":"fadd9ab6-6020-4e48-a176-6f955ff78c90","system_id":"levelo_inurba_marseille","lat":43.313291,"lon":5.396838,"is_reserved":false,"is_disabled":false,"rental_uris":{"android":"levelo://app?vid=fadd9ab6-6020-4e48-a176-6f955ff78c90","ios":"levelo://app?vid=fadd9ab6-6020-4e48-a176-6f955ff78c90"},"vehicle_type_id":"4","last_reported":1692821160,"current_range_meters":12000,"station_id":"ce4bgvp2rcd13ifvqcu0","pricing_plan_id":"free"},{"bike_id":"9d139d12-e125-42aa-9c94-6e95b0535aa8","system_id":"levelo_inurba_marseille","lat":43.29529,"lon":5.385581,"is_reserved":false,"is_disabled":false,"rental_uris":{"android":"levelo://app?vid=9d139d12-e125-42aa-9c94-6e95b0535aa8","ios":"levelo://app?vid=9d139d12-e125-42aa-9c94-6e95b0535aa8"},"vehicle_type_id":"4","last_reported":1692821160,"current_range_meters":800,"station_id":"ce4bgih2rcd13ifvqba0","pricing_plan_id":"free"},{"bike_id":"a773cf30-2c7c-4b84-b5ec-262db16e45b9","system_id":"levelo_inurba_marseille","lat":43.29529,"lon":5.385581,"is_reserved":false,"is_disabled":false,"rental_uris":{"android":"levelo://app?vid=a773cf30-2c7c-4b84-b5ec-262db16e45b9","ios":"levelo://app?vid=a773cf30-2c7c-4b84-b5ec-262db16e45b9"},"vehicle_type_id":"4","last_reported":1692821160,"current_range_meters":6400,"station_id":"ce4bgih2rcd13ifvqba0","pricing_plan_id":"free"},{"bike_id":"e3d70942-f10d-4cb9-825d-382392d0c69d","system_id":"levelo_inurba_marseille","lat":43.29529,"lon":5.385581,"is_reserved":false,"is_disabled":false,"rental_uris":{"android":"levelo://app?vid=e3d70942-f10d-4cb9-825d-382392d0c69d","ios":"levelo://app?vid=e3d70942-f10d-4cb9-825d-382392d0c69d"},"vehicle_type_id":"4","last_reported":1692821160,"current_range_meters":23600,"station_id":"ce4bgih2rcd13ifvqba0","pricing_plan_id":"free"},{"bike_id":"94970daa-523b-46d5-aa01-463ea0cc6f12","system_id":"levelo_inurba_marseille","lat":43.302008,"lon":5.394694,"is_reserved":false,"is_disabled":false,"rental_uris":{"android":"levelo://app?vid=94970daa-523b-46d5-aa01-463ea0cc6f12","ios":"levelo://app?vid=94970daa-523b-46d5-aa01-463ea0cc6f12"},"vehicle_type_id":"4","last_reported":1692821160,"current_range_meters":22400,"station_id":"ce4bh0p2rcd13ifvqd70","pricing_plan_id":"free"},{"bike_id":"3da9da71-dc64-498f-aed7-1da2528a2b85","system_id":"levelo_inurba_marseille","lat":43.302008,"lon":5.394694,"is_reserved":false,"is_disabled":false,"rental_uris":{"android":"levelo://app?vid=3da9da71-dc64-498f-aed7-1da2528a2b85","ios":"levelo://app?vid=3da9da71-dc64-498f-aed7-1da2528a2b85"},"vehicle_type_id":"4","last_reported":1692821160,"current_range_meters":14400,"station_id":"ce4bh0p2rcd13ifvqd70","pricing_plan_id":"free"},{"bike_id":"39b5b5cf-86ef-48ea-a176-58e554756417","system_id":"levelo_inurba_marseille","lat":43.30206,"lon":5.39465,"is_reserved":false,"is_disabled":false,"rental_uris":{"android":"levelo://app?vid=39b5b5cf-86ef-48ea-a176-58e554756417","ios":"levelo://app?vid=39b5b5cf-86ef-48ea-a176-58e554756417"},"vehicle_type_id":"4","last_reported":1692821160,"current_range_meters":30800,"station_id":"ce4bh0p2rcd13ifvqd70","pricing_plan_id":"free"},{"bike_id":"22215be6-b9ad-4ad6-9ac7-366c98cad216","system_id":"levelo_inurba_marseille","lat":43.29529,"lon":5.385581,"is_reserved":false,"is_disabled":false,"rental_uris":{"android":"levelo://app?vid=22215be6-b9ad-4ad6-9ac7-366c98cad216","ios":"levelo://app?vid=22215be6-b9ad-4ad6-9ac7-366c98cad216"},"vehicle_type_id":"4","last_reported":1692821160,"current_range_meters":8800,"station_id":"ce4bgih2rcd13ifvqba0","pricing_plan_id":"free"},{"bike_id":"16c3fbd4-b613-4699-9890-3340842026d5","system_id":"levelo_inurba_marseille","lat":43.29425,"lon":5.385913,"is_reserved":false,"is_disabled":false,"rental_uris":{"android":"levelo://app?vid=16c3fbd4-b613-4699-9890-3340842026d5","ios":"levelo://app?vid=16c3fbd4-b613-4699-9890-3340842026d5"},"vehicle_type_id":"4","last_reported":1692821160,"current_range_meters":2000,"station_id":"ce4bh2h2rcd13ifvqdh0","pricing_plan_id":"free"},{"bike_id":"972f341e-2dfc-48ee-9e95-759322748ac8","system_id":"levelo_inurba_marseille","lat":43.29422,"lon":5.38631,"is_reserved":false,"is_disabled":false,"rental_uris":{"android":"levelo://app?vid=972f341e-2dfc-48ee-9e95-759322748ac8","ios":"levelo://app?vid=972f341e-2dfc-48ee-9e95-759322748ac8"},"vehicle_type_id":"4","last_reported":1692821160,"current_range_meters":5200,"station_id":"ce4bh2h2rcd13ifvqdh0","pricing_plan_id":"free"},{"bike_id":"e4a914f8-5d40-4996-a9bd-26a10061e36b","system_id":"levelo_inurba_marseille","lat":43.294153,"lon":5.386305,"is_reserved":false,"is_disabled":false,"rental_uris":{"android":"levelo://app?vid=e4a914f8-5d40-4996-a9bd-26a10061e36b","ios":"levelo://app?vid=e4a914f8-5d40-4996-a9bd-26a10061e36b"},"vehicle_type_id":"4","last_reported":1692821160,"current_range_meters":0,"station_id":"ce4bh2h2rcd13ifvqdh0","pricing_plan_id":"free"},{"bike_id":"94641cee-3bda-4ac4-b988-c08c7186bd1c","system_id":"levelo_inurba_marseille","lat":43.29419,"lon":5.38629,"is_reserved":false,"is_disabled":false,"rental_uris":{"android":"levelo://app?vid=94641cee-3bda-4ac4-b988-c08c7186bd1c","ios":"levelo://app?vid=94641cee-3bda-4ac4-b988-c08c7186bd1c"},"vehicle_type_id":"4","last_reported":1692821160,"current_range_meters":7600,"station_id":"ce4bh2h2rcd13ifvqdh0","pricing_plan_id":"free"},{"bike_id":"f9a91e38-1b69-4531-b9d7-be5ddd3817a1","system_id":"levelo_inurba_marseille","lat":43.29417,"lon":5.38626,"is_reserved":false,"is_disabled":false,"rental_uris":{"android":"levelo://app?vid=f9a91e38-1b69-4531-b9d7-be5ddd3817a1","ios":"levelo://app?vid=f9a91e38-1b69-4531-b9d7-be5ddd3817a1"},"vehicle_type_id":"4","last_reported":1692821160,"current_range_meters":16000,"station_id":"ce4bh2h2rcd13ifvqdh0","pricing_plan_id":"free"},{"bike_id":"369227df-e5f1-4787-8715-3d735f3d8cf0","system_id":"levelo_inurba_marseille","lat":43.29418,"lon":5.38628,"is_reserved":false,"is_disabled":false,"rental_uris":{"android":"levelo://app?vid=369227df-e5f1-4787-8715-3d735f3d8cf0","ios":"levelo://app?vid=369227df-e5f1-4787-8715-3d735f3d8cf0"},"vehicle_type_id":"4","last_reported":1692821160,"current_range_meters":1600,"station_id":"ce4bh2h2rcd13ifvqdh0","pricing_plan_id":"free"},{"bike_id":"60c5f8ff-3a5b-46b7-ad6f-7094e0aae981","system_id":"levelo_inurba_marseille","lat":43.29417,"lon":5.3863,"is_reserved":false,"is_disabled":false,"rental_uris":{"android":"levelo://app?vid=60c5f8ff-3a5b-46b7-ad6f-7094e0aae981","ios":"levelo://app?vid=60c5f8ff-3a5b-46b7-ad6f-7094e0aae981"},"vehicle_type_id":"4","last_reported":1692821160,"current_range_meters":14800,"station_id":"ce4bh2h2rcd13ifvqdh0","pricing_plan_id":"free"},{"bike_id":"194ad822-aa11-4cd5-bf5e-efa8601704aa","system_id":"levelo_inurba_marseille","lat":43.29414,"lon":5.38629,"is_reserved":false,"is_disabled":false,"rental_uris":{"android":"levelo://app?vid=194ad822-aa11-4cd5-bf5e-efa8601704aa","ios":"levelo://app?vid=194ad822-aa11-4cd5-bf5e-efa8601704aa"},"vehicle_type_id":"4","last_reported":1692821160,"current_range_meters":0,"station_id":"ce4bh2h2rcd13ifvqdh0","pricing_plan_id":"free"},{"bike_id":"24ac350e-45cc-4a1a-89d5-dc3fe05dfcb1","system_id":"levelo_inurba_marseille","lat":43.29414,"lon":5.38629,"is_reserved":false,"is_disabled":false,"rental_uris":{"android":"levelo://app?vid=24ac350e-45cc-4a1a-89d5-dc3fe05dfcb1","ios":"levelo://app?vid=24ac350e-45cc-4a1a-89d5-dc3fe05dfcb1"},"vehicle_type_id":"4","last_reported":1692821160,"current_range_meters":9600,"station_id":"ce4bh2h2rcd13ifvqdh0","pricing_plan_id":"free"},{"bike_id":"4ae19607-9d4d-438c-88ab-68304a33d616","system_id":"levelo_inurba_marseille","lat":43.294203,"lon":5.386435,"is_reserved":false,"is_disabled":false,"rental_uris":{"android":"levelo://app?vid=4ae19607-9d4d-438c-88ab-68304a33d616","ios":"levelo://app?vid=4ae19607-9d4d-438c-88ab-68304a33d616"},"vehicle_type_id":"4","last_reported":1692821160,"current_range_meters":11200,"station_id":"ce4bh2h2rcd13ifvqdh0","pricing_plan_id":"free"},{"bike_id":"bb9d49d7-52a5-4302-b4bd-28396b570c2e","system_id":"levelo_inurba_marseille","lat":43.29411,"lon":5.38634,"is_reserved":false,"is_disabled":false,"rental_uris":{"android":"levelo://app?vid=bb9d49d7-52a5-4302-b4bd-28396b570c2e","ios":"levelo://app?vid=bb9d49d7-52a5-4302-b4bd-28396b570c2e"},"vehicle_type_id":"4","last_reported":1692821160,"current_range_meters":6400,"station_id":"ce4bh2h2rcd13ifvqdh0","pricing_plan_id":"free"},{"bike_id":"237c1187-0b1e-4a6a-83f3-89fcb0ea5cea","system_id":"levelo_inurba_marseille","lat":43.292641,"lon":5.384387,"is_reserved":false,"is_disabled":false,"rental_uris":{"android":"levelo://app?vid=237c1187-0b1e-4a6a-83f3-89fcb0ea5cea","ios":"levelo://app?vid=237c1187-0b1e-4a6a-83f3-89fcb0ea5cea"},"vehicle_type_id":"4","last_reported":1692821160,"current_range_meters":0,"station_id":"ce4bgt92rcd13ifvqcg0","pricing_plan_id":"free"},{"bike_id":"08e77b78-cd88-4a4f-85ff-794ef71045c0","system_id":"levelo_inurba_marseille","lat":43.304296,"lon":5.397513,"is_reserved":false,"is_disabled":false,"rental_uris":{"android":"levelo://app?vid=08e77b78-cd88-4a4f-85ff-794ef71045c0","ios":"levelo://app?vid=08e77b78-cd88-4a4f-85ff-794ef71045c0"},"vehicle_type_id":"4","last_reported":1692821160,"current_range_meters":18800,"station_id":"ce4bh092rcd13ifvqd20","pricing_plan_id":"free"},{"bike_id":"c9c8a93e-339f-4d1c-8de4-8b1702245fb0","system_id":"levelo_inurba_marseille","lat":43.294153,"lon":5.386305,"is_reserved":false,"is_disabled":false,"rental_uris":{"android":"levelo://app?vid=c9c8a93e-339f-4d1c-8de4-8b1702245fb0","ios":"levelo://app?vid=c9c8a93e-339f-4d1c-8de4-8b1702245fb0"},"vehicle_type_id":"4","last_reported":1692821160,"current_range_meters":0,"station_id":"ce4bh2h2rcd13ifvqdh0","pricing_plan_id":"free"},{"bike_id":"b469ea61-0f9c-4980-a585-873afdf8f35d","system_id":"levelo_inurba_marseille","lat":43.292642,"lon":5.384254,"is_reserved":false,"is_disabled":false,"rental_uris":{"android":"levelo://app?vid=b469ea61-0f9c-4980-a585-873afdf8f35d","ios":"levelo://app?vid=b469ea61-0f9c-4980-a585-873afdf8f35d"},"vehicle_type_id":"4","last_reported":1692821160,"current_range_meters":0,"station_id":"ce4bh692rcd13ifvqea0","pricing_plan_id":"free"},{"bike_id":"9e05c647-a8fe-40b8-8439-d30c8a3b7dd9","system_id":"levelo_inurba_marseille","lat":43.292642,"lon":5.384254,"is_reserved":false,"is_disabled":false,"rental_uris":{"android":"levelo://app?vid=9e05c647-a8fe-40b8-8439-d30c8a3b7dd9","ios":"levelo://app?vid=9e05c647-a8fe-40b8-8439-d30c8a3b7dd9"},"vehicle_type_id":"4","last_reported":1692821160,"current_range_meters":7200,"station_id":"ce4bh692rcd13ifvqea0","pricing_plan_id":"free"},{"bike_id":"f5d1a440-4c01-4093-bb03-8475b7a54f4c","system_id":"levelo_inurba_marseille","lat":43.292642,"lon":5.384254,"is_reserved":false,"is_disabled":false,"rental_uris":{"android":"levelo://app?vid=f5d1a440-4c01-4093-bb03-8475b7a54f4c","ios":"levelo://app?vid=f5d1a440-4c01-4093-bb03-8475b7a54f4c"},"vehicle_type_id":"4","last_reported":1692821160,"current_range_meters":17200,"station_id":"ce4bh692rcd13ifvqea0","pricing_plan_id":"free"},{"bike_id":"165a796c-a566-411e-b065-ae6f88409351","system_id":"levelo_inurba_marseille","lat":43.33036,"lon":5.38918,"is_reserved":false,"is_disabled":false,"rental_uris":{"android":"levelo://app?vid=165a796c-a566-411e-b065-ae6f88409351","ios":"levelo://app?vid=165a796c-a566-411e-b065-ae6f88409351"},"vehicle_type_id":"4","last_reported":1692821160,"current_range_meters":30800,"station_id":"ce4bhr92rcd13ifvqhrg","pricing_plan_id":"free"},{"bike_id":"1c07e25f-84db-4513-bedb-11b97c6ec9b6","system_id":"levelo_inurba_marseille","lat":43.33039,"lon":5.38917,"is_reserved":false,"is_disabled":false,"rental_uris":{"android":"levelo://app?vid=1c07e25f-84db-4513-bedb-11b97c6ec9b6","ios":"levelo://app?vid=1c07e25f-84db-4513-bedb-11b97c6ec9b6"},"vehicle_type_id":"4","last_reported":1692821160,"current_range_meters":6800,"station_id":"ce4bhr92rcd13ifvqhrg","pricing_plan_id":"free"},{"bike_id":"33a74228-ed2d-4fd0-bf1b-8fb5bd373a96","system_id":"levelo_inurba_marseille","lat":43.33039,"lon":5.38917,"is_reserved":false,"is_disabled":false,"rental_uris":{"android":"levelo://app?vid=33a74228-ed2d-4fd0-bf1b-8fb5bd373a96","ios":"levelo://app?vid=33a74228-ed2d-4fd0-bf1b-8fb5bd373a96"},"vehicle_type_id":"4","last_reported":1692821160,"current_range_meters":30400,"station_id":"ce4bhr92rcd13ifvqhrg","pricing_plan_id":"free"},{"bike_id":"cde08171-d87e-45a5-a8d0-c519ab926fc6","system_id":"levelo_inurba_marseille","lat":43.3304,"lon":5.38917,"is_reserved":false,"is_disabled":false,"rental_uris":{"android":"levelo://app?vid=cde08171-d87e-45a5-a8d0-c519ab926fc6","ios":"levelo://app?vid=cde08171-d87e-45a5-a8d0-c519ab926fc6"},"vehicle_type_id":"4","last_reported":1692821160,"current_range_meters":800,"station_id":"ce4bhr92rcd13ifvqhrg","pricing_plan_id":"free"},{"bike_id":"5f4f9907-0787-4bf8-8a56-fcaa0a043375","system_id":"levelo_inurba_marseille","lat":43.33041,"lon":5.38916,"is_reserved":false,"is_disabled":false,"rental_uris":{"android":"levelo://app?vid=5f4f9907-0787-4bf8-8a56-fcaa0a043375","ios":"levelo://app?vid=5f4f9907-0787-4bf8-8a56-fcaa0a043375"},"vehicle_type_id":"4","last_reported":1692821160,"current_range_meters":20000,"station_id":"ce4bhr92rcd13ifvqhrg","pricing_plan_id":"free"},{"bike_id":"8b9f9b54-2e03-4d4e-bfd8-a7cfda03648a","system_id":"levelo_inurba_marseille","lat":43.33041,"lon":5.38918,"is_reserved":false,"is_disabled":false,"rental_uris":{"android":"levelo://app?vid=8b9f9b54-2e03-4d4e-bfd8-a7cfda03648a","ios":"levelo://app?vid=8b9f9b54-2e03-4d4e-bfd8-a7cfda03648a"},"vehicle_type_id":"4","last_reported":1692821160,"current_range_meters":26000,"station_id":"ce4bhr92rcd13ifvqhrg","pricing_plan_id":"free"},{"bike_id":"81bdd50f-e2c9-4875-93b8-ce66b1f39ff9","system_id":"levelo_inurba_marseille","lat":43.33041,"lon":5.38918,"is_reserved":false,"is_disabled":false,"rental_uris":{"android":"levelo://app?vid=81bdd50f-e2c9-4875-93b8-ce66b1f39ff9","ios":"levelo://app?vid=81bdd50f-e2c9-4875-93b8-ce66b1f39ff9"},"vehicle_type_id":"4","last_reported":1692821160,"current_range_meters":12800,"station_id":"ce4bhr92rcd13ifvqhrg","pricing_plan_id":"free"},{"bike_id":"883002d6-96d7-4961-a7c4-8d902095e50b","system_id":"levelo_inurba_marseille","lat":43.33043,"lon":5.38918,"is_reserved":false,"is_disabled":false,"rental_uris":{"android":"levelo://app?vid=883002d6-96d7-4961-a7c4-8d902095e50b","ios":"levelo://app?vid=883002d6-96d7-4961-a7c4-8d902095e50b"},"vehicle_type_id":"4","last_reported":1692821160,"current_range_meters":0,"station_id":"ce4bhr92rcd13ifvqhrg","pricing_plan_id":"free"},{"bike_id":"73e30c8d-1fec-42fa-994e-db63cd20ad16","system_id":"levelo_inurba_marseille","lat":43.33042,"lon":5.38921,"is_reserved":false,"is_disabled":false,"rental_uris":{"android":"levelo://app?vid=73e30c8d-1fec-42fa-994e-db63cd20ad16","ios":"levelo://app?vid=73e30c8d-1fec-42fa-994e-db63cd20ad16"},"vehicle_type_id":"4","last_reported":1692821160,"current_range_meters":23600,"station_id":"ce4bhr92rcd13ifvqhrg","pricing_plan_id":"free"},{"bike_id":"74ea78cc-f45f-4c1f-9b5c-8a8db17632a2","system_id":"levelo_inurba_marseille","lat":43.33043,"lon":5.3892,"is_reserved":false,"is_disabled":false,"rental_uris":{"android":"levelo://app?vid=74ea78cc-f45f-4c1f-9b5c-8a8db17632a2","ios":"levelo://app?vid=74ea78cc-f45f-4c1f-9b5c-8a8db17632a2"},"vehicle_type_id":"4","last_reported":1692821160,"current_range_meters":23200,"station_id":"ce4bhr92rcd13ifvqhrg","pricing_plan_id":"free"},{"bike_id":"e08ad540-1b1b-4cb0-8265-da43b607be1e","system_id":"levelo_inurba_marseille","lat":43.33044,"lon":5.3892,"is_reserved":false,"is_disabled":false,"rental_uris":{"android":"levelo://app?vid=e08ad540-1b1b-4cb0-8265-da43b607be1e","ios":"levelo://app?vid=e08ad540-1b1b-4cb0-8265-da43b607be1e"},"vehicle_type_id":"4","last_reported":1692821160,"current_range_meters":15600,"station_id":"ce4bhr92rcd13ifvqhrg","pricing_plan_id":"free"},{"bike_id":"660a9c61-eecd-47bf-bd41-67b6ed58dd12","system_id":"levelo_inurba_marseille","lat":43.33047,"lon":5.38923,"is_reserved":false,"is_disabled":false,"rental_uris":{"android":"levelo://app?vid=660a9c61-eecd-47bf-bd41-67b6ed58dd12","ios":"levelo://app?vid=660a9c61-eecd-47bf-bd41-67b6ed58dd12"},"vehicle_type_id":"4","last_reported":1692821160,"current_range_meters":2800,"station_id":"ce4bhr92rcd13ifvqhrg","pricing_plan_id":"free"},{"bike_id":"5c5c744b-faf8-4ba2-a3ac-26ccb56c3c77","system_id":"levelo_inurba_marseille","lat":43.290995,"lon":5.381361,"is_reserved":false,"is_disabled":false,"rental_uris":{"android":"levelo://app?vid=5c5c744b-faf8-4ba2-a3ac-26ccb56c3c77","ios":"levelo://app?vid=5c5c744b-faf8-4ba2-a3ac-26ccb56c3c77"},"vehicle_type_id":"4","last_reported":1692821160,"current_range_meters":10000,"station_id":"ce4bh512rcd13ifvqe2g","pricing_plan_id":"free"},{"bike_id":"8d40ffa7-17fe-4d96-8a21-9ee3e39d5972","system_id":"levelo_inurba_marseille","lat":43.290995,"lon":5.381361,"is_reserved":false,"is_disabled":false,"rental_uris":{"android":"levelo://app?vid=8d40ffa7-17fe-4d96-8a21-9ee3e39d5972","ios":"levelo://app?vid=8d40ffa7-17fe-4d96-8a21-9ee3e39d5972"},"vehicle_type_id":"4","last_reported":1692821160,"current_range_meters":12400,"station_id":"ce4bh512rcd13ifvqe2g","pricing_plan_id":"free"},{"bike_id":"4fe4b4bb-de42-4e76-9dd0-d4cc36b70251","system_id":"levelo_inurba_marseille","lat":43.290995,"lon":5.381361,"is_reserved":false,"is_disabled":false,"rental_uris":{"android":"levelo://app?vid=4fe4b4bb-de42-4e76-9dd0-d4cc36b70251","ios":"levelo://app?vid=4fe4b4bb-de42-4e76-9dd0-d4cc36b70251"},"vehicle_type_id":"4","last_reported":1692821160,"current_range_meters":0,"station_id":"ce4bh512rcd13ifvqe2g","pricing_plan_id":"free"},{"bike_id":"4c053723-7f29-42a2-9a96-ec4be817e67f","system_id":"levelo_inurba_marseille","lat":43.290995,"lon":5.381361,"is_reserved":false,"is_disabled":false,"rental_uris":{"android":"levelo://app?vid=4c053723-7f29-42a2-9a96-ec4be817e67f","ios":"levelo://app?vid=4c053723-7f29-42a2-9a96-ec4be817e67f"},"vehicle_type_id":"4","last_reported":1692821160,"current_range_meters":4400,"station_id":"ce4bh512rcd13ifvqe2g","pricing_plan_id":"free"},{"bike_id":"1f449d98-249b-477a-a799-29f6e0f82b98","system_id":"levelo_inurba_marseille","lat":43.290995,"lon":5.381361,"is_reserved":false,"is_disabled":false,"rental_uris":{"android":"levelo://app?vid=1f449d98-249b-477a-a799-29f6e0f82b98","ios":"levelo://app?vid=1f449d98-249b-477a-a799-29f6e0f82b98"},"vehicle_type_id":"4","last_reported":1692821160,"current_range_meters":0,"station_id":"ce4bh512rcd13ifvqe2g","pricing_plan_id":"free"},{"bike_id":"dabc7ff0-4d62-463d-a514-91fad7ac0410","system_id":"levelo_inurba_marseille","lat":43.29534,"lon":5.39014,"is_reserved":false,"is_disabled":false,"rental_uris":{"android":"levelo://app?vid=dabc7ff0-4d62-463d-a514-91fad7ac0410","ios":"levelo://app?vid=dabc7ff0-4d62-463d-a514-91fad7ac0410"},"vehicle_type_id":"4","last_reported":1692821160,"current_range_meters":6000,"station_id":"","pricing_plan_id":"free"},{"bike_id":"27aac4af-7d04-4c29-8170-22058f43b9ab","system_id":"levelo_inurba_marseille","lat":43.295169,"lon":5.390426,"is_reserved":false,"is_disabled":false,"rental_uris":{"android":"levelo://app?vid=27aac4af-7d04-4c29-8170-22058f43b9ab","ios":"levelo://app?vid=27aac4af-7d04-4c29-8170-22058f43b9ab"},"vehicle_type_id":"4","last_reported":1692821160,"current_range_meters":4000,"station_id":"ce4bh3p2rcd13ifvqdp0","pricing_plan_id":"free"},{"bike_id":"55eb4bd1-5872-4e76-9b3f-4e42ccbd344c","system_id":"levelo_inurba_marseille","lat":43.295169,"lon":5.390426,"is_reserved":false,"is_disabled":false,"rental_uris":{"android":"levelo://app?vid=55eb4bd1-5872-4e76-9b3f-4e42ccbd344c","ios":"levelo://app?vid=55eb4bd1-5872-4e76-9b3f-4e42ccbd344c"},"vehicle_type_id":"4","last_reported":1692821160,"current_range_meters":30400,"station_id":"ce4bh3p2rcd13ifvqdp0","pricing_plan_id":"free"},{"bike_id":"4def7089-5114-4593-b022-fac9d4d5154a","system_id":"levelo_inurba_marseille","lat":43.29779,"lon":5.39341,"is_reserved":false,"is_disabled":false,"rental_uris":{"android":"levelo://app?vid=4def7089-5114-4593-b022-fac9d4d5154a","ios":"levelo://app?vid=4def7089-5114-4593-b022-fac9d4d5154a"},"vehicle_type_id":"4","last_reported":1692821160,"current_range_meters":0,"station_id":"chh1huq6cuj3fo74tm60","pricing_plan_id":"free"},{"bike_id":"f2c5cde9-9cc4-449f-b371-5af9e09a1e2b","system_id":"levelo_inurba_marseille","lat":43.297815,"lon":5.393548,"is_reserved":false,"is_disabled":false,"rental_uris":{"android":"levelo://app?vid=f2c5cde9-9cc4-449f-b371-5af9e09a1e2b","ios":"levelo://app?vid=f2c5cde9-9cc4-449f-b371-5af9e09a1e2b"},"vehicle_type_id":"4","last_reported":1692821160,"current_range_meters":12800,"station_id":"chh1huq6cuj3fo74tm60","pricing_plan_id":"free"},{"bike_id":"60d8c185-5c1d-4182-8103-f9cef4f0e6fd","system_id":"levelo_inurba_marseille","lat":43.289741,"lon":5.378306,"is_reserved":false,"is_disabled":false,"rental_uris":{"android":"levelo://app?vid=60d8c185-5c1d-4182-8103-f9cef4f0e6fd","ios":"levelo://app?vid=60d8c185-5c1d-4182-8103-f9cef4f0e6fd"},"vehicle_type_id":"4","last_reported":1692821160,"current_range_meters":14800,"station_id":"ce4bh9p2rcd13ifvqed0","pricing_plan_id":"free"},{"bike_id":"a0ce608e-cc27-4aca-9415-f891afb47cb7","system_id":"levelo_inurba_marseille","lat":43.295169,"lon":5.390426,"is_reserved":false,"is_disabled":false,"rental_uris":{"android":"levelo://app?vid=a0ce608e-cc27-4aca-9415-f891afb47cb7","ios":"levelo://app?vid=a0ce608e-cc27-4aca-9415-f891afb47cb7"},"vehicle_type_id":"4","last_reported":1692821160,"current_range_meters":8000,"station_id":"ce4bh3p2rcd13ifvqdp0","pricing_plan_id":"free"},{"bike_id":"eaec9dad-66af-4717-8f5e-7496678cd2d8","system_id":"levelo_inurba_marseille","lat":43.30937,"lon":5.40135,"is_reserved":false,"is_disabled":false,"rental_uris":{"android":"levelo://app?vid=eaec9dad-66af-4717-8f5e-7496678cd2d8","ios":"levelo://app?vid=eaec9dad-66af-4717-8f5e-7496678cd2d8"},"vehicle_type_id":"4","last_reported":1692821160,"current_range_meters":23600,"station_id":"ce4bgvp2rcd13ifvqct0","pricing_plan_id":"free"},{"bike_id":"43bcbe70-ee45-4572-984e-23ced66a5b6e","system_id":"levelo_inurba_marseille","lat":43.309371,"lon":5.401449,"is_reserved":false,"is_disabled":false,"rental_uris":{"android":"levelo://app?vid=43bcbe70-ee45-4572-984e-23ced66a5b6e","ios":"levelo://app?vid=43bcbe70-ee45-4572-984e-23ced66a5b6e"},"vehicle_type_id":"4","last_reported":1692821160,"current_range_meters":9200,"station_id":"ce4bgvp2rcd13ifvqct0","pricing_plan_id":"free"},{"bike_id":"90268d05-5bf9-4ad8-aab0-78842acef7e5","system_id":"levelo_inurba_marseille","lat":43.312808,"lon":5.401703,"is_reserved":false,"is_disabled":false,"rental_uris":{"android":"levelo://app?vid=90268d05-5bf9-4ad8-aab0-78842acef7e5","ios":"levelo://app?vid=90268d05-5bf9-4ad8-aab0-78842acef7e5"},"vehicle_type_id":"4","last_reported":1692821160,"current_range_meters":400,"station_id":"ce4bh092rcd13ifvqd30","pricing_plan_id":"free"},{"bike_id":"4092bf01-da72-482f-a7fe-f425bad0c96a","system_id":"levelo_inurba_marseille","lat":43.30675,"lon":5.40086,"is_reserved":false,"is_disabled":false,"rental_uris":{"android":"levelo://app?vid=4092bf01-da72-482f-a7fe-f425bad0c96a","ios":"levelo://app?vid=4092bf01-da72-482f-a7fe-f425bad0c96a"},"vehicle_type_id":"4","last_reported":1692821160,"current_range_meters":25600,"station_id":"ce4bh112rcd13ifvqda0","pricing_plan_id":"free"},{"bike_id":"3f09c4b3-cd69-4220-b677-37b43644e024","system_id":"levelo_inurba_marseille","lat":43.30928,"lon":5.40152,"is_reserved":false,"is_disabled":false,"rental_uris":{"android":"levelo://app?vid=3f09c4b3-cd69-4220-b677-37b43644e024","ios":"levelo://app?vid=3f09c4b3-cd69-4220-b677-37b43644e024"},"vehicle_type_id":"4","last_reported":1692821160,"current_range_meters":30400,"station_id":"ce4bgvp2rcd13ifvqct0","pricing_plan_id":"free"},{"bike_id":"3f404db3-5638-4ec2-8d50-1fb4bbc5d42c","system_id":"levelo_inurba_marseille","lat":43.33764,"lon":5.37439,"is_reserved":false,"is_disabled":false,"rental_uris":{"android":"levelo://app?vid=3f404db3-5638-4ec2-8d50-1fb4bbc5d42c","ios":"levelo://app?vid=3f404db3-5638-4ec2-8d50-1fb4bbc5d42c"},"vehicle_type_id":"4","last_reported":1692821160,"current_range_meters":29200,"station_id":"","pricing_plan_id":"free"},{"bike_id":"322de528-6e7c-4f19-8302-24c139ad670a","system_id":"levelo_inurba_marseille","lat":43.306467,"lon":5.400888,"is_reserved":false,"is_disabled":false,"rental_uris":{"android":"levelo://app?vid=322de528-6e7c-4f19-8302-24c139ad670a","ios":"levelo://app?vid=322de528-6e7c-4f19-8302-24c139ad670a"},"vehicle_type_id":"4","last_reported":1692821160,"current_range_meters":8400,"station_id":"ce4bh112rcd13ifvqda0","pricing_plan_id":"free"},{"bike_id":"33a22fe1-6d45-474c-b3cd-41a14d761ab1","system_id":"levelo_inurba_marseille","lat":43.301117,"lon":5.398795,"is_reserved":false,"is_disabled":false,"rental_uris":{"android":"levelo://app?vid=33a22fe1-6d45-474c-b3cd-41a14d761ab1","ios":"levelo://app?vid=33a22fe1-6d45-474c-b3cd-41a14d761ab1"},"vehicle_type_id":"4","last_reported":1692821160,"current_range_meters":20000,"station_id":"ce4bh0h2rcd13ifvqd40","pricing_plan_id":"free"},{"bike_id":"a28e920f-91a6-482e-86ad-a6d7e0763812","system_id":"levelo_inurba_marseille","lat":43.301117,"lon":5.398795,"is_reserved":false,"is_disabled":false,"rental_uris":{"android":"levelo://app?vid=a28e920f-91a6-482e-86ad-a6d7e0763812","ios":"levelo://app?vid=a28e920f-91a6-482e-86ad-a6d7e0763812"},"vehicle_type_id":"4","last_reported":1692821160,"current_range_meters":24000,"station_id":"ce4bh0h2rcd13ifvqd40","pricing_plan_id":"free"},{"bike_id":"8df741d4-6688-4fa2-860a-919310ca070a","system_id":"levelo_inurba_marseille","lat":43.304188,"lon":5.412904,"is_reserved":false,"is_disabled":false,"rental_uris":{"android":"levelo://app?vid=8df741d4-6688-4fa2-860a-919310ca070a","ios":"levelo://app?vid=8df741d4-6688-4fa2-860a-919310ca070a"},"vehicle_type_id":"4","last_reported":1692821160,"current_range_meters":13200,"station_id":"ce4bhop2rcd13ifvqh8g","pricing_plan_id":"free"},{"bike_id":"75199276-b705-4ad7-b6a9-49aeaa84628a","system_id":"levelo_inurba_marseille","lat":43.286591,"lon":5.363346,"is_reserved":false,"is_disabled":false,"rental_uris":{"android":"levelo://app?vid=75199276-b705-4ad7-b6a9-49aeaa84628a","ios":"levelo://app?vid=75199276-b705-4ad7-b6a9-49aeaa84628a"},"vehicle_type_id":"4","last_reported":1692821160,"current_range_meters":29600,"station_id":"ce4bhah2rcd13ifvqej0","pricing_plan_id":"free"},{"bike_id":"cb999581-2d46-4542-8fb6-e52c0f490f37","system_id":"levelo_inurba_marseille","lat":43.28661,"lon":5.3636,"is_reserved":false,"is_disabled":false,"rental_uris":{"android":"levelo://app?vid=cb999581-2d46-4542-8fb6-e52c0f490f37","ios":"levelo://app?vid=cb999581-2d46-4542-8fb6-e52c0f490f37"},"vehicle_type_id":"4","last_reported":1692821160,"current_range_meters":0,"station_id":"ce4bhah2rcd13ifvqej0","pricing_plan_id":"free"},{"bike_id":"11c23f52-7244-4c49-ae7b-39b3c5e7ac06","system_id":"levelo_inurba_marseille","lat":43.290345,"lon":5.38646,"is_reserved":false,"is_disabled":false,"rental_uris":{"android":"levelo://app?vid=11c23f52-7244-4c49-ae7b-39b3c5e7ac06","ios":"levelo://app?vid=11c23f52-7244-4c49-ae7b-39b3c5e7ac06"},"vehicle_type_id":"4","last_reported":1692821160,"current_range_meters":31200,"station_id":"ce4bh4p2rcd13ifvqe0g","pricing_plan_id":"free"},{"bike_id":"a8101765-97b0-4fc7-9206-9d8ad256a195","system_id":"levelo_inurba_marseille","lat":43.290345,"lon":5.38646,"is_reserved":false,"is_disabled":false,"rental_uris":{"android":"levelo://app?vid=a8101765-97b0-4fc7-9206-9d8ad256a195","ios":"levelo://app?vid=a8101765-97b0-4fc7-9206-9d8ad256a195"},"vehicle_type_id":"4","last_reported":1692821160,"current_range_meters":13200,"station_id":"ce4bh4p2rcd13ifvqe0g","pricing_plan_id":"free"},{"bike_id":"00850481-7cbb-4a7a-b191-49ea8491f96e","system_id":"levelo_inurba_marseille","lat":43.290345,"lon":5.38646,"is_reserved":false,"is_disabled":false,"rental_uris":{"android":"levelo://app?vid=00850481-7cbb-4a7a-b191-49ea8491f96e","ios":"levelo://app?vid=00850481-7cbb-4a7a-b191-49ea8491f96e"},"vehicle_type_id":"4","last_reported":1692821160,"current_range_meters":0,"station_id":"ce4bh4p2rcd13ifvqe0g","pricing_plan_id":"free"},{"bike_id":"456e7087-c0ee-468e-8925-4ab6923db239","system_id":"levelo_inurba_marseille","lat":43.290345,"lon":5.38646,"is_reserved":false,"is_disabled":false,"rental_uris":{"android":"levelo://app?vid=456e7087-c0ee-468e-8925-4ab6923db239","ios":"levelo://app?vid=456e7087-c0ee-468e-8925-4ab6923db239"},"vehicle_type_id":"4","last_reported":1692821160,"current_range_meters":24000,"station_id":"ce4bh4p2rcd13ifvqe0g","pricing_plan_id":"free"},{"bike_id":"38081260-46d5-4be2-a3af-55d37e37b153","system_id":"levelo_inurba_marseille","lat":43.290336,"lon":5.386425,"is_reserved":false,"is_disabled":false,"rental_uris":{"android":"levelo://app?vid=38081260-46d5-4be2-a3af-55d37e37b153","ios":"levelo://app?vid=38081260-46d5-4be2-a3af-55d37e37b153"},"vehicle_type_id":"4","last_reported":1692821160,"current_range_meters":26800,"station_id":"ce4bh4p2rcd13ifvqe0g","pricing_plan_id":"free"},{"bike_id":"cfad68e6-ed09-46dc-9929-424aebb92488","system_id":"levelo_inurba_marseille","lat":43.290336,"lon":5.386425,"is_reserved":false,"is_disabled":false,"rental_uris":{"android":"levelo://app?vid=cfad68e6-ed09-46dc-9929-424aebb92488","ios":"levelo://app?vid=cfad68e6-ed09-46dc-9929-424aebb92488"},"vehicle_type_id":"4","last_reported":1692821160,"current_range_meters":23600,"station_id":"ce4bh4p2rcd13ifvqe0g","pricing_plan_id":"free"},{"bike_id":"6bb75039-0576-4aab-ab78-9da14922717d","system_id":"levelo_inurba_marseille","lat":43.290336,"lon":5.386425,"is_reserved":false,"is_disabled":false,"rental_uris":{"android":"levelo://app?vid=6bb75039-0576-4aab-ab78-9da14922717d","ios":"levelo://app?vid=6bb75039-0576-4aab-ab78-9da14922717d"},"vehicle_type_id":"4","last_reported":1692821160,"current_range_meters":0,"station_id":"ce4bh4p2rcd13ifvqe0g","pricing_plan_id":"free"},{"bike_id":"b26e62f5-ddf8-4efe-9b8d-0955904bd2de","system_id":"levelo_inurba_marseille","lat":43.302759,"lon":5.400793,"is_reserved":false,"is_disabled":false,"rental_uris":{"android":"levelo://app?vid=b26e62f5-ddf8-4efe-9b8d-0955904bd2de","ios":"levelo://app?vid=b26e62f5-ddf8-4efe-9b8d-0955904bd2de"},"vehicle_type_id":"4","last_reported":1692821160,"current_range_meters":15600,"station_id":"ce4bgvh2rcd13ifvqcs0","pricing_plan_id":"free"},{"bike_id":"fbfd6af8-ca58-4c5a-b3f0-17ef94be678d","system_id":"levelo_inurba_marseille","lat":43.302759,"lon":5.400793,"is_reserved":false,"is_disabled":false,"rental_uris":{"android":"levelo://app?vid=fbfd6af8-ca58-4c5a-b3f0-17ef94be678d","ios":"levelo://app?vid=fbfd6af8-ca58-4c5a-b3f0-17ef94be678d"},"vehicle_type_id":"4","last_reported":1692821160,"current_range_meters":6000,"station_id":"ce4bgvh2rcd13ifvqcs0","pricing_plan_id":"free"},{"bike_id":"19d72b19-56a9-49ea-8932-87a3e6a5b5fc","system_id":"levelo_inurba_marseille","lat":43.302759,"lon":5.400793,"is_reserved":false,"is_disabled":false,"rental_uris":{"android":"levelo://app?vid=19d72b19-56a9-49ea-8932-87a3e6a5b5fc","ios":"levelo://app?vid=19d72b19-56a9-49ea-8932-87a3e6a5b5fc"},"vehicle_type_id":"4","last_reported":1692821160,"current_range_meters":26400,"station_id":"ce4bgvh2rcd13ifvqcs0","pricing_plan_id":"free"},{"bike_id":"53a651e4-f9a0-490b-961c-6794b69ef1c3","system_id":"levelo_inurba_marseille","lat":43.286039,"lon":5.370679,"is_reserved":false,"is_disabled":false,"rental_uris":{"android":"levelo://app?vid=53a651e4-f9a0-490b-961c-6794b69ef1c3","ios":"levelo://app?vid=53a651e4-f9a0-490b-961c-6794b69ef1c3"},"vehicle_type_id":"4","last_reported":1692821160,"current_range_meters":0,"station_id":"ce4bht12rcd13ifvqi60","pricing_plan_id":"free"},{"bike_id":"f9d9095c-5840-4087-b061-c23980cbdb3a","system_id":"levelo_inurba_marseille","lat":43.286039,"lon":5.370679,"is_reserved":false,"is_disabled":false,"rental_uris":{"android":"levelo://app?vid=f9d9095c-5840-4087-b061-c23980cbdb3a","ios":"levelo://app?vid=f9d9095c-5840-4087-b061-c23980cbdb3a"},"vehicle_type_id":"4","last_reported":1692821160,"current_range_meters":2800,"station_id":"ce4bht12rcd13ifvqi60","pricing_plan_id":"free"},{"bike_id":"7da9e437-1e79-4b5f-9ab0-65254ac17dd7","system_id":"levelo_inurba_marseille","lat":43.31647,"lon":5.40436,"is_reserved":false,"is_disabled":false,"rental_uris":{"android":"levelo://app?vid=7da9e437-1e79-4b5f-9ab0-65254ac17dd7","ios":"levelo://app?vid=7da9e437-1e79-4b5f-9ab0-65254ac17dd7"},"vehicle_type_id":"4","last_reported":1692821160,"current_range_meters":26000,"station_id":"ce4bh012rcd13ifvqd00","pricing_plan_id":"free"},{"bike_id":"4af9ac19-3160-4986-b1c1-337f265e75d3","system_id":"levelo_inurba_marseille","lat":43.284534,"lon":5.358662,"is_reserved":false,"is_disabled":false,"rental_uris":{"android":"levelo://app?vid=4af9ac19-3160-4986-b1c1-337f265e75d3","ios":"levelo://app?vid=4af9ac19-3160-4986-b1c1-337f265e75d3"},"vehicle_type_id":"4","last_reported":1692821160,"current_range_meters":24000,"station_id":"ce4bhah2rcd13ifvqei0","pricing_plan_id":"free"},{"bike_id":"1572fe16-c8f4-4603-9fed-b4ed28680821","system_id":"levelo_inurba_marseille","lat":43.284538,"lon":5.358657,"is_reserved":false,"is_disabled":false,"rental_uris":{"android":"levelo://app?vid=1572fe16-c8f4-4603-9fed-b4ed28680821","ios":"levelo://app?vid=1572fe16-c8f4-4603-9fed-b4ed28680821"},"vehicle_type_id":"4","last_reported":1692821160,"current_range_meters":19200,"station_id":"ce4bhah2rcd13ifvqei0","pricing_plan_id":"free"},{"bike_id":"1ccb921b-1529-4d4e-85a7-72c3d07ef7f0","system_id":"levelo_inurba_marseille","lat":43.284538,"lon":5.358657,"is_reserved":false,"is_disabled":false,"rental_uris":{"android":"levelo://app?vid=1ccb921b-1529-4d4e-85a7-72c3d07ef7f0","ios":"levelo://app?vid=1ccb921b-1529-4d4e-85a7-72c3d07ef7f0"},"vehicle_type_id":"4","last_reported":1692821160,"current_range_meters":2400,"station_id":"ce4bhah2rcd13ifvqei0","pricing_plan_id":"free"},{"bike_id":"d8835569-5959-4326-b5cc-5b9377701de6","system_id":"levelo_inurba_marseille","lat":43.2846,"lon":5.35886,"is_reserved":false,"is_disabled":false,"rental_uris":{"android":"levelo://app?vid=d8835569-5959-4326-b5cc-5b9377701de6","ios":"levelo://app?vid=d8835569-5959-4326-b5cc-5b9377701de6"},"vehicle_type_id":"4","last_reported":1692821160,"current_range_meters":4800,"station_id":"ce4bhah2rcd13ifvqei0","pricing_plan_id":"free"},{"bike_id":"88d36210-04ca-4956-8ee0-9934783744ce","system_id":"levelo_inurba_marseille","lat":43.284534,"lon":5.358662,"is_reserved":false,"is_disabled":false,"rental_uris":{"android":"levelo://app?vid=88d36210-04ca-4956-8ee0-9934783744ce","ios":"levelo://app?vid=88d36210-04ca-4956-8ee0-9934783744ce"},"vehicle_type_id":"4","last_reported":1692821160,"current_range_meters":20400,"station_id":"ce4bhah2rcd13ifvqei0","pricing_plan_id":"free"},{"bike_id":"e0582f20-fa25-49ce-a22d-022c9a57f001","system_id":"levelo_inurba_marseille","lat":43.286138,"lon":5.351098,"is_reserved":false,"is_disabled":false,"rental_uris":{"android":"levelo://app?vid=e0582f20-fa25-49ce-a22d-022c9a57f001","ios":"levelo://app?vid=e0582f20-fa25-49ce-a22d-022c9a57f001"},"vehicle_type_id":"4","last_reported":1692821160,"current_range_meters":23600,"station_id":"ce4bhch2rcd13ifvqeug","pricing_plan_id":"free"},{"bike_id":"2363d3b5-6c15-401a-a59c-ee80bd4af927","system_id":"levelo_inurba_marseille","lat":43.28415,"lon":5.37522,"is_reserved":false,"is_disabled":false,"rental_uris":{"android":"levelo://app?vid=2363d3b5-6c15-401a-a59c-ee80bd4af927","ios":"levelo://app?vid=2363d3b5-6c15-401a-a59c-ee80bd4af927"},"vehicle_type_id":"4","last_reported":1692821160,"current_range_meters":4400,"station_id":"ce4bh412rcd13ifvqds0","pricing_plan_id":"free"},{"bike_id":"4d601c34-1d0a-4f62-a2b4-90cdfa7d14f1","system_id":"levelo_inurba_marseille","lat":43.295713,"lon":5.399639,"is_reserved":false,"is_disabled":false,"rental_uris":{"android":"levelo://app?vid=4d601c34-1d0a-4f62-a2b4-90cdfa7d14f1","ios":"levelo://app?vid=4d601c34-1d0a-4f62-a2b4-90cdfa7d14f1"},"vehicle_type_id":"4","last_reported":1692821160,"current_range_meters":24000,"station_id":"ce4bh312rcd13ifvqdj0","pricing_plan_id":"free"},{"bike_id":"0b8abc21-0bce-48c8-94fb-6c59597c5c95","system_id":"levelo_inurba_marseille","lat":43.295713,"lon":5.399639,"is_reserved":false,"is_disabled":false,"rental_uris":{"android":"levelo://app?vid=0b8abc21-0bce-48c8-94fb-6c59597c5c95","ios":"levelo://app?vid=0b8abc21-0bce-48c8-94fb-6c59597c5c95"},"vehicle_type_id":"4","last_reported":1692821160,"current_range_meters":13600,"station_id":"ce4bh312rcd13ifvqdj0","pricing_plan_id":"free"},{"bike_id":"bd71bae9-d9e0-43dc-92d9-aa5dff5044f2","system_id":"levelo_inurba_marseille","lat":43.286595,"lon":5.386795,"is_reserved":false,"is_disabled":false,"rental_uris":{"android":"levelo://app?vid=bd71bae9-d9e0-43dc-92d9-aa5dff5044f2","ios":"levelo://app?vid=bd71bae9-d9e0-43dc-92d9-aa5dff5044f2"},"vehicle_type_id":"4","last_reported":1692821160,"current_range_meters":20400,"station_id":"ce4bh492rcd13ifvqdug","pricing_plan_id":"free"},{"bike_id":"2aae5012-1736-462a-8df4-538f5aae4ca0","system_id":"levelo_inurba_marseille","lat":43.286595,"lon":5.386795,"is_reserved":false,"is_disabled":false,"rental_uris":{"android":"levelo://app?vid=2aae5012-1736-462a-8df4-538f5aae4ca0","ios":"levelo://app?vid=2aae5012-1736-462a-8df4-538f5aae4ca0"},"vehicle_type_id":"4","last_reported":1692821160,"current_range_meters":29200,"station_id":"ce4bh492rcd13ifvqdug","pricing_plan_id":"free"},{"bike_id":"6df1089c-f6c0-4ac0-9ea4-408307359d25","system_id":"levelo_inurba_marseille","lat":43.286595,"lon":5.386795,"is_reserved":false,"is_disabled":false,"rental_uris":{"android":"levelo://app?vid=6df1089c-f6c0-4ac0-9ea4-408307359d25","ios":"levelo://app?vid=6df1089c-f6c0-4ac0-9ea4-408307359d25"},"vehicle_type_id":"4","last_reported":1692821160,"current_range_meters":6000,"station_id":"ce4bh492rcd13ifvqdug","pricing_plan_id":"free"},{"bike_id":"b56a0a8c-177b-45b2-a5cb-d565c8dedf12","system_id":"levelo_inurba_marseille","lat":43.286595,"lon":5.386795,"is_reserved":false,"is_disabled":false,"rental_uris":{"android":"levelo://app?vid=b56a0a8c-177b-45b2-a5cb-d565c8dedf12","ios":"levelo://app?vid=b56a0a8c-177b-45b2-a5cb-d565c8dedf12"},"vehicle_type_id":"4","last_reported":1692821160,"current_range_meters":15200,"station_id":"ce4bh492rcd13ifvqdug","pricing_plan_id":"free"},{"bike_id":"326d346f-9e4c-4398-af5b-deb4470d0338","system_id":"levelo_inurba_marseille","lat":43.286595,"lon":5.386795,"is_reserved":false,"is_disabled":false,"rental_uris":{"android":"levelo://app?vid=326d346f-9e4c-4398-af5b-deb4470d0338","ios":"levelo://app?vid=326d346f-9e4c-4398-af5b-deb4470d0338"},"vehicle_type_id":"4","last_reported":1692821160,"current_range_meters":15600,"station_id":"ce4bh492rcd13ifvqdug","pricing_plan_id":"free"},{"bike_id":"01151a8e-9ab0-466a-b02f-daa6b7b2e605","system_id":"levelo_inurba_marseille","lat":43.286595,"lon":5.386795,"is_reserved":false,"is_disabled":false,"rental_uris":{"android":"levelo://app?vid=01151a8e-9ab0-466a-b02f-daa6b7b2e605","ios":"levelo://app?vid=01151a8e-9ab0-466a-b02f-daa6b7b2e605"},"vehicle_type_id":"4","last_reported":1692821160,"current_range_meters":5200,"station_id":"ce4bh492rcd13ifvqdug","pricing_plan_id":"free"},{"bike_id":"87f15df5-c7a2-4fe8-9c1e-3f9c0b70a32e","system_id":"levelo_inurba_marseille","lat":43.319179,"lon":5.407725,"is_reserved":false,"is_disabled":false,"rental_uris":{"android":"levelo://app?vid=87f15df5-c7a2-4fe8-9c1e-3f9c0b70a32e","ios":"levelo://app?vid=87f15df5-c7a2-4fe8-9c1e-3f9c0b70a32e"},"vehicle_type_id":"4","last_reported":1692821160,"current_range_meters":21200,"station_id":"ce4bhq12rcd13ifvqhig","pricing_plan_id":"free"},{"bike_id":"e54ac8bf-03e6-4445-b501-5f2a8496318b","system_id":"levelo_inurba_marseille","lat":43.337168,"lon":5.391825,"is_reserved":false,"is_disabled":false,"rental_uris":{"android":"levelo://app?vid=e54ac8bf-03e6-4445-b501-5f2a8496318b","ios":"levelo://app?vid=e54ac8bf-03e6-4445-b501-5f2a8496318b"},"vehicle_type_id":"4","last_reported":1692821160,"current_range_meters":22000,"station_id":"ce4bhr92rcd13ifvqhsg","pricing_plan_id":"free"},{"bike_id":"73407d5d-ae91-461c-8582-bbf0e6e1ffea","system_id":"levelo_inurba_marseille","lat":43.33721,"lon":5.39185,"is_reserved":false,"is_disabled":false,"rental_uris":{"android":"levelo://app?vid=73407d5d-ae91-461c-8582-bbf0e6e1ffea","ios":"levelo://app?vid=73407d5d-ae91-461c-8582-bbf0e6e1ffea"},"vehicle_type_id":"4","last_reported":1692821160,"current_range_meters":0,"station_id":"ce4bhr92rcd13ifvqhsg","pricing_plan_id":"free"},{"bike_id":"64e0816f-7559-4b31-bdff-f1f4407da309","system_id":"levelo_inurba_marseille","lat":43.323464,"lon":5.406297,"is_reserved":false,"is_disabled":false,"rental_uris":{"android":"levelo://app?vid=64e0816f-7559-4b31-bdff-f1f4407da309","ios":"levelo://app?vid=64e0816f-7559-4b31-bdff-f1f4407da309"},"vehicle_type_id":"4","last_reported":1692821160,"current_range_meters":31200,"station_id":"ce4bhq92rcd13ifvqhjg","pricing_plan_id":"free"},{"bike_id":"657c5190-949d-4223-8bba-4ae233e88798","system_id":"levelo_inurba_marseille","lat":43.337168,"lon":5.391825,"is_reserved":false,"is_disabled":false,"rental_uris":{"android":"levelo://app?vid=657c5190-949d-4223-8bba-4ae233e88798","ios":"levelo://app?vid=657c5190-949d-4223-8bba-4ae233e88798"},"vehicle_type_id":"4","last_reported":1692821160,"current_range_meters":2800,"station_id":"ce4bhr92rcd13ifvqhsg","pricing_plan_id":"free"},{"bike_id":"f42b1f7e-7bed-4cf8-af29-4bbd6cf64649","system_id":"levelo_inurba_marseille","lat":43.33729,"lon":5.39182,"is_reserved":false,"is_disabled":false,"rental_uris":{"android":"levelo://app?vid=f42b1f7e-7bed-4cf8-af29-4bbd6cf64649","ios":"levelo://app?vid=f42b1f7e-7bed-4cf8-af29-4bbd6cf64649"},"vehicle_type_id":"4","last_reported":1692821160,"current_range_meters":13600,"station_id":"ce4bhr92rcd13ifvqhsg","pricing_plan_id":"free"},{"bike_id":"dcdcd45a-6a34-4e1c-acb2-a3cd05770b63","system_id":"levelo_inurba_marseille","lat":43.323464,"lon":5.406297,"is_reserved":false,"is_disabled":false,"rental_uris":{"android":"levelo://app?vid=dcdcd45a-6a34-4e1c-acb2-a3cd05770b63","ios":"levelo://app?vid=dcdcd45a-6a34-4e1c-acb2-a3cd05770b63"},"vehicle_type_id":"4","last_reported":1692821160,"current_range_meters":14400,"station_id":"ce4bhq92rcd13ifvqhjg","pricing_plan_id":"free"},{"bike_id":"81207e02-e329-4cea-9b6c-33ba9c0267d2","system_id":"levelo_inurba_marseille","lat":43.284793,"lon":5.384113,"is_reserved":false,"is_disabled":false,"rental_uris":{"android":"levelo://app?vid=81207e02-e329-4cea-9b6c-33ba9c0267d2","ios":"levelo://app?vid=81207e02-e329-4cea-9b6c-33ba9c0267d2"},"vehicle_type_id":"4","last_reported":1692821160,"current_range_meters":31200,"station_id":"ce4bh512rcd13ifvqe3g","pricing_plan_id":"free"},{"bike_id":"c595d7a1-eae7-455c-9436-305bfe485491","system_id":"levelo_inurba_marseille","lat":43.284793,"lon":5.384113,"is_reserved":false,"is_disabled":false,"rental_uris":{"android":"levelo://app?vid=c595d7a1-eae7-455c-9436-305bfe485491","ios":"levelo://app?vid=c595d7a1-eae7-455c-9436-305bfe485491"},"vehicle_type_id":"4","last_reported":1692821160,"current_range_meters":20800,"station_id":"ce4bh512rcd13ifvqe3g","pricing_plan_id":"free"},{"bike_id":"4a6161b7-0c14-4f74-944e-0d5eba98822c","system_id":"levelo_inurba_marseille","lat":43.29802,"lon":5.40406,"is_reserved":false,"is_disabled":false,"rental_uris":{"android":"levelo://app?vid=4a6161b7-0c14-4f74-944e-0d5eba98822c","ios":"levelo://app?vid=4a6161b7-0c14-4f74-944e-0d5eba98822c"},"vehicle_type_id":"4","last_reported":1692821160,"current_range_meters":0,"station_id":"ce4bh112rcd13ifvqd90","pricing_plan_id":"free"},{"bike_id":"2ea73967-988f-4f1a-aa76-7f33a11c4098","system_id":"levelo_inurba_marseille","lat":43.30674,"lon":5.40874,"is_reserved":false,"is_disabled":false,"rental_uris":{"android":"levelo://app?vid=2ea73967-988f-4f1a-aa76-7f33a11c4098","ios":"levelo://app?vid=2ea73967-988f-4f1a-aa76-7f33a11c4098"},"vehicle_type_id":"4","last_reported":1692821160,"current_range_meters":12800,"station_id":"","pricing_plan_id":"free"},{"bike_id":"b3a02d78-63aa-4525-93d4-f6060644156b","system_id":"levelo_inurba_marseille","lat":43.289363,"lon":5.396322,"is_reserved":false,"is_disabled":false,"rental_uris":{"android":"levelo://app?vid=b3a02d78-63aa-4525-93d4-f6060644156b","ios":"levelo://app?vid=b3a02d78-63aa-4525-93d4-f6060644156b"},"vehicle_type_id":"4","last_reported":1692821160,"current_range_meters":6800,"station_id":"ce4bh3h2rcd13ifvqdn0","pricing_plan_id":"free"},{"bike_id":"f50aca5f-cf5b-4020-925f-826a2e34874f","system_id":"levelo_inurba_marseille","lat":43.289363,"lon":5.396322,"is_reserved":false,"is_disabled":false,"rental_uris":{"android":"levelo://app?vid=f50aca5f-cf5b-4020-925f-826a2e34874f","ios":"levelo://app?vid=f50aca5f-cf5b-4020-925f-826a2e34874f"},"vehicle_type_id":"4","last_reported":1692821160,"current_range_meters":31200,"station_id":"ce4bh3h2rcd13ifvqdn0","pricing_plan_id":"free"},{"bike_id":"79ae07f7-3d9b-456b-927e-8e880eafedba","system_id":"levelo_inurba_marseille","lat":43.32572,"lon":5.40673,"is_reserved":false,"is_disabled":false,"rental_uris":{"android":"levelo://app?vid=79ae07f7-3d9b-456b-927e-8e880eafedba","ios":"levelo://app?vid=79ae07f7-3d9b-456b-927e-8e880eafedba"},"vehicle_type_id":"4","last_reported":1692821160,"current_range_meters":0,"station_id":"","pricing_plan_id":"free"},{"bike_id":"ca99a23a-908f-4f4f-af51-848453aca7ff","system_id":"levelo_inurba_marseille","lat":43.292724,"lon":5.401131,"is_reserved":false,"is_disabled":false,"rental_uris":{"android":"levelo://app?vid=ca99a23a-908f-4f4f-af51-848453aca7ff","ios":"levelo://app?vid=ca99a23a-908f-4f4f-af51-848453aca7ff"},"vehicle_type_id":"4","last_reported":1692821160,"current_range_meters":800,"station_id":"ce4bh312rcd13ifvqdk0","pricing_plan_id":"free"},{"bike_id":"87cec399-7fab-432f-a51a-ee874f8b0b24","system_id":"levelo_inurba_marseille","lat":43.292724,"lon":5.401131,"is_reserved":false,"is_disabled":false,"rental_uris":{"android":"levelo://app?vid=87cec399-7fab-432f-a51a-ee874f8b0b24","ios":"levelo://app?vid=87cec399-7fab-432f-a51a-ee874f8b0b24"},"vehicle_type_id":"4","last_reported":1692821160,"current_range_meters":4400,"station_id":"ce4bh312rcd13ifvqdk0","pricing_plan_id":"free"},{"bike_id":"88940920-727e-47f8-bee6-24feedff1167","system_id":"levelo_inurba_marseille","lat":43.282754,"lon":5.350519,"is_reserved":false,"is_disabled":false,"rental_uris":{"android":"levelo://app?vid=88940920-727e-47f8-bee6-24feedff1167","ios":"levelo://app?vid=88940920-727e-47f8-bee6-24feedff1167"},"vehicle_type_id":"4","last_reported":1692821160,"current_range_meters":29600,"station_id":"ce4bhbp2rcd13ifvqerg","pricing_plan_id":"free"},{"bike_id":"aae03959-a3f5-4ef6-a05f-9a6a80419b3e","system_id":"levelo_inurba_marseille","lat":43.28039,"lon":5.369297,"is_reserved":false,"is_disabled":false,"rental_uris":{"android":"levelo://app?vid=aae03959-a3f5-4ef6-a05f-9a6a80419b3e","ios":"levelo://app?vid=aae03959-a3f5-4ef6-a05f-9a6a80419b3e"},"vehicle_type_id":"4","last_reported":1692821160,"current_range_meters":26000,"station_id":"ce4bha12rcd13ifvqef0","pricing_plan_id":"free"},{"bike_id":"5373b607-6f85-4da7-bde3-0d7b652ecac2","system_id":"levelo_inurba_marseille","lat":43.28039,"lon":5.369297,"is_reserved":false,"is_disabled":false,"rental_uris":{"android":"levelo://app?vid=5373b607-6f85-4da7-bde3-0d7b652ecac2","ios":"levelo://app?vid=5373b607-6f85-4da7-bde3-0d7b652ecac2"},"vehicle_type_id":"4","last_reported":1692821160,"current_range_meters":20400,"station_id":"ce4bha12rcd13ifvqef0","pricing_plan_id":"free"},{"bike_id":"50455d4e-6465-4805-977c-4a3968ed9d7c","system_id":"levelo_inurba_marseille","lat":43.28364,"lon":5.38651,"is_reserved":false,"is_disabled":false,"rental_uris":{"android":"levelo://app?vid=50455d4e-6465-4805-977c-4a3968ed9d7c","ios":"levelo://app?vid=50455d4e-6465-4805-977c-4a3968ed9d7c"},"vehicle_type_id":"4","last_reported":1692821160,"current_range_meters":12400,"station_id":"ce4bh492rcd13ifvqdvg","pricing_plan_id":"free"},{"bike_id":"9f46cfde-4f76-4076-bade-5765c2d3d473","system_id":"levelo_inurba_marseille","lat":43.28039,"lon":5.369297,"is_reserved":false,"is_disabled":false,"rental_uris":{"android":"levelo://app?vid=9f46cfde-4f76-4076-bade-5765c2d3d473","ios":"levelo://app?vid=9f46cfde-4f76-4076-bade-5765c2d3d473"},"vehicle_type_id":"4","last_reported":1692821160,"current_range_meters":31600,"station_id":"ce4bha12rcd13ifvqef0","pricing_plan_id":"free"},{"bike_id":"26084d3d-65f1-42fc-a0ed-1cd0ca8c40f1","system_id":"levelo_inurba_marseille","lat":43.28039,"lon":5.369297,"is_reserved":false,"is_disabled":false,"rental_uris":{"android":"levelo://app?vid=26084d3d-65f1-42fc-a0ed-1cd0ca8c40f1","ios":"levelo://app?vid=26084d3d-65f1-42fc-a0ed-1cd0ca8c40f1"},"vehicle_type_id":"4","last_reported":1692821160,"current_range_meters":8000,"station_id":"ce4bha12rcd13ifvqef0","pricing_plan_id":"free"},{"bike_id":"b18a24a2-bbe0-4a09-b0cf-3ace2b3a02b2","system_id":"levelo_inurba_marseille","lat":43.284462,"lon":5.392121,"is_reserved":false,"is_disabled":false,"rental_uris":{"android":"levelo://app?vid=b18a24a2-bbe0-4a09-b0cf-3ace2b3a02b2","ios":"levelo://app?vid=b18a24a2-bbe0-4a09-b0cf-3ace2b3a02b2"},"vehicle_type_id":"4","last_reported":1692821160,"current_range_meters":21200,"station_id":"ce4bhoh2rcd13ifvqh5g","pricing_plan_id":"free"},{"bike_id":"d8b386ee-0d11-4933-88f9-36d6a3408f40","system_id":"levelo_inurba_marseille","lat":43.284462,"lon":5.392121,"is_reserved":false,"is_disabled":false,"rental_uris":{"android":"levelo://app?vid=d8b386ee-0d11-4933-88f9-36d6a3408f40","ios":"levelo://app?vid=d8b386ee-0d11-4933-88f9-36d6a3408f40"},"vehicle_type_id":"4","last_reported":1692821160,"current_range_meters":0,"station_id":"ce4bhoh2rcd13ifvqh5g","pricing_plan_id":"free"},