{"last_updated":1750940464,"ttl":60,"version":"2.2","data":{"bikes":[{"bike_id":"3da29fb8-fc97-44c6-b9ac-31dd456b2fd4","system_id":"levelo_inurba_marseille","lat":43.33771,"lon":5.37424,"is_reserved":false,"is_disabled":true,"rental_uris":{"android":"levelo://app?vid=3da29fb8-fc97-44c6-b9ac-31dd456b2fd4","ios":"levelo://app?vid=3da29fb8-fc97-44c6-b9ac-31dd456b2fd4"},"vehicle_type_id":"4","last_reported":1750940465,"current_range_meters":0,"station_id":"","pricing_plan_id":"cebpf4jnsgd1na2vs0mg"},{"bike_id":"01861ad8-a8d7-4be6-816e-651927c87584","system_id":"levelo_inurba_marseille","lat":43.33751,"lon":5.37456,"is_reserved":false,"is_disabled":true,"rental_uris":{"android":"levelo://app?vid=01861ad8-a8d7-4be6-816e-651927c87584","ios":"levelo://app?vid=01861ad8-a8d7-4be6-816e-651927c87584"},"vehicle_type_id":"4","last_reported":1750940465,"current_range_meters":0,"station_id":"","pricing_plan_id":"cebpf4jnsgd1na2vs0mg"},{"bike_id":"62a493c7-4534-4419-ad43-0582de34a72a","system_id":"levelo_inurba_marseille","lat":43.21366,"lon":5.355183,"is_reserved":false,"is_disabled":true,"rental_uris":{"android":"levelo://app?vid=62a493c7-4534-4419-ad43-0582de34a72a","ios":"levelo://app?vid=62a493c7-4534-4419-ad43-0582de34a72a"},"vehicle_type_id":"4","last_reported":1750940465,"current_range_meters":0,"station_id":"","pricing_plan_id":"cebpf4jnsgd1na2vs0mg"},{"bike_id":"a147e67d-e0b1-425e-bbda-ae9524df353e","system_id":"levelo_inurba_marseille","lat":43.337541,"lon":5.374577,"is_reserved":false,"is_disabled":true,"rental_uris":{"android":"levelo://app?vid=a147e67d-e0b1-425e-bbda-ae9524df353e","ios":"levelo://app?vid=a147e67d-e0b1-425e-bbda-ae9524df353e"},"vehicle_type_id":"4","last_reported":1750940465,"current_range_meters":0,"station_id":"","pricing_plan_id":"cebpf4jnsgd1na2vs0mg"},{"bike_id":"a7883090-0e10-4075-944b-a3cca54bc544","system_id":"levelo_inurba_marseille","lat":43.22501,"lon":5.34784,"is_reserved":false,"is_disabled":true,"rental_uris":{"android":"levelo://app?vid=a7883090-0e10-4075-944b-a3cca54bc544","ios":"levelo://app?vid=a7883090-0e10-4075-944b-a3cca54bc544"},"vehicle_type_id":"4","last_reported":1750940465,"current_range_meters":0,"station_id":"","pricing_plan_id":"cebpf4jnsgd1na2vs0mg"},{"bike_id":"4d064f95-6dcb-4234-9e98-7c70fbb74351","system_id":"levelo_inurba_marseille","lat":43.337444,"lon":5.374475,"is_reserved":false,"is_disabled":true,"rental_uris":{"android":"levelo://app?vid=4d064f95-6dcb-4234-9e98-7c70fbb74351","ios":"levelo://app?vid=4d064f95-6dcb-4234-9e98-7c70fbb74351"},"vehicle_type_id":"4","last_reported":1750940465,"current_range_meters":0,"station_id":"","pricing_plan_id":"cebpf4jnsgd1na2vs0mg"},{"bike_id":"06b961c7-f3ce-4c1c-a618-db74d23ebaea","system_id":"levelo_inurba_marseille","lat":43.28868,"lon":5.37925,"is_reserved":false,"is_disabled":true,"rental_uris":{"android":"levelo://app?vid=06b961c7-f3ce-4c1c-a618-db74d23ebaea","ios":"levelo://app?vid=06b961c7-f3ce-4c1c-a618-db74d23ebaea"},"vehicle_type_id":"4","last_reported":1750940465,"current_range_meters":0,"station_id":"","pricing_plan_id":"cebpf4jnsgd1na2vs0mg"},{"bike_id":"d6609b4f-333b-43c1-9ebe-8726f5e76e88","system_id":"levelo_inurba_marseille","lat":43.337444,"lon":5.374475,"is_reserved":false,"is_disabled":true,"rental_uris":{"android":"levelo://app?vid=d6609b4f-333b-43c1-9ebe-8726f5e76e88","ios":"levelo://app?vid=d6609b4f-333b-43c1-9ebe-8726f5e76e88"},"vehicle_type_id":"4","last_reported":1750940465,"current_range_meters":0,"station_id":"","pricing_plan_id":"cebpf4jnsgd1na2vs0mg"},{"bike_id":"14903f35-1eaf-4a5d-86c3-23007b361999","system_id":"levelo_inurba_marseille","lat":43.27064,"lon":5.42274,"is_reserved":false,"is_disabled":true,"rental_uris":{"android":"levelo://app?vid=14903f35-1eaf-4a5d-86c3-23007b361999","ios":"levelo://app?vid=14903f35-1eaf-4a5d-86c3-23007b361999"},"vehicle_type_id":"4","last_reported":1750940465,"current_range_meters":0,"station_id":"","pricing_plan_id":"cebpf4jnsgd1na2vs0mg"},{"bike_id":"3583f331-6c0b-49be-9913-9dde300034d9","system_id":"levelo_inurba_marseille","lat":43.24628,"lon":5.40203,"is_reserved":false,"is_disabled":true,"rental_uris":{"android":"levelo://app?vid=3583f331-6c0b-49be-9913-9dde300034d9","ios":"levelo://app?vid=3583f331-6c0b-49be-9913-9dde300034d9"},"vehicle_type_id":"4","last_reported":1750940465,"current_range_meters":0,"station_id":"","pricing_plan_id":"cebpf4jnsgd1na2vs0mg"},{"bike_id":"b17b6606-336a-4606-9b65-af139c49de26","system_id":"levelo_inurba_marseille","lat":43.25663,"lon":5.42699,"is_reserved":false,"is_disabled":true,"rental_uris":{"android":"levelo://app?vid=b17b6606-336a-4606-9b65-af139c49de26","ios":"levelo://app?vid=b17b6606-336a-4606-9b65-af139c49de26"},"vehicle_type_id":"4","last_reported":1750940465,"current_range_meters":0,"station_id":"","pricing_plan_id":"cebpf4jnsgd1na2vs0mg"},{"bike_id":"79bf4da0-05ec-4b61-b034-b3a8b163f2e8","system_id":"levelo_inurba_marseille","lat":43.3096,"lon":5.40798,"is_reserved":false,"is_disabled":true,"rental_uris":{"android":"levelo://app?vid=79bf4da0-05ec-4b61-b034-b3a8b163f2e8","ios":"levelo://app?vid=79bf4da0-05ec-4b61-b034-b3a8b163f2e8"},"vehicle_type_id":"4","last_reported":1750940465,"current_range_meters":0,"station_id":"","pricing_plan_id":"cebpf4jnsgd1na2vs0mg"},{"bike_id":"9d3724b1-0dc8-4689-9d6a-55005a9503cb","system_id":"levelo_inurba_marseille","lat":43.286191,"lon":5.428129,"is_reserved":false,"is_disabled":true,"rental_uris":{"android":"levelo://app?vid=9d3724b1-0dc8-4689-9d6a-55005a9503cb","ios":"levelo://app?vid=9d3724b1-0dc8-4689-9d6a-55005a9503cb"},"vehicle_type_id":"4","last_reported":1750940465,"current_range_meters":0,"station_id":"","pricing_plan_id":"cebpf4jnsgd1na2vs0mg"},{"bike_id":"36d60a42-50c6-4566-aa7b-2599f43e63cd","system_id":"levelo_inurba_marseille","lat":43.29566,"lon":5.37529,"is_reserved":false,"is_disabled":true,"rental_uris":{"android":"levelo://app?vid=36d60a42-50c6-4566-aa7b-2599f43e63cd","ios":"levelo://app?vid=36d60a42-50c6-4566-aa7b-2599f43e63cd"},"vehicle_type_id":"4","last_reported":1750940465,"current_range_meters":0,"station_id":"ce4bgh92rcd13ifvqb50","pricing_plan_id":"cebpf4jnsgd1na2vs0mg"},{"bike_id":"c66fb270-2444-4f3b-b677-9ed0b54b66dd","system_id":"levelo_inurba_marseille","lat":43.2936,"lon":5.37875,"is_reserved":false,"is_disabled":true,"rental_uris":{"android":"levelo://app?vid=c66fb270-2444-4f3b-b677-9ed0b54b66dd","ios":"levelo://app?vid=c66fb270-2444-4f3b-b677-9ed0b54b66dd"},"vehicle_type_id":"4","last_reported":1750940465,"current_range_meters":0,"station_id":"ce4bgjh2rcd13ifvqbf0","pricing_plan_id":"cebpf4jnsgd1na2vs0mg"},{"bike_id":"fea9bc41-f8a1-4470-9b3f-c28c7e706ff8","system_id":"levelo_inurba_marseille","lat":43.30792,"lon":5.38153,"is_reserved":false,"is_disabled":true,"rental_uris":{"android":"levelo://app?vid=fea9bc41-f8a1-4470-9b3f-c28c7e706ff8","ios":"levelo://app?vid=fea9bc41-f8a1-4470-9b3f-c28c7e706ff8"},"vehicle_type_id":"4","last_reported":1750940465,"current_range_meters":0,"station_id":"ce4bgt12rcd13ifvqce0","pricing_plan_id":"cebpf4jnsgd1na2vs0mg"},{"bike_id":"04732a2a-f4b4-42c1-b595-46b9c1542dee","system_id":"levelo_inurba_marseille","lat":43.294312,"lon":5.397528,"is_reserved":false,"is_disabled":true,"rental_uris":{"android":"levelo://app?vid=04732a2a-f4b4-42c1-b595-46b9c1542dee","ios":"levelo://app?vid=04732a2a-f4b4-42c1-b595-46b9c1542dee"},"vehicle_type_id":"4","last_reported":1750940465,"current_range_meters":0,"station_id":"ce4bh3h2rcd13ifvqdo0","pricing_plan_id":"cebpf4jnsgd1na2vs0mg"},{"bike_id":"d3bec4c7-13a9-43d2-b73a-75eeda41fabb","system_id":"levelo_inurba_marseille","lat":43.284158,"lon":5.375118,"is_reserved":false,"is_disabled":true,"rental_uris":{"android":"levelo://app?vid=d3bec4c7-13a9-43d2-b73a-75eeda41fabb","ios":"levelo://app?vid=d3bec4c7-13a9-43d2-b73a-75eeda41fabb"},"vehicle_type_id":"4","last_reported":1750940465,"current_range_meters":0,"station_id":"ce4bh412rcd13ifvqds0","pricing_plan_id":"cebpf4jnsgd1na2vs0mg"},{"bike_id":"eb9ec985-1e4b-4f76-b174-74d2fd6b9fb9","system_id":"levelo_inurba_marseille","lat":43.28273,"lon":5.35061,"is_reserved":false,"is_disabled":true,"rental_uris":{"android":"levelo://app?vid=eb9ec985-1e4b-4f76-b174-74d2fd6b9fb9","ios":"levelo://app?vid=eb9ec985-1e4b-4f76-b174-74d2fd6b9fb9"},"vehicle_type_id":"4","last_reported":1750940465,"current_range_meters":0,"station_id":"ce4bhbp2rcd13ifvqerg","pricing_plan_id":"cebpf4jnsgd1na2vs0mg"},{"bike_id":"cda0b14c-5895-4470-94aa-bd3de0077ea9","system_id":"levelo_inurba_marseille","lat":43.25866,"lon":5.39899,"is_reserved":false,"is_disabled":true,"rental_uris":{"android":"levelo://app?vid=cda0b14c-5895-4470-94aa-bd3de0077ea9","ios":"levelo://app?vid=cda0b14c-5895-4470-94aa-bd3de0077ea9"},"vehicle_type_id":"4","last_reported":1750940465,"current_range_meters":0,"station_id":"ce4bhl92rcd13ifvqghg","pricing_plan_id":"cebpf4jnsgd1na2vs0mg"},{"bike_id":"3a7e0832-aa07-4c61-8bd3-719a55b16349","system_id":"levelo_inurba_marseille","lat":43.272586,"lon":5.390788,"is_reserved":false,"is_disabled":true,"rental_uris":{"android":"levelo://app?vid=3a7e0832-aa07-4c61-8bd3-719a55b16349","ios":"levelo://app?vid=3a7e0832-aa07-4c61-8bd3-719a55b16349"},"vehicle_type_id":"4","last_reported":1750940465,"current_range_meters":0,"station_id":"ce4bhlh2rcd13ifvqgig","pricing_plan_id":"cebpf4jnsgd1na2vs0mg"},{"bike_id":"c920caf1-0521-47f2-bdfa-c21a92337ccc","system_id":"levelo_inurba_marseille","lat":43.27948,"lon":5.41055,"is_reserved":false,"is_disabled":true,"rental_uris":{"android":"levelo://app?vid=c920caf1-0521-47f2-bdfa-c21a92337ccc","ios":"levelo://app?vid=c920caf1-0521-47f2-bdfa-c21a92337ccc"},"vehicle_type_id":"4","last_reported":1750940465,"current_range_meters":0,"station_id":"ce4bhnp2rcd13ifvqh0g","pricing_plan_id":"cebpf4jnsgd1na2vs0mg"},{"bike_id":"3f96b52d-e9fe-41f5-89e8-f487e766a984","system_id":"levelo_inurba_marseille","lat":43.31727,"lon":5.42419,"is_reserved":false,"is_disabled":true,"rental_uris":{"android":"levelo://app?vid=3f96b52d-e9fe-41f5-89e8-f487e766a984","ios":"levelo://app?vid=3f96b52d-e9fe-41f5-89e8-f487e766a984"},"vehicle_type_id":"4","last_reported":1750940465,"current_range_meters":0,"station_id":"ce4bhp92rcd13ifvqhbg","pricing_plan_id":"cebpf4jnsgd1na2vs0mg"},{"bike_id":"c83adf78-14ca-4a80-b94a-16ed5ff617f2","system_id":"levelo_inurba_marseille","lat":43.22501,"lon":5.34812,"is_reserved":false,"is_disabled":true,"rental_uris":{"android":"levelo://app?vid=c83adf78-14ca-4a80-b94a-16ed5ff617f2","ios":"levelo://app?vid=c83adf78-14ca-4a80-b94a-16ed5ff617f2"},"vehicle_type_id":"4","last_reported":1750940465,"current_range_meters":0,"station_id":"st_cvj5dfep6f1abm77gieg","pricing_plan_id":"cebpf4jnsgd1na2vs0mg"},{"bike_id":"4eddc2d7-69fb-45d9-b0be-00e6dc641370","system_id":"levelo_inurba_marseille","lat":43.24805,"lon":5.37463,"is_reserved":false,"is_disabled":true,"rental_uris":{"android":"levelo://app?vid=4eddc2d7-69fb-45d9-b0be-00e6dc641370","ios":"levelo://app?vid=4eddc2d7-69fb-45d9-b0be-00e6dc641370"},"vehicle_type_id":"4","last_reported":1750940465,"current_range_meters":400,"station_id":"ce4bhgh2rcd13ifvqfb0","pricing_plan_id":"cebpf4jnsgd1na2vs0mg"},{"bike_id":"be6544fb-6c1c-4292-b44a-7843b5c7fb9c","system_id":"levelo_inurba_marseille","lat":43.31674,"lon":5.41384,"is_reserved":false,"is_disabled":true,"rental_uris":{"android":"levelo://app?vid=be6544fb-6c1c-4292-b44a-7843b5c7fb9c","ios":"levelo://app?vid=be6544fb-6c1c-4292-b44a-7843b5c7fb9c"},"vehicle_type_id":"4","last_reported":1750940465,"current_range_meters":800,"station_id":"","pricing_plan_id":"cebpf4jnsgd1na2vs0mg"},{"bike_id":"d8524c03-2378-45c7-911c-4c00cf0da26e","system_id":"levelo_inurba_marseille","lat":43.29708,"lon":5.36599,"is_reserved":false,"is_disabled":true,"rental_uris":{"android":"levelo://app?vid=d8524c03-2378-45c7-911c-4c00cf0da26e","ios":"levelo://app?vid=d8524c03-2378-45c7-911c-4c00cf0da26e"},"vehicle_type_id":"4","last_reported":1750940465,"current_range_meters":800,"station_id":"ce4bgn12rcd13ifvqbt0","pricing_plan_id":"cebpf4jnsgd1na2vs0mg"},{"bike_id":"5073c452-8e35-4e9a-a71b-ee7c5c1bcb3a","system_id":"levelo_inurba_marseille","lat":43.28413,"lon":5.34995,"is_reserved":false,"is_disabled":true,"rental_uris":{"android":"levelo://app?vid=5073c452-8e35-4e9a-a71b-ee7c5c1bcb3a","ios":"levelo://app?vid=5073c452-8e35-4e9a-a71b-ee7c5c1bcb3a"},"vehicle_type_id":"4","last_reported":1750940465,"current_range_meters":800,"station_id":"ce4bhbh2rcd13ifvqepg","pricing_plan_id":"cebpf4jnsgd1na2vs0mg"},{"bike_id":"a4f344da-8a76-4c09-be72-2e45fb27847f","system_id":"levelo_inurba_marseille","lat":43.282694,"lon":5.350581,"is_reserved":false,"is_disabled":true,"rental_uris":{"android":"levelo://app?vid=a4f344da-8a76-4c09-be72-2e45fb27847f","ios":"levelo://app?vid=a4f344da-8a76-4c09-be72-2e45fb27847f"},"vehicle_type_id":"4","last_reported":1750940465,"current_range_meters":800,"station_id":"ce4bhbp2rcd13ifvqerg","pricing_plan_id":"cebpf4jnsgd1na2vs0mg"},{"bike_id":"6216c74e-5021-4594-94af-f12afd5247b8","system_id":"levelo_inurba_marseille","lat":43.279844,"lon":5.387005,"is_reserved":false,"is_disabled":true,"rental_uris":{"android":"levelo://app?vid=6216c74e-5021-4594-94af-f12afd5247b8","ios":"levelo://app?vid=6216c74e-5021-4594-94af-f12afd5247b8"},"vehicle_type_id":"4","last_reported":1750940465,"current_range_meters":800,"station_id":"ce4bhg12rcd13ifvqf80","pricing_plan_id":"cebpf4jnsgd1na2vs0mg"},{"bike_id":"70e3790d-c4d2-4e85-afee-c839fa7e0a94","system_id":"levelo_inurba_marseille","lat":43.29893,"lon":5.38119,"is_reserved":false,"is_disabled":true,"rental_uris":{"android":"levelo://app?vid=70e3790d-c4d2-4e85-afee-c839fa7e0a94","ios":"levelo://app?vid=70e3790d-c4d2-4e85-afee-c839fa7e0a94"},"vehicle_type_id":"4","last_reported":1750940465,"current_range_meters":1200,"station_id":"ce4bgj12rcd13ifvqbc0","pricing_plan_id":"cebpf4jnsgd1na2vs0mg"},{"bike_id":"1f2569c2-a428-4a4c-a73d-abc6735a30a9","system_id":"levelo_inurba_marseille","lat":43.2811,"lon":5.37836,"is_reserved":false,"is_disabled":true,"rental_uris":{"android":"levelo://app?vid=1f2569c2-a428-4a4c-a73d-abc6735a30a9","ios":"levelo://app?vid=1f2569c2-a428-4a4c-a73d-abc6735a30a9"},"vehicle_type_id":"4","last_reported":1750940465,"current_range_meters":1200,"station_id":"ce4bha12rcd13ifvqee0","pricing_plan_id":"cebpf4jnsgd1na2vs0mg"},{"bike_id":"4c286995-5a23-472b-8711-813437de964f","system_id":"levelo_inurba_marseille","lat":43.28415,"lon":5.34994,"is_reserved":false,"is_disabled":true,"rental_uris":{"android":"levelo://app?vid=4c286995-5a23-472b-8711-813437de964f","ios":"levelo://app?vid=4c286995-5a23-472b-8711-813437de964f"},"vehicle_type_id":"4","last_reported":1750940465,"current_range_meters":1200,"station_id":"ce4bhbh2rcd13ifvqepg","pricing_plan_id":"cebpf4jnsgd1na2vs0mg"},{"bike_id":"63a24d5e-ac4c-4d13-976e-82697a5077cc","system_id":"levelo_inurba_marseille","lat":43.29893,"lon":5.43673,"is_reserved":false,"is_disabled":true,"rental_uris":{"android":"levelo://app?vid=63a24d5e-ac4c-4d13-976e-82697a5077cc","ios":"levelo://app?vid=63a24d5e-ac4c-4d13-976e-82697a5077cc"},"vehicle_type_id":"4","last_reported":1750940465,"current_range_meters":1200,"station_id":"ce4bhpp2rcd13ifvqhfg","pricing_plan_id":"cebpf4jnsgd1na2vs0mg"},{"bike_id":"fb68846c-8243-476b-9d22-4d685f42aab9","system_id":"levelo_inurba_marseille","lat":43.2695,"lon":5.38638,"is_reserved":false,"is_disabled":true,"rental_uris":{"android":"levelo://app?vid=fb68846c-8243-476b-9d22-4d685f42aab9","ios":"levelo://app?vid=fb68846c-8243-476b-9d22-4d685f42aab9"},"vehicle_type_id":"4","last_reported":1750940465,"current_range_meters":1600,"station_id":"ce4bhh92rcd13ifvqfh0","pricing_plan_id":"cebpf4jnsgd1na2vs0mg"},{"bike_id":"aec64c7f-7a1c-4a42-a8f2-ed59dc2cfbff","system_id":"levelo_inurba_marseille","lat":43.26232,"lon":5.40456,"is_reserved":false,"is_disabled":true,"rental_uris":{"android":"levelo://app?vid=aec64c7f-7a1c-4a42-a8f2-ed59dc2cfbff","ios":"levelo://app?vid=aec64c7f-7a1c-4a42-a8f2-ed59dc2cfbff"},"vehicle_type_id":"4","last_reported":1750940465,"current_range_meters":1600,"station_id":"ce4bhmh2rcd13ifvqgmg","pricing_plan_id":"cebpf4jnsgd1na2vs0mg"},{"bike_id":"22a541bc-a754-4e48-8f38-29c0c7d9dc57","system_id":"levelo_inurba_marseille","lat":43.27954,"lon":5.41066,"is_reserved":false,"is_disabled":true,"rental_uris":{"android":"levelo://app?vid=22a541bc-a754-4e48-8f38-29c0c7d9dc57","ios":"levelo://app?vid=22a541bc-a754-4e48-8f38-29c0c7d9dc57"},"vehicle_type_id":"4","last_reported":1750940465,"current_range_meters":1600,"station_id":"ce4bhnp2rcd13ifvqh0g","pricing_plan_id":"cebpf4jnsgd1na2vs0mg"},{"bike_id":"7e1854ec-0dea-4e1a-826c-67cb56197e73","system_id":"levelo_inurba_marseille","lat":43.29304,"lon":5.37464,"is_reserved":false,"is_disabled":true,"rental_uris":{"android":"levelo://app?vid=7e1854ec-0dea-4e1a-826c-67cb56197e73","ios":"levelo://app?vid=7e1854ec-0dea-4e1a-826c-67cb56197e73"},"vehicle_type_id":"4","last_reported":1750940465,"current_range_meters":2000,"station_id":"ce4bgi12rcd13ifvqb70","pricing_plan_id":"cebpf4jnsgd1na2vs0mg"},{"bike_id":"824aa163-ad22-49dd-a4c0-a8d249c66bb9","system_id":"levelo_inurba_marseille","lat":43.30951,"lon":5.39035,"is_reserved":false,"is_disabled":true,"rental_uris":{"android":"levelo://app?vid=824aa163-ad22-49dd-a4c0-a8d249c66bb9","ios":"levelo://app?vid=824aa163-ad22-49dd-a4c0-a8d249c66bb9"},"vehicle_type_id":"4","last_reported":1750940465,"current_range_meters":2000,"station_id":"ce4bgup2rcd13ifvqco0","pricing_plan_id":"cebpf4jnsgd1na2vs0mg"},{"bike_id":"4ccf2c07-e3f4-414c-9d43-b023a1808f0a","system_id":"levelo_inurba_marseille","lat":43.3064,"lon":5.40108,"is_reserved":false,"is_disabled":true,"rental_uris":{"android":"levelo://app?vid=4ccf2c07-e3f4-414c-9d43-b023a1808f0a","ios":"levelo://app?vid=4ccf2c07-e3f4-414c-9d43-b023a1808f0a"},"vehicle_type_id":"4","last_reported":1750940465,"current_range_meters":2000,"station_id":"ce4bh112rcd13ifvqda0","pricing_plan_id":"cebpf4jnsgd1na2vs0mg"},{"bike_id":"d43ea92f-a81e-4be4-acea-620b607e5a1a","system_id":"levelo_inurba_marseille","lat":43.2922,"lon":5.36076,"is_reserved":false,"is_disabled":true,"rental_uris":{"android":"levelo://app?vid=d43ea92f-a81e-4be4-acea-620b607e5a1a","ios":"levelo://app?vid=d43ea92f-a81e-4be4-acea-620b607e5a1a"},"vehicle_type_id":"4","last_reported":1750940465,"current_range_meters":2000,"station_id":"ce4bhbh2rcd13ifvqeqg","pricing_plan_id":"cebpf4jnsgd1na2vs0mg"},{"bike_id":"a67ff565-d05c-44e8-9fde-89c153424585","system_id":"levelo_inurba_marseille","lat":43.29013,"lon":5.35614,"is_reserved":false,"is_disabled":false,"rental_uris":{"android":"levelo://app?vid=a67ff565-d05c-44e8-9fde-89c153424585","ios":"levelo://app?vid=a67ff565-d05c-44e8-9fde-89c153424585"},"vehicle_type_id":"4","last_reported":1750940465,"current_range_meters":2800,"station_id":"ce4bhb92rcd13ifvqen0","pricing_plan_id":"cebpf4jnsgd1na2vs0mg"},{"bike_id":"7db500fd-8bbd-4a18-8887-7e56457cebf4","system_id":"levelo_inurba_marseille","lat":43.273779,"lon":5.36243,"is_reserved":false,"is_disabled":false,"rental_uris":{"android":"levelo://app?vid=7db500fd-8bbd-4a18-8887-7e56457cebf4","ios":"levelo://app?vid=7db500fd-8bbd-4a18-8887-7e56457cebf4"},"vehicle_type_id":"4","last_reported":1750940465,"current_range_meters":2800,"station_id":"ce4bhbh2rcd13ifvqeo0","pricing_plan_id":"cebpf4jnsgd1na2vs0mg"},{"bike_id":"812694f0-0e4f-476c-961c-62b652d67ea7","system_id":"levelo_inurba_marseille","lat":43.28617,"lon":5.35103,"is_reserved":false,"is_disabled":false,"rental_uris":{"android":"levelo://app?vid=812694f0-0e4f-476c-961c-62b652d67ea7","ios":"levelo://app?vid=812694f0-0e4f-476c-961c-62b652d67ea7"},"vehicle_type_id":"4","last_reported":1750940465,"current_range_meters":2800,"station_id":"ce4bhch2rcd13ifvqeug","pricing_plan_id":"cebpf4jnsgd1na2vs0mg"},{"bike_id":"a90e9fb8-644b-42a8-bae3-066ba9dca41e","system_id":"levelo_inurba_marseille","lat":43.32661,"lon":5.40996,"is_reserved":false,"is_disabled":false,"rental_uris":{"android":"levelo://app?vid=a90e9fb8-644b-42a8-bae3-066ba9dca41e","ios":"levelo://app?vid=a90e9fb8-644b-42a8-bae3-066ba9dca41e"},"vehicle_type_id":"4","last_reported":1750940465,"current_range_meters":3200,"station_id":"ce4bhpp2rcd13ifvqhgg","pricing_plan_id":"cebpf4jnsgd1na2vs0mg"},{"bike_id":"db44c251-19c4-4326-8506-17fa63ece06c","system_id":"levelo_inurba_marseille","lat":43.26217,"lon":5.3744,"is_reserved":false,"is_disabled":false,"rental_uris":{"android":"levelo://app?vid=db44c251-19c4-4326-8506-17fa63ece06c","ios":"levelo://app?vid=db44c251-19c4-4326-8506-17fa63ece06c"},"vehicle_type_id":"4","last_reported":1750940465,"current_range_meters":3600,"station_id":"ce4bhgp2rcd13ifvqfc0","pricing_plan_id":"cebpf4jnsgd1na2vs0mg"},{"bike_id":"9bcaf2c4-201d-42f2-a681-8147c0540392","system_id":"levelo_inurba_marseille","lat":43.28146,"lon":5.42668,"is_reserved":false,"is_disabled":false,"rental_uris":{"android":"levelo://app?vid=9bcaf2c4-201d-42f2-a681-8147c0540392","ios":"levelo://app?vid=9bcaf2c4-201d-42f2-a681-8147c0540392"},"vehicle_type_id":"4","last_reported":1750940465,"current_range_meters":3600,"station_id":"ce4bhnh2rcd13ifvqgug","pricing_plan_id":"cebpf4jnsgd1na2vs0mg"},{"bike_id":"6bc90a85-4c2e-44b5-8e96-668c5179ca0c","system_id":"levelo_inurba_marseille","lat":43.29867,"lon":5.40094,"is_reserved":false,"is_disabled":false,"rental_uris":{"android":"levelo://app?vid=6bc90a85-4c2e-44b5-8e96-668c5179ca0c","ios":"levelo://app?vid=6bc90a85-4c2e-44b5-8e96-668c5179ca0c"},"vehicle_type_id":"4","last_reported":1750940465,"current_range_meters":4000,"station_id":"","pricing_plan_id":"cebpf4jnsgd1na2vs0mg"},{"bike_id":"e15b8aab-332a-451b-aedb-4e668ce2e3f0","system_id":"levelo_inurba_marseille","lat":43.29848,"lon":5.36289,"is_reserved":false,"is_disabled":false,"rental_uris":{"android":"levelo://app?vid=e15b8aab-332a-451b-aedb-4e668ce2e3f0","ios":"levelo://app?vid=e15b8aab-332a-451b-aedb-4e668ce2e3f0"},"vehicle_type_id":"4","last_reported":1750940465,"current_range_meters":4000,"station_id":"ce4bgpp2rcd13ifvqc3g","pricing_plan_id":"cebpf4jnsgd1na2vs0mg"},{"bike_id":"c0eee7bb-e317-4a59-bd31-a2068db21bf8","system_id":"levelo_inurba_marseille","lat":43.292663,"lon":5.40895,"is_reserved":false,"is_disabled":false,"rental_uris":{"android":"levelo://app?vid=c0eee7bb-e317-4a59-bd31-a2068db21bf8","ios":"levelo://app?vid=c0eee7bb-e317-4a59-bd31-a2068db21bf8"},"vehicle_type_id":"4","last_reported":1750940465,"current_range_meters":4000,"station_id":"ce4bh192rcd13ifvqdc0","pricing_plan_id":"cebpf4jnsgd1na2vs0mg"},{"bike_id":"d03f5cbc-32f7-4a62-89b3-7939c1f83584","system_id":"levelo_inurba_marseille","lat":43.28417,"lon":5.3498,"is_reserved":false,"is_disabled":false,"rental_uris":{"android":"levelo://app?vid=d03f5cbc-32f7-4a62-89b3-7939c1f83584","ios":"levelo://app?vid=d03f5cbc-32f7-4a62-89b3-7939c1f83584"},"vehicle_type_id":"4","last_reported":1750940465,"current_range_meters":4400,"station_id":"ce4bhbh2rcd13ifvqepg","pricing_plan_id":"cebpf4jnsgd1na2vs0mg"},{"bike_id":"306e1c8e-9c25-4de0-916f-342ba194fc4b","system_id":"levelo_inurba_marseille","lat":43.2797,"lon":5.3877,"is_reserved":false,"is_disabled":false,"rental_uris":{"android":"levelo://app?vid=306e1c8e-9c25-4de0-916f-342ba194fc4b","ios":"levelo://app?vid=306e1c8e-9c25-4de0-916f-342ba194fc4b"},"vehicle_type_id":"4","last_reported":1750940465,"current_range_meters":4400,"station_id":"ce4bhg12rcd13ifvqf80","pricing_plan_id":"cebpf4jnsgd1na2vs0mg"},{"bike_id":"4c5227c9-d455-4939-9a3f-fc1538ff1df5","system_id":"levelo_inurba_marseille","lat":43.25727,"lon":5.41055,"is_reserved":false,"is_disabled":false,"rental_uris":{"android":"levelo://app?vid=4c5227c9-d455-4939-9a3f-fc1538ff1df5","ios":"levelo://app?vid=4c5227c9-d455-4939-9a3f-fc1538ff1df5"},"vehicle_type_id":"4","last_reported":1750940465,"current_range_meters":4400,"station_id":"ce4bhkp2rcd13ifvqgd0","pricing_plan_id":"cebpf4jnsgd1na2vs0mg"},{"bike_id":"1ab3b0a8-5143-4f54-9b0e-4a64308567a8","system_id":"levelo_inurba_marseille","lat":43.29621,"lon":5.37154,"is_reserved":false,"is_disabled":false,"rental_uris":{"android":"levelo://app?vid=1ab3b0a8-5143-4f54-9b0e-4a64308567a8","ios":"levelo://app?vid=1ab3b0a8-5143-4f54-9b0e-4a64308567a8"},"vehicle_type_id":"4","last_reported":1750940465,"current_range_meters":4800,"station_id":"ce4bgnh2rcd13ifvqc0g","pricing_plan_id":"cebpf4jnsgd1na2vs0mg"},{"bike_id":"fdbb7fdd-884b-405b-9935-5a8092aa9718","system_id":"levelo_inurba_marseille","lat":43.29697,"lon":5.36594,"is_reserved":false,"is_disabled":false,"rental_uris":{"android":"levelo://app?vid=fdbb7fdd-884b-405b-9935-5a8092aa9718","ios":"levelo://app?vid=fdbb7fdd-884b-405b-9935-5a8092aa9718"},"vehicle_type_id":"4","last_reported":1750940465,"current_range_meters":5600,"station_id":"ce4bgn12rcd13ifvqbt0","pricing_plan_id":"cebpf4jnsgd1na2vs0mg"},{"bike_id":"6eb7a81c-1060-4bd5-9a1c-2270f3ac1cf6","system_id":"levelo_inurba_marseille","lat":43.29848,"lon":5.36278,"is_reserved":false,"is_disabled":false,"rental_uris":{"android":"levelo://app?vid=6eb7a81c-1060-4bd5-9a1c-2270f3ac1cf6","ios":"levelo://app?vid=6eb7a81c-1060-4bd5-9a1c-2270f3ac1cf6"},"vehicle_type_id":"4","last_reported":1750940465,"current_range_meters":5600,"station_id":"ce4bgpp2rcd13ifvqc3g","pricing_plan_id":"cebpf4jnsgd1na2vs0mg"},{"bike_id":"ac035b84-e08f-4bd8-9b36-1c68e3ec7189","system_id":"levelo_inurba_marseille","lat":43.31501,"lon":5.37291,"is_reserved":false,"is_disabled":false,"rental_uris":{"android":"levelo://app?vid=ac035b84-e08f-4bd8-9b36-1c68e3ec7189","ios":"levelo://app?vid=ac035b84-e08f-4bd8-9b36-1c68e3ec7189"},"vehicle_type_id":"4","last_reported":1750940465,"current_range_meters":5600,"station_id":"ce4bgt12rcd13ifvqcd0","pricing_plan_id":"cebpf4jnsgd1na2vs0mg"},{"bike_id":"2acdd331-7eb8-4127-bc3b-99f5902a9415","system_id":"levelo_inurba_marseille","lat":43.31375,"lon":5.38496,"is_reserved":false,"is_disabled":false,"rental_uris":{"android":"levelo://app?vid=2acdd331-7eb8-4127-bc3b-99f5902a9415","ios":"levelo://app?vid=2acdd331-7eb8-4127-bc3b-99f5902a9415"},"vehicle_type_id":"4","last_reported":1750940465,"current_range_meters":5600,"station_id":"ce4bgt92rcd13ifvqcf0","pricing_plan_id":"cebpf4jnsgd1na2vs0mg"},{"bike_id":"90f751c6-59a6-46f8-b0ed-f0c4edc8a869","system_id":"levelo_inurba_marseille","lat":43.26571,"lon":5.37255,"is_reserved":false,"is_disabled":false,"rental_uris":{"android":"levelo://app?vid=90f751c6-59a6-46f8-b0ed-f0c4edc8a869","ios":"levelo://app?vid=90f751c6-59a6-46f8-b0ed-f0c4edc8a869"},"vehicle_type_id":"4","last_reported":1750940465,"current_range_meters":5600,"station_id":"ce4bhg12rcd13ifvqf70","pricing_plan_id":"cebpf4jnsgd1na2vs0mg"},{"bike_id":"67a5051a-b32e-408a-8389-c22b54eb81f6","system_id":"levelo_inurba_marseille","lat":43.33009,"lon":5.45609,"is_reserved":false,"is_disabled":false,"rental_uris":{"android":"levelo://app?vid=67a5051a-b32e-408a-8389-c22b54eb81f6","ios":"levelo://app?vid=67a5051a-b32e-408a-8389-c22b54eb81f6"},"vehicle_type_id":"4","last_reported":1750940465,"current_range_meters":6000,"station_id":"","pricing_plan_id":"cebpf4jnsgd1na2vs0mg"},{"bike_id":"75c8d594-9462-45f1-8879-2532a80df996","system_id":"levelo_inurba_marseille","lat":43.24073,"lon":5.37763,"is_reserved":false,"is_disabled":false,"rental_uris":{"android":"levelo://app?vid=75c8d594-9462-45f1-8879-2532a80df996","ios":"levelo://app?vid=75c8d594-9462-45f1-8879-2532a80df996"},"vehicle_type_id":"4","last_reported":1750940465,"current_range_meters":6000,"station_id":"ce4bhnp2rcd13ifvqgvg","pricing_plan_id":"cebpf4jnsgd1na2vs0mg"},{"bike_id":"dbfb2b4d-f467-42b8-bdec-0c1e515fa89f","system_id":"levelo_inurba_marseille","lat":43.29892,"lon":5.43676,"is_reserved":false,"is_disabled":false,"rental_uris":{"android":"levelo://app?vid=dbfb2b4d-f467-42b8-bdec-0c1e515fa89f","ios":"levelo://app?vid=dbfb2b4d-f467-42b8-bdec-0c1e515fa89f"},"vehicle_type_id":"4","last_reported":1750940465,"current_range_meters":6000,"station_id":"ce4bhpp2rcd13ifvqhfg","pricing_plan_id":"cebpf4jnsgd1na2vs0mg"},{"bike_id":"efeb3c70-3319-46e5-a8c1-e29db37d8a29","system_id":"levelo_inurba_marseille","lat":43.31609,"lon":5.36706,"is_reserved":false,"is_disabled":false,"rental_uris":{"android":"levelo://app?vid=efeb3c70-3319-46e5-a8c1-e29db37d8a29","ios":"levelo://app?vid=efeb3c70-3319-46e5-a8c1-e29db37d8a29"},"vehicle_type_id":"4","last_reported":1750940465,"current_range_meters":6400,"station_id":"","pricing_plan_id":"cebpf4jnsgd1na2vs0mg"},{"bike_id":"7b9243c8-c651-4937-afd4-5c29f64998cd","system_id":"levelo_inurba_marseille","lat":43.31369,"lon":5.36746,"is_reserved":false,"is_disabled":false,"rental_uris":{"android":"levelo://app?vid=7b9243c8-c651-4937-afd4-5c29f64998cd","ios":"levelo://app?vid=7b9243c8-c651-4937-afd4-5c29f64998cd"},"vehicle_type_id":"4","last_reported":1750940465,"current_range_meters":6400,"station_id":"ce4bgr92rcd13ifvqc6g","pricing_plan_id":"cebpf4jnsgd1na2vs0mg"},{"bike_id":"0b491f86-ef61-4d37-9fbb-479f3c253e88","system_id":"levelo_inurba_marseille","lat":43.29256,"lon":5.40911,"is_reserved":false,"is_disabled":false,"rental_uris":{"android":"levelo://app?vid=0b491f86-ef61-4d37-9fbb-479f3c253e88","ios":"levelo://app?vid=0b491f86-ef61-4d37-9fbb-479f3c253e88"},"vehicle_type_id":"4","last_reported":1750940465,"current_range_meters":6400,"station_id":"ce4bh192rcd13ifvqdc0","pricing_plan_id":"cebpf4jnsgd1na2vs0mg"},{"bike_id":"807ea98f-0e42-4fd4-8377-f70f84dce4ec","system_id":"levelo_inurba_marseille","lat":43.28464,"lon":5.35889,"is_reserved":false,"is_disabled":false,"rental_uris":{"android":"levelo://app?vid=807ea98f-0e42-4fd4-8377-f70f84dce4ec","ios":"levelo://app?vid=807ea98f-0e42-4fd4-8377-f70f84dce4ec"},"vehicle_type_id":"4","last_reported":1750940465,"current_range_meters":6400,"station_id":"ce4bhah2rcd13ifvqei0","pricing_plan_id":"cebpf4jnsgd1na2vs0mg"},{"bike_id":"f75e0275-bf1d-4842-a782-e307dfe57ea7","system_id":"levelo_inurba_marseille","lat":43.27944,"lon":5.38709,"is_reserved":false,"is_disabled":false,"rental_uris":{"android":"levelo://app?vid=f75e0275-bf1d-4842-a782-e307dfe57ea7","ios":"levelo://app?vid=f75e0275-bf1d-4842-a782-e307dfe57ea7"},"vehicle_type_id":"4","last_reported":1750940465,"current_range_meters":6400,"station_id":"ce4bhg12rcd13ifvqf80","pricing_plan_id":"cebpf4jnsgd1na2vs0mg"},{"bike_id":"0643cb54-3bb3-4595-87d5-4cbb3f40172b","system_id":"levelo_inurba_marseille","lat":43.28156,"lon":5.42635,"is_reserved":false,"is_disabled":false,"rental_uris":{"android":"levelo://app?vid=0643cb54-3bb3-4595-87d5-4cbb3f40172b","ios":"levelo://app?vid=0643cb54-3bb3-4595-87d5-4cbb3f40172b"},"vehicle_type_id":"4","last_reported":1750940465,"current_range_meters":6400,"station_id":"ce4bhnh2rcd13ifvqgug","pricing_plan_id":"cebpf4jnsgd1na2vs0mg"},{"bike_id":"50ec88a1-88b0-4a99-ba20-517aff4c6529","system_id":"levelo_inurba_marseille","lat":43.32481,"lon":5.36565,"is_reserved":false,"is_disabled":false,"rental_uris":{"android":"levelo://app?vid=50ec88a1-88b0-4a99-ba20-517aff4c6529","ios":"levelo://app?vid=50ec88a1-88b0-4a99-ba20-517aff4c6529"},"vehicle_type_id":"4","last_reported":1750940465,"current_range_meters":6400,"station_id":"ce4bhs12rcd13ifvqhvg","pricing_plan_id":"cebpf4jnsgd1na2vs0mg"},{"bike_id":"7f8e5827-ca96-4d12-a8c5-9f54623c34e8","system_id":"levelo_inurba_marseille","lat":43.30138,"lon":5.38792,"is_reserved":false,"is_disabled":false,"rental_uris":{"android":"levelo://app?vid=7f8e5827-ca96-4d12-a8c5-9f54623c34e8","ios":"levelo://app?vid=7f8e5827-ca96-4d12-a8c5-9f54623c34e8"},"vehicle_type_id":"4","last_reported":1750940465,"current_range_meters":6800,"station_id":"ce4bghh2rcd13ifvqb60","pricing_plan_id":"cebpf4jnsgd1na2vs0mg"},{"bike_id":"47658618-4d8e-474f-b850-828f5f1b5b51","system_id":"levelo_inurba_marseille","lat":43.31482,"lon":5.37304,"is_reserved":false,"is_disabled":false,"rental_uris":{"android":"levelo://app?vid=47658618-4d8e-474f-b850-828f5f1b5b51","ios":"levelo://app?vid=47658618-4d8e-474f-b850-828f5f1b5b51"},"vehicle_type_id":"4","last_reported":1750940465,"current_range_meters":6800,"station_id":"ce4bgt12rcd13ifvqcd0","pricing_plan_id":"cebpf4jnsgd1na2vs0mg"},{"bike_id":"264f39f2-3c60-4e01-ae5a-086e7e5d44b8","system_id":"levelo_inurba_marseille","lat":43.27385,"lon":5.3625,"is_reserved":false,"is_disabled":false,"rental_uris":{"android":"levelo://app?vid=264f39f2-3c60-4e01-ae5a-086e7e5d44b8","ios":"levelo://app?vid=264f39f2-3c60-4e01-ae5a-086e7e5d44b8"},"vehicle_type_id":"4","last_reported":1750940465,"current_range_meters":6800,"station_id":"ce4bhbh2rcd13ifvqeo0","pricing_plan_id":"cebpf4jnsgd1na2vs0mg"},{"bike_id":"d1cf0ca9-a870-493d-82a1-34195fed44c9","system_id":"levelo_inurba_marseille","lat":43.28257,"lon":5.35072,"is_reserved":false,"is_disabled":false,"rental_uris":{"android":"levelo://app?vid=d1cf0ca9-a870-493d-82a1-34195fed44c9","ios":"levelo://app?vid=d1cf0ca9-a870-493d-82a1-34195fed44c9"},"vehicle_type_id":"4","last_reported":1750940465,"current_range_meters":6800,"station_id":"ce4bhbp2rcd13ifvqerg","pricing_plan_id":"cebpf4jnsgd1na2vs0mg"},{"bike_id":"3f107644-f504-4447-80a1-0a96ff1e91b0","system_id":"levelo_inurba_marseille","lat":43.26558,"lon":5.37292,"is_reserved":false,"is_disabled":false,"rental_uris":{"android":"levelo://app?vid=3f107644-f504-4447-80a1-0a96ff1e91b0","ios":"levelo://app?vid=3f107644-f504-4447-80a1-0a96ff1e91b0"},"vehicle_type_id":"4","last_reported":1750940465,"current_range_meters":6800,"station_id":"ce4bhg12rcd13ifvqf70","pricing_plan_id":"cebpf4jnsgd1na2vs0mg"},{"bike_id":"17b5e177-1f54-4fb9-9f21-a60fccdf4a69","system_id":"levelo_inurba_marseille","lat":43.27966,"lon":5.38707,"is_reserved":false,"is_disabled":false,"rental_uris":{"android":"levelo://app?vid=17b5e177-1f54-4fb9-9f21-a60fccdf4a69","ios":"levelo://app?vid=17b5e177-1f54-4fb9-9f21-a60fccdf4a69"},"vehicle_type_id":"4","last_reported":1750940465,"current_range_meters":6800,"station_id":"ce4bhg12rcd13ifvqf80","pricing_plan_id":"cebpf4jnsgd1na2vs0mg"},{"bike_id":"369ec4e3-117b-426c-a5f4-9222b59e7af7","system_id":"levelo_inurba_marseille","lat":43.30548,"lon":5.36545,"is_reserved":false,"is_disabled":false,"rental_uris":{"android":"levelo://app?vid=369ec4e3-117b-426c-a5f4-9222b59e7af7","ios":"levelo://app?vid=369ec4e3-117b-426c-a5f4-9222b59e7af7"},"vehicle_type_id":"4","last_reported":1750940465,"current_range_meters":7200,"station_id":"ce4bgs12rcd13ifvqcag","pricing_plan_id":"cebpf4jnsgd1na2vs0mg"},{"bike_id":"455cd017-a26b-436f-a089-0fd4679a2f1c","system_id":"levelo_inurba_marseille","lat":43.26554,"lon":5.3731,"is_reserved":false,"is_disabled":false,"rental_uris":{"android":"levelo://app?vid=455cd017-a26b-436f-a089-0fd4679a2f1c","ios":"levelo://app?vid=455cd017-a26b-436f-a089-0fd4679a2f1c"},"vehicle_type_id":"4","last_reported":1750940465,"current_range_meters":7200,"station_id":"ce4bhg12rcd13ifvqf70","pricing_plan_id":"cebpf4jnsgd1na2vs0mg"},{"bike_id":"d522577c-15de-42fe-9e34-02eaabd7015e","system_id":"levelo_inurba_marseille","lat":43.26788,"lon":5.39417,"is_reserved":false,"is_disabled":false,"rental_uris":{"android":"levelo://app?vid=d522577c-15de-42fe-9e34-02eaabd7015e","ios":"levelo://app?vid=d522577c-15de-42fe-9e34-02eaabd7015e"},"vehicle_type_id":"4","last_reported":1750940465,"current_range_meters":7200,"station_id":"ce4bhh12rcd13ifvqfg0","pricing_plan_id":"cebpf4jnsgd1na2vs0mg"},{"bike_id":"35b14479-4a4d-4383-83de-c7fea66894b3","system_id":"levelo_inurba_marseille","lat":43.299051,"lon":5.43668,"is_reserved":false,"is_disabled":false,"rental_uris":{"android":"levelo://app?vid=35b14479-4a4d-4383-83de-c7fea66894b3","ios":"levelo://app?vid=35b14479-4a4d-4383-83de-c7fea66894b3"},"vehicle_type_id":"4","last_reported":1750940465,"current_range_meters":7200,"station_id":"ce4bhpp2rcd13ifvqhfg","pricing_plan_id":"cebpf4jnsgd1na2vs0mg"},{"bike_id":"a7d91a86-5169-403b-8b50-2181dd755a4b","system_id":"levelo_inurba_marseille","lat":43.31896,"lon":5.4074,"is_reserved":false,"is_disabled":false,"rental_uris":{"android":"levelo://app?vid=a7d91a86-5169-403b-8b50-2181dd755a4b","ios":"levelo://app?vid=a7d91a86-5169-403b-8b50-2181dd755a4b"},"vehicle_type_id":"4","last_reported":1750940465,"current_range_meters":7200,"station_id":"ce4bhq12rcd13ifvqhig","pricing_plan_id":"cebpf4jnsgd1na2vs0mg"},{"bike_id":"6dfe83d1-4702-471c-b3f3-ef4e9acc9e59","system_id":"levelo_inurba_marseille","lat":43.2679,"lon":5.39456,"is_reserved":false,"is_disabled":false,"rental_uris":{"android":"levelo://app?vid=6dfe83d1-4702-471c-b3f3-ef4e9acc9e59","ios":"levelo://app?vid=6dfe83d1-4702-471c-b3f3-ef4e9acc9e59"},"vehicle_type_id":"4","last_reported":1750940465,"current_range_meters":8000,"station_id":"ce4bhh12rcd13ifvqfg0","pricing_plan_id":"cebpf4jnsgd1na2vs0mg"},{"bike_id":"44f8d6e3-a2eb-4e96-a920-b88a9625ea7a","system_id":"levelo_inurba_marseille","lat":43.25733,"lon":5.41082,"is_reserved":false,"is_disabled":false,"rental_uris":{"android":"levelo://app?vid=44f8d6e3-a2eb-4e96-a920-b88a9625ea7a","ios":"levelo://app?vid=44f8d6e3-a2eb-4e96-a920-b88a9625ea7a"},"vehicle_type_id":"4","last_reported":1750940465,"current_range_meters":8000,"station_id":"ce4bhkp2rcd13ifvqgd0","pricing_plan_id":"cebpf4jnsgd1na2vs0mg"},{"bike_id":"85aebb63-1277-49af-91e5-22f2d655e266","system_id":"levelo_inurba_marseille","lat":43.29897,"lon":5.43681,"is_reserved":false,"is_disabled":false,"rental_uris":{"android":"levelo://app?vid=85aebb63-1277-49af-91e5-22f2d655e266","ios":"levelo://app?vid=85aebb63-1277-49af-91e5-22f2d655e266"},"vehicle_type_id":"4","last_reported":1750940465,"current_range_meters":8000,"station_id":"ce4bhpp2rcd13ifvqhfg","pricing_plan_id":"cebpf4jnsgd1na2vs0mg"},{"bike_id":"26a14eba-87a9-47b8-9607-30bd0042d428","system_id":"levelo_inurba_marseille","lat":43.31455,"lon":5.39437,"is_reserved":false,"is_disabled":false,"rental_uris":{"android":"levelo://app?vid=26a14eba-87a9-47b8-9607-30bd0042d428","ios":"levelo://app?vid=26a14eba-87a9-47b8-9607-30bd0042d428"},"vehicle_type_id":"4","last_reported":1750940465,"current_range_meters":8400,"station_id":"","pricing_plan_id":"cebpf4jnsgd1na2vs0mg"},{"bike_id":"af112b62-19de-41d4-b8d7-e14d0172315d","system_id":"levelo_inurba_marseille","lat":43.32688,"lon":5.39255,"is_reserved":false,"is_disabled":false,"rental_uris":{"android":"levelo://app?vid=af112b62-19de-41d4-b8d7-e14d0172315d","ios":"levelo://app?vid=af112b62-19de-41d4-b8d7-e14d0172315d"},"vehicle_type_id":"4","last_reported":1750940465,"current_range_meters":8400,"station_id":"","pricing_plan_id":"cebpf4jnsgd1na2vs0mg"},{"bike_id":"2c488768-7881-4eee-af26-665ab42dfe35","system_id":"levelo_inurba_marseille","lat":43.29535,"lon":5.39404,"is_reserved":false,"is_disabled":false,"rental_uris":{"android":"levelo://app?vid=2c488768-7881-4eee-af26-665ab42dfe35","ios":"levelo://app?vid=2c488768-7881-4eee-af26-665ab42dfe35"},"vehicle_type_id":"4","last_reported":1750940465,"current_range_meters":8400,"station_id":"ce4bh292rcd13ifvqdf0","pricing_plan_id":"cebpf4jnsgd1na2vs0mg"},{"bike_id":"1fb88df1-485e-4dc5-9be9-f04fe7f08033","system_id":"levelo_inurba_marseille","lat":43.28938,"lon":5.36386,"is_reserved":false,"is_disabled":false,"rental_uris":{"android":"levelo://app?vid=1fb88df1-485e-4dc5-9be9-f04fe7f08033","ios":"levelo://app?vid=1fb88df1-485e-4dc5-9be9-f04fe7f08033"},"vehicle_type_id":"4","last_reported":1750940465,"current_range_meters":8400,"station_id":"ce4bhc92rcd13ifvqetg","pricing_plan_id":"cebpf4jnsgd1na2vs0mg"},{"bike_id":"ee43b475-5da6-4ddb-8fd7-3086094b10b4","system_id":"levelo_inurba_marseille","lat":43.3109,"lon":5.42436,"is_reserved":false,"is_disabled":false,"rental_uris":{"android":"levelo://app?vid=ee43b475-5da6-4ddb-8fd7-3086094b10b4","ios":"levelo://app?vid=ee43b475-5da6-4ddb-8fd7-3086094b10b4"},"vehicle_type_id":"4","last_reported":1750940465,"current_range_meters":8400,"station_id":"ce4bhp92rcd13ifvqhag","pricing_plan_id":"cebpf4jnsgd1na2vs0mg"},{"bike_id":"5eee8925-0941-460b-a942-18fcb70bac7c","system_id":"levelo_inurba_marseille","lat":43.27264,"lon":5.40077,"is_reserved":false,"is_disabled":false,"rental_uris":{"android":"levelo://app?vid=5eee8925-0941-460b-a942-18fcb70bac7c","ios":"levelo://app?vid=5eee8925-0941-460b-a942-18fcb70bac7c"},"vehicle_type_id":"4","last_reported":1750940465,"current_range_meters":8800,"station_id":"","pricing_plan_id":"cebpf4jnsgd1na2vs0mg"},{"bike_id":"576ca5fb-6672-45c6-be2b-7679c1fa9b51","system_id":"levelo_inurba_marseille","lat":43.30281,"lon":5.36924,"is_reserved":false,"is_disabled":false,"rental_uris":{"android":"levelo://app?vid=576ca5fb-6672-45c6-be2b-7679c1fa9b51","ios":"levelo://app?vid=576ca5fb-6672-45c6-be2b-7679c1fa9b51"},"vehicle_type_id":"4","last_reported":1750940465,"current_range_meters":8800,"station_id":"ce4bgqh2rcd13ifvqc5g","pricing_plan_id":"cebpf4jnsgd1na2vs0mg"},{"bike_id":"ae8c1656-2c73-406e-8350-32678e62b5f8","system_id":"levelo_inurba_marseille","lat":43.30545,"lon":5.36559,"is_reserved":false,"is_disabled":false,"rental_uris":{"android":"levelo://app?vid=ae8c1656-2c73-406e-8350-32678e62b5f8","ios":"levelo://app?vid=ae8c1656-2c73-406e-8350-32678e62b5f8"},"vehicle_type_id":"4","last_reported":1750940465,"current_range_meters":8800,"station_id":"ce4bgs12rcd13ifvqcag","pricing_plan_id":"cebpf4jnsgd1na2vs0mg"},{"bike_id":"c524c1a8-aeb9-4647-85bd-6d31b8a1fa63","system_id":"levelo_inurba_marseille","lat":43.30469,"lon":5.37911,"is_reserved":false,"is_disabled":false,"rental_uris":{"android":"levelo://app?vid=c524c1a8-aeb9-4647-85bd-6d31b8a1fa63","ios":"levelo://app?vid=c524c1a8-aeb9-4647-85bd-6d31b8a1fa63"},"vehicle_type_id":"4","last_reported":1750940465,"current_range_meters":8800,"station_id":"ce4bgup2rcd13ifvqcn0","pricing_plan_id":"cebpf4jnsgd1na2vs0mg"},{"bike_id":"96d98fc7-914e-4e57-b81c-a0ab1e6e70bc","system_id":"levelo_inurba_marseille","lat":43.29016,"lon":5.37566,"is_reserved":false,"is_disabled":false,"rental_uris":{"android":"levelo://app?vid=96d98fc7-914e-4e57-b81c-a0ab1e6e70bc","ios":"levelo://app?vid=96d98fc7-914e-4e57-b81c-a0ab1e6e70bc"},"vehicle_type_id":"4","last_reported":1750940465,"current_range_meters":8800,"station_id":"ce4bh692rcd13ifvqe90","pricing_plan_id":"cebpf4jnsgd1na2vs0mg"},{"bike_id":"ab6bd442-7df4-49f9-a454-4d6965b66e3d","system_id":"levelo_inurba_marseille","lat":43.27373,"lon":5.36264,"is_reserved":false,"is_disabled":false,"rental_uris":{"android":"levelo://app?vid=ab6bd442-7df4-49f9-a454-4d6965b66e3d","ios":"levelo://app?vid=ab6bd442-7df4-49f9-a454-4d6965b66e3d"},"vehicle_type_id":"4","last_reported":1750940465,"current_range_meters":8800,"station_id":"ce4bhbh2rcd13ifvqeo0","pricing_plan_id":"cebpf4jnsgd1na2vs0mg"},{"bike_id":"9f7c1a2d-1b96-45e3-b3f2-981ffe23e9a2","system_id":"levelo_inurba_marseille","lat":43.25727,"lon":5.41113,"is_reserved":false,"is_disabled":false,"rental_uris":{"android":"levelo://app?vid=9f7c1a2d-1b96-45e3-b3f2-981ffe23e9a2","ios":"levelo://app?vid=9f7c1a2d-1b96-45e3-b3f2-981ffe23e9a2"},"vehicle_type_id":"4","last_reported":1750940465,"current_range_meters":8800,"station_id":"ce4bhkp2rcd13ifvqgd0","pricing_plan_id":"cebpf4jnsgd1na2vs0mg"},{"bike_id":"e6ebfcc7-5a68-4acf-a644-ef764ea40e29","system_id":"levelo_inurba_marseille","lat":43.27496,"lon":5.42446,"is_reserved":false,"is_disabled":false,"rental_uris":{"android":"levelo://app?vid=e6ebfcc7-5a68-4acf-a644-ef764ea40e29","ios":"levelo://app?vid=e6ebfcc7-5a68-4acf-a644-ef764ea40e29"},"vehicle_type_id":"4","last_reported":1750940465,"current_range_meters":8800,"station_id":"ce4bhn92rcd13ifvqgrg","pricing_plan_id":"cebpf4jnsgd1na2vs0mg"},{"bike_id":"52d39036-1902-46a8-82e9-b05fa3dae97d","system_id":"levelo_inurba_marseille","lat":43.2805,"lon":5.36926,"is_reserved":false,"is_disabled":false,"rental_uris":{"android":"levelo://app?vid=52d39036-1902-46a8-82e9-b05fa3dae97d","ios":"levelo://app?vid=52d39036-1902-46a8-82e9-b05fa3dae97d"},"vehicle_type_id":"4","last_reported":1750940465,"current_range_meters":9200,"station_id":"ce4bha12rcd13ifvqef0","pricing_plan_id":"cebpf4jnsgd1na2vs0mg"},{"bike_id":"530313bf-3df9-44db-bdb2-51d9016785ed","system_id":"levelo_inurba_marseille","lat":43.27181,"lon":5.40984,"is_reserved":false,"is_disabled":false,"rental_uris":{"android":"levelo://app?vid=530313bf-3df9-44db-bdb2-51d9016785ed","ios":"levelo://app?vid=530313bf-3df9-44db-bdb2-51d9016785ed"},"vehicle_type_id":"4","last_reported":1750940465,"current_range_meters":9200,"station_id":"ce4bhl12rcd13ifvqgf0","pricing_plan_id":"cebpf4jnsgd1na2vs0mg"},{"bike_id":"41e5c0d1-ad92-4c39-a928-46ae060c109e","system_id":"levelo_inurba_marseille","lat":43.25937,"lon":5.40904,"is_reserved":false,"is_disabled":false,"rental_uris":{"android":"levelo://app?vid=41e5c0d1-ad92-4c39-a928-46ae060c109e","ios":"levelo://app?vid=41e5c0d1-ad92-4c39-a928-46ae060c109e"},"vehicle_type_id":"4","last_reported":1750940465,"current_range_meters":9200,"station_id":"ce4bhm92rcd13ifvqglg","pricing_plan_id":"cebpf4jnsgd1na2vs0mg"},{"bike_id":"e84dcfd4-ee6e-4947-8a5f-3619bd87ff32","system_id":"levelo_inurba_marseille","lat":43.305249,"lon":5.365273,"is_reserved":false,"is_disabled":false,"rental_uris":{"android":"levelo://app?vid=e84dcfd4-ee6e-4947-8a5f-3619bd87ff32","ios":"levelo://app?vid=e84dcfd4-ee6e-4947-8a5f-3619bd87ff32"},"vehicle_type_id":"4","last_reported":1750940465,"current_range_meters":9600,"station_id":"","pricing_plan_id":"cebpf4jnsgd1na2vs0mg"},{"bike_id":"e203a3e2-3ecf-4bf8-a4cf-369b0569833b","system_id":"levelo_inurba_marseille","lat":43.30301,"lon":5.36899,"is_reserved":false,"is_disabled":false,"rental_uris":{"android":"levelo://app?vid=e203a3e2-3ecf-4bf8-a4cf-369b0569833b","ios":"levelo://app?vid=e203a3e2-3ecf-4bf8-a4cf-369b0569833b"},"vehicle_type_id":"4","last_reported":1750940465,"current_range_meters":9600,"station_id":"ce4bgqh2rcd13ifvqc5g","pricing_plan_id":"cebpf4jnsgd1na2vs0mg"},{"bike_id":"ab1e0a20-f27d-43be-aa9d-923202d4c7ed","system_id":"levelo_inurba_marseille","lat":43.30554,"lon":5.36563,"is_reserved":false,"is_disabled":false,"rental_uris":{"android":"levelo://app?vid=ab1e0a20-f27d-43be-aa9d-923202d4c7ed","ios":"levelo://app?vid=ab1e0a20-f27d-43be-aa9d-923202d4c7ed"},"vehicle_type_id":"4","last_reported":1750940465,"current_range_meters":9600,"station_id":"ce4bgs12rcd13ifvqcag","pricing_plan_id":"cebpf4jnsgd1na2vs0mg"},{"bike_id":"e2f5b300-4a63-4778-aada-c29a8a0ea1e8","system_id":"levelo_inurba_marseille","lat":43.32796,"lon":5.39212,"is_reserved":false,"is_disabled":false,"rental_uris":{"android":"levelo://app?vid=e2f5b300-4a63-4778-aada-c29a8a0ea1e8","ios":"levelo://app?vid=e2f5b300-4a63-4778-aada-c29a8a0ea1e8"},"vehicle_type_id":"4","last_reported":1750940465,"current_range_meters":10000,"station_id":"","pricing_plan_id":"cebpf4jnsgd1na2vs0mg"},{"bike_id":"b07753f3-5888-40ff-8aae-30e9016afa3e","system_id":"levelo_inurba_marseille","lat":43.29626,"lon":5.3716,"is_reserved":false,"is_disabled":false,"rental_uris":{"android":"levelo://app?vid=b07753f3-5888-40ff-8aae-30e9016afa3e","ios":"levelo://app?vid=b07753f3-5888-40ff-8aae-30e9016afa3e"},"vehicle_type_id":"4","last_reported":1750940465,"current_range_meters":10000,"station_id":"ce4bgnh2rcd13ifvqc0g","pricing_plan_id":"cebpf4jnsgd1na2vs0mg"},{"bike_id":"4d6658f4-b84c-4066-af22-3348974d22c3","system_id":"levelo_inurba_marseille","lat":43.311164,"lon":5.377456,"is_reserved":false,"is_disabled":false,"rental_uris":{"android":"levelo://app?vid=4d6658f4-b84c-4066-af22-3348974d22c3","ios":"levelo://app?vid=4d6658f4-b84c-4066-af22-3348974d22c3"},"vehicle_type_id":"4","last_reported":1750940465,"current_range_meters":10000,"station_id":"ce4bgt92rcd13ifvqcg0","pricing_plan_id":"cebpf4jnsgd1na2vs0mg"},{"bike_id":"446ab561-96c7-4576-99d6-01cc39eac39e","system_id":"levelo_inurba_marseille","lat":43.29255,"lon":5.40907,"is_reserved":false,"is_disabled":false,"rental_uris":{"android":"levelo://app?vid=446ab561-96c7-4576-99d6-01cc39eac39e","ios":"levelo://app?vid=446ab561-96c7-4576-99d6-01cc39eac39e"},"vehicle_type_id":"4","last_reported":1750940465,"current_range_meters":10000,"station_id":"ce4bh192rcd13ifvqdc0","pricing_plan_id":"cebpf4jnsgd1na2vs0mg"},{"bike_id":"f00201ba-c508-4143-9cfc-ff15ea4db589","system_id":"levelo_inurba_marseille","lat":43.24999,"lon":5.38928,"is_reserved":false,"is_disabled":false,"rental_uris":{"android":"levelo://app?vid=f00201ba-c508-4143-9cfc-ff15ea4db589","ios":"levelo://app?vid=f00201ba-c508-4143-9cfc-ff15ea4db589"},"vehicle_type_id":"4","last_reported":1750940465,"current_range_meters":10000,"station_id":"ce4bhgp2rcd13ifvqfd0","pricing_plan_id":"cebpf4jnsgd1na2vs0mg"},{"bike_id":"b6faafa5-7b92-4d18-9097-43eb660d6fc5","system_id":"levelo_inurba_marseille","lat":43.27064,"lon":5.4026,"is_reserved":false,"is_disabled":false,"rental_uris":{"android":"levelo://app?vid=b6faafa5-7b92-4d18-9097-43eb660d6fc5","ios":"levelo://app?vid=b6faafa5-7b92-4d18-9097-43eb660d6fc5"},"vehicle_type_id":"4","last_reported":1750940465,"current_range_meters":10000,"station_id":"ce4bhk92rcd13ifvqgc0","pricing_plan_id":"cebpf4jnsgd1na2vs0mg"},{"bike_id":"21e07030-cb8c-4505-b8f5-a839cb1e5ea6","system_id":"levelo_inurba_marseille","lat":43.2417,"lon":5.36398,"is_reserved":false,"is_disabled":false,"rental_uris":{"android":"levelo://app?vid=21e07030-cb8c-4505-b8f5-a839cb1e5ea6","ios":"levelo://app?vid=21e07030-cb8c-4505-b8f5-a839cb1e5ea6"},"vehicle_type_id":"4","last_reported":1750940465,"current_range_meters":10000,"station_id":"cpo36qri1sfpv3e86is0","pricing_plan_id":"cebpf4jnsgd1na2vs0mg"},{"bike_id":"c640d614-ea6a-4d5c-9251-eca572125510","system_id":"levelo_inurba_marseille","lat":43.29694,"lon":5.37286,"is_reserved":false,"is_disabled":false,"rental_uris":{"android":"levelo://app?vid=c640d614-ea6a-4d5c-9251-eca572125510","ios":"levelo://app?vid=c640d614-ea6a-4d5c-9251-eca572125510"},"vehicle_type_id":"4","last_reported":1750940465,"current_range_meters":10800,"station_id":"ce4bgk12rcd13ifvqbj0","pricing_plan_id":"cebpf4jnsgd1na2vs0mg"},{"bike_id":"20b88092-d263-419d-a650-787fa0d8175b","system_id":"levelo_inurba_marseille","lat":43.31236,"lon":5.36847,"is_reserved":false,"is_disabled":false,"rental_uris":{"android":"levelo://app?vid=20b88092-d263-419d-a650-787fa0d8175b","ios":"levelo://app?vid=20b88092-d263-419d-a650-787fa0d8175b"},"vehicle_type_id":"4","last_reported":1750940465,"current_range_meters":10800,"station_id":"ce4bgl92rcd13ifvqbq0","pricing_plan_id":"cebpf4jnsgd1na2vs0mg"},{"bike_id":"d4a12c08-39e2-4e2f-bb91-aa24da4ad853","system_id":"levelo_inurba_marseille","lat":43.30602,"lon":5.3723,"is_reserved":false,"is_disabled":false,"rental_uris":{"android":"levelo://app?vid=d4a12c08-39e2-4e2f-bb91-aa24da4ad853","ios":"levelo://app?vid=d4a12c08-39e2-4e2f-bb91-aa24da4ad853"},"vehicle_type_id":"4","last_reported":1750940465,"current_range_meters":10800,"station_id":"ce4bgqh2rcd13ifvqc4g","pricing_plan_id":"cebpf4jnsgd1na2vs0mg"},{"bike_id":"6798e28d-fdde-4398-a973-e72d221e698c","system_id":"levelo_inurba_marseille","lat":43.30543,"lon":5.36547,"is_reserved":false,"is_disabled":false,"rental_uris":{"android":"levelo://app?vid=6798e28d-fdde-4398-a973-e72d221e698c","ios":"levelo://app?vid=6798e28d-fdde-4398-a973-e72d221e698c"},"vehicle_type_id":"4","last_reported":1750940465,"current_range_meters":10800,"station_id":"ce4bgs12rcd13ifvqcag","pricing_plan_id":"cebpf4jnsgd1na2vs0mg"},{"bike_id":"c2f2b7f5-d8f9-4241-8a0e-96290ffa6698","system_id":"levelo_inurba_marseille","lat":43.30873,"lon":5.3721,"is_reserved":false,"is_disabled":false,"rental_uris":{"android":"levelo://app?vid=c2f2b7f5-d8f9-4241-8a0e-96290ffa6698","ios":"levelo://app?vid=c2f2b7f5-d8f9-4241-8a0e-96290ffa6698"},"vehicle_type_id":"4","last_reported":1750940465,"current_range_meters":10800,"station_id":"ce4bguh2rcd13ifvqckg","pricing_plan_id":"cebpf4jnsgd1na2vs0mg"},{"bike_id":"def7bf6e-66a4-4890-a35c-872d2bc106dc","system_id":"levelo_inurba_marseille","lat":43.23168,"lon":5.43743,"is_reserved":false,"is_disabled":false,"rental_uris":{"android":"levelo://app?vid=def7bf6e-66a4-4890-a35c-872d2bc106dc","ios":"levelo://app?vid=def7bf6e-66a4-4890-a35c-872d2bc106dc"},"vehicle_type_id":"4","last_reported":1750940465,"current_range_meters":10800,"station_id":"ce4bhmp2rcd13ifvqgog","pricing_plan_id":"cebpf4jnsgd1na2vs0mg"},{"bike_id":"73c1a38e-6567-4ce4-b441-14831c239ecd","system_id":"levelo_inurba_marseille","lat":43.241803,"lon":5.397215,"is_reserved":false,"is_disabled":false,"rental_uris":{"android":"levelo://app?vid=73c1a38e-6567-4ce4-b441-14831c239ecd","ios":"levelo://app?vid=73c1a38e-6567-4ce4-b441-14831c239ecd"},"vehicle_type_id":"4","last_reported":1750940465,"current_range_meters":10800,"station_id":"ce4bhn12rcd13ifvqgpg","pricing_plan_id":"cebpf4jnsgd1na2vs0mg"},{"bike_id":"4e6cf231-01b8-4079-a595-e9f17bc39abf","system_id":"levelo_inurba_marseille","lat":43.28721,"lon":5.36096,"is_reserved":false,"is_disabled":false,"rental_uris":{"android":"levelo://app?vid=4e6cf231-01b8-4079-a595-e9f17bc39abf","ios":"levelo://app?vid=4e6cf231-01b8-4079-a595-e9f17bc39abf"},"vehicle_type_id":"4","last_reported":1750940465,"current_range_meters":10800,"station_id":"cki0cbj6b192h4jlfktg","pricing_plan_id":"cebpf4jnsgd1na2vs0mg"},{"bike_id":"7e31d3d8-634d-4148-91b9-c985475605f1","system_id":"levelo_inurba_marseille","lat":43.313932,"lon":5.366871,"is_reserved":false,"is_disabled":false,"rental_uris":{"android":"levelo://app?vid=7e31d3d8-634d-4148-91b9-c985475605f1","ios":"levelo://app?vid=7e31d3d8-634d-4148-91b9-c985475605f1"},"vehicle_type_id":"4","last_reported":1750940465,"current_range_meters":11200,"station_id":"","pricing_plan_id":"cebpf4jnsgd1na2vs0mg"},{"bike_id":"347bd77c-407a-4169-b3b2-fa77f9be4559","system_id":"levelo_inurba_marseille","lat":43.30905,"lon":5.36869,"is_reserved":false,"is_disabled":false,"rental_uris":{"android":"levelo://app?vid=347bd77c-407a-4169-b3b2-fa77f9be4559","ios":"levelo://app?vid=347bd77c-407a-4169-b3b2-fa77f9be4559"},"vehicle_type_id":"4","last_reported":1750940465,"current_range_meters":11200,"station_id":"ce4bgn92rcd13ifvqbvg","pricing_plan_id":"cebpf4jnsgd1na2vs0mg"},{"bike_id":"bb4289ce-4e54-43a6-ae23-c2e2b73c6103","system_id":"levelo_inurba_marseille","lat":43.29854,"lon":5.36287,"is_reserved":false,"is_disabled":false,"rental_uris":{"android":"levelo://app?vid=bb4289ce-4e54-43a6-ae23-c2e2b73c6103","ios":"levelo://app?vid=bb4289ce-4e54-43a6-ae23-c2e2b73c6103"},"vehicle_type_id":"4","last_reported":1750940465,"current_range_meters":11200,"station_id":"ce4bgpp2rcd13ifvqc3g","pricing_plan_id":"cebpf4jnsgd1na2vs0mg"},{"bike_id":"74b9e3d3-8b13-4080-bd39-145394dbc32a","system_id":"levelo_inurba_marseille","lat":43.31688,"lon":5.40473,"is_reserved":false,"is_disabled":false,"rental_uris":{"android":"levelo://app?vid=74b9e3d3-8b13-4080-bd39-145394dbc32a","ios":"levelo://app?vid=74b9e3d3-8b13-4080-bd39-145394dbc32a"},"vehicle_type_id":"4","last_reported":1750940465,"current_range_meters":11200,"station_id":"ce4bh012rcd13ifvqd00","pricing_plan_id":"cebpf4jnsgd1na2vs0mg"},{"bike_id":"60427d23-b5e7-43c8-a7f1-2568e7426c2a","system_id":"levelo_inurba_marseille","lat":43.28365,"lon":5.38635,"is_reserved":false,"is_disabled":false,"rental_uris":{"android":"levelo://app?vid=60427d23-b5e7-43c8-a7f1-2568e7426c2a","ios":"levelo://app?vid=60427d23-b5e7-43c8-a7f1-2568e7426c2a"},"vehicle_type_id":"4","last_reported":1750940465,"current_range_meters":11200,"station_id":"ce4bh492rcd13ifvqdvg","pricing_plan_id":"cebpf4jnsgd1na2vs0mg"},{"bike_id":"290d7d26-c603-4065-8649-0c26ccbeb542","system_id":"levelo_inurba_marseille","lat":43.28044,"lon":5.36955,"is_reserved":false,"is_disabled":false,"rental_uris":{"android":"levelo://app?vid=290d7d26-c603-4065-8649-0c26ccbeb542","ios":"levelo://app?vid=290d7d26-c603-4065-8649-0c26ccbeb542"},"vehicle_type_id":"4","last_reported":1750940465,"current_range_meters":11200,"station_id":"ce4bha12rcd13ifvqef0","pricing_plan_id":"cebpf4jnsgd1na2vs0mg"},{"bike_id":"28259b2d-0325-4daa-ab79-f0bba84c837c","system_id":"levelo_inurba_marseille","lat":43.27189,"lon":5.40977,"is_reserved":false,"is_disabled":false,"rental_uris":{"android":"levelo://app?vid=28259b2d-0325-4daa-ab79-f0bba84c837c","ios":"levelo://app?vid=28259b2d-0325-4daa-ab79-f0bba84c837c"},"vehicle_type_id":"4","last_reported":1750940465,"current_range_meters":11200,"station_id":"ce4bhl12rcd13ifvqgf0","pricing_plan_id":"cebpf4jnsgd1na2vs0mg"},{"bike_id":"05fd4459-ea0b-4b03-8708-46771b93cbed","system_id":"levelo_inurba_marseille","lat":43.23156,"lon":5.43712,"is_reserved":false,"is_disabled":false,"rental_uris":{"android":"levelo://app?vid=05fd4459-ea0b-4b03-8708-46771b93cbed","ios":"levelo://app?vid=05fd4459-ea0b-4b03-8708-46771b93cbed"},"vehicle_type_id":"4","last_reported":1750940465,"current_range_meters":11200,"station_id":"ce4bhmp2rcd13ifvqgog","pricing_plan_id":"cebpf4jnsgd1na2vs0mg"},{"bike_id":"1e22e8ed-a6d0-41d0-9665-7a00b1575239","system_id":"levelo_inurba_marseille","lat":43.33595,"lon":5.40983,"is_reserved":false,"is_disabled":false,"rental_uris":{"android":"levelo://app?vid=1e22e8ed-a6d0-41d0-9665-7a00b1575239","ios":"levelo://app?vid=1e22e8ed-a6d0-41d0-9665-7a00b1575239"},"vehicle_type_id":"4","last_reported":1750940465,"current_range_meters":11200,"station_id":"ce4bhqh2rcd13ifvqhmg","pricing_plan_id":"cebpf4jnsgd1na2vs0mg"},{"bike_id":"1c04c8f2-65b5-4e43-830b-5b38714243f6","system_id":"levelo_inurba_marseille","lat":43.3361,"lon":5.40984,"is_reserved":false,"is_disabled":false,"rental_uris":{"android":"levelo://app?vid=1c04c8f2-65b5-4e43-830b-5b38714243f6","ios":"levelo://app?vid=1c04c8f2-65b5-4e43-830b-5b38714243f6"},"vehicle_type_id":"4","last_reported":1750940465,"current_range_meters":11200,"station_id":"ce4bhqh2rcd13ifvqhmg","pricing_plan_id":"cebpf4jnsgd1na2vs0mg"},{"bike_id":"a9d25cad-d480-4c75-aec5-3969f1a4e6c7","system_id":"levelo_inurba_marseille","lat":43.3293,"lon":5.39074,"is_reserved":false,"is_disabled":false,"rental_uris":{"android":"levelo://app?vid=a9d25cad-d480-4c75-aec5-3969f1a4e6c7","ios":"levelo://app?vid=a9d25cad-d480-4c75-aec5-3969f1a4e6c7"},"vehicle_type_id":"4","last_reported":1750940465,"current_range_meters":11600,"station_id":"","pricing_plan_id":"cebpf4jnsgd1na2vs0mg"},{"bike_id":"5adcbf98-9b76-4241-8a2b-772d7e7416c5","system_id":"levelo_inurba_marseille","lat":43.2985,"lon":5.36278,"is_reserved":false,"is_disabled":false,"rental_uris":{"android":"levelo://app?vid=5adcbf98-9b76-4241-8a2b-772d7e7416c5","ios":"levelo://app?vid=5adcbf98-9b76-4241-8a2b-772d7e7416c5"},"vehicle_type_id":"4","last_reported":1750940465,"current_range_meters":11600,"station_id":"ce4bgpp2rcd13ifvqc3g","pricing_plan_id":"cebpf4jnsgd1na2vs0mg"},{"bike_id":"640266d5-2bc3-47a3-a0f3-6eb08564a71e","system_id":"levelo_inurba_marseille","lat":43.28375,"lon":5.38146,"is_reserved":false,"is_disabled":false,"rental_uris":{"android":"levelo://app?vid=640266d5-2bc3-47a3-a0f3-6eb08564a71e","ios":"levelo://app?vid=640266d5-2bc3-47a3-a0f3-6eb08564a71e"},"vehicle_type_id":"4","last_reported":1750940465,"current_range_meters":11600,"station_id":"ce4bh412rcd13ifvqdr0","pricing_plan_id":"cebpf4jnsgd1na2vs0mg"},{"bike_id":"39d76b0c-eb4c-4e91-900c-8d7d5e62e292","system_id":"levelo_inurba_marseille","lat":43.28264,"lon":5.3508,"is_reserved":false,"is_disabled":false,"rental_uris":{"android":"levelo://app?vid=39d76b0c-eb4c-4e91-900c-8d7d5e62e292","ios":"levelo://app?vid=39d76b0c-eb4c-4e91-900c-8d7d5e62e292"},"vehicle_type_id":"4","last_reported":1750940465,"current_range_meters":11600,"station_id":"ce4bhbp2rcd13ifvqerg","pricing_plan_id":"cebpf4jnsgd1na2vs0mg"},{"bike_id":"4c95fb59-656d-4039-8b07-01d51b23f655","system_id":"levelo_inurba_marseille","lat":43.23965,"lon":5.36628,"is_reserved":false,"is_disabled":false,"rental_uris":{"android":"levelo://app?vid=4c95fb59-656d-4039-8b07-01d51b23f655","ios":"levelo://app?vid=4c95fb59-656d-4039-8b07-01d51b23f655"},"vehicle_type_id":"4","last_reported":1750940465,"current_range_meters":11600,"station_id":"ce4bhi12rcd13ifvqfp0","pricing_plan_id":"cebpf4jnsgd1na2vs0mg"},{"bike_id":"f47876d7-9c85-474e-92c5-7a242e08b67c","system_id":"levelo_inurba_marseille","lat":43.305643,"lon":5.375775,"is_reserved":false,"is_disabled":false,"rental_uris":{"android":"levelo://app?vid=f47876d7-9c85-474e-92c5-7a242e08b67c","ios":"levelo://app?vid=f47876d7-9c85-474e-92c5-7a242e08b67c"},"vehicle_type_id":"4","last_reported":1750940465,"current_range_meters":12000,"station_id":"","pricing_plan_id":"cebpf4jnsgd1na2vs0mg"},{"bike_id":"add6291a-dee0-4030-8588-25617391e274","system_id":"levelo_inurba_marseille","lat":43.33582,"lon":5.40974,"is_reserved":false,"is_disabled":false,"rental_uris":{"android":"levelo://app?vid=add6291a-dee0-4030-8588-25617391e274","ios":"levelo://app?vid=add6291a-dee0-4030-8588-25617391e274"},"vehicle_type_id":"4","last_reported":1750940465,"current_range_meters":12000,"station_id":"","pricing_plan_id":"cebpf4jnsgd1na2vs0mg"},{"bike_id":"5715b703-1c8d-4f05-bec5-fc6ee1c554e3","system_id":"levelo_inurba_marseille","lat":43.3031,"lon":5.39202,"is_reserved":false,"is_disabled":false,"rental_uris":{"android":"levelo://app?vid=5715b703-1c8d-4f05-bec5-fc6ee1c554e3","ios":"levelo://app?vid=5715b703-1c8d-4f05-bec5-fc6ee1c554e3"},"vehicle_type_id":"4","last_reported":1750940465,"current_range_meters":12000,"station_id":"ce4bgkh2rcd13ifvqbk0","pricing_plan_id":"cebpf4jnsgd1na2vs0mg"},{"bike_id":"9ac4a664-0ee4-4f98-965e-b9e0b74f7c57","system_id":"levelo_inurba_marseille","lat":43.23158,"lon":5.43716,"is_reserved":false,"is_disabled":false,"rental_uris":{"android":"levelo://app?vid=9ac4a664-0ee4-4f98-965e-b9e0b74f7c57","ios":"levelo://app?vid=9ac4a664-0ee4-4f98-965e-b9e0b74f7c57"},"vehicle_type_id":"4","last_reported":1750940465,"current_range_meters":12000,"station_id":"ce4bhmp2rcd13ifvqgog","pricing_plan_id":"cebpf4jnsgd1na2vs0mg"},{"bike_id":"fe1e536f-d26d-4693-b98d-b56ff09e03eb","system_id":"levelo_inurba_marseille","lat":43.323548,"lon":5.367473,"is_reserved":false,"is_disabled":false,"rental_uris":{"android":"levelo://app?vid=fe1e536f-d26d-4693-b98d-b56ff09e03eb","ios":"levelo://app?vid=fe1e536f-d26d-4693-b98d-b56ff09e03eb"},"vehicle_type_id":"4","last_reported":1750940465,"current_range_meters":12000,"station_id":"ce4bhsh2rcd13ifvqi2g","pricing_plan_id":"cebpf4jnsgd1na2vs0mg"},{"bike_id":"65bcbc32-d8de-465d-80ed-49e78a8559df","system_id":"levelo_inurba_marseille","lat":43.30987,"lon":5.39054,"is_reserved":false,"is_disabled":false,"rental_uris":{"android":"levelo://app?vid=65bcbc32-d8de-465d-80ed-49e78a8559df","ios":"levelo://app?vid=65bcbc32-d8de-465d-80ed-49e78a8559df"},"vehicle_type_id":"4","last_reported":1750940465,"current_range_meters":12800,"station_id":"ce4bgup2rcd13ifvqco0","pricing_plan_id":"cebpf4jnsgd1na2vs0mg"},{"bike_id":"de0f7c2b-5974-4035-a240-8ed367c0e3f3","system_id":"levelo_inurba_marseille","lat":43.31959,"lon":5.37649,"is_reserved":false,"is_disabled":false,"rental_uris":{"android":"levelo://app?vid=de0f7c2b-5974-4035-a240-8ed367c0e3f3","ios":"levelo://app?vid=de0f7c2b-5974-4035-a240-8ed367c0e3f3"},"vehicle_type_id":"4","last_reported":1750940465,"current_range_meters":13600,"station_id":"","pricing_plan_id":"cebpf4jnsgd1na2vs0mg"},{"bike_id":"7006f5e2-0e6b-4a30-8eaf-e50123ff0f1f","system_id":"levelo_inurba_marseille","lat":43.29852,"lon":5.36287,"is_reserved":false,"is_disabled":false,"rental_uris":{"android":"levelo://app?vid=7006f5e2-0e6b-4a30-8eaf-e50123ff0f1f","ios":"levelo://app?vid=7006f5e2-0e6b-4a30-8eaf-e50123ff0f1f"},"vehicle_type_id":"4","last_reported":1750940465,"current_range_meters":13600,"station_id":"ce4bgpp2rcd13ifvqc3g","pricing_plan_id":"cebpf4jnsgd1na2vs0mg"},{"bike_id":"c6d0e716-8e1e-4525-a75e-fe685091ee2c","system_id":"levelo_inurba_marseille","lat":43.30009,"lon":5.3717,"is_reserved":false,"is_disabled":false,"rental_uris":{"android":"levelo://app?vid=c6d0e716-8e1e-4525-a75e-fe685091ee2c","ios":"levelo://app?vid=c6d0e716-8e1e-4525-a75e-fe685091ee2c"},"vehicle_type_id":"4","last_reported":1750940465,"current_range_meters":13600,"station_id":"ce4bgr92rcd13ifvqc7g","pricing_plan_id":"cebpf4jnsgd1na2vs0mg"},{"bike_id":"a4003989-d9a3-4337-ab20-c547b504e623","system_id":"levelo_inurba_marseille","lat":43.290744,"lon":5.359302,"is_reserved":false,"is_disabled":false,"rental_uris":{"android":"levelo://app?vid=a4003989-d9a3-4337-ab20-c547b504e623","ios":"levelo://app?vid=a4003989-d9a3-4337-ab20-c547b504e623"},"vehicle_type_id":"4","last_reported":1750940465,"current_range_meters":13600,"station_id":"ce4bhb12rcd13ifvqem0","pricing_plan_id":"cebpf4jnsgd1na2vs0mg"},{"bike_id":"5d97ba86-e06d-4a4a-8b00-a18d8279549a","system_id":"levelo_inurba_marseille","lat":43.284213,"lon":5.34978,"is_reserved":false,"is_disabled":false,"rental_uris":{"android":"levelo://app?vid=5d97ba86-e06d-4a4a-8b00-a18d8279549a","ios":"levelo://app?vid=5d97ba86-e06d-4a4a-8b00-a18d8279549a"},"vehicle_type_id":"4","last_reported":1750940465,"current_range_meters":13600,"station_id":"ce4bhbh2rcd13ifvqepg","pricing_plan_id":"cebpf4jnsgd1na2vs0mg"},{"bike_id":"3f41f9b1-a2c2-4229-bed9-8733abd9ffe6","system_id":"levelo_inurba_marseille","lat":43.3302,"lon":5.39059,"is_reserved":false,"is_disabled":false,"rental_uris":{"android":"levelo://app?vid=3f41f9b1-a2c2-4229-bed9-8733abd9ffe6","ios":"levelo://app?vid=3f41f9b1-a2c2-4229-bed9-8733abd9ffe6"},"vehicle_type_id":"4","last_reported":1750940465,"current_range_meters":13600,"station_id":"ce4bhr92rcd13ifvqhrg","pricing_plan_id":"cebpf4jnsgd1na2vs0mg"},{"bike_id":"ee26e564-93e6-4bc1-9449-798531d0965f","system_id":"levelo_inurba_marseille","lat":43.3248,"lon":5.36595,"is_reserved":false,"is_disabled":false,"rental_uris":{"android":"levelo://app?vid=ee26e564-93e6-4bc1-9449-798531d0965f","ios":"levelo://app?vid=ee26e564-93e6-4bc1-9449-798531d0965f"},"vehicle_type_id":"4","last_reported":1750940465,"current_range_meters":13600,"station_id":"ce4bhs12rcd13ifvqhvg","pricing_plan_id":"cebpf4jnsgd1na2vs0mg"},{"bike_id":"5cadb37b-35d5-4a94-af5a-5b4e05df9164","system_id":"levelo_inurba_marseille","lat":43.29932,"lon":5.36538,"is_reserved":false,"is_disabled":false,"rental_uris":{"android":"levelo://app?vid=5cadb37b-35d5-4a94-af5a-5b4e05df9164","ios":"levelo://app?vid=5cadb37b-35d5-4a94-af5a-5b4e05df9164"},"vehicle_type_id":"4","last_reported":1750940465,"current_range_meters":14000,"station_id":"ce4bgm92rcd13ifvqbr0","pricing_plan_id":"cebpf4jnsgd1na2vs0mg"},{"bike_id":"3a823ef0-8eaf-4347-97dd-8d490fb1210e","system_id":"levelo_inurba_marseille","lat":43.305395,"lon":5.365574,"is_reserved":false,"is_disabled":false,"rental_uris":{"android":"levelo://app?vid=3a823ef0-8eaf-4347-97dd-8d490fb1210e","ios":"levelo://app?vid=3a823ef0-8eaf-4347-97dd-8d490fb1210e"},"vehicle_type_id":"4","last_reported":1750940465,"current_range_meters":14000,"station_id":"ce4bgs12rcd13ifvqcag","pricing_plan_id":"cebpf4jnsgd1na2vs0mg"},{"bike_id":"70a87e8b-7ad1-4bdf-b181-5e2fc38709cd","system_id":"levelo_inurba_marseille","lat":43.29894,"lon":5.43681,"is_reserved":false,"is_disabled":false,"rental_uris":{"android":"levelo://app?vid=70a87e8b-7ad1-4bdf-b181-5e2fc38709cd","ios":"levelo://app?vid=70a87e8b-7ad1-4bdf-b181-5e2fc38709cd"},"vehicle_type_id":"4","last_reported":1750940465,"current_range_meters":14000,"station_id":"ce4bhpp2rcd13ifvqhfg","pricing_plan_id":"cebpf4jnsgd1na2vs0mg"},{"bike_id":"4b8da722-ee9e-48a4-a5e5-3a8a10364708","system_id":"levelo_inurba_marseille","lat":43.31231,"lon":5.37836,"is_reserved":false,"is_disabled":false,"rental_uris":{"android":"levelo://app?vid=4b8da722-ee9e-48a4-a5e5-3a8a10364708","ios":"levelo://app?vid=4b8da722-ee9e-48a4-a5e5-3a8a10364708"},"vehicle_type_id":"4","last_reported":1750940465,"current_range_meters":14400,"station_id":"","pricing_plan_id":"cebpf4jnsgd1na2vs0mg"},{"bike_id":"64fb597e-1b78-481a-a425-93c7b41bf50b","system_id":"levelo_inurba_marseille","lat":43.288628,"lon":5.358237,"is_reserved":false,"is_disabled":false,"rental_uris":{"android":"levelo://app?vid=64fb597e-1b78-481a-a425-93c7b41bf50b","ios":"levelo://app?vid=64fb597e-1b78-481a-a425-93c7b41bf50b"},"vehicle_type_id":"4","last_reported":1750940465,"current_range_meters":14400,"station_id":"ce4bhb12rcd13ifvqel0","pricing_plan_id":"cebpf4jnsgd1na2vs0mg"},{"bike_id":"25483e05-9ff1-44e6-90db-fd5d2acb5443","system_id":"levelo_inurba_marseille","lat":43.276437,"lon":5.418319,"is_reserved":false,"is_disabled":false,"rental_uris":{"android":"levelo://app?vid=25483e05-9ff1-44e6-90db-fd5d2acb5443","ios":"levelo://app?vid=25483e05-9ff1-44e6-90db-fd5d2acb5443"},"vehicle_type_id":"4","last_reported":1750940465,"current_range_meters":14400,"station_id":"ce4bhk92rcd13ifvqgc0","pricing_plan_id":"cebpf4jnsgd1na2vs0mg"},{"bike_id":"15e01f42-caaa-4347-834d-1207ee4b7c26","system_id":"levelo_inurba_marseille","lat":43.33723,"lon":5.39187,"is_reserved":false,"is_disabled":false,"rental_uris":{"android":"levelo://app?vid=15e01f42-caaa-4347-834d-1207ee4b7c26","ios":"levelo://app?vid=15e01f42-caaa-4347-834d-1207ee4b7c26"},"vehicle_type_id":"4","last_reported":1750940465,"current_range_meters":14400,"station_id":"ce4bhr92rcd13ifvqhsg","pricing_plan_id":"cebpf4jnsgd1na2vs0mg"},{"bike_id":"98179140-173e-4563-aedd-e7e82214edca","system_id":"levelo_inurba_marseille","lat":43.32364,"lon":5.36762,"is_reserved":false,"is_disabled":false,"rental_uris":{"android":"levelo://app?vid=98179140-173e-4563-aedd-e7e82214edca","ios":"levelo://app?vid=98179140-173e-4563-aedd-e7e82214edca"},"vehicle_type_id":"4","last_reported":1750940465,"current_range_meters":14400,"station_id":"ce4bhsh2rcd13ifvqi2g","pricing_plan_id":"cebpf4jnsgd1na2vs0mg"},{"bike_id":"11ffa105-b232-4593-af62-5f8e47e5d480","system_id":"levelo_inurba_marseille","lat":43.296007,"lon":5.381044,"is_reserved":false,"is_disabled":false,"rental_uris":{"android":"levelo://app?vid=11ffa105-b232-4593-af62-5f8e47e5d480","ios":"levelo://app?vid=11ffa105-b232-4593-af62-5f8e47e5d480"},"vehicle_type_id":"4","last_reported":1750940465,"current_range_meters":14800,"station_id":"ce4bgpp2rcd13ifvqc3g","pricing_plan_id":"cebpf4jnsgd1na2vs0mg"},{"bike_id":"a4cab7ab-eed2-4ef8-a6fc-95056cd1e8d6","system_id":"levelo_inurba_marseille","lat":43.25112,"lon":5.4032,"is_reserved":false,"is_disabled":false,"rental_uris":{"android":"levelo://app?vid=a4cab7ab-eed2-4ef8-a6fc-95056cd1e8d6","ios":"levelo://app?vid=a4cab7ab-eed2-4ef8-a6fc-95056cd1e8d6"},"vehicle_type_id":"4","last_reported":1750940465,"current_range_meters":14800,"station_id":"ce4bhlh2rcd13ifvqgig","pricing_plan_id":"cebpf4jnsgd1na2vs0mg"},{"bike_id":"0423c882-7046-48b7-9ef2-a0554a37e0fc","system_id":"levelo_inurba_marseille","lat":43.24087,"lon":5.37754,"is_reserved":false,"is_disabled":false,"rental_uris":{"android":"levelo://app?vid=0423c882-7046-48b7-9ef2-a0554a37e0fc","ios":"levelo://app?vid=0423c882-7046-48b7-9ef2-a0554a37e0fc"},"vehicle_type_id":"4","last_reported":1750940465,"current_range_meters":14800,"station_id":"ce4bhnp2rcd13ifvqgvg","pricing_plan_id":"cebpf4jnsgd1na2vs0mg"},{"bike_id":"86ebd8a7-7d30-43b6-953e-6107b0f77710","system_id":"levelo_inurba_marseille","lat":43.334191,"lon":5.400539,"is_reserved":false,"is_disabled":false,"rental_uris":{"android":"levelo://app?vid=86ebd8a7-7d30-43b6-953e-6107b0f77710","ios":"levelo://app?vid=86ebd8a7-7d30-43b6-953e-6107b0f77710"},"vehicle_type_id":"4","last_reported":1750940465,"current_range_meters":15200,"station_id":"","pricing_plan_id":"cebpf4jnsgd1na2vs0mg"},{"bike_id":"a3d0361a-3828-474d-99c9-540f57e909aa","system_id":"levelo_inurba_marseille","lat":43.31167,"lon":5.38715,"is_reserved":false,"is_disabled":false,"rental_uris":{"android":"levelo://app?vid=a3d0361a-3828-474d-99c9-540f57e909aa","ios":"levelo://app?vid=a3d0361a-3828-474d-99c9-540f57e909aa"},"vehicle_type_id":"4","last_reported":1750940465,"current_range_meters":15200,"station_id":"ce4bgv12rcd13ifvqcp0","pricing_plan_id":"cebpf4jnsgd1na2vs0mg"},{"bike_id":"efa62e76-dc8f-4253-b3cc-c21b913783ab","system_id":"levelo_inurba_marseille","lat":43.28036,"lon":5.36942,"is_reserved":false,"is_disabled":false,"rental_uris":{"android":"levelo://app?vid=efa62e76-dc8f-4253-b3cc-c21b913783ab","ios":"levelo://app?vid=efa62e76-dc8f-4253-b3cc-c21b913783ab"},"vehicle_type_id":"4","last_reported":1750940465,"current_range_meters":15200,"station_id":"ce4bha12rcd13ifvqef0","pricing_plan_id":"cebpf4jnsgd1na2vs0mg"},{"bike_id":"e51f629a-c372-4506-805e-7b115f58434b","system_id":"levelo_inurba_marseille","lat":43.24387,"lon":5.37058,"is_reserved":false,"is_disabled":false,"rental_uris":{"android":"levelo://app?vid=e51f629a-c372-4506-805e-7b115f58434b","ios":"levelo://app?vid=e51f629a-c372-4506-805e-7b115f58434b"},"vehicle_type_id":"4","last_reported":1750940465,"current_range_meters":15200,"station_id":"ce4bhhh2rcd13ifvqfk0","pricing_plan_id":"cebpf4jnsgd1na2vs0mg"},{"bike_id":"cce0ea9f-1e2a-4a69-ac7b-9c10ee9fc956","system_id":"levelo_inurba_marseille","lat":43.23149,"lon":5.43737,"is_reserved":false,"is_disabled":false,"rental_uris":{"android":"levelo://app?vid=cce0ea9f-1e2a-4a69-ac7b-9c10ee9fc956","ios":"levelo://app?vid=cce0ea9f-1e2a-4a69-ac7b-9c10ee9fc956"},"vehicle_type_id":"4","last_reported":1750940465,"current_range_meters":15200,"station_id":"ce4bhmp2rcd13ifvqgog","pricing_plan_id":"cebpf4jnsgd1na2vs0mg"},{"bike_id":"6b0e986f-2a52-44b5-8068-303b5440c988","system_id":"levelo_inurba_marseille","lat":43.33035,"lon":5.39033,"is_reserved":false,"is_disabled":false,"rental_uris":{"android":"levelo://app?vid=6b0e986f-2a52-44b5-8068-303b5440c988","ios":"levelo://app?vid=6b0e986f-2a52-44b5-8068-303b5440c988"},"vehicle_type_id":"4","last_reported":1750940465,"current_range_meters":15200,"station_id":"ce4bhr92rcd13ifvqhrg","pricing_plan_id":"cebpf4jnsgd1na2vs0mg"},{"bike_id":"33ff2acc-5b55-48de-9529-81b3c60dbff0","system_id":"levelo_inurba_marseille","lat":43.30925,"lon":5.37298,"is_reserved":false,"is_disabled":false,"rental_uris":{"android":"levelo://app?vid=33ff2acc-5b55-48de-9529-81b3c60dbff0","ios":"levelo://app?vid=33ff2acc-5b55-48de-9529-81b3c60dbff0"},"vehicle_type_id":"4","last_reported":1750940465,"current_range_meters":16000,"station_id":"","pricing_plan_id":"cebpf4jnsgd1na2vs0mg"},{"bike_id":"c88667bb-c811-484d-8150-b97e9b91e111","system_id":"levelo_inurba_marseille","lat":43.30135,"lon":5.38778,"is_reserved":false,"is_disabled":false,"rental_uris":{"android":"levelo://app?vid=c88667bb-c811-484d-8150-b97e9b91e111","ios":"levelo://app?vid=c88667bb-c811-484d-8150-b97e9b91e111"},"vehicle_type_id":"4","last_reported":1750940465,"current_range_meters":16000,"station_id":"ce4bghh2rcd13ifvqb60","pricing_plan_id":"cebpf4jnsgd1na2vs0mg"},{"bike_id":"65488aa2-2ac7-4bd9-99de-c2bcbd64881e","system_id":"levelo_inurba_marseille","lat":43.30554,"lon":5.36721,"is_reserved":false,"is_disabled":false,"rental_uris":{"android":"levelo://app?vid=65488aa2-2ac7-4bd9-99de-c2bcbd64881e","ios":"levelo://app?vid=65488aa2-2ac7-4bd9-99de-c2bcbd64881e"},"vehicle_type_id":"4","last_reported":1750940465,"current_range_meters":16000,"station_id":"ce4bgrp2rcd13ifvqc9g","pricing_plan_id":"cebpf4jnsgd1na2vs0mg"},{"bike_id":"b3bea210-7877-48e6-8bc6-6c3e78ca056d","system_id":"levelo_inurba_marseille","lat":43.24078,"lon":5.37762,"is_reserved":false,"is_disabled":false,"rental_uris":{"android":"levelo://app?vid=b3bea210-7877-48e6-8bc6-6c3e78ca056d","ios":"levelo://app?vid=b3bea210-7877-48e6-8bc6-6c3e78ca056d"},"vehicle_type_id":"4","last_reported":1750940465,"current_range_meters":16000,"station_id":"ce4bhnp2rcd13ifvqgvg","pricing_plan_id":"cebpf4jnsgd1na2vs0mg"},{"bike_id":"58fe71ac-e2ea-4466-bb43-ac9c71c6286a","system_id":"levelo_inurba_marseille","lat":43.21753,"lon":5.34601,"is_reserved":false,"is_disabled":false,"rental_uris":{"android":"levelo://app?vid=58fe71ac-e2ea-4466-bb43-ac9c71c6286a","ios":"levelo://app?vid=58fe71ac-e2ea-4466-bb43-ac9c71c6286a"},"vehicle_type_id":"4","last_reported":1750940465,"current_range_meters":16000,"station_id":"st_cvj6r9ubvosntc0bgbag","pricing_plan_id":"cebpf4jnsgd1na2vs0mg"},{"bike_id":"6cabd482-2c24-45d7-ba4f-66337a66ef83","system_id":"levelo_inurba_marseille","lat":43.31171,"lon":5.38714,"is_reserved":false,"is_disabled":false,"rental_uris":{"android":"levelo://app?vid=6cabd482-2c24-45d7-ba4f-66337a66ef83","ios":"levelo://app?vid=6cabd482-2c24-45d7-ba4f-66337a66ef83"},"vehicle_type_id":"4","last_reported":1750940465,"current_range_meters":16400,"station_id":"ce4bgv12rcd13ifvqcp0","pricing_plan_id":"cebpf4jnsgd1na2vs0mg"},{"bike_id":"6c0113e2-8fa4-4368-8358-e24a1cd143cd","system_id":"levelo_inurba_marseille","lat":43.25572,"lon":5.38235,"is_reserved":false,"is_disabled":false,"rental_uris":{"android":"levelo://app?vid=6c0113e2-8fa4-4368-8358-e24a1cd143cd","ios":"levelo://app?vid=6c0113e2-8fa4-4368-8358-e24a1cd143cd"},"vehicle_type_id":"4","last_reported":1750940465,"current_range_meters":16400,"station_id":"ce4bhih2rcd13ifvqfs0","pricing_plan_id":"cebpf4jnsgd1na2vs0mg"},{"bike_id":"77e7ebdd-08d9-4160-b08f-39ceab9cfee3","system_id":"levelo_inurba_marseille","lat":43.27061,"lon":5.40265,"is_reserved":false,"is_disabled":false,"rental_uris":{"android":"levelo://app?vid=77e7ebdd-08d9-4160-b08f-39ceab9cfee3","ios":"levelo://app?vid=77e7ebdd-08d9-4160-b08f-39ceab9cfee3"},"vehicle_type_id":"4","last_reported":1750940465,"current_range_meters":16400,"station_id":"ce4bhk92rcd13ifvqgc0","pricing_plan_id":"cebpf4jnsgd1na2vs0mg"},{"bike_id":"5347b3ea-8752-4664-bef1-c879a2a6263a","system_id":"levelo_inurba_marseille","lat":43.23151,"lon":5.43729,"is_reserved":false,"is_disabled":false,"rental_uris":{"android":"levelo://app?vid=5347b3ea-8752-4664-bef1-c879a2a6263a","ios":"levelo://app?vid=5347b3ea-8752-4664-bef1-c879a2a6263a"},"vehicle_type_id":"4","last_reported":1750940465,"current_range_meters":16400,"station_id":"ce4bhmp2rcd13ifvqgog","pricing_plan_id":"cebpf4jnsgd1na2vs0mg"},{"bike_id":"9a1bee5b-43d9-4bc1-aadc-5c8e142942b2","system_id":"levelo_inurba_marseille","lat":43.31756,"lon":5.3903,"is_reserved":false,"is_disabled":false,"rental_uris":{"android":"levelo://app?vid=9a1bee5b-43d9-4bc1-aadc-5c8e142942b2","ios":"levelo://app?vid=9a1bee5b-43d9-4bc1-aadc-5c8e142942b2"},"vehicle_type_id":"4","last_reported":1750940465,"current_range_meters":16400,"station_id":"ce4bhqp2rcd13ifvqhng","pricing_plan_id":"cebpf4jnsgd1na2vs0mg"},{"bike_id":"0d4bf6e9-df42-44fa-90da-42f015a8ca21","system_id":"levelo_inurba_marseille","lat":43.32085,"lon":5.36834,"is_reserved":false,"is_disabled":false,"rental_uris":{"android":"levelo://app?vid=0d4bf6e9-df42-44fa-90da-42f015a8ca21","ios":"levelo://app?vid=0d4bf6e9-df42-44fa-90da-42f015a8ca21"},"vehicle_type_id":"4","last_reported":1750940465,"current_range_meters":16400,"station_id":"ce4bhrh2rcd13ifvqhug","pricing_plan_id":"cebpf4jnsgd1na2vs0mg"},{"bike_id":"85baa472-0dcc-431c-b769-f17532940231","system_id":"levelo_inurba_marseille","lat":43.24165,"lon":5.364,"is_reserved":false,"is_disabled":false,"rental_uris":{"android":"levelo://app?vid=85baa472-0dcc-431c-b769-f17532940231","ios":"levelo://app?vid=85baa472-0dcc-431c-b769-f17532940231"},"vehicle_type_id":"4","last_reported":1750940465,"current_range_meters":16400,"station_id":"cpo36qri1sfpv3e86is0","pricing_plan_id":"cebpf4jnsgd1na2vs0mg"},{"bike_id":"e07e2b24-4b5c-4518-be76-74a96418db9c","system_id":"levelo_inurba_marseille","lat":43.30296,"lon":5.3685,"is_reserved":false,"is_disabled":false,"rental_uris":{"android":"levelo://app?vid=e07e2b24-4b5c-4518-be76-74a96418db9c","ios":"levelo://app?vid=e07e2b24-4b5c-4518-be76-74a96418db9c"},"vehicle_type_id":"4","last_reported":1750940465,"current_range_meters":16800,"station_id":"ce4bgqh2rcd13ifvqc5g","pricing_plan_id":"cebpf4jnsgd1na2vs0mg"},{"bike_id":"520b2c46-2bf1-4fd2-9fca-b32997429572","system_id":"levelo_inurba_marseille","lat":43.28405,"lon":5.34965,"is_reserved":false,"is_disabled":false,"rental_uris":{"android":"levelo://app?vid=520b2c46-2bf1-4fd2-9fca-b32997429572","ios":"levelo://app?vid=520b2c46-2bf1-4fd2-9fca-b32997429572"},"vehicle_type_id":"4","last_reported":1750940465,"current_range_meters":16800,"station_id":"ce4bhbh2rcd13ifvqepg","pricing_plan_id":"cebpf4jnsgd1na2vs0mg"},{"bike_id":"00dd56d8-e1b2-4672-bc22-05410cbb86ff","system_id":"levelo_inurba_marseille","lat":43.282707,"lon":5.350654,"is_reserved":false,"is_disabled":false,"rental_uris":{"android":"levelo://app?vid=00dd56d8-e1b2-4672-bc22-05410cbb86ff","ios":"levelo://app?vid=00dd56d8-e1b2-4672-bc22-05410cbb86ff"},"vehicle_type_id":"4","last_reported":1750940465,"current_range_meters":16800,"station_id":"ce4bhbp2rcd13ifvqerg","pricing_plan_id":"cebpf4jnsgd1na2vs0mg"},{"bike_id":"4106a639-366b-4e16-ab2c-e2241d337d6f","system_id":"levelo_inurba_marseille","lat":43.23181,"lon":5.35555,"is_reserved":false,"is_disabled":false,"rental_uris":{"android":"levelo://app?vid=4106a639-366b-4e16-ab2c-e2241d337d6f","ios":"levelo://app?vid=4106a639-366b-4e16-ab2c-e2241d337d6f"},"vehicle_type_id":"4","last_reported":1750940465,"current_range_meters":16800,"station_id":"ce4bhu92rcd13ifvqi70","pricing_plan_id":"cebpf4jnsgd1na2vs0mg"},{"bike_id":"1a500985-c816-4d83-a038-4a629f10a813","system_id":"levelo_inurba_marseille","lat":43.21203,"lon":5.35089,"is_reserved":false,"is_disabled":false,"rental_uris":{"android":"levelo://app?vid=1a500985-c816-4d83-a038-4a629f10a813","ios":"levelo://app?vid=1a500985-c816-4d83-a038-4a629f10a813"},"vehicle_type_id":"4","last_reported":1750940465,"current_range_meters":16800,"station_id":"st_cvj6sg6p6f1abm77japg","pricing_plan_id":"cebpf4jnsgd1na2vs0mg"},{"bike_id":"30255559-c0ad-4ed9-b6cf-e7b51cc386d9","system_id":"levelo_inurba_marseille","lat":43.305514,"lon":5.365662,"is_reserved":false,"is_disabled":false,"rental_uris":{"android":"levelo://app?vid=30255559-c0ad-4ed9-b6cf-e7b51cc386d9","ios":"levelo://app?vid=30255559-c0ad-4ed9-b6cf-e7b51cc386d9"},"vehicle_type_id":"4","last_reported":1750940465,"current_range_meters":17200,"station_id":"ce4bgs12rcd13ifvqcag","pricing_plan_id":"cebpf4jnsgd1na2vs0mg"},{"bike_id":"1d55f66e-dd62-48de-89a1-6b40fd865f1e","system_id":"levelo_inurba_marseille","lat":43.26196,"lon":5.37487,"is_reserved":false,"is_disabled":false,"rental_uris":{"android":"levelo://app?vid=1d55f66e-dd62-48de-89a1-6b40fd865f1e","ios":"levelo://app?vid=1d55f66e-dd62-48de-89a1-6b40fd865f1e"},"vehicle_type_id":"4","last_reported":1750940465,"current_range_meters":17200,"station_id":"ce4bhgp2rcd13ifvqfc0","pricing_plan_id":"cebpf4jnsgd1na2vs0mg"},{"bike_id":"2ad8c985-d1ec-4ce0-85b0-a2f74863b534","system_id":"levelo_inurba_marseille","lat":43.262114,"lon":5.37437,"is_reserved":false,"is_disabled":false,"rental_uris":{"android":"levelo://app?vid=2ad8c985-d1ec-4ce0-85b0-a2f74863b534","ios":"levelo://app?vid=2ad8c985-d1ec-4ce0-85b0-a2f74863b534"},"vehicle_type_id":"4","last_reported":1750940465,"current_range_meters":17200,"station_id":"ce4bhgp2rcd13ifvqfc0","pricing_plan_id":"cebpf4jnsgd1na2vs0mg"},{"bike_id":"3331bc79-ecc9-4ec2-a219-f34e9ecb7202","system_id":"levelo_inurba_marseille","lat":43.24389,"lon":5.37057,"is_reserved":false,"is_disabled":false,"rental_uris":{"android":"levelo://app?vid=3331bc79-ecc9-4ec2-a219-f34e9ecb7202","ios":"levelo://app?vid=3331bc79-ecc9-4ec2-a219-f34e9ecb7202"},"vehicle_type_id":"4","last_reported":1750940465,"current_range_meters":17200,"station_id":"ce4bhhh2rcd13ifvqfk0","pricing_plan_id":"cebpf4jnsgd1na2vs0mg"},{"bike_id":"2071ff3f-536a-4747-9e50-d85d0e60def3","system_id":"levelo_inurba_marseille","lat":43.21193,"lon":5.3508,"is_reserved":false,"is_disabled":false,"rental_uris":{"android":"levelo://app?vid=2071ff3f-536a-4747-9e50-d85d0e60def3","ios":"levelo://app?vid=2071ff3f-536a-4747-9e50-d85d0e60def3"},"vehicle_type_id":"4","last_reported":1750940465,"current_range_meters":17200,"station_id":"st_cvj6sg6p6f1abm77japg","pricing_plan_id":"cebpf4jnsgd1na2vs0mg"},{"bike_id":"348936c8-7c8d-4b8a-988e-b0a979920804","system_id":"levelo_inurba_marseille","lat":43.21198,"lon":5.35069,"is_reserved":false,"is_disabled":false,"rental_uris":{"android":"levelo://app?vid=348936c8-7c8d-4b8a-988e-b0a979920804","ios":"levelo://app?vid=348936c8-7c8d-4b8a-988e-b0a979920804"},"vehicle_type_id":"4","last_reported":1750940465,"current_range_meters":17200,"station_id":"st_cvj6sg6p6f1abm77japg","pricing_plan_id":"cebpf4jnsgd1na2vs0mg"},{"bike_id":"478f2ca0-6ee3-4d51-938f-cf2706774ae6","system_id":"levelo_inurba_marseille","lat":43.30883,"lon":5.3966,"is_reserved":false,"is_disabled":false,"rental_uris":{"android":"levelo://app?vid=478f2ca0-6ee3-4d51-938f-cf2706774ae6","ios":"levelo://app?vid=478f2ca0-6ee3-4d51-938f-cf2706774ae6"},"vehicle_type_id":"4","last_reported":1750940465,"current_range_meters":17600,"station_id":"ce4bh012rcd13ifvqcv0","pricing_plan_id":"cebpf4jnsgd1na2vs0mg"},{"bike_id":"a670c232-602f-4de4-b4ed-4c22f0a7bbe5","system_id":"levelo_inurba_marseille","lat":43.26209,"lon":5.37469,"is_reserved":false,"is_disabled":false,"rental_uris":{"android":"levelo://app?vid=a670c232-602f-4de4-b4ed-4c22f0a7bbe5","ios":"levelo://app?vid=a670c232-602f-4de4-b4ed-4c22f0a7bbe5"},"vehicle_type_id":"4","last_reported":1750940465,"current_range_meters":17600,"station_id":"ce4bhgp2rcd13ifvqfc0","pricing_plan_id":"cebpf4jnsgd1na2vs0mg"},{"bike_id":"f1ff4f78-6d1b-435f-8777-a24085f5b111","system_id":"levelo_inurba_marseille","lat":43.23199,"lon":5.35604,"is_reserved":false,"is_disabled":false,"rental_uris":{"android":"levelo://app?vid=f1ff4f78-6d1b-435f-8777-a24085f5b111","ios":"levelo://app?vid=f1ff4f78-6d1b-435f-8777-a24085f5b111"},"vehicle_type_id":"4","last_reported":1750940465,"current_range_meters":17600,"station_id":"ce4bhu92rcd13ifvqi70","pricing_plan_id":"cebpf4jnsgd1na2vs0mg"},{"bike_id":"ea387e76-acba-42f5-8f87-fcb58c5f83ad","system_id":"levelo_inurba_marseille","lat":43.232003,"lon":5.355573,"is_reserved":false,"is_disabled":false,"rental_uris":{"android":"levelo://app?vid=ea387e76-acba-42f5-8f87-fcb58c5f83ad","ios":"levelo://app?vid=ea387e76-acba-42f5-8f87-fcb58c5f83ad"},"vehicle_type_id":"4","last_reported":1750940465,"current_range_meters":18000,"station_id":"","pricing_plan_id":"cebpf4jnsgd1na2vs0mg"},{"bike_id":"9be2b04e-4905-403a-8e69-1715d41c3c18","system_id":"levelo_inurba_marseille","lat":43.29271,"lon":5.37624,"is_reserved":false,"is_disabled":false,"rental_uris":{"android":"levelo://app?vid=9be2b04e-4905-403a-8e69-1715d41c3c18","ios":"levelo://app?vid=9be2b04e-4905-403a-8e69-1715d41c3c18"},"vehicle_type_id":"4","last_reported":1750940465,"current_range_meters":18000,"station_id":"ce4bgi12rcd13ifvqb80","pricing_plan_id":"cebpf4jnsgd1na2vs0mg"},{"bike_id":"b85f13c4-92d1-4595-bb47-a92c02a8c883","system_id":"levelo_inurba_marseille","lat":43.30961,"lon":5.39054,"is_reserved":false,"is_disabled":false,"rental_uris":{"android":"levelo://app?vid=b85f13c4-92d1-4595-bb47-a92c02a8c883","ios":"levelo://app?vid=b85f13c4-92d1-4595-bb47-a92c02a8c883"},"vehicle_type_id":"4","last_reported":1750940465,"current_range_meters":18000,"station_id":"ce4bgup2rcd13ifvqco0","pricing_plan_id":"cebpf4jnsgd1na2vs0mg"},{"bike_id":"c65c7bf3-5825-4298-ac27-d84f6583e13b","system_id":"levelo_inurba_marseille","lat":43.28418,"lon":5.34982,"is_reserved":false,"is_disabled":false,"rental_uris":{"android":"levelo://app?vid=c65c7bf3-5825-4298-ac27-d84f6583e13b","ios":"levelo://app?vid=c65c7bf3-5825-4298-ac27-d84f6583e13b"},"vehicle_type_id":"4","last_reported":1750940465,"current_range_meters":18000,"station_id":"ce4bhbh2rcd13ifvqepg","pricing_plan_id":"cebpf4jnsgd1na2vs0mg"},{"bike_id":"583250a4-e317-4bcf-aca0-d97a0b663a7e","system_id":"levelo_inurba_marseille","lat":43.30391,"lon":5.42482,"is_reserved":false,"is_disabled":false,"rental_uris":{"android":"levelo://app?vid=583250a4-e317-4bcf-aca0-d97a0b663a7e","ios":"levelo://app?vid=583250a4-e317-4bcf-aca0-d97a0b663a7e"},"vehicle_type_id":"4","last_reported":1750940465,"current_range_meters":18000,"station_id":"ce4bhoh2rcd13ifvqh6g","pricing_plan_id":"cebpf4jnsgd1na2vs0mg"},{"bike_id":"d565ec36-c103-42db-b30a-02c479395322","system_id":"levelo_inurba_marseille","lat":43.295578,"lon":5.425185,"is_reserved":false,"is_disabled":false,"rental_uris":{"android":"levelo://app?vid=d565ec36-c103-42db-b30a-02c479395322","ios":"levelo://app?vid=d565ec36-c103-42db-b30a-02c479395322"},"vehicle_type_id":"4","last_reported":1750940465,"current_range_meters":18800,"station_id":"","pricing_plan_id":"cebpf4jnsgd1na2vs0mg"},{"bike_id":"af68b7bb-3bc1-4f86-82f7-01acd47beedf","system_id":"levelo_inurba_marseille","lat":43.29719,"lon":5.37697,"is_reserved":false,"is_disabled":false,"rental_uris":{"android":"levelo://app?vid=af68b7bb-3bc1-4f86-82f7-01acd47beedf","ios":"levelo://app?vid=af68b7bb-3bc1-4f86-82f7-01acd47beedf"},"vehicle_type_id":"4","last_reported":1750940465,"current_range_meters":18800,"station_id":"ce4bgkh2rcd13ifvqbl0","pricing_plan_id":"cebpf4jnsgd1na2vs0mg"},{"bike_id":"45c11448-bf22-499b-bf4d-db2e2efaeb6a","system_id":"levelo_inurba_marseille","lat":43.29558,"lon":5.3674,"is_reserved":false,"is_disabled":false,"rental_uris":{"android":"levelo://app?vid=45c11448-bf22-499b-bf4d-db2e2efaeb6a","ios":"levelo://app?vid=45c11448-bf22-499b-bf4d-db2e2efaeb6a"},"vehicle_type_id":"4","last_reported":1750940465,"current_range_meters":18800,"station_id":"ce4bgph2rcd13ifvqc2g","pricing_plan_id":"cebpf4jnsgd1na2vs0mg"},{"bike_id":"319b0010-66fc-46d6-8861-13ba052f0285","system_id":"levelo_inurba_marseille","lat":43.30567,"lon":5.36544,"is_reserved":false,"is_disabled":false,"rental_uris":{"android":"levelo://app?vid=319b0010-66fc-46d6-8861-13ba052f0285","ios":"levelo://app?vid=319b0010-66fc-46d6-8861-13ba052f0285"},"vehicle_type_id":"4","last_reported":1750940465,"current_range_meters":18800,"station_id":"ce4bgs12rcd13ifvqcag","pricing_plan_id":"cebpf4jnsgd1na2vs0mg"},{"bike_id":"45ddb0a8-dd2a-4d7d-99f6-1e936a2a3838","system_id":"levelo_inurba_marseille","lat":43.3014,"lon":5.374195,"is_reserved":false,"is_disabled":false,"rental_uris":{"android":"levelo://app?vid=45ddb0a8-dd2a-4d7d-99f6-1e936a2a3838","ios":"levelo://app?vid=45ddb0a8-dd2a-4d7d-99f6-1e936a2a3838"},"vehicle_type_id":"4","last_reported":1750940465,"current_range_meters":18800,"station_id":"ce4bgs92rcd13ifvqcc0","pricing_plan_id":"cebpf4jnsgd1na2vs0mg"},{"bike_id":"ae8ac663-870d-4967-9040-97a36e0fff52","system_id":"levelo_inurba_marseille","lat":43.31701,"lon":5.40451,"is_reserved":false,"is_disabled":false,"rental_uris":{"android":"levelo://app?vid=ae8ac663-870d-4967-9040-97a36e0fff52","ios":"levelo://app?vid=ae8ac663-870d-4967-9040-97a36e0fff52"},"vehicle_type_id":"4","last_reported":1750940465,"current_range_meters":18800,"station_id":"ce4bh012rcd13ifvqd00","pricing_plan_id":"cebpf4jnsgd1na2vs0mg"},{"bike_id":"dd1473ef-9dbb-4a4f-a43f-4a74efb2e42a","system_id":"levelo_inurba_marseille","lat":43.29869,"lon":5.39738,"is_reserved":false,"is_disabled":false,"rental_uris":{"android":"levelo://app?vid=dd1473ef-9dbb-4a4f-a43f-4a74efb2e42a","ios":"levelo://app?vid=dd1473ef-9dbb-4a4f-a43f-4a74efb2e42a"},"vehicle_type_id":"4","last_reported":1750940465,"current_range_meters":18800,"station_id":"ce4bh0h2rcd13ifvqd50","pricing_plan_id":"cebpf4jnsgd1na2vs0mg"},{"bike_id":"8d78bf36-f1c3-41a4-95fd-e6d4a1c1d57c","system_id":"levelo_inurba_marseille","lat":43.28406,"lon":5.3499,"is_reserved":false,"is_disabled":false,"rental_uris":{"android":"levelo://app?vid=8d78bf36-f1c3-41a4-95fd-e6d4a1c1d57c","ios":"levelo://app?vid=8d78bf36-f1c3-41a4-95fd-e6d4a1c1d57c"},"vehicle_type_id":"4","last_reported":1750940465,"current_range_meters":18800,"station_id":"ce4bhbh2rcd13ifvqepg","pricing_plan_id":"cebpf4jnsgd1na2vs0mg"},{"bike_id":"8fc3c6f2-ca8a-465b-9679-6bd1831070f4","system_id":"levelo_inurba_marseille","lat":43.2826,"lon":5.35076,"is_reserved":false,"is_disabled":false,"rental_uris":{"android":"levelo://app?vid=8fc3c6f2-ca8a-465b-9679-6bd1831070f4","ios":"levelo://app?vid=8fc3c6f2-ca8a-465b-9679-6bd1831070f4"},"vehicle_type_id":"4","last_reported":1750940465,"current_range_meters":18800,"station_id":"ce4bhbp2rcd13ifvqerg","pricing_plan_id":"cebpf4jnsgd1na2vs0mg"},{"bike_id":"6f81dd0e-f965-42ab-b0eb-a1aca49cea33","system_id":"levelo_inurba_marseille","lat":43.265712,"lon":5.390057,"is_reserved":false,"is_disabled":false,"rental_uris":{"android":"levelo://app?vid=6f81dd0e-f965-42ab-b0eb-a1aca49cea33","ios":"levelo://app?vid=6f81dd0e-f965-42ab-b0eb-a1aca49cea33"},"vehicle_type_id":"4","last_reported":1750940465,"current_range_meters":18800,"station_id":"ce4bhe12rcd13ifvqf30","pricing_plan_id":"cebpf4jnsgd1na2vs0mg"},{"bike_id":"212d8ead-b7cb-4d1b-9e9a-b45404edd605","system_id":"levelo_inurba_marseille","lat":43.27056,"lon":5.40272,"is_reserved":false,"is_disabled":false,"rental_uris":{"android":"levelo://app?vid=212d8ead-b7cb-4d1b-9e9a-b45404edd605","ios":"levelo://app?vid=212d8ead-b7cb-4d1b-9e9a-b45404edd605"},"vehicle_type_id":"4","last_reported":1750940465,"current_range_meters":18800,"station_id":"ce4bhk92rcd13ifvqgc0","pricing_plan_id":"cebpf4jnsgd1na2vs0mg"},{"bike_id":"90a212f5-f161-452e-b2e4-434a7de8d8fc","system_id":"levelo_inurba_marseille","lat":43.231466,"lon":5.437103,"is_reserved":false,"is_disabled":false,"rental_uris":{"android":"levelo://app?vid=90a212f5-f161-452e-b2e4-434a7de8d8fc","ios":"levelo://app?vid=90a212f5-f161-452e-b2e4-434a7de8d8fc"},"vehicle_type_id":"4","last_reported":1750940465,"current_range_meters":18800,"station_id":"ce4bhmp2rcd13ifvqgog","pricing_plan_id":"cebpf4jnsgd1na2vs0mg"},{"bike_id":"c912f712-272f-4ea0-bdd0-b7b33c115a10","system_id":"levelo_inurba_marseille","lat":43.32352,"lon":5.38866,"is_reserved":false,"is_disabled":false,"rental_uris":{"android":"levelo://app?vid=c912f712-272f-4ea0-bdd0-b7b33c115a10","ios":"levelo://app?vid=c912f712-272f-4ea0-bdd0-b7b33c115a10"},"vehicle_type_id":"4","last_reported":1750940465,"current_range_meters":18800,"station_id":"ce4bhqp2rcd13ifvqhog","pricing_plan_id":"cebpf4jnsgd1na2vs0mg"},{"bike_id":"e449a2c0-ee5d-44c7-a602-628deef64a14","system_id":"levelo_inurba_marseille","lat":43.33712,"lon":5.39207,"is_reserved":false,"is_disabled":false,"rental_uris":{"android":"levelo://app?vid=e449a2c0-ee5d-44c7-a602-628deef64a14","ios":"levelo://app?vid=e449a2c0-ee5d-44c7-a602-628deef64a14"},"vehicle_type_id":"4","last_reported":1750940465,"current_range_meters":18800,"station_id":"ce4bhr92rcd13ifvqhsg","pricing_plan_id":"cebpf4jnsgd1na2vs0mg"},{"bike_id":"5f16334a-3393-41dc-ad34-ab261abba054","system_id":"levelo_inurba_marseille","lat":43.32345,"lon":5.3675,"is_reserved":false,"is_disabled":false,"rental_uris":{"android":"levelo://app?vid=5f16334a-3393-41dc-ad34-ab261abba054","ios":"levelo://app?vid=5f16334a-3393-41dc-ad34-ab261abba054"},"vehicle_type_id":"4","last_reported":1750940465,"current_range_meters":18800,"station_id":"ce4bhsh2rcd13ifvqi2g","pricing_plan_id":"cebpf4jnsgd1na2vs0mg"},{"bike_id":"b404c964-6a6e-4825-8807-5670ff3c69a5","system_id":"levelo_inurba_marseille","lat":43.323601,"lon":5.367669,"is_reserved":false,"is_disabled":false,"rental_uris":{"android":"levelo://app?vid=b404c964-6a6e-4825-8807-5670ff3c69a5","ios":"levelo://app?vid=b404c964-6a6e-4825-8807-5670ff3c69a5"},"vehicle_type_id":"4","last_reported":1750940465,"current_range_meters":18800,"station_id":"ce4bhsh2rcd13ifvqi2g","pricing_plan_id":"cebpf4jnsgd1na2vs0mg"},{"bike_id":"9d043ca6-e9d3-4bf0-a898-473de0644f93","system_id":"levelo_inurba_marseille","lat":43.21188,"lon":5.3508,"is_reserved":false,"is_disabled":false,"rental_uris":{"android":"levelo://app?vid=9d043ca6-e9d3-4bf0-a898-473de0644f93","ios":"levelo://app?vid=9d043ca6-e9d3-4bf0-a898-473de0644f93"},"vehicle_type_id":"4","last_reported":1750940465,"current_range_meters":18800,"station_id":"st_cvj6sg6p6f1abm77japg","pricing_plan_id":"cebpf4jnsgd1na2vs0mg"},{"bike_id":"2158572e-2a3c-4939-999d-89b47a81ec01","system_id":"levelo_inurba_marseille","lat":43.26782,"lon":5.39415,"is_reserved":false,"is_disabled":false,"rental_uris":{"android":"levelo://app?vid=2158572e-2a3c-4939-999d-89b47a81ec01","ios":"levelo://app?vid=2158572e-2a3c-4939-999d-89b47a81ec01"},"vehicle_type_id":"4","last_reported":1750940465,"current_range_meters":19200,"station_id":"","pricing_plan_id":"cebpf4jnsgd1na2vs0mg"},{"bike_id":"a7285cd5-08a8-4a02-8d5f-170c9f278ed6","system_id":"levelo_inurba_marseille","lat":43.29572,"lon":5.37501,"is_reserved":false,"is_disabled":false,"rental_uris":{"android":"levelo://app?vid=a7285cd5-08a8-4a02-8d5f-170c9f278ed6","ios":"levelo://app?vid=a7285cd5-08a8-4a02-8d5f-170c9f278ed6"},"vehicle_type_id":"4","last_reported":1750940465,"current_range_meters":19200,"station_id":"ce4bgh92rcd13ifvqb50","pricing_plan_id":"cebpf4jnsgd1na2vs0mg"},{"bike_id":"e4c85ea1-1e2b-4a67-920c-d94ce4c3a486","system_id":"levelo_inurba_marseille","lat":43.29707,"lon":5.36592,"is_reserved":false,"is_disabled":false,"rental_uris":{"android":"levelo://app?vid=e4c85ea1-1e2b-4a67-920c-d94ce4c3a486","ios":"levelo://app?vid=e4c85ea1-1e2b-4a67-920c-d94ce4c3a486"},"vehicle_type_id":"4","last_reported":1750940465,"current_range_meters":19200,"station_id":"ce4bgn12rcd13ifvqbt0","pricing_plan_id":"cebpf4jnsgd1na2vs0mg"},{"bike_id":"3d90fe42-a99e-4068-8ca6-2e60d705004e","system_id":"levelo_inurba_marseille","lat":43.30261,"lon":5.37745,"is_reserved":false,"is_disabled":false,"rental_uris":{"android":"levelo://app?vid=3d90fe42-a99e-4068-8ca6-2e60d705004e","ios":"levelo://app?vid=3d90fe42-a99e-4068-8ca6-2e60d705004e"},"vehicle_type_id":"4","last_reported":1750940465,"current_range_meters":19200,"station_id":"ce4bguh2rcd13ifvqcj0","pricing_plan_id":"cebpf4jnsgd1na2vs0mg"},{"bike_id":"c0aadb83-74c9-4f4c-ac79-809eea83af7c","system_id":"levelo_inurba_marseille","lat":43.27378,"lon":5.36259,"is_reserved":false,"is_disabled":false,"rental_uris":{"android":"levelo://app?vid=c0aadb83-74c9-4f4c-ac79-809eea83af7c","ios":"levelo://app?vid=c0aadb83-74c9-4f4c-ac79-809eea83af7c"},"vehicle_type_id":"4","last_reported":1750940465,"current_range_meters":19200,"station_id":"ce4bhbh2rcd13ifvqeo0","pricing_plan_id":"cebpf4jnsgd1na2vs0mg"},{"bike_id":"40b19a43-7568-4070-8cfa-6d78b27578ba","system_id":"levelo_inurba_marseille","lat":43.254751,"lon":5.3765,"is_reserved":false,"is_disabled":false,"rental_uris":{"android":"levelo://app?vid=40b19a43-7568-4070-8cfa-6d78b27578ba","ios":"levelo://app?vid=40b19a43-7568-4070-8cfa-6d78b27578ba"},"vehicle_type_id":"4","last_reported":1750940465,"current_range_meters":19200,"station_id":"ce4bhh12rcd13ifvqff0","pricing_plan_id":"cebpf4jnsgd1na2vs0mg"},{"bike_id":"2cefe4c4-7926-46e5-9eb5-dc374030f814","system_id":"levelo_inurba_marseille","lat":43.21763,"lon":5.34591,"is_reserved":false,"is_disabled":false,"rental_uris":{"android":"levelo://app?vid=2cefe4c4-7926-46e5-9eb5-dc374030f814","ios":"levelo://app?vid=2cefe4c4-7926-46e5-9eb5-dc374030f814"},"vehicle_type_id":"4","last_reported":1750940465,"current_range_meters":19200,"station_id":"st_cvj6r9ubvosntc0bgbag","pricing_plan_id":"cebpf4jnsgd1na2vs0mg"},{"bike_id":"6088379b-0974-4ffe-8555-89ac0d186fc6","system_id":"levelo_inurba_marseille","lat":43.28287,"lon":5.35081,"is_reserved":false,"is_disabled":false,"rental_uris":{"android":"levelo://app?vid=6088379b-0974-4ffe-8555-89ac0d186fc6","ios":"levelo://app?vid=6088379b-0974-4ffe-8555-89ac0d186fc6"},"vehicle_type_id":"4","last_reported":1750940465,"current_range_meters":19600,"station_id":"","pricing_plan_id":"cebpf4jnsgd1na2vs0mg"},{"bike_id":"91a109d9-3a46-401a-a578-039fc0582588","system_id":"levelo_inurba_marseille","lat":43.28978,"lon":5.37833,"is_reserved":false,"is_disabled":false,"rental_uris":{"android":"levelo://app?vid=91a109d9-3a46-401a-a578-039fc0582588","ios":"levelo://app?vid=91a109d9-3a46-401a-a578-039fc0582588"},"vehicle_type_id":"4","last_reported":1750940465,"current_range_meters":19600,"station_id":"ce4bh9p2rcd13ifvqed0","pricing_plan_id":"cebpf4jnsgd1na2vs0mg"},{"bike_id":"facfcf93-ab85-4d16-b148-8bc9369e6f17","system_id":"levelo_inurba_marseille","lat":43.212,"lon":5.35084,"is_reserved":false,"is_disabled":false,"rental_uris":{"android":"levelo://app?vid=facfcf93-ab85-4d16-b148-8bc9369e6f17","ios":"levelo://app?vid=facfcf93-ab85-4d16-b148-8bc9369e6f17"},"vehicle_type_id":"4","last_reported":1750940465,"current_range_meters":19600,"station_id":"st_cvj6sg6p6f1abm77japg","pricing_plan_id":"cebpf4jnsgd1na2vs0mg"},