{"last_updated":1722186426,"ttl":30,"version":"2.2","data":{"bikes":[{"bike_id":"f014a5f2-46b2-4421-8748-6ead5ee03095","system_id":"levelo_inurba_marseille","lat":43.314811,"lon":5.373104,"is_reserved":false,"is_disabled":false,"rental_uris":{"android":"levelo://app?vid=f014a5f2-46b2-4421-8748-6ead5ee03095","ios":"levelo://app?vid=f014a5f2-46b2-4421-8748-6ead5ee03095"},"vehicle_type_id":"4","last_reported":1722186426,"current_range_meters":30000,"station_id":"ce4bgt12rcd13ifvqcd0","pricing_plan_id":"cebpf4jnsgd1na2vs0mg"},{"bike_id":"978a0795-7438-4c64-9a6a-b1e426d188d6","system_id":"levelo_inurba_marseille","lat":43.317525,"lon":5.368761,"is_reserved":false,"is_disabled":false,"rental_uris":{"android":"levelo://app?vid=978a0795-7438-4c64-9a6a-b1e426d188d6","ios":"levelo://app?vid=978a0795-7438-4c64-9a6a-b1e426d188d6"},"vehicle_type_id":"4","last_reported":1722186426,"current_range_meters":1600,"station_id":"","pricing_plan_id":"cebpf4jnsgd1na2vs0mg"},{"bike_id":"b8c5cc59-86c0-4e86-bd05-d625f10b3882","system_id":"levelo_inurba_marseille","lat":43.314811,"lon":5.373104,"is_reserved":false,"is_disabled":false,"rental_uris":{"android":"levelo://app?vid=b8c5cc59-86c0-4e86-bd05-d625f10b3882","ios":"levelo://app?vid=b8c5cc59-86c0-4e86-bd05-d625f10b3882"},"vehicle_type_id":"4","last_reported":1722186426,"current_range_meters":2800,"station_id":"ce4bgt12rcd13ifvqcd0","pricing_plan_id":"cebpf4jnsgd1na2vs0mg"},{"bike_id":"e31b7490-3e3e-448d-983c-d14bde2bf611","system_id":"levelo_inurba_marseille","lat":43.30706,"lon":5.37307,"is_reserved":false,"is_disabled":false,"rental_uris":{"android":"levelo://app?vid=e31b7490-3e3e-448d-983c-d14bde2bf611","ios":"levelo://app?vid=e31b7490-3e3e-448d-983c-d14bde2bf611"},"vehicle_type_id":"4","last_reported":1722186426,"current_range_meters":2400,"station_id":"","pricing_plan_id":"cebpf4jnsgd1na2vs0mg"},{"bike_id":"bc52c906-28a7-4f04-a31a-9dec27fbe996","system_id":"levelo_inurba_marseille","lat":43.305368,"lon":5.367343,"is_reserved":false,"is_disabled":false,"rental_uris":{"android":"levelo://app?vid=bc52c906-28a7-4f04-a31a-9dec27fbe996","ios":"levelo://app?vid=bc52c906-28a7-4f04-a31a-9dec27fbe996"},"vehicle_type_id":"4","last_reported":1722186426,"current_range_meters":7200,"station_id":"ce4bgrp2rcd13ifvqc9g","pricing_plan_id":"cebpf4jnsgd1na2vs0mg"},{"bike_id":"56cf97e0-d75d-4413-a968-2bb2dfb3bdc9","system_id":"levelo_inurba_marseille","lat":43.305368,"lon":5.367343,"is_reserved":false,"is_disabled":false,"rental_uris":{"android":"levelo://app?vid=56cf97e0-d75d-4413-a968-2bb2dfb3bdc9","ios":"levelo://app?vid=56cf97e0-d75d-4413-a968-2bb2dfb3bdc9"},"vehicle_type_id":"4","last_reported":1722186426,"current_range_meters":19600,"station_id":"ce4bgrp2rcd13ifvqc9g","pricing_plan_id":"cebpf4jnsgd1na2vs0mg"},{"bike_id":"d7b6c448-d631-40f2-a410-710fd9b420a0","system_id":"levelo_inurba_marseille","lat":43.30537,"lon":5.365265,"is_reserved":false,"is_disabled":false,"rental_uris":{"android":"levelo://app?vid=d7b6c448-d631-40f2-a410-710fd9b420a0","ios":"levelo://app?vid=d7b6c448-d631-40f2-a410-710fd9b420a0"},"vehicle_type_id":"4","last_reported":1722186426,"current_range_meters":31200,"station_id":"ce4bgs12rcd13ifvqcag","pricing_plan_id":"cebpf4jnsgd1na2vs0mg"},{"bike_id":"a76caeeb-3090-4b8f-8548-3dbfeae68f8f","system_id":"levelo_inurba_marseille","lat":43.305368,"lon":5.367343,"is_reserved":false,"is_disabled":false,"rental_uris":{"android":"levelo://app?vid=a76caeeb-3090-4b8f-8548-3dbfeae68f8f","ios":"levelo://app?vid=a76caeeb-3090-4b8f-8548-3dbfeae68f8f"},"vehicle_type_id":"4","last_reported":1722186426,"current_range_meters":31600,"station_id":"ce4bgrp2rcd13ifvqc9g","pricing_plan_id":"cebpf4jnsgd1na2vs0mg"},{"bike_id":"c96d0f5d-a8fd-4842-a55a-ee0d016d8747","system_id":"levelo_inurba_marseille","lat":43.305368,"lon":5.367343,"is_reserved":false,"is_disabled":false,"rental_uris":{"android":"levelo://app?vid=c96d0f5d-a8fd-4842-a55a-ee0d016d8747","ios":"levelo://app?vid=c96d0f5d-a8fd-4842-a55a-ee0d016d8747"},"vehicle_type_id":"4","last_reported":1722186426,"current_range_meters":23600,"station_id":"ce4bgrp2rcd13ifvqc9g","pricing_plan_id":"cebpf4jnsgd1na2vs0mg"},{"bike_id":"945c6a8c-3fea-4ea4-a202-aa9ca8427473","system_id":"levelo_inurba_marseille","lat":43.305989,"lon":5.37225,"is_reserved":false,"is_disabled":false,"rental_uris":{"android":"levelo://app?vid=945c6a8c-3fea-4ea4-a202-aa9ca8427473","ios":"levelo://app?vid=945c6a8c-3fea-4ea4-a202-aa9ca8427473"},"vehicle_type_id":"4","last_reported":1722186426,"current_range_meters":8400,"station_id":"ce4bgqh2rcd13ifvqc4g","pricing_plan_id":"cebpf4jnsgd1na2vs0mg"},{"bike_id":"b9fd7b59-0204-45a1-9aec-c1f09e5ccb16","system_id":"levelo_inurba_marseille","lat":43.305989,"lon":5.37225,"is_reserved":false,"is_disabled":false,"rental_uris":{"android":"levelo://app?vid=b9fd7b59-0204-45a1-9aec-c1f09e5ccb16","ios":"levelo://app?vid=b9fd7b59-0204-45a1-9aec-c1f09e5ccb16"},"vehicle_type_id":"4","last_reported":1722186426,"current_range_meters":0,"station_id":"ce4bgqh2rcd13ifvqc4g","pricing_plan_id":"cebpf4jnsgd1na2vs0mg"},{"bike_id":"5f79f364-6bba-4083-9764-8e5e20317363","system_id":"levelo_inurba_marseille","lat":43.311131,"lon":5.377651,"is_reserved":false,"is_disabled":false,"rental_uris":{"android":"levelo://app?vid=5f79f364-6bba-4083-9764-8e5e20317363","ios":"levelo://app?vid=5f79f364-6bba-4083-9764-8e5e20317363"},"vehicle_type_id":"4","last_reported":1722186426,"current_range_meters":6000,"station_id":"ce4bgt92rcd13ifvqcg0","pricing_plan_id":"cebpf4jnsgd1na2vs0mg"},{"bike_id":"730ea826-ae0c-4665-909a-f9ae3a607f5e","system_id":"levelo_inurba_marseille","lat":43.311125,"lon":5.377624,"is_reserved":false,"is_disabled":false,"rental_uris":{"android":"levelo://app?vid=730ea826-ae0c-4665-909a-f9ae3a607f5e","ios":"levelo://app?vid=730ea826-ae0c-4665-909a-f9ae3a607f5e"},"vehicle_type_id":"4","last_reported":1722186426,"current_range_meters":0,"station_id":"ce4bgt92rcd13ifvqcg0","pricing_plan_id":"cebpf4jnsgd1na2vs0mg"},{"bike_id":"90a3ed3d-cc5e-4190-8bd9-e0718f400e29","system_id":"levelo_inurba_marseille","lat":43.315289,"lon":5.380349,"is_reserved":false,"is_disabled":false,"rental_uris":{"android":"levelo://app?vid=90a3ed3d-cc5e-4190-8bd9-e0718f400e29","ios":"levelo://app?vid=90a3ed3d-cc5e-4190-8bd9-e0718f400e29"},"vehicle_type_id":"4","last_reported":1722186426,"current_range_meters":800,"station_id":"ce4bhsp2rcd13ifvqi50","pricing_plan_id":"cebpf4jnsgd1na2vs0mg"},{"bike_id":"5dd4484e-580a-45f0-b1c5-e62ab017273e","system_id":"levelo_inurba_marseille","lat":43.303046,"lon":5.368981,"is_reserved":false,"is_disabled":false,"rental_uris":{"android":"levelo://app?vid=5dd4484e-580a-45f0-b1c5-e62ab017273e","ios":"levelo://app?vid=5dd4484e-580a-45f0-b1c5-e62ab017273e"},"vehicle_type_id":"4","last_reported":1722186426,"current_range_meters":21600,"station_id":"ce4bgqh2rcd13ifvqc5g","pricing_plan_id":"cebpf4jnsgd1na2vs0mg"},{"bike_id":"7cfbb3e2-efff-4d34-9066-7e64625429c1","system_id":"levelo_inurba_marseille","lat":43.303046,"lon":5.368981,"is_reserved":false,"is_disabled":false,"rental_uris":{"android":"levelo://app?vid=7cfbb3e2-efff-4d34-9066-7e64625429c1","ios":"levelo://app?vid=7cfbb3e2-efff-4d34-9066-7e64625429c1"},"vehicle_type_id":"4","last_reported":1722186426,"current_range_meters":1200,"station_id":"ce4bgqh2rcd13ifvqc5g","pricing_plan_id":"cebpf4jnsgd1na2vs0mg"},{"bike_id":"8f56c81e-0a43-4963-ade6-90baeabeb2a0","system_id":"levelo_inurba_marseille","lat":43.30304,"lon":5.368987,"is_reserved":false,"is_disabled":false,"rental_uris":{"android":"levelo://app?vid=8f56c81e-0a43-4963-ade6-90baeabeb2a0","ios":"levelo://app?vid=8f56c81e-0a43-4963-ade6-90baeabeb2a0"},"vehicle_type_id":"4","last_reported":1722186426,"current_range_meters":12000,"station_id":"ce4bgqh2rcd13ifvqc5g","pricing_plan_id":"cebpf4jnsgd1na2vs0mg"},{"bike_id":"a8731cae-7923-492d-9660-5759b62dd34e","system_id":"levelo_inurba_marseille","lat":43.303046,"lon":5.368981,"is_reserved":false,"is_disabled":false,"rental_uris":{"android":"levelo://app?vid=a8731cae-7923-492d-9660-5759b62dd34e","ios":"levelo://app?vid=a8731cae-7923-492d-9660-5759b62dd34e"},"vehicle_type_id":"4","last_reported":1722186426,"current_range_meters":2400,"station_id":"ce4bgqh2rcd13ifvqc5g","pricing_plan_id":"cebpf4jnsgd1na2vs0mg"},{"bike_id":"d3c250da-6402-4f0a-85fd-3e12524ae4b3","system_id":"levelo_inurba_marseille","lat":43.31562,"lon":5.38018,"is_reserved":false,"is_disabled":false,"rental_uris":{"android":"levelo://app?vid=d3c250da-6402-4f0a-85fd-3e12524ae4b3","ios":"levelo://app?vid=d3c250da-6402-4f0a-85fd-3e12524ae4b3"},"vehicle_type_id":"4","last_reported":1722186426,"current_range_meters":7200,"station_id":"ce4bhsp2rcd13ifvqi50","pricing_plan_id":"cebpf4jnsgd1na2vs0mg"},{"bike_id":"127f855b-1303-4703-be8f-61c1a6b33b4b","system_id":"levelo_inurba_marseille","lat":43.315289,"lon":5.380349,"is_reserved":false,"is_disabled":false,"rental_uris":{"android":"levelo://app?vid=127f855b-1303-4703-be8f-61c1a6b33b4b","ios":"levelo://app?vid=127f855b-1303-4703-be8f-61c1a6b33b4b"},"vehicle_type_id":"4","last_reported":1722186426,"current_range_meters":25600,"station_id":"ce4bhsp2rcd13ifvqi50","pricing_plan_id":"cebpf4jnsgd1na2vs0mg"},{"bike_id":"c9627781-812f-46fa-991a-70cf19f2c3a4","system_id":"levelo_inurba_marseille","lat":43.30457,"lon":5.37901,"is_reserved":false,"is_disabled":false,"rental_uris":{"android":"levelo://app?vid=c9627781-812f-46fa-991a-70cf19f2c3a4","ios":"levelo://app?vid=c9627781-812f-46fa-991a-70cf19f2c3a4"},"vehicle_type_id":"4","last_reported":1722186426,"current_range_meters":0,"station_id":"ce4bgup2rcd13ifvqcn0","pricing_plan_id":"cebpf4jnsgd1na2vs0mg"},{"bike_id":"4aaa3bef-b7fc-4cb8-961f-d3630f1db2c0","system_id":"levelo_inurba_marseille","lat":43.32483,"lon":5.36567,"is_reserved":false,"is_disabled":false,"rental_uris":{"android":"levelo://app?vid=4aaa3bef-b7fc-4cb8-961f-d3630f1db2c0","ios":"levelo://app?vid=4aaa3bef-b7fc-4cb8-961f-d3630f1db2c0"},"vehicle_type_id":"4","last_reported":1722186426,"current_range_meters":28400,"station_id":"ce4bhs12rcd13ifvqhvg","pricing_plan_id":"cebpf4jnsgd1na2vs0mg"},{"bike_id":"da535827-0883-4959-b125-135aab87750b","system_id":"levelo_inurba_marseille","lat":43.324771,"lon":5.36557,"is_reserved":false,"is_disabled":false,"rental_uris":{"android":"levelo://app?vid=da535827-0883-4959-b125-135aab87750b","ios":"levelo://app?vid=da535827-0883-4959-b125-135aab87750b"},"vehicle_type_id":"4","last_reported":1722186426,"current_range_meters":27600,"station_id":"ce4bhs12rcd13ifvqhvg","pricing_plan_id":"cebpf4jnsgd1na2vs0mg"},{"bike_id":"8add2df5-9e48-4842-a4c4-c9ad89537666","system_id":"levelo_inurba_marseille","lat":43.310804,"lon":5.38359,"is_reserved":false,"is_disabled":false,"rental_uris":{"android":"levelo://app?vid=8add2df5-9e48-4842-a4c4-c9ad89537666","ios":"levelo://app?vid=8add2df5-9e48-4842-a4c4-c9ad89537666"},"vehicle_type_id":"4","last_reported":1722186426,"current_range_meters":0,"station_id":"ce4bgv92rcd13ifvqcr0","pricing_plan_id":"cebpf4jnsgd1na2vs0mg"},{"bike_id":"ec0cc095-5647-42ec-afda-5944298da5bd","system_id":"levelo_inurba_marseille","lat":43.30143,"lon":5.37413,"is_reserved":false,"is_disabled":false,"rental_uris":{"android":"levelo://app?vid=ec0cc095-5647-42ec-afda-5944298da5bd","ios":"levelo://app?vid=ec0cc095-5647-42ec-afda-5944298da5bd"},"vehicle_type_id":"4","last_reported":1722186426,"current_range_meters":8400,"station_id":"ce4bgs92rcd13ifvqcc0","pricing_plan_id":"cebpf4jnsgd1na2vs0mg"},{"bike_id":"ea52af72-bd75-4519-8b58-f348805f0c29","system_id":"levelo_inurba_marseille","lat":43.301429,"lon":5.37413,"is_reserved":false,"is_disabled":false,"rental_uris":{"android":"levelo://app?vid=ea52af72-bd75-4519-8b58-f348805f0c29","ios":"levelo://app?vid=ea52af72-bd75-4519-8b58-f348805f0c29"},"vehicle_type_id":"4","last_reported":1722186426,"current_range_meters":24800,"station_id":"ce4bgs92rcd13ifvqcc0","pricing_plan_id":"cebpf4jnsgd1na2vs0mg"},{"bike_id":"64efb8ba-933f-47fc-b58f-b13d857f90b0","system_id":"levelo_inurba_marseille","lat":43.31606,"lon":5.38379,"is_reserved":false,"is_disabled":false,"rental_uris":{"android":"levelo://app?vid=64efb8ba-933f-47fc-b58f-b13d857f90b0","ios":"levelo://app?vid=64efb8ba-933f-47fc-b58f-b13d857f90b0"},"vehicle_type_id":"4","last_reported":1722186426,"current_range_meters":27600,"station_id":"","pricing_plan_id":"cebpf4jnsgd1na2vs0mg"},{"bike_id":"ba751eab-e386-4f42-b81e-204bfba1b413","system_id":"levelo_inurba_marseille","lat":43.319935,"lon":5.381699,"is_reserved":false,"is_disabled":false,"rental_uris":{"android":"levelo://app?vid=ba751eab-e386-4f42-b81e-204bfba1b413","ios":"levelo://app?vid=ba751eab-e386-4f42-b81e-204bfba1b413"},"vehicle_type_id":"4","last_reported":1722186426,"current_range_meters":24400,"station_id":"ce4bhr12rcd13ifvqhpg","pricing_plan_id":"cebpf4jnsgd1na2vs0mg"},{"bike_id":"4d6b4c40-7b62-48e5-8564-aedcc4292781","system_id":"levelo_inurba_marseille","lat":43.319935,"lon":5.381699,"is_reserved":false,"is_disabled":false,"rental_uris":{"android":"levelo://app?vid=4d6b4c40-7b62-48e5-8564-aedcc4292781","ios":"levelo://app?vid=4d6b4c40-7b62-48e5-8564-aedcc4292781"},"vehicle_type_id":"4","last_reported":1722186426,"current_range_meters":8000,"station_id":"ce4bhr12rcd13ifvqhpg","pricing_plan_id":"cebpf4jnsgd1na2vs0mg"},{"bike_id":"f73d42c2-6d9c-4913-89c7-97ceecc472ae","system_id":"levelo_inurba_marseille","lat":43.319935,"lon":5.381699,"is_reserved":false,"is_disabled":false,"rental_uris":{"android":"levelo://app?vid=f73d42c2-6d9c-4913-89c7-97ceecc472ae","ios":"levelo://app?vid=f73d42c2-6d9c-4913-89c7-97ceecc472ae"},"vehicle_type_id":"4","last_reported":1722186426,"current_range_meters":8400,"station_id":"ce4bhr12rcd13ifvqhpg","pricing_plan_id":"cebpf4jnsgd1na2vs0mg"},{"bike_id":"34d5f260-e33f-4b30-b4e5-1d675d64a8a0","system_id":"levelo_inurba_marseille","lat":43.319935,"lon":5.381699,"is_reserved":false,"is_disabled":false,"rental_uris":{"android":"levelo://app?vid=34d5f260-e33f-4b30-b4e5-1d675d64a8a0","ios":"levelo://app?vid=34d5f260-e33f-4b30-b4e5-1d675d64a8a0"},"vehicle_type_id":"4","last_reported":1722186426,"current_range_meters":16000,"station_id":"ce4bhr12rcd13ifvqhpg","pricing_plan_id":"cebpf4jnsgd1na2vs0mg"},{"bike_id":"19008cde-9a12-4135-abc5-dabb76ecd2c7","system_id":"levelo_inurba_marseille","lat":43.319935,"lon":5.381699,"is_reserved":false,"is_disabled":false,"rental_uris":{"android":"levelo://app?vid=19008cde-9a12-4135-abc5-dabb76ecd2c7","ios":"levelo://app?vid=19008cde-9a12-4135-abc5-dabb76ecd2c7"},"vehicle_type_id":"4","last_reported":1722186426,"current_range_meters":17600,"station_id":"ce4bhr12rcd13ifvqhpg","pricing_plan_id":"cebpf4jnsgd1na2vs0mg"},{"bike_id":"a1a2cd80-1d15-43ea-b7fa-90feed0839f8","system_id":"levelo_inurba_marseille","lat":43.313571,"lon":5.384829,"is_reserved":false,"is_disabled":false,"rental_uris":{"android":"levelo://app?vid=a1a2cd80-1d15-43ea-b7fa-90feed0839f8","ios":"levelo://app?vid=a1a2cd80-1d15-43ea-b7fa-90feed0839f8"},"vehicle_type_id":"4","last_reported":1722186426,"current_range_meters":30400,"station_id":"ce4bgt92rcd13ifvqcf0","pricing_plan_id":"cebpf4jnsgd1na2vs0mg"},{"bike_id":"2171ab7e-fb0b-4638-bd4d-d1933f4982d3","system_id":"levelo_inurba_marseille","lat":43.313571,"lon":5.384829,"is_reserved":false,"is_disabled":false,"rental_uris":{"android":"levelo://app?vid=2171ab7e-fb0b-4638-bd4d-d1933f4982d3","ios":"levelo://app?vid=2171ab7e-fb0b-4638-bd4d-d1933f4982d3"},"vehicle_type_id":"4","last_reported":1722186426,"current_range_meters":0,"station_id":"ce4bgt92rcd13ifvqcf0","pricing_plan_id":"cebpf4jnsgd1na2vs0mg"},{"bike_id":"b900571e-7a3e-4ee5-b10b-e13162b21dfc","system_id":"levelo_inurba_marseille","lat":43.313571,"lon":5.384829,"is_reserved":false,"is_disabled":false,"rental_uris":{"android":"levelo://app?vid=b900571e-7a3e-4ee5-b10b-e13162b21dfc","ios":"levelo://app?vid=b900571e-7a3e-4ee5-b10b-e13162b21dfc"},"vehicle_type_id":"4","last_reported":1722186426,"current_range_meters":10800,"station_id":"ce4bgt92rcd13ifvqcf0","pricing_plan_id":"cebpf4jnsgd1na2vs0mg"},{"bike_id":"7595351b-6aa3-41b8-aa5e-a1f9d61851e6","system_id":"levelo_inurba_marseille","lat":43.313571,"lon":5.384829,"is_reserved":false,"is_disabled":false,"rental_uris":{"android":"levelo://app?vid=7595351b-6aa3-41b8-aa5e-a1f9d61851e6","ios":"levelo://app?vid=7595351b-6aa3-41b8-aa5e-a1f9d61851e6"},"vehicle_type_id":"4","last_reported":1722186426,"current_range_meters":28000,"station_id":"ce4bgt92rcd13ifvqcf0","pricing_plan_id":"cebpf4jnsgd1na2vs0mg"},{"bike_id":"67a05b44-1b02-4bba-81fe-17dbe92868b5","system_id":"levelo_inurba_marseille","lat":43.30209,"lon":5.37962,"is_reserved":false,"is_disabled":false,"rental_uris":{"android":"levelo://app?vid=67a05b44-1b02-4bba-81fe-17dbe92868b5","ios":"levelo://app?vid=67a05b44-1b02-4bba-81fe-17dbe92868b5"},"vehicle_type_id":"4","last_reported":1722186426,"current_range_meters":20000,"station_id":"","pricing_plan_id":"cebpf4jnsgd1na2vs0mg"},{"bike_id":"75f73518-ea51-4780-8742-873a7f20b45e","system_id":"levelo_inurba_marseille","lat":43.298433,"lon":5.362774,"is_reserved":false,"is_disabled":false,"rental_uris":{"android":"levelo://app?vid=75f73518-ea51-4780-8742-873a7f20b45e","ios":"levelo://app?vid=75f73518-ea51-4780-8742-873a7f20b45e"},"vehicle_type_id":"4","last_reported":1722186426,"current_range_meters":13600,"station_id":"ce4bgpp2rcd13ifvqc3g","pricing_plan_id":"cebpf4jnsgd1na2vs0mg"},{"bike_id":"b1ac1a5a-3ae6-49dc-a3dc-1c63cbe5d180","system_id":"levelo_inurba_marseille","lat":43.298433,"lon":5.362774,"is_reserved":false,"is_disabled":false,"rental_uris":{"android":"levelo://app?vid=b1ac1a5a-3ae6-49dc-a3dc-1c63cbe5d180","ios":"levelo://app?vid=b1ac1a5a-3ae6-49dc-a3dc-1c63cbe5d180"},"vehicle_type_id":"4","last_reported":1722186426,"current_range_meters":31600,"station_id":"ce4bgpp2rcd13ifvqc3g","pricing_plan_id":"cebpf4jnsgd1na2vs0mg"},{"bike_id":"c1c94664-013e-476e-9a4b-592e3ec113c4","system_id":"levelo_inurba_marseille","lat":43.298433,"lon":5.362774,"is_reserved":false,"is_disabled":false,"rental_uris":{"android":"levelo://app?vid=c1c94664-013e-476e-9a4b-592e3ec113c4","ios":"levelo://app?vid=c1c94664-013e-476e-9a4b-592e3ec113c4"},"vehicle_type_id":"4","last_reported":1722186426,"current_range_meters":31600,"station_id":"ce4bgpp2rcd13ifvqc3g","pricing_plan_id":"cebpf4jnsgd1na2vs0mg"},{"bike_id":"40487929-b3bd-47d9-8936-14d89d6d8adb","system_id":"levelo_inurba_marseille","lat":43.29921,"lon":5.37471,"is_reserved":false,"is_disabled":false,"rental_uris":{"android":"levelo://app?vid=40487929-b3bd-47d9-8936-14d89d6d8adb","ios":"levelo://app?vid=40487929-b3bd-47d9-8936-14d89d6d8adb"},"vehicle_type_id":"4","last_reported":1722186426,"current_range_meters":0,"station_id":"ce4bgjh2rcd13ifvqbg0","pricing_plan_id":"cebpf4jnsgd1na2vs0mg"},{"bike_id":"7f993ece-fb1a-48dd-9b88-7b5ec883c637","system_id":"levelo_inurba_marseille","lat":43.299243,"lon":5.37481,"is_reserved":false,"is_disabled":false,"rental_uris":{"android":"levelo://app?vid=7f993ece-fb1a-48dd-9b88-7b5ec883c637","ios":"levelo://app?vid=7f993ece-fb1a-48dd-9b88-7b5ec883c637"},"vehicle_type_id":"4","last_reported":1722186426,"current_range_meters":18400,"station_id":"ce4bgjh2rcd13ifvqbg0","pricing_plan_id":"cebpf4jnsgd1na2vs0mg"},{"bike_id":"88f777ac-84a0-4d76-a8b8-203f40983596","system_id":"levelo_inurba_marseille","lat":43.299243,"lon":5.37481,"is_reserved":false,"is_disabled":false,"rental_uris":{"android":"levelo://app?vid=88f777ac-84a0-4d76-a8b8-203f40983596","ios":"levelo://app?vid=88f777ac-84a0-4d76-a8b8-203f40983596"},"vehicle_type_id":"4","last_reported":1722186426,"current_range_meters":17600,"station_id":"ce4bgjh2rcd13ifvqbg0","pricing_plan_id":"cebpf4jnsgd1na2vs0mg"},{"bike_id":"a4f99128-57a0-41f7-8ea4-a1590777d9b0","system_id":"levelo_inurba_marseille","lat":43.311688,"lon":5.387189,"is_reserved":false,"is_disabled":false,"rental_uris":{"android":"levelo://app?vid=a4f99128-57a0-41f7-8ea4-a1590777d9b0","ios":"levelo://app?vid=a4f99128-57a0-41f7-8ea4-a1590777d9b0"},"vehicle_type_id":"4","last_reported":1722186426,"current_range_meters":5200,"station_id":"","pricing_plan_id":"cebpf4jnsgd1na2vs0mg"},{"bike_id":"355f37ef-12ea-4f1b-b496-e2181b6fe184","system_id":"levelo_inurba_marseille","lat":43.311722,"lon":5.387247,"is_reserved":false,"is_disabled":false,"rental_uris":{"android":"levelo://app?vid=355f37ef-12ea-4f1b-b496-e2181b6fe184","ios":"levelo://app?vid=355f37ef-12ea-4f1b-b496-e2181b6fe184"},"vehicle_type_id":"4","last_reported":1722186426,"current_range_meters":19200,"station_id":"ce4bgv12rcd13ifvqcp0","pricing_plan_id":"cebpf4jnsgd1na2vs0mg"},{"bike_id":"097d3b13-203a-4945-8206-60f8a40c7818","system_id":"levelo_inurba_marseille","lat":43.290104,"lon":5.356111,"is_reserved":false,"is_disabled":false,"rental_uris":{"android":"levelo://app?vid=097d3b13-203a-4945-8206-60f8a40c7818","ios":"levelo://app?vid=097d3b13-203a-4945-8206-60f8a40c7818"},"vehicle_type_id":"4","last_reported":1722186426,"current_range_meters":21200,"station_id":"ce4bhb92rcd13ifvqen0","pricing_plan_id":"cebpf4jnsgd1na2vs0mg"},{"bike_id":"159637fe-bc24-4cf9-88b7-46c4bdf23e61","system_id":"levelo_inurba_marseille","lat":43.322872,"lon":5.382756,"is_reserved":false,"is_disabled":false,"rental_uris":{"android":"levelo://app?vid=159637fe-bc24-4cf9-88b7-46c4bdf23e61","ios":"levelo://app?vid=159637fe-bc24-4cf9-88b7-46c4bdf23e61"},"vehicle_type_id":"4","last_reported":1722186426,"current_range_meters":20000,"station_id":"ce4bhr12rcd13ifvqhqg","pricing_plan_id":"cebpf4jnsgd1na2vs0mg"},{"bike_id":"5aa48966-c231-4791-8578-e14a8abea024","system_id":"levelo_inurba_marseille","lat":43.322872,"lon":5.382756,"is_reserved":false,"is_disabled":false,"rental_uris":{"android":"levelo://app?vid=5aa48966-c231-4791-8578-e14a8abea024","ios":"levelo://app?vid=5aa48966-c231-4791-8578-e14a8abea024"},"vehicle_type_id":"4","last_reported":1722186426,"current_range_meters":26400,"station_id":"ce4bhr12rcd13ifvqhqg","pricing_plan_id":"cebpf4jnsgd1na2vs0mg"},{"bike_id":"22e41778-51bb-4239-91a8-cf2d50ed1db8","system_id":"levelo_inurba_marseille","lat":43.31887,"lon":5.3863,"is_reserved":false,"is_disabled":false,"rental_uris":{"android":"levelo://app?vid=22e41778-51bb-4239-91a8-cf2d50ed1db8","ios":"levelo://app?vid=22e41778-51bb-4239-91a8-cf2d50ed1db8"},"vehicle_type_id":"4","last_reported":1722186426,"current_range_meters":27200,"station_id":"","pricing_plan_id":"cebpf4jnsgd1na2vs0mg"},{"bike_id":"ab4411fc-11aa-4056-9e17-2e1f9669a672","system_id":"levelo_inurba_marseille","lat":43.29717,"lon":5.36612,"is_reserved":false,"is_disabled":false,"rental_uris":{"android":"levelo://app?vid=ab4411fc-11aa-4056-9e17-2e1f9669a672","ios":"levelo://app?vid=ab4411fc-11aa-4056-9e17-2e1f9669a672"},"vehicle_type_id":"4","last_reported":1722186426,"current_range_meters":0,"station_id":"ce4bgn12rcd13ifvqbt0","pricing_plan_id":"cebpf4jnsgd1na2vs0mg"},{"bike_id":"06b68907-4147-4b03-81b5-45de457ee2a0","system_id":"levelo_inurba_marseille","lat":43.297163,"lon":5.365866,"is_reserved":false,"is_disabled":false,"rental_uris":{"android":"levelo://app?vid=06b68907-4147-4b03-81b5-45de457ee2a0","ios":"levelo://app?vid=06b68907-4147-4b03-81b5-45de457ee2a0"},"vehicle_type_id":"4","last_reported":1722186426,"current_range_meters":31600,"station_id":"ce4bgn12rcd13ifvqbt0","pricing_plan_id":"cebpf4jnsgd1na2vs0mg"},{"bike_id":"25211b6c-1264-43df-a0c7-c10b6465f128","system_id":"levelo_inurba_marseille","lat":43.297163,"lon":5.365866,"is_reserved":false,"is_disabled":false,"rental_uris":{"android":"levelo://app?vid=25211b6c-1264-43df-a0c7-c10b6465f128","ios":"levelo://app?vid=25211b6c-1264-43df-a0c7-c10b6465f128"},"vehicle_type_id":"4","last_reported":1722186426,"current_range_meters":30800,"station_id":"ce4bgn12rcd13ifvqbt0","pricing_plan_id":"cebpf4jnsgd1na2vs0mg"},{"bike_id":"c4191e0f-272c-447d-bd51-fd59d0e8376f","system_id":"levelo_inurba_marseille","lat":43.297163,"lon":5.365866,"is_reserved":false,"is_disabled":false,"rental_uris":{"android":"levelo://app?vid=c4191e0f-272c-447d-bd51-fd59d0e8376f","ios":"levelo://app?vid=c4191e0f-272c-447d-bd51-fd59d0e8376f"},"vehicle_type_id":"4","last_reported":1722186426,"current_range_meters":31200,"station_id":"ce4bgn12rcd13ifvqbt0","pricing_plan_id":"cebpf4jnsgd1na2vs0mg"},{"bike_id":"77ebd6f7-0e15-4246-8feb-b1d720ac899a","system_id":"levelo_inurba_marseille","lat":43.30059,"lon":5.38222,"is_reserved":false,"is_disabled":false,"rental_uris":{"android":"levelo://app?vid=77ebd6f7-0e15-4246-8feb-b1d720ac899a","ios":"levelo://app?vid=77ebd6f7-0e15-4246-8feb-b1d720ac899a"},"vehicle_type_id":"4","last_reported":1722186426,"current_range_meters":14400,"station_id":"","pricing_plan_id":"cebpf4jnsgd1na2vs0mg"},{"bike_id":"370bfd89-d211-47f5-a317-6e57b1dc4170","system_id":"levelo_inurba_marseille","lat":43.29668,"lon":5.36171,"is_reserved":false,"is_disabled":false,"rental_uris":{"android":"levelo://app?vid=370bfd89-d211-47f5-a317-6e57b1dc4170","ios":"levelo://app?vid=370bfd89-d211-47f5-a317-6e57b1dc4170"},"vehicle_type_id":"4","last_reported":1722186426,"current_range_meters":5200,"station_id":"","pricing_plan_id":"cebpf4jnsgd1na2vs0mg"},{"bike_id":"0b3ea504-c6da-4c04-8787-031b5dc9308d","system_id":"levelo_inurba_marseille","lat":43.29573,"lon":5.367355,"is_reserved":false,"is_disabled":false,"rental_uris":{"android":"levelo://app?vid=0b3ea504-c6da-4c04-8787-031b5dc9308d","ios":"levelo://app?vid=0b3ea504-c6da-4c04-8787-031b5dc9308d"},"vehicle_type_id":"4","last_reported":1722186426,"current_range_meters":24400,"station_id":"ce4bgph2rcd13ifvqc2g","pricing_plan_id":"cebpf4jnsgd1na2vs0mg"},{"bike_id":"6de9ab5d-f309-481d-869f-a845f959a91d","system_id":"levelo_inurba_marseille","lat":43.29573,"lon":5.367355,"is_reserved":false,"is_disabled":false,"rental_uris":{"android":"levelo://app?vid=6de9ab5d-f309-481d-869f-a845f959a91d","ios":"levelo://app?vid=6de9ab5d-f309-481d-869f-a845f959a91d"},"vehicle_type_id":"4","last_reported":1722186426,"current_range_meters":31600,"station_id":"ce4bgph2rcd13ifvqc2g","pricing_plan_id":"cebpf4jnsgd1na2vs0mg"},{"bike_id":"bdd08f9c-16d8-4f6a-87b6-6da018b64724","system_id":"levelo_inurba_marseille","lat":43.29583,"lon":5.36745,"is_reserved":false,"is_disabled":false,"rental_uris":{"android":"levelo://app?vid=bdd08f9c-16d8-4f6a-87b6-6da018b64724","ios":"levelo://app?vid=bdd08f9c-16d8-4f6a-87b6-6da018b64724"},"vehicle_type_id":"4","last_reported":1722186426,"current_range_meters":31600,"station_id":"","pricing_plan_id":"cebpf4jnsgd1na2vs0mg"},{"bike_id":"3d14bc8e-4ba0-4ddb-8f5c-a14308655a2a","system_id":"levelo_inurba_marseille","lat":43.29579,"lon":5.36746,"is_reserved":false,"is_disabled":false,"rental_uris":{"android":"levelo://app?vid=3d14bc8e-4ba0-4ddb-8f5c-a14308655a2a","ios":"levelo://app?vid=3d14bc8e-4ba0-4ddb-8f5c-a14308655a2a"},"vehicle_type_id":"4","last_reported":1722186426,"current_range_meters":31600,"station_id":"ce4bgph2rcd13ifvqc2g","pricing_plan_id":"cebpf4jnsgd1na2vs0mg"},{"bike_id":"7a46cb3f-bfd9-4ab1-8d48-0ab6e238fcfa","system_id":"levelo_inurba_marseille","lat":43.29615,"lon":5.36131,"is_reserved":false,"is_disabled":false,"rental_uris":{"android":"levelo://app?vid=7a46cb3f-bfd9-4ab1-8d48-0ab6e238fcfa","ios":"levelo://app?vid=7a46cb3f-bfd9-4ab1-8d48-0ab6e238fcfa"},"vehicle_type_id":"4","last_reported":1722186426,"current_range_meters":26000,"station_id":"","pricing_plan_id":"cebpf4jnsgd1na2vs0mg"},{"bike_id":"ca96025e-e308-4152-bf77-f431a95d6edd","system_id":"levelo_inurba_marseille","lat":43.299028,"lon":5.381509,"is_reserved":false,"is_disabled":false,"rental_uris":{"android":"levelo://app?vid=ca96025e-e308-4152-bf77-f431a95d6edd","ios":"levelo://app?vid=ca96025e-e308-4152-bf77-f431a95d6edd"},"vehicle_type_id":"4","last_reported":1722186426,"current_range_meters":0,"station_id":"ce4bgj12rcd13ifvqbc0","pricing_plan_id":"cebpf4jnsgd1na2vs0mg"},{"bike_id":"a30e227e-0b6a-4737-9bd4-b39629c573c6","system_id":"levelo_inurba_marseille","lat":43.296921,"lon":5.376579,"is_reserved":false,"is_disabled":false,"rental_uris":{"android":"levelo://app?vid=a30e227e-0b6a-4737-9bd4-b39629c573c6","ios":"levelo://app?vid=a30e227e-0b6a-4737-9bd4-b39629c573c6"},"vehicle_type_id":"4","last_reported":1722186426,"current_range_meters":31200,"station_id":"ce4bgkh2rcd13ifvqbl0","pricing_plan_id":"cebpf4jnsgd1na2vs0mg"},{"bike_id":"adff2833-d5a9-4e4b-9e9c-38d5e32b03d6","system_id":"levelo_inurba_marseille","lat":43.299028,"lon":5.381509,"is_reserved":false,"is_disabled":false,"rental_uris":{"android":"levelo://app?vid=adff2833-d5a9-4e4b-9e9c-38d5e32b03d6","ios":"levelo://app?vid=adff2833-d5a9-4e4b-9e9c-38d5e32b03d6"},"vehicle_type_id":"4","last_reported":1722186426,"current_range_meters":24400,"station_id":"ce4bgj12rcd13ifvqbc0","pricing_plan_id":"cebpf4jnsgd1na2vs0mg"},{"bike_id":"bc504973-27f8-4086-aa04-f2792c5b0eb4","system_id":"levelo_inurba_marseille","lat":43.299028,"lon":5.381509,"is_reserved":false,"is_disabled":false,"rental_uris":{"android":"levelo://app?vid=bc504973-27f8-4086-aa04-f2792c5b0eb4","ios":"levelo://app?vid=bc504973-27f8-4086-aa04-f2792c5b0eb4"},"vehicle_type_id":"4","last_reported":1722186426,"current_range_meters":12800,"station_id":"ce4bgj12rcd13ifvqbc0","pricing_plan_id":"cebpf4jnsgd1na2vs0mg"},{"bike_id":"d5fb2583-8f35-49e6-b18d-d617d6e446ab","system_id":"levelo_inurba_marseille","lat":43.309589,"lon":5.390258,"is_reserved":false,"is_disabled":false,"rental_uris":{"android":"levelo://app?vid=d5fb2583-8f35-49e6-b18d-d617d6e446ab","ios":"levelo://app?vid=d5fb2583-8f35-49e6-b18d-d617d6e446ab"},"vehicle_type_id":"4","last_reported":1722186426,"current_range_meters":800,"station_id":"ce4bgup2rcd13ifvqco0","pricing_plan_id":"cebpf4jnsgd1na2vs0mg"},{"bike_id":"6515f95a-5f45-4135-912a-c2c4fb72819c","system_id":"levelo_inurba_marseille","lat":43.309589,"lon":5.390258,"is_reserved":false,"is_disabled":false,"rental_uris":{"android":"levelo://app?vid=6515f95a-5f45-4135-912a-c2c4fb72819c","ios":"levelo://app?vid=6515f95a-5f45-4135-912a-c2c4fb72819c"},"vehicle_type_id":"4","last_reported":1722186426,"current_range_meters":0,"station_id":"ce4bgup2rcd13ifvqco0","pricing_plan_id":"cebpf4jnsgd1na2vs0mg"},{"bike_id":"b2afd2d7-3038-4870-a4d1-2a90526f2dac","system_id":"levelo_inurba_marseille","lat":43.317557,"lon":5.390173,"is_reserved":false,"is_disabled":false,"rental_uris":{"android":"levelo://app?vid=b2afd2d7-3038-4870-a4d1-2a90526f2dac","ios":"levelo://app?vid=b2afd2d7-3038-4870-a4d1-2a90526f2dac"},"vehicle_type_id":"4","last_reported":1722186426,"current_range_meters":20400,"station_id":"ce4bhqp2rcd13ifvqhng","pricing_plan_id":"cebpf4jnsgd1na2vs0mg"},{"bike_id":"865fcc44-c144-4782-ad64-88f28333599e","system_id":"levelo_inurba_marseille","lat":43.317557,"lon":5.390173,"is_reserved":false,"is_disabled":false,"rental_uris":{"android":"levelo://app?vid=865fcc44-c144-4782-ad64-88f28333599e","ios":"levelo://app?vid=865fcc44-c144-4782-ad64-88f28333599e"},"vehicle_type_id":"4","last_reported":1722186426,"current_range_meters":28800,"station_id":"ce4bhqp2rcd13ifvqhng","pricing_plan_id":"cebpf4jnsgd1na2vs0mg"},{"bike_id":"78239700-18de-4937-849c-4777c9e522de","system_id":"levelo_inurba_marseille","lat":43.317557,"lon":5.390173,"is_reserved":false,"is_disabled":false,"rental_uris":{"android":"levelo://app?vid=78239700-18de-4937-849c-4777c9e522de","ios":"levelo://app?vid=78239700-18de-4937-849c-4777c9e522de"},"vehicle_type_id":"4","last_reported":1722186426,"current_range_meters":25600,"station_id":"ce4bhqp2rcd13ifvqhng","pricing_plan_id":"cebpf4jnsgd1na2vs0mg"},{"bike_id":"3e617814-e30a-4a49-90f8-2ef772153c32","system_id":"levelo_inurba_marseille","lat":43.298037,"lon":5.381066,"is_reserved":false,"is_disabled":false,"rental_uris":{"android":"levelo://app?vid=3e617814-e30a-4a49-90f8-2ef772153c32","ios":"levelo://app?vid=3e617814-e30a-4a49-90f8-2ef772153c32"},"vehicle_type_id":"4","last_reported":1722186426,"current_range_meters":16800,"station_id":"ce4bgip2rcd13ifvqbb0","pricing_plan_id":"cebpf4jnsgd1na2vs0mg"},{"bike_id":"0f8c03fc-b956-4c08-a96a-ac2c4896394c","system_id":"levelo_inurba_marseille","lat":43.2958,"lon":5.37509,"is_reserved":false,"is_disabled":false,"rental_uris":{"android":"levelo://app?vid=0f8c03fc-b956-4c08-a96a-ac2c4896394c","ios":"levelo://app?vid=0f8c03fc-b956-4c08-a96a-ac2c4896394c"},"vehicle_type_id":"4","last_reported":1722186426,"current_range_meters":18000,"station_id":"ce4bgh92rcd13ifvqb50","pricing_plan_id":"cebpf4jnsgd1na2vs0mg"},{"bike_id":"e8ee1af2-a465-4b95-8d2a-1165ecbf8673","system_id":"levelo_inurba_marseille","lat":43.297944,"lon":5.380934,"is_reserved":false,"is_disabled":false,"rental_uris":{"android":"levelo://app?vid=e8ee1af2-a465-4b95-8d2a-1165ecbf8673","ios":"levelo://app?vid=e8ee1af2-a465-4b95-8d2a-1165ecbf8673"},"vehicle_type_id":"4","last_reported":1722186426,"current_range_meters":0,"station_id":"ce4bgip2rcd13ifvqbb0","pricing_plan_id":"cebpf4jnsgd1na2vs0mg"},{"bike_id":"82ff6a97-a0c7-4621-ab84-91c7ac8b7059","system_id":"levelo_inurba_marseille","lat":43.295748,"lon":5.37522,"is_reserved":false,"is_disabled":false,"rental_uris":{"android":"levelo://app?vid=82ff6a97-a0c7-4621-ab84-91c7ac8b7059","ios":"levelo://app?vid=82ff6a97-a0c7-4621-ab84-91c7ac8b7059"},"vehicle_type_id":"4","last_reported":1722186426,"current_range_meters":2000,"station_id":"ce4bgh92rcd13ifvqb50","pricing_plan_id":"cebpf4jnsgd1na2vs0mg"},{"bike_id":"5a4c5e89-2a35-4017-8e8e-a45edd600d7a","system_id":"levelo_inurba_marseille","lat":43.2956,"lon":5.37504,"is_reserved":false,"is_disabled":false,"rental_uris":{"android":"levelo://app?vid=5a4c5e89-2a35-4017-8e8e-a45edd600d7a","ios":"levelo://app?vid=5a4c5e89-2a35-4017-8e8e-a45edd600d7a"},"vehicle_type_id":"4","last_reported":1722186426,"current_range_meters":0,"station_id":"ce4bgh92rcd13ifvqb50","pricing_plan_id":"cebpf4jnsgd1na2vs0mg"},{"bike_id":"817841b4-9fd1-4959-a721-6c51e2cdf1b2","system_id":"levelo_inurba_marseille","lat":43.29791,"lon":5.38129,"is_reserved":false,"is_disabled":false,"rental_uris":{"android":"levelo://app?vid=817841b4-9fd1-4959-a721-6c51e2cdf1b2","ios":"levelo://app?vid=817841b4-9fd1-4959-a721-6c51e2cdf1b2"},"vehicle_type_id":"4","last_reported":1722186426,"current_range_meters":0,"station_id":"ce4bgip2rcd13ifvqbb0","pricing_plan_id":"cebpf4jnsgd1na2vs0mg"},{"bike_id":"bf0cddfe-afaa-4da6-9425-cdd00f24eb2d","system_id":"levelo_inurba_marseille","lat":43.29992,"lon":5.38487,"is_reserved":false,"is_disabled":false,"rental_uris":{"android":"levelo://app?vid=bf0cddfe-afaa-4da6-9425-cdd00f24eb2d","ios":"levelo://app?vid=bf0cddfe-afaa-4da6-9425-cdd00f24eb2d"},"vehicle_type_id":"4","last_reported":1722186426,"current_range_meters":400,"station_id":"ce4bgj92rcd13ifvqbd0","pricing_plan_id":"cebpf4jnsgd1na2vs0mg"},{"bike_id":"310461b5-5f86-41f5-a698-2364264332b9","system_id":"levelo_inurba_marseille","lat":43.29988,"lon":5.38489,"is_reserved":false,"is_disabled":false,"rental_uris":{"android":"levelo://app?vid=310461b5-5f86-41f5-a698-2364264332b9","ios":"levelo://app?vid=310461b5-5f86-41f5-a698-2364264332b9"},"vehicle_type_id":"4","last_reported":1722186426,"current_range_meters":0,"station_id":"ce4bgj92rcd13ifvqbd0","pricing_plan_id":"cebpf4jnsgd1na2vs0mg"},{"bike_id":"b2806405-0400-44cd-a501-b9e4e9fe1124","system_id":"levelo_inurba_marseille","lat":43.295279,"lon":5.375048,"is_reserved":false,"is_disabled":false,"rental_uris":{"android":"levelo://app?vid=b2806405-0400-44cd-a501-b9e4e9fe1124","ios":"levelo://app?vid=b2806405-0400-44cd-a501-b9e4e9fe1124"},"vehicle_type_id":"4","last_reported":1722186426,"current_range_meters":0,"station_id":"ce4bgkp2rcd13ifvqbmg","pricing_plan_id":"cebpf4jnsgd1na2vs0mg"},{"bike_id":"ffddf3af-e267-4e89-808a-8f4aedcda0a1","system_id":"levelo_inurba_marseille","lat":43.29975,"lon":5.38486,"is_reserved":false,"is_disabled":false,"rental_uris":{"android":"levelo://app?vid=ffddf3af-e267-4e89-808a-8f4aedcda0a1","ios":"levelo://app?vid=ffddf3af-e267-4e89-808a-8f4aedcda0a1"},"vehicle_type_id":"4","last_reported":1722186426,"current_range_meters":0,"station_id":"ce4bgj92rcd13ifvqbd0","pricing_plan_id":"cebpf4jnsgd1na2vs0mg"},{"bike_id":"61f3168e-87b2-4b47-908c-db8e7a9a91ff","system_id":"levelo_inurba_marseille","lat":43.303833,"lon":5.389143,"is_reserved":false,"is_disabled":false,"rental_uris":{"android":"levelo://app?vid=61f3168e-87b2-4b47-908c-db8e7a9a91ff","ios":"levelo://app?vid=61f3168e-87b2-4b47-908c-db8e7a9a91ff"},"vehicle_type_id":"4","last_reported":1722186426,"current_range_meters":13600,"station_id":"ce4bgk12rcd13ifvqbi0","pricing_plan_id":"cebpf4jnsgd1na2vs0mg"},{"bike_id":"a9b69bce-99b6-40a4-995d-e0b02f83ff37","system_id":"levelo_inurba_marseille","lat":43.29972,"lon":5.38492,"is_reserved":false,"is_disabled":false,"rental_uris":{"android":"levelo://app?vid=a9b69bce-99b6-40a4-995d-e0b02f83ff37","ios":"levelo://app?vid=a9b69bce-99b6-40a4-995d-e0b02f83ff37"},"vehicle_type_id":"4","last_reported":1722186426,"current_range_meters":6400,"station_id":"ce4bgj92rcd13ifvqbd0","pricing_plan_id":"cebpf4jnsgd1na2vs0mg"},{"bike_id":"92ab4eb8-b059-4e57-94b9-439740f240b8","system_id":"levelo_inurba_marseille","lat":43.29968,"lon":5.38498,"is_reserved":false,"is_disabled":false,"rental_uris":{"android":"levelo://app?vid=92ab4eb8-b059-4e57-94b9-439740f240b8","ios":"levelo://app?vid=92ab4eb8-b059-4e57-94b9-439740f240b8"},"vehicle_type_id":"4","last_reported":1722186426,"current_range_meters":9600,"station_id":"ce4bgj92rcd13ifvqbd0","pricing_plan_id":"cebpf4jnsgd1na2vs0mg"},{"bike_id":"46a602dc-ba7d-47c5-9ace-2f6546d8cdff","system_id":"levelo_inurba_marseille","lat":43.299724,"lon":5.384848,"is_reserved":false,"is_disabled":false,"rental_uris":{"android":"levelo://app?vid=46a602dc-ba7d-47c5-9ace-2f6546d8cdff","ios":"levelo://app?vid=46a602dc-ba7d-47c5-9ace-2f6546d8cdff"},"vehicle_type_id":"4","last_reported":1722186426,"current_range_meters":29200,"station_id":"ce4bgj92rcd13ifvqbd0","pricing_plan_id":"cebpf4jnsgd1na2vs0mg"},{"bike_id":"423766c5-a260-4840-97a9-08b7ea7d1ca1","system_id":"levelo_inurba_marseille","lat":43.29497,"lon":5.37529,"is_reserved":false,"is_disabled":false,"rental_uris":{"android":"levelo://app?vid=423766c5-a260-4840-97a9-08b7ea7d1ca1","ios":"levelo://app?vid=423766c5-a260-4840-97a9-08b7ea7d1ca1"},"vehicle_type_id":"4","last_reported":1722186426,"current_range_meters":0,"station_id":"ce4bgkp2rcd13ifvqbmg","pricing_plan_id":"cebpf4jnsgd1na2vs0mg"},{"bike_id":"7b3f765e-0107-47dd-9c6a-f6453cf46522","system_id":"levelo_inurba_marseille","lat":43.32367,"lon":5.388836,"is_reserved":false,"is_disabled":false,"rental_uris":{"android":"levelo://app?vid=7b3f765e-0107-47dd-9c6a-f6453cf46522","ios":"levelo://app?vid=7b3f765e-0107-47dd-9c6a-f6453cf46522"},"vehicle_type_id":"4","last_reported":1722186426,"current_range_meters":19200,"station_id":"ce4bhqp2rcd13ifvqhog","pricing_plan_id":"cebpf4jnsgd1na2vs0mg"},{"bike_id":"b4d10148-523b-40ce-b2ee-f52a20f2e72e","system_id":"levelo_inurba_marseille","lat":43.32367,"lon":5.388836,"is_reserved":false,"is_disabled":false,"rental_uris":{"android":"levelo://app?vid=b4d10148-523b-40ce-b2ee-f52a20f2e72e","ios":"levelo://app?vid=b4d10148-523b-40ce-b2ee-f52a20f2e72e"},"vehicle_type_id":"4","last_reported":1722186426,"current_range_meters":21600,"station_id":"ce4bhqp2rcd13ifvqhog","pricing_plan_id":"cebpf4jnsgd1na2vs0mg"},{"bike_id":"6a60a62a-575f-4518-830c-e8e47c8b46dd","system_id":"levelo_inurba_marseille","lat":43.32367,"lon":5.388836,"is_reserved":false,"is_disabled":false,"rental_uris":{"android":"levelo://app?vid=6a60a62a-575f-4518-830c-e8e47c8b46dd","ios":"levelo://app?vid=6a60a62a-575f-4518-830c-e8e47c8b46dd"},"vehicle_type_id":"4","last_reported":1722186426,"current_range_meters":0,"station_id":"ce4bhqp2rcd13ifvqhog","pricing_plan_id":"cebpf4jnsgd1na2vs0mg"},{"bike_id":"c15b24c4-b77e-49a6-bf53-30269e940a61","system_id":"levelo_inurba_marseille","lat":43.32367,"lon":5.388836,"is_reserved":false,"is_disabled":false,"rental_uris":{"android":"levelo://app?vid=c15b24c4-b77e-49a6-bf53-30269e940a61","ios":"levelo://app?vid=c15b24c4-b77e-49a6-bf53-30269e940a61"},"vehicle_type_id":"4","last_reported":1722186426,"current_range_meters":8400,"station_id":"ce4bhqp2rcd13ifvqhog","pricing_plan_id":"cebpf4jnsgd1na2vs0mg"},{"bike_id":"fff9ce80-e3a6-4300-a750-f133cdb858c3","system_id":"levelo_inurba_marseille","lat":43.29351,"lon":5.37132,"is_reserved":false,"is_disabled":false,"rental_uris":{"android":"levelo://app?vid=fff9ce80-e3a6-4300-a750-f133cdb858c3","ios":"levelo://app?vid=fff9ce80-e3a6-4300-a750-f133cdb858c3"},"vehicle_type_id":"4","last_reported":1722186426,"current_range_meters":10000,"station_id":"","pricing_plan_id":"cebpf4jnsgd1na2vs0mg"},{"bike_id":"5e32b679-8d6c-4fcd-ac8f-f58fa303e6a2","system_id":"levelo_inurba_marseille","lat":43.29602,"lon":5.381084,"is_reserved":false,"is_disabled":false,"rental_uris":{"android":"levelo://app?vid=5e32b679-8d6c-4fcd-ac8f-f58fa303e6a2","ios":"levelo://app?vid=5e32b679-8d6c-4fcd-ac8f-f58fa303e6a2"},"vehicle_type_id":"4","last_reported":1722186426,"current_range_meters":8800,"station_id":"ce4bgl12rcd13ifvqbo0","pricing_plan_id":"cebpf4jnsgd1na2vs0mg"},{"bike_id":"dc010fb8-71ff-4ab0-bfac-39b1e8673e5a","system_id":"levelo_inurba_marseille","lat":43.29606,"lon":5.38111,"is_reserved":false,"is_disabled":false,"rental_uris":{"android":"levelo://app?vid=dc010fb8-71ff-4ab0-bfac-39b1e8673e5a","ios":"levelo://app?vid=dc010fb8-71ff-4ab0-bfac-39b1e8673e5a"},"vehicle_type_id":"4","last_reported":1722186426,"current_range_meters":12000,"station_id":"ce4bgl12rcd13ifvqbo0","pricing_plan_id":"cebpf4jnsgd1na2vs0mg"},{"bike_id":"02c280ae-3985-4f31-81e3-a44bf7941dbb","system_id":"levelo_inurba_marseille","lat":43.29604,"lon":5.3811,"is_reserved":false,"is_disabled":false,"rental_uris":{"android":"levelo://app?vid=02c280ae-3985-4f31-81e3-a44bf7941dbb","ios":"levelo://app?vid=02c280ae-3985-4f31-81e3-a44bf7941dbb"},"vehicle_type_id":"4","last_reported":1722186426,"current_range_meters":800,"station_id":"ce4bgl12rcd13ifvqbo0","pricing_plan_id":"cebpf4jnsgd1na2vs0mg"},{"bike_id":"689281a6-766e-4e43-8a38-efb7f1131332","system_id":"levelo_inurba_marseille","lat":43.29311,"lon":5.37169,"is_reserved":false,"is_disabled":false,"rental_uris":{"android":"levelo://app?vid=689281a6-766e-4e43-8a38-efb7f1131332","ios":"levelo://app?vid=689281a6-766e-4e43-8a38-efb7f1131332"},"vehicle_type_id":"4","last_reported":1722186426,"current_range_meters":0,"station_id":"ce4bgh92rcd13ifvqb40","pricing_plan_id":"cebpf4jnsgd1na2vs0mg"},{"bike_id":"fddc35d9-796a-4ead-be40-fe4eece2096c","system_id":"levelo_inurba_marseille","lat":43.292749,"lon":5.368402,"is_reserved":false,"is_disabled":false,"rental_uris":{"android":"levelo://app?vid=fddc35d9-796a-4ead-be40-fe4eece2096c","ios":"levelo://app?vid=fddc35d9-796a-4ead-be40-fe4eece2096c"},"vehicle_type_id":"4","last_reported":1722186426,"current_range_meters":23200,"station_id":"ce4bhbp2rcd13ifvqesg","pricing_plan_id":"cebpf4jnsgd1na2vs0mg"},{"bike_id":"27596235-6e19-429f-a9ba-664ba2c9210d","system_id":"levelo_inurba_marseille","lat":43.293259,"lon":5.371586,"is_reserved":false,"is_disabled":false,"rental_uris":{"android":"levelo://app?vid=27596235-6e19-429f-a9ba-664ba2c9210d","ios":"levelo://app?vid=27596235-6e19-429f-a9ba-664ba2c9210d"},"vehicle_type_id":"4","last_reported":1722186426,"current_range_meters":12400,"station_id":"ce4bgh92rcd13ifvqb40","pricing_plan_id":"cebpf4jnsgd1na2vs0mg"},{"bike_id":"1dcf8a72-5404-40eb-9ccf-32e09d0fae8f","system_id":"levelo_inurba_marseille","lat":43.29305,"lon":5.37169,"is_reserved":false,"is_disabled":false,"rental_uris":{"android":"levelo://app?vid=1dcf8a72-5404-40eb-9ccf-32e09d0fae8f","ios":"levelo://app?vid=1dcf8a72-5404-40eb-9ccf-32e09d0fae8f"},"vehicle_type_id":"4","last_reported":1722186426,"current_range_meters":800,"station_id":"ce4bgh92rcd13ifvqb40","pricing_plan_id":"cebpf4jnsgd1na2vs0mg"},{"bike_id":"6e54285f-2004-4f7f-806e-7e4656ec59e8","system_id":"levelo_inurba_marseille","lat":43.293259,"lon":5.371586,"is_reserved":false,"is_disabled":false,"rental_uris":{"android":"levelo://app?vid=6e54285f-2004-4f7f-806e-7e4656ec59e8","ios":"levelo://app?vid=6e54285f-2004-4f7f-806e-7e4656ec59e8"},"vehicle_type_id":"4","last_reported":1722186426,"current_range_meters":11600,"station_id":"ce4bgh92rcd13ifvqb40","pricing_plan_id":"cebpf4jnsgd1na2vs0mg"},{"bike_id":"342f0699-f9e6-476d-b789-90fea19795c7","system_id":"levelo_inurba_marseille","lat":43.293009,"lon":5.374584,"is_reserved":false,"is_disabled":false,"rental_uris":{"android":"levelo://app?vid=342f0699-f9e6-476d-b789-90fea19795c7","ios":"levelo://app?vid=342f0699-f9e6-476d-b789-90fea19795c7"},"vehicle_type_id":"4","last_reported":1722186426,"current_range_meters":0,"station_id":"ce4bgi12rcd13ifvqb70","pricing_plan_id":"cebpf4jnsgd1na2vs0mg"},{"bike_id":"008f56f6-cd09-466b-87bc-656c78970ae2","system_id":"levelo_inurba_marseille","lat":43.303085,"lon":5.392055,"is_reserved":false,"is_disabled":false,"rental_uris":{"android":"levelo://app?vid=008f56f6-cd09-466b-87bc-656c78970ae2","ios":"levelo://app?vid=008f56f6-cd09-466b-87bc-656c78970ae2"},"vehicle_type_id":"4","last_reported":1722186426,"current_range_meters":0,"station_id":"ce4bgkh2rcd13ifvqbk0","pricing_plan_id":"cebpf4jnsgd1na2vs0mg"},{"bike_id":"6e2708ec-4dd5-43e2-901a-a1d5982f6d53","system_id":"levelo_inurba_marseille","lat":43.29226,"lon":5.36264,"is_reserved":false,"is_disabled":false,"rental_uris":{"android":"levelo://app?vid=6e2708ec-4dd5-43e2-901a-a1d5982f6d53","ios":"levelo://app?vid=6e2708ec-4dd5-43e2-901a-a1d5982f6d53"},"vehicle_type_id":"4","last_reported":1722186426,"current_range_meters":0,"station_id":"","pricing_plan_id":"cebpf4jnsgd1na2vs0mg"},{"bike_id":"cdd2cb00-12f7-481b-90db-bbb44725a201","system_id":"levelo_inurba_marseille","lat":43.29236,"lon":5.36045,"is_reserved":false,"is_disabled":false,"rental_uris":{"android":"levelo://app?vid=cdd2cb00-12f7-481b-90db-bbb44725a201","ios":"levelo://app?vid=cdd2cb00-12f7-481b-90db-bbb44725a201"},"vehicle_type_id":"4","last_reported":1722186426,"current_range_meters":22800,"station_id":"ce4bhbh2rcd13ifvqeqg","pricing_plan_id":"cebpf4jnsgd1na2vs0mg"},{"bike_id":"607e8e14-e0a1-4d23-aea0-73eba79697f8","system_id":"levelo_inurba_marseille","lat":43.292311,"lon":5.360731,"is_reserved":false,"is_disabled":false,"rental_uris":{"android":"levelo://app?vid=607e8e14-e0a1-4d23-aea0-73eba79697f8","ios":"levelo://app?vid=607e8e14-e0a1-4d23-aea0-73eba79697f8"},"vehicle_type_id":"4","last_reported":1722186426,"current_range_meters":14800,"station_id":"ce4bhbh2rcd13ifvqeqg","pricing_plan_id":"cebpf4jnsgd1na2vs0mg"},{"bike_id":"53176aff-7768-45a2-865f-962f4f35c9cb","system_id":"levelo_inurba_marseille","lat":43.292311,"lon":5.360731,"is_reserved":false,"is_disabled":false,"rental_uris":{"android":"levelo://app?vid=53176aff-7768-45a2-865f-962f4f35c9cb","ios":"levelo://app?vid=53176aff-7768-45a2-865f-962f4f35c9cb"},"vehicle_type_id":"4","last_reported":1722186426,"current_range_meters":2000,"station_id":"ce4bhbh2rcd13ifvqeqg","pricing_plan_id":"cebpf4jnsgd1na2vs0mg"},{"bike_id":"a5196313-73ba-4e6c-87a5-ca42198c21fa","system_id":"levelo_inurba_marseille","lat":43.292234,"lon":5.360528,"is_reserved":false,"is_disabled":false,"rental_uris":{"android":"levelo://app?vid=a5196313-73ba-4e6c-87a5-ca42198c21fa","ios":"levelo://app?vid=a5196313-73ba-4e6c-87a5-ca42198c21fa"},"vehicle_type_id":"4","last_reported":1722186426,"current_range_meters":0,"station_id":"ce4bhbh2rcd13ifvqeqg","pricing_plan_id":"cebpf4jnsgd1na2vs0mg"},{"bike_id":"62f3f407-337a-4266-8b93-0c6bc32949a0","system_id":"levelo_inurba_marseille","lat":43.30085,"lon":5.390856,"is_reserved":false,"is_disabled":false,"rental_uris":{"android":"levelo://app?vid=62f3f407-337a-4266-8b93-0c6bc32949a0","ios":"levelo://app?vid=62f3f407-337a-4266-8b93-0c6bc32949a0"},"vehicle_type_id":"4","last_reported":1722186426,"current_range_meters":0,"station_id":"ce4bh192rcd13ifvqdb0","pricing_plan_id":"cebpf4jnsgd1na2vs0mg"},{"bike_id":"b3583a94-eabc-4dce-aba8-91f081c42350","system_id":"levelo_inurba_marseille","lat":43.298764,"lon":5.388973,"is_reserved":false,"is_disabled":false,"rental_uris":{"android":"levelo://app?vid=b3583a94-eabc-4dce-aba8-91f081c42350","ios":"levelo://app?vid=b3583a94-eabc-4dce-aba8-91f081c42350"},"vehicle_type_id":"4","last_reported":1722186426,"current_range_meters":5600,"station_id":"ce4bh392rcd13ifvqdl0","pricing_plan_id":"cebpf4jnsgd1na2vs0mg"},{"bike_id":"3d2d51aa-bcdb-451c-a6c0-e3f30877e925","system_id":"levelo_inurba_marseille","lat":43.291675,"lon":5.371583,"is_reserved":false,"is_disabled":false,"rental_uris":{"android":"levelo://app?vid=3d2d51aa-bcdb-451c-a6c0-e3f30877e925","ios":"levelo://app?vid=3d2d51aa-bcdb-451c-a6c0-e3f30877e925"},"vehicle_type_id":"4","last_reported":1722186426,"current_range_meters":11200,"station_id":"ce4bha92rcd13ifvqeh0","pricing_plan_id":"cebpf4jnsgd1na2vs0mg"},{"bike_id":"3c0594b2-1382-47fc-877a-106fe977340a","system_id":"levelo_inurba_marseille","lat":43.291675,"lon":5.371583,"is_reserved":false,"is_disabled":false,"rental_uris":{"android":"levelo://app?vid=3c0594b2-1382-47fc-877a-106fe977340a","ios":"levelo://app?vid=3c0594b2-1382-47fc-877a-106fe977340a"},"vehicle_type_id":"4","last_reported":1722186426,"current_range_meters":12800,"station_id":"ce4bha92rcd13ifvqeh0","pricing_plan_id":"cebpf4jnsgd1na2vs0mg"},{"bike_id":"fca35108-f95a-47c2-99f5-4473805e3ca6","system_id":"levelo_inurba_marseille","lat":43.291675,"lon":5.371583,"is_reserved":false,"is_disabled":false,"rental_uris":{"android":"levelo://app?vid=fca35108-f95a-47c2-99f5-4473805e3ca6","ios":"levelo://app?vid=fca35108-f95a-47c2-99f5-4473805e3ca6"},"vehicle_type_id":"4","last_reported":1722186426,"current_range_meters":0,"station_id":"ce4bha92rcd13ifvqeh0","pricing_plan_id":"cebpf4jnsgd1na2vs0mg"},{"bike_id":"e81e9610-1e5a-4941-9347-8a985aeb8c77","system_id":"levelo_inurba_marseille","lat":43.298764,"lon":5.388973,"is_reserved":false,"is_disabled":false,"rental_uris":{"android":"levelo://app?vid=e81e9610-1e5a-4941-9347-8a985aeb8c77","ios":"levelo://app?vid=e81e9610-1e5a-4941-9347-8a985aeb8c77"},"vehicle_type_id":"4","last_reported":1722186426,"current_range_meters":0,"station_id":"ce4bh392rcd13ifvqdl0","pricing_plan_id":"cebpf4jnsgd1na2vs0mg"},{"bike_id":"68b39355-020f-478f-b604-97af105ac807","system_id":"levelo_inurba_marseille","lat":43.291671,"lon":5.371575,"is_reserved":false,"is_disabled":false,"rental_uris":{"android":"levelo://app?vid=68b39355-020f-478f-b604-97af105ac807","ios":"levelo://app?vid=68b39355-020f-478f-b604-97af105ac807"},"vehicle_type_id":"4","last_reported":1722186426,"current_range_meters":13600,"station_id":"ce4bha92rcd13ifvqeh0","pricing_plan_id":"cebpf4jnsgd1na2vs0mg"},{"bike_id":"b27a82ad-a505-4b11-a89a-ee05cc727eaa","system_id":"levelo_inurba_marseille","lat":43.313278,"lon":5.396754,"is_reserved":false,"is_disabled":false,"rental_uris":{"android":"levelo://app?vid=b27a82ad-a505-4b11-a89a-ee05cc727eaa","ios":"levelo://app?vid=b27a82ad-a505-4b11-a89a-ee05cc727eaa"},"vehicle_type_id":"4","last_reported":1722186426,"current_range_meters":0,"station_id":"ce4bgvp2rcd13ifvqcu0","pricing_plan_id":"cebpf4jnsgd1na2vs0mg"},{"bike_id":"616fbde7-9909-4ce6-96b7-54b878471a9a","system_id":"levelo_inurba_marseille","lat":43.291994,"lon":5.357886,"is_reserved":false,"is_disabled":false,"rental_uris":{"android":"levelo://app?vid=616fbde7-9909-4ce6-96b7-54b878471a9a","ios":"levelo://app?vid=616fbde7-9909-4ce6-96b7-54b878471a9a"},"vehicle_type_id":"4","last_reported":1722186426,"current_range_meters":0,"station_id":"ce4bhb12rcd13ifvqel0","pricing_plan_id":"cebpf4jnsgd1na2vs0mg"},{"bike_id":"2bb5b82e-5b8e-46d9-9ffa-f41f745af4f7","system_id":"levelo_inurba_marseille","lat":43.292005,"lon":5.357875,"is_reserved":false,"is_disabled":false,"rental_uris":{"android":"levelo://app?vid=2bb5b82e-5b8e-46d9-9ffa-f41f745af4f7","ios":"levelo://app?vid=2bb5b82e-5b8e-46d9-9ffa-f41f745af4f7"},"vehicle_type_id":"4","last_reported":1722186426,"current_range_meters":27600,"station_id":"ce4bhb12rcd13ifvqel0","pricing_plan_id":"cebpf4jnsgd1na2vs0mg"},{"bike_id":"41ec5463-8b1a-4d2d-99fb-72d3cf66f746","system_id":"levelo_inurba_marseille","lat":43.313291,"lon":5.396838,"is_reserved":false,"is_disabled":false,"rental_uris":{"android":"levelo://app?vid=41ec5463-8b1a-4d2d-99fb-72d3cf66f746","ios":"levelo://app?vid=41ec5463-8b1a-4d2d-99fb-72d3cf66f746"},"vehicle_type_id":"4","last_reported":1722186426,"current_range_meters":0,"station_id":"ce4bgvp2rcd13ifvqcu0","pricing_plan_id":"cebpf4jnsgd1na2vs0mg"},{"bike_id":"dcf53570-fc67-4ff9-b7a7-a224d749bf77","system_id":"levelo_inurba_marseille","lat":43.29188,"lon":5.35799,"is_reserved":false,"is_disabled":false,"rental_uris":{"android":"levelo://app?vid=dcf53570-fc67-4ff9-b7a7-a224d749bf77","ios":"levelo://app?vid=dcf53570-fc67-4ff9-b7a7-a224d749bf77"},"vehicle_type_id":"4","last_reported":1722186426,"current_range_meters":26800,"station_id":"ce4bhb12rcd13ifvqel0","pricing_plan_id":"cebpf4jnsgd1na2vs0mg"},{"bike_id":"0300985f-0b9d-4865-90a6-d5b2a2b0ef10","system_id":"levelo_inurba_marseille","lat":43.290779,"lon":5.371482,"is_reserved":false,"is_disabled":false,"rental_uris":{"android":"levelo://app?vid=0300985f-0b9d-4865-90a6-d5b2a2b0ef10","ios":"levelo://app?vid=0300985f-0b9d-4865-90a6-d5b2a2b0ef10"},"vehicle_type_id":"4","last_reported":1722186426,"current_range_meters":31600,"station_id":"ce4bh5p2rcd13ifvqe4g","pricing_plan_id":"cebpf4jnsgd1na2vs0mg"},{"bike_id":"2d521f15-bdd2-43ca-a8b9-ea3aa8ea64c8","system_id":"levelo_inurba_marseille","lat":43.289184,"lon":5.366408,"is_reserved":false,"is_disabled":false,"rental_uris":{"android":"levelo://app?vid=2d521f15-bdd2-43ca-a8b9-ea3aa8ea64c8","ios":"levelo://app?vid=2d521f15-bdd2-43ca-a8b9-ea3aa8ea64c8"},"vehicle_type_id":"4","last_reported":1722186426,"current_range_meters":10800,"station_id":"ce4bhap2rcd13ifvqek0","pricing_plan_id":"cebpf4jnsgd1na2vs0mg"},{"bike_id":"3c3cba4f-5a5e-495a-98a4-6dc0ce514715","system_id":"levelo_inurba_marseille","lat":43.289184,"lon":5.366408,"is_reserved":false,"is_disabled":false,"rental_uris":{"android":"levelo://app?vid=3c3cba4f-5a5e-495a-98a4-6dc0ce514715","ios":"levelo://app?vid=3c3cba4f-5a5e-495a-98a4-6dc0ce514715"},"vehicle_type_id":"4","last_reported":1722186426,"current_range_meters":0,"station_id":"ce4bhap2rcd13ifvqek0","pricing_plan_id":"cebpf4jnsgd1na2vs0mg"},{"bike_id":"1f9bd3db-3d60-43f7-94a8-e3c6b2a5bbda","system_id":"levelo_inurba_marseille","lat":43.292644,"lon":5.384257,"is_reserved":false,"is_disabled":false,"rental_uris":{"android":"levelo://app?vid=1f9bd3db-3d60-43f7-94a8-e3c6b2a5bbda","ios":"levelo://app?vid=1f9bd3db-3d60-43f7-94a8-e3c6b2a5bbda"},"vehicle_type_id":"4","last_reported":1722186426,"current_range_meters":0,"station_id":"ce4bh692rcd13ifvqea0","pricing_plan_id":"cebpf4jnsgd1na2vs0mg"},{"bike_id":"7eca2e31-2bf6-4630-a325-c60a7d898207","system_id":"levelo_inurba_marseille","lat":43.29268,"lon":5.38441,"is_reserved":false,"is_disabled":false,"rental_uris":{"android":"levelo://app?vid=7eca2e31-2bf6-4630-a325-c60a7d898207","ios":"levelo://app?vid=7eca2e31-2bf6-4630-a325-c60a7d898207"},"vehicle_type_id":"4","last_reported":1722186426,"current_range_meters":800,"station_id":"ce4bh692rcd13ifvqea0","pricing_plan_id":"cebpf4jnsgd1na2vs0mg"},{"bike_id":"e15c66bf-5dc8-46e9-a499-7857cbc8f536","system_id":"levelo_inurba_marseille","lat":43.29265,"lon":5.38439,"is_reserved":false,"is_disabled":false,"rental_uris":{"android":"levelo://app?vid=e15c66bf-5dc8-46e9-a499-7857cbc8f536","ios":"levelo://app?vid=e15c66bf-5dc8-46e9-a499-7857cbc8f536"},"vehicle_type_id":"4","last_reported":1722186426,"current_range_meters":0,"station_id":"ce4bh692rcd13ifvqea0","pricing_plan_id":"cebpf4jnsgd1na2vs0mg"},{"bike_id":"94f09a39-a5d5-48f8-8872-145690cb4e66","system_id":"levelo_inurba_marseille","lat":43.292644,"lon":5.384257,"is_reserved":false,"is_disabled":false,"rental_uris":{"android":"levelo://app?vid=94f09a39-a5d5-48f8-8872-145690cb4e66","ios":"levelo://app?vid=94f09a39-a5d5-48f8-8872-145690cb4e66"},"vehicle_type_id":"4","last_reported":1722186426,"current_range_meters":21200,"station_id":"ce4bh692rcd13ifvqea0","pricing_plan_id":"cebpf4jnsgd1na2vs0mg"},{"bike_id":"ea6e59bd-c191-401d-b22e-410fc9a06fce","system_id":"levelo_inurba_marseille","lat":43.292642,"lon":5.384254,"is_reserved":false,"is_disabled":false,"rental_uris":{"android":"levelo://app?vid=ea6e59bd-c191-401d-b22e-410fc9a06fce","ios":"levelo://app?vid=ea6e59bd-c191-401d-b22e-410fc9a06fce"},"vehicle_type_id":"4","last_reported":1722186426,"current_range_meters":4800,"station_id":"ce4bh692rcd13ifvqea0","pricing_plan_id":"cebpf4jnsgd1na2vs0mg"},{"bike_id":"bc5db632-5aec-44db-9588-fc71613a96a3","system_id":"levelo_inurba_marseille","lat":43.29255,"lon":5.38449,"is_reserved":false,"is_disabled":false,"rental_uris":{"android":"levelo://app?vid=bc5db632-5aec-44db-9588-fc71613a96a3","ios":"levelo://app?vid=bc5db632-5aec-44db-9588-fc71613a96a3"},"vehicle_type_id":"4","last_reported":1722186426,"current_range_meters":30800,"station_id":"ce4bh692rcd13ifvqea0","pricing_plan_id":"cebpf4jnsgd1na2vs0mg"},{"bike_id":"382170ab-1d4a-4793-81bb-d1c31dc4c493","system_id":"levelo_inurba_marseille","lat":43.290104,"lon":5.356111,"is_reserved":false,"is_disabled":false,"rental_uris":{"android":"levelo://app?vid=382170ab-1d4a-4793-81bb-d1c31dc4c493","ios":"levelo://app?vid=382170ab-1d4a-4793-81bb-d1c31dc4c493"},"vehicle_type_id":"4","last_reported":1722186426,"current_range_meters":9200,"station_id":"ce4bhb92rcd13ifvqen0","pricing_plan_id":"cebpf4jnsgd1na2vs0mg"},{"bike_id":"a61096bd-81bc-4a25-beb4-d88e488bd109","system_id":"levelo_inurba_marseille","lat":43.290103,"lon":5.356114,"is_reserved":false,"is_disabled":false,"rental_uris":{"android":"levelo://app?vid=a61096bd-81bc-4a25-beb4-d88e488bd109","ios":"levelo://app?vid=a61096bd-81bc-4a25-beb4-d88e488bd109"},"vehicle_type_id":"4","last_reported":1722186426,"current_range_meters":28400,"station_id":"ce4bhb92rcd13ifvqen0","pricing_plan_id":"cebpf4jnsgd1na2vs0mg"},{"bike_id":"7d2e66d9-e7bb-4c60-ada0-2af7db6e2ad3","system_id":"levelo_inurba_marseille","lat":43.292644,"lon":5.384257,"is_reserved":false,"is_disabled":false,"rental_uris":{"android":"levelo://app?vid=7d2e66d9-e7bb-4c60-ada0-2af7db6e2ad3","ios":"levelo://app?vid=7d2e66d9-e7bb-4c60-ada0-2af7db6e2ad3"},"vehicle_type_id":"4","last_reported":1722186426,"current_range_meters":16400,"station_id":"ce4bh692rcd13ifvqea0","pricing_plan_id":"cebpf4jnsgd1na2vs0mg"},{"bike_id":"fd6a8008-f201-45ba-9360-dc6f29e07482","system_id":"levelo_inurba_marseille","lat":43.29005,"lon":5.35617,"is_reserved":false,"is_disabled":false,"rental_uris":{"android":"levelo://app?vid=fd6a8008-f201-45ba-9360-dc6f29e07482","ios":"levelo://app?vid=fd6a8008-f201-45ba-9360-dc6f29e07482"},"vehicle_type_id":"4","last_reported":1722186426,"current_range_meters":31200,"station_id":"ce4bhb92rcd13ifvqen0","pricing_plan_id":"cebpf4jnsgd1na2vs0mg"},{"bike_id":"a3914d58-fe06-4136-a680-1148873fab8f","system_id":"levelo_inurba_marseille","lat":43.29005,"lon":5.35615,"is_reserved":false,"is_disabled":false,"rental_uris":{"android":"levelo://app?vid=a3914d58-fe06-4136-a680-1148873fab8f","ios":"levelo://app?vid=a3914d58-fe06-4136-a680-1148873fab8f"},"vehicle_type_id":"4","last_reported":1722186426,"current_range_meters":11600,"station_id":"ce4bhb92rcd13ifvqen0","pricing_plan_id":"cebpf4jnsgd1na2vs0mg"},{"bike_id":"9ba3f60a-a7bc-4bef-811e-7b3c946dbadf","system_id":"levelo_inurba_marseille","lat":43.29005,"lon":5.35612,"is_reserved":false,"is_disabled":false,"rental_uris":{"android":"levelo://app?vid=9ba3f60a-a7bc-4bef-811e-7b3c946dbadf","ios":"levelo://app?vid=9ba3f60a-a7bc-4bef-811e-7b3c946dbadf"},"vehicle_type_id":"4","last_reported":1722186426,"current_range_meters":0,"station_id":"ce4bhb92rcd13ifvqen0","pricing_plan_id":"cebpf4jnsgd1na2vs0mg"},{"bike_id":"4c5a02c1-9bd8-46a5-bfbd-05693e6d76b1","system_id":"levelo_inurba_marseille","lat":43.290104,"lon":5.356111,"is_reserved":false,"is_disabled":false,"rental_uris":{"android":"levelo://app?vid=4c5a02c1-9bd8-46a5-bfbd-05693e6d76b1","ios":"levelo://app?vid=4c5a02c1-9bd8-46a5-bfbd-05693e6d76b1"},"vehicle_type_id":"4","last_reported":1722186426,"current_range_meters":31600,"station_id":"ce4bhb92rcd13ifvqen0","pricing_plan_id":"cebpf4jnsgd1na2vs0mg"},{"bike_id":"b295bae0-edc7-4c95-a67c-325effda7a19","system_id":"levelo_inurba_marseille","lat":43.29015,"lon":5.35511,"is_reserved":false,"is_disabled":false,"rental_uris":{"android":"levelo://app?vid=b295bae0-edc7-4c95-a67c-325effda7a19","ios":"levelo://app?vid=b295bae0-edc7-4c95-a67c-325effda7a19"},"vehicle_type_id":"4","last_reported":1722186426,"current_range_meters":2800,"station_id":"","pricing_plan_id":"cebpf4jnsgd1na2vs0mg"},{"bike_id":"96ca8405-4da2-4b25-9a13-5e96c6552c1a","system_id":"levelo_inurba_marseille","lat":43.288562,"lon":5.36533,"is_reserved":false,"is_disabled":false,"rental_uris":{"android":"levelo://app?vid=96ca8405-4da2-4b25-9a13-5e96c6552c1a","ios":"levelo://app?vid=96ca8405-4da2-4b25-9a13-5e96c6552c1a"},"vehicle_type_id":"4","last_reported":1722186426,"current_range_meters":6400,"station_id":"","pricing_plan_id":"cebpf4jnsgd1na2vs0mg"},{"bike_id":"86564582-9bc6-4a71-8ac5-3e41421d401c","system_id":"levelo_inurba_marseille","lat":43.290995,"lon":5.381361,"is_reserved":false,"is_disabled":false,"rental_uris":{"android":"levelo://app?vid=86564582-9bc6-4a71-8ac5-3e41421d401c","ios":"levelo://app?vid=86564582-9bc6-4a71-8ac5-3e41421d401c"},"vehicle_type_id":"4","last_reported":1722186426,"current_range_meters":20000,"station_id":"ce4bh512rcd13ifvqe2g","pricing_plan_id":"cebpf4jnsgd1na2vs0mg"},{"bike_id":"17b3555f-e94a-4f2c-814e-4e287732512b","system_id":"levelo_inurba_marseille","lat":43.33025,"lon":5.39038,"is_reserved":false,"is_disabled":false,"rental_uris":{"android":"levelo://app?vid=17b3555f-e94a-4f2c-814e-4e287732512b","ios":"levelo://app?vid=17b3555f-e94a-4f2c-814e-4e287732512b"},"vehicle_type_id":"4","last_reported":1722186426,"current_range_meters":0,"station_id":"ce4bhr92rcd13ifvqhrg","pricing_plan_id":"cebpf4jnsgd1na2vs0mg"},{"bike_id":"c21f88fe-8e01-4a0d-b831-7ae73251ec33","system_id":"levelo_inurba_marseille","lat":43.330442,"lon":5.389148,"is_reserved":false,"is_disabled":false,"rental_uris":{"android":"levelo://app?vid=c21f88fe-8e01-4a0d-b831-7ae73251ec33","ios":"levelo://app?vid=c21f88fe-8e01-4a0d-b831-7ae73251ec33"},"vehicle_type_id":"4","last_reported":1722186426,"current_range_meters":31600,"station_id":"ce4bhr92rcd13ifvqhrg","pricing_plan_id":"cebpf4jnsgd1na2vs0mg"},{"bike_id":"a0439e65-fd09-4e16-96a4-850f9e3fa4d8","system_id":"levelo_inurba_marseille","lat":43.3303,"lon":5.39043,"is_reserved":false,"is_disabled":false,"rental_uris":{"android":"levelo://app?vid=a0439e65-fd09-4e16-96a4-850f9e3fa4d8","ios":"levelo://app?vid=a0439e65-fd09-4e16-96a4-850f9e3fa4d8"},"vehicle_type_id":"4","last_reported":1722186426,"current_range_meters":2400,"station_id":"ce4bhr92rcd13ifvqhrg","pricing_plan_id":"cebpf4jnsgd1na2vs0mg"},{"bike_id":"afc8cf29-a005-4e80-abb0-1370cb090d53","system_id":"levelo_inurba_marseille","lat":43.330442,"lon":5.389148,"is_reserved":false,"is_disabled":false,"rental_uris":{"android":"levelo://app?vid=afc8cf29-a005-4e80-abb0-1370cb090d53","ios":"levelo://app?vid=afc8cf29-a005-4e80-abb0-1370cb090d53"},"vehicle_type_id":"4","last_reported":1722186426,"current_range_meters":800,"station_id":"ce4bhr92rcd13ifvqhrg","pricing_plan_id":"cebpf4jnsgd1na2vs0mg"},{"bike_id":"1c8db988-e561-4513-bce9-036af2706b2b","system_id":"levelo_inurba_marseille","lat":43.2901,"lon":5.381269,"is_reserved":false,"is_disabled":false,"rental_uris":{"android":"levelo://app?vid=1c8db988-e561-4513-bce9-036af2706b2b","ios":"levelo://app?vid=1c8db988-e561-4513-bce9-036af2706b2b"},"vehicle_type_id":"4","last_reported":1722186426,"current_range_meters":7600,"station_id":"ce4bh4p2rcd13ifvqe1g","pricing_plan_id":"cebpf4jnsgd1na2vs0mg"},{"bike_id":"8b5b2e6e-9637-4d40-b329-790e7380b893","system_id":"levelo_inurba_marseille","lat":43.2901,"lon":5.381269,"is_reserved":false,"is_disabled":false,"rental_uris":{"android":"levelo://app?vid=8b5b2e6e-9637-4d40-b329-790e7380b893","ios":"levelo://app?vid=8b5b2e6e-9637-4d40-b329-790e7380b893"},"vehicle_type_id":"4","last_reported":1722186426,"current_range_meters":0,"station_id":"ce4bh4p2rcd13ifvqe1g","pricing_plan_id":"cebpf4jnsgd1na2vs0mg"},{"bike_id":"dbb11dcb-9eb6-4f8f-a1bc-6ecc5ec54f2c","system_id":"levelo_inurba_marseille","lat":43.2901,"lon":5.381269,"is_reserved":false,"is_disabled":false,"rental_uris":{"android":"levelo://app?vid=dbb11dcb-9eb6-4f8f-a1bc-6ecc5ec54f2c","ios":"levelo://app?vid=dbb11dcb-9eb6-4f8f-a1bc-6ecc5ec54f2c"},"vehicle_type_id":"4","last_reported":1722186426,"current_range_meters":11600,"station_id":"ce4bh4p2rcd13ifvqe1g","pricing_plan_id":"cebpf4jnsgd1na2vs0mg"},{"bike_id":"737c7969-6f58-4391-97c3-f23cd2c2840b","system_id":"levelo_inurba_marseille","lat":43.2901,"lon":5.381269,"is_reserved":false,"is_disabled":false,"rental_uris":{"android":"levelo://app?vid=737c7969-6f58-4391-97c3-f23cd2c2840b","ios":"levelo://app?vid=737c7969-6f58-4391-97c3-f23cd2c2840b"},"vehicle_type_id":"4","last_reported":1722186426,"current_range_meters":0,"station_id":"ce4bh4p2rcd13ifvqe1g","pricing_plan_id":"cebpf4jnsgd1na2vs0mg"},{"bike_id":"90a14470-381a-467d-9c09-f5f2bd0b940b","system_id":"levelo_inurba_marseille","lat":43.3068,"lon":5.40015,"is_reserved":false,"is_disabled":false,"rental_uris":{"android":"levelo://app?vid=90a14470-381a-467d-9c09-f5f2bd0b940b","ios":"levelo://app?vid=90a14470-381a-467d-9c09-f5f2bd0b940b"},"vehicle_type_id":"4","last_reported":1722186426,"current_range_meters":0,"station_id":"","pricing_plan_id":"cebpf4jnsgd1na2vs0mg"},{"bike_id":"3eee8afa-bec6-4765-a628-d3251599294c","system_id":"levelo_inurba_marseille","lat":43.260219,"lon":5.37546,"is_reserved":false,"is_disabled":false,"rental_uris":{"android":"levelo://app?vid=3eee8afa-bec6-4765-a628-d3251599294c","ios":"levelo://app?vid=3eee8afa-bec6-4765-a628-d3251599294c"},"vehicle_type_id":"4","last_reported":1722186426,"current_range_meters":11200,"station_id":"ce4bhgh2rcd13ifvqfa0","pricing_plan_id":"cebpf4jnsgd1na2vs0mg"},{"bike_id":"6ff48f3c-927a-470d-a08e-7714539082f0","system_id":"levelo_inurba_marseille","lat":43.33737,"lon":5.37466,"is_reserved":false,"is_disabled":false,"rental_uris":{"android":"levelo://app?vid=6ff48f3c-927a-470d-a08e-7714539082f0","ios":"levelo://app?vid=6ff48f3c-927a-470d-a08e-7714539082f0"},"vehicle_type_id":"4","last_reported":1722186426,"current_range_meters":0,"station_id":"","pricing_plan_id":"cebpf4jnsgd1na2vs0mg"},{"bike_id":"3e79250c-7764-488c-b465-61fd16d31170","system_id":"levelo_inurba_marseille","lat":43.33736,"lon":5.37477,"is_reserved":false,"is_disabled":false,"rental_uris":{"android":"levelo://app?vid=3e79250c-7764-488c-b465-61fd16d31170","ios":"levelo://app?vid=3e79250c-7764-488c-b465-61fd16d31170"},"vehicle_type_id":"4","last_reported":1722186426,"current_range_meters":24800,"station_id":"","pricing_plan_id":"cebpf4jnsgd1na2vs0mg"},{"bike_id":"e60f7bce-beca-4911-988b-0dc554a6f68e","system_id":"levelo_inurba_marseille","lat":43.312609,"lon":5.401662,"is_reserved":false,"is_disabled":false,"rental_uris":{"android":"levelo://app?vid=e60f7bce-beca-4911-988b-0dc554a6f68e","ios":"levelo://app?vid=e60f7bce-beca-4911-988b-0dc554a6f68e"},"vehicle_type_id":"4","last_reported":1722186426,"current_range_meters":24400,"station_id":"ce4bh092rcd13ifvqd30","pricing_plan_id":"cebpf4jnsgd1na2vs0mg"},{"bike_id":"e92bf1d5-b1ca-44cd-9b31-a0496082825d","system_id":"levelo_inurba_marseille","lat":43.33733,"lon":5.37507,"is_reserved":false,"is_disabled":false,"rental_uris":{"android":"levelo://app?vid=e92bf1d5-b1ca-44cd-9b31-a0496082825d","ios":"levelo://app?vid=e92bf1d5-b1ca-44cd-9b31-a0496082825d"},"vehicle_type_id":"4","last_reported":1722186426,"current_range_meters":24800,"station_id":"","pricing_plan_id":"cebpf4jnsgd1na2vs0mg"},{"bike_id":"20a7bf81-31fd-4cb5-b454-68d5314a31b8","system_id":"levelo_inurba_marseille","lat":43.337396,"lon":5.374693,"is_reserved":false,"is_disabled":false,"rental_uris":{"android":"levelo://app?vid=20a7bf81-31fd-4cb5-b454-68d5314a31b8","ios":"levelo://app?vid=20a7bf81-31fd-4cb5-b454-68d5314a31b8"},"vehicle_type_id":"4","last_reported":1722186426,"current_range_meters":26400,"station_id":"","pricing_plan_id":"cebpf4jnsgd1na2vs0mg"},{"bike_id":"f8e8dd66-c7d6-4bd0-91ac-ef4274ae24f3","system_id":"levelo_inurba_marseille","lat":43.337401,"lon":5.374668,"is_reserved":false,"is_disabled":false,"rental_uris":{"android":"levelo://app?vid=f8e8dd66-c7d6-4bd0-91ac-ef4274ae24f3","ios":"levelo://app?vid=f8e8dd66-c7d6-4bd0-91ac-ef4274ae24f3"},"vehicle_type_id":"4","last_reported":1722186426,"current_range_meters":15200,"station_id":"","pricing_plan_id":"cebpf4jnsgd1na2vs0mg"},{"bike_id":"28ff567c-281c-4a43-913e-e1206badf942","system_id":"levelo_inurba_marseille","lat":43.337408,"lon":5.374729,"is_reserved":false,"is_disabled":false,"rental_uris":{"android":"levelo://app?vid=28ff567c-281c-4a43-913e-e1206badf942","ios":"levelo://app?vid=28ff567c-281c-4a43-913e-e1206badf942"},"vehicle_type_id":"4","last_reported":1722186426,"current_range_meters":18000,"station_id":"","pricing_plan_id":"cebpf4jnsgd1na2vs0mg"},{"bike_id":"0aa226e6-2195-431b-bdc4-34bf44420451","system_id":"levelo_inurba_marseille","lat":43.337467,"lon":5.374397,"is_reserved":false,"is_disabled":false,"rental_uris":{"android":"levelo://app?vid=0aa226e6-2195-431b-bdc4-34bf44420451","ios":"levelo://app?vid=0aa226e6-2195-431b-bdc4-34bf44420451"},"vehicle_type_id":"4","last_reported":1722186426,"current_range_meters":22800,"station_id":"","pricing_plan_id":"cebpf4jnsgd1na2vs0mg"},{"bike_id":"3f6f5449-7556-4e5a-8f11-22a350fce75e","system_id":"levelo_inurba_marseille","lat":43.309341,"lon":5.401419,"is_reserved":false,"is_disabled":false,"rental_uris":{"android":"levelo://app?vid=3f6f5449-7556-4e5a-8f11-22a350fce75e","ios":"levelo://app?vid=3f6f5449-7556-4e5a-8f11-22a350fce75e"},"vehicle_type_id":"4","last_reported":1722186426,"current_range_meters":0,"station_id":"","pricing_plan_id":"cebpf4jnsgd1na2vs0mg"},{"bike_id":"c09c5123-6b5d-4c88-8449-215c5f6863eb","system_id":"levelo_inurba_marseille","lat":43.309371,"lon":5.401449,"is_reserved":false,"is_disabled":false,"rental_uris":{"android":"levelo://app?vid=c09c5123-6b5d-4c88-8449-215c5f6863eb","ios":"levelo://app?vid=c09c5123-6b5d-4c88-8449-215c5f6863eb"},"vehicle_type_id":"4","last_reported":1722186426,"current_range_meters":9200,"station_id":"ce4bgvp2rcd13ifvqct0","pricing_plan_id":"cebpf4jnsgd1na2vs0mg"},{"bike_id":"f0338c4f-2f14-449f-abf8-25e44f36ca55","system_id":"levelo_inurba_marseille","lat":43.337503,"lon":5.374507,"is_reserved":false,"is_disabled":false,"rental_uris":{"android":"levelo://app?vid=f0338c4f-2f14-449f-abf8-25e44f36ca55","ios":"levelo://app?vid=f0338c4f-2f14-449f-abf8-25e44f36ca55"},"vehicle_type_id":"4","last_reported":1722186426,"current_range_meters":25200,"station_id":"","pricing_plan_id":"cebpf4jnsgd1na2vs0mg"},{"bike_id":"6cf0c176-f7c0-4e29-a014-f3a3b29e1d2a","system_id":"levelo_inurba_marseille","lat":43.337531,"lon":5.374408,"is_reserved":false,"is_disabled":false,"rental_uris":{"android":"levelo://app?vid=6cf0c176-f7c0-4e29-a014-f3a3b29e1d2a","ios":"levelo://app?vid=6cf0c176-f7c0-4e29-a014-f3a3b29e1d2a"},"vehicle_type_id":"4","last_reported":1722186426,"current_range_meters":23600,"station_id":"","pricing_plan_id":"cebpf4jnsgd1na2vs0mg"},{"bike_id":"ce2a281f-6b17-464e-8289-d463ea4cfa07","system_id":"levelo_inurba_marseille","lat":43.337553,"lon":5.374554,"is_reserved":false,"is_disabled":false,"rental_uris":{"android":"levelo://app?vid=ce2a281f-6b17-464e-8289-d463ea4cfa07","ios":"levelo://app?vid=ce2a281f-6b17-464e-8289-d463ea4cfa07"},"vehicle_type_id":"4","last_reported":1722186426,"current_range_meters":25600,"station_id":"","pricing_plan_id":"cebpf4jnsgd1na2vs0mg"},{"bike_id":"6ad19ec0-3960-4c72-9628-937c88e7bf41","system_id":"levelo_inurba_marseille","lat":43.306412,"lon":5.401035,"is_reserved":false,"is_disabled":false,"rental_uris":{"android":"levelo://app?vid=6ad19ec0-3960-4c72-9628-937c88e7bf41","ios":"levelo://app?vid=6ad19ec0-3960-4c72-9628-937c88e7bf41"},"vehicle_type_id":"4","last_reported":1722186426,"current_range_meters":0,"station_id":"ce4bh112rcd13ifvqda0","pricing_plan_id":"cebpf4jnsgd1na2vs0mg"},{"bike_id":"361e946b-62ce-4d3d-8053-b80b11f938f9","system_id":"levelo_inurba_marseille","lat":43.306412,"lon":5.401035,"is_reserved":false,"is_disabled":false,"rental_uris":{"android":"levelo://app?vid=361e946b-62ce-4d3d-8053-b80b11f938f9","ios":"levelo://app?vid=361e946b-62ce-4d3d-8053-b80b11f938f9"},"vehicle_type_id":"4","last_reported":1722186426,"current_range_meters":16400,"station_id":"ce4bh112rcd13ifvqda0","pricing_plan_id":"cebpf4jnsgd1na2vs0mg"},{"bike_id":"e3ef8c7c-6692-4037-b7b7-c5c1b1a5f98e","system_id":"levelo_inurba_marseille","lat":43.301117,"lon":5.398795,"is_reserved":false,"is_disabled":false,"rental_uris":{"android":"levelo://app?vid=e3ef8c7c-6692-4037-b7b7-c5c1b1a5f98e","ios":"levelo://app?vid=e3ef8c7c-6692-4037-b7b7-c5c1b1a5f98e"},"vehicle_type_id":"4","last_reported":1722186426,"current_range_meters":29200,"station_id":"ce4bh0h2rcd13ifvqd40","pricing_plan_id":"cebpf4jnsgd1na2vs0mg"},{"bike_id":"53d0b860-fb7e-4141-a48f-63d6b070caa8","system_id":"levelo_inurba_marseille","lat":43.30133,"lon":5.39865,"is_reserved":false,"is_disabled":false,"rental_uris":{"android":"levelo://app?vid=53d0b860-fb7e-4141-a48f-63d6b070caa8","ios":"levelo://app?vid=53d0b860-fb7e-4141-a48f-63d6b070caa8"},"vehicle_type_id":"4","last_reported":1722186426,"current_range_meters":9600,"station_id":"ce4bh0h2rcd13ifvqd40","pricing_plan_id":"cebpf4jnsgd1na2vs0mg"},{"bike_id":"46466b7a-a2ea-4dbb-815e-8732cb59dd16","system_id":"levelo_inurba_marseille","lat":43.28727,"lon":5.36078,"is_reserved":false,"is_disabled":false,"rental_uris":{"android":"levelo://app?vid=46466b7a-a2ea-4dbb-815e-8732cb59dd16","ios":"levelo://app?vid=46466b7a-a2ea-4dbb-815e-8732cb59dd16"},"vehicle_type_id":"4","last_reported":1722186426,"current_range_meters":29600,"station_id":"cki0cbj6b192h4jlfktg","pricing_plan_id":"cebpf4jnsgd1na2vs0mg"},{"bike_id":"7d923782-04a0-4426-bd56-2c212d97b664","system_id":"levelo_inurba_marseille","lat":43.286961,"lon":5.373785,"is_reserved":false,"is_disabled":false,"rental_uris":{"android":"levelo://app?vid=7d923782-04a0-4426-bd56-2c212d97b664","ios":"levelo://app?vid=7d923782-04a0-4426-bd56-2c212d97b664"},"vehicle_type_id":"4","last_reported":1722186426,"current_range_meters":0,"station_id":"ce4bh3p2rcd13ifvqdq0","pricing_plan_id":"cebpf4jnsgd1na2vs0mg"},{"bike_id":"1f174632-7235-4dbf-9dbf-4cbcaf005015","system_id":"levelo_inurba_marseille","lat":43.286961,"lon":5.373785,"is_reserved":false,"is_disabled":false,"rental_uris":{"android":"levelo://app?vid=1f174632-7235-4dbf-9dbf-4cbcaf005015","ios":"levelo://app?vid=1f174632-7235-4dbf-9dbf-4cbcaf005015"},"vehicle_type_id":"4","last_reported":1722186426,"current_range_meters":20000,"station_id":"ce4bh3p2rcd13ifvqdq0","pricing_plan_id":"cebpf4jnsgd1na2vs0mg"},{"bike_id":"96827327-48c7-42ac-87e6-d2827b4b5e65","system_id":"levelo_inurba_marseille","lat":43.286961,"lon":5.373785,"is_reserved":false,"is_disabled":false,"rental_uris":{"android":"levelo://app?vid=96827327-48c7-42ac-87e6-d2827b4b5e65","ios":"levelo://app?vid=96827327-48c7-42ac-87e6-d2827b4b5e65"},"vehicle_type_id":"4","last_reported":1722186426,"current_range_meters":31200,"station_id":"ce4bh3p2rcd13ifvqdq0","pricing_plan_id":"cebpf4jnsgd1na2vs0mg"},{"bike_id":"c359364b-ca80-420d-8a08-956ee084e655","system_id":"levelo_inurba_marseille","lat":43.286934,"lon":5.373896,"is_reserved":false,"is_disabled":false,"rental_uris":{"android":"levelo://app?vid=c359364b-ca80-420d-8a08-956ee084e655","ios":"levelo://app?vid=c359364b-ca80-420d-8a08-956ee084e655"},"vehicle_type_id":"4","last_reported":1722186426,"current_range_meters":30000,"station_id":"ce4bh3p2rcd13ifvqdq0","pricing_plan_id":"cebpf4jnsgd1na2vs0mg"},{"bike_id":"ced0e430-00be-425b-8008-aa47276d2834","system_id":"levelo_inurba_marseille","lat":43.28694,"lon":5.37394,"is_reserved":false,"is_disabled":false,"rental_uris":{"android":"levelo://app?vid=ced0e430-00be-425b-8008-aa47276d2834","ios":"levelo://app?vid=ced0e430-00be-425b-8008-aa47276d2834"},"vehicle_type_id":"4","last_reported":1722186426,"current_range_meters":0,"station_id":"ce4bh3p2rcd13ifvqdq0","pricing_plan_id":"cebpf4jnsgd1na2vs0mg"},{"bike_id":"3aef42f3-ed92-4ece-bac2-5f982aac3f07","system_id":"levelo_inurba_marseille","lat":43.289307,"lon":5.38406,"is_reserved":false,"is_disabled":false,"rental_uris":{"android":"levelo://app?vid=3aef42f3-ed92-4ece-bac2-5f982aac3f07","ios":"levelo://app?vid=3aef42f3-ed92-4ece-bac2-5f982aac3f07"},"vehicle_type_id":"4","last_reported":1722186426,"current_range_meters":6000,"station_id":"ce4bh612rcd13ifvqe6g","pricing_plan_id":"cebpf4jnsgd1na2vs0mg"},{"bike_id":"9d79bb01-8d6e-4458-844b-fec3440e6701","system_id":"levelo_inurba_marseille","lat":43.289307,"lon":5.38406,"is_reserved":false,"is_disabled":false,"rental_uris":{"android":"levelo://app?vid=9d79bb01-8d6e-4458-844b-fec3440e6701","ios":"levelo://app?vid=9d79bb01-8d6e-4458-844b-fec3440e6701"},"vehicle_type_id":"4","last_reported":1722186426,"current_range_meters":9200,"station_id":"ce4bh612rcd13ifvqe6g","pricing_plan_id":"cebpf4jnsgd1na2vs0mg"},{"bike_id":"59783f35-7bfa-4524-ad4b-4cc61f5c412f","system_id":"levelo_inurba_marseille","lat":43.289307,"lon":5.38406,"is_reserved":false,"is_disabled":false,"rental_uris":{"android":"levelo://app?vid=59783f35-7bfa-4524-ad4b-4cc61f5c412f","ios":"levelo://app?vid=59783f35-7bfa-4524-ad4b-4cc61f5c412f"},"vehicle_type_id":"4","last_reported":1722186426,"current_range_meters":25200,"station_id":"ce4bh612rcd13ifvqe6g","pricing_plan_id":"cebpf4jnsgd1na2vs0mg"},{"bike_id":"132c3c90-306e-4cba-81c0-7696752b4924","system_id":"levelo_inurba_marseille","lat":43.290336,"lon":5.386425,"is_reserved":false,"is_disabled":false,"rental_uris":{"android":"levelo://app?vid=132c3c90-306e-4cba-81c0-7696752b4924","ios":"levelo://app?vid=132c3c90-306e-4cba-81c0-7696752b4924"},"vehicle_type_id":"4","last_reported":1722186426,"current_range_meters":1200,"station_id":"ce4bh4p2rcd13ifvqe0g","pricing_plan_id":"cebpf4jnsgd1na2vs0mg"},{"bike_id":"19474193-8020-4ba6-bbb5-3336c2d0c6c6","system_id":"levelo_inurba_marseille","lat":43.302759,"lon":5.400793,"is_reserved":false,"is_disabled":false,"rental_uris":{"android":"levelo://app?vid=19474193-8020-4ba6-bbb5-3336c2d0c6c6","ios":"levelo://app?vid=19474193-8020-4ba6-bbb5-3336c2d0c6c6"},"vehicle_type_id":"4","last_reported":1722186426,"current_range_meters":6000,"station_id":"ce4bgvh2rcd13ifvqcs0","pricing_plan_id":"cebpf4jnsgd1na2vs0mg"},{"bike_id":"8bf0d549-9d75-4070-ad2f-c1f435601ea0","system_id":"levelo_inurba_marseille","lat":43.29027,"lon":5.38637,"is_reserved":false,"is_disabled":false,"rental_uris":{"android":"levelo://app?vid=8bf0d549-9d75-4070-ad2f-c1f435601ea0","ios":"levelo://app?vid=8bf0d549-9d75-4070-ad2f-c1f435601ea0"},"vehicle_type_id":"4","last_reported":1722186426,"current_range_meters":0,"station_id":"ce4bh4p2rcd13ifvqe0g","pricing_plan_id":"cebpf4jnsgd1na2vs0mg"},{"bike_id":"b913779d-5ec2-411c-af27-fec12ca64527","system_id":"levelo_inurba_marseille","lat":43.295279,"lon":5.375048,"is_reserved":false,"is_disabled":false,"rental_uris":{"android":"levelo://app?vid=b913779d-5ec2-411c-af27-fec12ca64527","ios":"levelo://app?vid=b913779d-5ec2-411c-af27-fec12ca64527"},"vehicle_type_id":"4","last_reported":1722186426,"current_range_meters":2000,"station_id":"ce4bgkp2rcd13ifvqbmg","pricing_plan_id":"cebpf4jnsgd1na2vs0mg"},{"bike_id":"d01b6cb6-867e-400c-b030-54080750b6b3","system_id":"levelo_inurba_marseille","lat":43.287184,"lon":5.37937,"is_reserved":false,"is_disabled":false,"rental_uris":{"android":"levelo://app?vid=d01b6cb6-867e-400c-b030-54080750b6b3","ios":"levelo://app?vid=d01b6cb6-867e-400c-b030-54080750b6b3"},"vehicle_type_id":"4","last_reported":1722186426,"current_range_meters":8400,"station_id":"ce4bh9p2rcd13ifvqec0","pricing_plan_id":"cebpf4jnsgd1na2vs0mg"},{"bike_id":"c6e1f209-e3f1-47e0-87d5-19baff4574f1","system_id":"levelo_inurba_marseille","lat":43.287184,"lon":5.37937,"is_reserved":false,"is_disabled":false,"rental_uris":{"android":"levelo://app?vid=c6e1f209-e3f1-47e0-87d5-19baff4574f1","ios":"levelo://app?vid=c6e1f209-e3f1-47e0-87d5-19baff4574f1"},"vehicle_type_id":"4","last_reported":1722186426,"current_range_meters":19600,"station_id":"ce4bh9p2rcd13ifvqec0","pricing_plan_id":"cebpf4jnsgd1na2vs0mg"},{"bike_id":"84bb5619-1d9f-43ec-b101-dda4ac1e967b","system_id":"levelo_inurba_marseille","lat":43.33449,"lon":5.3906,"is_reserved":false,"is_disabled":false,"rental_uris":{"android":"levelo://app?vid=84bb5619-1d9f-43ec-b101-dda4ac1e967b","ios":"levelo://app?vid=84bb5619-1d9f-43ec-b101-dda4ac1e967b"},"vehicle_type_id":"4","last_reported":1722186426,"current_range_meters":24400,"station_id":"","pricing_plan_id":"cebpf4jnsgd1na2vs0mg"},{"bike_id":"23876e70-48b9-4805-9154-5eb815c4500a","system_id":"levelo_inurba_marseille","lat":43.291994,"lon":5.392907,"is_reserved":false,"is_disabled":false,"rental_uris":{"android":"levelo://app?vid=23876e70-48b9-4805-9154-5eb815c4500a","ios":"levelo://app?vid=23876e70-48b9-4805-9154-5eb815c4500a"},"vehicle_type_id":"4","last_reported":1722186426,"current_range_meters":0,"station_id":"ce4bh192rcd13ifvqdd0","pricing_plan_id":"cebpf4jnsgd1na2vs0mg"},{"bike_id":"28948738-efc7-4126-a2c4-875fe3c1cc45","system_id":"levelo_inurba_marseille","lat":43.291994,"lon":5.392907,"is_reserved":false,"is_disabled":false,"rental_uris":{"android":"levelo://app?vid=28948738-efc7-4126-a2c4-875fe3c1cc45","ios":"levelo://app?vid=28948738-efc7-4126-a2c4-875fe3c1cc45"},"vehicle_type_id":"4","last_reported":1722186426,"current_range_meters":2400,"station_id":"ce4bh192rcd13ifvqdd0","pricing_plan_id":"cebpf4jnsgd1na2vs0mg"},{"bike_id":"9226d181-19a4-4f04-a816-12bbb517e03c","system_id":"levelo_inurba_marseille","lat":43.291994,"lon":5.392907,"is_reserved":false,"is_disabled":false,"rental_uris":{"android":"levelo://app?vid=9226d181-19a4-4f04-a816-12bbb517e03c","ios":"levelo://app?vid=9226d181-19a4-4f04-a816-12bbb517e03c"},"vehicle_type_id":"4","last_reported":1722186426,"current_range_meters":30800,"station_id":"ce4bh192rcd13ifvqdd0","pricing_plan_id":"cebpf4jnsgd1na2vs0mg"},{"bike_id":"cca76bdd-2b95-4f6f-9cab-d07b6e058d0d","system_id":"levelo_inurba_marseille","lat":43.29453,"lon":5.3974,"is_reserved":false,"is_disabled":false,"rental_uris":{"android":"levelo://app?vid=cca76bdd-2b95-4f6f-9cab-d07b6e058d0d","ios":"levelo://app?vid=cca76bdd-2b95-4f6f-9cab-d07b6e058d0d"},"vehicle_type_id":"4","last_reported":1722186426,"current_range_meters":0,"station_id":"ce4bh3h2rcd13ifvqdo0","pricing_plan_id":"cebpf4jnsgd1na2vs0mg"},{"bike_id":"acfa1dff-c1f0-4ae8-90bf-72b7bb91e983","system_id":"levelo_inurba_marseille","lat":43.2945,"lon":5.39744,"is_reserved":false,"is_disabled":false,"rental_uris":{"android":"levelo://app?vid=acfa1dff-c1f0-4ae8-90bf-72b7bb91e983","ios":"levelo://app?vid=acfa1dff-c1f0-4ae8-90bf-72b7bb91e983"},"vehicle_type_id":"4","last_reported":1722186426,"current_range_meters":5600,"station_id":"ce4bh3h2rcd13ifvqdo0","pricing_plan_id":"cebpf4jnsgd1na2vs0mg"},{"bike_id":"e713833f-d87a-46f1-b21e-8b92cd854c12","system_id":"levelo_inurba_marseille","lat":43.29447,"lon":5.39746,"is_reserved":false,"is_disabled":false,"rental_uris":{"android":"levelo://app?vid=e713833f-d87a-46f1-b21e-8b92cd854c12","ios":"levelo://app?vid=e713833f-d87a-46f1-b21e-8b92cd854c12"},"vehicle_type_id":"4","last_reported":1722186426,"current_range_meters":14800,"station_id":"ce4bh3h2rcd13ifvqdo0","pricing_plan_id":"cebpf4jnsgd1na2vs0mg"},{"bike_id":"6a8ccdea-c2d0-48c2-adb4-de92799603c2","system_id":"levelo_inurba_marseille","lat":43.294314,"lon":5.397498,"is_reserved":false,"is_disabled":false,"rental_uris":{"android":"levelo://app?vid=6a8ccdea-c2d0-48c2-adb4-de92799603c2","ios":"levelo://app?vid=6a8ccdea-c2d0-48c2-adb4-de92799603c2"},"vehicle_type_id":"4","last_reported":1722186426,"current_range_meters":21200,"station_id":"ce4bh3h2rcd13ifvqdo0","pricing_plan_id":"cebpf4jnsgd1na2vs0mg"},{"bike_id":"b2a0cf46-110f-40bc-a75c-deead50f756f","system_id":"levelo_inurba_marseille","lat":43.294416,"lon":5.397594,"is_reserved":false,"is_disabled":false,"rental_uris":{"android":"levelo://app?vid=b2a0cf46-110f-40bc-a75c-deead50f756f","ios":"levelo://app?vid=b2a0cf46-110f-40bc-a75c-deead50f756f"},"vehicle_type_id":"4","last_reported":1722186426,"current_range_meters":6000,"station_id":"","pricing_plan_id":"cebpf4jnsgd1na2vs0mg"},{"bike_id":"ac5bc277-8d12-4215-806a-cf2d17934ea9","system_id":"levelo_inurba_marseille","lat":43.285856,"lon":5.350771,"is_reserved":false,"is_disabled":false,"rental_uris":{"android":"levelo://app?vid=ac5bc277-8d12-4215-806a-cf2d17934ea9","ios":"levelo://app?vid=ac5bc277-8d12-4215-806a-cf2d17934ea9"},"vehicle_type_id":"4","last_reported":1722186426,"current_range_meters":0,"station_id":"ce4bhch2rcd13ifvqeug","pricing_plan_id":"cebpf4jnsgd1na2vs0mg"},{"bike_id":"1d1a2d7b-b647-4644-a431-e051398c2b8e","system_id":"levelo_inurba_marseille","lat":43.28614,"lon":5.35102,"is_reserved":false,"is_disabled":false,"rental_uris":{"android":"levelo://app?vid=1d1a2d7b-b647-4644-a431-e051398c2b8e","ios":"levelo://app?vid=1d1a2d7b-b647-4644-a431-e051398c2b8e"},"vehicle_type_id":"4","last_reported":1722186426,"current_range_meters":0,"station_id":"ce4bhch2rcd13ifvqeug","pricing_plan_id":"cebpf4jnsgd1na2vs0mg"},{"bike_id":"9b956926-c2ee-49ce-9138-37d779853c9e","system_id":"levelo_inurba_marseille","lat":43.285856,"lon":5.350771,"is_reserved":false,"is_disabled":false,"rental_uris":{"android":"levelo://app?vid=9b956926-c2ee-49ce-9138-37d779853c9e","ios":"levelo://app?vid=9b956926-c2ee-49ce-9138-37d779853c9e"},"vehicle_type_id":"4","last_reported":1722186426,"current_range_meters":0,"station_id":"ce4bhch2rcd13ifvqeug","pricing_plan_id":"cebpf4jnsgd1na2vs0mg"},{"bike_id":"27c5e779-a2fe-4337-abca-2231373883ab","system_id":"levelo_inurba_marseille","lat":43.295713,"lon":5.399639,"is_reserved":false,"is_disabled":false,"rental_uris":{"android":"levelo://app?vid=27c5e779-a2fe-4337-abca-2231373883ab","ios":"levelo://app?vid=27c5e779-a2fe-4337-abca-2231373883ab"},"vehicle_type_id":"4","last_reported":1722186426,"current_range_meters":0,"station_id":"ce4bh312rcd13ifvqdj0","pricing_plan_id":"cebpf4jnsgd1na2vs0mg"},{"bike_id":"0f921c1a-b751-46b5-b829-bb51cda7d041","system_id":"levelo_inurba_marseille","lat":43.295694,"lon":5.399627,"is_reserved":false,"is_disabled":false,"rental_uris":{"android":"levelo://app?vid=0f921c1a-b751-46b5-b829-bb51cda7d041","ios":"levelo://app?vid=0f921c1a-b751-46b5-b829-bb51cda7d041"},"vehicle_type_id":"4","last_reported":1722186426,"current_range_meters":31200,"station_id":"ce4bh312rcd13ifvqdj0","pricing_plan_id":"cebpf4jnsgd1na2vs0mg"},{"bike_id":"c58c3bcc-ebeb-40fb-89b7-0b5032a7444a","system_id":"levelo_inurba_marseille","lat":43.295704,"lon":5.399652,"is_reserved":false,"is_disabled":false,"rental_uris":{"android":"levelo://app?vid=c58c3bcc-ebeb-40fb-89b7-0b5032a7444a","ios":"levelo://app?vid=c58c3bcc-ebeb-40fb-89b7-0b5032a7444a"},"vehicle_type_id":"4","last_reported":1722186426,"current_range_meters":31200,"station_id":"ce4bh312rcd13ifvqdj0","pricing_plan_id":"cebpf4jnsgd1na2vs0mg"},{"bike_id":"d692fc51-958e-419d-a433-e0dd2d87a87b","system_id":"levelo_inurba_marseille","lat":43.29568,"lon":5.39965,"is_reserved":false,"is_disabled":false,"rental_uris":{"android":"levelo://app?vid=d692fc51-958e-419d-a433-e0dd2d87a87b","ios":"levelo://app?vid=d692fc51-958e-419d-a433-e0dd2d87a87b"},"vehicle_type_id":"4","last_reported":1722186426,"current_range_meters":30000,"station_id":"ce4bh312rcd13ifvqdj0","pricing_plan_id":"cebpf4jnsgd1na2vs0mg"},{"bike_id":"625834dc-6afe-45ef-abfc-b0dec43cff87","system_id":"levelo_inurba_marseille","lat":43.29571,"lon":5.39968,"is_reserved":false,"is_disabled":false,"rental_uris":{"android":"levelo://app?vid=625834dc-6afe-45ef-abfc-b0dec43cff87","ios":"levelo://app?vid=625834dc-6afe-45ef-abfc-b0dec43cff87"},"vehicle_type_id":"4","last_reported":1722186426,"current_range_meters":18000,"station_id":"ce4bh312rcd13ifvqdj0","pricing_plan_id":"cebpf4jnsgd1na2vs0mg"},{"bike_id":"26ecae3c-831b-4bf9-9634-75c77610b176","system_id":"levelo_inurba_marseille","lat":43.295713,"lon":5.399639,"is_reserved":false,"is_disabled":false,"rental_uris":{"android":"levelo://app?vid=26ecae3c-831b-4bf9-9634-75c77610b176","ios":"levelo://app?vid=26ecae3c-831b-4bf9-9634-75c77610b176"},"vehicle_type_id":"4","last_reported":1722186426,"current_range_meters":13200,"station_id":"ce4bh312rcd13ifvqdj0","pricing_plan_id":"cebpf4jnsgd1na2vs0mg"},{"bike_id":"687a479b-b58b-4816-8d8f-4f56dc5722b4","system_id":"levelo_inurba_marseille","lat":43.286595,"lon":5.386795,"is_reserved":false,"is_disabled":false,"rental_uris":{"android":"levelo://app?vid=687a479b-b58b-4816-8d8f-4f56dc5722b4","ios":"levelo://app?vid=687a479b-b58b-4816-8d8f-4f56dc5722b4"},"vehicle_type_id":"4","last_reported":1722186426,"current_range_meters":2400,"station_id":"ce4bh492rcd13ifvqdug","pricing_plan_id":"cebpf4jnsgd1na2vs0mg"},{"bike_id":"1ec6986b-1469-457c-b867-8964ca605651","system_id":"levelo_inurba_marseille","lat":43.2867,"lon":5.38662,"is_reserved":false,"is_disabled":false,"rental_uris":{"android":"levelo://app?vid=1ec6986b-1469-457c-b867-8964ca605651","ios":"levelo://app?vid=1ec6986b-1469-457c-b867-8964ca605651"},"vehicle_type_id":"4","last_reported":1722186426,"current_range_meters":18400,"station_id":"ce4bh492rcd13ifvqdug","pricing_plan_id":"cebpf4jnsgd1na2vs0mg"},{"bike_id":"fa958f03-0bf7-435e-a875-d6e1b3be7f7e","system_id":"levelo_inurba_marseille","lat":43.28672,"lon":5.38667,"is_reserved":false,"is_disabled":false,"rental_uris":{"android":"levelo://app?vid=fa958f03-0bf7-435e-a875-d6e1b3be7f7e","ios":"levelo://app?vid=fa958f03-0bf7-435e-a875-d6e1b3be7f7e"},"vehicle_type_id":"4","last_reported":1722186426,"current_range_meters":0,"station_id":"ce4bh492rcd13ifvqdug","pricing_plan_id":"cebpf4jnsgd1na2vs0mg"},{"bike_id":"1233654d-c18b-4c1d-bbda-a409f72412ce","system_id":"levelo_inurba_marseille","lat":43.283494,"lon":5.380945,"is_reserved":false,"is_disabled":false,"rental_uris":{"android":"levelo://app?vid=1233654d-c18b-4c1d-bbda-a409f72412ce","ios":"levelo://app?vid=1233654d-c18b-4c1d-bbda-a409f72412ce"},"vehicle_type_id":"4","last_reported":1722186426,"current_range_meters":4000,"station_id":"ce4bh412rcd13ifvqdr0","pricing_plan_id":"cebpf4jnsgd1na2vs0mg"},{"bike_id":"e0fd7603-4bbe-4c1f-b854-bb177711d07d","system_id":"levelo_inurba_marseille","lat":43.319179,"lon":5.407725,"is_reserved":false,"is_disabled":false,"rental_uris":{"android":"levelo://app?vid=e0fd7603-4bbe-4c1f-b854-bb177711d07d","ios":"levelo://app?vid=e0fd7603-4bbe-4c1f-b854-bb177711d07d"},"vehicle_type_id":"4","last_reported":1722186426,"current_range_meters":27600,"station_id":"ce4bhq12rcd13ifvqhig","pricing_plan_id":"cebpf4jnsgd1na2vs0mg"},{"bike_id":"95770fbf-ebf5-4dda-87d2-cdc889faad5c","system_id":"levelo_inurba_marseille","lat":43.323464,"lon":5.406297,"is_reserved":false,"is_disabled":false,"rental_uris":{"android":"levelo://app?vid=95770fbf-ebf5-4dda-87d2-cdc889faad5c","ios":"levelo://app?vid=95770fbf-ebf5-4dda-87d2-cdc889faad5c"},"vehicle_type_id":"4","last_reported":1722186426,"current_range_meters":13200,"station_id":"ce4bhq92rcd13ifvqhjg","pricing_plan_id":"cebpf4jnsgd1na2vs0mg"},{"bike_id":"156787cb-d488-460b-b98a-1f0b1ec7bdea","system_id":"levelo_inurba_marseille","lat":43.337168,"lon":5.391825,"is_reserved":false,"is_disabled":false,"rental_uris":{"android":"levelo://app?vid=156787cb-d488-460b-b98a-1f0b1ec7bdea","ios":"levelo://app?vid=156787cb-d488-460b-b98a-1f0b1ec7bdea"},"vehicle_type_id":"4","last_reported":1722186426,"current_range_meters":800,"station_id":"ce4bhr92rcd13ifvqhsg","pricing_plan_id":"cebpf4jnsgd1na2vs0mg"},{"bike_id":"534d8fb6-4bac-4a01-87c9-d18277e14d1c","system_id":"levelo_inurba_marseille","lat":43.28456,"lon":5.34973,"is_reserved":false,"is_disabled":false,"rental_uris":{"android":"levelo://app?vid=534d8fb6-4bac-4a01-87c9-d18277e14d1c","ios":"levelo://app?vid=534d8fb6-4bac-4a01-87c9-d18277e14d1c"},"vehicle_type_id":"4","last_reported":1722186426,"current_range_meters":2400,"station_id":"","pricing_plan_id":"cebpf4jnsgd1na2vs0mg"},{"bike_id":"c32ab45a-1f56-4a5e-a88b-9c9b27d322d3","system_id":"levelo_inurba_marseille","lat":43.283498,"lon":5.380948,"is_reserved":false,"is_disabled":false,"rental_uris":{"android":"levelo://app?vid=c32ab45a-1f56-4a5e-a88b-9c9b27d322d3","ios":"levelo://app?vid=c32ab45a-1f56-4a5e-a88b-9c9b27d322d3"},"vehicle_type_id":"4","last_reported":1722186426,"current_range_meters":1200,"station_id":"ce4bh412rcd13ifvqdr0","pricing_plan_id":"cebpf4jnsgd1na2vs0mg"},{"bike_id":"9c71aebd-7d4e-47d2-a177-fd00786b7980","system_id":"levelo_inurba_marseille","lat":43.28429,"lon":5.34983,"is_reserved":false,"is_disabled":false,"rental_uris":{"android":"levelo://app?vid=9c71aebd-7d4e-47d2-a177-fd00786b7980","ios":"levelo://app?vid=9c71aebd-7d4e-47d2-a177-fd00786b7980"},"vehicle_type_id":"4","last_reported":1722186426,"current_range_meters":0,"station_id":"ce4bhbh2rcd13ifvqepg","pricing_plan_id":"cebpf4jnsgd1na2vs0mg"},{"bike_id":"b8836a6a-5259-42bd-81f0-d3e8c8047597","system_id":"levelo_inurba_marseille","lat":43.28419,"lon":5.3499,"is_reserved":false,"is_disabled":false,"rental_uris":{"android":"levelo://app?vid=b8836a6a-5259-42bd-81f0-d3e8c8047597","ios":"levelo://app?vid=b8836a6a-5259-42bd-81f0-d3e8c8047597"},"vehicle_type_id":"4","last_reported":1722186426,"current_range_meters":0,"station_id":"ce4bhbh2rcd13ifvqepg","pricing_plan_id":"cebpf4jnsgd1na2vs0mg"},{"bike_id":"29ac92da-e4a6-40d7-845b-0278fb11740a","system_id":"levelo_inurba_marseille","lat":43.284214,"lon":5.349706,"is_reserved":false,"is_disabled":false,"rental_uris":{"android":"levelo://app?vid=29ac92da-e4a6-40d7-845b-0278fb11740a","ios":"levelo://app?vid=29ac92da-e4a6-40d7-845b-0278fb11740a"},"vehicle_type_id":"4","last_reported":1722186426,"current_range_meters":0,"station_id":"ce4bhbh2rcd13ifvqepg","pricing_plan_id":"cebpf4jnsgd1na2vs0mg"},{"bike_id":"5774b743-d23b-4076-a3a6-f8190ea5fb87","system_id":"levelo_inurba_marseille","lat":43.28412,"lon":5.34986,"is_reserved":false,"is_disabled":false,"rental_uris":{"android":"levelo://app?vid=5774b743-d23b-4076-a3a6-f8190ea5fb87","ios":"levelo://app?vid=5774b743-d23b-4076-a3a6-f8190ea5fb87"},"vehicle_type_id":"4","last_reported":1722186426,"current_range_meters":22000,"station_id":"ce4bhbh2rcd13ifvqepg","pricing_plan_id":"cebpf4jnsgd1na2vs0mg"},{"bike_id":"9f614d73-756a-41ff-84fe-ab7975553fc3","system_id":"levelo_inurba_marseille","lat":43.28936,"lon":5.3963,"is_reserved":false,"is_disabled":false,"rental_uris":{"android":"levelo://app?vid=9f614d73-756a-41ff-84fe-ab7975553fc3","ios":"levelo://app?vid=9f614d73-756a-41ff-84fe-ab7975553fc3"},"vehicle_type_id":"4","last_reported":1722186426,"current_range_meters":0,"station_id":"ce4bh3h2rcd13ifvqdn0","pricing_plan_id":"cebpf4jnsgd1na2vs0mg"},{"bike_id":"a4f0846e-aca8-469f-baa3-17eb49e5567c","system_id":"levelo_inurba_marseille","lat":43.292724,"lon":5.401131,"is_reserved":false,"is_disabled":false,"rental_uris":{"android":"levelo://app?vid=a4f0846e-aca8-469f-baa3-17eb49e5567c","ios":"levelo://app?vid=a4f0846e-aca8-469f-baa3-17eb49e5567c"},"vehicle_type_id":"4","last_reported":1722186426,"current_range_meters":6000,"station_id":"ce4bh312rcd13ifvqdk0","pricing_plan_id":"cebpf4jnsgd1na2vs0mg"},{"bike_id":"db169ed1-d37f-412b-8738-da9f34a736b8","system_id":"levelo_inurba_marseille","lat":43.283502,"lon":5.386471,"is_reserved":false,"is_disabled":false,"rental_uris":{"android":"levelo://app?vid=db169ed1-d37f-412b-8738-da9f34a736b8","ios":"levelo://app?vid=db169ed1-d37f-412b-8738-da9f34a736b8"},"vehicle_type_id":"4","last_reported":1722186426,"current_range_meters":20000,"station_id":"ce4bh492rcd13ifvqdvg","pricing_plan_id":"cebpf4jnsgd1na2vs0mg"},{"bike_id":"74458198-ea8e-40db-8e48-39e7ccf89522","system_id":"levelo_inurba_marseille","lat":43.280382,"lon":5.369291,"is_reserved":false,"is_disabled":false,"rental_uris":{"android":"levelo://app?vid=74458198-ea8e-40db-8e48-39e7ccf89522","ios":"levelo://app?vid=74458198-ea8e-40db-8e48-39e7ccf89522"},"vehicle_type_id":"4","last_reported":1722186426,"current_range_meters":1200,"station_id":"ce4bha12rcd13ifvqef0","pricing_plan_id":"cebpf4jnsgd1na2vs0mg"},{"bike_id":"e81e4f2e-96b7-47b4-9eb8-52372e299d5a","system_id":"levelo_inurba_marseille","lat":43.28035,"lon":5.36942,"is_reserved":false,"is_disabled":false,"rental_uris":{"android":"levelo://app?vid=e81e4f2e-96b7-47b4-9eb8-52372e299d5a","ios":"levelo://app?vid=e81e4f2e-96b7-47b4-9eb8-52372e299d5a"},"vehicle_type_id":"4","last_reported":1722186426,"current_range_meters":8800,"station_id":"ce4bha12rcd13ifvqef0","pricing_plan_id":"cebpf4jnsgd1na2vs0mg"},{"bike_id":"e60fbfd2-ddc0-446b-8700-0ec45eb66207","system_id":"levelo_inurba_marseille","lat":43.281044,"lon":5.378308,"is_reserved":false,"is_disabled":false,"rental_uris":{"android":"levelo://app?vid=e60fbfd2-ddc0-446b-8700-0ec45eb66207","ios":"levelo://app?vid=e60fbfd2-ddc0-446b-8700-0ec45eb66207"},"vehicle_type_id":"4","last_reported":1722186426,"current_range_meters":0,"station_id":"ce4bha12rcd13ifvqee0","pricing_plan_id":"cebpf4jnsgd1na2vs0mg"},{"bike_id":"9f372a7f-5a3b-4709-85ff-6b08b96ce829","system_id":"levelo_inurba_marseille","lat":43.28113,"lon":5.37832,"is_reserved":false,"is_disabled":false,"rental_uris":{"android":"levelo://app?vid=9f372a7f-5a3b-4709-85ff-6b08b96ce829","ios":"levelo://app?vid=9f372a7f-5a3b-4709-85ff-6b08b96ce829"},"vehicle_type_id":"4","last_reported":1722186426,"current_range_meters":4400,"station_id":"ce4bha12rcd13ifvqee0","pricing_plan_id":"cebpf4jnsgd1na2vs0mg"},{"bike_id":"e8080547-572f-47d1-bde8-ffc26f12c275","system_id":"levelo_inurba_marseille","lat":43.34089,"lon":5.39106,"is_reserved":false,"is_disabled":false,"rental_uris":{"android":"levelo://app?vid=e8080547-572f-47d1-bde8-ffc26f12c275","ios":"levelo://app?vid=e8080547-572f-47d1-bde8-ffc26f12c275"},"vehicle_type_id":"4","last_reported":1722186426,"current_range_meters":8400,"station_id":"","pricing_plan_id":"cebpf4jnsgd1na2vs0mg"},{"bike_id":"ffa7b6a0-d120-42af-9ae8-6b738c4464d9","system_id":"levelo_inurba_marseille","lat":43.284463,"lon":5.391946,"is_reserved":false,"is_disabled":false,"rental_uris":{"android":"levelo://app?vid=ffa7b6a0-d120-42af-9ae8-6b738c4464d9","ios":"levelo://app?vid=ffa7b6a0-d120-42af-9ae8-6b738c4464d9"},"vehicle_type_id":"4","last_reported":1722186426,"current_range_meters":31200,"station_id":"ce4bhoh2rcd13ifvqh5g","pricing_plan_id":"cebpf4jnsgd1na2vs0mg"},{"bike_id":"0ccdf6b4-23b9-4b85-85fd-87ba7c419c34","system_id":"levelo_inurba_marseille","lat":43.284415,"lon":5.3919,"is_reserved":false,"is_disabled":false,"rental_uris":{"android":"levelo://app?vid=0ccdf6b4-23b9-4b85-85fd-87ba7c419c34","ios":"levelo://app?vid=0ccdf6b4-23b9-4b85-85fd-87ba7c419c34"},"vehicle_type_id":"4","last_reported":1722186426,"current_range_meters":18800,"station_id":"ce4bhoh2rcd13ifvqh5g","pricing_plan_id":"cebpf4jnsgd1na2vs0mg"},{"bike_id":"c7eba45c-cd25-44d0-ac75-2045b8cf2836","system_id":"levelo_inurba_marseille","lat":43.285742,"lon":5.395004,"is_reserved":false,"is_disabled":false,"rental_uris":{"android":"levelo://app?vid=c7eba45c-cd25-44d0-ac75-2045b8cf2836","ios":"levelo://app?vid=c7eba45c-cd25-44d0-ac75-2045b8cf2836"},"vehicle_type_id":"4","last_reported":1722186426,"current_range_meters":0,"station_id":"ce4bh292rcd13ifvqdg0","pricing_plan_id":"cebpf4jnsgd1na2vs0mg"},{"bike_id":"04114fea-fd69-48f4-b4a9-45be7503901e","system_id":"levelo_inurba_marseille","lat":43.32659,"lon":5.40985,"is_reserved":false,"is_disabled":false,"rental_uris":{"android":"levelo://app?vid=04114fea-fd69-48f4-b4a9-45be7503901e","ios":"levelo://app?vid=04114fea-fd69-48f4-b4a9-45be7503901e"},"vehicle_type_id":"4","last_reported":1722186426,"current_range_meters":17600,"station_id":"ce4bhpp2rcd13ifvqhgg","pricing_plan_id":"cebpf4jnsgd1na2vs0mg"},