{"last_updated":1746278247,"ttl":60,"version":"2.2","data":{"bikes":[{"bike_id":"c811b81b-299d-4f8d-b843-ae1756353fd2","system_id":"levelo_inurba_marseille","lat":43.21188,"lon":5.350669,"is_reserved":false,"is_disabled":false,"rental_uris":{"android":"levelo://app?vid=c811b81b-299d-4f8d-b843-ae1756353fd2","ios":"levelo://app?vid=c811b81b-299d-4f8d-b843-ae1756353fd2"},"vehicle_type_id":"4","last_reported":1746278247,"current_range_meters":2800,"station_id":"st_cvj6sg6p6f1abm77japg","pricing_plan_id":"cebpf4jnsgd1na2vs0mg"},{"bike_id":"0a25284c-1cc1-4990-9246-2524adc6d5a2","system_id":"levelo_inurba_marseille","lat":43.21192,"lon":5.35066,"is_reserved":false,"is_disabled":false,"rental_uris":{"android":"levelo://app?vid=0a25284c-1cc1-4990-9246-2524adc6d5a2","ios":"levelo://app?vid=0a25284c-1cc1-4990-9246-2524adc6d5a2"},"vehicle_type_id":"4","last_reported":1746278247,"current_range_meters":2800,"station_id":"st_cvj6sg6p6f1abm77japg","pricing_plan_id":"cebpf4jnsgd1na2vs0mg"},{"bike_id":"7ff236b0-ba1c-418d-adaa-548c269eac95","system_id":"levelo_inurba_marseille","lat":43.28473,"lon":5.38418,"is_reserved":false,"is_disabled":false,"rental_uris":{"android":"levelo://app?vid=7ff236b0-ba1c-418d-adaa-548c269eac95","ios":"levelo://app?vid=7ff236b0-ba1c-418d-adaa-548c269eac95"},"vehicle_type_id":"4","last_reported":1746278247,"current_range_meters":2800,"station_id":"ce4bh512rcd13ifvqe3g","pricing_plan_id":"cebpf4jnsgd1na2vs0mg"},{"bike_id":"7dfd4e83-e69f-4724-9b91-2875514333ff","system_id":"levelo_inurba_marseille","lat":43.30145,"lon":5.37418,"is_reserved":false,"is_disabled":false,"rental_uris":{"android":"levelo://app?vid=7dfd4e83-e69f-4724-9b91-2875514333ff","ios":"levelo://app?vid=7dfd4e83-e69f-4724-9b91-2875514333ff"},"vehicle_type_id":"4","last_reported":1746278247,"current_range_meters":2000,"station_id":"ce4bgs92rcd13ifvqcc0","pricing_plan_id":"cebpf4jnsgd1na2vs0mg"},{"bike_id":"ffc25fc0-4d69-4046-945d-8a4f99e23364","system_id":"levelo_inurba_marseille","lat":43.27212,"lon":5.39167,"is_reserved":false,"is_disabled":false,"rental_uris":{"android":"levelo://app?vid=ffc25fc0-4d69-4046-945d-8a4f99e23364","ios":"levelo://app?vid=ffc25fc0-4d69-4046-945d-8a4f99e23364"},"vehicle_type_id":"4","last_reported":1746278247,"current_range_meters":3200,"station_id":"ce4bhhp2rcd13ifvqfm0","pricing_plan_id":"cebpf4jnsgd1na2vs0mg"},{"bike_id":"3a4fa58a-1cdb-4fec-be1e-762b44308336","system_id":"levelo_inurba_marseille","lat":43.23958,"lon":5.36647,"is_reserved":false,"is_disabled":false,"rental_uris":{"android":"levelo://app?vid=3a4fa58a-1cdb-4fec-be1e-762b44308336","ios":"levelo://app?vid=3a4fa58a-1cdb-4fec-be1e-762b44308336"},"vehicle_type_id":"4","last_reported":1746278247,"current_range_meters":3200,"station_id":"ce4bhi12rcd13ifvqfp0","pricing_plan_id":"cebpf4jnsgd1na2vs0mg"},{"bike_id":"b6d5dda5-3132-4fcf-9fb3-7a2d7ac9951e","system_id":"levelo_inurba_marseille","lat":43.28157,"lon":5.42642,"is_reserved":false,"is_disabled":false,"rental_uris":{"android":"levelo://app?vid=b6d5dda5-3132-4fcf-9fb3-7a2d7ac9951e","ios":"levelo://app?vid=b6d5dda5-3132-4fcf-9fb3-7a2d7ac9951e"},"vehicle_type_id":"4","last_reported":1746278247,"current_range_meters":3200,"station_id":"ce4bhnh2rcd13ifvqgug","pricing_plan_id":"cebpf4jnsgd1na2vs0mg"},{"bike_id":"2fe70925-1510-434c-8810-7db67bb491d4","system_id":"levelo_inurba_marseille","lat":43.27054,"lon":5.40255,"is_reserved":false,"is_disabled":false,"rental_uris":{"android":"levelo://app?vid=2fe70925-1510-434c-8810-7db67bb491d4","ios":"levelo://app?vid=2fe70925-1510-434c-8810-7db67bb491d4"},"vehicle_type_id":"4","last_reported":1746278247,"current_range_meters":3600,"station_id":"ce4bhk92rcd13ifvqgc0","pricing_plan_id":"cebpf4jnsgd1na2vs0mg"},{"bike_id":"2b95c467-abf5-4f96-801b-6559cd9d38ec","system_id":"levelo_inurba_marseille","lat":43.249979,"lon":5.389096,"is_reserved":false,"is_disabled":false,"rental_uris":{"android":"levelo://app?vid=2b95c467-abf5-4f96-801b-6559cd9d38ec","ios":"levelo://app?vid=2b95c467-abf5-4f96-801b-6559cd9d38ec"},"vehicle_type_id":"4","last_reported":1746278247,"current_range_meters":3600,"station_id":"ce4bhgp2rcd13ifvqfd0","pricing_plan_id":"cebpf4jnsgd1na2vs0mg"},{"bike_id":"bede5824-1f1d-4225-aedb-cec4e671c16b","system_id":"levelo_inurba_marseille","lat":43.32046,"lon":5.41528,"is_reserved":false,"is_disabled":false,"rental_uris":{"android":"levelo://app?vid=bede5824-1f1d-4225-aedb-cec4e671c16b","ios":"levelo://app?vid=bede5824-1f1d-4225-aedb-cec4e671c16b"},"vehicle_type_id":"4","last_reported":1746278247,"current_range_meters":3600,"station_id":"ce4bhq92rcd13ifvqhkg","pricing_plan_id":"cebpf4jnsgd1na2vs0mg"},{"bike_id":"4fcb94dd-7e2e-4c2b-a657-b8760b2238dc","system_id":"levelo_inurba_marseille","lat":43.259583,"lon":5.408924,"is_reserved":false,"is_disabled":false,"rental_uris":{"android":"levelo://app?vid=4fcb94dd-7e2e-4c2b-a657-b8760b2238dc","ios":"levelo://app?vid=4fcb94dd-7e2e-4c2b-a657-b8760b2238dc"},"vehicle_type_id":"4","last_reported":1746278247,"current_range_meters":3600,"station_id":"ce4bhm92rcd13ifvqglg","pricing_plan_id":"cebpf4jnsgd1na2vs0mg"},{"bike_id":"2be6c5ac-db75-4c9d-95c6-9c66882f14b8","system_id":"levelo_inurba_marseille","lat":43.27895,"lon":5.36301,"is_reserved":false,"is_disabled":false,"rental_uris":{"android":"levelo://app?vid=2be6c5ac-db75-4c9d-95c6-9c66882f14b8","ios":"levelo://app?vid=2be6c5ac-db75-4c9d-95c6-9c66882f14b8"},"vehicle_type_id":"4","last_reported":1746278247,"current_range_meters":3600,"station_id":"","pricing_plan_id":"cebpf4jnsgd1na2vs0mg"},{"bike_id":"6d4da100-ce82-4677-acf6-52571a159bdd","system_id":"levelo_inurba_marseille","lat":43.30806,"lon":5.3816,"is_reserved":false,"is_disabled":false,"rental_uris":{"android":"levelo://app?vid=6d4da100-ce82-4677-acf6-52571a159bdd","ios":"levelo://app?vid=6d4da100-ce82-4677-acf6-52571a159bdd"},"vehicle_type_id":"4","last_reported":1746278247,"current_range_meters":3200,"station_id":"ce4bgt12rcd13ifvqce0","pricing_plan_id":"cebpf4jnsgd1na2vs0mg"},{"bike_id":"f73daf93-45c7-48c0-a61a-2d28ac89db8d","system_id":"levelo_inurba_marseille","lat":43.33946,"lon":5.41996,"is_reserved":false,"is_disabled":false,"rental_uris":{"android":"levelo://app?vid=f73daf93-45c7-48c0-a61a-2d28ac89db8d","ios":"levelo://app?vid=f73daf93-45c7-48c0-a61a-2d28ac89db8d"},"vehicle_type_id":"4","last_reported":1746278247,"current_range_meters":3600,"station_id":"","pricing_plan_id":"cebpf4jnsgd1na2vs0mg"},{"bike_id":"0c40e053-bdb5-4bf3-b931-36824c36d2dd","system_id":"levelo_inurba_marseille","lat":43.27326,"lon":5.39118,"is_reserved":false,"is_disabled":false,"rental_uris":{"android":"levelo://app?vid=0c40e053-bdb5-4bf3-b931-36824c36d2dd","ios":"levelo://app?vid=0c40e053-bdb5-4bf3-b931-36824c36d2dd"},"vehicle_type_id":"4","last_reported":1746278247,"current_range_meters":4000,"station_id":"ce4bhgp2rcd13ifvqfe0","pricing_plan_id":"cebpf4jnsgd1na2vs0mg"},{"bike_id":"2d87f24b-bb92-4f5a-9c64-611905425c8d","system_id":"levelo_inurba_marseille","lat":43.23667,"lon":5.39143,"is_reserved":false,"is_disabled":false,"rental_uris":{"android":"levelo://app?vid=2d87f24b-bb92-4f5a-9c64-611905425c8d","ios":"levelo://app?vid=2d87f24b-bb92-4f5a-9c64-611905425c8d"},"vehicle_type_id":"4","last_reported":1746278247,"current_range_meters":4000,"station_id":"","pricing_plan_id":"cebpf4jnsgd1na2vs0mg"},{"bike_id":"19d702cc-0b06-4f4d-b787-6708e1e4452d","system_id":"levelo_inurba_marseille","lat":43.233592,"lon":5.358083,"is_reserved":false,"is_disabled":false,"rental_uris":{"android":"levelo://app?vid=19d702cc-0b06-4f4d-b787-6708e1e4452d","ios":"levelo://app?vid=19d702cc-0b06-4f4d-b787-6708e1e4452d"},"vehicle_type_id":"4","last_reported":1746278247,"current_range_meters":3600,"station_id":"ce4bhu92rcd13ifvqi70","pricing_plan_id":"cebpf4jnsgd1na2vs0mg"},{"bike_id":"0d6c5100-7db5-44d0-b9d6-cf2b96014798","system_id":"levelo_inurba_marseille","lat":43.310084,"lon":5.374882,"is_reserved":false,"is_disabled":false,"rental_uris":{"android":"levelo://app?vid=0d6c5100-7db5-44d0-b9d6-cf2b96014798","ios":"levelo://app?vid=0d6c5100-7db5-44d0-b9d6-cf2b96014798"},"vehicle_type_id":"4","last_reported":1746278247,"current_range_meters":4400,"station_id":"","pricing_plan_id":"cebpf4jnsgd1na2vs0mg"},{"bike_id":"1cda1b19-5d1e-4702-af92-9a7c9f7d71d1","system_id":"levelo_inurba_marseille","lat":43.23961,"lon":5.3663,"is_reserved":false,"is_disabled":false,"rental_uris":{"android":"levelo://app?vid=1cda1b19-5d1e-4702-af92-9a7c9f7d71d1","ios":"levelo://app?vid=1cda1b19-5d1e-4702-af92-9a7c9f7d71d1"},"vehicle_type_id":"4","last_reported":1746278247,"current_range_meters":4400,"station_id":"ce4bhi12rcd13ifvqfp0","pricing_plan_id":"cebpf4jnsgd1na2vs0mg"},{"bike_id":"16cbf413-eb01-4b66-a6cd-0fa44375b0e2","system_id":"levelo_inurba_marseille","lat":43.27372,"lon":5.36257,"is_reserved":false,"is_disabled":false,"rental_uris":{"android":"levelo://app?vid=16cbf413-eb01-4b66-a6cd-0fa44375b0e2","ios":"levelo://app?vid=16cbf413-eb01-4b66-a6cd-0fa44375b0e2"},"vehicle_type_id":"4","last_reported":1746278247,"current_range_meters":4400,"station_id":"ce4bhbh2rcd13ifvqeo0","pricing_plan_id":"cebpf4jnsgd1na2vs0mg"},{"bike_id":"c7fe4471-30e6-49d4-8709-b832f2b2f5cd","system_id":"levelo_inurba_marseille","lat":43.23967,"lon":5.36629,"is_reserved":false,"is_disabled":false,"rental_uris":{"android":"levelo://app?vid=c7fe4471-30e6-49d4-8709-b832f2b2f5cd","ios":"levelo://app?vid=c7fe4471-30e6-49d4-8709-b832f2b2f5cd"},"vehicle_type_id":"4","last_reported":1746278247,"current_range_meters":4400,"station_id":"ce4bhi12rcd13ifvqfp0","pricing_plan_id":"cebpf4jnsgd1na2vs0mg"},{"bike_id":"324ff0fb-e7fc-49b6-b90c-9b00dcd345cc","system_id":"levelo_inurba_marseille","lat":43.27996,"lon":5.40002,"is_reserved":false,"is_disabled":false,"rental_uris":{"android":"levelo://app?vid=324ff0fb-e7fc-49b6-b90c-9b00dcd345cc","ios":"levelo://app?vid=324ff0fb-e7fc-49b6-b90c-9b00dcd345cc"},"vehicle_type_id":"4","last_reported":1746278247,"current_range_meters":4400,"station_id":"ce4bho92rcd13ifvqh4g","pricing_plan_id":"cebpf4jnsgd1na2vs0mg"},{"bike_id":"7971fe93-5f1d-4a59-8508-b415e64fcb18","system_id":"levelo_inurba_marseille","lat":43.309436,"lon":5.373558,"is_reserved":false,"is_disabled":false,"rental_uris":{"android":"levelo://app?vid=7971fe93-5f1d-4a59-8508-b415e64fcb18","ios":"levelo://app?vid=7971fe93-5f1d-4a59-8508-b415e64fcb18"},"vehicle_type_id":"4","last_reported":1746278247,"current_range_meters":4400,"station_id":"","pricing_plan_id":"cebpf4jnsgd1na2vs0mg"},{"bike_id":"811bc179-5d01-4935-bd5d-006eacb0caff","system_id":"levelo_inurba_marseille","lat":43.28002,"lon":5.40032,"is_reserved":false,"is_disabled":false,"rental_uris":{"android":"levelo://app?vid=811bc179-5d01-4935-bd5d-006eacb0caff","ios":"levelo://app?vid=811bc179-5d01-4935-bd5d-006eacb0caff"},"vehicle_type_id":"4","last_reported":1746278247,"current_range_meters":4800,"station_id":"ce4bho92rcd13ifvqh4g","pricing_plan_id":"cebpf4jnsgd1na2vs0mg"},{"bike_id":"1bbbfe85-f436-4aab-8b40-65a6948bc664","system_id":"levelo_inurba_marseille","lat":43.28276,"lon":5.35064,"is_reserved":false,"is_disabled":false,"rental_uris":{"android":"levelo://app?vid=1bbbfe85-f436-4aab-8b40-65a6948bc664","ios":"levelo://app?vid=1bbbfe85-f436-4aab-8b40-65a6948bc664"},"vehicle_type_id":"4","last_reported":1746278247,"current_range_meters":4800,"station_id":"ce4bhbp2rcd13ifvqerg","pricing_plan_id":"cebpf4jnsgd1na2vs0mg"},{"bike_id":"ef69e7cc-37df-4e66-bd4f-a85ef9d1ea7e","system_id":"levelo_inurba_marseille","lat":43.27488,"lon":5.42449,"is_reserved":false,"is_disabled":false,"rental_uris":{"android":"levelo://app?vid=ef69e7cc-37df-4e66-bd4f-a85ef9d1ea7e","ios":"levelo://app?vid=ef69e7cc-37df-4e66-bd4f-a85ef9d1ea7e"},"vehicle_type_id":"4","last_reported":1746278247,"current_range_meters":5600,"station_id":"ce4bhn92rcd13ifvqgrg","pricing_plan_id":"cebpf4jnsgd1na2vs0mg"},{"bike_id":"10464186-924e-4958-afdc-5042d83d1950","system_id":"levelo_inurba_marseille","lat":43.25578,"lon":5.3823,"is_reserved":false,"is_disabled":false,"rental_uris":{"android":"levelo://app?vid=10464186-924e-4958-afdc-5042d83d1950","ios":"levelo://app?vid=10464186-924e-4958-afdc-5042d83d1950"},"vehicle_type_id":"4","last_reported":1746278247,"current_range_meters":4800,"station_id":"ce4bhih2rcd13ifvqfs0","pricing_plan_id":"cebpf4jnsgd1na2vs0mg"},{"bike_id":"0aa90115-063a-4d75-b15e-a623ba8a4a04","system_id":"levelo_inurba_marseille","lat":43.291697,"lon":5.371393,"is_reserved":false,"is_disabled":false,"rental_uris":{"android":"levelo://app?vid=0aa90115-063a-4d75-b15e-a623ba8a4a04","ios":"levelo://app?vid=0aa90115-063a-4d75-b15e-a623ba8a4a04"},"vehicle_type_id":"4","last_reported":1746278247,"current_range_meters":5600,"station_id":"ce4bha92rcd13ifvqeh0","pricing_plan_id":"cebpf4jnsgd1na2vs0mg"},{"bike_id":"a69ccf4e-5743-4dc3-a630-b2344bf0c864","system_id":"levelo_inurba_marseille","lat":43.317,"lon":5.3773,"is_reserved":false,"is_disabled":false,"rental_uris":{"android":"levelo://app?vid=a69ccf4e-5743-4dc3-a630-b2344bf0c864","ios":"levelo://app?vid=a69ccf4e-5743-4dc3-a630-b2344bf0c864"},"vehicle_type_id":"4","last_reported":1746278247,"current_range_meters":6000,"station_id":"ce4bgth2rcd13ifvqch0","pricing_plan_id":"cebpf4jnsgd1na2vs0mg"},{"bike_id":"0f7a7641-ce60-4818-a3d2-d75c332cfd76","system_id":"levelo_inurba_marseille","lat":43.23193,"lon":5.35544,"is_reserved":false,"is_disabled":false,"rental_uris":{"android":"levelo://app?vid=0f7a7641-ce60-4818-a3d2-d75c332cfd76","ios":"levelo://app?vid=0f7a7641-ce60-4818-a3d2-d75c332cfd76"},"vehicle_type_id":"4","last_reported":1746278247,"current_range_meters":6000,"station_id":"ce4bhu92rcd13ifvqi70","pricing_plan_id":"cebpf4jnsgd1na2vs0mg"},{"bike_id":"f6bf875f-bbc8-4030-87eb-12c535329e5e","system_id":"levelo_inurba_marseille","lat":43.26228,"lon":5.40448,"is_reserved":false,"is_disabled":false,"rental_uris":{"android":"levelo://app?vid=f6bf875f-bbc8-4030-87eb-12c535329e5e","ios":"levelo://app?vid=f6bf875f-bbc8-4030-87eb-12c535329e5e"},"vehicle_type_id":"4","last_reported":1746278247,"current_range_meters":6000,"station_id":"ce4bhmh2rcd13ifvqgmg","pricing_plan_id":"cebpf4jnsgd1na2vs0mg"},{"bike_id":"c91ef7ff-9ba6-4edc-81cb-e80e5f06db53","system_id":"levelo_inurba_marseille","lat":43.26211,"lon":5.37444,"is_reserved":false,"is_disabled":false,"rental_uris":{"android":"levelo://app?vid=c91ef7ff-9ba6-4edc-81cb-e80e5f06db53","ios":"levelo://app?vid=c91ef7ff-9ba6-4edc-81cb-e80e5f06db53"},"vehicle_type_id":"4","last_reported":1746278247,"current_range_meters":5600,"station_id":"ce4bhgp2rcd13ifvqfc0","pricing_plan_id":"cebpf4jnsgd1na2vs0mg"},{"bike_id":"e139a03b-f331-41bd-a444-b33a07787dd9","system_id":"levelo_inurba_marseille","lat":43.3088,"lon":5.37423,"is_reserved":false,"is_disabled":false,"rental_uris":{"android":"levelo://app?vid=e139a03b-f331-41bd-a444-b33a07787dd9","ios":"levelo://app?vid=e139a03b-f331-41bd-a444-b33a07787dd9"},"vehicle_type_id":"4","last_reported":1746278247,"current_range_meters":6000,"station_id":"","pricing_plan_id":"cebpf4jnsgd1na2vs0mg"},{"bike_id":"42cf9ce1-7b8f-48f6-93b9-bb9aeef66e38","system_id":"levelo_inurba_marseille","lat":43.271011,"lon":5.422393,"is_reserved":false,"is_disabled":false,"rental_uris":{"android":"levelo://app?vid=42cf9ce1-7b8f-48f6-93b9-bb9aeef66e38","ios":"levelo://app?vid=42cf9ce1-7b8f-48f6-93b9-bb9aeef66e38"},"vehicle_type_id":"4","last_reported":1746278247,"current_range_meters":6400,"station_id":"ce4bhk92rcd13ifvqgb0","pricing_plan_id":"cebpf4jnsgd1na2vs0mg"},{"bike_id":"39e10fad-0d0b-4cf2-a53f-c5062cd29db7","system_id":"levelo_inurba_marseille","lat":43.2903,"lon":5.39963,"is_reserved":false,"is_disabled":false,"rental_uris":{"android":"levelo://app?vid=39e10fad-0d0b-4cf2-a53f-c5062cd29db7","ios":"levelo://app?vid=39e10fad-0d0b-4cf2-a53f-c5062cd29db7"},"vehicle_type_id":"4","last_reported":1746278247,"current_range_meters":6400,"station_id":"ce4bh392rcd13ifvqdm0","pricing_plan_id":"cebpf4jnsgd1na2vs0mg"},{"bike_id":"c366d889-0990-42a4-8cb1-b1b8fb1eb0d8","system_id":"levelo_inurba_marseille","lat":43.29276,"lon":5.36842,"is_reserved":false,"is_disabled":false,"rental_uris":{"android":"levelo://app?vid=c366d889-0990-42a4-8cb1-b1b8fb1eb0d8","ios":"levelo://app?vid=c366d889-0990-42a4-8cb1-b1b8fb1eb0d8"},"vehicle_type_id":"4","last_reported":1746278247,"current_range_meters":6800,"station_id":"ce4bhbp2rcd13ifvqesg","pricing_plan_id":"cebpf4jnsgd1na2vs0mg"},{"bike_id":"f560165f-930f-4243-a8d4-115925412f03","system_id":"levelo_inurba_marseille","lat":43.3065,"lon":5.40094,"is_reserved":false,"is_disabled":false,"rental_uris":{"android":"levelo://app?vid=f560165f-930f-4243-a8d4-115925412f03","ios":"levelo://app?vid=f560165f-930f-4243-a8d4-115925412f03"},"vehicle_type_id":"4","last_reported":1746278247,"current_range_meters":6800,"station_id":"ce4bh112rcd13ifvqda0","pricing_plan_id":"cebpf4jnsgd1na2vs0mg"},{"bike_id":"62b6a680-5f99-465a-98b6-0efe3ef83813","system_id":"levelo_inurba_marseille","lat":43.2319,"lon":5.35562,"is_reserved":false,"is_disabled":false,"rental_uris":{"android":"levelo://app?vid=62b6a680-5f99-465a-98b6-0efe3ef83813","ios":"levelo://app?vid=62b6a680-5f99-465a-98b6-0efe3ef83813"},"vehicle_type_id":"4","last_reported":1746278247,"current_range_meters":7200,"station_id":"ce4bhu92rcd13ifvqi70","pricing_plan_id":"cebpf4jnsgd1na2vs0mg"},{"bike_id":"5b9238d4-b62f-479f-88db-255f8d78812c","system_id":"levelo_inurba_marseille","lat":43.239622,"lon":5.366256,"is_reserved":false,"is_disabled":false,"rental_uris":{"android":"levelo://app?vid=5b9238d4-b62f-479f-88db-255f8d78812c","ios":"levelo://app?vid=5b9238d4-b62f-479f-88db-255f8d78812c"},"vehicle_type_id":"4","last_reported":1746278247,"current_range_meters":7200,"station_id":"ce4bhi12rcd13ifvqfp0","pricing_plan_id":"cebpf4jnsgd1na2vs0mg"},{"bike_id":"19f91541-3518-4655-864a-3f10f57bafe7","system_id":"levelo_inurba_marseille","lat":43.26805,"lon":5.40269,"is_reserved":false,"is_disabled":false,"rental_uris":{"android":"levelo://app?vid=19f91541-3518-4655-864a-3f10f57bafe7","ios":"levelo://app?vid=19f91541-3518-4655-864a-3f10f57bafe7"},"vehicle_type_id":"4","last_reported":1746278247,"current_range_meters":7200,"station_id":"ce501612rcd8frsf0b60","pricing_plan_id":"cebpf4jnsgd1na2vs0mg"},{"bike_id":"65afbb64-b57b-4df9-bcf1-453e71e708ed","system_id":"levelo_inurba_marseille","lat":43.32047,"lon":5.41543,"is_reserved":false,"is_disabled":false,"rental_uris":{"android":"levelo://app?vid=65afbb64-b57b-4df9-bcf1-453e71e708ed","ios":"levelo://app?vid=65afbb64-b57b-4df9-bcf1-453e71e708ed"},"vehicle_type_id":"4","last_reported":1746278247,"current_range_meters":7200,"station_id":"ce4bhq92rcd13ifvqhkg","pricing_plan_id":"cebpf4jnsgd1na2vs0mg"},{"bike_id":"3967e6ce-46da-4724-8b6b-ac2d9f9fab5e","system_id":"levelo_inurba_marseille","lat":43.2962,"lon":5.37152,"is_reserved":false,"is_disabled":false,"rental_uris":{"android":"levelo://app?vid=3967e6ce-46da-4724-8b6b-ac2d9f9fab5e","ios":"levelo://app?vid=3967e6ce-46da-4724-8b6b-ac2d9f9fab5e"},"vehicle_type_id":"4","last_reported":1746278247,"current_range_meters":7200,"station_id":"ce4bgnh2rcd13ifvqc0g","pricing_plan_id":"cebpf4jnsgd1na2vs0mg"},{"bike_id":"1d3f7cbf-3db7-496b-a367-24c92f5a7d89","system_id":"levelo_inurba_marseille","lat":43.21192,"lon":5.35073,"is_reserved":false,"is_disabled":false,"rental_uris":{"android":"levelo://app?vid=1d3f7cbf-3db7-496b-a367-24c92f5a7d89","ios":"levelo://app?vid=1d3f7cbf-3db7-496b-a367-24c92f5a7d89"},"vehicle_type_id":"4","last_reported":1746278247,"current_range_meters":8000,"station_id":"st_cvj6sg6p6f1abm77japg","pricing_plan_id":"cebpf4jnsgd1na2vs0mg"},{"bike_id":"10664c03-6a56-4ff9-97c5-7c4b9fbea670","system_id":"levelo_inurba_marseille","lat":43.225035,"lon":5.347845,"is_reserved":false,"is_disabled":false,"rental_uris":{"android":"levelo://app?vid=10664c03-6a56-4ff9-97c5-7c4b9fbea670","ios":"levelo://app?vid=10664c03-6a56-4ff9-97c5-7c4b9fbea670"},"vehicle_type_id":"4","last_reported":1746278247,"current_range_meters":8000,"station_id":"st_cvj5dfep6f1abm77gieg","pricing_plan_id":"cebpf4jnsgd1na2vs0mg"},{"bike_id":"03f8f1a1-348f-43c1-810e-3f5bf3b4a5c6","system_id":"levelo_inurba_marseille","lat":43.24873,"lon":5.39414,"is_reserved":false,"is_disabled":false,"rental_uris":{"android":"levelo://app?vid=03f8f1a1-348f-43c1-810e-3f5bf3b4a5c6","ios":"levelo://app?vid=03f8f1a1-348f-43c1-810e-3f5bf3b4a5c6"},"vehicle_type_id":"4","last_reported":1746278247,"current_range_meters":8000,"station_id":"","pricing_plan_id":"cebpf4jnsgd1na2vs0mg"},{"bike_id":"c2572591-722d-4871-8c1c-32c9d3e183ba","system_id":"levelo_inurba_marseille","lat":43.28046,"lon":5.42735,"is_reserved":false,"is_disabled":false,"rental_uris":{"android":"levelo://app?vid=c2572591-722d-4871-8c1c-32c9d3e183ba","ios":"levelo://app?vid=c2572591-722d-4871-8c1c-32c9d3e183ba"},"vehicle_type_id":"4","last_reported":1746278247,"current_range_meters":8400,"station_id":"","pricing_plan_id":"cebpf4jnsgd1na2vs0mg"},{"bike_id":"bf3529cd-d2a9-485d-9fb2-90b4563d85ab","system_id":"levelo_inurba_marseille","lat":43.24391,"lon":5.37058,"is_reserved":false,"is_disabled":false,"rental_uris":{"android":"levelo://app?vid=bf3529cd-d2a9-485d-9fb2-90b4563d85ab","ios":"levelo://app?vid=bf3529cd-d2a9-485d-9fb2-90b4563d85ab"},"vehicle_type_id":"4","last_reported":1746278247,"current_range_meters":8400,"station_id":"ce4bhhh2rcd13ifvqfk0","pricing_plan_id":"cebpf4jnsgd1na2vs0mg"},{"bike_id":"bf4c1fc8-2664-4134-a414-a46fbf2caa8b","system_id":"levelo_inurba_marseille","lat":43.27368,"lon":5.36245,"is_reserved":false,"is_disabled":false,"rental_uris":{"android":"levelo://app?vid=bf4c1fc8-2664-4134-a414-a46fbf2caa8b","ios":"levelo://app?vid=bf4c1fc8-2664-4134-a414-a46fbf2caa8b"},"vehicle_type_id":"4","last_reported":1746278247,"current_range_meters":8400,"station_id":"ce4bhbh2rcd13ifvqeo0","pricing_plan_id":"cebpf4jnsgd1na2vs0mg"},{"bike_id":"cb67f421-e459-4c85-87c4-400d0506647b","system_id":"levelo_inurba_marseille","lat":43.24391,"lon":5.37063,"is_reserved":false,"is_disabled":false,"rental_uris":{"android":"levelo://app?vid=cb67f421-e459-4c85-87c4-400d0506647b","ios":"levelo://app?vid=cb67f421-e459-4c85-87c4-400d0506647b"},"vehicle_type_id":"4","last_reported":1746278247,"current_range_meters":8400,"station_id":"ce4bhhh2rcd13ifvqfk0","pricing_plan_id":"cebpf4jnsgd1na2vs0mg"},{"bike_id":"2247c8c5-0707-4520-a7eb-3df37dbf353a","system_id":"levelo_inurba_marseille","lat":43.27213,"lon":5.39172,"is_reserved":false,"is_disabled":false,"rental_uris":{"android":"levelo://app?vid=2247c8c5-0707-4520-a7eb-3df37dbf353a","ios":"levelo://app?vid=2247c8c5-0707-4520-a7eb-3df37dbf353a"},"vehicle_type_id":"4","last_reported":1746278247,"current_range_meters":8000,"station_id":"ce4bhhp2rcd13ifvqfm0","pricing_plan_id":"cebpf4jnsgd1na2vs0mg"},{"bike_id":"edb9ed3a-abe9-42d9-bf50-244d192d4292","system_id":"levelo_inurba_marseille","lat":43.28661,"lon":5.36333,"is_reserved":false,"is_disabled":false,"rental_uris":{"android":"levelo://app?vid=edb9ed3a-abe9-42d9-bf50-244d192d4292","ios":"levelo://app?vid=edb9ed3a-abe9-42d9-bf50-244d192d4292"},"vehicle_type_id":"4","last_reported":1746278247,"current_range_meters":8000,"station_id":"ce4bhah2rcd13ifvqej0","pricing_plan_id":"cebpf4jnsgd1na2vs0mg"},{"bike_id":"038a1734-ebe7-4044-b80c-b48b28f6964b","system_id":"levelo_inurba_marseille","lat":43.2996,"lon":5.41322,"is_reserved":false,"is_disabled":false,"rental_uris":{"android":"levelo://app?vid=038a1734-ebe7-4044-b80c-b48b28f6964b","ios":"levelo://app?vid=038a1734-ebe7-4044-b80c-b48b28f6964b"},"vehicle_type_id":"4","last_reported":1746278247,"current_range_meters":8400,"station_id":"ce4bhp12rcd13ifvqh9g","pricing_plan_id":"cebpf4jnsgd1na2vs0mg"},{"bike_id":"2ec6dd80-93b4-435e-89c9-9ef2c5604b75","system_id":"levelo_inurba_marseille","lat":43.241794,"lon":5.397195,"is_reserved":false,"is_disabled":false,"rental_uris":{"android":"levelo://app?vid=2ec6dd80-93b4-435e-89c9-9ef2c5604b75","ios":"levelo://app?vid=2ec6dd80-93b4-435e-89c9-9ef2c5604b75"},"vehicle_type_id":"4","last_reported":1746278247,"current_range_meters":8800,"station_id":"ce4bhn12rcd13ifvqgpg","pricing_plan_id":"cebpf4jnsgd1na2vs0mg"},{"bike_id":"ceb7bbc0-0abe-4c68-8877-1b73485c0d71","system_id":"levelo_inurba_marseille","lat":43.27315,"lon":5.36238,"is_reserved":false,"is_disabled":false,"rental_uris":{"android":"levelo://app?vid=ceb7bbc0-0abe-4c68-8877-1b73485c0d71","ios":"levelo://app?vid=ceb7bbc0-0abe-4c68-8877-1b73485c0d71"},"vehicle_type_id":"4","last_reported":1746278247,"current_range_meters":8800,"station_id":"","pricing_plan_id":"cebpf4jnsgd1na2vs0mg"},{"bike_id":"4d2fe1ca-70c8-4826-aba6-9aa47bdf7f8c","system_id":"levelo_inurba_marseille","lat":43.26196,"lon":5.37446,"is_reserved":false,"is_disabled":false,"rental_uris":{"android":"levelo://app?vid=4d2fe1ca-70c8-4826-aba6-9aa47bdf7f8c","ios":"levelo://app?vid=4d2fe1ca-70c8-4826-aba6-9aa47bdf7f8c"},"vehicle_type_id":"4","last_reported":1746278247,"current_range_meters":8800,"station_id":"ce4bhgp2rcd13ifvqfc0","pricing_plan_id":"cebpf4jnsgd1na2vs0mg"},{"bike_id":"20ccbdaf-8a76-4cd4-87af-fb59c08e81dc","system_id":"levelo_inurba_marseille","lat":43.23195,"lon":5.35556,"is_reserved":false,"is_disabled":false,"rental_uris":{"android":"levelo://app?vid=20ccbdaf-8a76-4cd4-87af-fb59c08e81dc","ios":"levelo://app?vid=20ccbdaf-8a76-4cd4-87af-fb59c08e81dc"},"vehicle_type_id":"4","last_reported":1746278247,"current_range_meters":8800,"station_id":"ce4bhu92rcd13ifvqi70","pricing_plan_id":"cebpf4jnsgd1na2vs0mg"},{"bike_id":"a2b5f75b-8b31-4025-975c-0028449e52cd","system_id":"levelo_inurba_marseille","lat":43.241707,"lon":5.397231,"is_reserved":false,"is_disabled":false,"rental_uris":{"android":"levelo://app?vid=a2b5f75b-8b31-4025-975c-0028449e52cd","ios":"levelo://app?vid=a2b5f75b-8b31-4025-975c-0028449e52cd"},"vehicle_type_id":"4","last_reported":1746278247,"current_range_meters":8800,"station_id":"ce4bhn12rcd13ifvqgpg","pricing_plan_id":"cebpf4jnsgd1na2vs0mg"},{"bike_id":"e27ce41e-d31e-4411-a762-387f29d91877","system_id":"levelo_inurba_marseille","lat":43.29549,"lon":5.42273,"is_reserved":false,"is_disabled":false,"rental_uris":{"android":"levelo://app?vid=e27ce41e-d31e-4411-a762-387f29d91877","ios":"levelo://app?vid=e27ce41e-d31e-4411-a762-387f29d91877"},"vehicle_type_id":"4","last_reported":1746278247,"current_range_meters":9200,"station_id":"ce4bhph2rcd13ifvqhdg","pricing_plan_id":"cebpf4jnsgd1na2vs0mg"},{"bike_id":"570b486c-50df-4f1f-97df-caa86c0d419e","system_id":"levelo_inurba_marseille","lat":43.33717,"lon":5.35581,"is_reserved":false,"is_disabled":false,"rental_uris":{"android":"levelo://app?vid=570b486c-50df-4f1f-97df-caa86c0d419e","ios":"levelo://app?vid=570b486c-50df-4f1f-97df-caa86c0d419e"},"vehicle_type_id":"4","last_reported":1746278247,"current_range_meters":9200,"station_id":"","pricing_plan_id":"cebpf4jnsgd1na2vs0mg"},{"bike_id":"e0e163c0-b70c-478b-a240-966060226969","system_id":"levelo_inurba_marseille","lat":43.29254,"lon":5.36195,"is_reserved":false,"is_disabled":false,"rental_uris":{"android":"levelo://app?vid=e0e163c0-b70c-478b-a240-966060226969","ios":"levelo://app?vid=e0e163c0-b70c-478b-a240-966060226969"},"vehicle_type_id":"4","last_reported":1746278247,"current_range_meters":9200,"station_id":"","pricing_plan_id":"cebpf4jnsgd1na2vs0mg"},{"bike_id":"b0c72abf-0863-41c8-ba88-7288e695c012","system_id":"levelo_inurba_marseille","lat":43.26191,"lon":5.37454,"is_reserved":false,"is_disabled":false,"rental_uris":{"android":"levelo://app?vid=b0c72abf-0863-41c8-ba88-7288e695c012","ios":"levelo://app?vid=b0c72abf-0863-41c8-ba88-7288e695c012"},"vehicle_type_id":"4","last_reported":1746278247,"current_range_meters":9200,"station_id":"ce4bhgp2rcd13ifvqfc0","pricing_plan_id":"cebpf4jnsgd1na2vs0mg"},{"bike_id":"2cce8745-f47d-491d-9776-93cf9f036027","system_id":"levelo_inurba_marseille","lat":43.308053,"lon":5.435349,"is_reserved":false,"is_disabled":false,"rental_uris":{"android":"levelo://app?vid=2cce8745-f47d-491d-9776-93cf9f036027","ios":"levelo://app?vid=2cce8745-f47d-491d-9776-93cf9f036027"},"vehicle_type_id":"4","last_reported":1746278247,"current_range_meters":9200,"station_id":"ce4bhph2rcd13ifvqheg","pricing_plan_id":"cebpf4jnsgd1na2vs0mg"},{"bike_id":"30380250-a2cc-4ca9-aa52-6e36990cb6ac","system_id":"levelo_inurba_marseille","lat":43.2396,"lon":5.36633,"is_reserved":false,"is_disabled":false,"rental_uris":{"android":"levelo://app?vid=30380250-a2cc-4ca9-aa52-6e36990cb6ac","ios":"levelo://app?vid=30380250-a2cc-4ca9-aa52-6e36990cb6ac"},"vehicle_type_id":"4","last_reported":1746278247,"current_range_meters":9600,"station_id":"ce4bhi12rcd13ifvqfp0","pricing_plan_id":"cebpf4jnsgd1na2vs0mg"},{"bike_id":"6bcfafe9-e0dc-4830-a2ef-8fbcb15314a2","system_id":"levelo_inurba_marseille","lat":43.29558,"lon":5.4227,"is_reserved":false,"is_disabled":false,"rental_uris":{"android":"levelo://app?vid=6bcfafe9-e0dc-4830-a2ef-8fbcb15314a2","ios":"levelo://app?vid=6bcfafe9-e0dc-4830-a2ef-8fbcb15314a2"},"vehicle_type_id":"4","last_reported":1746278247,"current_range_meters":9600,"station_id":"ce4bhph2rcd13ifvqhdg","pricing_plan_id":"cebpf4jnsgd1na2vs0mg"},{"bike_id":"f6835f36-6aec-44ba-a694-f76d7eb9b13f","system_id":"levelo_inurba_marseille","lat":43.23961,"lon":5.36626,"is_reserved":false,"is_disabled":false,"rental_uris":{"android":"levelo://app?vid=f6835f36-6aec-44ba-a694-f76d7eb9b13f","ios":"levelo://app?vid=f6835f36-6aec-44ba-a694-f76d7eb9b13f"},"vehicle_type_id":"4","last_reported":1746278247,"current_range_meters":9600,"station_id":"ce4bhi12rcd13ifvqfp0","pricing_plan_id":"cebpf4jnsgd1na2vs0mg"},{"bike_id":"04bb6f96-9e39-4108-8723-bc204926f7d5","system_id":"levelo_inurba_marseille","lat":43.282767,"lon":5.350822,"is_reserved":false,"is_disabled":false,"rental_uris":{"android":"levelo://app?vid=04bb6f96-9e39-4108-8723-bc204926f7d5","ios":"levelo://app?vid=04bb6f96-9e39-4108-8723-bc204926f7d5"},"vehicle_type_id":"4","last_reported":1746278247,"current_range_meters":10000,"station_id":"ce4bhbp2rcd13ifvqerg","pricing_plan_id":"cebpf4jnsgd1na2vs0mg"},{"bike_id":"dfb3396e-96f5-457c-af11-f6f27dad33e9","system_id":"levelo_inurba_marseille","lat":43.27206,"lon":5.36468,"is_reserved":false,"is_disabled":false,"rental_uris":{"android":"levelo://app?vid=dfb3396e-96f5-457c-af11-f6f27dad33e9","ios":"levelo://app?vid=dfb3396e-96f5-457c-af11-f6f27dad33e9"},"vehicle_type_id":"4","last_reported":1746278247,"current_range_meters":10000,"station_id":"","pricing_plan_id":"cebpf4jnsgd1na2vs0mg"},{"bike_id":"fc40ec3b-7224-4ded-8af2-fd24f7d21854","system_id":"levelo_inurba_marseille","lat":43.337444,"lon":5.374475,"is_reserved":false,"is_disabled":false,"rental_uris":{"android":"levelo://app?vid=fc40ec3b-7224-4ded-8af2-fd24f7d21854","ios":"levelo://app?vid=fc40ec3b-7224-4ded-8af2-fd24f7d21854"},"vehicle_type_id":"4","last_reported":1746278247,"current_range_meters":10000,"station_id":"","pricing_plan_id":"cebpf4jnsgd1na2vs0mg"},{"bike_id":"954855f4-97d8-496d-b615-ab787b758e9b","system_id":"levelo_inurba_marseille","lat":43.29403,"lon":5.38623,"is_reserved":false,"is_disabled":false,"rental_uris":{"android":"levelo://app?vid=954855f4-97d8-496d-b615-ab787b758e9b","ios":"levelo://app?vid=954855f4-97d8-496d-b615-ab787b758e9b"},"vehicle_type_id":"4","last_reported":1746278247,"current_range_meters":10000,"station_id":"ce4bh2h2rcd13ifvqdh0","pricing_plan_id":"cebpf4jnsgd1na2vs0mg"},{"bike_id":"d6fca117-0b75-4d46-b112-e4517691aa07","system_id":"levelo_inurba_marseille","lat":43.23195,"lon":5.35544,"is_reserved":false,"is_disabled":false,"rental_uris":{"android":"levelo://app?vid=d6fca117-0b75-4d46-b112-e4517691aa07","ios":"levelo://app?vid=d6fca117-0b75-4d46-b112-e4517691aa07"},"vehicle_type_id":"4","last_reported":1746278247,"current_range_meters":10000,"station_id":"ce4bhu92rcd13ifvqi70","pricing_plan_id":"cebpf4jnsgd1na2vs0mg"},{"bike_id":"b24e07bd-9940-4fbc-90d1-2cb45feb6973","system_id":"levelo_inurba_marseille","lat":43.30137,"lon":5.3878,"is_reserved":false,"is_disabled":false,"rental_uris":{"android":"levelo://app?vid=b24e07bd-9940-4fbc-90d1-2cb45feb6973","ios":"levelo://app?vid=b24e07bd-9940-4fbc-90d1-2cb45feb6973"},"vehicle_type_id":"4","last_reported":1746278247,"current_range_meters":10000,"station_id":"","pricing_plan_id":"cebpf4jnsgd1na2vs0mg"},{"bike_id":"e64ff1ce-72ef-4c00-a62f-153c3888d1bf","system_id":"levelo_inurba_marseille","lat":43.25118,"lon":5.40312,"is_reserved":false,"is_disabled":false,"rental_uris":{"android":"levelo://app?vid=e64ff1ce-72ef-4c00-a62f-153c3888d1bf","ios":"levelo://app?vid=e64ff1ce-72ef-4c00-a62f-153c3888d1bf"},"vehicle_type_id":"4","last_reported":1746278247,"current_range_meters":9600,"station_id":"ce4bhlh2rcd13ifvqgig","pricing_plan_id":"cebpf4jnsgd1na2vs0mg"},{"bike_id":"f6136f00-b6b5-48ee-b9f8-5a00e87db14b","system_id":"levelo_inurba_marseille","lat":43.22923,"lon":5.35372,"is_reserved":false,"is_disabled":false,"rental_uris":{"android":"levelo://app?vid=f6136f00-b6b5-48ee-b9f8-5a00e87db14b","ios":"levelo://app?vid=f6136f00-b6b5-48ee-b9f8-5a00e87db14b"},"vehicle_type_id":"4","last_reported":1746278247,"current_range_meters":10000,"station_id":"cpo3532slgdg3j2ikp40","pricing_plan_id":"cebpf4jnsgd1na2vs0mg"},{"bike_id":"70195365-0218-4988-85fc-a8c5dcd3a1e6","system_id":"levelo_inurba_marseille","lat":43.32477,"lon":5.36555,"is_reserved":false,"is_disabled":false,"rental_uris":{"android":"levelo://app?vid=70195365-0218-4988-85fc-a8c5dcd3a1e6","ios":"levelo://app?vid=70195365-0218-4988-85fc-a8c5dcd3a1e6"},"vehicle_type_id":"4","last_reported":1746278247,"current_range_meters":9600,"station_id":"ce4bhs12rcd13ifvqhvg","pricing_plan_id":"cebpf4jnsgd1na2vs0mg"},{"bike_id":"198408b7-fd14-4a9d-839a-fc4dddb07c4d","system_id":"levelo_inurba_marseille","lat":43.21747,"lon":5.346,"is_reserved":false,"is_disabled":false,"rental_uris":{"android":"levelo://app?vid=198408b7-fd14-4a9d-839a-fc4dddb07c4d","ios":"levelo://app?vid=198408b7-fd14-4a9d-839a-fc4dddb07c4d"},"vehicle_type_id":"4","last_reported":1746278247,"current_range_meters":10000,"station_id":"st_cvj6r9ubvosntc0bgbag","pricing_plan_id":"cebpf4jnsgd1na2vs0mg"},{"bike_id":"44338dce-04ea-474f-b209-01413827126b","system_id":"levelo_inurba_marseille","lat":43.27375,"lon":5.36249,"is_reserved":false,"is_disabled":false,"rental_uris":{"android":"levelo://app?vid=44338dce-04ea-474f-b209-01413827126b","ios":"levelo://app?vid=44338dce-04ea-474f-b209-01413827126b"},"vehicle_type_id":"4","last_reported":1746278247,"current_range_meters":10000,"station_id":"ce4bhbh2rcd13ifvqeo0","pricing_plan_id":"cebpf4jnsgd1na2vs0mg"},{"bike_id":"aab36647-a4f7-4b1c-ae21-454fbe0244f2","system_id":"levelo_inurba_marseille","lat":43.321207,"lon":5.367682,"is_reserved":false,"is_disabled":false,"rental_uris":{"android":"levelo://app?vid=aab36647-a4f7-4b1c-ae21-454fbe0244f2","ios":"levelo://app?vid=aab36647-a4f7-4b1c-ae21-454fbe0244f2"},"vehicle_type_id":"4","last_reported":1746278247,"current_range_meters":10800,"station_id":"ce4bhrh2rcd13ifvqhug","pricing_plan_id":"cebpf4jnsgd1na2vs0mg"},{"bike_id":"c1d1d359-1671-4de4-980d-a20ef28bd411","system_id":"levelo_inurba_marseille","lat":43.23965,"lon":5.36633,"is_reserved":false,"is_disabled":false,"rental_uris":{"android":"levelo://app?vid=c1d1d359-1671-4de4-980d-a20ef28bd411","ios":"levelo://app?vid=c1d1d359-1671-4de4-980d-a20ef28bd411"},"vehicle_type_id":"4","last_reported":1746278247,"current_range_meters":10800,"station_id":"ce4bhi12rcd13ifvqfp0","pricing_plan_id":"cebpf4jnsgd1na2vs0mg"},{"bike_id":"2e6965d3-9b5d-4ec1-a3a3-003adfe5560b","system_id":"levelo_inurba_marseille","lat":43.25917,"lon":5.4087,"is_reserved":false,"is_disabled":false,"rental_uris":{"android":"levelo://app?vid=2e6965d3-9b5d-4ec1-a3a3-003adfe5560b","ios":"levelo://app?vid=2e6965d3-9b5d-4ec1-a3a3-003adfe5560b"},"vehicle_type_id":"4","last_reported":1746278247,"current_range_meters":10800,"station_id":"ce4bhm92rcd13ifvqglg","pricing_plan_id":"cebpf4jnsgd1na2vs0mg"},{"bike_id":"b1595e67-442e-4617-a000-a4a6c53e17aa","system_id":"levelo_inurba_marseille","lat":43.25495,"lon":5.37643,"is_reserved":false,"is_disabled":false,"rental_uris":{"android":"levelo://app?vid=b1595e67-442e-4617-a000-a4a6c53e17aa","ios":"levelo://app?vid=b1595e67-442e-4617-a000-a4a6c53e17aa"},"vehicle_type_id":"4","last_reported":1746278247,"current_range_meters":10800,"station_id":"ce4bhh12rcd13ifvqff0","pricing_plan_id":"cebpf4jnsgd1na2vs0mg"},{"bike_id":"f1ffd2b9-91e9-4bf5-a319-6e95940b0de6","system_id":"levelo_inurba_marseille","lat":43.29561,"lon":5.42283,"is_reserved":false,"is_disabled":false,"rental_uris":{"android":"levelo://app?vid=f1ffd2b9-91e9-4bf5-a319-6e95940b0de6","ios":"levelo://app?vid=f1ffd2b9-91e9-4bf5-a319-6e95940b0de6"},"vehicle_type_id":"4","last_reported":1746278247,"current_range_meters":10800,"station_id":"ce4bhph2rcd13ifvqhdg","pricing_plan_id":"cebpf4jnsgd1na2vs0mg"},{"bike_id":"410d256f-7676-499e-ab11-ed2197775a5a","system_id":"levelo_inurba_marseille","lat":43.243713,"lon":5.370669,"is_reserved":false,"is_disabled":false,"rental_uris":{"android":"levelo://app?vid=410d256f-7676-499e-ab11-ed2197775a5a","ios":"levelo://app?vid=410d256f-7676-499e-ab11-ed2197775a5a"},"vehicle_type_id":"4","last_reported":1746278247,"current_range_meters":10800,"station_id":"ce4bhhh2rcd13ifvqfk0","pricing_plan_id":"cebpf4jnsgd1na2vs0mg"},{"bike_id":"e8566405-af3f-46ce-9442-21576463b432","system_id":"levelo_inurba_marseille","lat":43.30613,"lon":5.37214,"is_reserved":false,"is_disabled":false,"rental_uris":{"android":"levelo://app?vid=e8566405-af3f-46ce-9442-21576463b432","ios":"levelo://app?vid=e8566405-af3f-46ce-9442-21576463b432"},"vehicle_type_id":"4","last_reported":1746278247,"current_range_meters":10800,"station_id":"ce4bgqh2rcd13ifvqc4g","pricing_plan_id":"cebpf4jnsgd1na2vs0mg"},{"bike_id":"fd2c3c67-23a6-4380-b7ca-8f23c8f78921","system_id":"levelo_inurba_marseille","lat":43.323555,"lon":5.367502,"is_reserved":false,"is_disabled":false,"rental_uris":{"android":"levelo://app?vid=fd2c3c67-23a6-4380-b7ca-8f23c8f78921","ios":"levelo://app?vid=fd2c3c67-23a6-4380-b7ca-8f23c8f78921"},"vehicle_type_id":"4","last_reported":1746278247,"current_range_meters":11200,"station_id":"ce4bhsh2rcd13ifvqi2g","pricing_plan_id":"cebpf4jnsgd1na2vs0mg"},{"bike_id":"dfb114fd-1585-4655-8386-c140132901c4","system_id":"levelo_inurba_marseille","lat":43.23152,"lon":5.43702,"is_reserved":false,"is_disabled":false,"rental_uris":{"android":"levelo://app?vid=dfb114fd-1585-4655-8386-c140132901c4","ios":"levelo://app?vid=dfb114fd-1585-4655-8386-c140132901c4"},"vehicle_type_id":"4","last_reported":1746278247,"current_range_meters":11200,"station_id":"ce4bhmp2rcd13ifvqgog","pricing_plan_id":"cebpf4jnsgd1na2vs0mg"},{"bike_id":"623ada8d-9118-472c-b74a-3764e2b42a70","system_id":"levelo_inurba_marseille","lat":43.24106,"lon":5.37743,"is_reserved":false,"is_disabled":false,"rental_uris":{"android":"levelo://app?vid=623ada8d-9118-472c-b74a-3764e2b42a70","ios":"levelo://app?vid=623ada8d-9118-472c-b74a-3764e2b42a70"},"vehicle_type_id":"4","last_reported":1746278247,"current_range_meters":11200,"station_id":"ce4bhnp2rcd13ifvqgvg","pricing_plan_id":"cebpf4jnsgd1na2vs0mg"},{"bike_id":"57d6aa59-5bf6-412b-a4c2-17e0c424e9c8","system_id":"levelo_inurba_marseille","lat":43.23061,"lon":5.35489,"is_reserved":false,"is_disabled":false,"rental_uris":{"android":"levelo://app?vid=57d6aa59-5bf6-412b-a4c2-17e0c424e9c8","ios":"levelo://app?vid=57d6aa59-5bf6-412b-a4c2-17e0c424e9c8"},"vehicle_type_id":"4","last_reported":1746278247,"current_range_meters":11600,"station_id":"cpo3342slgdg3j2ifvpg","pricing_plan_id":"cebpf4jnsgd1na2vs0mg"},{"bike_id":"5e1d765b-b55b-4be2-835f-928adb328dc1","system_id":"levelo_inurba_marseille","lat":43.23201,"lon":5.35547,"is_reserved":false,"is_disabled":false,"rental_uris":{"android":"levelo://app?vid=5e1d765b-b55b-4be2-835f-928adb328dc1","ios":"levelo://app?vid=5e1d765b-b55b-4be2-835f-928adb328dc1"},"vehicle_type_id":"4","last_reported":1746278247,"current_range_meters":11600,"station_id":"ce4bhu92rcd13ifvqi70","pricing_plan_id":"cebpf4jnsgd1na2vs0mg"},{"bike_id":"35e4c317-f173-43b1-b91f-ac1c8794cca2","system_id":"levelo_inurba_marseille","lat":43.298918,"lon":5.397354,"is_reserved":false,"is_disabled":false,"rental_uris":{"android":"levelo://app?vid=35e4c317-f173-43b1-b91f-ac1c8794cca2","ios":"levelo://app?vid=35e4c317-f173-43b1-b91f-ac1c8794cca2"},"vehicle_type_id":"4","last_reported":1746278247,"current_range_meters":12000,"station_id":"ce4bhbh2rcd13ifvqeo0","pricing_plan_id":"cebpf4jnsgd1na2vs0mg"},{"bike_id":"a978adc6-201e-4b96-b42f-9c074698e1bc","system_id":"levelo_inurba_marseille","lat":43.23962,"lon":5.36635,"is_reserved":false,"is_disabled":false,"rental_uris":{"android":"levelo://app?vid=a978adc6-201e-4b96-b42f-9c074698e1bc","ios":"levelo://app?vid=a978adc6-201e-4b96-b42f-9c074698e1bc"},"vehicle_type_id":"4","last_reported":1746278247,"current_range_meters":12000,"station_id":"ce4bhi12rcd13ifvqfp0","pricing_plan_id":"cebpf4jnsgd1na2vs0mg"},{"bike_id":"b67936d6-81f5-4a1a-ba4e-70e70cd59cfc","system_id":"levelo_inurba_marseille","lat":43.24162,"lon":5.36399,"is_reserved":false,"is_disabled":false,"rental_uris":{"android":"levelo://app?vid=b67936d6-81f5-4a1a-ba4e-70e70cd59cfc","ios":"levelo://app?vid=b67936d6-81f5-4a1a-ba4e-70e70cd59cfc"},"vehicle_type_id":"4","last_reported":1746278247,"current_range_meters":12400,"station_id":"cpo36qri1sfpv3e86is0","pricing_plan_id":"cebpf4jnsgd1na2vs0mg"},{"bike_id":"7f524aff-60e8-475a-ba24-c1d3f7b54046","system_id":"levelo_inurba_marseille","lat":43.26212,"lon":5.37437,"is_reserved":false,"is_disabled":false,"rental_uris":{"android":"levelo://app?vid=7f524aff-60e8-475a-ba24-c1d3f7b54046","ios":"levelo://app?vid=7f524aff-60e8-475a-ba24-c1d3f7b54046"},"vehicle_type_id":"4","last_reported":1746278247,"current_range_meters":12400,"station_id":"ce4bhgp2rcd13ifvqfc0","pricing_plan_id":"cebpf4jnsgd1na2vs0mg"},{"bike_id":"0c9d6c7c-fd78-4aeb-a3f8-af2c188466be","system_id":"levelo_inurba_marseille","lat":43.299133,"lon":5.381005,"is_reserved":false,"is_disabled":false,"rental_uris":{"android":"levelo://app?vid=0c9d6c7c-fd78-4aeb-a3f8-af2c188466be","ios":"levelo://app?vid=0c9d6c7c-fd78-4aeb-a3f8-af2c188466be"},"vehicle_type_id":"4","last_reported":1746278247,"current_range_meters":12800,"station_id":"","pricing_plan_id":"cebpf4jnsgd1na2vs0mg"},{"bike_id":"2db315d7-6b60-4521-953d-fd64fd209a38","system_id":"levelo_inurba_marseille","lat":43.27373,"lon":5.36257,"is_reserved":false,"is_disabled":false,"rental_uris":{"android":"levelo://app?vid=2db315d7-6b60-4521-953d-fd64fd209a38","ios":"levelo://app?vid=2db315d7-6b60-4521-953d-fd64fd209a38"},"vehicle_type_id":"4","last_reported":1746278247,"current_range_meters":12800,"station_id":"ce4bhbh2rcd13ifvqeo0","pricing_plan_id":"cebpf4jnsgd1na2vs0mg"},{"bike_id":"8375a602-2984-4c43-8822-4a9ef47a3126","system_id":"levelo_inurba_marseille","lat":43.27371,"lon":5.36246,"is_reserved":false,"is_disabled":false,"rental_uris":{"android":"levelo://app?vid=8375a602-2984-4c43-8822-4a9ef47a3126","ios":"levelo://app?vid=8375a602-2984-4c43-8822-4a9ef47a3126"},"vehicle_type_id":"4","last_reported":1746278247,"current_range_meters":12800,"station_id":"ce4bhbh2rcd13ifvqeo0","pricing_plan_id":"cebpf4jnsgd1na2vs0mg"},{"bike_id":"91533154-ce4e-45f6-aca9-f67de918019a","system_id":"levelo_inurba_marseille","lat":43.21748,"lon":5.34602,"is_reserved":false,"is_disabled":false,"rental_uris":{"android":"levelo://app?vid=91533154-ce4e-45f6-aca9-f67de918019a","ios":"levelo://app?vid=91533154-ce4e-45f6-aca9-f67de918019a"},"vehicle_type_id":"4","last_reported":1746278247,"current_range_meters":17200,"station_id":"st_cvj6r9ubvosntc0bgbag","pricing_plan_id":"cebpf4jnsgd1na2vs0mg"},{"bike_id":"9b2cb68d-891d-437c-9770-6e885df24586","system_id":"levelo_inurba_marseille","lat":43.31271,"lon":5.40162,"is_reserved":false,"is_disabled":false,"rental_uris":{"android":"levelo://app?vid=9b2cb68d-891d-437c-9770-6e885df24586","ios":"levelo://app?vid=9b2cb68d-891d-437c-9770-6e885df24586"},"vehicle_type_id":"4","last_reported":1746278247,"current_range_meters":12800,"station_id":"ce4bh092rcd13ifvqd30","pricing_plan_id":"cebpf4jnsgd1na2vs0mg"},{"bike_id":"503185c3-0d76-4716-9a21-96143ff68830","system_id":"levelo_inurba_marseille","lat":43.21205,"lon":5.35049,"is_reserved":false,"is_disabled":false,"rental_uris":{"android":"levelo://app?vid=503185c3-0d76-4716-9a21-96143ff68830","ios":"levelo://app?vid=503185c3-0d76-4716-9a21-96143ff68830"},"vehicle_type_id":"4","last_reported":1746278247,"current_range_meters":13600,"station_id":"st_cvj6sg6p6f1abm77japg","pricing_plan_id":"cebpf4jnsgd1na2vs0mg"},{"bike_id":"24bdbb0e-62f8-45fd-92de-6c0cb99f2644","system_id":"levelo_inurba_marseille","lat":43.2827,"lon":5.35057,"is_reserved":false,"is_disabled":false,"rental_uris":{"android":"levelo://app?vid=24bdbb0e-62f8-45fd-92de-6c0cb99f2644","ios":"levelo://app?vid=24bdbb0e-62f8-45fd-92de-6c0cb99f2644"},"vehicle_type_id":"4","last_reported":1746278247,"current_range_meters":14000,"station_id":"ce4bhbp2rcd13ifvqerg","pricing_plan_id":"cebpf4jnsgd1na2vs0mg"},{"bike_id":"5b826206-4d35-483e-9723-70ff57ab60c5","system_id":"levelo_inurba_marseille","lat":43.21751,"lon":5.34608,"is_reserved":false,"is_disabled":false,"rental_uris":{"android":"levelo://app?vid=5b826206-4d35-483e-9723-70ff57ab60c5","ios":"levelo://app?vid=5b826206-4d35-483e-9723-70ff57ab60c5"},"vehicle_type_id":"4","last_reported":1746278247,"current_range_meters":14000,"station_id":"st_cvj6r9ubvosntc0bgbag","pricing_plan_id":"cebpf4jnsgd1na2vs0mg"},{"bike_id":"09aaf479-3cdb-45d1-9481-1fc987b79273","system_id":"levelo_inurba_marseille","lat":43.241813,"lon":5.397311,"is_reserved":false,"is_disabled":false,"rental_uris":{"android":"levelo://app?vid=09aaf479-3cdb-45d1-9481-1fc987b79273","ios":"levelo://app?vid=09aaf479-3cdb-45d1-9481-1fc987b79273"},"vehicle_type_id":"4","last_reported":1746278247,"current_range_meters":14000,"station_id":"ce4bhn12rcd13ifvqgpg","pricing_plan_id":"cebpf4jnsgd1na2vs0mg"},{"bike_id":"fb80c1da-d845-467b-9c3b-2f591f4d56ae","system_id":"levelo_inurba_marseille","lat":43.323406,"lon":5.37422,"is_reserved":false,"is_disabled":false,"rental_uris":{"android":"levelo://app?vid=fb80c1da-d845-467b-9c3b-2f591f4d56ae","ios":"levelo://app?vid=fb80c1da-d845-467b-9c3b-2f591f4d56ae"},"vehicle_type_id":"4","last_reported":1746278247,"current_range_meters":14400,"station_id":"","pricing_plan_id":"cebpf4jnsgd1na2vs0mg"},{"bike_id":"d1425f8b-4ee2-4234-adf2-33ee09f6306d","system_id":"levelo_inurba_marseille","lat":43.231523,"lon":5.436937,"is_reserved":false,"is_disabled":false,"rental_uris":{"android":"levelo://app?vid=d1425f8b-4ee2-4234-adf2-33ee09f6306d","ios":"levelo://app?vid=d1425f8b-4ee2-4234-adf2-33ee09f6306d"},"vehicle_type_id":"4","last_reported":1746278247,"current_range_meters":14400,"station_id":"ce4bhmp2rcd13ifvqgog","pricing_plan_id":"cebpf4jnsgd1na2vs0mg"},{"bike_id":"aedf206f-89f3-4f30-9da6-56fb7ff8915b","system_id":"levelo_inurba_marseille","lat":43.281047,"lon":5.403866,"is_reserved":false,"is_disabled":false,"rental_uris":{"android":"levelo://app?vid=aedf206f-89f3-4f30-9da6-56fb7ff8915b","ios":"levelo://app?vid=aedf206f-89f3-4f30-9da6-56fb7ff8915b"},"vehicle_type_id":"4","last_reported":1746278247,"current_range_meters":14400,"station_id":"","pricing_plan_id":"cebpf4jnsgd1na2vs0mg"},{"bike_id":"50290b22-d2c1-4789-83fc-8aded9fda4d4","system_id":"levelo_inurba_marseille","lat":43.27369,"lon":5.3625,"is_reserved":false,"is_disabled":false,"rental_uris":{"android":"levelo://app?vid=50290b22-d2c1-4789-83fc-8aded9fda4d4","ios":"levelo://app?vid=50290b22-d2c1-4789-83fc-8aded9fda4d4"},"vehicle_type_id":"4","last_reported":1746278247,"current_range_meters":14800,"station_id":"ce4bhbh2rcd13ifvqeo0","pricing_plan_id":"cebpf4jnsgd1na2vs0mg"},{"bike_id":"f72e4edc-e658-4902-be5c-882b1f65b363","system_id":"levelo_inurba_marseille","lat":43.25932,"lon":5.40905,"is_reserved":false,"is_disabled":false,"rental_uris":{"android":"levelo://app?vid=f72e4edc-e658-4902-be5c-882b1f65b363","ios":"levelo://app?vid=f72e4edc-e658-4902-be5c-882b1f65b363"},"vehicle_type_id":"4","last_reported":1746278247,"current_range_meters":14800,"station_id":"ce4bhm92rcd13ifvqglg","pricing_plan_id":"cebpf4jnsgd1na2vs0mg"},{"bike_id":"cb03c35e-7947-4f6d-ad0a-71e9d565d41f","system_id":"levelo_inurba_marseille","lat":43.31323,"lon":5.39689,"is_reserved":false,"is_disabled":false,"rental_uris":{"android":"levelo://app?vid=cb03c35e-7947-4f6d-ad0a-71e9d565d41f","ios":"levelo://app?vid=cb03c35e-7947-4f6d-ad0a-71e9d565d41f"},"vehicle_type_id":"4","last_reported":1746278247,"current_range_meters":14400,"station_id":"ce4bgvp2rcd13ifvqcu0","pricing_plan_id":"cebpf4jnsgd1na2vs0mg"},{"bike_id":"822d5076-7dd3-4d27-aa88-e0f6fa8b34f3","system_id":"levelo_inurba_marseille","lat":43.21192,"lon":5.35067,"is_reserved":false,"is_disabled":false,"rental_uris":{"android":"levelo://app?vid=822d5076-7dd3-4d27-aa88-e0f6fa8b34f3","ios":"levelo://app?vid=822d5076-7dd3-4d27-aa88-e0f6fa8b34f3"},"vehicle_type_id":"4","last_reported":1746278247,"current_range_meters":15200,"station_id":"st_cvj6sg6p6f1abm77japg","pricing_plan_id":"cebpf4jnsgd1na2vs0mg"},{"bike_id":"31c54918-ec32-4234-94e4-ab9da1be312c","system_id":"levelo_inurba_marseille","lat":43.24171,"lon":5.36394,"is_reserved":false,"is_disabled":false,"rental_uris":{"android":"levelo://app?vid=31c54918-ec32-4234-94e4-ab9da1be312c","ios":"levelo://app?vid=31c54918-ec32-4234-94e4-ab9da1be312c"},"vehicle_type_id":"4","last_reported":1746278247,"current_range_meters":15200,"station_id":"cpo36qri1sfpv3e86is0","pricing_plan_id":"cebpf4jnsgd1na2vs0mg"},{"bike_id":"15fbd604-6a80-4032-b4b9-1a82be145491","system_id":"levelo_inurba_marseille","lat":43.28274,"lon":5.35073,"is_reserved":false,"is_disabled":false,"rental_uris":{"android":"levelo://app?vid=15fbd604-6a80-4032-b4b9-1a82be145491","ios":"levelo://app?vid=15fbd604-6a80-4032-b4b9-1a82be145491"},"vehicle_type_id":"4","last_reported":1746278247,"current_range_meters":15200,"station_id":"ce4bhbp2rcd13ifvqerg","pricing_plan_id":"cebpf4jnsgd1na2vs0mg"},{"bike_id":"0de616c7-c96e-4732-ab98-369375c6714d","system_id":"levelo_inurba_marseille","lat":43.29798,"lon":5.40406,"is_reserved":false,"is_disabled":false,"rental_uris":{"android":"levelo://app?vid=0de616c7-c96e-4732-ab98-369375c6714d","ios":"levelo://app?vid=0de616c7-c96e-4732-ab98-369375c6714d"},"vehicle_type_id":"4","last_reported":1746278247,"current_range_meters":15200,"station_id":"ce4bh112rcd13ifvqd90","pricing_plan_id":"cebpf4jnsgd1na2vs0mg"},{"bike_id":"6f1a7036-6750-4265-b21e-33cb23902c35","system_id":"levelo_inurba_marseille","lat":43.25493,"lon":5.3764,"is_reserved":false,"is_disabled":false,"rental_uris":{"android":"levelo://app?vid=6f1a7036-6750-4265-b21e-33cb23902c35","ios":"levelo://app?vid=6f1a7036-6750-4265-b21e-33cb23902c35"},"vehicle_type_id":"4","last_reported":1746278247,"current_range_meters":16400,"station_id":"","pricing_plan_id":"cebpf4jnsgd1na2vs0mg"},{"bike_id":"f8aead89-4921-4f03-b1c7-93896eaa4372","system_id":"levelo_inurba_marseille","lat":43.27377,"lon":5.36252,"is_reserved":false,"is_disabled":false,"rental_uris":{"android":"levelo://app?vid=f8aead89-4921-4f03-b1c7-93896eaa4372","ios":"levelo://app?vid=f8aead89-4921-4f03-b1c7-93896eaa4372"},"vehicle_type_id":"4","last_reported":1746278247,"current_range_meters":16000,"station_id":"ce4bhbh2rcd13ifvqeo0","pricing_plan_id":"cebpf4jnsgd1na2vs0mg"},{"bike_id":"77f8c6a5-2ce1-48c8-911f-a75758298564","system_id":"levelo_inurba_marseille","lat":43.289333,"lon":5.36635,"is_reserved":false,"is_disabled":false,"rental_uris":{"android":"levelo://app?vid=77f8c6a5-2ce1-48c8-911f-a75758298564","ios":"levelo://app?vid=77f8c6a5-2ce1-48c8-911f-a75758298564"},"vehicle_type_id":"4","last_reported":1746278247,"current_range_meters":16000,"station_id":"ce4bhap2rcd13ifvqek0","pricing_plan_id":"cebpf4jnsgd1na2vs0mg"},{"bike_id":"a4342359-f282-49ee-a353-c883ead521bd","system_id":"levelo_inurba_marseille","lat":43.21191,"lon":5.35067,"is_reserved":false,"is_disabled":false,"rental_uris":{"android":"levelo://app?vid=a4342359-f282-49ee-a353-c883ead521bd","ios":"levelo://app?vid=a4342359-f282-49ee-a353-c883ead521bd"},"vehicle_type_id":"4","last_reported":1746278247,"current_range_meters":16000,"station_id":"st_cvj6sg6p6f1abm77japg","pricing_plan_id":"cebpf4jnsgd1na2vs0mg"},{"bike_id":"caecb657-c95d-4d18-ae61-b6d651e8093b","system_id":"levelo_inurba_marseille","lat":43.28265,"lon":5.35064,"is_reserved":false,"is_disabled":false,"rental_uris":{"android":"levelo://app?vid=caecb657-c95d-4d18-ae61-b6d651e8093b","ios":"levelo://app?vid=caecb657-c95d-4d18-ae61-b6d651e8093b"},"vehicle_type_id":"4","last_reported":1746278247,"current_range_meters":16000,"station_id":"ce4bhbp2rcd13ifvqerg","pricing_plan_id":"cebpf4jnsgd1na2vs0mg"},{"bike_id":"9eda8183-0cd8-42e1-84d6-8c8409f8d5ee","system_id":"levelo_inurba_marseille","lat":43.24157,"lon":5.39701,"is_reserved":false,"is_disabled":false,"rental_uris":{"android":"levelo://app?vid=9eda8183-0cd8-42e1-84d6-8c8409f8d5ee","ios":"levelo://app?vid=9eda8183-0cd8-42e1-84d6-8c8409f8d5ee"},"vehicle_type_id":"4","last_reported":1746278247,"current_range_meters":16000,"station_id":"ce4bhn12rcd13ifvqgpg","pricing_plan_id":"cebpf4jnsgd1na2vs0mg"},{"bike_id":"5355703c-38d1-44ac-9759-2a681fbcacae","system_id":"levelo_inurba_marseille","lat":43.29912,"lon":5.37473,"is_reserved":false,"is_disabled":false,"rental_uris":{"android":"levelo://app?vid=5355703c-38d1-44ac-9759-2a681fbcacae","ios":"levelo://app?vid=5355703c-38d1-44ac-9759-2a681fbcacae"},"vehicle_type_id":"4","last_reported":1746278247,"current_range_meters":16000,"station_id":"ce4bgjh2rcd13ifvqbg0","pricing_plan_id":"cebpf4jnsgd1na2vs0mg"},{"bike_id":"0bb0a6cd-b8a5-41d3-88ec-e9648a03c7f5","system_id":"levelo_inurba_marseille","lat":43.25893,"lon":5.4096,"is_reserved":false,"is_disabled":false,"rental_uris":{"android":"levelo://app?vid=0bb0a6cd-b8a5-41d3-88ec-e9648a03c7f5","ios":"levelo://app?vid=0bb0a6cd-b8a5-41d3-88ec-e9648a03c7f5"},"vehicle_type_id":"4","last_reported":1746278247,"current_range_meters":16000,"station_id":"ce4bhm92rcd13ifvqglg","pricing_plan_id":"cebpf4jnsgd1na2vs0mg"},{"bike_id":"3102f720-32db-4af0-b5ac-a58b39f8d3b2","system_id":"levelo_inurba_marseille","lat":43.241784,"lon":5.39727,"is_reserved":false,"is_disabled":false,"rental_uris":{"android":"levelo://app?vid=3102f720-32db-4af0-b5ac-a58b39f8d3b2","ios":"levelo://app?vid=3102f720-32db-4af0-b5ac-a58b39f8d3b2"},"vehicle_type_id":"4","last_reported":1746278247,"current_range_meters":16400,"station_id":"ce4bhn12rcd13ifvqgpg","pricing_plan_id":"cebpf4jnsgd1na2vs0mg"},{"bike_id":"ed2e7923-1d08-4206-986c-a1fe37936aee","system_id":"levelo_inurba_marseille","lat":43.2439,"lon":5.37051,"is_reserved":false,"is_disabled":false,"rental_uris":{"android":"levelo://app?vid=ed2e7923-1d08-4206-986c-a1fe37936aee","ios":"levelo://app?vid=ed2e7923-1d08-4206-986c-a1fe37936aee"},"vehicle_type_id":"4","last_reported":1746278247,"current_range_meters":16400,"station_id":"ce4bhhh2rcd13ifvqfk0","pricing_plan_id":"cebpf4jnsgd1na2vs0mg"},{"bike_id":"fccf862b-b8c9-42ee-af99-8482ae991eb6","system_id":"levelo_inurba_marseille","lat":43.24664,"lon":5.38163,"is_reserved":false,"is_disabled":false,"rental_uris":{"android":"levelo://app?vid=fccf862b-b8c9-42ee-af99-8482ae991eb6","ios":"levelo://app?vid=fccf862b-b8c9-42ee-af99-8482ae991eb6"},"vehicle_type_id":"4","last_reported":1746278247,"current_range_meters":16800,"station_id":"ce4bhih2rcd13ifvqfr0","pricing_plan_id":"cebpf4jnsgd1na2vs0mg"},{"bike_id":"0b556576-ed17-4eea-a32f-5254d136ae36","system_id":"levelo_inurba_marseille","lat":43.29417,"lon":5.38626,"is_reserved":false,"is_disabled":false,"rental_uris":{"android":"levelo://app?vid=0b556576-ed17-4eea-a32f-5254d136ae36","ios":"levelo://app?vid=0b556576-ed17-4eea-a32f-5254d136ae36"},"vehicle_type_id":"4","last_reported":1746278247,"current_range_meters":16000,"station_id":"ce4bh2h2rcd13ifvqdh0","pricing_plan_id":"cebpf4jnsgd1na2vs0mg"},{"bike_id":"3f5b4948-55dd-4c61-800b-d5df5f7e4e3a","system_id":"levelo_inurba_marseille","lat":43.21191,"lon":5.35069,"is_reserved":false,"is_disabled":false,"rental_uris":{"android":"levelo://app?vid=3f5b4948-55dd-4c61-800b-d5df5f7e4e3a","ios":"levelo://app?vid=3f5b4948-55dd-4c61-800b-d5df5f7e4e3a"},"vehicle_type_id":"4","last_reported":1746278247,"current_range_meters":16400,"station_id":"st_cvj6sg6p6f1abm77japg","pricing_plan_id":"cebpf4jnsgd1na2vs0mg"},{"bike_id":"baec3a48-7832-428f-bfc2-0f9a06df3065","system_id":"levelo_inurba_marseille","lat":43.259369,"lon":5.408983,"is_reserved":false,"is_disabled":false,"rental_uris":{"android":"levelo://app?vid=baec3a48-7832-428f-bfc2-0f9a06df3065","ios":"levelo://app?vid=baec3a48-7832-428f-bfc2-0f9a06df3065"},"vehicle_type_id":"4","last_reported":1746278247,"current_range_meters":16800,"station_id":"ce4bhm92rcd13ifvqglg","pricing_plan_id":"cebpf4jnsgd1na2vs0mg"},{"bike_id":"62cf4b7c-e989-4791-be24-64e8012dccc0","system_id":"levelo_inurba_marseille","lat":43.27379,"lon":5.36254,"is_reserved":false,"is_disabled":false,"rental_uris":{"android":"levelo://app?vid=62cf4b7c-e989-4791-be24-64e8012dccc0","ios":"levelo://app?vid=62cf4b7c-e989-4791-be24-64e8012dccc0"},"vehicle_type_id":"4","last_reported":1746278247,"current_range_meters":16800,"station_id":"ce4bhbh2rcd13ifvqeo0","pricing_plan_id":"cebpf4jnsgd1na2vs0mg"},{"bike_id":"952122e6-39bc-4299-bd60-94117abb2b66","system_id":"levelo_inurba_marseille","lat":43.23947,"lon":5.36625,"is_reserved":false,"is_disabled":false,"rental_uris":{"android":"levelo://app?vid=952122e6-39bc-4299-bd60-94117abb2b66","ios":"levelo://app?vid=952122e6-39bc-4299-bd60-94117abb2b66"},"vehicle_type_id":"4","last_reported":1746278247,"current_range_meters":16800,"station_id":"ce4bhi12rcd13ifvqfp0","pricing_plan_id":"cebpf4jnsgd1na2vs0mg"},{"bike_id":"a3bc2359-39e4-4d03-aa5e-8ffa409341e2","system_id":"levelo_inurba_marseille","lat":43.29905,"lon":5.43698,"is_reserved":false,"is_disabled":false,"rental_uris":{"android":"levelo://app?vid=a3bc2359-39e4-4d03-aa5e-8ffa409341e2","ios":"levelo://app?vid=a3bc2359-39e4-4d03-aa5e-8ffa409341e2"},"vehicle_type_id":"4","last_reported":1746278247,"current_range_meters":16800,"station_id":"","pricing_plan_id":"cebpf4jnsgd1na2vs0mg"},{"bike_id":"a42e3c2f-4751-42ec-9416-1425735345c7","system_id":"levelo_inurba_marseille","lat":43.29571,"lon":5.37526,"is_reserved":false,"is_disabled":false,"rental_uris":{"android":"levelo://app?vid=a42e3c2f-4751-42ec-9416-1425735345c7","ios":"levelo://app?vid=a42e3c2f-4751-42ec-9416-1425735345c7"},"vehicle_type_id":"4","last_reported":1746278247,"current_range_meters":16800,"station_id":"ce4bgh92rcd13ifvqb50","pricing_plan_id":"cebpf4jnsgd1na2vs0mg"},{"bike_id":"9fe1eaeb-780e-48cd-98bf-fa4661e6fb9d","system_id":"levelo_inurba_marseille","lat":43.241689,"lon":5.363929,"is_reserved":false,"is_disabled":false,"rental_uris":{"android":"levelo://app?vid=9fe1eaeb-780e-48cd-98bf-fa4661e6fb9d","ios":"levelo://app?vid=9fe1eaeb-780e-48cd-98bf-fa4661e6fb9d"},"vehicle_type_id":"4","last_reported":1746278247,"current_range_meters":17200,"station_id":"cpo36qri1sfpv3e86is0","pricing_plan_id":"cebpf4jnsgd1na2vs0mg"},{"bike_id":"e34635f3-8b2d-4d19-b499-3d4413f28d2f","system_id":"levelo_inurba_marseille","lat":43.2119,"lon":5.35074,"is_reserved":false,"is_disabled":false,"rental_uris":{"android":"levelo://app?vid=e34635f3-8b2d-4d19-b499-3d4413f28d2f","ios":"levelo://app?vid=e34635f3-8b2d-4d19-b499-3d4413f28d2f"},"vehicle_type_id":"4","last_reported":1746278247,"current_range_meters":17200,"station_id":"st_cvj6sg6p6f1abm77japg","pricing_plan_id":"cebpf4jnsgd1na2vs0mg"},{"bike_id":"e2dc34df-a38f-43c7-a4f6-e06ffb8e37fd","system_id":"levelo_inurba_marseille","lat":43.27374,"lon":5.3626,"is_reserved":false,"is_disabled":false,"rental_uris":{"android":"levelo://app?vid=e2dc34df-a38f-43c7-a4f6-e06ffb8e37fd","ios":"levelo://app?vid=e2dc34df-a38f-43c7-a4f6-e06ffb8e37fd"},"vehicle_type_id":"4","last_reported":1746278247,"current_range_meters":17200,"station_id":"ce4bhbh2rcd13ifvqeo0","pricing_plan_id":"cebpf4jnsgd1na2vs0mg"},{"bike_id":"b51e8583-0fb2-49ca-9c11-9dbce28dfa5d","system_id":"levelo_inurba_marseille","lat":43.23194,"lon":5.35555,"is_reserved":false,"is_disabled":false,"rental_uris":{"android":"levelo://app?vid=b51e8583-0fb2-49ca-9c11-9dbce28dfa5d","ios":"levelo://app?vid=b51e8583-0fb2-49ca-9c11-9dbce28dfa5d"},"vehicle_type_id":"4","last_reported":1746278247,"current_range_meters":17200,"station_id":"ce4bhu92rcd13ifvqi70","pricing_plan_id":"cebpf4jnsgd1na2vs0mg"},{"bike_id":"43580de2-2781-4103-8514-2bfafc9158a6","system_id":"levelo_inurba_marseille","lat":43.2418,"lon":5.36396,"is_reserved":false,"is_disabled":false,"rental_uris":{"android":"levelo://app?vid=43580de2-2781-4103-8514-2bfafc9158a6","ios":"levelo://app?vid=43580de2-2781-4103-8514-2bfafc9158a6"},"vehicle_type_id":"4","last_reported":1746278247,"current_range_meters":17200,"station_id":"cpo36qri1sfpv3e86is0","pricing_plan_id":"cebpf4jnsgd1na2vs0mg"},{"bike_id":"184d36e9-a949-4a6d-931b-c35ee7602e69","system_id":"levelo_inurba_marseille","lat":43.24171,"lon":5.36395,"is_reserved":false,"is_disabled":false,"rental_uris":{"android":"levelo://app?vid=184d36e9-a949-4a6d-931b-c35ee7602e69","ios":"levelo://app?vid=184d36e9-a949-4a6d-931b-c35ee7602e69"},"vehicle_type_id":"4","last_reported":1746278247,"current_range_meters":17600,"station_id":"cpo36qri1sfpv3e86is0","pricing_plan_id":"cebpf4jnsgd1na2vs0mg"},{"bike_id":"72789978-7665-4d5d-a341-ca7ee4b86745","system_id":"levelo_inurba_marseille","lat":43.23048,"lon":5.35483,"is_reserved":false,"is_disabled":false,"rental_uris":{"android":"levelo://app?vid=72789978-7665-4d5d-a341-ca7ee4b86745","ios":"levelo://app?vid=72789978-7665-4d5d-a341-ca7ee4b86745"},"vehicle_type_id":"4","last_reported":1746278247,"current_range_meters":17600,"station_id":"cpo3342slgdg3j2ifvpg","pricing_plan_id":"cebpf4jnsgd1na2vs0mg"},{"bike_id":"b6ecfc91-4481-4bb2-bd1b-a33023a24a1b","system_id":"levelo_inurba_marseille","lat":43.211922,"lon":5.350734,"is_reserved":false,"is_disabled":false,"rental_uris":{"android":"levelo://app?vid=b6ecfc91-4481-4bb2-bd1b-a33023a24a1b","ios":"levelo://app?vid=b6ecfc91-4481-4bb2-bd1b-a33023a24a1b"},"vehicle_type_id":"4","last_reported":1746278247,"current_range_meters":17600,"station_id":"st_cvj6sg6p6f1abm77japg","pricing_plan_id":"cebpf4jnsgd1na2vs0mg"},{"bike_id":"c8e16fcb-5510-4723-b6e7-2aa49c1b3b8d","system_id":"levelo_inurba_marseille","lat":43.31965,"lon":5.37043,"is_reserved":false,"is_disabled":false,"rental_uris":{"android":"levelo://app?vid=c8e16fcb-5510-4723-b6e7-2aa49c1b3b8d","ios":"levelo://app?vid=c8e16fcb-5510-4723-b6e7-2aa49c1b3b8d"},"vehicle_type_id":"4","last_reported":1746278247,"current_range_meters":17600,"station_id":"","pricing_plan_id":"cebpf4jnsgd1na2vs0mg"},{"bike_id":"ec6da0aa-0845-4bad-8a7b-8655154f5109","system_id":"levelo_inurba_marseille","lat":43.30802,"lon":5.43526,"is_reserved":false,"is_disabled":false,"rental_uris":{"android":"levelo://app?vid=ec6da0aa-0845-4bad-8a7b-8655154f5109","ios":"levelo://app?vid=ec6da0aa-0845-4bad-8a7b-8655154f5109"},"vehicle_type_id":"4","last_reported":1746278247,"current_range_meters":17600,"station_id":"ce4bhph2rcd13ifvqheg","pricing_plan_id":"cebpf4jnsgd1na2vs0mg"},{"bike_id":"8ef8e415-3a8e-4e37-94d1-5c69550e4819","system_id":"levelo_inurba_marseille","lat":43.28629,"lon":5.35082,"is_reserved":false,"is_disabled":false,"rental_uris":{"android":"levelo://app?vid=8ef8e415-3a8e-4e37-94d1-5c69550e4819","ios":"levelo://app?vid=8ef8e415-3a8e-4e37-94d1-5c69550e4819"},"vehicle_type_id":"4","last_reported":1746278247,"current_range_meters":17600,"station_id":"ce4bhch2rcd13ifvqeug","pricing_plan_id":"cebpf4jnsgd1na2vs0mg"},{"bike_id":"b5d4e3d3-c549-4a23-9151-5d11e349839d","system_id":"levelo_inurba_marseille","lat":43.21202,"lon":5.35059,"is_reserved":false,"is_disabled":false,"rental_uris":{"android":"levelo://app?vid=b5d4e3d3-c549-4a23-9151-5d11e349839d","ios":"levelo://app?vid=b5d4e3d3-c549-4a23-9151-5d11e349839d"},"vehicle_type_id":"4","last_reported":1746278247,"current_range_meters":18000,"station_id":"st_cvj6sg6p6f1abm77japg","pricing_plan_id":"cebpf4jnsgd1na2vs0mg"},{"bike_id":"2cd00fa1-aa9b-4b46-86ba-129fb9364ad2","system_id":"levelo_inurba_marseille","lat":43.23145,"lon":5.43717,"is_reserved":false,"is_disabled":false,"rental_uris":{"android":"levelo://app?vid=2cd00fa1-aa9b-4b46-86ba-129fb9364ad2","ios":"levelo://app?vid=2cd00fa1-aa9b-4b46-86ba-129fb9364ad2"},"vehicle_type_id":"4","last_reported":1746278247,"current_range_meters":18000,"station_id":"ce4bhmp2rcd13ifvqgog","pricing_plan_id":"cebpf4jnsgd1na2vs0mg"},{"bike_id":"31846cd9-5d1c-4ae5-9690-1eb646eb5f3d","system_id":"levelo_inurba_marseille","lat":43.21745,"lon":5.34603,"is_reserved":false,"is_disabled":false,"rental_uris":{"android":"levelo://app?vid=31846cd9-5d1c-4ae5-9690-1eb646eb5f3d","ios":"levelo://app?vid=31846cd9-5d1c-4ae5-9690-1eb646eb5f3d"},"vehicle_type_id":"4","last_reported":1746278247,"current_range_meters":18000,"station_id":"","pricing_plan_id":"cebpf4jnsgd1na2vs0mg"},{"bike_id":"b07fb12b-e0f7-4ed3-8eff-8b03f8df1cfe","system_id":"levelo_inurba_marseille","lat":43.28265,"lon":5.35072,"is_reserved":false,"is_disabled":false,"rental_uris":{"android":"levelo://app?vid=b07fb12b-e0f7-4ed3-8eff-8b03f8df1cfe","ios":"levelo://app?vid=b07fb12b-e0f7-4ed3-8eff-8b03f8df1cfe"},"vehicle_type_id":"4","last_reported":1746278247,"current_range_meters":18000,"station_id":"ce4bhbp2rcd13ifvqerg","pricing_plan_id":"cebpf4jnsgd1na2vs0mg"},{"bike_id":"b44f9884-ad91-4c4f-8556-0c40c7f3c478","system_id":"levelo_inurba_marseille","lat":43.23192,"lon":5.35544,"is_reserved":false,"is_disabled":false,"rental_uris":{"android":"levelo://app?vid=b44f9884-ad91-4c4f-8556-0c40c7f3c478","ios":"levelo://app?vid=b44f9884-ad91-4c4f-8556-0c40c7f3c478"},"vehicle_type_id":"4","last_reported":1746278247,"current_range_meters":18000,"station_id":"ce4bhu92rcd13ifvqi70","pricing_plan_id":"cebpf4jnsgd1na2vs0mg"},{"bike_id":"b3016e8f-dd22-4591-a8b4-19b3dd23a609","system_id":"levelo_inurba_marseille","lat":43.29885,"lon":5.39748,"is_reserved":false,"is_disabled":false,"rental_uris":{"android":"levelo://app?vid=b3016e8f-dd22-4591-a8b4-19b3dd23a609","ios":"levelo://app?vid=b3016e8f-dd22-4591-a8b4-19b3dd23a609"},"vehicle_type_id":"4","last_reported":1746278247,"current_range_meters":18000,"station_id":"ce4bh0h2rcd13ifvqd50","pricing_plan_id":"cebpf4jnsgd1na2vs0mg"},{"bike_id":"cc20eaa1-8af4-4e99-b065-e348a0d0eb41","system_id":"levelo_inurba_marseille","lat":43.27676,"lon":5.38868,"is_reserved":false,"is_disabled":false,"rental_uris":{"android":"levelo://app?vid=cc20eaa1-8af4-4e99-b065-e348a0d0eb41","ios":"levelo://app?vid=cc20eaa1-8af4-4e99-b065-e348a0d0eb41"},"vehicle_type_id":"4","last_reported":1746278247,"current_range_meters":18000,"station_id":"ce4bhi12rcd13ifvqfo0","pricing_plan_id":"cebpf4jnsgd1na2vs0mg"},{"bike_id":"9face1f0-169a-4db4-afa4-e5bf5cb833b1","system_id":"levelo_inurba_marseille","lat":43.27618,"lon":5.36106,"is_reserved":false,"is_disabled":false,"rental_uris":{"android":"levelo://app?vid=9face1f0-169a-4db4-afa4-e5bf5cb833b1","ios":"levelo://app?vid=9face1f0-169a-4db4-afa4-e5bf5cb833b1"},"vehicle_type_id":"4","last_reported":1746278247,"current_range_meters":18800,"station_id":"ce4bgj92rcd13ifvqbe0","pricing_plan_id":"cebpf4jnsgd1na2vs0mg"},{"bike_id":"18fbd8c8-1cb4-476f-97db-011ad4054505","system_id":"levelo_inurba_marseille","lat":43.29806,"lon":5.38102,"is_reserved":false,"is_disabled":false,"rental_uris":{"android":"levelo://app?vid=18fbd8c8-1cb4-476f-97db-011ad4054505","ios":"levelo://app?vid=18fbd8c8-1cb4-476f-97db-011ad4054505"},"vehicle_type_id":"4","last_reported":1746278247,"current_range_meters":18800,"station_id":"ce4bgip2rcd13ifvqbb0","pricing_plan_id":"cebpf4jnsgd1na2vs0mg"},{"bike_id":"fe3402fa-010e-49a7-9738-90cf54be6235","system_id":"levelo_inurba_marseille","lat":43.27376,"lon":5.36266,"is_reserved":false,"is_disabled":false,"rental_uris":{"android":"levelo://app?vid=fe3402fa-010e-49a7-9738-90cf54be6235","ios":"levelo://app?vid=fe3402fa-010e-49a7-9738-90cf54be6235"},"vehicle_type_id":"4","last_reported":1746278247,"current_range_meters":18800,"station_id":"ce4bhbh2rcd13ifvqeo0","pricing_plan_id":"cebpf4jnsgd1na2vs0mg"},{"bike_id":"e7061e18-ac4e-46b7-92e8-430d3604c3dd","system_id":"levelo_inurba_marseille","lat":43.231934,"lon":5.355491,"is_reserved":false,"is_disabled":false,"rental_uris":{"android":"levelo://app?vid=e7061e18-ac4e-46b7-92e8-430d3604c3dd","ios":"levelo://app?vid=e7061e18-ac4e-46b7-92e8-430d3604c3dd"},"vehicle_type_id":"4","last_reported":1746278247,"current_range_meters":18800,"station_id":"ce4bhu92rcd13ifvqi70","pricing_plan_id":"cebpf4jnsgd1na2vs0mg"},{"bike_id":"cb06b34a-ed36-47a6-8d09-45a1d4eda444","system_id":"levelo_inurba_marseille","lat":43.2119,"lon":5.35058,"is_reserved":false,"is_disabled":false,"rental_uris":{"android":"levelo://app?vid=cb06b34a-ed36-47a6-8d09-45a1d4eda444","ios":"levelo://app?vid=cb06b34a-ed36-47a6-8d09-45a1d4eda444"},"vehicle_type_id":"4","last_reported":1746278247,"current_range_meters":19200,"station_id":"st_cvj6sg6p6f1abm77japg","pricing_plan_id":"cebpf4jnsgd1na2vs0mg"},{"bike_id":"80279788-182a-47cd-b625-101bc4a5aaf0","system_id":"levelo_inurba_marseille","lat":43.23062,"lon":5.35486,"is_reserved":false,"is_disabled":false,"rental_uris":{"android":"levelo://app?vid=80279788-182a-47cd-b625-101bc4a5aaf0","ios":"levelo://app?vid=80279788-182a-47cd-b625-101bc4a5aaf0"},"vehicle_type_id":"4","last_reported":1746278247,"current_range_meters":19200,"station_id":"cpo3342slgdg3j2ifvpg","pricing_plan_id":"cebpf4jnsgd1na2vs0mg"},{"bike_id":"40fd19f4-44fe-44e9-821b-b3af5edff61f","system_id":"levelo_inurba_marseille","lat":43.21193,"lon":5.350653,"is_reserved":false,"is_disabled":false,"rental_uris":{"android":"levelo://app?vid=40fd19f4-44fe-44e9-821b-b3af5edff61f","ios":"levelo://app?vid=40fd19f4-44fe-44e9-821b-b3af5edff61f"},"vehicle_type_id":"4","last_reported":1746278247,"current_range_meters":19200,"station_id":"st_cvj6sg6p6f1abm77japg","pricing_plan_id":"cebpf4jnsgd1na2vs0mg"},{"bike_id":"82096d33-6e7c-4001-94cb-fd6abccad13c","system_id":"levelo_inurba_marseille","lat":43.27326,"lon":5.39072,"is_reserved":false,"is_disabled":false,"rental_uris":{"android":"levelo://app?vid=82096d33-6e7c-4001-94cb-fd6abccad13c","ios":"levelo://app?vid=82096d33-6e7c-4001-94cb-fd6abccad13c"},"vehicle_type_id":"4","last_reported":1746278247,"current_range_meters":19200,"station_id":"ce4bhgp2rcd13ifvqfe0","pricing_plan_id":"cebpf4jnsgd1na2vs0mg"},{"bike_id":"f03a5053-e373-4816-adf1-eb3ac30272c9","system_id":"levelo_inurba_marseille","lat":43.29937,"lon":5.36548,"is_reserved":false,"is_disabled":false,"rental_uris":{"android":"levelo://app?vid=f03a5053-e373-4816-adf1-eb3ac30272c9","ios":"levelo://app?vid=f03a5053-e373-4816-adf1-eb3ac30272c9"},"vehicle_type_id":"4","last_reported":1746278247,"current_range_meters":19200,"station_id":"ce4bgm92rcd13ifvqbr0","pricing_plan_id":"cebpf4jnsgd1na2vs0mg"},{"bike_id":"48b89a22-48a4-441f-8095-cafac174cc18","system_id":"levelo_inurba_marseille","lat":43.23964,"lon":5.36638,"is_reserved":false,"is_disabled":false,"rental_uris":{"android":"levelo://app?vid=48b89a22-48a4-441f-8095-cafac174cc18","ios":"levelo://app?vid=48b89a22-48a4-441f-8095-cafac174cc18"},"vehicle_type_id":"4","last_reported":1746278247,"current_range_meters":19600,"station_id":"ce4bhi12rcd13ifvqfp0","pricing_plan_id":"cebpf4jnsgd1na2vs0mg"},{"bike_id":"633f4cac-9696-4e15-bb10-152509541b56","system_id":"levelo_inurba_marseille","lat":43.323572,"lon":5.36745,"is_reserved":false,"is_disabled":false,"rental_uris":{"android":"levelo://app?vid=633f4cac-9696-4e15-bb10-152509541b56","ios":"levelo://app?vid=633f4cac-9696-4e15-bb10-152509541b56"},"vehicle_type_id":"4","last_reported":1746278247,"current_range_meters":19600,"station_id":"ce4bhsh2rcd13ifvqi2g","pricing_plan_id":"cebpf4jnsgd1na2vs0mg"},{"bike_id":"13363505-45f1-4011-a4e0-784b8f4c8d4d","system_id":"levelo_inurba_marseille","lat":43.29967,"lon":5.37172,"is_reserved":false,"is_disabled":false,"rental_uris":{"android":"levelo://app?vid=13363505-45f1-4011-a4e0-784b8f4c8d4d","ios":"levelo://app?vid=13363505-45f1-4011-a4e0-784b8f4c8d4d"},"vehicle_type_id":"4","last_reported":1746278247,"current_range_meters":19200,"station_id":"ce4bgr92rcd13ifvqc7g","pricing_plan_id":"cebpf4jnsgd1na2vs0mg"},{"bike_id":"a156a43b-a454-494b-9663-fdd53beb9caa","system_id":"levelo_inurba_marseille","lat":43.217483,"lon":5.346026,"is_reserved":false,"is_disabled":false,"rental_uris":{"android":"levelo://app?vid=a156a43b-a454-494b-9663-fdd53beb9caa","ios":"levelo://app?vid=a156a43b-a454-494b-9663-fdd53beb9caa"},"vehicle_type_id":"4","last_reported":1746278247,"current_range_meters":19600,"station_id":"st_cvj6r9ubvosntc0bgbag","pricing_plan_id":"cebpf4jnsgd1na2vs0mg"},{"bike_id":"e3bc48d3-90a2-4eb7-89f5-bb8d3f5f69b1","system_id":"levelo_inurba_marseille","lat":43.27374,"lon":5.36256,"is_reserved":false,"is_disabled":false,"rental_uris":{"android":"levelo://app?vid=e3bc48d3-90a2-4eb7-89f5-bb8d3f5f69b1","ios":"levelo://app?vid=e3bc48d3-90a2-4eb7-89f5-bb8d3f5f69b1"},"vehicle_type_id":"4","last_reported":1746278247,"current_range_meters":19600,"station_id":"ce4bhbh2rcd13ifvqeo0","pricing_plan_id":"cebpf4jnsgd1na2vs0mg"},{"bike_id":"899f1c13-7008-4f05-81eb-05e3064d591d","system_id":"levelo_inurba_marseille","lat":43.28153,"lon":5.36359,"is_reserved":false,"is_disabled":false,"rental_uris":{"android":"levelo://app?vid=899f1c13-7008-4f05-81eb-05e3064d591d","ios":"levelo://app?vid=899f1c13-7008-4f05-81eb-05e3064d591d"},"vehicle_type_id":"4","last_reported":1746278247,"current_range_meters":20000,"station_id":"","pricing_plan_id":"cebpf4jnsgd1na2vs0mg"},{"bike_id":"f9fd9159-a7a1-4329-b200-077f3a6e2e7b","system_id":"levelo_inurba_marseille","lat":43.23155,"lon":5.43711,"is_reserved":false,"is_disabled":false,"rental_uris":{"android":"levelo://app?vid=f9fd9159-a7a1-4329-b200-077f3a6e2e7b","ios":"levelo://app?vid=f9fd9159-a7a1-4329-b200-077f3a6e2e7b"},"vehicle_type_id":"4","last_reported":1746278247,"current_range_meters":19600,"station_id":"ce4bhmp2rcd13ifvqgog","pricing_plan_id":"cebpf4jnsgd1na2vs0mg"},{"bike_id":"26ec4b6d-fcf9-4733-ac09-91116d07bbf9","system_id":"levelo_inurba_marseille","lat":43.24998,"lon":5.38928,"is_reserved":false,"is_disabled":false,"rental_uris":{"android":"levelo://app?vid=26ec4b6d-fcf9-4733-ac09-91116d07bbf9","ios":"levelo://app?vid=26ec4b6d-fcf9-4733-ac09-91116d07bbf9"},"vehicle_type_id":"4","last_reported":1746278247,"current_range_meters":19600,"station_id":"ce4bhgp2rcd13ifvqfd0","pricing_plan_id":"cebpf4jnsgd1na2vs0mg"},{"bike_id":"fc4ac6c4-a4c2-469b-80b7-918e2173beff","system_id":"levelo_inurba_marseille","lat":43.29845,"lon":5.36276,"is_reserved":false,"is_disabled":false,"rental_uris":{"android":"levelo://app?vid=fc4ac6c4-a4c2-469b-80b7-918e2173beff","ios":"levelo://app?vid=fc4ac6c4-a4c2-469b-80b7-918e2173beff"},"vehicle_type_id":"4","last_reported":1746278247,"current_range_meters":20000,"station_id":"ce4bgpp2rcd13ifvqc3g","pricing_plan_id":"cebpf4jnsgd1na2vs0mg"},{"bike_id":"a08b8711-717f-4c87-99b4-43928dae1238","system_id":"levelo_inurba_marseille","lat":43.27376,"lon":5.36253,"is_reserved":false,"is_disabled":false,"rental_uris":{"android":"levelo://app?vid=a08b8711-717f-4c87-99b4-43928dae1238","ios":"levelo://app?vid=a08b8711-717f-4c87-99b4-43928dae1238"},"vehicle_type_id":"4","last_reported":1746278247,"current_range_meters":20000,"station_id":"ce4bhbh2rcd13ifvqeo0","pricing_plan_id":"cebpf4jnsgd1na2vs0mg"},{"bike_id":"fabf2925-9bd4-424b-868f-8f1d1e6774c1","system_id":"levelo_inurba_marseille","lat":43.2293,"lon":5.35371,"is_reserved":false,"is_disabled":false,"rental_uris":{"android":"levelo://app?vid=fabf2925-9bd4-424b-868f-8f1d1e6774c1","ios":"levelo://app?vid=fabf2925-9bd4-424b-868f-8f1d1e6774c1"},"vehicle_type_id":"4","last_reported":1746278247,"current_range_meters":20000,"station_id":"cpo3532slgdg3j2ikp40","pricing_plan_id":"cebpf4jnsgd1na2vs0mg"},{"bike_id":"7f8d572f-b350-43f7-baf5-c3c3d6caefff","system_id":"levelo_inurba_marseille","lat":43.23195,"lon":5.35551,"is_reserved":false,"is_disabled":false,"rental_uris":{"android":"levelo://app?vid=7f8d572f-b350-43f7-baf5-c3c3d6caefff","ios":"levelo://app?vid=7f8d572f-b350-43f7-baf5-c3c3d6caefff"},"vehicle_type_id":"4","last_reported":1746278247,"current_range_meters":20000,"station_id":"ce4bhu92rcd13ifvqi70","pricing_plan_id":"cebpf4jnsgd1na2vs0mg"},{"bike_id":"24b78269-41ed-49ab-ab3c-5ff9ff98ccce","system_id":"levelo_inurba_marseille","lat":43.29567,"lon":5.39971,"is_reserved":false,"is_disabled":false,"rental_uris":{"android":"levelo://app?vid=24b78269-41ed-49ab-ab3c-5ff9ff98ccce","ios":"levelo://app?vid=24b78269-41ed-49ab-ab3c-5ff9ff98ccce"},"vehicle_type_id":"4","last_reported":1746278247,"current_range_meters":20000,"station_id":"ce4bh312rcd13ifvqdj0","pricing_plan_id":"cebpf4jnsgd1na2vs0mg"},{"bike_id":"e7cbd1f8-20ff-4b78-b937-2fa4fbb21bd5","system_id":"levelo_inurba_marseille","lat":43.29267,"lon":5.3763,"is_reserved":false,"is_disabled":false,"rental_uris":{"android":"levelo://app?vid=e7cbd1f8-20ff-4b78-b937-2fa4fbb21bd5","ios":"levelo://app?vid=e7cbd1f8-20ff-4b78-b937-2fa4fbb21bd5"},"vehicle_type_id":"4","last_reported":1746278247,"current_range_meters":20000,"station_id":"ce4bgi12rcd13ifvqb80","pricing_plan_id":"cebpf4jnsgd1na2vs0mg"},{"bike_id":"1d6c891d-d0c9-40e1-8e22-7763a9d3b3ae","system_id":"levelo_inurba_marseille","lat":43.28268,"lon":5.35062,"is_reserved":false,"is_disabled":false,"rental_uris":{"android":"levelo://app?vid=1d6c891d-d0c9-40e1-8e22-7763a9d3b3ae","ios":"levelo://app?vid=1d6c891d-d0c9-40e1-8e22-7763a9d3b3ae"},"vehicle_type_id":"4","last_reported":1746278247,"current_range_meters":20000,"station_id":"ce4bhbp2rcd13ifvqerg","pricing_plan_id":"cebpf4jnsgd1na2vs0mg"},{"bike_id":"1a0b984a-5bb6-40c8-b8b0-68edd4b3d9bd","system_id":"levelo_inurba_marseille","lat":43.21748,"lon":5.346,"is_reserved":false,"is_disabled":false,"rental_uris":{"android":"levelo://app?vid=1a0b984a-5bb6-40c8-b8b0-68edd4b3d9bd","ios":"levelo://app?vid=1a0b984a-5bb6-40c8-b8b0-68edd4b3d9bd"},"vehicle_type_id":"4","last_reported":1746278247,"current_range_meters":20400,"station_id":"st_cvj6r9ubvosntc0bgbag","pricing_plan_id":"cebpf4jnsgd1na2vs0mg"},{"bike_id":"439c3f75-613c-45c5-bce8-ead29e1df63f","system_id":"levelo_inurba_marseille","lat":43.23192,"lon":5.3555,"is_reserved":false,"is_disabled":false,"rental_uris":{"android":"levelo://app?vid=439c3f75-613c-45c5-bce8-ead29e1df63f","ios":"levelo://app?vid=439c3f75-613c-45c5-bce8-ead29e1df63f"},"vehicle_type_id":"4","last_reported":1746278247,"current_range_meters":20400,"station_id":"ce4bhu92rcd13ifvqi70","pricing_plan_id":"cebpf4jnsgd1na2vs0mg"},{"bike_id":"7b30874c-8bda-4565-94ae-e24c8f0daef7","system_id":"levelo_inurba_marseille","lat":43.28046,"lon":5.36939,"is_reserved":false,"is_disabled":false,"rental_uris":{"android":"levelo://app?vid=7b30874c-8bda-4565-94ae-e24c8f0daef7","ios":"levelo://app?vid=7b30874c-8bda-4565-94ae-e24c8f0daef7"},"vehicle_type_id":"4","last_reported":1746278247,"current_range_meters":20400,"station_id":"ce4bha12rcd13ifvqef0","pricing_plan_id":"cebpf4jnsgd1na2vs0mg"},{"bike_id":"478eea82-b413-46b8-98d5-a2b0b85050dc","system_id":"levelo_inurba_marseille","lat":43.212,"lon":5.35051,"is_reserved":false,"is_disabled":false,"rental_uris":{"android":"levelo://app?vid=478eea82-b413-46b8-98d5-a2b0b85050dc","ios":"levelo://app?vid=478eea82-b413-46b8-98d5-a2b0b85050dc"},"vehicle_type_id":"4","last_reported":1746278247,"current_range_meters":20400,"station_id":"st_cvj6sg6p6f1abm77japg","pricing_plan_id":"cebpf4jnsgd1na2vs0mg"},{"bike_id":"613bd8b2-838e-4768-bcdd-25c2d80e08a2","system_id":"levelo_inurba_marseille","lat":43.29593,"lon":5.36737,"is_reserved":false,"is_disabled":false,"rental_uris":{"android":"levelo://app?vid=613bd8b2-838e-4768-bcdd-25c2d80e08a2","ios":"levelo://app?vid=613bd8b2-838e-4768-bcdd-25c2d80e08a2"},"vehicle_type_id":"4","last_reported":1746278247,"current_range_meters":20800,"station_id":"ce4bgph2rcd13ifvqc2g","pricing_plan_id":"cebpf4jnsgd1na2vs0mg"},{"bike_id":"43f220ab-0408-46b3-abe5-60437ce3bc1e","system_id":"levelo_inurba_marseille","lat":43.23191,"lon":5.35535,"is_reserved":false,"is_disabled":false,"rental_uris":{"android":"levelo://app?vid=43f220ab-0408-46b3-abe5-60437ce3bc1e","ios":"levelo://app?vid=43f220ab-0408-46b3-abe5-60437ce3bc1e"},"vehicle_type_id":"4","last_reported":1746278247,"current_range_meters":20800,"station_id":"ce4bhu92rcd13ifvqi70","pricing_plan_id":"cebpf4jnsgd1na2vs0mg"},{"bike_id":"574e711c-fa4e-4bf9-84b3-4ae402691bae","system_id":"levelo_inurba_marseille","lat":43.211953,"lon":5.350703,"is_reserved":false,"is_disabled":false,"rental_uris":{"android":"levelo://app?vid=574e711c-fa4e-4bf9-84b3-4ae402691bae","ios":"levelo://app?vid=574e711c-fa4e-4bf9-84b3-4ae402691bae"},"vehicle_type_id":"4","last_reported":1746278247,"current_range_meters":20800,"station_id":"st_cvj6sg6p6f1abm77japg","pricing_plan_id":"cebpf4jnsgd1na2vs0mg"},{"bike_id":"ca7242f2-1f03-4877-b39d-60a6cbc4264f","system_id":"levelo_inurba_marseille","lat":43.30142,"lon":5.37416,"is_reserved":false,"is_disabled":false,"rental_uris":{"android":"levelo://app?vid=ca7242f2-1f03-4877-b39d-60a6cbc4264f","ios":"levelo://app?vid=ca7242f2-1f03-4877-b39d-60a6cbc4264f"},"vehicle_type_id":"4","last_reported":1746278247,"current_range_meters":20400,"station_id":"","pricing_plan_id":"cebpf4jnsgd1na2vs0mg"},{"bike_id":"d65fe5d3-6dd5-4d8f-afb6-63d5e14acd1f","system_id":"levelo_inurba_marseille","lat":43.2306,"lon":5.35482,"is_reserved":false,"is_disabled":false,"rental_uris":{"android":"levelo://app?vid=d65fe5d3-6dd5-4d8f-afb6-63d5e14acd1f","ios":"levelo://app?vid=d65fe5d3-6dd5-4d8f-afb6-63d5e14acd1f"},"vehicle_type_id":"4","last_reported":1746278247,"current_range_meters":20800,"station_id":"cpo3342slgdg3j2ifvpg","pricing_plan_id":"cebpf4jnsgd1na2vs0mg"},{"bike_id":"3b542a84-de62-4a11-b0a3-12bdb238a101","system_id":"levelo_inurba_marseille","lat":43.337532,"lon":5.37432,"is_reserved":false,"is_disabled":false,"rental_uris":{"android":"levelo://app?vid=3b542a84-de62-4a11-b0a3-12bdb238a101","ios":"levelo://app?vid=3b542a84-de62-4a11-b0a3-12bdb238a101"},"vehicle_type_id":"4","last_reported":1746278247,"current_range_meters":20800,"station_id":"","pricing_plan_id":"cebpf4jnsgd1na2vs0mg"},{"bike_id":"f60ddab2-1656-4f74-af75-bafc0a875727","system_id":"levelo_inurba_marseille","lat":43.25483,"lon":5.37658,"is_reserved":false,"is_disabled":false,"rental_uris":{"android":"levelo://app?vid=f60ddab2-1656-4f74-af75-bafc0a875727","ios":"levelo://app?vid=f60ddab2-1656-4f74-af75-bafc0a875727"},"vehicle_type_id":"4","last_reported":1746278247,"current_range_meters":20400,"station_id":"ce4bhh12rcd13ifvqff0","pricing_plan_id":"cebpf4jnsgd1na2vs0mg"},{"bike_id":"dab12b6a-8e85-4773-8a98-0792c70cd514","system_id":"levelo_inurba_marseille","lat":43.22491,"lon":5.34776,"is_reserved":false,"is_disabled":false,"rental_uris":{"android":"levelo://app?vid=dab12b6a-8e85-4773-8a98-0792c70cd514","ios":"levelo://app?vid=dab12b6a-8e85-4773-8a98-0792c70cd514"},"vehicle_type_id":"4","last_reported":1746278247,"current_range_meters":20800,"station_id":"st_cvj5dfep6f1abm77gieg","pricing_plan_id":"cebpf4jnsgd1na2vs0mg"},{"bike_id":"68cb1f22-2333-42ff-931f-93b031ab1a35","system_id":"levelo_inurba_marseille","lat":43.22927,"lon":5.35379,"is_reserved":false,"is_disabled":false,"rental_uris":{"android":"levelo://app?vid=68cb1f22-2333-42ff-931f-93b031ab1a35","ios":"levelo://app?vid=68cb1f22-2333-42ff-931f-93b031ab1a35"},"vehicle_type_id":"4","last_reported":1746278247,"current_range_meters":20800,"station_id":"cpo3532slgdg3j2ikp40","pricing_plan_id":"cebpf4jnsgd1na2vs0mg"},{"bike_id":"85c34c9c-274a-40e9-a988-47bc4d0e06eb","system_id":"levelo_inurba_marseille","lat":43.28857,"lon":5.35852,"is_reserved":false,"is_disabled":false,"rental_uris":{"android":"levelo://app?vid=85c34c9c-274a-40e9-a988-47bc4d0e06eb","ios":"levelo://app?vid=85c34c9c-274a-40e9-a988-47bc4d0e06eb"},"vehicle_type_id":"4","last_reported":1746278247,"current_range_meters":21600,"station_id":"ce4bhb12rcd13ifvqem0","pricing_plan_id":"cebpf4jnsgd1na2vs0mg"},{"bike_id":"966e2277-283b-4a32-b8da-af60d8af515d","system_id":"levelo_inurba_marseille","lat":43.28275,"lon":5.35063,"is_reserved":false,"is_disabled":false,"rental_uris":{"android":"levelo://app?vid=966e2277-283b-4a32-b8da-af60d8af515d","ios":"levelo://app?vid=966e2277-283b-4a32-b8da-af60d8af515d"},"vehicle_type_id":"4","last_reported":1746278247,"current_range_meters":21600,"station_id":"ce4bhbp2rcd13ifvqerg","pricing_plan_id":"cebpf4jnsgd1na2vs0mg"},{"bike_id":"aff57cf1-559e-4cf7-b6d3-a9f15cc38049","system_id":"levelo_inurba_marseille","lat":43.30462,"lon":5.37908,"is_reserved":false,"is_disabled":false,"rental_uris":{"android":"levelo://app?vid=aff57cf1-559e-4cf7-b6d3-a9f15cc38049","ios":"levelo://app?vid=aff57cf1-559e-4cf7-b6d3-a9f15cc38049"},"vehicle_type_id":"4","last_reported":1746278247,"current_range_meters":21600,"station_id":"ce4bgup2rcd13ifvqcn0","pricing_plan_id":"cebpf4jnsgd1na2vs0mg"},{"bike_id":"a3c5b29a-a6dc-4744-8f99-1444e228e509","system_id":"levelo_inurba_marseille","lat":43.27365,"lon":5.36256,"is_reserved":false,"is_disabled":false,"rental_uris":{"android":"levelo://app?vid=a3c5b29a-a6dc-4744-8f99-1444e228e509","ios":"levelo://app?vid=a3c5b29a-a6dc-4744-8f99-1444e228e509"},"vehicle_type_id":"4","last_reported":1746278247,"current_range_meters":21600,"station_id":"ce4bhbh2rcd13ifvqeo0","pricing_plan_id":"cebpf4jnsgd1na2vs0mg"},{"bike_id":"2da1110e-d148-4ca7-b7c4-fd0d9000a385","system_id":"levelo_inurba_marseille","lat":43.30253,"lon":5.40056,"is_reserved":false,"is_disabled":false,"rental_uris":{"android":"levelo://app?vid=2da1110e-d148-4ca7-b7c4-fd0d9000a385","ios":"levelo://app?vid=2da1110e-d148-4ca7-b7c4-fd0d9000a385"},"vehicle_type_id":"4","last_reported":1746278247,"current_range_meters":21600,"station_id":"ce4bgvh2rcd13ifvqcs0","pricing_plan_id":"cebpf4jnsgd1na2vs0mg"},{"bike_id":"07c9a721-ccc4-435a-9bc7-2bafc396a4ac","system_id":"levelo_inurba_marseille","lat":43.24181,"lon":5.39727,"is_reserved":false,"is_disabled":false,"rental_uris":{"android":"levelo://app?vid=07c9a721-ccc4-435a-9bc7-2bafc396a4ac","ios":"levelo://app?vid=07c9a721-ccc4-435a-9bc7-2bafc396a4ac"},"vehicle_type_id":"4","last_reported":1746278247,"current_range_meters":22000,"station_id":"ce4bhn12rcd13ifvqgpg","pricing_plan_id":"cebpf4jnsgd1na2vs0mg"},{"bike_id":"21e8f233-62a1-4664-9709-8468c5fadf3d","system_id":"levelo_inurba_marseille","lat":43.32111,"lon":5.36763,"is_reserved":false,"is_disabled":false,"rental_uris":{"android":"levelo://app?vid=21e8f233-62a1-4664-9709-8468c5fadf3d","ios":"levelo://app?vid=21e8f233-62a1-4664-9709-8468c5fadf3d"},"vehicle_type_id":"4","last_reported":1746278247,"current_range_meters":22000,"station_id":"ce4bhrh2rcd13ifvqhug","pricing_plan_id":"cebpf4jnsgd1na2vs0mg"},{"bike_id":"d35a773f-85f3-4502-b349-d3ba85e9d3ac","system_id":"levelo_inurba_marseille","lat":43.32928,"lon":5.36423,"is_reserved":false,"is_disabled":false,"rental_uris":{"android":"levelo://app?vid=d35a773f-85f3-4502-b349-d3ba85e9d3ac","ios":"levelo://app?vid=d35a773f-85f3-4502-b349-d3ba85e9d3ac"},"vehicle_type_id":"4","last_reported":1746278247,"current_range_meters":22000,"station_id":"","pricing_plan_id":"cebpf4jnsgd1na2vs0mg"},{"bike_id":"dfa9c123-0503-4df7-9f45-126883c9fa94","system_id":"levelo_inurba_marseille","lat":43.23155,"lon":5.43709,"is_reserved":false,"is_disabled":false,"rental_uris":{"android":"levelo://app?vid=dfa9c123-0503-4df7-9f45-126883c9fa94","ios":"levelo://app?vid=dfa9c123-0503-4df7-9f45-126883c9fa94"},"vehicle_type_id":"4","last_reported":1746278247,"current_range_meters":22000,"station_id":"ce4bhmp2rcd13ifvqgog","pricing_plan_id":"cebpf4jnsgd1na2vs0mg"},{"bike_id":"8f8205c0-508b-4c6c-bda0-809653224241","system_id":"levelo_inurba_marseille","lat":43.21201,"lon":5.3507,"is_reserved":false,"is_disabled":false,"rental_uris":{"android":"levelo://app?vid=8f8205c0-508b-4c6c-bda0-809653224241","ios":"levelo://app?vid=8f8205c0-508b-4c6c-bda0-809653224241"},"vehicle_type_id":"4","last_reported":1746278247,"current_range_meters":22400,"station_id":"st_cvj6sg6p6f1abm77japg","pricing_plan_id":"cebpf4jnsgd1na2vs0mg"},{"bike_id":"029a87bb-90fa-447a-9828-2f6d8a7ab734","system_id":"levelo_inurba_marseille","lat":43.308078,"lon":5.435292,"is_reserved":false,"is_disabled":false,"rental_uris":{"android":"levelo://app?vid=029a87bb-90fa-447a-9828-2f6d8a7ab734","ios":"levelo://app?vid=029a87bb-90fa-447a-9828-2f6d8a7ab734"},"vehicle_type_id":"4","last_reported":1746278247,"current_range_meters":22400,"station_id":"ce4bhph2rcd13ifvqheg","pricing_plan_id":"cebpf4jnsgd1na2vs0mg"},{"bike_id":"a4474d1d-fa23-4aba-8153-4ecc3115a54e","system_id":"levelo_inurba_marseille","lat":43.21757,"lon":5.34602,"is_reserved":false,"is_disabled":false,"rental_uris":{"android":"levelo://app?vid=a4474d1d-fa23-4aba-8153-4ecc3115a54e","ios":"levelo://app?vid=a4474d1d-fa23-4aba-8153-4ecc3115a54e"},"vehicle_type_id":"4","last_reported":1746278247,"current_range_meters":22800,"station_id":"st_cvj6r9ubvosntc0bgbag","pricing_plan_id":"cebpf4jnsgd1na2vs0mg"},{"bike_id":"8ee7e49e-93ba-42a2-bf1a-5f0677c99ab7","system_id":"levelo_inurba_marseille","lat":43.2827,"lon":5.35067,"is_reserved":false,"is_disabled":false,"rental_uris":{"android":"levelo://app?vid=8ee7e49e-93ba-42a2-bf1a-5f0677c99ab7","ios":"levelo://app?vid=8ee7e49e-93ba-42a2-bf1a-5f0677c99ab7"},"vehicle_type_id":"4","last_reported":1746278247,"current_range_meters":22800,"station_id":"ce4bhbp2rcd13ifvqerg","pricing_plan_id":"cebpf4jnsgd1na2vs0mg"},{"bike_id":"c1f3443f-0844-479e-b099-c3b00284c629","system_id":"levelo_inurba_marseille","lat":43.23147,"lon":5.43719,"is_reserved":false,"is_disabled":false,"rental_uris":{"android":"levelo://app?vid=c1f3443f-0844-479e-b099-c3b00284c629","ios":"levelo://app?vid=c1f3443f-0844-479e-b099-c3b00284c629"},"vehicle_type_id":"4","last_reported":1746278247,"current_range_meters":22400,"station_id":"ce4bhmp2rcd13ifvqgog","pricing_plan_id":"cebpf4jnsgd1na2vs0mg"},{"bike_id":"f7129fc7-e162-4059-b746-ae4f6375dc85","system_id":"levelo_inurba_marseille","lat":43.2175,"lon":5.34598,"is_reserved":false,"is_disabled":false,"rental_uris":{"android":"levelo://app?vid=f7129fc7-e162-4059-b746-ae4f6375dc85","ios":"levelo://app?vid=f7129fc7-e162-4059-b746-ae4f6375dc85"},"vehicle_type_id":"4","last_reported":1746278247,"current_range_meters":23200,"station_id":"st_cvj6r9ubvosntc0bgbag","pricing_plan_id":"cebpf4jnsgd1na2vs0mg"},{"bike_id":"b75e3c25-4180-45cb-ab53-852b8b613ff4","system_id":"levelo_inurba_marseille","lat":43.299,"lon":5.43664,"is_reserved":false,"is_disabled":false,"rental_uris":{"android":"levelo://app?vid=b75e3c25-4180-45cb-ab53-852b8b613ff4","ios":"levelo://app?vid=b75e3c25-4180-45cb-ab53-852b8b613ff4"},"vehicle_type_id":"4","last_reported":1746278247,"current_range_meters":23200,"station_id":"ce4bhpp2rcd13ifvqhfg","pricing_plan_id":"cebpf4jnsgd1na2vs0mg"},{"bike_id":"45b0f65b-e66b-413d-a73f-39145fadacf7","system_id":"levelo_inurba_marseille","lat":43.2862,"lon":5.35108,"is_reserved":false,"is_disabled":false,"rental_uris":{"android":"levelo://app?vid=45b0f65b-e66b-413d-a73f-39145fadacf7","ios":"levelo://app?vid=45b0f65b-e66b-413d-a73f-39145fadacf7"},"vehicle_type_id":"4","last_reported":1746278247,"current_range_meters":23200,"station_id":"ce4bhch2rcd13ifvqeug","pricing_plan_id":"cebpf4jnsgd1na2vs0mg"},{"bike_id":"d4f5150d-5356-45f7-a04f-bec0a4685bfd","system_id":"levelo_inurba_marseille","lat":43.306291,"lon":5.400311,"is_reserved":false,"is_disabled":false,"rental_uris":{"android":"levelo://app?vid=d4f5150d-5356-45f7-a04f-bec0a4685bfd","ios":"levelo://app?vid=d4f5150d-5356-45f7-a04f-bec0a4685bfd"},"vehicle_type_id":"4","last_reported":1746278247,"current_range_meters":23200,"station_id":"ce4bh112rcd13ifvqda0","pricing_plan_id":"cebpf4jnsgd1na2vs0mg"},{"bike_id":"31709cbc-af97-49b9-a032-95d7ed6ee9e9","system_id":"levelo_inurba_marseille","lat":43.24388,"lon":5.37054,"is_reserved":false,"is_disabled":false,"rental_uris":{"android":"levelo://app?vid=31709cbc-af97-49b9-a032-95d7ed6ee9e9","ios":"levelo://app?vid=31709cbc-af97-49b9-a032-95d7ed6ee9e9"},"vehicle_type_id":"4","last_reported":1746278247,"current_range_meters":23200,"station_id":"ce4bhhh2rcd13ifvqfk0","pricing_plan_id":"cebpf4jnsgd1na2vs0mg"},{"bike_id":"3922c480-0797-4640-88dd-49c1f1ca58b7","system_id":"levelo_inurba_marseille","lat":43.24074,"lon":5.37747,"is_reserved":false,"is_disabled":false,"rental_uris":{"android":"levelo://app?vid=3922c480-0797-4640-88dd-49c1f1ca58b7","ios":"levelo://app?vid=3922c480-0797-4640-88dd-49c1f1ca58b7"},"vehicle_type_id":"4","last_reported":1746278247,"current_range_meters":23200,"station_id":"ce4bhnp2rcd13ifvqgvg","pricing_plan_id":"cebpf4jnsgd1na2vs0mg"},{"bike_id":"6b94631b-a1d7-4191-9cb5-d4642bbf1cb1","system_id":"levelo_inurba_marseille","lat":43.28421,"lon":5.34992,"is_reserved":false,"is_disabled":false,"rental_uris":{"android":"levelo://app?vid=6b94631b-a1d7-4191-9cb5-d4642bbf1cb1","ios":"levelo://app?vid=6b94631b-a1d7-4191-9cb5-d4642bbf1cb1"},"vehicle_type_id":"4","last_reported":1746278247,"current_range_meters":24000,"station_id":"ce4bhbh2rcd13ifvqepg","pricing_plan_id":"cebpf4jnsgd1na2vs0mg"},{"bike_id":"412f8e23-24f4-4c3d-94a2-95c7a4d715ce","system_id":"levelo_inurba_marseille","lat":43.292317,"lon":5.360703,"is_reserved":false,"is_disabled":false,"rental_uris":{"android":"levelo://app?vid=412f8e23-24f4-4c3d-94a2-95c7a4d715ce","ios":"levelo://app?vid=412f8e23-24f4-4c3d-94a2-95c7a4d715ce"},"vehicle_type_id":"4","last_reported":1746278247,"current_range_meters":23200,"station_id":"ce4bhbh2rcd13ifvqeqg","pricing_plan_id":"cebpf4jnsgd1na2vs0mg"},{"bike_id":"88264164-5105-435a-a78d-8b17ad71c033","system_id":"levelo_inurba_marseille","lat":43.31081,"lon":5.42428,"is_reserved":false,"is_disabled":false,"rental_uris":{"android":"levelo://app?vid=88264164-5105-435a-a78d-8b17ad71c033","ios":"levelo://app?vid=88264164-5105-435a-a78d-8b17ad71c033"},"vehicle_type_id":"4","last_reported":1746278247,"current_range_meters":23200,"station_id":"ce4bhp92rcd13ifvqhag","pricing_plan_id":"cebpf4jnsgd1na2vs0mg"},{"bike_id":"1a518173-f652-4560-9992-c02859918ebc","system_id":"levelo_inurba_marseille","lat":43.29279,"lon":5.36838,"is_reserved":false,"is_disabled":false,"rental_uris":{"android":"levelo://app?vid=1a518173-f652-4560-9992-c02859918ebc","ios":"levelo://app?vid=1a518173-f652-4560-9992-c02859918ebc"},"vehicle_type_id":"4","last_reported":1746278247,"current_range_meters":24000,"station_id":"ce4bhbp2rcd13ifvqesg","pricing_plan_id":"cebpf4jnsgd1na2vs0mg"},{"bike_id":"e70119c0-d929-401d-ad3a-b463b4715b32","system_id":"levelo_inurba_marseille","lat":43.24155,"lon":5.39718,"is_reserved":false,"is_disabled":false,"rental_uris":{"android":"levelo://app?vid=e70119c0-d929-401d-ad3a-b463b4715b32","ios":"levelo://app?vid=e70119c0-d929-401d-ad3a-b463b4715b32"},"vehicle_type_id":"4","last_reported":1746278247,"current_range_meters":24000,"station_id":"ce4bhn12rcd13ifvqgpg","pricing_plan_id":"cebpf4jnsgd1na2vs0mg"},{"bike_id":"31318b66-321b-4544-ae04-cdf053c39006","system_id":"levelo_inurba_marseille","lat":43.31757,"lon":5.39018,"is_reserved":false,"is_disabled":false,"rental_uris":{"android":"levelo://app?vid=31318b66-321b-4544-ae04-cdf053c39006","ios":"levelo://app?vid=31318b66-321b-4544-ae04-cdf053c39006"},"vehicle_type_id":"4","last_reported":1746278247,"current_range_meters":24000,"station_id":"ce4bhqp2rcd13ifvqhng","pricing_plan_id":"cebpf4jnsgd1na2vs0mg"},{"bike_id":"205c2f6b-8079-4241-b103-0a32102c4af8","system_id":"levelo_inurba_marseille","lat":43.32487,"lon":5.36551,"is_reserved":false,"is_disabled":false,"rental_uris":{"android":"levelo://app?vid=205c2f6b-8079-4241-b103-0a32102c4af8","ios":"levelo://app?vid=205c2f6b-8079-4241-b103-0a32102c4af8"},"vehicle_type_id":"4","last_reported":1746278247,"current_range_meters":24000,"station_id":"ce4bhs12rcd13ifvqhvg","pricing_plan_id":"cebpf4jnsgd1na2vs0mg"},{"bike_id":"2ea79a3a-d95c-4feb-a49e-6a504206ce80","system_id":"levelo_inurba_marseille","lat":43.23154,"lon":5.43713,"is_reserved":false,"is_disabled":false,"rental_uris":{"android":"levelo://app?vid=2ea79a3a-d95c-4feb-a49e-6a504206ce80","ios":"levelo://app?vid=2ea79a3a-d95c-4feb-a49e-6a504206ce80"},"vehicle_type_id":"4","last_reported":1746278247,"current_range_meters":24000,"station_id":"ce4bhmp2rcd13ifvqgog","pricing_plan_id":"cebpf4jnsgd1na2vs0mg"},{"bike_id":"a64ab4f9-de71-492e-b284-6d9d321afc88","system_id":"levelo_inurba_marseille","lat":43.24167,"lon":5.36389,"is_reserved":false,"is_disabled":false,"rental_uris":{"android":"levelo://app?vid=a64ab4f9-de71-492e-b284-6d9d321afc88","ios":"levelo://app?vid=a64ab4f9-de71-492e-b284-6d9d321afc88"},"vehicle_type_id":"4","last_reported":1746278247,"current_range_meters":24000,"station_id":"cpo36qri1sfpv3e86is0","pricing_plan_id":"cebpf4jnsgd1na2vs0mg"},{"bike_id":"83c6d2a2-d327-44be-8314-a37638df2230","system_id":"levelo_inurba_marseille","lat":43.24166,"lon":5.36392,"is_reserved":false,"is_disabled":false,"rental_uris":{"android":"levelo://app?vid=83c6d2a2-d327-44be-8314-a37638df2230","ios":"levelo://app?vid=83c6d2a2-d327-44be-8314-a37638df2230"},"vehicle_type_id":"4","last_reported":1746278247,"current_range_meters":24000,"station_id":"cpo36qri1sfpv3e86is0","pricing_plan_id":"cebpf4jnsgd1na2vs0mg"},{"bike_id":"85a730b5-c28f-4c6c-8e3f-734b4281147b","system_id":"levelo_inurba_marseille","lat":43.31511,"lon":5.38957,"is_reserved":false,"is_disabled":false,"rental_uris":{"android":"levelo://app?vid=85a730b5-c28f-4c6c-8e3f-734b4281147b","ios":"levelo://app?vid=85a730b5-c28f-4c6c-8e3f-734b4281147b"},"vehicle_type_id":"4","last_reported":1746278247,"current_range_meters":24000,"station_id":"","pricing_plan_id":"cebpf4jnsgd1na2vs0mg"},{"bike_id":"9c98806e-21d7-47c7-9cea-eb979198392a","system_id":"levelo_inurba_marseille","lat":43.2737,"lon":5.36254,"is_reserved":false,"is_disabled":false,"rental_uris":{"android":"levelo://app?vid=9c98806e-21d7-47c7-9cea-eb979198392a","ios":"levelo://app?vid=9c98806e-21d7-47c7-9cea-eb979198392a"},"vehicle_type_id":"4","last_reported":1746278247,"current_range_meters":24000,"station_id":"ce4bhbh2rcd13ifvqeo0","pricing_plan_id":"cebpf4jnsgd1na2vs0mg"},{"bike_id":"c0ce49d1-54bb-4697-b374-edb973155659","system_id":"levelo_inurba_marseille","lat":43.28271,"lon":5.35059,"is_reserved":false,"is_disabled":false,"rental_uris":{"android":"levelo://app?vid=c0ce49d1-54bb-4697-b374-edb973155659","ios":"levelo://app?vid=c0ce49d1-54bb-4697-b374-edb973155659"},"vehicle_type_id":"4","last_reported":1746278247,"current_range_meters":24000,"station_id":"ce4bhbp2rcd13ifvqerg","pricing_plan_id":"cebpf4jnsgd1na2vs0mg"},{"bike_id":"0fac6a0d-5df3-443d-862b-7eb1bba19d8f","system_id":"levelo_inurba_marseille","lat":43.231576,"lon":5.437006,"is_reserved":false,"is_disabled":false,"rental_uris":{"android":"levelo://app?vid=0fac6a0d-5df3-443d-862b-7eb1bba19d8f","ios":"levelo://app?vid=0fac6a0d-5df3-443d-862b-7eb1bba19d8f"},"vehicle_type_id":"4","last_reported":1746278247,"current_range_meters":24400,"station_id":"ce4bhmp2rcd13ifvqgog","pricing_plan_id":"cebpf4jnsgd1na2vs0mg"},{"bike_id":"61d1a6c0-344e-4ff7-9a85-d60ca1b0d925","system_id":"levelo_inurba_marseille","lat":43.25918,"lon":5.40895,"is_reserved":false,"is_disabled":false,"rental_uris":{"android":"levelo://app?vid=61d1a6c0-344e-4ff7-9a85-d60ca1b0d925","ios":"levelo://app?vid=61d1a6c0-344e-4ff7-9a85-d60ca1b0d925"},"vehicle_type_id":"4","last_reported":1746278247,"current_range_meters":24400,"station_id":"ce4bhm92rcd13ifvqglg","pricing_plan_id":"cebpf4jnsgd1na2vs0mg"},{"bike_id":"b1b14c72-4deb-4017-b80d-23c5c76de5c4","system_id":"levelo_inurba_marseille","lat":43.21749,"lon":5.34585,"is_reserved":false,"is_disabled":false,"rental_uris":{"android":"levelo://app?vid=b1b14c72-4deb-4017-b80d-23c5c76de5c4","ios":"levelo://app?vid=b1b14c72-4deb-4017-b80d-23c5c76de5c4"},