{"last_updated":1716055785,"ttl":30,"version":"2.2","data":{"bikes":[{"bike_id":"32460bde-8f33-47dd-a2bb-21d9fb813593","system_id":"levelo_inurba_marseille","lat":43.313391,"lon":5.36706,"is_reserved":false,"is_disabled":false,"rental_uris":{"android":"levelo://app?vid=32460bde-8f33-47dd-a2bb-21d9fb813593","ios":"levelo://app?vid=32460bde-8f33-47dd-a2bb-21d9fb813593"},"vehicle_type_id":"4","last_reported":1716055785,"current_range_meters":22800,"station_id":"ce4bgr92rcd13ifvqc6g","pricing_plan_id":"cebpf4jnsgd1na2vs0mg"},{"bike_id":"08430fd4-5820-4c8e-b72d-90c3ad4943af","system_id":"levelo_inurba_marseille","lat":43.312239,"lon":5.368562,"is_reserved":false,"is_disabled":false,"rental_uris":{"android":"levelo://app?vid=08430fd4-5820-4c8e-b72d-90c3ad4943af","ios":"levelo://app?vid=08430fd4-5820-4c8e-b72d-90c3ad4943af"},"vehicle_type_id":"4","last_reported":1716055785,"current_range_meters":22400,"station_id":"ce4bgl92rcd13ifvqbq0","pricing_plan_id":"cebpf4jnsgd1na2vs0mg"},{"bike_id":"040ba0fc-5e55-41f5-8100-f1045623ba6a","system_id":"levelo_inurba_marseille","lat":43.312239,"lon":5.368562,"is_reserved":false,"is_disabled":false,"rental_uris":{"android":"levelo://app?vid=040ba0fc-5e55-41f5-8100-f1045623ba6a","ios":"levelo://app?vid=040ba0fc-5e55-41f5-8100-f1045623ba6a"},"vehicle_type_id":"4","last_reported":1716055785,"current_range_meters":6000,"station_id":"ce4bgl92rcd13ifvqbq0","pricing_plan_id":"cebpf4jnsgd1na2vs0mg"},{"bike_id":"aaa0890c-204c-4eee-ba51-83a4fa12c7a3","system_id":"levelo_inurba_marseille","lat":43.312239,"lon":5.368562,"is_reserved":false,"is_disabled":false,"rental_uris":{"android":"levelo://app?vid=aaa0890c-204c-4eee-ba51-83a4fa12c7a3","ios":"levelo://app?vid=aaa0890c-204c-4eee-ba51-83a4fa12c7a3"},"vehicle_type_id":"4","last_reported":1716055785,"current_range_meters":0,"station_id":"ce4bgl92rcd13ifvqbq0","pricing_plan_id":"cebpf4jnsgd1na2vs0mg"},{"bike_id":"adc2048e-cf15-4fd4-bc1a-120f91af57f2","system_id":"levelo_inurba_marseille","lat":43.312239,"lon":5.368562,"is_reserved":false,"is_disabled":false,"rental_uris":{"android":"levelo://app?vid=adc2048e-cf15-4fd4-bc1a-120f91af57f2","ios":"levelo://app?vid=adc2048e-cf15-4fd4-bc1a-120f91af57f2"},"vehicle_type_id":"4","last_reported":1716055785,"current_range_meters":21200,"station_id":"ce4bgl92rcd13ifvqbq0","pricing_plan_id":"cebpf4jnsgd1na2vs0mg"},{"bike_id":"905b0add-3593-4e65-9095-ac00ec514390","system_id":"levelo_inurba_marseille","lat":43.312239,"lon":5.368562,"is_reserved":false,"is_disabled":false,"rental_uris":{"android":"levelo://app?vid=905b0add-3593-4e65-9095-ac00ec514390","ios":"levelo://app?vid=905b0add-3593-4e65-9095-ac00ec514390"},"vehicle_type_id":"4","last_reported":1716055785,"current_range_meters":4800,"station_id":"ce4bgl92rcd13ifvqbq0","pricing_plan_id":"cebpf4jnsgd1na2vs0mg"},{"bike_id":"0372ec57-307d-4606-828a-997285d3fb87","system_id":"levelo_inurba_marseille","lat":43.309076,"lon":5.368465,"is_reserved":false,"is_disabled":false,"rental_uris":{"android":"levelo://app?vid=0372ec57-307d-4606-828a-997285d3fb87","ios":"levelo://app?vid=0372ec57-307d-4606-828a-997285d3fb87"},"vehicle_type_id":"4","last_reported":1716055785,"current_range_meters":1200,"station_id":"ce4bgn92rcd13ifvqbvg","pricing_plan_id":"cebpf4jnsgd1na2vs0mg"},{"bike_id":"2c18b6af-4cff-4cdb-a9e2-37f9b2f01964","system_id":"levelo_inurba_marseille","lat":43.30903,"lon":5.36848,"is_reserved":false,"is_disabled":false,"rental_uris":{"android":"levelo://app?vid=2c18b6af-4cff-4cdb-a9e2-37f9b2f01964","ios":"levelo://app?vid=2c18b6af-4cff-4cdb-a9e2-37f9b2f01964"},"vehicle_type_id":"4","last_reported":1716055785,"current_range_meters":0,"station_id":"ce4bgn92rcd13ifvqbvg","pricing_plan_id":"cebpf4jnsgd1na2vs0mg"},{"bike_id":"afab2cc5-130e-4bbc-976b-ed8f91749591","system_id":"levelo_inurba_marseille","lat":43.309653,"lon":5.370764,"is_reserved":false,"is_disabled":false,"rental_uris":{"android":"levelo://app?vid=afab2cc5-130e-4bbc-976b-ed8f91749591","ios":"levelo://app?vid=afab2cc5-130e-4bbc-976b-ed8f91749591"},"vehicle_type_id":"4","last_reported":1716055785,"current_range_meters":22400,"station_id":"","pricing_plan_id":"cebpf4jnsgd1na2vs0mg"},{"bike_id":"afa76748-3f86-4c61-9953-1500464c8d79","system_id":"levelo_inurba_marseille","lat":43.314811,"lon":5.373103,"is_reserved":false,"is_disabled":false,"rental_uris":{"android":"levelo://app?vid=afa76748-3f86-4c61-9953-1500464c8d79","ios":"levelo://app?vid=afa76748-3f86-4c61-9953-1500464c8d79"},"vehicle_type_id":"4","last_reported":1716055785,"current_range_meters":0,"station_id":"ce4bgt12rcd13ifvqcd0","pricing_plan_id":"cebpf4jnsgd1na2vs0mg"},{"bike_id":"42a6e66b-9569-4a86-b326-945e5a6303ec","system_id":"levelo_inurba_marseille","lat":43.314811,"lon":5.373104,"is_reserved":false,"is_disabled":false,"rental_uris":{"android":"levelo://app?vid=42a6e66b-9569-4a86-b326-945e5a6303ec","ios":"levelo://app?vid=42a6e66b-9569-4a86-b326-945e5a6303ec"},"vehicle_type_id":"4","last_reported":1716055785,"current_range_meters":2000,"station_id":"ce4bgt12rcd13ifvqcd0","pricing_plan_id":"cebpf4jnsgd1na2vs0mg"},{"bike_id":"563f8ec6-1db3-4958-80a3-a398446be023","system_id":"levelo_inurba_marseille","lat":43.309039,"lon":5.371797,"is_reserved":false,"is_disabled":false,"rental_uris":{"android":"levelo://app?vid=563f8ec6-1db3-4958-80a3-a398446be023","ios":"levelo://app?vid=563f8ec6-1db3-4958-80a3-a398446be023"},"vehicle_type_id":"4","last_reported":1716055785,"current_range_meters":0,"station_id":"ce4bguh2rcd13ifvqckg","pricing_plan_id":"cebpf4jnsgd1na2vs0mg"},{"bike_id":"a277fe65-7ca8-46b0-927f-8ef2dae50fa5","system_id":"levelo_inurba_marseille","lat":43.309034,"lon":5.371783,"is_reserved":false,"is_disabled":false,"rental_uris":{"android":"levelo://app?vid=a277fe65-7ca8-46b0-927f-8ef2dae50fa5","ios":"levelo://app?vid=a277fe65-7ca8-46b0-927f-8ef2dae50fa5"},"vehicle_type_id":"4","last_reported":1716055785,"current_range_meters":2000,"station_id":"ce4bguh2rcd13ifvqckg","pricing_plan_id":"cebpf4jnsgd1na2vs0mg"},{"bike_id":"63444de0-a1bb-4e8e-ae96-7acb218fc4db","system_id":"levelo_inurba_marseille","lat":43.30543,"lon":5.36702,"is_reserved":false,"is_disabled":false,"rental_uris":{"android":"levelo://app?vid=63444de0-a1bb-4e8e-ae96-7acb218fc4db","ios":"levelo://app?vid=63444de0-a1bb-4e8e-ae96-7acb218fc4db"},"vehicle_type_id":"4","last_reported":1716055785,"current_range_meters":0,"station_id":"ce4bgrp2rcd13ifvqc9g","pricing_plan_id":"cebpf4jnsgd1na2vs0mg"},{"bike_id":"f1be827f-4f71-4510-9f6c-9a277ae06287","system_id":"levelo_inurba_marseille","lat":43.305368,"lon":5.367343,"is_reserved":false,"is_disabled":false,"rental_uris":{"android":"levelo://app?vid=f1be827f-4f71-4510-9f6c-9a277ae06287","ios":"levelo://app?vid=f1be827f-4f71-4510-9f6c-9a277ae06287"},"vehicle_type_id":"4","last_reported":1716055785,"current_range_meters":15600,"station_id":"ce4bgrp2rcd13ifvqc9g","pricing_plan_id":"cebpf4jnsgd1na2vs0mg"},{"bike_id":"ffa1aa40-5627-4fcc-81da-de7b44088b4b","system_id":"levelo_inurba_marseille","lat":43.311644,"lon":5.377214,"is_reserved":false,"is_disabled":false,"rental_uris":{"android":"levelo://app?vid=ffa1aa40-5627-4fcc-81da-de7b44088b4b","ios":"levelo://app?vid=ffa1aa40-5627-4fcc-81da-de7b44088b4b"},"vehicle_type_id":"4","last_reported":1716055785,"current_range_meters":14000,"station_id":"ce4bgt12rcd13ifvqcd0","pricing_plan_id":"cebpf4jnsgd1na2vs0mg"},{"bike_id":"1e14c85d-ef9e-47d7-99ff-4382b978256d","system_id":"levelo_inurba_marseille","lat":43.311125,"lon":5.377624,"is_reserved":false,"is_disabled":false,"rental_uris":{"android":"levelo://app?vid=1e14c85d-ef9e-47d7-99ff-4382b978256d","ios":"levelo://app?vid=1e14c85d-ef9e-47d7-99ff-4382b978256d"},"vehicle_type_id":"4","last_reported":1716055785,"current_range_meters":0,"station_id":"ce4bgt92rcd13ifvqcg0","pricing_plan_id":"cebpf4jnsgd1na2vs0mg"},{"bike_id":"4126e47f-af1e-444e-aafe-488c1431b435","system_id":"levelo_inurba_marseille","lat":43.31113,"lon":5.377683,"is_reserved":false,"is_disabled":false,"rental_uris":{"android":"levelo://app?vid=4126e47f-af1e-444e-aafe-488c1431b435","ios":"levelo://app?vid=4126e47f-af1e-444e-aafe-488c1431b435"},"vehicle_type_id":"4","last_reported":1716055785,"current_range_meters":0,"station_id":"ce4bgt92rcd13ifvqcg0","pricing_plan_id":"cebpf4jnsgd1na2vs0mg"},{"bike_id":"c35c608a-c0ec-40b0-b349-d6a79a771b6b","system_id":"levelo_inurba_marseille","lat":43.3111,"lon":5.37774,"is_reserved":false,"is_disabled":false,"rental_uris":{"android":"levelo://app?vid=c35c608a-c0ec-40b0-b349-d6a79a771b6b","ios":"levelo://app?vid=c35c608a-c0ec-40b0-b349-d6a79a771b6b"},"vehicle_type_id":"4","last_reported":1716055785,"current_range_meters":800,"station_id":"ce4bgt92rcd13ifvqcg0","pricing_plan_id":"cebpf4jnsgd1na2vs0mg"},{"bike_id":"b10deb69-b283-47a8-a3be-7594062289b8","system_id":"levelo_inurba_marseille","lat":43.31107,"lon":5.37777,"is_reserved":false,"is_disabled":false,"rental_uris":{"android":"levelo://app?vid=b10deb69-b283-47a8-a3be-7594062289b8","ios":"levelo://app?vid=b10deb69-b283-47a8-a3be-7594062289b8"},"vehicle_type_id":"4","last_reported":1716055785,"current_range_meters":14400,"station_id":"ce4bgt92rcd13ifvqcg0","pricing_plan_id":"cebpf4jnsgd1na2vs0mg"},{"bike_id":"6fd9d230-d00a-418f-bf98-6dfec38949fe","system_id":"levelo_inurba_marseille","lat":43.31101,"lon":5.37777,"is_reserved":false,"is_disabled":false,"rental_uris":{"android":"levelo://app?vid=6fd9d230-d00a-418f-bf98-6dfec38949fe","ios":"levelo://app?vid=6fd9d230-d00a-418f-bf98-6dfec38949fe"},"vehicle_type_id":"4","last_reported":1716055785,"current_range_meters":0,"station_id":"ce4bgt92rcd13ifvqcg0","pricing_plan_id":"cebpf4jnsgd1na2vs0mg"},{"bike_id":"06108819-520f-40b9-a6a1-c59048e09e89","system_id":"levelo_inurba_marseille","lat":43.316926,"lon":5.376632,"is_reserved":false,"is_disabled":false,"rental_uris":{"android":"levelo://app?vid=06108819-520f-40b9-a6a1-c59048e09e89","ios":"levelo://app?vid=06108819-520f-40b9-a6a1-c59048e09e89"},"vehicle_type_id":"4","last_reported":1716055785,"current_range_meters":1600,"station_id":"ce4bhsp2rcd13ifvqi50","pricing_plan_id":"cebpf4jnsgd1na2vs0mg"},{"bike_id":"242ad698-3e35-4bad-ad9e-0c95b7d6e020","system_id":"levelo_inurba_marseille","lat":43.303046,"lon":5.368981,"is_reserved":false,"is_disabled":false,"rental_uris":{"android":"levelo://app?vid=242ad698-3e35-4bad-ad9e-0c95b7d6e020","ios":"levelo://app?vid=242ad698-3e35-4bad-ad9e-0c95b7d6e020"},"vehicle_type_id":"4","last_reported":1716055785,"current_range_meters":0,"station_id":"ce4bgqh2rcd13ifvqc5g","pricing_plan_id":"cebpf4jnsgd1na2vs0mg"},{"bike_id":"4c448a0e-8062-40da-be9d-505b9a360303","system_id":"levelo_inurba_marseille","lat":43.303046,"lon":5.368981,"is_reserved":false,"is_disabled":false,"rental_uris":{"android":"levelo://app?vid=4c448a0e-8062-40da-be9d-505b9a360303","ios":"levelo://app?vid=4c448a0e-8062-40da-be9d-505b9a360303"},"vehicle_type_id":"4","last_reported":1716055785,"current_range_meters":4000,"station_id":"ce4bgqh2rcd13ifvqc5g","pricing_plan_id":"cebpf4jnsgd1na2vs0mg"},{"bike_id":"441ac2e7-1f07-4cc3-8c6b-d0f2cd9763b6","system_id":"levelo_inurba_marseille","lat":43.303046,"lon":5.368981,"is_reserved":false,"is_disabled":false,"rental_uris":{"android":"levelo://app?vid=441ac2e7-1f07-4cc3-8c6b-d0f2cd9763b6","ios":"levelo://app?vid=441ac2e7-1f07-4cc3-8c6b-d0f2cd9763b6"},"vehicle_type_id":"4","last_reported":1716055785,"current_range_meters":0,"station_id":"ce4bgqh2rcd13ifvqc5g","pricing_plan_id":"cebpf4jnsgd1na2vs0mg"},{"bike_id":"02303592-1899-4f0a-9a0f-7216c707ee30","system_id":"levelo_inurba_marseille","lat":43.303046,"lon":5.368981,"is_reserved":false,"is_disabled":false,"rental_uris":{"android":"levelo://app?vid=02303592-1899-4f0a-9a0f-7216c707ee30","ios":"levelo://app?vid=02303592-1899-4f0a-9a0f-7216c707ee30"},"vehicle_type_id":"4","last_reported":1716055785,"current_range_meters":0,"station_id":"ce4bgqh2rcd13ifvqc5g","pricing_plan_id":"cebpf4jnsgd1na2vs0mg"},{"bike_id":"efea153b-a2aa-4051-aff3-e18bda1d0839","system_id":"levelo_inurba_marseille","lat":43.315329,"lon":5.380384,"is_reserved":false,"is_disabled":false,"rental_uris":{"android":"levelo://app?vid=efea153b-a2aa-4051-aff3-e18bda1d0839","ios":"levelo://app?vid=efea153b-a2aa-4051-aff3-e18bda1d0839"},"vehicle_type_id":"4","last_reported":1716055785,"current_range_meters":27600,"station_id":"ce4bhsp2rcd13ifvqi50","pricing_plan_id":"cebpf4jnsgd1na2vs0mg"},{"bike_id":"aa1d7db2-211a-4ca1-9823-33d1a1904a66","system_id":"levelo_inurba_marseille","lat":43.312478,"lon":5.381492,"is_reserved":false,"is_disabled":false,"rental_uris":{"android":"levelo://app?vid=aa1d7db2-211a-4ca1-9823-33d1a1904a66","ios":"levelo://app?vid=aa1d7db2-211a-4ca1-9823-33d1a1904a66"},"vehicle_type_id":"4","last_reported":1716055785,"current_range_meters":0,"station_id":"ce4bgt92rcd13ifvqcf0","pricing_plan_id":"cebpf4jnsgd1na2vs0mg"},{"bike_id":"87ddfd39-0212-4e0c-bca8-aefaf7f75343","system_id":"levelo_inurba_marseille","lat":43.301939,"lon":5.366286,"is_reserved":false,"is_disabled":false,"rental_uris":{"android":"levelo://app?vid=87ddfd39-0212-4e0c-bca8-aefaf7f75343","ios":"levelo://app?vid=87ddfd39-0212-4e0c-bca8-aefaf7f75343"},"vehicle_type_id":"4","last_reported":1716055785,"current_range_meters":0,"station_id":"ce4bgrh2rcd13ifvqc8g","pricing_plan_id":"cebpf4jnsgd1na2vs0mg"},{"bike_id":"d9c9fa32-152d-4294-9e4f-9947572dfe2c","system_id":"levelo_inurba_marseille","lat":43.301939,"lon":5.366286,"is_reserved":false,"is_disabled":false,"rental_uris":{"android":"levelo://app?vid=d9c9fa32-152d-4294-9e4f-9947572dfe2c","ios":"levelo://app?vid=d9c9fa32-152d-4294-9e4f-9947572dfe2c"},"vehicle_type_id":"4","last_reported":1716055785,"current_range_meters":27600,"station_id":"ce4bgrh2rcd13ifvqc8g","pricing_plan_id":"cebpf4jnsgd1na2vs0mg"},{"bike_id":"8467336b-7d86-4003-b3f8-10c5884e1e12","system_id":"levelo_inurba_marseille","lat":43.308031,"lon":5.381626,"is_reserved":false,"is_disabled":false,"rental_uris":{"android":"levelo://app?vid=8467336b-7d86-4003-b3f8-10c5884e1e12","ios":"levelo://app?vid=8467336b-7d86-4003-b3f8-10c5884e1e12"},"vehicle_type_id":"4","last_reported":1716055785,"current_range_meters":0,"station_id":"ce4bgt12rcd13ifvqce0","pricing_plan_id":"cebpf4jnsgd1na2vs0mg"},{"bike_id":"8288682a-b939-4754-9f7b-7bee00ee3121","system_id":"levelo_inurba_marseille","lat":43.308012,"lon":5.381511,"is_reserved":false,"is_disabled":false,"rental_uris":{"android":"levelo://app?vid=8288682a-b939-4754-9f7b-7bee00ee3121","ios":"levelo://app?vid=8288682a-b939-4754-9f7b-7bee00ee3121"},"vehicle_type_id":"4","last_reported":1716055785,"current_range_meters":0,"station_id":"ce4bgt12rcd13ifvqce0","pricing_plan_id":"cebpf4jnsgd1na2vs0mg"},{"bike_id":"9bd55d6c-d90e-413c-9a37-c6100268d7eb","system_id":"levelo_inurba_marseille","lat":43.304606,"lon":5.379026,"is_reserved":false,"is_disabled":false,"rental_uris":{"android":"levelo://app?vid=9bd55d6c-d90e-413c-9a37-c6100268d7eb","ios":"levelo://app?vid=9bd55d6c-d90e-413c-9a37-c6100268d7eb"},"vehicle_type_id":"4","last_reported":1716055785,"current_range_meters":16400,"station_id":"ce4bgup2rcd13ifvqcn0","pricing_plan_id":"cebpf4jnsgd1na2vs0mg"},{"bike_id":"6998ba6e-8388-4eb6-802c-acf342fec688","system_id":"levelo_inurba_marseille","lat":43.304606,"lon":5.379026,"is_reserved":false,"is_disabled":false,"rental_uris":{"android":"levelo://app?vid=6998ba6e-8388-4eb6-802c-acf342fec688","ios":"levelo://app?vid=6998ba6e-8388-4eb6-802c-acf342fec688"},"vehicle_type_id":"4","last_reported":1716055785,"current_range_meters":0,"station_id":"ce4bgup2rcd13ifvqcn0","pricing_plan_id":"cebpf4jnsgd1na2vs0mg"},{"bike_id":"891e397f-b3a0-4ce1-88be-17440b529813","system_id":"levelo_inurba_marseille","lat":43.304606,"lon":5.379026,"is_reserved":false,"is_disabled":false,"rental_uris":{"android":"levelo://app?vid=891e397f-b3a0-4ce1-88be-17440b529813","ios":"levelo://app?vid=891e397f-b3a0-4ce1-88be-17440b529813"},"vehicle_type_id":"4","last_reported":1716055785,"current_range_meters":9200,"station_id":"ce4bgup2rcd13ifvqcn0","pricing_plan_id":"cebpf4jnsgd1na2vs0mg"},{"bike_id":"1cda4857-5021-42e9-9cf5-ff258896650f","system_id":"levelo_inurba_marseille","lat":43.310804,"lon":5.38359,"is_reserved":false,"is_disabled":false,"rental_uris":{"android":"levelo://app?vid=1cda4857-5021-42e9-9cf5-ff258896650f","ios":"levelo://app?vid=1cda4857-5021-42e9-9cf5-ff258896650f"},"vehicle_type_id":"4","last_reported":1716055785,"current_range_meters":4400,"station_id":"ce4bgv92rcd13ifvqcr0","pricing_plan_id":"cebpf4jnsgd1na2vs0mg"},{"bike_id":"06dfafdd-f15c-410d-af35-aa735fe5913e","system_id":"levelo_inurba_marseille","lat":43.304606,"lon":5.379026,"is_reserved":false,"is_disabled":false,"rental_uris":{"android":"levelo://app?vid=06dfafdd-f15c-410d-af35-aa735fe5913e","ios":"levelo://app?vid=06dfafdd-f15c-410d-af35-aa735fe5913e"},"vehicle_type_id":"4","last_reported":1716055785,"current_range_meters":23200,"station_id":"ce4bgup2rcd13ifvqcn0","pricing_plan_id":"cebpf4jnsgd1na2vs0mg"},{"bike_id":"5468214c-2cd9-4326-9125-f8a50a29115f","system_id":"levelo_inurba_marseille","lat":43.310804,"lon":5.38359,"is_reserved":false,"is_disabled":false,"rental_uris":{"android":"levelo://app?vid=5468214c-2cd9-4326-9125-f8a50a29115f","ios":"levelo://app?vid=5468214c-2cd9-4326-9125-f8a50a29115f"},"vehicle_type_id":"4","last_reported":1716055785,"current_range_meters":1600,"station_id":"ce4bgv92rcd13ifvqcr0","pricing_plan_id":"cebpf4jnsgd1na2vs0mg"},{"bike_id":"503ee338-7788-4dac-a80b-af572723ce67","system_id":"levelo_inurba_marseille","lat":43.310804,"lon":5.38359,"is_reserved":false,"is_disabled":false,"rental_uris":{"android":"levelo://app?vid=503ee338-7788-4dac-a80b-af572723ce67","ios":"levelo://app?vid=503ee338-7788-4dac-a80b-af572723ce67"},"vehicle_type_id":"4","last_reported":1716055785,"current_range_meters":0,"station_id":"ce4bgv92rcd13ifvqcr0","pricing_plan_id":"cebpf4jnsgd1na2vs0mg"},{"bike_id":"c966bd5b-a128-4ff7-b3d6-c0630adc1a89","system_id":"levelo_inurba_marseille","lat":43.310804,"lon":5.38359,"is_reserved":false,"is_disabled":false,"rental_uris":{"android":"levelo://app?vid=c966bd5b-a128-4ff7-b3d6-c0630adc1a89","ios":"levelo://app?vid=c966bd5b-a128-4ff7-b3d6-c0630adc1a89"},"vehicle_type_id":"4","last_reported":1716055785,"current_range_meters":5200,"station_id":"ce4bgv92rcd13ifvqcr0","pricing_plan_id":"cebpf4jnsgd1na2vs0mg"},{"bike_id":"892c2c1d-5f6c-4aab-8d33-80f5771c25a5","system_id":"levelo_inurba_marseille","lat":43.319935,"lon":5.381699,"is_reserved":false,"is_disabled":false,"rental_uris":{"android":"levelo://app?vid=892c2c1d-5f6c-4aab-8d33-80f5771c25a5","ios":"levelo://app?vid=892c2c1d-5f6c-4aab-8d33-80f5771c25a5"},"vehicle_type_id":"4","last_reported":1716055785,"current_range_meters":400,"station_id":"ce4bhr12rcd13ifvqhpg","pricing_plan_id":"cebpf4jnsgd1na2vs0mg"},{"bike_id":"72bdac11-6863-448b-ad0a-21c4dc4f332f","system_id":"levelo_inurba_marseille","lat":43.319935,"lon":5.381699,"is_reserved":false,"is_disabled":false,"rental_uris":{"android":"levelo://app?vid=72bdac11-6863-448b-ad0a-21c4dc4f332f","ios":"levelo://app?vid=72bdac11-6863-448b-ad0a-21c4dc4f332f"},"vehicle_type_id":"4","last_reported":1716055785,"current_range_meters":10800,"station_id":"ce4bhr12rcd13ifvqhpg","pricing_plan_id":"cebpf4jnsgd1na2vs0mg"},{"bike_id":"bde13806-e952-4e9b-a7d6-55773036b758","system_id":"levelo_inurba_marseille","lat":43.313571,"lon":5.384829,"is_reserved":false,"is_disabled":false,"rental_uris":{"android":"levelo://app?vid=bde13806-e952-4e9b-a7d6-55773036b758","ios":"levelo://app?vid=bde13806-e952-4e9b-a7d6-55773036b758"},"vehicle_type_id":"4","last_reported":1716055785,"current_range_meters":27200,"station_id":"ce4bgt92rcd13ifvqcf0","pricing_plan_id":"cebpf4jnsgd1na2vs0mg"},{"bike_id":"c0925d09-61c2-4b62-aa5f-246919d688de","system_id":"levelo_inurba_marseille","lat":43.304606,"lon":5.379026,"is_reserved":false,"is_disabled":false,"rental_uris":{"android":"levelo://app?vid=c0925d09-61c2-4b62-aa5f-246919d688de","ios":"levelo://app?vid=c0925d09-61c2-4b62-aa5f-246919d688de"},"vehicle_type_id":"4","last_reported":1716055785,"current_range_meters":17600,"station_id":"ce4bgup2rcd13ifvqcn0","pricing_plan_id":"cebpf4jnsgd1na2vs0mg"},{"bike_id":"df3ccb3b-06bd-4b51-bb2a-fc48e82a73a3","system_id":"levelo_inurba_marseille","lat":43.313571,"lon":5.384829,"is_reserved":false,"is_disabled":false,"rental_uris":{"android":"levelo://app?vid=df3ccb3b-06bd-4b51-bb2a-fc48e82a73a3","ios":"levelo://app?vid=df3ccb3b-06bd-4b51-bb2a-fc48e82a73a3"},"vehicle_type_id":"4","last_reported":1716055785,"current_range_meters":800,"station_id":"ce4bgt92rcd13ifvqcf0","pricing_plan_id":"cebpf4jnsgd1na2vs0mg"},{"bike_id":"98c86d2b-24d4-4a8b-b74a-2e2fb29773da","system_id":"levelo_inurba_marseille","lat":43.313571,"lon":5.384829,"is_reserved":false,"is_disabled":false,"rental_uris":{"android":"levelo://app?vid=98c86d2b-24d4-4a8b-b74a-2e2fb29773da","ios":"levelo://app?vid=98c86d2b-24d4-4a8b-b74a-2e2fb29773da"},"vehicle_type_id":"4","last_reported":1716055785,"current_range_meters":18000,"station_id":"ce4bgt92rcd13ifvqcf0","pricing_plan_id":"cebpf4jnsgd1na2vs0mg"},{"bike_id":"9743ca2c-32be-4501-9025-fb9d5eb73cf3","system_id":"levelo_inurba_marseille","lat":43.313571,"lon":5.384829,"is_reserved":false,"is_disabled":false,"rental_uris":{"android":"levelo://app?vid=9743ca2c-32be-4501-9025-fb9d5eb73cf3","ios":"levelo://app?vid=9743ca2c-32be-4501-9025-fb9d5eb73cf3"},"vehicle_type_id":"4","last_reported":1716055785,"current_range_meters":0,"station_id":"ce4bgt92rcd13ifvqcf0","pricing_plan_id":"cebpf4jnsgd1na2vs0mg"},{"bike_id":"09629526-3850-42d5-a999-a3a71dc1af6b","system_id":"levelo_inurba_marseille","lat":43.31365,"lon":5.38507,"is_reserved":false,"is_disabled":false,"rental_uris":{"android":"levelo://app?vid=09629526-3850-42d5-a999-a3a71dc1af6b","ios":"levelo://app?vid=09629526-3850-42d5-a999-a3a71dc1af6b"},"vehicle_type_id":"4","last_reported":1716055785,"current_range_meters":0,"station_id":"ce4bgt92rcd13ifvqcf0","pricing_plan_id":"cebpf4jnsgd1na2vs0mg"},{"bike_id":"0868e62b-3df6-4012-8fb5-9d4485826ef8","system_id":"levelo_inurba_marseille","lat":43.313571,"lon":5.384829,"is_reserved":false,"is_disabled":false,"rental_uris":{"android":"levelo://app?vid=0868e62b-3df6-4012-8fb5-9d4485826ef8","ios":"levelo://app?vid=0868e62b-3df6-4012-8fb5-9d4485826ef8"},"vehicle_type_id":"4","last_reported":1716055785,"current_range_meters":6800,"station_id":"ce4bgt92rcd13ifvqcf0","pricing_plan_id":"cebpf4jnsgd1na2vs0mg"},{"bike_id":"d542c9ff-51b5-4b74-9e72-5ef24de42c99","system_id":"levelo_inurba_marseille","lat":43.299724,"lon":5.371829,"is_reserved":false,"is_disabled":false,"rental_uris":{"android":"levelo://app?vid=d542c9ff-51b5-4b74-9e72-5ef24de42c99","ios":"levelo://app?vid=d542c9ff-51b5-4b74-9e72-5ef24de42c99"},"vehicle_type_id":"4","last_reported":1716055785,"current_range_meters":4400,"station_id":"ce4bgr92rcd13ifvqc7g","pricing_plan_id":"cebpf4jnsgd1na2vs0mg"},{"bike_id":"f37f96ed-ba25-4bc6-9543-ef0ecee736f7","system_id":"levelo_inurba_marseille","lat":43.299222,"lon":5.365554,"is_reserved":false,"is_disabled":false,"rental_uris":{"android":"levelo://app?vid=f37f96ed-ba25-4bc6-9543-ef0ecee736f7","ios":"levelo://app?vid=f37f96ed-ba25-4bc6-9543-ef0ecee736f7"},"vehicle_type_id":"4","last_reported":1716055785,"current_range_meters":19200,"station_id":"ce4bgm92rcd13ifvqbr0","pricing_plan_id":"cebpf4jnsgd1na2vs0mg"},{"bike_id":"67fcd1e6-c1fa-4a8d-9a94-6417433ad319","system_id":"levelo_inurba_marseille","lat":43.299222,"lon":5.365554,"is_reserved":false,"is_disabled":false,"rental_uris":{"android":"levelo://app?vid=67fcd1e6-c1fa-4a8d-9a94-6417433ad319","ios":"levelo://app?vid=67fcd1e6-c1fa-4a8d-9a94-6417433ad319"},"vehicle_type_id":"4","last_reported":1716055785,"current_range_meters":11200,"station_id":"ce4bgm92rcd13ifvqbr0","pricing_plan_id":"cebpf4jnsgd1na2vs0mg"},{"bike_id":"3847eba4-e519-4e3a-9589-0d4f63c752db","system_id":"levelo_inurba_marseille","lat":43.299222,"lon":5.365554,"is_reserved":false,"is_disabled":false,"rental_uris":{"android":"levelo://app?vid=3847eba4-e519-4e3a-9589-0d4f63c752db","ios":"levelo://app?vid=3847eba4-e519-4e3a-9589-0d4f63c752db"},"vehicle_type_id":"4","last_reported":1716055785,"current_range_meters":13200,"station_id":"ce4bgm92rcd13ifvqbr0","pricing_plan_id":"cebpf4jnsgd1na2vs0mg"},{"bike_id":"395fe061-08e8-45f9-bbfe-c0e8ff6675c1","system_id":"levelo_inurba_marseille","lat":43.299724,"lon":5.371829,"is_reserved":false,"is_disabled":false,"rental_uris":{"android":"levelo://app?vid=395fe061-08e8-45f9-bbfe-c0e8ff6675c1","ios":"levelo://app?vid=395fe061-08e8-45f9-bbfe-c0e8ff6675c1"},"vehicle_type_id":"4","last_reported":1716055785,"current_range_meters":6400,"station_id":"ce4bgr92rcd13ifvqc7g","pricing_plan_id":"cebpf4jnsgd1na2vs0mg"},{"bike_id":"5a1143f9-189b-42cd-92e7-876a987bfd27","system_id":"levelo_inurba_marseille","lat":43.299222,"lon":5.365554,"is_reserved":false,"is_disabled":false,"rental_uris":{"android":"levelo://app?vid=5a1143f9-189b-42cd-92e7-876a987bfd27","ios":"levelo://app?vid=5a1143f9-189b-42cd-92e7-876a987bfd27"},"vehicle_type_id":"4","last_reported":1716055785,"current_range_meters":18800,"station_id":"ce4bgm92rcd13ifvqbr0","pricing_plan_id":"cebpf4jnsgd1na2vs0mg"},{"bike_id":"82cfa020-bad2-4751-87f1-9bd81645600c","system_id":"levelo_inurba_marseille","lat":43.299724,"lon":5.371829,"is_reserved":false,"is_disabled":false,"rental_uris":{"android":"levelo://app?vid=82cfa020-bad2-4751-87f1-9bd81645600c","ios":"levelo://app?vid=82cfa020-bad2-4751-87f1-9bd81645600c"},"vehicle_type_id":"4","last_reported":1716055785,"current_range_meters":14800,"station_id":"ce4bgr92rcd13ifvqc7g","pricing_plan_id":"cebpf4jnsgd1na2vs0mg"},{"bike_id":"cd064e00-772c-4967-9545-9b8f72405c33","system_id":"levelo_inurba_marseille","lat":43.299222,"lon":5.365554,"is_reserved":false,"is_disabled":false,"rental_uris":{"android":"levelo://app?vid=cd064e00-772c-4967-9545-9b8f72405c33","ios":"levelo://app?vid=cd064e00-772c-4967-9545-9b8f72405c33"},"vehicle_type_id":"4","last_reported":1716055785,"current_range_meters":31200,"station_id":"ce4bgm92rcd13ifvqbr0","pricing_plan_id":"cebpf4jnsgd1na2vs0mg"},{"bike_id":"3b67b2ff-c195-4f43-bbf7-dc1d379ed42b","system_id":"levelo_inurba_marseille","lat":43.299724,"lon":5.371829,"is_reserved":false,"is_disabled":false,"rental_uris":{"android":"levelo://app?vid=3b67b2ff-c195-4f43-bbf7-dc1d379ed42b","ios":"levelo://app?vid=3b67b2ff-c195-4f43-bbf7-dc1d379ed42b"},"vehicle_type_id":"4","last_reported":1716055785,"current_range_meters":8400,"station_id":"ce4bgr92rcd13ifvqc7g","pricing_plan_id":"cebpf4jnsgd1na2vs0mg"},{"bike_id":"802fa08c-3466-4803-8b80-995a08f5cc2e","system_id":"levelo_inurba_marseille","lat":43.299209,"lon":5.365547,"is_reserved":false,"is_disabled":false,"rental_uris":{"android":"levelo://app?vid=802fa08c-3466-4803-8b80-995a08f5cc2e","ios":"levelo://app?vid=802fa08c-3466-4803-8b80-995a08f5cc2e"},"vehicle_type_id":"4","last_reported":1716055785,"current_range_meters":23200,"station_id":"ce4bgm92rcd13ifvqbr0","pricing_plan_id":"cebpf4jnsgd1na2vs0mg"},{"bike_id":"948fc1ca-7dcf-4335-96ac-2517d66b6a78","system_id":"levelo_inurba_marseille","lat":43.299222,"lon":5.365554,"is_reserved":false,"is_disabled":false,"rental_uris":{"android":"levelo://app?vid=948fc1ca-7dcf-4335-96ac-2517d66b6a78","ios":"levelo://app?vid=948fc1ca-7dcf-4335-96ac-2517d66b6a78"},"vehicle_type_id":"4","last_reported":1716055785,"current_range_meters":6800,"station_id":"ce4bgm92rcd13ifvqbr0","pricing_plan_id":"cebpf4jnsgd1na2vs0mg"},{"bike_id":"5a6f2ac9-5f07-4d5c-8940-ace93adee451","system_id":"levelo_inurba_marseille","lat":43.298433,"lon":5.362774,"is_reserved":false,"is_disabled":false,"rental_uris":{"android":"levelo://app?vid=5a6f2ac9-5f07-4d5c-8940-ace93adee451","ios":"levelo://app?vid=5a6f2ac9-5f07-4d5c-8940-ace93adee451"},"vehicle_type_id":"4","last_reported":1716055785,"current_range_meters":12000,"station_id":"ce4bgpp2rcd13ifvqc3g","pricing_plan_id":"cebpf4jnsgd1na2vs0mg"},{"bike_id":"877bf440-ad3e-4bc8-ab88-3278ab5495b3","system_id":"levelo_inurba_marseille","lat":43.299243,"lon":5.374807,"is_reserved":false,"is_disabled":false,"rental_uris":{"android":"levelo://app?vid=877bf440-ad3e-4bc8-ab88-3278ab5495b3","ios":"levelo://app?vid=877bf440-ad3e-4bc8-ab88-3278ab5495b3"},"vehicle_type_id":"4","last_reported":1716055785,"current_range_meters":26800,"station_id":"ce4bgjh2rcd13ifvqbg0","pricing_plan_id":"cebpf4jnsgd1na2vs0mg"},{"bike_id":"8622cc66-0285-486b-b236-af334e8c7de9","system_id":"levelo_inurba_marseille","lat":43.30537,"lon":5.38427,"is_reserved":false,"is_disabled":false,"rental_uris":{"android":"levelo://app?vid=8622cc66-0285-486b-b236-af334e8c7de9","ios":"levelo://app?vid=8622cc66-0285-486b-b236-af334e8c7de9"},"vehicle_type_id":"4","last_reported":1716055785,"current_range_meters":0,"station_id":"ce4bgg92rcd13ifvqb30","pricing_plan_id":"cebpf4jnsgd1na2vs0mg"},{"bike_id":"c1b8b956-42de-464c-8f92-953e4f983520","system_id":"levelo_inurba_marseille","lat":43.305364,"lon":5.384119,"is_reserved":false,"is_disabled":false,"rental_uris":{"android":"levelo://app?vid=c1b8b956-42de-464c-8f92-953e4f983520","ios":"levelo://app?vid=c1b8b956-42de-464c-8f92-953e4f983520"},"vehicle_type_id":"4","last_reported":1716055785,"current_range_meters":18000,"station_id":"ce4bgg92rcd13ifvqb30","pricing_plan_id":"cebpf4jnsgd1na2vs0mg"},{"bike_id":"af5134f7-e5cf-4546-b8c3-74441d26f7dc","system_id":"levelo_inurba_marseille","lat":43.299144,"lon":5.374458,"is_reserved":false,"is_disabled":false,"rental_uris":{"android":"levelo://app?vid=af5134f7-e5cf-4546-b8c3-74441d26f7dc","ios":"levelo://app?vid=af5134f7-e5cf-4546-b8c3-74441d26f7dc"},"vehicle_type_id":"4","last_reported":1716055785,"current_range_meters":5200,"station_id":"ce4bgjh2rcd13ifvqbg0","pricing_plan_id":"cebpf4jnsgd1na2vs0mg"},{"bike_id":"84397a22-66ad-4d2d-a666-2ab7446ae98e","system_id":"levelo_inurba_marseille","lat":43.299243,"lon":5.374807,"is_reserved":false,"is_disabled":false,"rental_uris":{"android":"levelo://app?vid=84397a22-66ad-4d2d-a666-2ab7446ae98e","ios":"levelo://app?vid=84397a22-66ad-4d2d-a666-2ab7446ae98e"},"vehicle_type_id":"4","last_reported":1716055785,"current_range_meters":17600,"station_id":"ce4bgjh2rcd13ifvqbg0","pricing_plan_id":"cebpf4jnsgd1na2vs0mg"},{"bike_id":"a6ac4925-c98b-4f5c-b7e0-f91e0f0d7761","system_id":"levelo_inurba_marseille","lat":43.299243,"lon":5.374807,"is_reserved":false,"is_disabled":false,"rental_uris":{"android":"levelo://app?vid=a6ac4925-c98b-4f5c-b7e0-f91e0f0d7761","ios":"levelo://app?vid=a6ac4925-c98b-4f5c-b7e0-f91e0f0d7761"},"vehicle_type_id":"4","last_reported":1716055785,"current_range_meters":5600,"station_id":"ce4bgjh2rcd13ifvqbg0","pricing_plan_id":"cebpf4jnsgd1na2vs0mg"},{"bike_id":"f508ab49-ec35-4b4e-be3f-052f44e0c7d1","system_id":"levelo_inurba_marseille","lat":43.299243,"lon":5.37481,"is_reserved":false,"is_disabled":false,"rental_uris":{"android":"levelo://app?vid=f508ab49-ec35-4b4e-be3f-052f44e0c7d1","ios":"levelo://app?vid=f508ab49-ec35-4b4e-be3f-052f44e0c7d1"},"vehicle_type_id":"4","last_reported":1716055785,"current_range_meters":22400,"station_id":"ce4bgjh2rcd13ifvqbg0","pricing_plan_id":"cebpf4jnsgd1na2vs0mg"},{"bike_id":"7e966b91-5f3f-4f7e-91ea-8354f471fa86","system_id":"levelo_inurba_marseille","lat":43.311722,"lon":5.387247,"is_reserved":false,"is_disabled":false,"rental_uris":{"android":"levelo://app?vid=7e966b91-5f3f-4f7e-91ea-8354f471fa86","ios":"levelo://app?vid=7e966b91-5f3f-4f7e-91ea-8354f471fa86"},"vehicle_type_id":"4","last_reported":1716055785,"current_range_meters":1200,"station_id":"ce4bgv12rcd13ifvqcp0","pricing_plan_id":"cebpf4jnsgd1na2vs0mg"},{"bike_id":"df938b01-e6ff-4558-81fb-afbab3024cdb","system_id":"levelo_inurba_marseille","lat":43.311722,"lon":5.387247,"is_reserved":false,"is_disabled":false,"rental_uris":{"android":"levelo://app?vid=df938b01-e6ff-4558-81fb-afbab3024cdb","ios":"levelo://app?vid=df938b01-e6ff-4558-81fb-afbab3024cdb"},"vehicle_type_id":"4","last_reported":1716055785,"current_range_meters":26400,"station_id":"ce4bgv12rcd13ifvqcp0","pricing_plan_id":"cebpf4jnsgd1na2vs0mg"},{"bike_id":"b8b55f30-3f37-4408-b470-0d479a49dd0f","system_id":"levelo_inurba_marseille","lat":43.311722,"lon":5.387247,"is_reserved":false,"is_disabled":false,"rental_uris":{"android":"levelo://app?vid=b8b55f30-3f37-4408-b470-0d479a49dd0f","ios":"levelo://app?vid=b8b55f30-3f37-4408-b470-0d479a49dd0f"},"vehicle_type_id":"4","last_reported":1716055785,"current_range_meters":0,"station_id":"ce4bgv12rcd13ifvqcp0","pricing_plan_id":"cebpf4jnsgd1na2vs0mg"},{"bike_id":"606f8b43-6510-48b6-88b9-5dbbe1c44b2c","system_id":"levelo_inurba_marseille","lat":43.30223,"lon":5.38173,"is_reserved":false,"is_disabled":false,"rental_uris":{"android":"levelo://app?vid=606f8b43-6510-48b6-88b9-5dbbe1c44b2c","ios":"levelo://app?vid=606f8b43-6510-48b6-88b9-5dbbe1c44b2c"},"vehicle_type_id":"4","last_reported":1716055785,"current_range_meters":20800,"station_id":"","pricing_plan_id":"cebpf4jnsgd1na2vs0mg"},{"bike_id":"9385d173-06b2-4fde-8d3d-ba7b1bec39da","system_id":"levelo_inurba_marseille","lat":43.322872,"lon":5.382756,"is_reserved":false,"is_disabled":false,"rental_uris":{"android":"levelo://app?vid=9385d173-06b2-4fde-8d3d-ba7b1bec39da","ios":"levelo://app?vid=9385d173-06b2-4fde-8d3d-ba7b1bec39da"},"vehicle_type_id":"4","last_reported":1716055785,"current_range_meters":3200,"station_id":"ce4bhr12rcd13ifvqhqg","pricing_plan_id":"cebpf4jnsgd1na2vs0mg"},{"bike_id":"a78c0371-18a7-4609-8a16-1a99a180568a","system_id":"levelo_inurba_marseille","lat":43.297794,"lon":5.370888,"is_reserved":false,"is_disabled":false,"rental_uris":{"android":"levelo://app?vid=a78c0371-18a7-4609-8a16-1a99a180568a","ios":"levelo://app?vid=a78c0371-18a7-4609-8a16-1a99a180568a"},"vehicle_type_id":"4","last_reported":1716055785,"current_range_meters":30400,"station_id":"ce4bgop2rcd13ifvqc1g","pricing_plan_id":"cebpf4jnsgd1na2vs0mg"},{"bike_id":"e6138240-59ae-4181-9085-c413e3ee7613","system_id":"levelo_inurba_marseille","lat":43.297794,"lon":5.370888,"is_reserved":false,"is_disabled":false,"rental_uris":{"android":"levelo://app?vid=e6138240-59ae-4181-9085-c413e3ee7613","ios":"levelo://app?vid=e6138240-59ae-4181-9085-c413e3ee7613"},"vehicle_type_id":"4","last_reported":1716055785,"current_range_meters":0,"station_id":"ce4bgop2rcd13ifvqc1g","pricing_plan_id":"cebpf4jnsgd1na2vs0mg"},{"bike_id":"b22379ec-8777-4dcd-8c0e-9642bdad8cfd","system_id":"levelo_inurba_marseille","lat":43.297774,"lon":5.370875,"is_reserved":false,"is_disabled":false,"rental_uris":{"android":"levelo://app?vid=b22379ec-8777-4dcd-8c0e-9642bdad8cfd","ios":"levelo://app?vid=b22379ec-8777-4dcd-8c0e-9642bdad8cfd"},"vehicle_type_id":"4","last_reported":1716055785,"current_range_meters":31200,"station_id":"ce4bgop2rcd13ifvqc1g","pricing_plan_id":"cebpf4jnsgd1na2vs0mg"},{"bike_id":"c02eb6a0-3641-45eb-bf0b-d5cb76a88616","system_id":"levelo_inurba_marseille","lat":43.297794,"lon":5.370888,"is_reserved":false,"is_disabled":false,"rental_uris":{"android":"levelo://app?vid=c02eb6a0-3641-45eb-bf0b-d5cb76a88616","ios":"levelo://app?vid=c02eb6a0-3641-45eb-bf0b-d5cb76a88616"},"vehicle_type_id":"4","last_reported":1716055785,"current_range_meters":4000,"station_id":"ce4bgop2rcd13ifvqc1g","pricing_plan_id":"cebpf4jnsgd1na2vs0mg"},{"bike_id":"014730fe-7821-4e00-9515-aa7bcd7e04e9","system_id":"levelo_inurba_marseille","lat":43.297774,"lon":5.370875,"is_reserved":false,"is_disabled":false,"rental_uris":{"android":"levelo://app?vid=014730fe-7821-4e00-9515-aa7bcd7e04e9","ios":"levelo://app?vid=014730fe-7821-4e00-9515-aa7bcd7e04e9"},"vehicle_type_id":"4","last_reported":1716055785,"current_range_meters":11600,"station_id":"ce4bgop2rcd13ifvqc1g","pricing_plan_id":"cebpf4jnsgd1na2vs0mg"},{"bike_id":"91130ec7-f216-4832-ada1-9325107d5c5f","system_id":"levelo_inurba_marseille","lat":43.29777,"lon":5.37113,"is_reserved":false,"is_disabled":false,"rental_uris":{"android":"levelo://app?vid=91130ec7-f216-4832-ada1-9325107d5c5f","ios":"levelo://app?vid=91130ec7-f216-4832-ada1-9325107d5c5f"},"vehicle_type_id":"4","last_reported":1716055785,"current_range_meters":4800,"station_id":"ce4bgop2rcd13ifvqc1g","pricing_plan_id":"cebpf4jnsgd1na2vs0mg"},{"bike_id":"ed038377-27e4-4849-8868-381dfdbc3a78","system_id":"levelo_inurba_marseille","lat":43.297756,"lon":5.371157,"is_reserved":false,"is_disabled":false,"rental_uris":{"android":"levelo://app?vid=ed038377-27e4-4849-8868-381dfdbc3a78","ios":"levelo://app?vid=ed038377-27e4-4849-8868-381dfdbc3a78"},"vehicle_type_id":"4","last_reported":1716055785,"current_range_meters":3200,"station_id":"ce4bgk12rcd13ifvqbj0","pricing_plan_id":"cebpf4jnsgd1na2vs0mg"},{"bike_id":"1a505eb3-cd37-4faa-9670-391bb2bd9378","system_id":"levelo_inurba_marseille","lat":43.322872,"lon":5.382756,"is_reserved":false,"is_disabled":false,"rental_uris":{"android":"levelo://app?vid=1a505eb3-cd37-4faa-9670-391bb2bd9378","ios":"levelo://app?vid=1a505eb3-cd37-4faa-9670-391bb2bd9378"},"vehicle_type_id":"4","last_reported":1716055785,"current_range_meters":8400,"station_id":"ce4bhr12rcd13ifvqhqg","pricing_plan_id":"cebpf4jnsgd1na2vs0mg"},{"bike_id":"20a219a4-15d8-4496-9559-cd12f79d5c85","system_id":"levelo_inurba_marseille","lat":43.322872,"lon":5.382756,"is_reserved":false,"is_disabled":false,"rental_uris":{"android":"levelo://app?vid=20a219a4-15d8-4496-9559-cd12f79d5c85","ios":"levelo://app?vid=20a219a4-15d8-4496-9559-cd12f79d5c85"},"vehicle_type_id":"4","last_reported":1716055785,"current_range_meters":30000,"station_id":"ce4bhr12rcd13ifvqhqg","pricing_plan_id":"cebpf4jnsgd1na2vs0mg"},{"bike_id":"9a32493a-4fbc-4ccc-a890-1e41ede2e2a5","system_id":"levelo_inurba_marseille","lat":43.322872,"lon":5.382756,"is_reserved":false,"is_disabled":false,"rental_uris":{"android":"levelo://app?vid=9a32493a-4fbc-4ccc-a890-1e41ede2e2a5","ios":"levelo://app?vid=9a32493a-4fbc-4ccc-a890-1e41ede2e2a5"},"vehicle_type_id":"4","last_reported":1716055785,"current_range_meters":4400,"station_id":"ce4bhr12rcd13ifvqhqg","pricing_plan_id":"cebpf4jnsgd1na2vs0mg"},{"bike_id":"4027342e-6bc1-479d-a1f4-047d29934e99","system_id":"levelo_inurba_marseille","lat":43.297163,"lon":5.365866,"is_reserved":false,"is_disabled":false,"rental_uris":{"android":"levelo://app?vid=4027342e-6bc1-479d-a1f4-047d29934e99","ios":"levelo://app?vid=4027342e-6bc1-479d-a1f4-047d29934e99"},"vehicle_type_id":"4","last_reported":1716055785,"current_range_meters":0,"station_id":"ce4bgn12rcd13ifvqbt0","pricing_plan_id":"cebpf4jnsgd1na2vs0mg"},{"bike_id":"a4dd7cfc-a47e-4250-b9a8-69650f75794d","system_id":"levelo_inurba_marseille","lat":43.297116,"lon":5.366164,"is_reserved":false,"is_disabled":false,"rental_uris":{"android":"levelo://app?vid=a4dd7cfc-a47e-4250-b9a8-69650f75794d","ios":"levelo://app?vid=a4dd7cfc-a47e-4250-b9a8-69650f75794d"},"vehicle_type_id":"4","last_reported":1716055785,"current_range_meters":1600,"station_id":"ce4bgn12rcd13ifvqbt0","pricing_plan_id":"cebpf4jnsgd1na2vs0mg"},{"bike_id":"2a2e2bb0-6b21-4307-8726-600586696ba0","system_id":"levelo_inurba_marseille","lat":43.297163,"lon":5.365866,"is_reserved":false,"is_disabled":false,"rental_uris":{"android":"levelo://app?vid=2a2e2bb0-6b21-4307-8726-600586696ba0","ios":"levelo://app?vid=2a2e2bb0-6b21-4307-8726-600586696ba0"},"vehicle_type_id":"4","last_reported":1716055785,"current_range_meters":0,"station_id":"ce4bgn12rcd13ifvqbt0","pricing_plan_id":"cebpf4jnsgd1na2vs0mg"},{"bike_id":"e8b74b53-1f66-4822-bc9f-59e0cd63ffdc","system_id":"levelo_inurba_marseille","lat":43.296976,"lon":5.368928,"is_reserved":false,"is_disabled":false,"rental_uris":{"android":"levelo://app?vid=e8b74b53-1f66-4822-bc9f-59e0cd63ffdc","ios":"levelo://app?vid=e8b74b53-1f66-4822-bc9f-59e0cd63ffdc"},"vehicle_type_id":"4","last_reported":1716055785,"current_range_meters":400,"station_id":"","pricing_plan_id":"cebpf4jnsgd1na2vs0mg"},{"bike_id":"e564436e-d9f7-48e8-add0-1ae6890fbc08","system_id":"levelo_inurba_marseille","lat":43.297163,"lon":5.365866,"is_reserved":false,"is_disabled":false,"rental_uris":{"android":"levelo://app?vid=e564436e-d9f7-48e8-add0-1ae6890fbc08","ios":"levelo://app?vid=e564436e-d9f7-48e8-add0-1ae6890fbc08"},"vehicle_type_id":"4","last_reported":1716055785,"current_range_meters":13600,"station_id":"ce4bgn12rcd13ifvqbt0","pricing_plan_id":"cebpf4jnsgd1na2vs0mg"},{"bike_id":"3f15e4df-5f20-4acc-b12e-386799f4368e","system_id":"levelo_inurba_marseille","lat":43.296787,"lon":5.372167,"is_reserved":false,"is_disabled":false,"rental_uris":{"android":"levelo://app?vid=3f15e4df-5f20-4acc-b12e-386799f4368e","ios":"levelo://app?vid=3f15e4df-5f20-4acc-b12e-386799f4368e"},"vehicle_type_id":"4","last_reported":1716055785,"current_range_meters":0,"station_id":"","pricing_plan_id":"cebpf4jnsgd1na2vs0mg"},{"bike_id":"62258ad9-40de-467d-87b3-6bfc109e9011","system_id":"levelo_inurba_marseille","lat":43.2968,"lon":5.37291,"is_reserved":false,"is_disabled":false,"rental_uris":{"android":"levelo://app?vid=62258ad9-40de-467d-87b3-6bfc109e9011","ios":"levelo://app?vid=62258ad9-40de-467d-87b3-6bfc109e9011"},"vehicle_type_id":"4","last_reported":1716055785,"current_range_meters":23200,"station_id":"ce4bgk12rcd13ifvqbj0","pricing_plan_id":"cebpf4jnsgd1na2vs0mg"},{"bike_id":"ec080f4e-f2e8-4ff3-8f34-c7426c672486","system_id":"levelo_inurba_marseille","lat":43.2968,"lon":5.37291,"is_reserved":false,"is_disabled":false,"rental_uris":{"android":"levelo://app?vid=ec080f4e-f2e8-4ff3-8f34-c7426c672486","ios":"levelo://app?vid=ec080f4e-f2e8-4ff3-8f34-c7426c672486"},"vehicle_type_id":"4","last_reported":1716055785,"current_range_meters":31200,"station_id":"ce4bgk12rcd13ifvqbj0","pricing_plan_id":"cebpf4jnsgd1na2vs0mg"},{"bike_id":"70077596-cf1c-492b-ad75-a191fad25642","system_id":"levelo_inurba_marseille","lat":43.2968,"lon":5.37291,"is_reserved":false,"is_disabled":false,"rental_uris":{"android":"levelo://app?vid=70077596-cf1c-492b-ad75-a191fad25642","ios":"levelo://app?vid=70077596-cf1c-492b-ad75-a191fad25642"},"vehicle_type_id":"4","last_reported":1716055785,"current_range_meters":19200,"station_id":"ce4bgk12rcd13ifvqbj0","pricing_plan_id":"cebpf4jnsgd1na2vs0mg"},{"bike_id":"914918b3-5522-4f78-97d2-88c6276c0735","system_id":"levelo_inurba_marseille","lat":43.2968,"lon":5.37291,"is_reserved":false,"is_disabled":false,"rental_uris":{"android":"levelo://app?vid=914918b3-5522-4f78-97d2-88c6276c0735","ios":"levelo://app?vid=914918b3-5522-4f78-97d2-88c6276c0735"},"vehicle_type_id":"4","last_reported":1716055785,"current_range_meters":400,"station_id":"ce4bgk12rcd13ifvqbj0","pricing_plan_id":"cebpf4jnsgd1na2vs0mg"},{"bike_id":"d89e3252-ba75-4ccf-b06b-c0f5b768e1a2","system_id":"levelo_inurba_marseille","lat":43.2968,"lon":5.37291,"is_reserved":false,"is_disabled":false,"rental_uris":{"android":"levelo://app?vid=d89e3252-ba75-4ccf-b06b-c0f5b768e1a2","ios":"levelo://app?vid=d89e3252-ba75-4ccf-b06b-c0f5b768e1a2"},"vehicle_type_id":"4","last_reported":1716055785,"current_range_meters":1200,"station_id":"ce4bgk12rcd13ifvqbj0","pricing_plan_id":"cebpf4jnsgd1na2vs0mg"},{"bike_id":"c0b498e0-13a8-4048-9ad1-239a98ef44f9","system_id":"levelo_inurba_marseille","lat":43.298801,"lon":5.380009,"is_reserved":false,"is_disabled":false,"rental_uris":{"android":"levelo://app?vid=c0b498e0-13a8-4048-9ad1-239a98ef44f9","ios":"levelo://app?vid=c0b498e0-13a8-4048-9ad1-239a98ef44f9"},"vehicle_type_id":"4","last_reported":1716055785,"current_range_meters":19200,"station_id":"","pricing_plan_id":"cebpf4jnsgd1na2vs0mg"},{"bike_id":"d92422cd-24b1-4d45-b1c7-c79e3da34b8f","system_id":"levelo_inurba_marseille","lat":43.29718,"lon":5.37681,"is_reserved":false,"is_disabled":false,"rental_uris":{"android":"levelo://app?vid=d92422cd-24b1-4d45-b1c7-c79e3da34b8f","ios":"levelo://app?vid=d92422cd-24b1-4d45-b1c7-c79e3da34b8f"},"vehicle_type_id":"4","last_reported":1716055785,"current_range_meters":0,"station_id":"ce4bgkh2rcd13ifvqbl0","pricing_plan_id":"cebpf4jnsgd1na2vs0mg"},{"bike_id":"6c8779a2-43a3-4a2a-b4a3-da1319d6d69a","system_id":"levelo_inurba_marseille","lat":43.299028,"lon":5.381509,"is_reserved":false,"is_disabled":false,"rental_uris":{"android":"levelo://app?vid=6c8779a2-43a3-4a2a-b4a3-da1319d6d69a","ios":"levelo://app?vid=6c8779a2-43a3-4a2a-b4a3-da1319d6d69a"},"vehicle_type_id":"4","last_reported":1716055785,"current_range_meters":0,"station_id":"ce4bgj12rcd13ifvqbc0","pricing_plan_id":"cebpf4jnsgd1na2vs0mg"},{"bike_id":"2e9d922e-04a3-4cce-a5ac-e76f529aeac7","system_id":"levelo_inurba_marseille","lat":43.311722,"lon":5.387247,"is_reserved":false,"is_disabled":false,"rental_uris":{"android":"levelo://app?vid=2e9d922e-04a3-4cce-a5ac-e76f529aeac7","ios":"levelo://app?vid=2e9d922e-04a3-4cce-a5ac-e76f529aeac7"},"vehicle_type_id":"4","last_reported":1716055785,"current_range_meters":30400,"station_id":"ce4bgv12rcd13ifvqcp0","pricing_plan_id":"cebpf4jnsgd1na2vs0mg"},{"bike_id":"c746ef8e-570e-4737-95f5-82120b48cd5a","system_id":"levelo_inurba_marseille","lat":43.309556,"lon":5.39024,"is_reserved":false,"is_disabled":false,"rental_uris":{"android":"levelo://app?vid=c746ef8e-570e-4737-95f5-82120b48cd5a","ios":"levelo://app?vid=c746ef8e-570e-4737-95f5-82120b48cd5a"},"vehicle_type_id":"4","last_reported":1716055785,"current_range_meters":31200,"station_id":"ce4bgup2rcd13ifvqco0","pricing_plan_id":"cebpf4jnsgd1na2vs0mg"},{"bike_id":"68c4cdd0-b5e9-41be-b96a-33bf454e3d0c","system_id":"levelo_inurba_marseille","lat":43.299028,"lon":5.381509,"is_reserved":false,"is_disabled":false,"rental_uris":{"android":"levelo://app?vid=68c4cdd0-b5e9-41be-b96a-33bf454e3d0c","ios":"levelo://app?vid=68c4cdd0-b5e9-41be-b96a-33bf454e3d0c"},"vehicle_type_id":"4","last_reported":1716055785,"current_range_meters":20400,"station_id":"ce4bgj12rcd13ifvqbc0","pricing_plan_id":"cebpf4jnsgd1na2vs0mg"},{"bike_id":"2ebb4301-e57a-416d-a4b3-06ff68ba280a","system_id":"levelo_inurba_marseille","lat":43.308051,"lon":5.43527,"is_reserved":false,"is_disabled":false,"rental_uris":{"android":"levelo://app?vid=2ebb4301-e57a-416d-a4b3-06ff68ba280a","ios":"levelo://app?vid=2ebb4301-e57a-416d-a4b3-06ff68ba280a"},"vehicle_type_id":"4","last_reported":1716055785,"current_range_meters":800,"station_id":"ce4bhph2rcd13ifvqheg","pricing_plan_id":"cebpf4jnsgd1na2vs0mg"},{"bike_id":"0f447b54-1dab-43ae-927a-d506c350fb52","system_id":"levelo_inurba_marseille","lat":43.296921,"lon":5.376579,"is_reserved":false,"is_disabled":false,"rental_uris":{"android":"levelo://app?vid=0f447b54-1dab-43ae-927a-d506c350fb52","ios":"levelo://app?vid=0f447b54-1dab-43ae-927a-d506c350fb52"},"vehicle_type_id":"4","last_reported":1716055785,"current_range_meters":0,"station_id":"ce4bgkh2rcd13ifvqbl0","pricing_plan_id":"cebpf4jnsgd1na2vs0mg"},{"bike_id":"cee6e171-d413-43a6-a74a-587875f34a9f","system_id":"levelo_inurba_marseille","lat":43.309589,"lon":5.390258,"is_reserved":false,"is_disabled":false,"rental_uris":{"android":"levelo://app?vid=cee6e171-d413-43a6-a74a-587875f34a9f","ios":"levelo://app?vid=cee6e171-d413-43a6-a74a-587875f34a9f"},"vehicle_type_id":"4","last_reported":1716055785,"current_range_meters":6400,"station_id":"ce4bgup2rcd13ifvqco0","pricing_plan_id":"cebpf4jnsgd1na2vs0mg"},{"bike_id":"b6710f8d-d197-4885-9c34-b452bb21464b","system_id":"levelo_inurba_marseille","lat":43.309589,"lon":5.390258,"is_reserved":false,"is_disabled":false,"rental_uris":{"android":"levelo://app?vid=b6710f8d-d197-4885-9c34-b452bb21464b","ios":"levelo://app?vid=b6710f8d-d197-4885-9c34-b452bb21464b"},"vehicle_type_id":"4","last_reported":1716055785,"current_range_meters":21600,"station_id":"ce4bgup2rcd13ifvqco0","pricing_plan_id":"cebpf4jnsgd1na2vs0mg"},{"bike_id":"13c1cd58-66e7-46f9-b7f0-333e5b1217fb","system_id":"levelo_inurba_marseille","lat":43.309589,"lon":5.390258,"is_reserved":false,"is_disabled":false,"rental_uris":{"android":"levelo://app?vid=13c1cd58-66e7-46f9-b7f0-333e5b1217fb","ios":"levelo://app?vid=13c1cd58-66e7-46f9-b7f0-333e5b1217fb"},"vehicle_type_id":"4","last_reported":1716055785,"current_range_meters":6800,"station_id":"ce4bgup2rcd13ifvqco0","pricing_plan_id":"cebpf4jnsgd1na2vs0mg"},{"bike_id":"a213dca7-ac93-426f-b416-23be39b7a346","system_id":"levelo_inurba_marseille","lat":43.30956,"lon":5.3903,"is_reserved":false,"is_disabled":false,"rental_uris":{"android":"levelo://app?vid=a213dca7-ac93-426f-b416-23be39b7a346","ios":"levelo://app?vid=a213dca7-ac93-426f-b416-23be39b7a346"},"vehicle_type_id":"4","last_reported":1716055785,"current_range_meters":800,"station_id":"ce4bgup2rcd13ifvqco0","pricing_plan_id":"cebpf4jnsgd1na2vs0mg"},{"bike_id":"547e23b2-e08f-41b7-a7c3-8d48345f0268","system_id":"levelo_inurba_marseille","lat":43.309589,"lon":5.390258,"is_reserved":false,"is_disabled":false,"rental_uris":{"android":"levelo://app?vid=547e23b2-e08f-41b7-a7c3-8d48345f0268","ios":"levelo://app?vid=547e23b2-e08f-41b7-a7c3-8d48345f0268"},"vehicle_type_id":"4","last_reported":1716055785,"current_range_meters":14800,"station_id":"ce4bgup2rcd13ifvqco0","pricing_plan_id":"cebpf4jnsgd1na2vs0mg"},{"bike_id":"1a4b1aa9-4b82-4ae9-876f-cbe0312e2d36","system_id":"levelo_inurba_marseille","lat":43.309589,"lon":5.390258,"is_reserved":false,"is_disabled":false,"rental_uris":{"android":"levelo://app?vid=1a4b1aa9-4b82-4ae9-876f-cbe0312e2d36","ios":"levelo://app?vid=1a4b1aa9-4b82-4ae9-876f-cbe0312e2d36"},"vehicle_type_id":"4","last_reported":1716055785,"current_range_meters":10400,"station_id":"ce4bgup2rcd13ifvqco0","pricing_plan_id":"cebpf4jnsgd1na2vs0mg"},{"bike_id":"eb718197-e43b-4bf1-b760-8ed7b312839a","system_id":"levelo_inurba_marseille","lat":43.309589,"lon":5.390258,"is_reserved":false,"is_disabled":false,"rental_uris":{"android":"levelo://app?vid=eb718197-e43b-4bf1-b760-8ed7b312839a","ios":"levelo://app?vid=eb718197-e43b-4bf1-b760-8ed7b312839a"},"vehicle_type_id":"4","last_reported":1716055785,"current_range_meters":4800,"station_id":"ce4bgup2rcd13ifvqco0","pricing_plan_id":"cebpf4jnsgd1na2vs0mg"},{"bike_id":"603baedf-9108-4d5c-a917-a27c83b2b9c4","system_id":"levelo_inurba_marseille","lat":43.309515,"lon":5.390342,"is_reserved":false,"is_disabled":false,"rental_uris":{"android":"levelo://app?vid=603baedf-9108-4d5c-a917-a27c83b2b9c4","ios":"levelo://app?vid=603baedf-9108-4d5c-a917-a27c83b2b9c4"},"vehicle_type_id":"4","last_reported":1716055785,"current_range_meters":12000,"station_id":"ce4bgup2rcd13ifvqco0","pricing_plan_id":"cebpf4jnsgd1na2vs0mg"},{"bike_id":"e244644a-b684-4318-96ed-d4ef77fb74d5","system_id":"levelo_inurba_marseille","lat":43.296921,"lon":5.376579,"is_reserved":false,"is_disabled":false,"rental_uris":{"android":"levelo://app?vid=e244644a-b684-4318-96ed-d4ef77fb74d5","ios":"levelo://app?vid=e244644a-b684-4318-96ed-d4ef77fb74d5"},"vehicle_type_id":"4","last_reported":1716055785,"current_range_meters":0,"station_id":"ce4bgkh2rcd13ifvqbl0","pricing_plan_id":"cebpf4jnsgd1na2vs0mg"},{"bike_id":"4531909b-e130-42c9-bf93-fbfff0c592cd","system_id":"levelo_inurba_marseille","lat":43.309589,"lon":5.390258,"is_reserved":false,"is_disabled":false,"rental_uris":{"android":"levelo://app?vid=4531909b-e130-42c9-bf93-fbfff0c592cd","ios":"levelo://app?vid=4531909b-e130-42c9-bf93-fbfff0c592cd"},"vehicle_type_id":"4","last_reported":1716055785,"current_range_meters":29600,"station_id":"ce4bgup2rcd13ifvqco0","pricing_plan_id":"cebpf4jnsgd1na2vs0mg"},{"bike_id":"d8c3c4c1-860b-4bd8-b340-d1702ddd69a7","system_id":"levelo_inurba_marseille","lat":43.309589,"lon":5.390258,"is_reserved":false,"is_disabled":false,"rental_uris":{"android":"levelo://app?vid=d8c3c4c1-860b-4bd8-b340-d1702ddd69a7","ios":"levelo://app?vid=d8c3c4c1-860b-4bd8-b340-d1702ddd69a7"},"vehicle_type_id":"4","last_reported":1716055785,"current_range_meters":8800,"station_id":"ce4bgup2rcd13ifvqco0","pricing_plan_id":"cebpf4jnsgd1na2vs0mg"},{"bike_id":"564576f9-8c84-4183-a934-361873fd469e","system_id":"levelo_inurba_marseille","lat":43.30951,"lon":5.39035,"is_reserved":false,"is_disabled":false,"rental_uris":{"android":"levelo://app?vid=564576f9-8c84-4183-a934-361873fd469e","ios":"levelo://app?vid=564576f9-8c84-4183-a934-361873fd469e"},"vehicle_type_id":"4","last_reported":1716055785,"current_range_meters":7600,"station_id":"ce4bgup2rcd13ifvqco0","pricing_plan_id":"cebpf4jnsgd1na2vs0mg"},{"bike_id":"5b016400-3e56-45de-bc6a-229a95106682","system_id":"levelo_inurba_marseille","lat":43.309585,"lon":5.390371,"is_reserved":false,"is_disabled":false,"rental_uris":{"android":"levelo://app?vid=5b016400-3e56-45de-bc6a-229a95106682","ios":"levelo://app?vid=5b016400-3e56-45de-bc6a-229a95106682"},"vehicle_type_id":"4","last_reported":1716055785,"current_range_meters":21600,"station_id":"ce4bgup2rcd13ifvqco0","pricing_plan_id":"cebpf4jnsgd1na2vs0mg"},{"bike_id":"c3ee0c3d-183b-42ec-96f8-7758f468f5a7","system_id":"levelo_inurba_marseille","lat":43.309589,"lon":5.390258,"is_reserved":false,"is_disabled":false,"rental_uris":{"android":"levelo://app?vid=c3ee0c3d-183b-42ec-96f8-7758f468f5a7","ios":"levelo://app?vid=c3ee0c3d-183b-42ec-96f8-7758f468f5a7"},"vehicle_type_id":"4","last_reported":1716055785,"current_range_meters":8400,"station_id":"ce4bgup2rcd13ifvqco0","pricing_plan_id":"cebpf4jnsgd1na2vs0mg"},{"bike_id":"3f4205c1-aff8-4c22-8a63-476551be5f6f","system_id":"levelo_inurba_marseille","lat":43.309589,"lon":5.390258,"is_reserved":false,"is_disabled":false,"rental_uris":{"android":"levelo://app?vid=3f4205c1-aff8-4c22-8a63-476551be5f6f","ios":"levelo://app?vid=3f4205c1-aff8-4c22-8a63-476551be5f6f"},"vehicle_type_id":"4","last_reported":1716055785,"current_range_meters":19600,"station_id":"ce4bgup2rcd13ifvqco0","pricing_plan_id":"cebpf4jnsgd1na2vs0mg"},{"bike_id":"560680af-d99d-4f1b-8a7d-18db94c92fa4","system_id":"levelo_inurba_marseille","lat":43.309468,"lon":5.390408,"is_reserved":false,"is_disabled":false,"rental_uris":{"android":"levelo://app?vid=560680af-d99d-4f1b-8a7d-18db94c92fa4","ios":"levelo://app?vid=560680af-d99d-4f1b-8a7d-18db94c92fa4"},"vehicle_type_id":"4","last_reported":1716055785,"current_range_meters":9200,"station_id":"ce4bgup2rcd13ifvqco0","pricing_plan_id":"cebpf4jnsgd1na2vs0mg"},{"bike_id":"4d0bb5e6-0474-4729-b17f-0f43ac90100a","system_id":"levelo_inurba_marseille","lat":43.302992,"lon":5.392136,"is_reserved":false,"is_disabled":false,"rental_uris":{"android":"levelo://app?vid=4d0bb5e6-0474-4729-b17f-0f43ac90100a","ios":"levelo://app?vid=4d0bb5e6-0474-4729-b17f-0f43ac90100a"},"vehicle_type_id":"4","last_reported":1716055785,"current_range_meters":400,"station_id":"ce4bgkh2rcd13ifvqbk0","pricing_plan_id":"cebpf4jnsgd1na2vs0mg"},{"bike_id":"f9998aa9-f83f-4b4b-b6b1-5b70024f7f1b","system_id":"levelo_inurba_marseille","lat":43.309589,"lon":5.390258,"is_reserved":false,"is_disabled":false,"rental_uris":{"android":"levelo://app?vid=f9998aa9-f83f-4b4b-b6b1-5b70024f7f1b","ios":"levelo://app?vid=f9998aa9-f83f-4b4b-b6b1-5b70024f7f1b"},"vehicle_type_id":"4","last_reported":1716055785,"current_range_meters":13600,"station_id":"ce4bgup2rcd13ifvqco0","pricing_plan_id":"cebpf4jnsgd1na2vs0mg"},{"bike_id":"c82777c8-6101-406e-8b95-667b2fbcb020","system_id":"levelo_inurba_marseille","lat":43.296921,"lon":5.376579,"is_reserved":false,"is_disabled":false,"rental_uris":{"android":"levelo://app?vid=c82777c8-6101-406e-8b95-667b2fbcb020","ios":"levelo://app?vid=c82777c8-6101-406e-8b95-667b2fbcb020"},"vehicle_type_id":"4","last_reported":1716055785,"current_range_meters":10400,"station_id":"ce4bgkh2rcd13ifvqbl0","pricing_plan_id":"cebpf4jnsgd1na2vs0mg"},{"bike_id":"cf491985-1428-423e-8980-603322830012","system_id":"levelo_inurba_marseille","lat":43.3095,"lon":5.39051,"is_reserved":false,"is_disabled":false,"rental_uris":{"android":"levelo://app?vid=cf491985-1428-423e-8980-603322830012","ios":"levelo://app?vid=cf491985-1428-423e-8980-603322830012"},"vehicle_type_id":"4","last_reported":1716055785,"current_range_meters":7200,"station_id":"ce4bgup2rcd13ifvqco0","pricing_plan_id":"cebpf4jnsgd1na2vs0mg"},{"bike_id":"12c7bac9-d8e7-4b18-befe-6d3455d2ab15","system_id":"levelo_inurba_marseille","lat":43.309589,"lon":5.390258,"is_reserved":false,"is_disabled":false,"rental_uris":{"android":"levelo://app?vid=12c7bac9-d8e7-4b18-befe-6d3455d2ab15","ios":"levelo://app?vid=12c7bac9-d8e7-4b18-befe-6d3455d2ab15"},"vehicle_type_id":"4","last_reported":1716055785,"current_range_meters":0,"station_id":"ce4bgup2rcd13ifvqco0","pricing_plan_id":"cebpf4jnsgd1na2vs0mg"},{"bike_id":"de8a354f-15f9-47ca-a5fc-95f5e3c3cd40","system_id":"levelo_inurba_marseille","lat":43.309589,"lon":5.390258,"is_reserved":false,"is_disabled":false,"rental_uris":{"android":"levelo://app?vid=de8a354f-15f9-47ca-a5fc-95f5e3c3cd40","ios":"levelo://app?vid=de8a354f-15f9-47ca-a5fc-95f5e3c3cd40"},"vehicle_type_id":"4","last_reported":1716055785,"current_range_meters":10400,"station_id":"ce4bgup2rcd13ifvqco0","pricing_plan_id":"cebpf4jnsgd1na2vs0mg"},{"bike_id":"2bfa66a6-7882-4795-be98-ce705d0f07e3","system_id":"levelo_inurba_marseille","lat":43.317557,"lon":5.390173,"is_reserved":false,"is_disabled":false,"rental_uris":{"android":"levelo://app?vid=2bfa66a6-7882-4795-be98-ce705d0f07e3","ios":"levelo://app?vid=2bfa66a6-7882-4795-be98-ce705d0f07e3"},"vehicle_type_id":"4","last_reported":1716055785,"current_range_meters":20000,"station_id":"ce4bhqp2rcd13ifvqhng","pricing_plan_id":"cebpf4jnsgd1na2vs0mg"},{"bike_id":"5293a50f-66ca-4a53-a10d-9d24898ec687","system_id":"levelo_inurba_marseille","lat":43.317557,"lon":5.390173,"is_reserved":false,"is_disabled":false,"rental_uris":{"android":"levelo://app?vid=5293a50f-66ca-4a53-a10d-9d24898ec687","ios":"levelo://app?vid=5293a50f-66ca-4a53-a10d-9d24898ec687"},"vehicle_type_id":"4","last_reported":1716055785,"current_range_meters":11600,"station_id":"ce4bhqp2rcd13ifvqhng","pricing_plan_id":"cebpf4jnsgd1na2vs0mg"},{"bike_id":"11799a1b-d355-451c-8a19-d5e37edbdca5","system_id":"levelo_inurba_marseille","lat":43.30918,"lon":5.3908,"is_reserved":false,"is_disabled":false,"rental_uris":{"android":"levelo://app?vid=11799a1b-d355-451c-8a19-d5e37edbdca5","ios":"levelo://app?vid=11799a1b-d355-451c-8a19-d5e37edbdca5"},"vehicle_type_id":"4","last_reported":1716055785,"current_range_meters":0,"station_id":"ce4bgup2rcd13ifvqco0","pricing_plan_id":"cebpf4jnsgd1na2vs0mg"},{"bike_id":"fcd060db-af11-4bd0-8881-be25034c0ef9","system_id":"levelo_inurba_marseille","lat":43.29797,"lon":5.380967,"is_reserved":false,"is_disabled":false,"rental_uris":{"android":"levelo://app?vid=fcd060db-af11-4bd0-8881-be25034c0ef9","ios":"levelo://app?vid=fcd060db-af11-4bd0-8881-be25034c0ef9"},"vehicle_type_id":"4","last_reported":1716055785,"current_range_meters":0,"station_id":"ce4bgip2rcd13ifvqbb0","pricing_plan_id":"cebpf4jnsgd1na2vs0mg"},{"bike_id":"e373e537-6ace-499f-9985-3640f573ccf4","system_id":"levelo_inurba_marseille","lat":43.295675,"lon":5.374771,"is_reserved":false,"is_disabled":false,"rental_uris":{"android":"levelo://app?vid=e373e537-6ace-499f-9985-3640f573ccf4","ios":"levelo://app?vid=e373e537-6ace-499f-9985-3640f573ccf4"},"vehicle_type_id":"4","last_reported":1716055785,"current_range_meters":5200,"station_id":"ce4bgh92rcd13ifvqb50","pricing_plan_id":"cebpf4jnsgd1na2vs0mg"},{"bike_id":"5e248cd4-81ee-43a8-9fc4-d8c1decbc5fa","system_id":"levelo_inurba_marseille","lat":43.295748,"lon":5.37522,"is_reserved":false,"is_disabled":false,"rental_uris":{"android":"levelo://app?vid=5e248cd4-81ee-43a8-9fc4-d8c1decbc5fa","ios":"levelo://app?vid=5e248cd4-81ee-43a8-9fc4-d8c1decbc5fa"},"vehicle_type_id":"4","last_reported":1716055785,"current_range_meters":11200,"station_id":"ce4bgh92rcd13ifvqb50","pricing_plan_id":"cebpf4jnsgd1na2vs0mg"},{"bike_id":"6f9e7f60-7e08-41ef-9512-68db99fde9d5","system_id":"levelo_inurba_marseille","lat":43.295748,"lon":5.37522,"is_reserved":false,"is_disabled":false,"rental_uris":{"android":"levelo://app?vid=6f9e7f60-7e08-41ef-9512-68db99fde9d5","ios":"levelo://app?vid=6f9e7f60-7e08-41ef-9512-68db99fde9d5"},"vehicle_type_id":"4","last_reported":1716055785,"current_range_meters":400,"station_id":"ce4bgh92rcd13ifvqb50","pricing_plan_id":"cebpf4jnsgd1na2vs0mg"},{"bike_id":"df020194-b0d2-4454-9466-980808c168ee","system_id":"levelo_inurba_marseille","lat":43.296277,"lon":5.377108,"is_reserved":false,"is_disabled":false,"rental_uris":{"android":"levelo://app?vid=df020194-b0d2-4454-9466-980808c168ee","ios":"levelo://app?vid=df020194-b0d2-4454-9466-980808c168ee"},"vehicle_type_id":"4","last_reported":1716055785,"current_range_meters":7600,"station_id":"ce4bgi92rcd13ifvqb90","pricing_plan_id":"cebpf4jnsgd1na2vs0mg"},{"bike_id":"3bea22d8-fb6a-4e26-90b9-0524a8d6075f","system_id":"levelo_inurba_marseille","lat":43.296263,"lon":5.377094,"is_reserved":false,"is_disabled":false,"rental_uris":{"android":"levelo://app?vid=3bea22d8-fb6a-4e26-90b9-0524a8d6075f","ios":"levelo://app?vid=3bea22d8-fb6a-4e26-90b9-0524a8d6075f"},"vehicle_type_id":"4","last_reported":1716055785,"current_range_meters":5600,"station_id":"ce4bgi92rcd13ifvqb90","pricing_plan_id":"cebpf4jnsgd1na2vs0mg"},{"bike_id":"9f814d14-13a2-4d2f-8b3e-e78649959061","system_id":"levelo_inurba_marseille","lat":43.2957,"lon":5.37529,"is_reserved":false,"is_disabled":false,"rental_uris":{"android":"levelo://app?vid=9f814d14-13a2-4d2f-8b3e-e78649959061","ios":"levelo://app?vid=9f814d14-13a2-4d2f-8b3e-e78649959061"},"vehicle_type_id":"4","last_reported":1716055785,"current_range_meters":5600,"station_id":"ce4bgh92rcd13ifvqb50","pricing_plan_id":"cebpf4jnsgd1na2vs0mg"},{"bike_id":"447b4e57-d773-4710-bdc7-8b7739748529","system_id":"levelo_inurba_marseille","lat":43.295748,"lon":5.37522,"is_reserved":false,"is_disabled":false,"rental_uris":{"android":"levelo://app?vid=447b4e57-d773-4710-bdc7-8b7739748529","ios":"levelo://app?vid=447b4e57-d773-4710-bdc7-8b7739748529"},"vehicle_type_id":"4","last_reported":1716055785,"current_range_meters":3200,"station_id":"ce4bgh92rcd13ifvqb50","pricing_plan_id":"cebpf4jnsgd1na2vs0mg"},{"bike_id":"b50b1094-aa02-471a-b1ff-c6d85692b26d","system_id":"levelo_inurba_marseille","lat":43.295748,"lon":5.37522,"is_reserved":false,"is_disabled":false,"rental_uris":{"android":"levelo://app?vid=b50b1094-aa02-471a-b1ff-c6d85692b26d","ios":"levelo://app?vid=b50b1094-aa02-471a-b1ff-c6d85692b26d"},"vehicle_type_id":"4","last_reported":1716055785,"current_range_meters":8400,"station_id":"ce4bgh92rcd13ifvqb50","pricing_plan_id":"cebpf4jnsgd1na2vs0mg"},{"bike_id":"011d6ae9-eb73-49fa-9c86-3d3eb33ac0f1","system_id":"levelo_inurba_marseille","lat":43.30426,"lon":5.38898,"is_reserved":false,"is_disabled":false,"rental_uris":{"android":"levelo://app?vid=011d6ae9-eb73-49fa-9c86-3d3eb33ac0f1","ios":"levelo://app?vid=011d6ae9-eb73-49fa-9c86-3d3eb33ac0f1"},"vehicle_type_id":"4","last_reported":1716055785,"current_range_meters":0,"station_id":"ce4bgk12rcd13ifvqbi0","pricing_plan_id":"cebpf4jnsgd1na2vs0mg"},{"bike_id":"7c2b4aa8-b07f-46ce-9987-e25a3f6625d7","system_id":"levelo_inurba_marseille","lat":43.304302,"lon":5.389017,"is_reserved":false,"is_disabled":false,"rental_uris":{"android":"levelo://app?vid=7c2b4aa8-b07f-46ce-9987-e25a3f6625d7","ios":"levelo://app?vid=7c2b4aa8-b07f-46ce-9987-e25a3f6625d7"},"vehicle_type_id":"4","last_reported":1716055785,"current_range_meters":24800,"station_id":"ce4bgk12rcd13ifvqbi0","pricing_plan_id":"cebpf4jnsgd1na2vs0mg"},{"bike_id":"14f1bd29-57ec-417e-86f2-2b507c64e698","system_id":"levelo_inurba_marseille","lat":43.29611,"lon":5.37725,"is_reserved":false,"is_disabled":false,"rental_uris":{"android":"levelo://app?vid=14f1bd29-57ec-417e-86f2-2b507c64e698","ios":"levelo://app?vid=14f1bd29-57ec-417e-86f2-2b507c64e698"},"vehicle_type_id":"4","last_reported":1716055785,"current_range_meters":0,"station_id":"ce4bgi92rcd13ifvqb90","pricing_plan_id":"cebpf4jnsgd1na2vs0mg"},{"bike_id":"9125743e-b120-448c-9b5c-0cf076798b22","system_id":"levelo_inurba_marseille","lat":43.296277,"lon":5.377108,"is_reserved":false,"is_disabled":false,"rental_uris":{"android":"levelo://app?vid=9125743e-b120-448c-9b5c-0cf076798b22","ios":"levelo://app?vid=9125743e-b120-448c-9b5c-0cf076798b22"},"vehicle_type_id":"4","last_reported":1716055785,"current_range_meters":4800,"station_id":"ce4bgi92rcd13ifvqb90","pricing_plan_id":"cebpf4jnsgd1na2vs0mg"},{"bike_id":"0d6125ac-2197-4507-914b-7c997685a6cd","system_id":"levelo_inurba_marseille","lat":43.295943,"lon":5.376878,"is_reserved":false,"is_disabled":false,"rental_uris":{"android":"levelo://app?vid=0d6125ac-2197-4507-914b-7c997685a6cd","ios":"levelo://app?vid=0d6125ac-2197-4507-914b-7c997685a6cd"},"vehicle_type_id":"4","last_reported":1716055785,"current_range_meters":6000,"station_id":"ce4bgi92rcd13ifvqb90","pricing_plan_id":"cebpf4jnsgd1na2vs0mg"},{"bike_id":"569b3397-57d8-40f4-a32d-59d89f0ac43c","system_id":"levelo_inurba_marseille","lat":43.295294,"lon":5.375024,"is_reserved":false,"is_disabled":false,"rental_uris":{"android":"levelo://app?vid=569b3397-57d8-40f4-a32d-59d89f0ac43c","ios":"levelo://app?vid=569b3397-57d8-40f4-a32d-59d89f0ac43c"},"vehicle_type_id":"4","last_reported":1716055785,"current_range_meters":0,"station_id":"ce4bgkp2rcd13ifvqbmg","pricing_plan_id":"cebpf4jnsgd1na2vs0mg"},{"bike_id":"a2e9d18f-2470-4061-ba7d-ef16266b0b8b","system_id":"levelo_inurba_marseille","lat":43.29972,"lon":5.384922,"is_reserved":false,"is_disabled":false,"rental_uris":{"android":"levelo://app?vid=a2e9d18f-2470-4061-ba7d-ef16266b0b8b","ios":"levelo://app?vid=a2e9d18f-2470-4061-ba7d-ef16266b0b8b"},"vehicle_type_id":"4","last_reported":1716055785,"current_range_meters":800,"station_id":"ce4bgj92rcd13ifvqbd0","pricing_plan_id":"cebpf4jnsgd1na2vs0mg"},{"bike_id":"60a0a589-27f3-44bf-b144-58d0ef515e18","system_id":"levelo_inurba_marseille","lat":43.299801,"lon":5.385064,"is_reserved":false,"is_disabled":false,"rental_uris":{"android":"levelo://app?vid=60a0a589-27f3-44bf-b144-58d0ef515e18","ios":"levelo://app?vid=60a0a589-27f3-44bf-b144-58d0ef515e18"},"vehicle_type_id":"4","last_reported":1716055785,"current_range_meters":0,"station_id":"ce4bgj92rcd13ifvqbd0","pricing_plan_id":"cebpf4jnsgd1na2vs0mg"},{"bike_id":"5ac59c41-645e-4d8c-9eea-5b901a35849f","system_id":"levelo_inurba_marseille","lat":43.299717,"lon":5.384845,"is_reserved":false,"is_disabled":false,"rental_uris":{"android":"levelo://app?vid=5ac59c41-645e-4d8c-9eea-5b901a35849f","ios":"levelo://app?vid=5ac59c41-645e-4d8c-9eea-5b901a35849f"},"vehicle_type_id":"4","last_reported":1716055785,"current_range_meters":0,"station_id":"ce4bgj92rcd13ifvqbd0","pricing_plan_id":"cebpf4jnsgd1na2vs0mg"},{"bike_id":"b0f70b98-7d0b-40f8-ad5e-d81474d8c8b1","system_id":"levelo_inurba_marseille","lat":43.299717,"lon":5.384845,"is_reserved":false,"is_disabled":false,"rental_uris":{"android":"levelo://app?vid=b0f70b98-7d0b-40f8-ad5e-d81474d8c8b1","ios":"levelo://app?vid=b0f70b98-7d0b-40f8-ad5e-d81474d8c8b1"},"vehicle_type_id":"4","last_reported":1716055785,"current_range_meters":9600,"station_id":"ce4bgj92rcd13ifvqbd0","pricing_plan_id":"cebpf4jnsgd1na2vs0mg"},{"bike_id":"b62a39ef-2a86-482f-bdf8-4ae9499a45e5","system_id":"levelo_inurba_marseille","lat":43.29964,"lon":5.38493,"is_reserved":false,"is_disabled":false,"rental_uris":{"android":"levelo://app?vid=b62a39ef-2a86-482f-bdf8-4ae9499a45e5","ios":"levelo://app?vid=b62a39ef-2a86-482f-bdf8-4ae9499a45e5"},"vehicle_type_id":"4","last_reported":1716055785,"current_range_meters":19200,"station_id":"ce4bgj92rcd13ifvqbd0","pricing_plan_id":"cebpf4jnsgd1na2vs0mg"},{"bike_id":"61277a51-c7ef-42c6-af3c-afad5694d552","system_id":"levelo_inurba_marseille","lat":43.299717,"lon":5.384845,"is_reserved":false,"is_disabled":false,"rental_uris":{"android":"levelo://app?vid=61277a51-c7ef-42c6-af3c-afad5694d552","ios":"levelo://app?vid=61277a51-c7ef-42c6-af3c-afad5694d552"},"vehicle_type_id":"4","last_reported":1716055785,"current_range_meters":0,"station_id":"ce4bgj92rcd13ifvqbd0","pricing_plan_id":"cebpf4jnsgd1na2vs0mg"},{"bike_id":"282293c7-971e-4b5a-b6ee-db63a6286f3b","system_id":"levelo_inurba_marseille","lat":43.29959,"lon":5.385025,"is_reserved":false,"is_disabled":false,"rental_uris":{"android":"levelo://app?vid=282293c7-971e-4b5a-b6ee-db63a6286f3b","ios":"levelo://app?vid=282293c7-971e-4b5a-b6ee-db63a6286f3b"},"vehicle_type_id":"4","last_reported":1716055785,"current_range_meters":6000,"station_id":"ce4bgj92rcd13ifvqbd0","pricing_plan_id":"cebpf4jnsgd1na2vs0mg"},{"bike_id":"79503108-37d8-45a3-8d97-77cc8fc58200","system_id":"levelo_inurba_marseille","lat":43.299717,"lon":5.384845,"is_reserved":false,"is_disabled":false,"rental_uris":{"android":"levelo://app?vid=79503108-37d8-45a3-8d97-77cc8fc58200","ios":"levelo://app?vid=79503108-37d8-45a3-8d97-77cc8fc58200"},"vehicle_type_id":"4","last_reported":1716055785,"current_range_meters":11200,"station_id":"ce4bgj92rcd13ifvqbd0","pricing_plan_id":"cebpf4jnsgd1na2vs0mg"},{"bike_id":"6a83f129-3fbd-4dc1-a45c-e116da715fe1","system_id":"levelo_inurba_marseille","lat":43.299724,"lon":5.384848,"is_reserved":false,"is_disabled":false,"rental_uris":{"android":"levelo://app?vid=6a83f129-3fbd-4dc1-a45c-e116da715fe1","ios":"levelo://app?vid=6a83f129-3fbd-4dc1-a45c-e116da715fe1"},"vehicle_type_id":"4","last_reported":1716055785,"current_range_meters":10000,"station_id":"ce4bgj92rcd13ifvqbd0","pricing_plan_id":"cebpf4jnsgd1na2vs0mg"},{"bike_id":"c6c4cf96-d67a-46ad-b5a8-8d865dbd22c7","system_id":"levelo_inurba_marseille","lat":43.309038,"lon":5.396546,"is_reserved":false,"is_disabled":false,"rental_uris":{"android":"levelo://app?vid=c6c4cf96-d67a-46ad-b5a8-8d865dbd22c7","ios":"levelo://app?vid=c6c4cf96-d67a-46ad-b5a8-8d865dbd22c7"},"vehicle_type_id":"4","last_reported":1716055785,"current_range_meters":8000,"station_id":"ce4bh012rcd13ifvqcv0","pricing_plan_id":"cebpf4jnsgd1na2vs0mg"},{"bike_id":"73546ffe-3054-4dfa-8c3c-96995872ec94","system_id":"levelo_inurba_marseille","lat":43.299152,"lon":5.385279,"is_reserved":false,"is_disabled":false,"rental_uris":{"android":"levelo://app?vid=73546ffe-3054-4dfa-8c3c-96995872ec94","ios":"levelo://app?vid=73546ffe-3054-4dfa-8c3c-96995872ec94"},"vehicle_type_id":"4","last_reported":1716055785,"current_range_meters":21600,"station_id":"","pricing_plan_id":"cebpf4jnsgd1na2vs0mg"},{"bike_id":"d5d2eea5-1adb-4a93-8baa-386795011fc2","system_id":"levelo_inurba_marseille","lat":43.325594,"lon":5.386439,"is_reserved":false,"is_disabled":false,"rental_uris":{"android":"levelo://app?vid=d5d2eea5-1adb-4a93-8baa-386795011fc2","ios":"levelo://app?vid=d5d2eea5-1adb-4a93-8baa-386795011fc2"},"vehicle_type_id":"4","last_reported":1716055785,"current_range_meters":2800,"station_id":"","pricing_plan_id":"cebpf4jnsgd1na2vs0mg"},{"bike_id":"4b34e2a8-7f4f-4459-b293-cdc8ef42b3b5","system_id":"levelo_inurba_marseille","lat":43.32365,"lon":5.388818,"is_reserved":false,"is_disabled":false,"rental_uris":{"android":"levelo://app?vid=4b34e2a8-7f4f-4459-b293-cdc8ef42b3b5","ios":"levelo://app?vid=4b34e2a8-7f4f-4459-b293-cdc8ef42b3b5"},"vehicle_type_id":"4","last_reported":1716055785,"current_range_meters":0,"station_id":"ce4bhqp2rcd13ifvqhog","pricing_plan_id":"cebpf4jnsgd1na2vs0mg"},{"bike_id":"dcfe2727-5cc1-4c2c-8ab5-507cd9fceb15","system_id":"levelo_inurba_marseille","lat":43.32362,"lon":5.38893,"is_reserved":false,"is_disabled":false,"rental_uris":{"android":"levelo://app?vid=dcfe2727-5cc1-4c2c-8ab5-507cd9fceb15","ios":"levelo://app?vid=dcfe2727-5cc1-4c2c-8ab5-507cd9fceb15"},"vehicle_type_id":"4","last_reported":1716055785,"current_range_meters":1200,"station_id":"ce4bhqp2rcd13ifvqhog","pricing_plan_id":"cebpf4jnsgd1na2vs0mg"},{"bike_id":"2f5ce615-2b72-45f5-9b0e-cd334ae0617d","system_id":"levelo_inurba_marseille","lat":43.32367,"lon":5.388836,"is_reserved":false,"is_disabled":false,"rental_uris":{"android":"levelo://app?vid=2f5ce615-2b72-45f5-9b0e-cd334ae0617d","ios":"levelo://app?vid=2f5ce615-2b72-45f5-9b0e-cd334ae0617d"},"vehicle_type_id":"4","last_reported":1716055785,"current_range_meters":16800,"station_id":"ce4bhqp2rcd13ifvqhog","pricing_plan_id":"cebpf4jnsgd1na2vs0mg"},{"bike_id":"f6a7d02a-c296-40ab-bee3-80005b0678a3","system_id":"levelo_inurba_marseille","lat":43.29602,"lon":5.381084,"is_reserved":false,"is_disabled":false,"rental_uris":{"android":"levelo://app?vid=f6a7d02a-c296-40ab-bee3-80005b0678a3","ios":"levelo://app?vid=f6a7d02a-c296-40ab-bee3-80005b0678a3"},"vehicle_type_id":"4","last_reported":1716055785,"current_range_meters":16000,"station_id":"ce4bgl12rcd13ifvqbo0","pricing_plan_id":"cebpf4jnsgd1na2vs0mg"},{"bike_id":"8c944c12-d06f-4b94-80a3-34451e86fb9c","system_id":"levelo_inurba_marseille","lat":43.298505,"lon":5.385505,"is_reserved":false,"is_disabled":false,"rental_uris":{"android":"levelo://app?vid=8c944c12-d06f-4b94-80a3-34451e86fb9c","ios":"levelo://app?vid=8c944c12-d06f-4b94-80a3-34451e86fb9c"},"vehicle_type_id":"4","last_reported":1716055785,"current_range_meters":18000,"station_id":"","pricing_plan_id":"cebpf4jnsgd1na2vs0mg"},{"bike_id":"e7d5f2fa-17d3-4e7a-afc6-dc8d7318c657","system_id":"levelo_inurba_marseille","lat":43.29601,"lon":5.38111,"is_reserved":false,"is_disabled":false,"rental_uris":{"android":"levelo://app?vid=e7d5f2fa-17d3-4e7a-afc6-dc8d7318c657","ios":"levelo://app?vid=e7d5f2fa-17d3-4e7a-afc6-dc8d7318c657"},"vehicle_type_id":"4","last_reported":1716055785,"current_range_meters":14400,"station_id":"ce4bgl12rcd13ifvqbo0","pricing_plan_id":"cebpf4jnsgd1na2vs0mg"},{"bike_id":"27290c28-0e7c-4a08-9f2f-5de8def78e79","system_id":"levelo_inurba_marseille","lat":43.29595,"lon":5.381054,"is_reserved":false,"is_disabled":false,"rental_uris":{"android":"levelo://app?vid=27290c28-0e7c-4a08-9f2f-5de8def78e79","ios":"levelo://app?vid=27290c28-0e7c-4a08-9f2f-5de8def78e79"},"vehicle_type_id":"4","last_reported":1716055785,"current_range_meters":4800,"station_id":"ce4bgl12rcd13ifvqbo0","pricing_plan_id":"cebpf4jnsgd1na2vs0mg"},{"bike_id":"d1569266-0147-4faf-8c96-57e097fe3900","system_id":"levelo_inurba_marseille","lat":43.29589,"lon":5.38109,"is_reserved":false,"is_disabled":false,"rental_uris":{"android":"levelo://app?vid=d1569266-0147-4faf-8c96-57e097fe3900","ios":"levelo://app?vid=d1569266-0147-4faf-8c96-57e097fe3900"},"vehicle_type_id":"4","last_reported":1716055785,"current_range_meters":0,"station_id":"ce4bgl12rcd13ifvqbo0","pricing_plan_id":"cebpf4jnsgd1na2vs0mg"},{"bike_id":"c4e09d37-41d4-4c05-b280-145b25e3f409","system_id":"levelo_inurba_marseille","lat":43.293186,"lon":5.371363,"is_reserved":false,"is_disabled":false,"rental_uris":{"android":"levelo://app?vid=c4e09d37-41d4-4c05-b280-145b25e3f409","ios":"levelo://app?vid=c4e09d37-41d4-4c05-b280-145b25e3f409"},"vehicle_type_id":"4","last_reported":1716055785,"current_range_meters":0,"station_id":"ce4bha92rcd13ifvqeh0","pricing_plan_id":"cebpf4jnsgd1na2vs0mg"},{"bike_id":"9105931e-293b-469f-924a-77891f72b086","system_id":"levelo_inurba_marseille","lat":43.292821,"lon":5.368345,"is_reserved":false,"is_disabled":false,"rental_uris":{"android":"levelo://app?vid=9105931e-293b-469f-924a-77891f72b086","ios":"levelo://app?vid=9105931e-293b-469f-924a-77891f72b086"},"vehicle_type_id":"4","last_reported":1716055785,"current_range_meters":400,"station_id":"","pricing_plan_id":"cebpf4jnsgd1na2vs0mg"},{"bike_id":"edb24453-1bdf-4fed-9176-c461becd5ac3","system_id":"levelo_inurba_marseille","lat":43.2928,"lon":5.368391,"is_reserved":false,"is_disabled":false,"rental_uris":{"android":"levelo://app?vid=edb24453-1bdf-4fed-9176-c461becd5ac3","ios":"levelo://app?vid=edb24453-1bdf-4fed-9176-c461becd5ac3"},"vehicle_type_id":"4","last_reported":1716055785,"current_range_meters":0,"station_id":"","pricing_plan_id":"cebpf4jnsgd1na2vs0mg"},{"bike_id":"1d4a32ff-39b4-4081-acb8-44366ff6dd7a","system_id":"levelo_inurba_marseille","lat":43.292794,"lon":5.368436,"is_reserved":false,"is_disabled":false,"rental_uris":{"android":"levelo://app?vid=1d4a32ff-39b4-4081-acb8-44366ff6dd7a","ios":"levelo://app?vid=1d4a32ff-39b4-4081-acb8-44366ff6dd7a"},"vehicle_type_id":"4","last_reported":1716055785,"current_range_meters":8800,"station_id":"","pricing_plan_id":"cebpf4jnsgd1na2vs0mg"},{"bike_id":"8d5b1bf0-5290-4355-9b85-4c71dc8d3dc2","system_id":"levelo_inurba_marseille","lat":43.260219,"lon":5.37546,"is_reserved":false,"is_disabled":false,"rental_uris":{"android":"levelo://app?vid=8d5b1bf0-5290-4355-9b85-4c71dc8d3dc2","ios":"levelo://app?vid=8d5b1bf0-5290-4355-9b85-4c71dc8d3dc2"},"vehicle_type_id":"4","last_reported":1716055785,"current_range_meters":22000,"station_id":"ce4bhgh2rcd13ifvqfa0","pricing_plan_id":"cebpf4jnsgd1na2vs0mg"},{"bike_id":"60c5671d-e416-4bac-895d-0465fc781a48","system_id":"levelo_inurba_marseille","lat":43.29274,"lon":5.36836,"is_reserved":false,"is_disabled":false,"rental_uris":{"android":"levelo://app?vid=60c5671d-e416-4bac-895d-0465fc781a48","ios":"levelo://app?vid=60c5671d-e416-4bac-895d-0465fc781a48"},"vehicle_type_id":"4","last_reported":1716055785,"current_range_meters":6800,"station_id":"","pricing_plan_id":"cebpf4jnsgd1na2vs0mg"},{"bike_id":"f2e69ef6-72a5-4f2d-acb2-127621c826f0","system_id":"levelo_inurba_marseille","lat":43.29273,"lon":5.36838,"is_reserved":false,"is_disabled":false,"rental_uris":{"android":"levelo://app?vid=f2e69ef6-72a5-4f2d-acb2-127621c826f0","ios":"levelo://app?vid=f2e69ef6-72a5-4f2d-acb2-127621c826f0"},"vehicle_type_id":"4","last_reported":1716055785,"current_range_meters":7200,"station_id":"","pricing_plan_id":"cebpf4jnsgd1na2vs0mg"},{"bike_id":"5ed468e2-d888-4207-bb86-13bb2bdbb30e","system_id":"levelo_inurba_marseille","lat":43.29272,"lon":5.36836,"is_reserved":false,"is_disabled":false,"rental_uris":{"android":"levelo://app?vid=5ed468e2-d888-4207-bb86-13bb2bdbb30e","ios":"levelo://app?vid=5ed468e2-d888-4207-bb86-13bb2bdbb30e"},"vehicle_type_id":"4","last_reported":1716055785,"current_range_meters":5200,"station_id":"","pricing_plan_id":"cebpf4jnsgd1na2vs0mg"},{"bike_id":"68516774-9230-4d56-acf9-79bc112cb318","system_id":"levelo_inurba_marseille","lat":43.29272,"lon":5.36839,"is_reserved":false,"is_disabled":false,"rental_uris":{"android":"levelo://app?vid=68516774-9230-4d56-acf9-79bc112cb318","ios":"levelo://app?vid=68516774-9230-4d56-acf9-79bc112cb318"},"vehicle_type_id":"4","last_reported":1716055785,"current_range_meters":12400,"station_id":"","pricing_plan_id":"cebpf4jnsgd1na2vs0mg"},{"bike_id":"8421f16d-c2f0-4fda-96ca-69bc9f438fed","system_id":"levelo_inurba_marseille","lat":43.29268,"lon":5.36837,"is_reserved":false,"is_disabled":false,"rental_uris":{"android":"levelo://app?vid=8421f16d-c2f0-4fda-96ca-69bc9f438fed","ios":"levelo://app?vid=8421f16d-c2f0-4fda-96ca-69bc9f438fed"},"vehicle_type_id":"4","last_reported":1716055785,"current_range_meters":18000,"station_id":"","pricing_plan_id":"cebpf4jnsgd1na2vs0mg"},{"bike_id":"038fef99-2d91-421e-917f-0b90e5211714","system_id":"levelo_inurba_marseille","lat":43.29267,"lon":5.36839,"is_reserved":false,"is_disabled":false,"rental_uris":{"android":"levelo://app?vid=038fef99-2d91-421e-917f-0b90e5211714","ios":"levelo://app?vid=038fef99-2d91-421e-917f-0b90e5211714"},"vehicle_type_id":"4","last_reported":1716055785,"current_range_meters":11200,"station_id":"","pricing_plan_id":"cebpf4jnsgd1na2vs0mg"},{"bike_id":"62ee0e7b-2866-4551-9d45-4a4b4398b540","system_id":"levelo_inurba_marseille","lat":43.293009,"lon":5.374584,"is_reserved":false,"is_disabled":false,"rental_uris":{"android":"levelo://app?vid=62ee0e7b-2866-4551-9d45-4a4b4398b540","ios":"levelo://app?vid=62ee0e7b-2866-4551-9d45-4a4b4398b540"},"vehicle_type_id":"4","last_reported":1716055785,"current_range_meters":0,"station_id":"ce4bgi12rcd13ifvqb70","pricing_plan_id":"cebpf4jnsgd1na2vs0mg"},{"bike_id":"816bd351-8a17-4189-9d99-a2bf78db5312","system_id":"levelo_inurba_marseille","lat":43.29303,"lon":5.3747,"is_reserved":false,"is_disabled":false,"rental_uris":{"android":"levelo://app?vid=816bd351-8a17-4189-9d99-a2bf78db5312","ios":"levelo://app?vid=816bd351-8a17-4189-9d99-a2bf78db5312"},"vehicle_type_id":"4","last_reported":1716055785,"current_range_meters":0,"station_id":"ce4bgi12rcd13ifvqb70","pricing_plan_id":"cebpf4jnsgd1na2vs0mg"},{"bike_id":"baca5b35-2d23-4b52-80a5-f6644a6ac205","system_id":"levelo_inurba_marseille","lat":43.302992,"lon":5.392136,"is_reserved":false,"is_disabled":false,"rental_uris":{"android":"levelo://app?vid=baca5b35-2d23-4b52-80a5-f6644a6ac205","ios":"levelo://app?vid=baca5b35-2d23-4b52-80a5-f6644a6ac205"},"vehicle_type_id":"4","last_reported":1716055785,"current_range_meters":12000,"station_id":"ce4bgkh2rcd13ifvqbk0","pricing_plan_id":"cebpf4jnsgd1na2vs0mg"},{"bike_id":"ff70e5db-7fd1-4d20-9213-cf9f78a95ca4","system_id":"levelo_inurba_marseille","lat":43.302992,"lon":5.392136,"is_reserved":false,"is_disabled":false,"rental_uris":{"android":"levelo://app?vid=ff70e5db-7fd1-4d20-9213-cf9f78a95ca4","ios":"levelo://app?vid=ff70e5db-7fd1-4d20-9213-cf9f78a95ca4"},"vehicle_type_id":"4","last_reported":1716055785,"current_range_meters":8000,"station_id":"ce4bgkh2rcd13ifvqbk0","pricing_plan_id":"cebpf4jnsgd1na2vs0mg"},{"bike_id":"6189cb16-8cd7-4978-824e-e086f8535614","system_id":"levelo_inurba_marseille","lat":43.305994,"lon":5.393687,"is_reserved":false,"is_disabled":false,"rental_uris":{"android":"levelo://app?vid=6189cb16-8cd7-4978-824e-e086f8535614","ios":"levelo://app?vid=6189cb16-8cd7-4978-824e-e086f8535614"},"vehicle_type_id":"4","last_reported":1716055785,"current_range_meters":7200,"station_id":"ce4bh0p2rcd13ifvqd80","pricing_plan_id":"cebpf4jnsgd1na2vs0mg"},{"bike_id":"b596a41e-7271-447d-ab3a-993eebc499bf","system_id":"levelo_inurba_marseille","lat":43.293009,"lon":5.374584,"is_reserved":false,"is_disabled":false,"rental_uris":{"android":"levelo://app?vid=b596a41e-7271-447d-ab3a-993eebc499bf","ios":"levelo://app?vid=b596a41e-7271-447d-ab3a-993eebc499bf"},"vehicle_type_id":"4","last_reported":1716055785,"current_range_meters":6800,"station_id":"ce4bgi12rcd13ifvqb70","pricing_plan_id":"cebpf4jnsgd1na2vs0mg"},{"bike_id":"93bfbe1d-838f-4490-a15b-0ec8b524efe4","system_id":"levelo_inurba_marseille","lat":43.305994,"lon":5.393687,"is_reserved":false,"is_disabled":false,"rental_uris":{"android":"levelo://app?vid=93bfbe1d-838f-4490-a15b-0ec8b524efe4","ios":"levelo://app?vid=93bfbe1d-838f-4490-a15b-0ec8b524efe4"},"vehicle_type_id":"4","last_reported":1716055785,"current_range_meters":7200,"station_id":"ce4bh0p2rcd13ifvqd80","pricing_plan_id":"cebpf4jnsgd1na2vs0mg"},{"bike_id":"9f0b94ec-e0bf-4ace-a3e6-d1208b7e2116","system_id":"levelo_inurba_marseille","lat":43.303002,"lon":5.392142,"is_reserved":false,"is_disabled":false,"rental_uris":{"android":"levelo://app?vid=9f0b94ec-e0bf-4ace-a3e6-d1208b7e2116","ios":"levelo://app?vid=9f0b94ec-e0bf-4ace-a3e6-d1208b7e2116"},"vehicle_type_id":"4","last_reported":1716055785,"current_range_meters":18800,"station_id":"ce4bgkh2rcd13ifvqbk0","pricing_plan_id":"cebpf4jnsgd1na2vs0mg"},{"bike_id":"426db0da-60c4-4254-8886-821e70f19cbb","system_id":"levelo_inurba_marseille","lat":43.303002,"lon":5.392142,"is_reserved":false,"is_disabled":false,"rental_uris":{"android":"levelo://app?vid=426db0da-60c4-4254-8886-821e70f19cbb","ios":"levelo://app?vid=426db0da-60c4-4254-8886-821e70f19cbb"},"vehicle_type_id":"4","last_reported":1716055785,"current_range_meters":2000,"station_id":"ce4bgkh2rcd13ifvqbk0","pricing_plan_id":"cebpf4jnsgd1na2vs0mg"},{"bike_id":"856b0b0b-1d35-413f-8122-dc08513c5129","system_id":"levelo_inurba_marseille","lat":43.302992,"lon":5.392136,"is_reserved":false,"is_disabled":false,"rental_uris":{"android":"levelo://app?vid=856b0b0b-1d35-413f-8122-dc08513c5129","ios":"levelo://app?vid=856b0b0b-1d35-413f-8122-dc08513c5129"},"vehicle_type_id":"4","last_reported":1716055785,"current_range_meters":7600,"station_id":"ce4bgkh2rcd13ifvqbk0","pricing_plan_id":"cebpf4jnsgd1na2vs0mg"},{"bike_id":"aad834e5-72e6-4bf7-9c1d-7317a938bb20","system_id":"levelo_inurba_marseille","lat":43.302992,"lon":5.392136,"is_reserved":false,"is_disabled":false,"rental_uris":{"android":"levelo://app?vid=aad834e5-72e6-4bf7-9c1d-7317a938bb20","ios":"levelo://app?vid=aad834e5-72e6-4bf7-9c1d-7317a938bb20"},"vehicle_type_id":"4","last_reported":1716055785,"current_range_meters":4800,"station_id":"ce4bgkh2rcd13ifvqbk0","pricing_plan_id":"cebpf4jnsgd1na2vs0mg"},{"bike_id":"ca0efc9e-1792-4f49-9bae-fcf52357a2dc","system_id":"levelo_inurba_marseille","lat":43.29366,"lon":5.37846,"is_reserved":false,"is_disabled":false,"rental_uris":{"android":"levelo://app?vid=ca0efc9e-1792-4f49-9bae-fcf52357a2dc","ios":"levelo://app?vid=ca0efc9e-1792-4f49-9bae-fcf52357a2dc"},"vehicle_type_id":"4","last_reported":1716055785,"current_range_meters":0,"station_id":"ce4bgjh2rcd13ifvqbf0","pricing_plan_id":"cebpf4jnsgd1na2vs0mg"},{"bike_id":"55920597-0dc2-4c07-aba4-20fc2db23dc9","system_id":"levelo_inurba_marseille","lat":43.302992,"lon":5.392136,"is_reserved":false,"is_disabled":false,"rental_uris":{"android":"levelo://app?vid=55920597-0dc2-4c07-aba4-20fc2db23dc9","ios":"levelo://app?vid=55920597-0dc2-4c07-aba4-20fc2db23dc9"},"vehicle_type_id":"4","last_reported":1716055785,"current_range_meters":7600,"station_id":"ce4bgkh2rcd13ifvqbk0","pricing_plan_id":"cebpf4jnsgd1na2vs0mg"},{"bike_id":"e9513e4a-35ed-45e4-a903-0f6670b31c5a","system_id":"levelo_inurba_marseille","lat":43.303002,"lon":5.392142,"is_reserved":false,"is_disabled":false,"rental_uris":{"android":"levelo://app?vid=e9513e4a-35ed-45e4-a903-0f6670b31c5a","ios":"levelo://app?vid=e9513e4a-35ed-45e4-a903-0f6670b31c5a"},"vehicle_type_id":"4","last_reported":1716055785,"current_range_meters":11600,"station_id":"ce4bgkh2rcd13ifvqbk0","pricing_plan_id":"cebpf4jnsgd1na2vs0mg"},{"bike_id":"af92d539-5396-497f-a60f-957a50f67f87","system_id":"levelo_inurba_marseille","lat":43.292311,"lon":5.360731,"is_reserved":false,"is_disabled":false,"rental_uris":{"android":"levelo://app?vid=af92d539-5396-497f-a60f-957a50f67f87","ios":"levelo://app?vid=af92d539-5396-497f-a60f-957a50f67f87"},"vehicle_type_id":"4","last_reported":1716055785,"current_range_meters":0,"station_id":"ce4bhbh2rcd13ifvqeqg","pricing_plan_id":"cebpf4jnsgd1na2vs0mg"},{"bike_id":"bb3580f7-f6e6-4f2a-9560-fa4cea1e14b1","system_id":"levelo_inurba_marseille","lat":43.29227,"lon":5.36073,"is_reserved":false,"is_disabled":false,"rental_uris":{"android":"levelo://app?vid=bb3580f7-f6e6-4f2a-9560-fa4cea1e14b1","ios":"levelo://app?vid=bb3580f7-f6e6-4f2a-9560-fa4cea1e14b1"},"vehicle_type_id":"4","last_reported":1716055785,"current_range_meters":0,"station_id":"ce4bhbh2rcd13ifvqeqg","pricing_plan_id":"cebpf4jnsgd1na2vs0mg"},{"bike_id":"21b8f7be-aafe-41fb-b135-95ecd6e1bff7","system_id":"levelo_inurba_marseille","lat":43.300852,"lon":5.390859,"is_reserved":false,"is_disabled":false,"rental_uris":{"android":"levelo://app?vid=21b8f7be-aafe-41fb-b135-95ecd6e1bff7","ios":"levelo://app?vid=21b8f7be-aafe-41fb-b135-95ecd6e1bff7"},"vehicle_type_id":"4","last_reported":1716055785,"current_range_meters":400,"station_id":"ce4bh192rcd13ifvqdb0","pricing_plan_id":"cebpf4jnsgd1na2vs0mg"},{"bike_id":"87372d37-6bfb-455c-85c1-c227d3b24f11","system_id":"levelo_inurba_marseille","lat":43.300852,"lon":5.390859,"is_reserved":false,"is_disabled":false,"rental_uris":{"android":"levelo://app?vid=87372d37-6bfb-455c-85c1-c227d3b24f11","ios":"levelo://app?vid=87372d37-6bfb-455c-85c1-c227d3b24f11"},"vehicle_type_id":"4","last_reported":1716055785,"current_range_meters":0,"station_id":"ce4bh192rcd13ifvqdb0","pricing_plan_id":"cebpf4jnsgd1na2vs0mg"},{"bike_id":"2a52fad9-c6cb-4072-ae1f-7bcafcb355e3","system_id":"levelo_inurba_marseille","lat":43.30085,"lon":5.390856,"is_reserved":false,"is_disabled":false,"rental_uris":{"android":"levelo://app?vid=2a52fad9-c6cb-4072-ae1f-7bcafcb355e3","ios":"levelo://app?vid=2a52fad9-c6cb-4072-ae1f-7bcafcb355e3"},"vehicle_type_id":"4","last_reported":1716055785,"current_range_meters":1200,"station_id":"ce4bh192rcd13ifvqdb0","pricing_plan_id":"cebpf4jnsgd1na2vs0mg"},{"bike_id":"21e53f20-723f-4f49-b0c1-40ec6b9564af","system_id":"levelo_inurba_marseille","lat":43.292311,"lon":5.360731,"is_reserved":false,"is_disabled":false,"rental_uris":{"android":"levelo://app?vid=21e53f20-723f-4f49-b0c1-40ec6b9564af","ios":"levelo://app?vid=21e53f20-723f-4f49-b0c1-40ec6b9564af"},"vehicle_type_id":"4","last_reported":1716055785,"current_range_meters":0,"station_id":"ce4bhbh2rcd13ifvqeqg","pricing_plan_id":"cebpf4jnsgd1na2vs0mg"},{"bike_id":"cb7932e7-2703-4061-b4ef-5bddcde33ad9","system_id":"levelo_inurba_marseille","lat":43.29227,"lon":5.36045,"is_reserved":false,"is_disabled":false,"rental_uris":{"android":"levelo://app?vid=cb7932e7-2703-4061-b4ef-5bddcde33ad9","ios":"levelo://app?vid=cb7932e7-2703-4061-b4ef-5bddcde33ad9"},"vehicle_type_id":"4","last_reported":1716055785,"current_range_meters":12400,"station_id":"ce4bhbh2rcd13ifvqeqg","pricing_plan_id":"cebpf4jnsgd1na2vs0mg"},{"bike_id":"d9148242-909f-4f03-988d-94561209186b","system_id":"levelo_inurba_marseille","lat":43.293009,"lon":5.374584,"is_reserved":false,"is_disabled":false,"rental_uris":{"android":"levelo://app?vid=d9148242-909f-4f03-988d-94561209186b","ios":"levelo://app?vid=d9148242-909f-4f03-988d-94561209186b"},"vehicle_type_id":"4","last_reported":1716055785,"current_range_meters":13600,"station_id":"ce4bgi12rcd13ifvqb70","pricing_plan_id":"cebpf4jnsgd1na2vs0mg"},{"bike_id":"6d2b6c3d-da55-4e18-addd-f84745cd23d5","system_id":"levelo_inurba_marseille","lat":43.298764,"lon":5.388973,"is_reserved":false,"is_disabled":false,"rental_uris":{"android":"levelo://app?vid=6d2b6c3d-da55-4e18-addd-f84745cd23d5","ios":"levelo://app?vid=6d2b6c3d-da55-4e18-addd-f84745cd23d5"},"vehicle_type_id":"4","last_reported":1716055785,"current_range_meters":17200,"station_id":"ce4bh392rcd13ifvqdl0","pricing_plan_id":"cebpf4jnsgd1na2vs0mg"},{"bike_id":"e2b80f2d-2bb4-4135-8bd4-c8ea8ec14e32","system_id":"levelo_inurba_marseille","lat":43.30085,"lon":5.390856,"is_reserved":false,"is_disabled":false,"rental_uris":{"android":"levelo://app?vid=e2b80f2d-2bb4-4135-8bd4-c8ea8ec14e32","ios":"levelo://app?vid=e2b80f2d-2bb4-4135-8bd4-c8ea8ec14e32"},"vehicle_type_id":"4","last_reported":1716055785,"current_range_meters":0,"station_id":"ce4bh192rcd13ifvqdb0","pricing_plan_id":"cebpf4jnsgd1na2vs0mg"},{"bike_id":"5622047f-8830-4f1b-9caa-30e3a43c702c","system_id":"levelo_inurba_marseille","lat":43.29884,"lon":5.38898,"is_reserved":false,"is_disabled":false,"rental_uris":{"android":"levelo://app?vid=5622047f-8830-4f1b-9caa-30e3a43c702c","ios":"levelo://app?vid=5622047f-8830-4f1b-9caa-30e3a43c702c"},"vehicle_type_id":"4","last_reported":1716055785,"current_range_meters":17600,"station_id":"","pricing_plan_id":"cebpf4jnsgd1na2vs0mg"},{"bike_id":"1f3e7094-272b-4556-8d17-ae3505035d12","system_id":"levelo_inurba_marseille","lat":43.293009,"lon":5.374584,"is_reserved":false,"is_disabled":false,"rental_uris":{"android":"levelo://app?vid=1f3e7094-272b-4556-8d17-ae3505035d12","ios":"levelo://app?vid=1f3e7094-272b-4556-8d17-ae3505035d12"},"vehicle_type_id":"4","last_reported":1716055785,"current_range_meters":4400,"station_id":"ce4bgi12rcd13ifvqb70","pricing_plan_id":"cebpf4jnsgd1na2vs0mg"},{"bike_id":"5f956392-4cbe-4be9-81f3-398efac12286","system_id":"levelo_inurba_marseille","lat":43.291755,"lon":5.37151,"is_reserved":false,"is_disabled":false,"rental_uris":{"android":"levelo://app?vid=5f956392-4cbe-4be9-81f3-398efac12286","ios":"levelo://app?vid=5f956392-4cbe-4be9-81f3-398efac12286"},"vehicle_type_id":"4","last_reported":1716055785,"current_range_meters":0,"station_id":"ce4bha92rcd13ifvqeh0","pricing_plan_id":"cebpf4jnsgd1na2vs0mg"},{"bike_id":"7ba09ff8-531d-4e23-bba0-e1ec27d3bef2","system_id":"levelo_inurba_marseille","lat":43.298764,"lon":5.388973,"is_reserved":false,"is_disabled":false,"rental_uris":{"android":"levelo://app?vid=7ba09ff8-531d-4e23-bba0-e1ec27d3bef2","ios":"levelo://app?vid=7ba09ff8-531d-4e23-bba0-e1ec27d3bef2"},"vehicle_type_id":"4","last_reported":1716055785,"current_range_meters":8000,"station_id":"ce4bh392rcd13ifvqdl0","pricing_plan_id":"cebpf4jnsgd1na2vs0mg"},{"bike_id":"3896fc80-8bde-49db-911c-96543a704a5a","system_id":"levelo_inurba_marseille","lat":43.291729,"lon":5.37145,"is_reserved":false,"is_disabled":false,"rental_uris":{"android":"levelo://app?vid=3896fc80-8bde-49db-911c-96543a704a5a","ios":"levelo://app?vid=3896fc80-8bde-49db-911c-96543a704a5a"},"vehicle_type_id":"4","last_reported":1716055785,"current_range_meters":0,"station_id":"ce4bha92rcd13ifvqeh0","pricing_plan_id":"cebpf4jnsgd1na2vs0mg"},{"bike_id":"e700dc80-0ed4-48cb-a2d5-fa6e6acb8e52","system_id":"levelo_inurba_marseille","lat":43.291675,"lon":5.371583,"is_reserved":false,"is_disabled":false,"rental_uris":{"android":"levelo://app?vid=e700dc80-0ed4-48cb-a2d5-fa6e6acb8e52","ios":"levelo://app?vid=e700dc80-0ed4-48cb-a2d5-fa6e6acb8e52"},"vehicle_type_id":"4","last_reported":1716055785,"current_range_meters":8800,"station_id":"ce4bha92rcd13ifvqeh0","pricing_plan_id":"cebpf4jnsgd1na2vs0mg"},{"bike_id":"fe771113-2624-4018-adeb-c58f05796a02","system_id":"levelo_inurba_marseille","lat":43.298764,"lon":5.388973,"is_reserved":false,"is_disabled":false,"rental_uris":{"android":"levelo://app?vid=fe771113-2624-4018-adeb-c58f05796a02","ios":"levelo://app?vid=fe771113-2624-4018-adeb-c58f05796a02"},"vehicle_type_id":"4","last_reported":1716055785,"current_range_meters":0,"station_id":"ce4bh392rcd13ifvqdl0","pricing_plan_id":"cebpf4jnsgd1na2vs0mg"},{"bike_id":"0ce5f4ae-3ed8-43ea-942b-6f2c1a81bb81","system_id":"levelo_inurba_marseille","lat":43.302992,"lon":5.392136,"is_reserved":false,"is_disabled":false,"rental_uris":{"android":"levelo://app?vid=0ce5f4ae-3ed8-43ea-942b-6f2c1a81bb81","ios":"levelo://app?vid=0ce5f4ae-3ed8-43ea-942b-6f2c1a81bb81"},"vehicle_type_id":"4","last_reported":1716055785,"current_range_meters":27600,"station_id":"ce4bgkh2rcd13ifvqbk0","pricing_plan_id":"cebpf4jnsgd1na2vs0mg"},{"bike_id":"ea54b89a-447c-429b-8ef0-9e5a3772832f","system_id":"levelo_inurba_marseille","lat":43.292005,"lon":5.357875,"is_reserved":false,"is_disabled":false,"rental_uris":{"android":"levelo://app?vid=ea54b89a-447c-429b-8ef0-9e5a3772832f","ios":"levelo://app?vid=ea54b89a-447c-429b-8ef0-9e5a3772832f"},"vehicle_type_id":"4","last_reported":1716055785,"current_range_meters":0,"station_id":"ce4bhb12rcd13ifvqel0","pricing_plan_id":"cebpf4jnsgd1na2vs0mg"},{"bike_id":"ef4b5c97-2b31-4a44-a102-3d442e73d7ee","system_id":"levelo_inurba_marseille","lat":43.309047,"lon":5.396551,"is_reserved":false,"is_disabled":false,"rental_uris":{"android":"levelo://app?vid=ef4b5c97-2b31-4a44-a102-3d442e73d7ee","ios":"levelo://app?vid=ef4b5c97-2b31-4a44-a102-3d442e73d7ee"},"vehicle_type_id":"4","last_reported":1716055785,"current_range_meters":0,"station_id":"ce4bh012rcd13ifvqcv0","pricing_plan_id":"cebpf4jnsgd1na2vs0mg"},{"bike_id":"6a24f0f6-b4dd-489e-aad3-fc2704360800","system_id":"levelo_inurba_marseille","lat":43.313291,"lon":5.396838,"is_reserved":false,"is_disabled":false,"rental_uris":{"android":"levelo://app?vid=6a24f0f6-b4dd-489e-aad3-fc2704360800","ios":"levelo://app?vid=6a24f0f6-b4dd-489e-aad3-fc2704360800"},"vehicle_type_id":"4","last_reported":1716055785,"current_range_meters":16400,"station_id":"ce4bgvp2rcd13ifvqcu0","pricing_plan_id":"cebpf4jnsgd1na2vs0mg"},{"bike_id":"00193de1-f93f-4311-bc48-e12cc88bc183","system_id":"levelo_inurba_marseille","lat":43.313291,"lon":5.396838,"is_reserved":false,"is_disabled":false,"rental_uris":{"android":"levelo://app?vid=00193de1-f93f-4311-bc48-e12cc88bc183","ios":"levelo://app?vid=00193de1-f93f-4311-bc48-e12cc88bc183"},"vehicle_type_id":"4","last_reported":1716055785,"current_range_meters":12000,"station_id":"ce4bgvp2rcd13ifvqcu0","pricing_plan_id":"cebpf4jnsgd1na2vs0mg"},{"bike_id":"db16f1cd-d070-489a-950f-278e80acbff0","system_id":"levelo_inurba_marseille","lat":43.31326,"lon":5.39693,"is_reserved":false,"is_disabled":false,"rental_uris":{"android":"levelo://app?vid=db16f1cd-d070-489a-950f-278e80acbff0","ios":"levelo://app?vid=db16f1cd-d070-489a-950f-278e80acbff0"},"vehicle_type_id":"4","last_reported":1716055785,"current_range_meters":0,"station_id":"ce4bgvp2rcd13ifvqcu0","pricing_plan_id":"cebpf4jnsgd1na2vs0mg"},{"bike_id":"45a80f64-bc30-4e1d-b627-1d82109a80f9","system_id":"levelo_inurba_marseille","lat":43.29529,"lon":5.385581,"is_reserved":false,"is_disabled":false,"rental_uris":{"android":"levelo://app?vid=45a80f64-bc30-4e1d-b627-1d82109a80f9","ios":"levelo://app?vid=45a80f64-bc30-4e1d-b627-1d82109a80f9"},"vehicle_type_id":"4","last_reported":1716055785,"current_range_meters":2800,"station_id":"ce4bgih2rcd13ifvqba0","pricing_plan_id":"cebpf4jnsgd1na2vs0mg"},{"bike_id":"5d51ae65-514a-48fd-b37b-f468d0cc4ef1","system_id":"levelo_inurba_marseille","lat":43.309047,"lon":5.396551,"is_reserved":false,"is_disabled":false,"rental_uris":{"android":"levelo://app?vid=5d51ae65-514a-48fd-b37b-f468d0cc4ef1","ios":"levelo://app?vid=5d51ae65-514a-48fd-b37b-f468d0cc4ef1"},"vehicle_type_id":"4","last_reported":1716055785,"current_range_meters":12400,"station_id":"ce4bh012rcd13ifvqcv0","pricing_plan_id":"cebpf4jnsgd1na2vs0mg"},{"bike_id":"b5ed30ba-7759-48d0-8ef8-ba6fbaa1dd9c","system_id":"levelo_inurba_marseille","lat":43.29529,"lon":5.385581,"is_reserved":false,"is_disabled":false,"rental_uris":{"android":"levelo://app?vid=b5ed30ba-7759-48d0-8ef8-ba6fbaa1dd9c","ios":"levelo://app?vid=b5ed30ba-7759-48d0-8ef8-ba6fbaa1dd9c"},"vehicle_type_id":"4","last_reported":1716055785,"current_range_meters":11200,"station_id":"ce4bgih2rcd13ifvqba0","pricing_plan_id":"cebpf4jnsgd1na2vs0mg"},{"bike_id":"499ac8b9-8f94-4444-82b5-cbc1f3fe698b","system_id":"levelo_inurba_marseille","lat":43.295713,"lon":5.385977,"is_reserved":false,"is_disabled":false,"rental_uris":{"android":"levelo://app?vid=499ac8b9-8f94-4444-82b5-cbc1f3fe698b","ios":"levelo://app?vid=499ac8b9-8f94-4444-82b5-cbc1f3fe698b"},"vehicle_type_id":"4","last_reported":1716055785,"current_range_meters":800,"station_id":"","pricing_plan_id":"cebpf4jnsgd1na2vs0mg"},{"bike_id":"945e7d0f-a0c8-43da-9b75-5e8e78bfaee4","system_id":"levelo_inurba_marseille","lat":43.29529,"lon":5.385581,"is_reserved":false,"is_disabled":false,"rental_uris":{"android":"levelo://app?vid=945e7d0f-a0c8-43da-9b75-5e8e78bfaee4","ios":"levelo://app?vid=945e7d0f-a0c8-43da-9b75-5e8e78bfaee4"},"vehicle_type_id":"4","last_reported":1716055785,"current_range_meters":4000,"station_id":"ce4bgih2rcd13ifvqba0","pricing_plan_id":"cebpf4jnsgd1na2vs0mg"},{"bike_id":"d4ed477e-ac27-4e64-91da-bb8ff253bf7c","system_id":"levelo_inurba_marseille","lat":43.29529,"lon":5.385581,"is_reserved":false,"is_disabled":false,"rental_uris":{"android":"levelo://app?vid=d4ed477e-ac27-4e64-91da-bb8ff253bf7c","ios":"levelo://app?vid=d4ed477e-ac27-4e64-91da-bb8ff253bf7c"},"vehicle_type_id":"4","last_reported":1716055785,"current_range_meters":3200,"station_id":"ce4bgih2rcd13ifvqba0","pricing_plan_id":"cebpf4jnsgd1na2vs0mg"},{"bike_id":"fd7c6f5e-c5d8-486e-a4d9-0ce9763cf6d8","system_id":"levelo_inurba_marseille","lat":43.29529,"lon":5.385581,"is_reserved":false,"is_disabled":false,"rental_uris":{"android":"levelo://app?vid=fd7c6f5e-c5d8-486e-a4d9-0ce9763cf6d8","ios":"levelo://app?vid=fd7c6f5e-c5d8-486e-a4d9-0ce9763cf6d8"},"vehicle_type_id":"4","last_reported":1716055785,"current_range_meters":10400,"station_id":"ce4bgih2rcd13ifvqba0","pricing_plan_id":"cebpf4jnsgd1na2vs0mg"},{"bike_id":"4809320c-2e1e-4193-8f08-01215ce28a89","system_id":"levelo_inurba_marseille","lat":43.29529,"lon":5.385581,"is_reserved":false,"is_disabled":false,"rental_uris":{"android":"levelo://app?vid=4809320c-2e1e-4193-8f08-01215ce28a89","ios":"levelo://app?vid=4809320c-2e1e-4193-8f08-01215ce28a89"},"vehicle_type_id":"4","last_reported":1716055785,"current_range_meters":17200,"station_id":"ce4bgih2rcd13ifvqba0","pricing_plan_id":"cebpf4jnsgd1na2vs0mg"},{"bike_id":"1506d7d0-b135-4e09-a578-881a5d0669ed","system_id":"levelo_inurba_marseille","lat":43.286039,"lon":5.370679,"is_reserved":false,"is_disabled":false,"rental_uris":{"android":"levelo://app?vid=1506d7d0-b135-4e09-a578-881a5d0669ed","ios":"levelo://app?vid=1506d7d0-b135-4e09-a578-881a5d0669ed"},"vehicle_type_id":"4","last_reported":1716055785,"current_range_meters":10800,"station_id":"ce4bht12rcd13ifvqi60","pricing_plan_id":"cebpf4jnsgd1na2vs0mg"},