{"last_updated":1767529255,"ttl":60,"version":"2.2","data":{"bikes":[{"bike_id":"a3cf9e4a-782c-4662-8b3b-14ff36c53998","system_id":"levelo_inurba_marseille","lat":43.26196,"lon":5.37445,"is_reserved":false,"is_disabled":false,"rental_uris":{"android":"levelo://app?vid=a3cf9e4a-782c-4662-8b3b-14ff36c53998","ios":"levelo://app?vid=a3cf9e4a-782c-4662-8b3b-14ff36c53998"},"vehicle_type_id":"4","last_reported":1767529256,"current_range_meters":2800,"station_id":"ce4bhgp2rcd13ifvqfc0","pricing_plan_id":"cebpf4jnsgd1na2vs0mg"},{"bike_id":"65131df1-0bed-43f7-938b-a392665de4f0","system_id":"levelo_inurba_marseille","lat":43.27068,"lon":5.42288,"is_reserved":false,"is_disabled":false,"rental_uris":{"android":"levelo://app?vid=65131df1-0bed-43f7-938b-a392665de4f0","ios":"levelo://app?vid=65131df1-0bed-43f7-938b-a392665de4f0"},"vehicle_type_id":"4","last_reported":1767529256,"current_range_meters":2800,"station_id":"ce4bhk92rcd13ifvqgb0","pricing_plan_id":"cebpf4jnsgd1na2vs0mg"},{"bike_id":"7330a0d6-db5e-4e4c-b74a-f37c4c2ef698","system_id":"levelo_inurba_marseille","lat":43.28479,"lon":5.38425,"is_reserved":false,"is_disabled":false,"rental_uris":{"android":"levelo://app?vid=7330a0d6-db5e-4e4c-b74a-f37c4c2ef698","ios":"levelo://app?vid=7330a0d6-db5e-4e4c-b74a-f37c4c2ef698"},"vehicle_type_id":"4","last_reported":1767529256,"current_range_meters":2800,"station_id":"ce4bh512rcd13ifvqe3g","pricing_plan_id":"cebpf4jnsgd1na2vs0mg"},{"bike_id":"d21a3e34-58bc-4d1b-9ac9-a8532bb50fd1","system_id":"levelo_inurba_marseille","lat":43.29816,"lon":5.44032,"is_reserved":false,"is_disabled":false,"rental_uris":{"android":"levelo://app?vid=d21a3e34-58bc-4d1b-9ac9-a8532bb50fd1","ios":"levelo://app?vid=d21a3e34-58bc-4d1b-9ac9-a8532bb50fd1"},"vehicle_type_id":"4","last_reported":1767529256,"current_range_meters":2800,"station_id":"st_d3jp68qikq2c7381ktn0","pricing_plan_id":"cebpf4jnsgd1na2vs0mg"},{"bike_id":"1e895ccc-52e7-4971-b1eb-1726250f7268","system_id":"levelo_inurba_marseille","lat":43.229271,"lon":5.353934,"is_reserved":false,"is_disabled":false,"rental_uris":{"android":"levelo://app?vid=1e895ccc-52e7-4971-b1eb-1726250f7268","ios":"levelo://app?vid=1e895ccc-52e7-4971-b1eb-1726250f7268"},"vehicle_type_id":"4","last_reported":1767529256,"current_range_meters":2800,"station_id":"cpo3532slgdg3j2ikp40","pricing_plan_id":"cebpf4jnsgd1na2vs0mg"},{"bike_id":"8ce78bae-db8a-4d0d-a610-7b09e4add19f","system_id":"levelo_inurba_marseille","lat":43.271681,"lon":5.409879,"is_reserved":false,"is_disabled":false,"rental_uris":{"android":"levelo://app?vid=8ce78bae-db8a-4d0d-a610-7b09e4add19f","ios":"levelo://app?vid=8ce78bae-db8a-4d0d-a610-7b09e4add19f"},"vehicle_type_id":"4","last_reported":1767529256,"current_range_meters":2800,"station_id":"ce4bhl12rcd13ifvqgf0","pricing_plan_id":"cebpf4jnsgd1na2vs0mg"},{"bike_id":"8b720c35-4823-48af-825c-0c71ab5317be","system_id":"levelo_inurba_marseille","lat":43.2795,"lon":5.41056,"is_reserved":false,"is_disabled":true,"rental_uris":{"android":"levelo://app?vid=8b720c35-4823-48af-825c-0c71ab5317be","ios":"levelo://app?vid=8b720c35-4823-48af-825c-0c71ab5317be"},"vehicle_type_id":"4","last_reported":1767529256,"current_range_meters":2800,"station_id":"ce4bhnp2rcd13ifvqh0g","pricing_plan_id":"cebpf4jnsgd1na2vs0mg"},{"bike_id":"f1877188-c265-42ce-a2e8-a00a9b709c5b","system_id":"levelo_inurba_marseille","lat":43.27219,"lon":5.3918,"is_reserved":false,"is_disabled":false,"rental_uris":{"android":"levelo://app?vid=f1877188-c265-42ce-a2e8-a00a9b709c5b","ios":"levelo://app?vid=f1877188-c265-42ce-a2e8-a00a9b709c5b"},"vehicle_type_id":"4","last_reported":1767529256,"current_range_meters":3200,"station_id":"ce4bhhp2rcd13ifvqfm0","pricing_plan_id":"cebpf4jnsgd1na2vs0mg"},{"bike_id":"34f3a292-6f55-4da9-baea-9c8e3ef09af6","system_id":"levelo_inurba_marseille","lat":43.25499,"lon":5.37655,"is_reserved":false,"is_disabled":false,"rental_uris":{"android":"levelo://app?vid=34f3a292-6f55-4da9-baea-9c8e3ef09af6","ios":"levelo://app?vid=34f3a292-6f55-4da9-baea-9c8e3ef09af6"},"vehicle_type_id":"4","last_reported":1767529256,"current_range_meters":3200,"station_id":"ce4bhh12rcd13ifvqff0","pricing_plan_id":"cebpf4jnsgd1na2vs0mg"},{"bike_id":"6af309a2-8f26-4463-a2f8-b68c7d811285","system_id":"levelo_inurba_marseille","lat":43.30841,"lon":5.37516,"is_reserved":false,"is_disabled":false,"rental_uris":{"android":"levelo://app?vid=6af309a2-8f26-4463-a2f8-b68c7d811285","ios":"levelo://app?vid=6af309a2-8f26-4463-a2f8-b68c7d811285"},"vehicle_type_id":"4","last_reported":1767529256,"current_range_meters":3200,"station_id":"","pricing_plan_id":"cebpf4jnsgd1na2vs0mg"},{"bike_id":"1cb07a07-9f8b-49b3-899d-e4d88daca5ff","system_id":"levelo_inurba_marseille","lat":43.2603,"lon":5.40785,"is_reserved":false,"is_disabled":false,"rental_uris":{"android":"levelo://app?vid=1cb07a07-9f8b-49b3-899d-e4d88daca5ff","ios":"levelo://app?vid=1cb07a07-9f8b-49b3-899d-e4d88daca5ff"},"vehicle_type_id":"4","last_reported":1767529256,"current_range_meters":3200,"station_id":"","pricing_plan_id":"cebpf4jnsgd1na2vs0mg"},{"bike_id":"dc9feb7e-742c-4c15-83bb-7db4fa4848d4","system_id":"levelo_inurba_marseille","lat":43.32845,"lon":5.36683,"is_reserved":false,"is_disabled":false,"rental_uris":{"android":"levelo://app?vid=dc9feb7e-742c-4c15-83bb-7db4fa4848d4","ios":"levelo://app?vid=dc9feb7e-742c-4c15-83bb-7db4fa4848d4"},"vehicle_type_id":"4","last_reported":1767529256,"current_range_meters":3200,"station_id":"","pricing_plan_id":"cebpf4jnsgd1na2vs0mg"},{"bike_id":"be59f674-a0bd-4fc3-a219-9eada39112de","system_id":"levelo_inurba_marseille","lat":43.299624,"lon":5.373682,"is_reserved":false,"is_disabled":false,"rental_uris":{"android":"levelo://app?vid=be59f674-a0bd-4fc3-a219-9eada39112de","ios":"levelo://app?vid=be59f674-a0bd-4fc3-a219-9eada39112de"},"vehicle_type_id":"4","last_reported":1767529256,"current_range_meters":3200,"station_id":"","pricing_plan_id":"cebpf4jnsgd1na2vs0mg"},{"bike_id":"f6a515b6-0743-4a5b-b2ec-32565099009c","system_id":"levelo_inurba_marseille","lat":43.23794,"lon":5.36638,"is_reserved":false,"is_disabled":false,"rental_uris":{"android":"levelo://app?vid=f6a515b6-0743-4a5b-b2ec-32565099009c","ios":"levelo://app?vid=f6a515b6-0743-4a5b-b2ec-32565099009c"},"vehicle_type_id":"4","last_reported":1767529256,"current_range_meters":3200,"station_id":"st_d3nk18o9ro0c73en2l3g","pricing_plan_id":"cebpf4jnsgd1na2vs0mg"},{"bike_id":"e493b9f3-75a9-4b83-a37d-a0c34b5cbb80","system_id":"levelo_inurba_marseille","lat":43.24678,"lon":5.38882,"is_reserved":false,"is_disabled":false,"rental_uris":{"android":"levelo://app?vid=e493b9f3-75a9-4b83-a37d-a0c34b5cbb80","ios":"levelo://app?vid=e493b9f3-75a9-4b83-a37d-a0c34b5cbb80"},"vehicle_type_id":"4","last_reported":1767529256,"current_range_meters":3200,"station_id":"ce4bhg12rcd13ifvqf60","pricing_plan_id":"cebpf4jnsgd1na2vs0mg"},{"bike_id":"04004133-64b3-49a8-8413-112d2ba07443","system_id":"levelo_inurba_marseille","lat":43.27606,"lon":5.36115,"is_reserved":false,"is_disabled":false,"rental_uris":{"android":"levelo://app?vid=04004133-64b3-49a8-8413-112d2ba07443","ios":"levelo://app?vid=04004133-64b3-49a8-8413-112d2ba07443"},"vehicle_type_id":"4","last_reported":1767529256,"current_range_meters":3600,"station_id":"ce4bgj92rcd13ifvqbe0","pricing_plan_id":"cebpf4jnsgd1na2vs0mg"},{"bike_id":"cc5bda99-21cd-42e7-81b3-54c266084d52","system_id":"levelo_inurba_marseille","lat":43.311157,"lon":5.377575,"is_reserved":false,"is_disabled":false,"rental_uris":{"android":"levelo://app?vid=cc5bda99-21cd-42e7-81b3-54c266084d52","ios":"levelo://app?vid=cc5bda99-21cd-42e7-81b3-54c266084d52"},"vehicle_type_id":"4","last_reported":1767529256,"current_range_meters":3600,"station_id":"ce4bgt92rcd13ifvqcg0","pricing_plan_id":"cebpf4jnsgd1na2vs0mg"},{"bike_id":"369c8c7b-dd26-491c-8ac1-e59e015c794f","system_id":"levelo_inurba_marseille","lat":43.27805,"lon":5.40708,"is_reserved":false,"is_disabled":false,"rental_uris":{"android":"levelo://app?vid=369c8c7b-dd26-491c-8ac1-e59e015c794f","ios":"levelo://app?vid=369c8c7b-dd26-491c-8ac1-e59e015c794f"},"vehicle_type_id":"4","last_reported":1767529256,"current_range_meters":3600,"station_id":"ce4bhnh2rcd13ifvqgtg","pricing_plan_id":"cebpf4jnsgd1na2vs0mg"},{"bike_id":"ddea6b53-a329-474e-b86a-40e23ca5f3fa","system_id":"levelo_inurba_marseille","lat":43.26214,"lon":5.37447,"is_reserved":false,"is_disabled":false,"rental_uris":{"android":"levelo://app?vid=ddea6b53-a329-474e-b86a-40e23ca5f3fa","ios":"levelo://app?vid=ddea6b53-a329-474e-b86a-40e23ca5f3fa"},"vehicle_type_id":"4","last_reported":1767529256,"current_range_meters":3600,"station_id":"ce4bhgp2rcd13ifvqfc0","pricing_plan_id":"cebpf4jnsgd1na2vs0mg"},{"bike_id":"64715ed3-7658-44a3-8c77-eceed2009a4b","system_id":"levelo_inurba_marseille","lat":43.26525,"lon":5.39541,"is_reserved":false,"is_disabled":false,"rental_uris":{"android":"levelo://app?vid=64715ed3-7658-44a3-8c77-eceed2009a4b","ios":"levelo://app?vid=64715ed3-7658-44a3-8c77-eceed2009a4b"},"vehicle_type_id":"4","last_reported":1767529256,"current_range_meters":3600,"station_id":"ce4bhi12rcd13ifvqfq0","pricing_plan_id":"cebpf4jnsgd1na2vs0mg"},{"bike_id":"1bf78527-99ae-4500-88ac-16bb4618f046","system_id":"levelo_inurba_marseille","lat":43.29261,"lon":5.40903,"is_reserved":false,"is_disabled":false,"rental_uris":{"android":"levelo://app?vid=1bf78527-99ae-4500-88ac-16bb4618f046","ios":"levelo://app?vid=1bf78527-99ae-4500-88ac-16bb4618f046"},"vehicle_type_id":"4","last_reported":1767529256,"current_range_meters":3600,"station_id":"ce4bh192rcd13ifvqdc0","pricing_plan_id":"cebpf4jnsgd1na2vs0mg"},{"bike_id":"a3be4a7c-7544-49a9-8048-28fcde31ea3d","system_id":"levelo_inurba_marseille","lat":43.29266,"lon":5.37358,"is_reserved":false,"is_disabled":false,"rental_uris":{"android":"levelo://app?vid=a3be4a7c-7544-49a9-8048-28fcde31ea3d","ios":"levelo://app?vid=a3be4a7c-7544-49a9-8048-28fcde31ea3d"},"vehicle_type_id":"4","last_reported":1767529256,"current_range_meters":3600,"station_id":"","pricing_plan_id":"cebpf4jnsgd1na2vs0mg"},{"bike_id":"9cba9baa-48dc-42d2-aaaa-ab922cc16ffc","system_id":"levelo_inurba_marseille","lat":43.24081,"lon":5.37767,"is_reserved":false,"is_disabled":false,"rental_uris":{"android":"levelo://app?vid=9cba9baa-48dc-42d2-aaaa-ab922cc16ffc","ios":"levelo://app?vid=9cba9baa-48dc-42d2-aaaa-ab922cc16ffc"},"vehicle_type_id":"4","last_reported":1767529256,"current_range_meters":4000,"station_id":"ce4bhnp2rcd13ifvqgvg","pricing_plan_id":"cebpf4jnsgd1na2vs0mg"},{"bike_id":"d1028c8d-4c1a-4ce3-bb87-06b106258967","system_id":"levelo_inurba_marseille","lat":43.30079,"lon":5.37103,"is_reserved":false,"is_disabled":false,"rental_uris":{"android":"levelo://app?vid=d1028c8d-4c1a-4ce3-bb87-06b106258967","ios":"levelo://app?vid=d1028c8d-4c1a-4ce3-bb87-06b106258967"},"vehicle_type_id":"4","last_reported":1767529256,"current_range_meters":4000,"station_id":"","pricing_plan_id":"cebpf4jnsgd1na2vs0mg"},{"bike_id":"faae1c22-eb69-4a6a-9fdd-05bf4896a93c","system_id":"levelo_inurba_marseille","lat":43.28499,"lon":5.48403,"is_reserved":false,"is_disabled":false,"rental_uris":{"android":"levelo://app?vid=faae1c22-eb69-4a6a-9fdd-05bf4896a93c","ios":"levelo://app?vid=faae1c22-eb69-4a6a-9fdd-05bf4896a93c"},"vehicle_type_id":"4","last_reported":1767529256,"current_range_meters":4000,"station_id":"","pricing_plan_id":"cebpf4jnsgd1na2vs0mg"},{"bike_id":"f73476a1-8b2a-42dc-b112-79fd77bdf5e0","system_id":"levelo_inurba_marseille","lat":43.27199,"lon":5.40997,"is_reserved":false,"is_disabled":false,"rental_uris":{"android":"levelo://app?vid=f73476a1-8b2a-42dc-b112-79fd77bdf5e0","ios":"levelo://app?vid=f73476a1-8b2a-42dc-b112-79fd77bdf5e0"},"vehicle_type_id":"4","last_reported":1767529256,"current_range_meters":4000,"station_id":"ce4bhl12rcd13ifvqgf0","pricing_plan_id":"cebpf4jnsgd1na2vs0mg"},{"bike_id":"650cf425-f87e-4c30-9156-354d5fef94cd","system_id":"levelo_inurba_marseille","lat":43.30132,"lon":5.36732,"is_reserved":false,"is_disabled":false,"rental_uris":{"android":"levelo://app?vid=650cf425-f87e-4c30-9156-354d5fef94cd","ios":"levelo://app?vid=650cf425-f87e-4c30-9156-354d5fef94cd"},"vehicle_type_id":"4","last_reported":1767529256,"current_range_meters":4000,"station_id":"","pricing_plan_id":"cebpf4jnsgd1na2vs0mg"},{"bike_id":"a5e341dd-f678-4ec1-a7c6-1c53bd98d5b6","system_id":"levelo_inurba_marseille","lat":43.29754,"lon":5.38052,"is_reserved":false,"is_disabled":false,"rental_uris":{"android":"levelo://app?vid=a5e341dd-f678-4ec1-a7c6-1c53bd98d5b6","ios":"levelo://app?vid=a5e341dd-f678-4ec1-a7c6-1c53bd98d5b6"},"vehicle_type_id":"4","last_reported":1767529256,"current_range_meters":4000,"station_id":"","pricing_plan_id":"cebpf4jnsgd1na2vs0mg"},{"bike_id":"eebd9e1f-1ba5-43d8-ba3e-599639161f1a","system_id":"levelo_inurba_marseille","lat":43.27377,"lon":5.39107,"is_reserved":false,"is_disabled":false,"rental_uris":{"android":"levelo://app?vid=eebd9e1f-1ba5-43d8-ba3e-599639161f1a","ios":"levelo://app?vid=eebd9e1f-1ba5-43d8-ba3e-599639161f1a"},"vehicle_type_id":"4","last_reported":1767529256,"current_range_meters":4000,"station_id":"ce4bhgp2rcd13ifvqfe0","pricing_plan_id":"cebpf4jnsgd1na2vs0mg"},{"bike_id":"0dd21e79-908a-4561-aeb3-73980632f5b5","system_id":"levelo_inurba_marseille","lat":43.296843,"lon":5.373265,"is_reserved":false,"is_disabled":false,"rental_uris":{"android":"levelo://app?vid=0dd21e79-908a-4561-aeb3-73980632f5b5","ios":"levelo://app?vid=0dd21e79-908a-4561-aeb3-73980632f5b5"},"vehicle_type_id":"4","last_reported":1767529256,"current_range_meters":4000,"station_id":"ce4bgk12rcd13ifvqbj0","pricing_plan_id":"cebpf4jnsgd1na2vs0mg"},{"bike_id":"efd33062-2cef-445f-af98-648f578e9c2a","system_id":"levelo_inurba_marseille","lat":43.32645,"lon":5.41937,"is_reserved":false,"is_disabled":false,"rental_uris":{"android":"levelo://app?vid=efd33062-2cef-445f-af98-648f578e9c2a","ios":"levelo://app?vid=efd33062-2cef-445f-af98-648f578e9c2a"},"vehicle_type_id":"4","last_reported":1767529256,"current_range_meters":4400,"station_id":"","pricing_plan_id":"cebpf4jnsgd1na2vs0mg"},{"bike_id":"27e3db41-e25d-4703-9c18-718b047d8c1b","system_id":"levelo_inurba_marseille","lat":43.31453,"lon":5.38111,"is_reserved":false,"is_disabled":false,"rental_uris":{"android":"levelo://app?vid=27e3db41-e25d-4703-9c18-718b047d8c1b","ios":"levelo://app?vid=27e3db41-e25d-4703-9c18-718b047d8c1b"},"vehicle_type_id":"4","last_reported":1767529256,"current_range_meters":4400,"station_id":"","pricing_plan_id":"cebpf4jnsgd1na2vs0mg"},{"bike_id":"394b2473-e75b-4508-a6de-dc82472511d3","system_id":"levelo_inurba_marseille","lat":43.26385,"lon":5.41078,"is_reserved":false,"is_disabled":true,"rental_uris":{"android":"levelo://app?vid=394b2473-e75b-4508-a6de-dc82472511d3","ios":"levelo://app?vid=394b2473-e75b-4508-a6de-dc82472511d3"},"vehicle_type_id":"4","last_reported":1767529256,"current_range_meters":4400,"station_id":"","pricing_plan_id":"cebpf4jnsgd1na2vs0mg"},{"bike_id":"7ee1c09d-a306-4e72-a256-6549ce7578c9","system_id":"levelo_inurba_marseille","lat":43.29171,"lon":5.37321,"is_reserved":false,"is_disabled":false,"rental_uris":{"android":"levelo://app?vid=7ee1c09d-a306-4e72-a256-6549ce7578c9","ios":"levelo://app?vid=7ee1c09d-a306-4e72-a256-6549ce7578c9"},"vehicle_type_id":"4","last_reported":1767529256,"current_range_meters":4400,"station_id":"","pricing_plan_id":"cebpf4jnsgd1na2vs0mg"},{"bike_id":"79d109b6-d151-44cf-9f49-18f38db8d1e5","system_id":"levelo_inurba_marseille","lat":43.24169,"lon":5.39714,"is_reserved":false,"is_disabled":false,"rental_uris":{"android":"levelo://app?vid=79d109b6-d151-44cf-9f49-18f38db8d1e5","ios":"levelo://app?vid=79d109b6-d151-44cf-9f49-18f38db8d1e5"},"vehicle_type_id":"4","last_reported":1767529256,"current_range_meters":4400,"station_id":"ce4bhn12rcd13ifvqgpg","pricing_plan_id":"cebpf4jnsgd1na2vs0mg"},{"bike_id":"557fcc01-1a31-4734-96a9-4bc57201480a","system_id":"levelo_inurba_marseille","lat":43.31662,"lon":5.37195,"is_reserved":false,"is_disabled":false,"rental_uris":{"android":"levelo://app?vid=557fcc01-1a31-4734-96a9-4bc57201480a","ios":"levelo://app?vid=557fcc01-1a31-4734-96a9-4bc57201480a"},"vehicle_type_id":"4","last_reported":1767529256,"current_range_meters":4400,"station_id":"","pricing_plan_id":"cebpf4jnsgd1na2vs0mg"},{"bike_id":"607f6356-92f4-49b1-8436-7911c576c661","system_id":"levelo_inurba_marseille","lat":43.292861,"lon":5.374043,"is_reserved":false,"is_disabled":false,"rental_uris":{"android":"levelo://app?vid=607f6356-92f4-49b1-8436-7911c576c661","ios":"levelo://app?vid=607f6356-92f4-49b1-8436-7911c576c661"},"vehicle_type_id":"4","last_reported":1767529256,"current_range_meters":4800,"station_id":"ce4bgi12rcd13ifvqb70","pricing_plan_id":"cebpf4jnsgd1na2vs0mg"},{"bike_id":"ca0c01c7-fbdb-4547-a3b0-3f7514c0d05b","system_id":"levelo_inurba_marseille","lat":43.28435,"lon":5.35002,"is_reserved":false,"is_disabled":false,"rental_uris":{"android":"levelo://app?vid=ca0c01c7-fbdb-4547-a3b0-3f7514c0d05b","ios":"levelo://app?vid=ca0c01c7-fbdb-4547-a3b0-3f7514c0d05b"},"vehicle_type_id":"4","last_reported":1767529256,"current_range_meters":4800,"station_id":"ce4bhbh2rcd13ifvqepg","pricing_plan_id":"cebpf4jnsgd1na2vs0mg"},{"bike_id":"2bcf6ae4-322c-43d0-9880-65aeda24ed67","system_id":"levelo_inurba_marseille","lat":43.324211,"lon":5.369025,"is_reserved":false,"is_disabled":false,"rental_uris":{"android":"levelo://app?vid=2bcf6ae4-322c-43d0-9880-65aeda24ed67","ios":"levelo://app?vid=2bcf6ae4-322c-43d0-9880-65aeda24ed67"},"vehicle_type_id":"4","last_reported":1767529256,"current_range_meters":4800,"station_id":"","pricing_plan_id":"cebpf4jnsgd1na2vs0mg"},{"bike_id":"bbd145e1-db8d-40b0-b146-2b7542d40bf1","system_id":"levelo_inurba_marseille","lat":43.2681,"lon":5.40262,"is_reserved":false,"is_disabled":false,"rental_uris":{"android":"levelo://app?vid=bbd145e1-db8d-40b0-b146-2b7542d40bf1","ios":"levelo://app?vid=bbd145e1-db8d-40b0-b146-2b7542d40bf1"},"vehicle_type_id":"4","last_reported":1767529256,"current_range_meters":4800,"station_id":"ce501612rcd8frsf0b60","pricing_plan_id":"cebpf4jnsgd1na2vs0mg"},{"bike_id":"32d1c9cb-e782-47ae-910a-dae58bcdf1e2","system_id":"levelo_inurba_marseille","lat":43.24077,"lon":5.37763,"is_reserved":false,"is_disabled":false,"rental_uris":{"android":"levelo://app?vid=32d1c9cb-e782-47ae-910a-dae58bcdf1e2","ios":"levelo://app?vid=32d1c9cb-e782-47ae-910a-dae58bcdf1e2"},"vehicle_type_id":"4","last_reported":1767529256,"current_range_meters":4800,"station_id":"ce4bhnp2rcd13ifvqgvg","pricing_plan_id":"cebpf4jnsgd1na2vs0mg"},{"bike_id":"0cc8f38b-2aab-4edc-80d1-8d77bb645f60","system_id":"levelo_inurba_marseille","lat":43.255107,"lon":5.376605,"is_reserved":false,"is_disabled":true,"rental_uris":{"android":"levelo://app?vid=0cc8f38b-2aab-4edc-80d1-8d77bb645f60","ios":"levelo://app?vid=0cc8f38b-2aab-4edc-80d1-8d77bb645f60"},"vehicle_type_id":"4","last_reported":1767529256,"current_range_meters":4800,"station_id":"ce4bhh12rcd13ifvqff0","pricing_plan_id":"cebpf4jnsgd1na2vs0mg"},{"bike_id":"b8312627-13c4-4db1-bc05-2c9ecea4546c","system_id":"levelo_inurba_marseille","lat":43.28492,"lon":5.39197,"is_reserved":false,"is_disabled":false,"rental_uris":{"android":"levelo://app?vid=b8312627-13c4-4db1-bc05-2c9ecea4546c","ios":"levelo://app?vid=b8312627-13c4-4db1-bc05-2c9ecea4546c"},"vehicle_type_id":"4","last_reported":1767529256,"current_range_meters":4800,"station_id":"","pricing_plan_id":"cebpf4jnsgd1na2vs0mg"},{"bike_id":"7e51736b-a18d-4be4-b48c-f2c8b7840945","system_id":"levelo_inurba_marseille","lat":43.279694,"lon":5.387459,"is_reserved":false,"is_disabled":false,"rental_uris":{"android":"levelo://app?vid=7e51736b-a18d-4be4-b48c-f2c8b7840945","ios":"levelo://app?vid=7e51736b-a18d-4be4-b48c-f2c8b7840945"},"vehicle_type_id":"4","last_reported":1767529256,"current_range_meters":4800,"station_id":"ce4bhmh2rcd13ifvqgmg","pricing_plan_id":"cebpf4jnsgd1na2vs0mg"},{"bike_id":"7d88ce0c-ae9b-49e1-a08d-95a335fd71ed","system_id":"levelo_inurba_marseille","lat":43.285347,"lon":5.441098,"is_reserved":false,"is_disabled":false,"rental_uris":{"android":"levelo://app?vid=7d88ce0c-ae9b-49e1-a08d-95a335fd71ed","ios":"levelo://app?vid=7d88ce0c-ae9b-49e1-a08d-95a335fd71ed"},"vehicle_type_id":"4","last_reported":1767529256,"current_range_meters":4800,"station_id":"st_d3j3df2ikq2c7380ej80","pricing_plan_id":"cebpf4jnsgd1na2vs0mg"},{"bike_id":"32088daf-19b4-43c2-bb3d-ac36d2b03bd3","system_id":"levelo_inurba_marseille","lat":43.24393,"lon":5.3707,"is_reserved":false,"is_disabled":false,"rental_uris":{"android":"levelo://app?vid=32088daf-19b4-43c2-bb3d-ac36d2b03bd3","ios":"levelo://app?vid=32088daf-19b4-43c2-bb3d-ac36d2b03bd3"},"vehicle_type_id":"4","last_reported":1767529256,"current_range_meters":4800,"station_id":"ce4bhhh2rcd13ifvqfk0","pricing_plan_id":"cebpf4jnsgd1na2vs0mg"},{"bike_id":"b357b06c-84a1-42eb-85bc-16a2d56a5e8b","system_id":"levelo_inurba_marseille","lat":43.30006,"lon":5.37324,"is_reserved":false,"is_disabled":false,"rental_uris":{"android":"levelo://app?vid=b357b06c-84a1-42eb-85bc-16a2d56a5e8b","ios":"levelo://app?vid=b357b06c-84a1-42eb-85bc-16a2d56a5e8b"},"vehicle_type_id":"4","last_reported":1767529256,"current_range_meters":4800,"station_id":"","pricing_plan_id":"cebpf4jnsgd1na2vs0mg"},{"bike_id":"c9d548ba-2a02-4b82-91f9-b5968320bd23","system_id":"levelo_inurba_marseille","lat":43.23187,"lon":5.35564,"is_reserved":false,"is_disabled":false,"rental_uris":{"android":"levelo://app?vid=c9d548ba-2a02-4b82-91f9-b5968320bd23","ios":"levelo://app?vid=c9d548ba-2a02-4b82-91f9-b5968320bd23"},"vehicle_type_id":"4","last_reported":1767529256,"current_range_meters":4800,"station_id":"ce4bhu92rcd13ifvqi70","pricing_plan_id":"cebpf4jnsgd1na2vs0mg"},{"bike_id":"63dc1a90-8850-4ffd-a7a5-1ec3cf15ec15","system_id":"levelo_inurba_marseille","lat":43.26199,"lon":5.37446,"is_reserved":false,"is_disabled":false,"rental_uris":{"android":"levelo://app?vid=63dc1a90-8850-4ffd-a7a5-1ec3cf15ec15","ios":"levelo://app?vid=63dc1a90-8850-4ffd-a7a5-1ec3cf15ec15"},"vehicle_type_id":"4","last_reported":1767529256,"current_range_meters":4800,"station_id":"ce4bhgp2rcd13ifvqfc0","pricing_plan_id":"cebpf4jnsgd1na2vs0mg"},{"bike_id":"6c6783bf-2019-4bc3-9155-699dc5db5967","system_id":"levelo_inurba_marseille","lat":43.29615,"lon":5.37717,"is_reserved":false,"is_disabled":false,"rental_uris":{"android":"levelo://app?vid=6c6783bf-2019-4bc3-9155-699dc5db5967","ios":"levelo://app?vid=6c6783bf-2019-4bc3-9155-699dc5db5967"},"vehicle_type_id":"4","last_reported":1767529256,"current_range_meters":5600,"station_id":"ce4bgi92rcd13ifvqb90","pricing_plan_id":"cebpf4jnsgd1na2vs0mg"},{"bike_id":"472773c4-6498-406d-9fab-c8b8c4a682a5","system_id":"levelo_inurba_marseille","lat":43.30197,"lon":5.36625,"is_reserved":false,"is_disabled":false,"rental_uris":{"android":"levelo://app?vid=472773c4-6498-406d-9fab-c8b8c4a682a5","ios":"levelo://app?vid=472773c4-6498-406d-9fab-c8b8c4a682a5"},"vehicle_type_id":"4","last_reported":1767529256,"current_range_meters":5600,"station_id":"ce4bgrh2rcd13ifvqc8g","pricing_plan_id":"cebpf4jnsgd1na2vs0mg"},{"bike_id":"2b624d0e-1cfa-4ac9-9043-15da84aeb91b","system_id":"levelo_inurba_marseille","lat":43.25724,"lon":5.41104,"is_reserved":false,"is_disabled":false,"rental_uris":{"android":"levelo://app?vid=2b624d0e-1cfa-4ac9-9043-15da84aeb91b","ios":"levelo://app?vid=2b624d0e-1cfa-4ac9-9043-15da84aeb91b"},"vehicle_type_id":"4","last_reported":1767529256,"current_range_meters":5600,"station_id":"ce4bhkp2rcd13ifvqgd0","pricing_plan_id":"cebpf4jnsgd1na2vs0mg"},{"bike_id":"093623d6-2d73-411a-8372-4b522432f61f","system_id":"levelo_inurba_marseille","lat":43.24634,"lon":5.43143,"is_reserved":false,"is_disabled":false,"rental_uris":{"android":"levelo://app?vid=093623d6-2d73-411a-8372-4b522432f61f","ios":"levelo://app?vid=093623d6-2d73-411a-8372-4b522432f61f"},"vehicle_type_id":"4","last_reported":1767529256,"current_range_meters":5600,"station_id":"st_d2m6c4gdas8pm72e190g","pricing_plan_id":"cebpf4jnsgd1na2vs0mg"},{"bike_id":"d49d55fc-f15f-4a66-a00d-73bd545b8ffd","system_id":"levelo_inurba_marseille","lat":43.29041,"lon":5.3992,"is_reserved":false,"is_disabled":false,"rental_uris":{"android":"levelo://app?vid=d49d55fc-f15f-4a66-a00d-73bd545b8ffd","ios":"levelo://app?vid=d49d55fc-f15f-4a66-a00d-73bd545b8ffd"},"vehicle_type_id":"4","last_reported":1767529256,"current_range_meters":5600,"station_id":"ce4bh392rcd13ifvqdm0","pricing_plan_id":"cebpf4jnsgd1na2vs0mg"},{"bike_id":"fd2d24be-3ca8-4d58-ac4a-6481fce6f9d2","system_id":"levelo_inurba_marseille","lat":43.27054,"lon":5.42286,"is_reserved":false,"is_disabled":false,"rental_uris":{"android":"levelo://app?vid=fd2d24be-3ca8-4d58-ac4a-6481fce6f9d2","ios":"levelo://app?vid=fd2d24be-3ca8-4d58-ac4a-6481fce6f9d2"},"vehicle_type_id":"4","last_reported":1767529256,"current_range_meters":5600,"station_id":"ce4bhk92rcd13ifvqgb0","pricing_plan_id":"cebpf4jnsgd1na2vs0mg"},{"bike_id":"ca48d4ad-26ca-4dea-a200-be3e43176f3f","system_id":"levelo_inurba_marseille","lat":43.33219,"lon":5.41282,"is_reserved":false,"is_disabled":false,"rental_uris":{"android":"levelo://app?vid=ca48d4ad-26ca-4dea-a200-be3e43176f3f","ios":"levelo://app?vid=ca48d4ad-26ca-4dea-a200-be3e43176f3f"},"vehicle_type_id":"4","last_reported":1767529256,"current_range_meters":5600,"station_id":"","pricing_plan_id":"cebpf4jnsgd1na2vs0mg"},{"bike_id":"6a64a6f2-fb5a-4dbe-9176-2968ff26a101","system_id":"levelo_inurba_marseille","lat":43.280388,"lon":5.369464,"is_reserved":false,"is_disabled":false,"rental_uris":{"android":"levelo://app?vid=6a64a6f2-fb5a-4dbe-9176-2968ff26a101","ios":"levelo://app?vid=6a64a6f2-fb5a-4dbe-9176-2968ff26a101"},"vehicle_type_id":"4","last_reported":1767529256,"current_range_meters":5600,"station_id":"ce4bha12rcd13ifvqef0","pricing_plan_id":"cebpf4jnsgd1na2vs0mg"},{"bike_id":"94e31e6d-82b1-4a72-8d23-2ac15df71e4c","system_id":"levelo_inurba_marseille","lat":43.28869,"lon":5.42524,"is_reserved":false,"is_disabled":false,"rental_uris":{"android":"levelo://app?vid=94e31e6d-82b1-4a72-8d23-2ac15df71e4c","ios":"levelo://app?vid=94e31e6d-82b1-4a72-8d23-2ac15df71e4c"},"vehicle_type_id":"4","last_reported":1767529256,"current_range_meters":5600,"station_id":"st_d3b462108ojc7389ooeg","pricing_plan_id":"cebpf4jnsgd1na2vs0mg"},{"bike_id":"e987523a-ef8b-4c5d-94b4-e53d7fa7dfe0","system_id":"levelo_inurba_marseille","lat":43.24884,"lon":5.38552,"is_reserved":false,"is_disabled":false,"rental_uris":{"android":"levelo://app?vid=e987523a-ef8b-4c5d-94b4-e53d7fa7dfe0","ios":"levelo://app?vid=e987523a-ef8b-4c5d-94b4-e53d7fa7dfe0"},"vehicle_type_id":"4","last_reported":1767529256,"current_range_meters":6000,"station_id":"","pricing_plan_id":"cebpf4jnsgd1na2vs0mg"},{"bike_id":"32430d05-1fb8-4eba-b545-baa9ce76d5e5","system_id":"levelo_inurba_marseille","lat":43.288629,"lon":5.425293,"is_reserved":false,"is_disabled":false,"rental_uris":{"android":"levelo://app?vid=32430d05-1fb8-4eba-b545-baa9ce76d5e5","ios":"levelo://app?vid=32430d05-1fb8-4eba-b545-baa9ce76d5e5"},"vehicle_type_id":"4","last_reported":1767529256,"current_range_meters":6000,"station_id":"st_d3b462108ojc7389ooeg","pricing_plan_id":"cebpf4jnsgd1na2vs0mg"},{"bike_id":"61de8b69-7704-4d24-bebb-39e846fd4b45","system_id":"levelo_inurba_marseille","lat":43.30095,"lon":5.37796,"is_reserved":false,"is_disabled":false,"rental_uris":{"android":"levelo://app?vid=61de8b69-7704-4d24-bebb-39e846fd4b45","ios":"levelo://app?vid=61de8b69-7704-4d24-bebb-39e846fd4b45"},"vehicle_type_id":"4","last_reported":1767529256,"current_range_meters":6000,"station_id":"","pricing_plan_id":"cebpf4jnsgd1na2vs0mg"},{"bike_id":"00b5a968-4ff7-432e-b0d8-687619036087","system_id":"levelo_inurba_marseille","lat":43.23195,"lon":5.35542,"is_reserved":false,"is_disabled":false,"rental_uris":{"android":"levelo://app?vid=00b5a968-4ff7-432e-b0d8-687619036087","ios":"levelo://app?vid=00b5a968-4ff7-432e-b0d8-687619036087"},"vehicle_type_id":"4","last_reported":1767529256,"current_range_meters":6000,"station_id":"ce4bhu92rcd13ifvqi70","pricing_plan_id":"cebpf4jnsgd1na2vs0mg"},{"bike_id":"cf1dde7c-2421-4aa1-aa32-84342583dd5b","system_id":"levelo_inurba_marseille","lat":43.24081,"lon":5.37749,"is_reserved":false,"is_disabled":false,"rental_uris":{"android":"levelo://app?vid=cf1dde7c-2421-4aa1-aa32-84342583dd5b","ios":"levelo://app?vid=cf1dde7c-2421-4aa1-aa32-84342583dd5b"},"vehicle_type_id":"4","last_reported":1767529256,"current_range_meters":6000,"station_id":"ce4bhnp2rcd13ifvqgvg","pricing_plan_id":"cebpf4jnsgd1na2vs0mg"},{"bike_id":"c390d659-bd5b-46ac-b11f-0f691c92c306","system_id":"levelo_inurba_marseille","lat":43.284269,"lon":5.349865,"is_reserved":false,"is_disabled":false,"rental_uris":{"android":"levelo://app?vid=c390d659-bd5b-46ac-b11f-0f691c92c306","ios":"levelo://app?vid=c390d659-bd5b-46ac-b11f-0f691c92c306"},"vehicle_type_id":"4","last_reported":1767529256,"current_range_meters":6000,"station_id":"ce4bhbh2rcd13ifvqepg","pricing_plan_id":"cebpf4jnsgd1na2vs0mg"},{"bike_id":"404f2b1d-81e8-46fa-93c1-979440fc0e54","system_id":"levelo_inurba_marseille","lat":43.29844,"lon":5.36269,"is_reserved":false,"is_disabled":false,"rental_uris":{"android":"levelo://app?vid=404f2b1d-81e8-46fa-93c1-979440fc0e54","ios":"levelo://app?vid=404f2b1d-81e8-46fa-93c1-979440fc0e54"},"vehicle_type_id":"4","last_reported":1767529256,"current_range_meters":6000,"station_id":"ce4bgpp2rcd13ifvqc3g","pricing_plan_id":"cebpf4jnsgd1na2vs0mg"},{"bike_id":"488bbe71-5d11-4c78-b0d1-df86f5509b1d","system_id":"levelo_inurba_marseille","lat":43.23803,"lon":5.36615,"is_reserved":false,"is_disabled":false,"rental_uris":{"android":"levelo://app?vid=488bbe71-5d11-4c78-b0d1-df86f5509b1d","ios":"levelo://app?vid=488bbe71-5d11-4c78-b0d1-df86f5509b1d"},"vehicle_type_id":"4","last_reported":1767529256,"current_range_meters":6000,"station_id":"st_d3nk18o9ro0c73en2l3g","pricing_plan_id":"cebpf4jnsgd1na2vs0mg"},{"bike_id":"8e3b45c6-7fdf-429f-9c1e-6729d3aac358","system_id":"levelo_inurba_marseille","lat":43.31124,"lon":5.37157,"is_reserved":false,"is_disabled":false,"rental_uris":{"android":"levelo://app?vid=8e3b45c6-7fdf-429f-9c1e-6729d3aac358","ios":"levelo://app?vid=8e3b45c6-7fdf-429f-9c1e-6729d3aac358"},"vehicle_type_id":"4","last_reported":1767529256,"current_range_meters":6000,"station_id":"","pricing_plan_id":"cebpf4jnsgd1na2vs0mg"},{"bike_id":"074722cb-2569-4df8-9492-e46ca66ccdc6","system_id":"levelo_inurba_marseille","lat":43.32231,"lon":5.36716,"is_reserved":false,"is_disabled":false,"rental_uris":{"android":"levelo://app?vid=074722cb-2569-4df8-9492-e46ca66ccdc6","ios":"levelo://app?vid=074722cb-2569-4df8-9492-e46ca66ccdc6"},"vehicle_type_id":"4","last_reported":1767529256,"current_range_meters":6400,"station_id":"","pricing_plan_id":"cebpf4jnsgd1na2vs0mg"},{"bike_id":"7b39d084-e626-40cb-9b01-fd6ec9f3b153","system_id":"levelo_inurba_marseille","lat":43.27421,"lon":5.39417,"is_reserved":false,"is_disabled":false,"rental_uris":{"android":"levelo://app?vid=7b39d084-e626-40cb-9b01-fd6ec9f3b153","ios":"levelo://app?vid=7b39d084-e626-40cb-9b01-fd6ec9f3b153"},"vehicle_type_id":"4","last_reported":1767529256,"current_range_meters":6400,"station_id":"ce4bhdp2rcd13ifvqf20","pricing_plan_id":"cebpf4jnsgd1na2vs0mg"},{"bike_id":"9fb5bf36-01ff-4996-b7e5-e187ad6411a6","system_id":"levelo_inurba_marseille","lat":43.25114,"lon":5.40322,"is_reserved":false,"is_disabled":false,"rental_uris":{"android":"levelo://app?vid=9fb5bf36-01ff-4996-b7e5-e187ad6411a6","ios":"levelo://app?vid=9fb5bf36-01ff-4996-b7e5-e187ad6411a6"},"vehicle_type_id":"4","last_reported":1767529256,"current_range_meters":6400,"station_id":"ce4bhlh2rcd13ifvqgig","pricing_plan_id":"cebpf4jnsgd1na2vs0mg"},{"bike_id":"780fe4f2-2a78-414b-a56d-dd9ca4f3ea66","system_id":"levelo_inurba_marseille","lat":43.295907,"lon":5.381009,"is_reserved":false,"is_disabled":false,"rental_uris":{"android":"levelo://app?vid=780fe4f2-2a78-414b-a56d-dd9ca4f3ea66","ios":"levelo://app?vid=780fe4f2-2a78-414b-a56d-dd9ca4f3ea66"},"vehicle_type_id":"4","last_reported":1767529256,"current_range_meters":6400,"station_id":"ce4bgl12rcd13ifvqbo0","pricing_plan_id":"cebpf4jnsgd1na2vs0mg"},{"bike_id":"144689ed-562b-452d-9135-f3dd621cf950","system_id":"levelo_inurba_marseille","lat":43.28467,"lon":5.35898,"is_reserved":false,"is_disabled":false,"rental_uris":{"android":"levelo://app?vid=144689ed-562b-452d-9135-f3dd621cf950","ios":"levelo://app?vid=144689ed-562b-452d-9135-f3dd621cf950"},"vehicle_type_id":"4","last_reported":1767529256,"current_range_meters":6400,"station_id":"ce4bhah2rcd13ifvqei0","pricing_plan_id":"cebpf4jnsgd1na2vs0mg"},{"bike_id":"ae6f1814-1127-41bd-aee5-135e4e6cf9dc","system_id":"levelo_inurba_marseille","lat":43.310794,"lon":5.383293,"is_reserved":false,"is_disabled":false,"rental_uris":{"android":"levelo://app?vid=ae6f1814-1127-41bd-aee5-135e4e6cf9dc","ios":"levelo://app?vid=ae6f1814-1127-41bd-aee5-135e4e6cf9dc"},"vehicle_type_id":"4","last_reported":1767529256,"current_range_meters":6400,"station_id":"","pricing_plan_id":"cebpf4jnsgd1na2vs0mg"},{"bike_id":"5ed51bc0-851e-44e4-9f66-c5e3e5c8f26a","system_id":"levelo_inurba_marseille","lat":43.2722,"lon":5.39194,"is_reserved":false,"is_disabled":true,"rental_uris":{"android":"levelo://app?vid=5ed51bc0-851e-44e4-9f66-c5e3e5c8f26a","ios":"levelo://app?vid=5ed51bc0-851e-44e4-9f66-c5e3e5c8f26a"},"vehicle_type_id":"4","last_reported":1767529256,"current_range_meters":6400,"station_id":"ce4bhhp2rcd13ifvqfm0","pricing_plan_id":"cebpf4jnsgd1na2vs0mg"},{"bike_id":"091087be-27fe-438d-bb66-a525fac98399","system_id":"levelo_inurba_marseille","lat":43.27383,"lon":5.36257,"is_reserved":false,"is_disabled":false,"rental_uris":{"android":"levelo://app?vid=091087be-27fe-438d-bb66-a525fac98399","ios":"levelo://app?vid=091087be-27fe-438d-bb66-a525fac98399"},"vehicle_type_id":"4","last_reported":1767529256,"current_range_meters":6400,"station_id":"ce4bhbh2rcd13ifvqeo0","pricing_plan_id":"cebpf4jnsgd1na2vs0mg"},{"bike_id":"c3f97c6b-2dc7-4135-9316-e5d0c425f8a0","system_id":"levelo_inurba_marseille","lat":43.26928,"lon":5.38641,"is_reserved":false,"is_disabled":false,"rental_uris":{"android":"levelo://app?vid=c3f97c6b-2dc7-4135-9316-e5d0c425f8a0","ios":"levelo://app?vid=c3f97c6b-2dc7-4135-9316-e5d0c425f8a0"},"vehicle_type_id":"4","last_reported":1767529256,"current_range_meters":6400,"station_id":"ce4bhh92rcd13ifvqfh0","pricing_plan_id":"cebpf4jnsgd1na2vs0mg"},{"bike_id":"0d778f11-da5d-4ae9-b24e-c236524e6c92","system_id":"levelo_inurba_marseille","lat":43.28276,"lon":5.35078,"is_reserved":false,"is_disabled":false,"rental_uris":{"android":"levelo://app?vid=0d778f11-da5d-4ae9-b24e-c236524e6c92","ios":"levelo://app?vid=0d778f11-da5d-4ae9-b24e-c236524e6c92"},"vehicle_type_id":"4","last_reported":1767529256,"current_range_meters":6400,"station_id":"ce4bhbp2rcd13ifvqerg","pricing_plan_id":"cebpf4jnsgd1na2vs0mg"},{"bike_id":"96d87c0e-8e58-4458-9a61-596f9aad61aa","system_id":"levelo_inurba_marseille","lat":43.211962,"lon":5.350808,"is_reserved":false,"is_disabled":false,"rental_uris":{"android":"levelo://app?vid=96d87c0e-8e58-4458-9a61-596f9aad61aa","ios":"levelo://app?vid=96d87c0e-8e58-4458-9a61-596f9aad61aa"},"vehicle_type_id":"4","last_reported":1767529256,"current_range_meters":6400,"station_id":"st_cvj6sg6p6f1abm77japg","pricing_plan_id":"cebpf4jnsgd1na2vs0mg"},{"bike_id":"8daa6ea0-c51c-417e-b7c7-aa57a3739cb8","system_id":"levelo_inurba_marseille","lat":43.29736,"lon":5.38073,"is_reserved":false,"is_disabled":false,"rental_uris":{"android":"levelo://app?vid=8daa6ea0-c51c-417e-b7c7-aa57a3739cb8","ios":"levelo://app?vid=8daa6ea0-c51c-417e-b7c7-aa57a3739cb8"},"vehicle_type_id":"4","last_reported":1767529256,"current_range_meters":6400,"station_id":"","pricing_plan_id":"cebpf4jnsgd1na2vs0mg"},{"bike_id":"d16182f3-e665-458f-b0d2-66b3db8796ce","system_id":"levelo_inurba_marseille","lat":43.26213,"lon":5.37446,"is_reserved":false,"is_disabled":false,"rental_uris":{"android":"levelo://app?vid=d16182f3-e665-458f-b0d2-66b3db8796ce","ios":"levelo://app?vid=d16182f3-e665-458f-b0d2-66b3db8796ce"},"vehicle_type_id":"4","last_reported":1767529256,"current_range_meters":6400,"station_id":"ce4bhgp2rcd13ifvqfc0","pricing_plan_id":"cebpf4jnsgd1na2vs0mg"},{"bike_id":"4f9276e2-ba43-4c1d-afca-9c0080feecdf","system_id":"levelo_inurba_marseille","lat":43.32338,"lon":5.36761,"is_reserved":false,"is_disabled":false,"rental_uris":{"android":"levelo://app?vid=4f9276e2-ba43-4c1d-afca-9c0080feecdf","ios":"levelo://app?vid=4f9276e2-ba43-4c1d-afca-9c0080feecdf"},"vehicle_type_id":"4","last_reported":1767529256,"current_range_meters":6400,"station_id":"ce4bhsh2rcd13ifvqi2g","pricing_plan_id":"cebpf4jnsgd1na2vs0mg"},{"bike_id":"9a67c4b7-b002-47fb-91b0-cf920a32496e","system_id":"levelo_inurba_marseille","lat":43.26563,"lon":5.4032,"is_reserved":false,"is_disabled":false,"rental_uris":{"android":"levelo://app?vid=9a67c4b7-b002-47fb-91b0-cf920a32496e","ios":"levelo://app?vid=9a67c4b7-b002-47fb-91b0-cf920a32496e"},"vehicle_type_id":"4","last_reported":1767529256,"current_range_meters":6400,"station_id":"ce4bhmp2rcd13ifvqgng","pricing_plan_id":"cebpf4jnsgd1na2vs0mg"},{"bike_id":"9146e3a6-be55-46b1-bb09-dd2fbe8c5861","system_id":"levelo_inurba_marseille","lat":43.30543,"lon":5.36713,"is_reserved":false,"is_disabled":false,"rental_uris":{"android":"levelo://app?vid=9146e3a6-be55-46b1-bb09-dd2fbe8c5861","ios":"levelo://app?vid=9146e3a6-be55-46b1-bb09-dd2fbe8c5861"},"vehicle_type_id":"4","last_reported":1767529256,"current_range_meters":6400,"station_id":"ce4bgrp2rcd13ifvqc9g","pricing_plan_id":"cebpf4jnsgd1na2vs0mg"},{"bike_id":"4dc8c32f-96ad-4bbe-8f82-5ce45a16b000","system_id":"levelo_inurba_marseille","lat":43.2618,"lon":5.37456,"is_reserved":false,"is_disabled":false,"rental_uris":{"android":"levelo://app?vid=4dc8c32f-96ad-4bbe-8f82-5ce45a16b000","ios":"levelo://app?vid=4dc8c32f-96ad-4bbe-8f82-5ce45a16b000"},"vehicle_type_id":"4","last_reported":1767529256,"current_range_meters":6400,"station_id":"ce4bhgp2rcd13ifvqfc0","pricing_plan_id":"cebpf4jnsgd1na2vs0mg"},{"bike_id":"a422aee7-b5c0-4b42-99ef-a8418f02ed18","system_id":"levelo_inurba_marseille","lat":43.27255,"lon":5.3917,"is_reserved":false,"is_disabled":false,"rental_uris":{"android":"levelo://app?vid=a422aee7-b5c0-4b42-99ef-a8418f02ed18","ios":"levelo://app?vid=a422aee7-b5c0-4b42-99ef-a8418f02ed18"},"vehicle_type_id":"4","last_reported":1767529256,"current_range_meters":6400,"station_id":"ce4bhhp2rcd13ifvqfm0","pricing_plan_id":"cebpf4jnsgd1na2vs0mg"},{"bike_id":"e6d9500a-84c5-42cc-8272-3c33a326b727","system_id":"levelo_inurba_marseille","lat":43.30736,"lon":5.42445,"is_reserved":false,"is_disabled":false,"rental_uris":{"android":"levelo://app?vid=e6d9500a-84c5-42cc-8272-3c33a326b727","ios":"levelo://app?vid=e6d9500a-84c5-42cc-8272-3c33a326b727"},"vehicle_type_id":"4","last_reported":1767529256,"current_range_meters":6400,"station_id":"st_cvj6ca6bvosntc0bfgr0","pricing_plan_id":"cebpf4jnsgd1na2vs0mg"},{"bike_id":"68704865-2036-440f-b05b-4db0e9f7e5a1","system_id":"levelo_inurba_marseille","lat":43.23196,"lon":5.35554,"is_reserved":false,"is_disabled":false,"rental_uris":{"android":"levelo://app?vid=68704865-2036-440f-b05b-4db0e9f7e5a1","ios":"levelo://app?vid=68704865-2036-440f-b05b-4db0e9f7e5a1"},"vehicle_type_id":"4","last_reported":1767529256,"current_range_meters":6400,"station_id":"ce4bhu92rcd13ifvqi70","pricing_plan_id":"cebpf4jnsgd1na2vs0mg"},{"bike_id":"e8cb542a-c910-418d-8827-3aecad0225e3","system_id":"levelo_inurba_marseille","lat":43.28433,"lon":5.34985,"is_reserved":false,"is_disabled":false,"rental_uris":{"android":"levelo://app?vid=e8cb542a-c910-418d-8827-3aecad0225e3","ios":"levelo://app?vid=e8cb542a-c910-418d-8827-3aecad0225e3"},"vehicle_type_id":"4","last_reported":1767529256,"current_range_meters":6400,"station_id":"ce4bhbh2rcd13ifvqepg","pricing_plan_id":"cebpf4jnsgd1na2vs0mg"},{"bike_id":"dfbf7730-1239-44b2-83d1-75c00941c80b","system_id":"levelo_inurba_marseille","lat":43.25572,"lon":5.38236,"is_reserved":false,"is_disabled":true,"rental_uris":{"android":"levelo://app?vid=dfbf7730-1239-44b2-83d1-75c00941c80b","ios":"levelo://app?vid=dfbf7730-1239-44b2-83d1-75c00941c80b"},"vehicle_type_id":"4","last_reported":1767529256,"current_range_meters":6800,"station_id":"ce4bhih2rcd13ifvqfs0","pricing_plan_id":"cebpf4jnsgd1na2vs0mg"},{"bike_id":"dd3326ea-ad71-4f86-88d6-f79309f37529","system_id":"levelo_inurba_marseille","lat":43.24388,"lon":5.37055,"is_reserved":false,"is_disabled":false,"rental_uris":{"android":"levelo://app?vid=dd3326ea-ad71-4f86-88d6-f79309f37529","ios":"levelo://app?vid=dd3326ea-ad71-4f86-88d6-f79309f37529"},"vehicle_type_id":"4","last_reported":1767529256,"current_range_meters":6800,"station_id":"ce4bhhh2rcd13ifvqfk0","pricing_plan_id":"cebpf4jnsgd1na2vs0mg"},{"bike_id":"b97b9366-c081-4745-90ed-0e833c3a2f7c","system_id":"levelo_inurba_marseille","lat":43.33141,"lon":5.38181,"is_reserved":false,"is_disabled":false,"rental_uris":{"android":"levelo://app?vid=b97b9366-c081-4745-90ed-0e833c3a2f7c","ios":"levelo://app?vid=b97b9366-c081-4745-90ed-0e833c3a2f7c"},"vehicle_type_id":"4","last_reported":1767529256,"current_range_meters":6800,"station_id":"","pricing_plan_id":"cebpf4jnsgd1na2vs0mg"},{"bike_id":"fcd440e6-5539-4d36-8905-9b19c9c5332a","system_id":"levelo_inurba_marseille","lat":43.27078,"lon":5.39139,"is_reserved":false,"is_disabled":false,"rental_uris":{"android":"levelo://app?vid=fcd440e6-5539-4d36-8905-9b19c9c5332a","ios":"levelo://app?vid=fcd440e6-5539-4d36-8905-9b19c9c5332a"},"vehicle_type_id":"4","last_reported":1767529256,"current_range_meters":6800,"station_id":"","pricing_plan_id":"cebpf4jnsgd1na2vs0mg"},{"bike_id":"17e06372-e52b-4bdd-90cd-8338755c84dc","system_id":"levelo_inurba_marseille","lat":43.23153,"lon":5.43729,"is_reserved":false,"is_disabled":false,"rental_uris":{"android":"levelo://app?vid=17e06372-e52b-4bdd-90cd-8338755c84dc","ios":"levelo://app?vid=17e06372-e52b-4bdd-90cd-8338755c84dc"},"vehicle_type_id":"4","last_reported":1767529256,"current_range_meters":6800,"station_id":"ce4bhmp2rcd13ifvqgog","pricing_plan_id":"cebpf4jnsgd1na2vs0mg"},{"bike_id":"e44cab74-f685-400b-b393-d23149de2a52","system_id":"levelo_inurba_marseille","lat":43.241629,"lon":5.363926,"is_reserved":false,"is_disabled":false,"rental_uris":{"android":"levelo://app?vid=e44cab74-f685-400b-b393-d23149de2a52","ios":"levelo://app?vid=e44cab74-f685-400b-b393-d23149de2a52"},"vehicle_type_id":"4","last_reported":1767529256,"current_range_meters":6800,"station_id":"cpo36qri1sfpv3e86is0","pricing_plan_id":"cebpf4jnsgd1na2vs0mg"},{"bike_id":"57b725a6-cdde-4849-96a9-7686225f0651","system_id":"levelo_inurba_marseille","lat":43.2848,"lon":5.38407,"is_reserved":false,"is_disabled":false,"rental_uris":{"android":"levelo://app?vid=57b725a6-cdde-4849-96a9-7686225f0651","ios":"levelo://app?vid=57b725a6-cdde-4849-96a9-7686225f0651"},"vehicle_type_id":"4","last_reported":1767529256,"current_range_meters":6800,"station_id":"ce4bh512rcd13ifvqe3g","pricing_plan_id":"cebpf4jnsgd1na2vs0mg"},{"bike_id":"b98c4bb3-e84f-4703-8006-455cb12ed450","system_id":"levelo_inurba_marseille","lat":43.28831,"lon":5.42629,"is_reserved":false,"is_disabled":false,"rental_uris":{"android":"levelo://app?vid=b98c4bb3-e84f-4703-8006-455cb12ed450","ios":"levelo://app?vid=b98c4bb3-e84f-4703-8006-455cb12ed450"},"vehicle_type_id":"4","last_reported":1767529256,"current_range_meters":6800,"station_id":"","pricing_plan_id":"cebpf4jnsgd1na2vs0mg"},{"bike_id":"7f82846f-a9c2-426e-b04f-d573601c2c1e","system_id":"levelo_inurba_marseille","lat":43.246221,"lon":5.431649,"is_reserved":false,"is_disabled":false,"rental_uris":{"android":"levelo://app?vid=7f82846f-a9c2-426e-b04f-d573601c2c1e","ios":"levelo://app?vid=7f82846f-a9c2-426e-b04f-d573601c2c1e"},"vehicle_type_id":"4","last_reported":1767529256,"current_range_meters":6800,"station_id":"st_d2m6c4gdas8pm72e190g","pricing_plan_id":"cebpf4jnsgd1na2vs0mg"},{"bike_id":"d45aeb0d-c263-4fe7-9995-d8a14bcf5a09","system_id":"levelo_inurba_marseille","lat":43.30303,"lon":5.39206,"is_reserved":false,"is_disabled":false,"rental_uris":{"android":"levelo://app?vid=d45aeb0d-c263-4fe7-9995-d8a14bcf5a09","ios":"levelo://app?vid=d45aeb0d-c263-4fe7-9995-d8a14bcf5a09"},"vehicle_type_id":"4","last_reported":1767529256,"current_range_meters":6800,"station_id":"ce4bgkh2rcd13ifvqbk0","pricing_plan_id":"cebpf4jnsgd1na2vs0mg"},{"bike_id":"e5b67b5a-c8d0-472e-9a13-90564c90a0fc","system_id":"levelo_inurba_marseille","lat":43.28264,"lon":5.3506,"is_reserved":false,"is_disabled":false,"rental_uris":{"android":"levelo://app?vid=e5b67b5a-c8d0-472e-9a13-90564c90a0fc","ios":"levelo://app?vid=e5b67b5a-c8d0-472e-9a13-90564c90a0fc"},"vehicle_type_id":"4","last_reported":1767529256,"current_range_meters":6800,"station_id":"ce4bhbp2rcd13ifvqerg","pricing_plan_id":"cebpf4jnsgd1na2vs0mg"},{"bike_id":"69161e8f-51d3-4034-b7dc-9a0c99d58e5d","system_id":"levelo_inurba_marseille","lat":43.29717,"lon":5.37804,"is_reserved":false,"is_disabled":false,"rental_uris":{"android":"levelo://app?vid=69161e8f-51d3-4034-b7dc-9a0c99d58e5d","ios":"levelo://app?vid=69161e8f-51d3-4034-b7dc-9a0c99d58e5d"},"vehicle_type_id":"4","last_reported":1767529256,"current_range_meters":6800,"station_id":"","pricing_plan_id":"cebpf4jnsgd1na2vs0mg"},{"bike_id":"0dc92e3e-3c5f-49a4-8bc0-0e42b6481b83","system_id":"levelo_inurba_marseille","lat":43.23776,"lon":5.36656,"is_reserved":false,"is_disabled":false,"rental_uris":{"android":"levelo://app?vid=0dc92e3e-3c5f-49a4-8bc0-0e42b6481b83","ios":"levelo://app?vid=0dc92e3e-3c5f-49a4-8bc0-0e42b6481b83"},"vehicle_type_id":"4","last_reported":1767529256,"current_range_meters":7200,"station_id":"st_d3nk18o9ro0c73en2l3g","pricing_plan_id":"cebpf4jnsgd1na2vs0mg"},{"bike_id":"d4e62b51-cbbc-4684-91ae-3203f81121b2","system_id":"levelo_inurba_marseille","lat":43.28523,"lon":5.38567,"is_reserved":false,"is_disabled":false,"rental_uris":{"android":"levelo://app?vid=d4e62b51-cbbc-4684-91ae-3203f81121b2","ios":"levelo://app?vid=d4e62b51-cbbc-4684-91ae-3203f81121b2"},"vehicle_type_id":"4","last_reported":1767529256,"current_range_meters":7200,"station_id":"ce4bh8p2rcd13ifvqeb0","pricing_plan_id":"cebpf4jnsgd1na2vs0mg"},{"bike_id":"85246bf5-791b-4c2f-925f-a931bac4026e","system_id":"levelo_inurba_marseille","lat":43.30139,"lon":5.43119,"is_reserved":false,"is_disabled":false,"rental_uris":{"android":"levelo://app?vid=85246bf5-791b-4c2f-925f-a931bac4026e","ios":"levelo://app?vid=85246bf5-791b-4c2f-925f-a931bac4026e"},"vehicle_type_id":"4","last_reported":1767529256,"current_range_meters":7200,"station_id":"st_d3js3co5814s73ftftug","pricing_plan_id":"cebpf4jnsgd1na2vs0mg"},{"bike_id":"99b4eb98-b7eb-4379-a6b2-33d1211601ee","system_id":"levelo_inurba_marseille","lat":43.300436,"lon":5.385678,"is_reserved":false,"is_disabled":false,"rental_uris":{"android":"levelo://app?vid=99b4eb98-b7eb-4379-a6b2-33d1211601ee","ios":"levelo://app?vid=99b4eb98-b7eb-4379-a6b2-33d1211601ee"},"vehicle_type_id":"4","last_reported":1767529256,"current_range_meters":7200,"station_id":"","pricing_plan_id":"cebpf4jnsgd1na2vs0mg"},{"bike_id":"069e0897-8da2-45e6-aee3-9dedd86fd186","system_id":"levelo_inurba_marseille","lat":43.261951,"lon":5.374492,"is_reserved":false,"is_disabled":false,"rental_uris":{"android":"levelo://app?vid=069e0897-8da2-45e6-aee3-9dedd86fd186","ios":"levelo://app?vid=069e0897-8da2-45e6-aee3-9dedd86fd186"},"vehicle_type_id":"4","last_reported":1767529256,"current_range_meters":7200,"station_id":"ce4bhgp2rcd13ifvqfc0","pricing_plan_id":"cebpf4jnsgd1na2vs0mg"},{"bike_id":"ec47e74c-4c77-4ced-84eb-ad537c50b956","system_id":"levelo_inurba_marseille","lat":43.21706,"lon":5.346,"is_reserved":false,"is_disabled":true,"rental_uris":{"android":"levelo://app?vid=ec47e74c-4c77-4ced-84eb-ad537c50b956","ios":"levelo://app?vid=ec47e74c-4c77-4ced-84eb-ad537c50b956"},"vehicle_type_id":"4","last_reported":1767529256,"current_range_meters":7200,"station_id":"st_cvj6r9ubvosntc0bgbag","pricing_plan_id":"cebpf4jnsgd1na2vs0mg"},{"bike_id":"236dd84d-8375-4d9b-8e7d-9db60d676bfe","system_id":"levelo_inurba_marseille","lat":43.24663,"lon":5.38162,"is_reserved":false,"is_disabled":false,"rental_uris":{"android":"levelo://app?vid=236dd84d-8375-4d9b-8e7d-9db60d676bfe","ios":"levelo://app?vid=236dd84d-8375-4d9b-8e7d-9db60d676bfe"},"vehicle_type_id":"4","last_reported":1767529256,"current_range_meters":7200,"station_id":"ce4bhih2rcd13ifvqfr0","pricing_plan_id":"cebpf4jnsgd1na2vs0mg"},{"bike_id":"a414d67b-9afa-4a87-9fac-f67cdff12698","system_id":"levelo_inurba_marseille","lat":43.29404,"lon":5.37977,"is_reserved":false,"is_disabled":false,"rental_uris":{"android":"levelo://app?vid=a414d67b-9afa-4a87-9fac-f67cdff12698","ios":"levelo://app?vid=a414d67b-9afa-4a87-9fac-f67cdff12698"},"vehicle_type_id":"4","last_reported":1767529256,"current_range_meters":7200,"station_id":"","pricing_plan_id":"cebpf4jnsgd1na2vs0mg"},{"bike_id":"35d860d4-6ea7-4d26-b614-c09aa12978bc","system_id":"levelo_inurba_marseille","lat":43.28752,"lon":5.35825,"is_reserved":false,"is_disabled":false,"rental_uris":{"android":"levelo://app?vid=35d860d4-6ea7-4d26-b614-c09aa12978bc","ios":"levelo://app?vid=35d860d4-6ea7-4d26-b614-c09aa12978bc"},"vehicle_type_id":"4","last_reported":1767529256,"current_range_meters":7200,"station_id":"ce4bhb12rcd13ifvqem0","pricing_plan_id":"cebpf4jnsgd1na2vs0mg"},{"bike_id":"f257b2d0-1f16-4656-837f-b9ab9f001b03","system_id":"levelo_inurba_marseille","lat":43.22568,"lon":5.41625,"is_reserved":false,"is_disabled":false,"rental_uris":{"android":"levelo://app?vid=f257b2d0-1f16-4656-837f-b9ab9f001b03","ios":"levelo://app?vid=f257b2d0-1f16-4656-837f-b9ab9f001b03"},"vehicle_type_id":"4","last_reported":1767529256,"current_range_meters":7200,"station_id":"st_d2o4gvlbi1j2169b742g","pricing_plan_id":"cebpf4jnsgd1na2vs0mg"},{"bike_id":"73428eec-4c36-4c5f-9923-72dd40a75189","system_id":"levelo_inurba_marseille","lat":43.28172,"lon":5.42638,"is_reserved":false,"is_disabled":false,"rental_uris":{"android":"levelo://app?vid=73428eec-4c36-4c5f-9923-72dd40a75189","ios":"levelo://app?vid=73428eec-4c36-4c5f-9923-72dd40a75189"},"vehicle_type_id":"4","last_reported":1767529256,"current_range_meters":7200,"station_id":"ce4bhnh2rcd13ifvqgug","pricing_plan_id":"cebpf4jnsgd1na2vs0mg"},{"bike_id":"620cf3b0-e3f5-40c8-97cc-531cf5c3a491","system_id":"levelo_inurba_marseille","lat":43.27224,"lon":5.42077,"is_reserved":false,"is_disabled":false,"rental_uris":{"android":"levelo://app?vid=620cf3b0-e3f5-40c8-97cc-531cf5c3a491","ios":"levelo://app?vid=620cf3b0-e3f5-40c8-97cc-531cf5c3a491"},"vehicle_type_id":"4","last_reported":1767529256,"current_range_meters":7200,"station_id":"","pricing_plan_id":"cebpf4jnsgd1na2vs0mg"},{"bike_id":"4e839bab-c0a4-4f9b-8de3-cb292b501eb1","system_id":"levelo_inurba_marseille","lat":43.225341,"lon":5.348293,"is_reserved":false,"is_disabled":false,"rental_uris":{"android":"levelo://app?vid=4e839bab-c0a4-4f9b-8de3-cb292b501eb1","ios":"levelo://app?vid=4e839bab-c0a4-4f9b-8de3-cb292b501eb1"},"vehicle_type_id":"4","last_reported":1767529256,"current_range_meters":7200,"station_id":"","pricing_plan_id":"cebpf4jnsgd1na2vs0mg"},{"bike_id":"6949268b-cccd-4b19-bb8b-31a4e9adb4b7","system_id":"levelo_inurba_marseille","lat":43.25892,"lon":5.39894,"is_reserved":false,"is_disabled":false,"rental_uris":{"android":"levelo://app?vid=6949268b-cccd-4b19-bb8b-31a4e9adb4b7","ios":"levelo://app?vid=6949268b-cccd-4b19-bb8b-31a4e9adb4b7"},"vehicle_type_id":"4","last_reported":1767529256,"current_range_meters":7200,"station_id":"ce4bhl92rcd13ifvqghg","pricing_plan_id":"cebpf4jnsgd1na2vs0mg"},{"bike_id":"314f1e79-75d2-4520-879c-5c75bd15a245","system_id":"levelo_inurba_marseille","lat":43.276606,"lon":5.418939,"is_reserved":false,"is_disabled":false,"rental_uris":{"android":"levelo://app?vid=314f1e79-75d2-4520-879c-5c75bd15a245","ios":"levelo://app?vid=314f1e79-75d2-4520-879c-5c75bd15a245"},"vehicle_type_id":"4","last_reported":1767529256,"current_range_meters":7200,"station_id":"","pricing_plan_id":"cebpf4jnsgd1na2vs0mg"},{"bike_id":"6143984b-0a96-4b29-b519-3f892095162a","system_id":"levelo_inurba_marseille","lat":43.27305,"lon":5.39048,"is_reserved":false,"is_disabled":false,"rental_uris":{"android":"levelo://app?vid=6143984b-0a96-4b29-b519-3f892095162a","ios":"levelo://app?vid=6143984b-0a96-4b29-b519-3f892095162a"},"vehicle_type_id":"4","last_reported":1767529256,"current_range_meters":7200,"station_id":"ce4bhgp2rcd13ifvqfe0","pricing_plan_id":"cebpf4jnsgd1na2vs0mg"},{"bike_id":"430519a3-d72e-4fda-925c-d5b2f7504f0e","system_id":"levelo_inurba_marseille","lat":43.25819,"lon":5.39429,"is_reserved":false,"is_disabled":false,"rental_uris":{"android":"levelo://app?vid=430519a3-d72e-4fda-925c-d5b2f7504f0e","ios":"levelo://app?vid=430519a3-d72e-4fda-925c-d5b2f7504f0e"},"vehicle_type_id":"4","last_reported":1767529256,"current_range_meters":7200,"station_id":"ce4bhip2rcd13ifvqft0","pricing_plan_id":"cebpf4jnsgd1na2vs0mg"},{"bike_id":"840f276e-700f-48ec-8b26-b60379b1fa8a","system_id":"levelo_inurba_marseille","lat":43.27067,"lon":5.42274,"is_reserved":false,"is_disabled":false,"rental_uris":{"android":"levelo://app?vid=840f276e-700f-48ec-8b26-b60379b1fa8a","ios":"levelo://app?vid=840f276e-700f-48ec-8b26-b60379b1fa8a"},"vehicle_type_id":"4","last_reported":1767529256,"current_range_meters":7200,"station_id":"ce4bhk92rcd13ifvqgb0","pricing_plan_id":"cebpf4jnsgd1na2vs0mg"},{"bike_id":"509838b5-8955-4ebf-8f4c-39b335a26f2a","system_id":"levelo_inurba_marseille","lat":43.28266,"lon":5.3506,"is_reserved":false,"is_disabled":false,"rental_uris":{"android":"levelo://app?vid=509838b5-8955-4ebf-8f4c-39b335a26f2a","ios":"levelo://app?vid=509838b5-8955-4ebf-8f4c-39b335a26f2a"},"vehicle_type_id":"4","last_reported":1767529256,"current_range_meters":7200,"station_id":"ce4bhbp2rcd13ifvqerg","pricing_plan_id":"cebpf4jnsgd1na2vs0mg"},{"bike_id":"dd1e0418-c61b-4102-a323-55dfd0941e3d","system_id":"levelo_inurba_marseille","lat":43.23189,"lon":5.35552,"is_reserved":false,"is_disabled":false,"rental_uris":{"android":"levelo://app?vid=dd1e0418-c61b-4102-a323-55dfd0941e3d","ios":"levelo://app?vid=dd1e0418-c61b-4102-a323-55dfd0941e3d"},"vehicle_type_id":"4","last_reported":1767529256,"current_range_meters":7200,"station_id":"ce4bhu92rcd13ifvqi70","pricing_plan_id":"cebpf4jnsgd1na2vs0mg"},{"bike_id":"9266c9ee-84f2-41f3-ba5f-42f44b708c8b","system_id":"levelo_inurba_marseille","lat":43.246297,"lon":5.431567,"is_reserved":false,"is_disabled":false,"rental_uris":{"android":"levelo://app?vid=9266c9ee-84f2-41f3-ba5f-42f44b708c8b","ios":"levelo://app?vid=9266c9ee-84f2-41f3-ba5f-42f44b708c8b"},"vehicle_type_id":"4","last_reported":1767529256,"current_range_meters":7200,"station_id":"st_d2m6c4gdas8pm72e190g","pricing_plan_id":"cebpf4jnsgd1na2vs0mg"},{"bike_id":"8b09ef17-467c-4a61-8aa1-3d3e9ae5c78d","system_id":"levelo_inurba_marseille","lat":43.279475,"lon":5.410461,"is_reserved":false,"is_disabled":false,"rental_uris":{"android":"levelo://app?vid=8b09ef17-467c-4a61-8aa1-3d3e9ae5c78d","ios":"levelo://app?vid=8b09ef17-467c-4a61-8aa1-3d3e9ae5c78d"},"vehicle_type_id":"4","last_reported":1767529256,"current_range_meters":8000,"station_id":"ce4bhnp2rcd13ifvqh0g","pricing_plan_id":"cebpf4jnsgd1na2vs0mg"},{"bike_id":"0e471836-29c5-4d70-93bc-4b375d486538","system_id":"levelo_inurba_marseille","lat":43.294478,"lon":5.397189,"is_reserved":false,"is_disabled":false,"rental_uris":{"android":"levelo://app?vid=0e471836-29c5-4d70-93bc-4b375d486538","ios":"levelo://app?vid=0e471836-29c5-4d70-93bc-4b375d486538"},"vehicle_type_id":"4","last_reported":1767529256,"current_range_meters":8000,"station_id":"ce4bh3h2rcd13ifvqdo0","pricing_plan_id":"cebpf4jnsgd1na2vs0mg"},{"bike_id":"f631b3ee-7210-4467-997c-2fcb8a8b1933","system_id":"levelo_inurba_marseille","lat":43.266815,"lon":5.382618,"is_reserved":false,"is_disabled":false,"rental_uris":{"android":"levelo://app?vid=f631b3ee-7210-4467-997c-2fcb8a8b1933","ios":"levelo://app?vid=f631b3ee-7210-4467-997c-2fcb8a8b1933"},"vehicle_type_id":"4","last_reported":1767529256,"current_range_meters":8000,"station_id":"ce4bhg92rcd13ifvqf90","pricing_plan_id":"cebpf4jnsgd1na2vs0mg"},{"bike_id":"7f889366-09db-4740-a1c0-e9409a42cbcc","system_id":"levelo_inurba_marseille","lat":43.312095,"lon":5.368583,"is_reserved":false,"is_disabled":false,"rental_uris":{"android":"levelo://app?vid=7f889366-09db-4740-a1c0-e9409a42cbcc","ios":"levelo://app?vid=7f889366-09db-4740-a1c0-e9409a42cbcc"},"vehicle_type_id":"4","last_reported":1767529256,"current_range_meters":8000,"station_id":"ce4bgl92rcd13ifvqbq0","pricing_plan_id":"cebpf4jnsgd1na2vs0mg"},{"bike_id":"e44fdb7f-8720-46ac-981c-054c6ce20310","system_id":"levelo_inurba_marseille","lat":43.28479,"lon":5.48403,"is_reserved":false,"is_disabled":false,"rental_uris":{"android":"levelo://app?vid=e44fdb7f-8720-46ac-981c-054c6ce20310","ios":"levelo://app?vid=e44fdb7f-8720-46ac-981c-054c6ce20310"},"vehicle_type_id":"4","last_reported":1767529256,"current_range_meters":8000,"station_id":"st_d3svhcjqgbts73a3dn0g","pricing_plan_id":"cebpf4jnsgd1na2vs0mg"},{"bike_id":"10275e8b-e387-4c5b-870e-c1fdbcdd807e","system_id":"levelo_inurba_marseille","lat":43.24651,"lon":5.38907,"is_reserved":false,"is_disabled":false,"rental_uris":{"android":"levelo://app?vid=10275e8b-e387-4c5b-870e-c1fdbcdd807e","ios":"levelo://app?vid=10275e8b-e387-4c5b-870e-c1fdbcdd807e"},"vehicle_type_id":"4","last_reported":1767529256,"current_range_meters":8000,"station_id":"ce4bhg12rcd13ifvqf60","pricing_plan_id":"cebpf4jnsgd1na2vs0mg"},{"bike_id":"6bce7afb-6d0a-45a4-9ecc-ef0094708e7c","system_id":"levelo_inurba_marseille","lat":43.25113,"lon":5.40326,"is_reserved":false,"is_disabled":false,"rental_uris":{"android":"levelo://app?vid=6bce7afb-6d0a-45a4-9ecc-ef0094708e7c","ios":"levelo://app?vid=6bce7afb-6d0a-45a4-9ecc-ef0094708e7c"},"vehicle_type_id":"4","last_reported":1767529256,"current_range_meters":8000,"station_id":"ce4bhlh2rcd13ifvqgig","pricing_plan_id":"cebpf4jnsgd1na2vs0mg"},{"bike_id":"dfdca8ae-7890-4f8d-864a-114bbb8dc8c5","system_id":"levelo_inurba_marseille","lat":43.2592,"lon":5.40902,"is_reserved":false,"is_disabled":false,"rental_uris":{"android":"levelo://app?vid=dfdca8ae-7890-4f8d-864a-114bbb8dc8c5","ios":"levelo://app?vid=dfdca8ae-7890-4f8d-864a-114bbb8dc8c5"},"vehicle_type_id":"4","last_reported":1767529256,"current_range_meters":8000,"station_id":"ce4bhm92rcd13ifvqglg","pricing_plan_id":"cebpf4jnsgd1na2vs0mg"},{"bike_id":"5abeab1b-faee-4efd-b658-f0a83fb10313","system_id":"levelo_inurba_marseille","lat":43.26191,"lon":5.37463,"is_reserved":false,"is_disabled":false,"rental_uris":{"android":"levelo://app?vid=5abeab1b-faee-4efd-b658-f0a83fb10313","ios":"levelo://app?vid=5abeab1b-faee-4efd-b658-f0a83fb10313"},"vehicle_type_id":"4","last_reported":1767529256,"current_range_meters":8000,"station_id":"ce4bhgp2rcd13ifvqfc0","pricing_plan_id":"cebpf4jnsgd1na2vs0mg"},{"bike_id":"46c2d8b2-0f06-4ab4-9ea1-a6a2f77053d0","system_id":"levelo_inurba_marseille","lat":43.33741,"lon":5.37454,"is_reserved":false,"is_disabled":false,"rental_uris":{"android":"levelo://app?vid=46c2d8b2-0f06-4ab4-9ea1-a6a2f77053d0","ios":"levelo://app?vid=46c2d8b2-0f06-4ab4-9ea1-a6a2f77053d0"},"vehicle_type_id":"4","last_reported":1767529256,"current_range_meters":8000,"station_id":"","pricing_plan_id":"cebpf4jnsgd1na2vs0mg"},{"bike_id":"195e2e14-0016-420f-a925-0b6877e427aa","system_id":"levelo_inurba_marseille","lat":43.22929,"lon":5.35388,"is_reserved":false,"is_disabled":false,"rental_uris":{"android":"levelo://app?vid=195e2e14-0016-420f-a925-0b6877e427aa","ios":"levelo://app?vid=195e2e14-0016-420f-a925-0b6877e427aa"},"vehicle_type_id":"4","last_reported":1767529256,"current_range_meters":8000,"station_id":"cpo3532slgdg3j2ikp40","pricing_plan_id":"cebpf4jnsgd1na2vs0mg"},{"bike_id":"57e9667e-102a-45d8-a172-14fcbc607ea0","system_id":"levelo_inurba_marseille","lat":43.29811,"lon":5.38129,"is_reserved":false,"is_disabled":false,"rental_uris":{"android":"levelo://app?vid=57e9667e-102a-45d8-a172-14fcbc607ea0","ios":"levelo://app?vid=57e9667e-102a-45d8-a172-14fcbc607ea0"},"vehicle_type_id":"4","last_reported":1767529256,"current_range_meters":8000,"station_id":"ce4bgip2rcd13ifvqbb0","pricing_plan_id":"cebpf4jnsgd1na2vs0mg"},{"bike_id":"fbdd49c1-7e16-4b0d-9464-4f1899b2871a","system_id":"levelo_inurba_marseille","lat":43.27922,"lon":5.39584,"is_reserved":false,"is_disabled":false,"rental_uris":{"android":"levelo://app?vid=fbdd49c1-7e16-4b0d-9464-4f1899b2871a","ios":"levelo://app?vid=fbdd49c1-7e16-4b0d-9464-4f1899b2871a"},"vehicle_type_id":"4","last_reported":1767529256,"current_range_meters":8000,"station_id":"ce4bhf92rcd13ifvqf40","pricing_plan_id":"cebpf4jnsgd1na2vs0mg"},{"bike_id":"56d16591-aad9-4658-8af0-33e365bc72af","system_id":"levelo_inurba_marseille","lat":43.30152,"lon":5.38089,"is_reserved":false,"is_disabled":false,"rental_uris":{"android":"levelo://app?vid=56d16591-aad9-4658-8af0-33e365bc72af","ios":"levelo://app?vid=56d16591-aad9-4658-8af0-33e365bc72af"},"vehicle_type_id":"4","last_reported":1767529256,"current_range_meters":8000,"station_id":"ce4bgjp2rcd13ifvqbh0","pricing_plan_id":"cebpf4jnsgd1na2vs0mg"},{"bike_id":"524c1ed8-572d-4bd4-ab56-ccc941c96a3e","system_id":"levelo_inurba_marseille","lat":43.28626,"lon":5.3511,"is_reserved":false,"is_disabled":false,"rental_uris":{"android":"levelo://app?vid=524c1ed8-572d-4bd4-ab56-ccc941c96a3e","ios":"levelo://app?vid=524c1ed8-572d-4bd4-ab56-ccc941c96a3e"},"vehicle_type_id":"4","last_reported":1767529256,"current_range_meters":8000,"station_id":"ce4bhch2rcd13ifvqeug","pricing_plan_id":"cebpf4jnsgd1na2vs0mg"},{"bike_id":"492fb627-7bc1-4cff-8097-e01a29adb15a","system_id":"levelo_inurba_marseille","lat":43.27323,"lon":5.39096,"is_reserved":false,"is_disabled":false,"rental_uris":{"android":"levelo://app?vid=492fb627-7bc1-4cff-8097-e01a29adb15a","ios":"levelo://app?vid=492fb627-7bc1-4cff-8097-e01a29adb15a"},"vehicle_type_id":"4","last_reported":1767529256,"current_range_meters":8400,"station_id":"ce4bhgp2rcd13ifvqfe0","pricing_plan_id":"cebpf4jnsgd1na2vs0mg"},{"bike_id":"1d00a4cb-00d9-4b5d-9884-747e6dfb334b","system_id":"levelo_inurba_marseille","lat":43.24675,"lon":5.38156,"is_reserved":false,"is_disabled":false,"rental_uris":{"android":"levelo://app?vid=1d00a4cb-00d9-4b5d-9884-747e6dfb334b","ios":"levelo://app?vid=1d00a4cb-00d9-4b5d-9884-747e6dfb334b"},"vehicle_type_id":"4","last_reported":1767529256,"current_range_meters":8400,"station_id":"ce4bhih2rcd13ifvqfr0","pricing_plan_id":"cebpf4jnsgd1na2vs0mg"},{"bike_id":"067249c4-fb35-421e-9a6c-c895241c197a","system_id":"levelo_inurba_marseille","lat":43.29487,"lon":5.39293,"is_reserved":false,"is_disabled":false,"rental_uris":{"android":"levelo://app?vid=067249c4-fb35-421e-9a6c-c895241c197a","ios":"levelo://app?vid=067249c4-fb35-421e-9a6c-c895241c197a"},"vehicle_type_id":"4","last_reported":1767529256,"current_range_meters":8400,"station_id":"","pricing_plan_id":"cebpf4jnsgd1na2vs0mg"},{"bike_id":"eec8fb5f-22f0-4df6-8592-ac99c04e663a","system_id":"levelo_inurba_marseille","lat":43.24473,"lon":5.42559,"is_reserved":false,"is_disabled":false,"rental_uris":{"android":"levelo://app?vid=eec8fb5f-22f0-4df6-8592-ac99c04e663a","ios":"levelo://app?vid=eec8fb5f-22f0-4df6-8592-ac99c04e663a"},"vehicle_type_id":"4","last_reported":1767529256,"current_range_meters":8400,"station_id":"st_d4a3vfp97mjs738cd8kg","pricing_plan_id":"cebpf4jnsgd1na2vs0mg"},{"bike_id":"088ffd9e-e621-46be-9471-ab036728f8c5","system_id":"levelo_inurba_marseille","lat":43.310558,"lon":5.371794,"is_reserved":false,"is_disabled":true,"rental_uris":{"android":"levelo://app?vid=088ffd9e-e621-46be-9471-ab036728f8c5","ios":"levelo://app?vid=088ffd9e-e621-46be-9471-ab036728f8c5"},"vehicle_type_id":"4","last_reported":1767529256,"current_range_meters":8400,"station_id":"st_d4kl2rp97mjs73e7tdfg","pricing_plan_id":"cebpf4jnsgd1na2vs0mg"},{"bike_id":"ea433994-4165-420a-9223-37582f30485d","system_id":"levelo_inurba_marseille","lat":43.30597,"lon":5.37587,"is_reserved":false,"is_disabled":false,"rental_uris":{"android":"levelo://app?vid=ea433994-4165-420a-9223-37582f30485d","ios":"levelo://app?vid=ea433994-4165-420a-9223-37582f30485d"},"vehicle_type_id":"4","last_reported":1767529256,"current_range_meters":8400,"station_id":"","pricing_plan_id":"cebpf4jnsgd1na2vs0mg"},{"bike_id":"7f505e4c-fcc4-4b29-9d3f-538f9728a5b0","system_id":"levelo_inurba_marseille","lat":43.255026,"lon":5.37667,"is_reserved":false,"is_disabled":false,"rental_uris":{"android":"levelo://app?vid=7f505e4c-fcc4-4b29-9d3f-538f9728a5b0","ios":"levelo://app?vid=7f505e4c-fcc4-4b29-9d3f-538f9728a5b0"},"vehicle_type_id":"4","last_reported":1767529256,"current_range_meters":8400,"station_id":"ce4bhh12rcd13ifvqff0","pricing_plan_id":"cebpf4jnsgd1na2vs0mg"},{"bike_id":"49eaeb99-01db-4a25-87fd-cb6c87f1647c","system_id":"levelo_inurba_marseille","lat":43.30131,"lon":5.4314,"is_reserved":false,"is_disabled":false,"rental_uris":{"android":"levelo://app?vid=49eaeb99-01db-4a25-87fd-cb6c87f1647c","ios":"levelo://app?vid=49eaeb99-01db-4a25-87fd-cb6c87f1647c"},"vehicle_type_id":"4","last_reported":1767529256,"current_range_meters":8400,"station_id":"st_d3js3co5814s73ftftug","pricing_plan_id":"cebpf4jnsgd1na2vs0mg"},{"bike_id":"9d21dcb0-ce26-48db-a303-317550439f40","system_id":"levelo_inurba_marseille","lat":43.28486,"lon":5.48393,"is_reserved":false,"is_disabled":false,"rental_uris":{"android":"levelo://app?vid=9d21dcb0-ce26-48db-a303-317550439f40","ios":"levelo://app?vid=9d21dcb0-ce26-48db-a303-317550439f40"},"vehicle_type_id":"4","last_reported":1767529256,"current_range_meters":8400,"station_id":"st_d3svhcjqgbts73a3dn0g","pricing_plan_id":"cebpf4jnsgd1na2vs0mg"},{"bike_id":"ab212917-0222-46c3-89cf-022c04360208","system_id":"levelo_inurba_marseille","lat":43.29769,"lon":5.42779,"is_reserved":false,"is_disabled":false,"rental_uris":{"android":"levelo://app?vid=ab212917-0222-46c3-89cf-022c04360208","ios":"levelo://app?vid=ab212917-0222-46c3-89cf-022c04360208"},"vehicle_type_id":"4","last_reported":1767529256,"current_range_meters":8400,"station_id":"st_d3md5207bmas73dh9klg","pricing_plan_id":"cebpf4jnsgd1na2vs0mg"},{"bike_id":"f37c8ab2-4055-4d0c-bc22-679bade32c8c","system_id":"levelo_inurba_marseille","lat":43.30684,"lon":5.37204,"is_reserved":false,"is_disabled":false,"rental_uris":{"android":"levelo://app?vid=f37c8ab2-4055-4d0c-bc22-679bade32c8c","ios":"levelo://app?vid=f37c8ab2-4055-4d0c-bc22-679bade32c8c"},"vehicle_type_id":"4","last_reported":1767529256,"current_range_meters":8400,"station_id":"","pricing_plan_id":"cebpf4jnsgd1na2vs0mg"},{"bike_id":"843779bb-2ddd-48dd-b0dd-c9d3144b61ea","system_id":"levelo_inurba_marseille","lat":43.29612,"lon":5.37728,"is_reserved":false,"is_disabled":false,"rental_uris":{"android":"levelo://app?vid=843779bb-2ddd-48dd-b0dd-c9d3144b61ea","ios":"levelo://app?vid=843779bb-2ddd-48dd-b0dd-c9d3144b61ea"},"vehicle_type_id":"4","last_reported":1767529256,"current_range_meters":8400,"station_id":"ce4bgi92rcd13ifvqb90","pricing_plan_id":"cebpf4jnsgd1na2vs0mg"},{"bike_id":"e24191aa-b788-494e-9e33-0dafbf718b91","system_id":"levelo_inurba_marseille","lat":43.24181,"lon":5.39733,"is_reserved":false,"is_disabled":false,"rental_uris":{"android":"levelo://app?vid=e24191aa-b788-494e-9e33-0dafbf718b91","ios":"levelo://app?vid=e24191aa-b788-494e-9e33-0dafbf718b91"},"vehicle_type_id":"4","last_reported":1767529256,"current_range_meters":8400,"station_id":"ce4bhn12rcd13ifvqgpg","pricing_plan_id":"cebpf4jnsgd1na2vs0mg"},{"bike_id":"2be57466-a646-4f79-84c2-74019bc2d375","system_id":"levelo_inurba_marseille","lat":43.2794,"lon":5.41047,"is_reserved":false,"is_disabled":false,"rental_uris":{"android":"levelo://app?vid=2be57466-a646-4f79-84c2-74019bc2d375","ios":"levelo://app?vid=2be57466-a646-4f79-84c2-74019bc2d375"},"vehicle_type_id":"4","last_reported":1767529256,"current_range_meters":8800,"station_id":"ce4bhnp2rcd13ifvqh0g","pricing_plan_id":"cebpf4jnsgd1na2vs0mg"},{"bike_id":"704d55d2-80bc-4f15-89c1-0da3b8afad7d","system_id":"levelo_inurba_marseille","lat":43.26561,"lon":5.38999,"is_reserved":false,"is_disabled":false,"rental_uris":{"android":"levelo://app?vid=704d55d2-80bc-4f15-89c1-0da3b8afad7d","ios":"levelo://app?vid=704d55d2-80bc-4f15-89c1-0da3b8afad7d"},"vehicle_type_id":"4","last_reported":1767529256,"current_range_meters":8800,"station_id":"ce4bhe12rcd13ifvqf30","pricing_plan_id":"cebpf4jnsgd1na2vs0mg"},{"bike_id":"07775d3c-4777-4dc5-9ba6-8ed5f08870e3","system_id":"levelo_inurba_marseille","lat":43.270569,"lon":5.402582,"is_reserved":false,"is_disabled":false,"rental_uris":{"android":"levelo://app?vid=07775d3c-4777-4dc5-9ba6-8ed5f08870e3","ios":"levelo://app?vid=07775d3c-4777-4dc5-9ba6-8ed5f08870e3"},"vehicle_type_id":"4","last_reported":1767529256,"current_range_meters":8800,"station_id":"ce4bhk92rcd13ifvqgc0","pricing_plan_id":"cebpf4jnsgd1na2vs0mg"},{"bike_id":"566db3cc-46f7-4e44-8a50-868e3cfad09c","system_id":"levelo_inurba_marseille","lat":43.26565,"lon":5.37311,"is_reserved":false,"is_disabled":false,"rental_uris":{"android":"levelo://app?vid=566db3cc-46f7-4e44-8a50-868e3cfad09c","ios":"levelo://app?vid=566db3cc-46f7-4e44-8a50-868e3cfad09c"},"vehicle_type_id":"4","last_reported":1767529256,"current_range_meters":8800,"station_id":"ce4bhg12rcd13ifvqf70","pricing_plan_id":"cebpf4jnsgd1na2vs0mg"},{"bike_id":"6e43b422-2e00-46e4-9d5a-dbe9b8598cec","system_id":"levelo_inurba_marseille","lat":43.28144,"lon":5.42638,"is_reserved":false,"is_disabled":false,"rental_uris":{"android":"levelo://app?vid=6e43b422-2e00-46e4-9d5a-dbe9b8598cec","ios":"levelo://app?vid=6e43b422-2e00-46e4-9d5a-dbe9b8598cec"},"vehicle_type_id":"4","last_reported":1767529256,"current_range_meters":8800,"station_id":"ce4bhnh2rcd13ifvqgug","pricing_plan_id":"cebpf4jnsgd1na2vs0mg"},{"bike_id":"3fedbda4-18fb-4459-8990-789e6012cbd1","system_id":"levelo_inurba_marseille","lat":43.29373,"lon":5.37869,"is_reserved":false,"is_disabled":false,"rental_uris":{"android":"levelo://app?vid=3fedbda4-18fb-4459-8990-789e6012cbd1","ios":"levelo://app?vid=3fedbda4-18fb-4459-8990-789e6012cbd1"},"vehicle_type_id":"4","last_reported":1767529256,"current_range_meters":8800,"station_id":"ce4bgjh2rcd13ifvqbf0","pricing_plan_id":"cebpf4jnsgd1na2vs0mg"},{"bike_id":"1944fe52-51b9-4699-b1f3-3c378f1c0ff5","system_id":"levelo_inurba_marseille","lat":43.2882,"lon":5.35862,"is_reserved":false,"is_disabled":false,"rental_uris":{"android":"levelo://app?vid=1944fe52-51b9-4699-b1f3-3c378f1c0ff5","ios":"levelo://app?vid=1944fe52-51b9-4699-b1f3-3c378f1c0ff5"},"vehicle_type_id":"4","last_reported":1767529256,"current_range_meters":8800,"station_id":"ce4bhb12rcd13ifvqem0","pricing_plan_id":"cebpf4jnsgd1na2vs0mg"},{"bike_id":"1344b698-8650-40c6-84ae-c77983c95c2f","system_id":"levelo_inurba_marseille","lat":43.28936,"lon":5.36176,"is_reserved":false,"is_disabled":false,"rental_uris":{"android":"levelo://app?vid=1344b698-8650-40c6-84ae-c77983c95c2f","ios":"levelo://app?vid=1344b698-8650-40c6-84ae-c77983c95c2f"},"vehicle_type_id":"4","last_reported":1767529256,"current_range_meters":8800,"station_id":"","pricing_plan_id":"cebpf4jnsgd1na2vs0mg"},{"bike_id":"832630b7-1265-4116-b046-a0d5dd971800","system_id":"levelo_inurba_marseille","lat":43.297678,"lon":5.370875,"is_reserved":false,"is_disabled":false,"rental_uris":{"android":"levelo://app?vid=832630b7-1265-4116-b046-a0d5dd971800","ios":"levelo://app?vid=832630b7-1265-4116-b046-a0d5dd971800"},"vehicle_type_id":"4","last_reported":1767529256,"current_range_meters":8800,"station_id":"ce4bgop2rcd13ifvqc1g","pricing_plan_id":"cebpf4jnsgd1na2vs0mg"},{"bike_id":"b79148a9-0296-401e-b0d8-446ba2350cbc","system_id":"levelo_inurba_marseille","lat":43.26214,"lon":5.40445,"is_reserved":false,"is_disabled":false,"rental_uris":{"android":"levelo://app?vid=b79148a9-0296-401e-b0d8-446ba2350cbc","ios":"levelo://app?vid=b79148a9-0296-401e-b0d8-446ba2350cbc"},"vehicle_type_id":"4","last_reported":1767529256,"current_range_meters":8800,"station_id":"ce4bhmh2rcd13ifvqgmg","pricing_plan_id":"cebpf4jnsgd1na2vs0mg"},{"bike_id":"225bdd2a-0ec2-4312-a816-23bf65227ab6","system_id":"levelo_inurba_marseille","lat":43.263742,"lon":5.410665,"is_reserved":false,"is_disabled":true,"rental_uris":{"android":"levelo://app?vid=225bdd2a-0ec2-4312-a816-23bf65227ab6","ios":"levelo://app?vid=225bdd2a-0ec2-4312-a816-23bf65227ab6"},"vehicle_type_id":"4","last_reported":1767529256,"current_range_meters":8800,"station_id":"","pricing_plan_id":"cebpf4jnsgd1na2vs0mg"},{"bike_id":"20600a83-ffb2-4ea6-adcc-6f03f7742df5","system_id":"levelo_inurba_marseille","lat":43.270632,"lon":5.422801,"is_reserved":false,"is_disabled":false,"rental_uris":{"android":"levelo://app?vid=20600a83-ffb2-4ea6-adcc-6f03f7742df5","ios":"levelo://app?vid=20600a83-ffb2-4ea6-adcc-6f03f7742df5"},"vehicle_type_id":"4","last_reported":1767529256,"current_range_meters":8800,"station_id":"ce4bhk92rcd13ifvqgb0","pricing_plan_id":"cebpf4jnsgd1na2vs0mg"},{"bike_id":"255658a8-b46b-4069-9e30-81efa319b4d2","system_id":"levelo_inurba_marseille","lat":43.29486,"lon":5.4329,"is_reserved":false,"is_disabled":false,"rental_uris":{"android":"levelo://app?vid=255658a8-b46b-4069-9e30-81efa319b4d2","ios":"levelo://app?vid=255658a8-b46b-4069-9e30-81efa319b4d2"},"vehicle_type_id":"4","last_reported":1767529256,"current_range_meters":8800,"station_id":"st_d3j5ugp08ojc73fj9d10","pricing_plan_id":"cebpf4jnsgd1na2vs0mg"},{"bike_id":"746607d7-0d50-445a-b435-314ed89afc68","system_id":"levelo_inurba_marseille","lat":43.299,"lon":5.43675,"is_reserved":false,"is_disabled":false,"rental_uris":{"android":"levelo://app?vid=746607d7-0d50-445a-b435-314ed89afc68","ios":"levelo://app?vid=746607d7-0d50-445a-b435-314ed89afc68"},"vehicle_type_id":"4","last_reported":1767529256,"current_range_meters":8800,"station_id":"ce4bhpp2rcd13ifvqhfg","pricing_plan_id":"cebpf4jnsgd1na2vs0mg"},{"bike_id":"ecfba3ac-804e-418b-a7fa-cc102335e836","system_id":"levelo_inurba_marseille","lat":43.30304,"lon":5.45652,"is_reserved":false,"is_disabled":false,"rental_uris":{"android":"levelo://app?vid=ecfba3ac-804e-418b-a7fa-cc102335e836","ios":"levelo://app?vid=ecfba3ac-804e-418b-a7fa-cc102335e836"},"vehicle_type_id":"4","last_reported":1767529256,"current_range_meters":8800,"station_id":"","pricing_plan_id":"cebpf4jnsgd1na2vs0mg"},{"bike_id":"38478ce1-a447-4641-99f3-89c5bb836bdb","system_id":"levelo_inurba_marseille","lat":43.27444,"lon":5.41873,"is_reserved":false,"is_disabled":false,"rental_uris":{"android":"levelo://app?vid=38478ce1-a447-4641-99f3-89c5bb836bdb","ios":"levelo://app?vid=38478ce1-a447-4641-99f3-89c5bb836bdb"},"vehicle_type_id":"4","last_reported":1767529256,"current_range_meters":8800,"station_id":"","pricing_plan_id":"cebpf4jnsgd1na2vs0mg"},{"bike_id":"b4afa196-18ec-4d7d-bbba-b15c57a1293b","system_id":"levelo_inurba_marseille","lat":43.27189,"lon":5.39177,"is_reserved":false,"is_disabled":false,"rental_uris":{"android":"levelo://app?vid=b4afa196-18ec-4d7d-bbba-b15c57a1293b","ios":"levelo://app?vid=b4afa196-18ec-4d7d-bbba-b15c57a1293b"},"vehicle_type_id":"4","last_reported":1767529256,"current_range_meters":8800,"station_id":"ce4bhhp2rcd13ifvqfm0","pricing_plan_id":"cebpf4jnsgd1na2vs0mg"},{"bike_id":"313a26e2-6d5c-4db1-9b5b-ccc981e39b88","system_id":"levelo_inurba_marseille","lat":43.23798,"lon":5.36635,"is_reserved":false,"is_disabled":false,"rental_uris":{"android":"levelo://app?vid=313a26e2-6d5c-4db1-9b5b-ccc981e39b88","ios":"levelo://app?vid=313a26e2-6d5c-4db1-9b5b-ccc981e39b88"},"vehicle_type_id":"4","last_reported":1767529256,"current_range_meters":8800,"station_id":"st_d3nk18o9ro0c73en2l3g","pricing_plan_id":"cebpf4jnsgd1na2vs0mg"},{"bike_id":"59bca459-f8ba-4ca0-be09-8ae241edab81","system_id":"levelo_inurba_marseille","lat":43.33338,"lon":5.41089,"is_reserved":false,"is_disabled":false,"rental_uris":{"android":"levelo://app?vid=59bca459-f8ba-4ca0-be09-8ae241edab81","ios":"levelo://app?vid=59bca459-f8ba-4ca0-be09-8ae241edab81"},"vehicle_type_id":"4","last_reported":1767529256,"current_range_meters":8800,"station_id":"","pricing_plan_id":"cebpf4jnsgd1na2vs0mg"},{"bike_id":"47f5f321-0859-44a5-a3e2-7e35572c8bac","system_id":"levelo_inurba_marseille","lat":43.270786,"lon":5.422785,"is_reserved":false,"is_disabled":false,"rental_uris":{"android":"levelo://app?vid=47f5f321-0859-44a5-a3e2-7e35572c8bac","ios":"levelo://app?vid=47f5f321-0859-44a5-a3e2-7e35572c8bac"},"vehicle_type_id":"4","last_reported":1767529256,"current_range_meters":8800,"station_id":"ce4bhk92rcd13ifvqgb0","pricing_plan_id":"cebpf4jnsgd1na2vs0mg"},{"bike_id":"9b4021cf-15f5-49ee-bfc4-492922ebf4c9","system_id":"levelo_inurba_marseille","lat":43.30262,"lon":5.37267,"is_reserved":false,"is_disabled":false,"rental_uris":{"android":"levelo://app?vid=9b4021cf-15f5-49ee-bfc4-492922ebf4c9","ios":"levelo://app?vid=9b4021cf-15f5-49ee-bfc4-492922ebf4c9"},"vehicle_type_id":"4","last_reported":1767529256,"current_range_meters":8800,"station_id":"","pricing_plan_id":"cebpf4jnsgd1na2vs0mg"},{"bike_id":"12a80fe3-61e3-412b-a4be-0e9fe67491bf","system_id":"levelo_inurba_marseille","lat":43.25516,"lon":5.37656,"is_reserved":false,"is_disabled":true,"rental_uris":{"android":"levelo://app?vid=12a80fe3-61e3-412b-a4be-0e9fe67491bf","ios":"levelo://app?vid=12a80fe3-61e3-412b-a4be-0e9fe67491bf"},"vehicle_type_id":"4","last_reported":1767529256,"current_range_meters":8800,"station_id":"ce4bhh12rcd13ifvqff0","pricing_plan_id":"cebpf4jnsgd1na2vs0mg"},{"bike_id":"8abe114a-6130-480c-8ffa-a468323abd52","system_id":"levelo_inurba_marseille","lat":43.27912,"lon":5.37996,"is_reserved":false,"is_disabled":true,"rental_uris":{"android":"levelo://app?vid=8abe114a-6130-480c-8ffa-a468323abd52","ios":"levelo://app?vid=8abe114a-6130-480c-8ffa-a468323abd52"},"vehicle_type_id":"4","last_reported":1767529256,"current_range_meters":9200,"station_id":"ce4bhf92rcd13ifvqf50","pricing_plan_id":"cebpf4jnsgd1na2vs0mg"},{"bike_id":"0593d738-3fdf-4466-a880-c927ee83299a","system_id":"levelo_inurba_marseille","lat":43.28656,"lon":5.40008,"is_reserved":false,"is_disabled":false,"rental_uris":{"android":"levelo://app?vid=0593d738-3fdf-4466-a880-c927ee83299a","ios":"levelo://app?vid=0593d738-3fdf-4466-a880-c927ee83299a"},"vehicle_type_id":"4","last_reported":1767529256,"current_range_meters":9200,"station_id":"","pricing_plan_id":"cebpf4jnsgd1na2vs0mg"},{"bike_id":"f8fd03d0-aa2f-4b76-88bf-1f61c44cd155","system_id":"levelo_inurba_marseille","lat":43.29624,"lon":5.40591,"is_reserved":false,"is_disabled":false,"rental_uris":{"android":"levelo://app?vid=f8fd03d0-aa2f-4b76-88bf-1f61c44cd155","ios":"levelo://app?vid=f8fd03d0-aa2f-4b76-88bf-1f61c44cd155"},"vehicle_type_id":"4","last_reported":1767529256,"current_range_meters":9200,"station_id":"ce4bh0h2rcd13ifvqd60","pricing_plan_id":"cebpf4jnsgd1na2vs0mg"},{"bike_id":"1a8956a4-5d9e-4b39-a4e9-293264dc1919","system_id":"levelo_inurba_marseille","lat":43.23194,"lon":5.35554,"is_reserved":false,"is_disabled":false,"rental_uris":{"android":"levelo://app?vid=1a8956a4-5d9e-4b39-a4e9-293264dc1919","ios":"levelo://app?vid=1a8956a4-5d9e-4b39-a4e9-293264dc1919"},"vehicle_type_id":"4","last_reported":1767529256,"current_range_meters":9200,"station_id":"ce4bhu92rcd13ifvqi70","pricing_plan_id":"cebpf4jnsgd1na2vs0mg"},{"bike_id":"18057ecb-ade7-4f09-b182-a520e78e3681","system_id":"levelo_inurba_marseille","lat":43.284763,"lon":5.384194,"is_reserved":false,"is_disabled":false,"rental_uris":{"android":"levelo://app?vid=18057ecb-ade7-4f09-b182-a520e78e3681","ios":"levelo://app?vid=18057ecb-ade7-4f09-b182-a520e78e3681"},"vehicle_type_id":"4","last_reported":1767529256,"current_range_meters":9200,"station_id":"ce4bh512rcd13ifvqe3g","pricing_plan_id":"cebpf4jnsgd1na2vs0mg"},{"bike_id":"09de8293-0bc7-4093-9fd7-78e5ee68b962","system_id":"levelo_inurba_marseille","lat":43.27994,"lon":5.41669,"is_reserved":false,"is_disabled":false,"rental_uris":{"android":"levelo://app?vid=09de8293-0bc7-4093-9fd7-78e5ee68b962","ios":"levelo://app?vid=09de8293-0bc7-4093-9fd7-78e5ee68b962"},"vehicle_type_id":"4","last_reported":1767529256,"current_range_meters":9200,"station_id":"ce4bho12rcd13ifvqh1g","pricing_plan_id":"cebpf4jnsgd1na2vs0mg"},{"bike_id":"61bede02-2851-4fcf-827d-afeac7ac0523","system_id":"levelo_inurba_marseille","lat":43.29863,"lon":5.37646,"is_reserved":false,"is_disabled":false,"rental_uris":{"android":"levelo://app?vid=61bede02-2851-4fcf-827d-afeac7ac0523","ios":"levelo://app?vid=61bede02-2851-4fcf-827d-afeac7ac0523"},"vehicle_type_id":"4","last_reported":1767529256,"current_range_meters":9200,"station_id":"ce4bhr92rcd13ifvqhrg","pricing_plan_id":"cebpf4jnsgd1na2vs0mg"},{"bike_id":"f45af1ed-ba57-4931-a22f-bc2fde3d778c","system_id":"levelo_inurba_marseille","lat":43.303701,"lon":5.425051,"is_reserved":false,"is_disabled":false,"rental_uris":{"android":"levelo://app?vid=f45af1ed-ba57-4931-a22f-bc2fde3d778c","ios":"levelo://app?vid=f45af1ed-ba57-4931-a22f-bc2fde3d778c"},"vehicle_type_id":"4","last_reported":1767529256,"current_range_meters":9200,"station_id":"ce4bhoh2rcd13ifvqh6g","pricing_plan_id":"cebpf4jnsgd1na2vs0mg"},{"bike_id":"f3bc2b83-f211-4612-be45-4e3acf4d48db","system_id":"levelo_inurba_marseille","lat":43.27651,"lon":5.41831,"is_reserved":false,"is_disabled":false,"rental_uris":{"android":"levelo://app?vid=f3bc2b83-f211-4612-be45-4e3acf4d48db","ios":"levelo://app?vid=f3bc2b83-f211-4612-be45-4e3acf4d48db"},"vehicle_type_id":"4","last_reported":1767529256,"current_range_meters":9200,"station_id":"","pricing_plan_id":"cebpf4jnsgd1na2vs0mg"},{"bike_id":"278b026d-7c90-4296-9421-3e0684d777fa","system_id":"levelo_inurba_marseille","lat":43.29892,"lon":5.38331,"is_reserved":false,"is_disabled":false,"rental_uris":{"android":"levelo://app?vid=278b026d-7c90-4296-9421-3e0684d777fa","ios":"levelo://app?vid=278b026d-7c90-4296-9421-3e0684d777fa"},"vehicle_type_id":"4","last_reported":1767529256,"current_range_meters":9200,"station_id":"","pricing_plan_id":"cebpf4jnsgd1na2vs0mg"},{"bike_id":"689e1e25-96b9-418c-bbe1-0e8f9558c52f","system_id":"levelo_inurba_marseille","lat":43.31369,"lon":5.37597,"is_reserved":false,"is_disabled":false,"rental_uris":{"android":"levelo://app?vid=689e1e25-96b9-418c-bbe1-0e8f9558c52f","ios":"levelo://app?vid=689e1e25-96b9-418c-bbe1-0e8f9558c52f"},"vehicle_type_id":"4","last_reported":1767529256,"current_range_meters":9200,"station_id":"","pricing_plan_id":"cebpf4jnsgd1na2vs0mg"},{"bike_id":"75f514f3-a391-4f43-9ffc-c99bb058b876","system_id":"levelo_inurba_marseille","lat":43.23208,"lon":5.35547,"is_reserved":false,"is_disabled":false,"rental_uris":{"android":"levelo://app?vid=75f514f3-a391-4f43-9ffc-c99bb058b876","ios":"levelo://app?vid=75f514f3-a391-4f43-9ffc-c99bb058b876"},"vehicle_type_id":"4","last_reported":1767529256,"current_range_meters":9200,"station_id":"ce4bhu92rcd13ifvqi70","pricing_plan_id":"cebpf4jnsgd1na2vs0mg"},{"bike_id":"752e32ed-dca7-49b7-960f-de09644e5641","system_id":"levelo_inurba_marseille","lat":43.29224,"lon":5.36054,"is_reserved":false,"is_disabled":false,"rental_uris":{"android":"levelo://app?vid=752e32ed-dca7-49b7-960f-de09644e5641","ios":"levelo://app?vid=752e32ed-dca7-49b7-960f-de09644e5641"},"vehicle_type_id":"4","last_reported":1767529256,"current_range_meters":9600,"station_id":"ce4bhbh2rcd13ifvqeqg","pricing_plan_id":"cebpf4jnsgd1na2vs0mg"},{"bike_id":"d0c45ceb-2932-460b-a0aa-9949ecc8dcd9","system_id":"levelo_inurba_marseille","lat":43.28931,"lon":5.36396,"is_reserved":false,"is_disabled":false,"rental_uris":{"android":"levelo://app?vid=d0c45ceb-2932-460b-a0aa-9949ecc8dcd9","ios":"levelo://app?vid=d0c45ceb-2932-460b-a0aa-9949ecc8dcd9"},"vehicle_type_id":"4","last_reported":1767529256,"current_range_meters":9600,"station_id":"ce4bhc92rcd13ifvqetg","pricing_plan_id":"cebpf4jnsgd1na2vs0mg"},{"bike_id":"3115bbd7-1c85-4603-a617-db0a037ecab5","system_id":"levelo_inurba_marseille","lat":43.294095,"lon":5.432808,"is_reserved":false,"is_disabled":false,"rental_uris":{"android":"levelo://app?vid=3115bbd7-1c85-4603-a617-db0a037ecab5","ios":"levelo://app?vid=3115bbd7-1c85-4603-a617-db0a037ecab5"},"vehicle_type_id":"4","last_reported":1767529256,"current_range_meters":9600,"station_id":"","pricing_plan_id":"cebpf4jnsgd1na2vs0mg"},{"bike_id":"fa425a2b-b01f-4040-b6da-de1021f8b95c","system_id":"levelo_inurba_marseille","lat":43.2946,"lon":5.37922,"is_reserved":false,"is_disabled":false,"rental_uris":{"android":"levelo://app?vid=fa425a2b-b01f-4040-b6da-de1021f8b95c","ios":"levelo://app?vid=fa425a2b-b01f-4040-b6da-de1021f8b95c"},"vehicle_type_id":"4","last_reported":1767529256,"current_range_meters":9600,"station_id":"","pricing_plan_id":"cebpf4jnsgd1na2vs0mg"},{"bike_id":"8f67289a-c445-41d3-a7c1-2b5874f96ec2","system_id":"levelo_inurba_marseille","lat":43.31353,"lon":5.40466,"is_reserved":false,"is_disabled":false,"rental_uris":{"android":"levelo://app?vid=8f67289a-c445-41d3-a7c1-2b5874f96ec2","ios":"levelo://app?vid=8f67289a-c445-41d3-a7c1-2b5874f96ec2"},"vehicle_type_id":"4","last_reported":1767529256,"current_range_meters":9600,"station_id":"","pricing_plan_id":"cebpf4jnsgd1na2vs0mg"},{"bike_id":"ec2e2d97-541d-4f0e-9289-f85c25486ad3","system_id":"levelo_inurba_marseille","lat":43.25749,"lon":5.411,"is_reserved":false,"is_disabled":false,"rental_uris":{"android":"levelo://app?vid=ec2e2d97-541d-4f0e-9289-f85c25486ad3","ios":"levelo://app?vid=ec2e2d97-541d-4f0e-9289-f85c25486ad3"},"vehicle_type_id":"4","last_reported":1767529256,"current_range_meters":9600,"station_id":"ce4bhkp2rcd13ifvqgd0","pricing_plan_id":"cebpf4jnsgd1na2vs0mg"},{"bike_id":"9ffd8e4e-6671-4e68-b198-26c59cc5e3d1","system_id":"levelo_inurba_marseille","lat":43.32635,"lon":5.41937,"is_reserved":false,"is_disabled":false,"rental_uris":{"android":"levelo://app?vid=9ffd8e4e-6671-4e68-b198-26c59cc5e3d1","ios":"levelo://app?vid=9ffd8e4e-6671-4e68-b198-26c59cc5e3d1"},"vehicle_type_id":"4","last_reported":1767529256,"current_range_meters":9600,"station_id":"","pricing_plan_id":"cebpf4jnsgd1na2vs0mg"},{"bike_id":"16e48f27-7b0d-4505-a28d-1934122f2e60","system_id":"levelo_inurba_marseille","lat":43.29372,"lon":5.39893,"is_reserved":false,"is_disabled":false,"rental_uris":{"android":"levelo://app?vid=16e48f27-7b0d-4505-a28d-1934122f2e60","ios":"levelo://app?vid=16e48f27-7b0d-4505-a28d-1934122f2e60"},"vehicle_type_id":"4","last_reported":1767529256,"current_range_meters":9600,"station_id":"","pricing_plan_id":"cebpf4jnsgd1na2vs0mg"},{"bike_id":"2b725004-d7f5-4f46-95e9-d13bbd3642dd","system_id":"levelo_inurba_marseille","lat":43.29551,"lon":5.42274,"is_reserved":false,"is_disabled":false,"rental_uris":{"android":"levelo://app?vid=2b725004-d7f5-4f46-95e9-d13bbd3642dd","ios":"levelo://app?vid=2b725004-d7f5-4f46-95e9-d13bbd3642dd"},"vehicle_type_id":"4","last_reported":1767529256,"current_range_meters":9600,"station_id":"ce4bhph2rcd13ifvqhdg","pricing_plan_id":"cebpf4jnsgd1na2vs0mg"},{"bike_id":"775e5942-5698-4bd1-a7a9-ca32c54f4bac","system_id":"levelo_inurba_marseille","lat":43.26923,"lon":5.4025,"is_reserved":false,"is_disabled":false,"rental_uris":{"android":"levelo://app?vid=775e5942-5698-4bd1-a7a9-ca32c54f4bac","ios":"levelo://app?vid=775e5942-5698-4bd1-a7a9-ca32c54f4bac"},"vehicle_type_id":"4","last_reported":1767529256,"current_range_meters":9600,"station_id":"cjm6bp8fraef2m0cb0m0","pricing_plan_id":"cebpf4jnsgd1na2vs0mg"},{"bike_id":"1f1bfc90-c16d-43bf-b03c-d479766ea213","system_id":"levelo_inurba_marseille","lat":43.21759,"lon":5.34617,"is_reserved":false,"is_disabled":true,"rental_uris":{"android":"levelo://app?vid=1f1bfc90-c16d-43bf-b03c-d479766ea213","ios":"levelo://app?vid=1f1bfc90-c16d-43bf-b03c-d479766ea213"},"vehicle_type_id":"4","last_reported":1767529256,"current_range_meters":9600,"station_id":"st_cvj6r9ubvosntc0bgbag","pricing_plan_id":"cebpf4jnsgd1na2vs0mg"},{"bike_id":"c713e54a-b82d-4ed6-8942-6938c8451e46","system_id":"levelo_inurba_marseille","lat":43.27314,"lon":5.39085,"is_reserved":false,"is_disabled":false,"rental_uris":{"android":"levelo://app?vid=c713e54a-b82d-4ed6-8942-6938c8451e46","ios":"levelo://app?vid=c713e54a-b82d-4ed6-8942-6938c8451e46"},"vehicle_type_id":"4","last_reported":1767529256,"current_range_meters":9600,"station_id":"ce4bhgp2rcd13ifvqfe0","pricing_plan_id":"cebpf4jnsgd1na2vs0mg"},{"bike_id":"c48b8ab0-3aed-485b-9e87-5ea8f52478d4","system_id":"levelo_inurba_marseille","lat":43.315201,"lon":5.383854,"is_reserved":false,"is_disabled":false,"rental_uris":{"android":"levelo://app?vid=c48b8ab0-3aed-485b-9e87-5ea8f52478d4","ios":"levelo://app?vid=c48b8ab0-3aed-485b-9e87-5ea8f52478d4"},"vehicle_type_id":"4","last_reported":1767529256,"current_range_meters":9600,"station_id":"","pricing_plan_id":"cebpf4jnsgd1na2vs0mg"},{"bike_id":"b1815a08-757c-40f8-bc68-19e9db51ecd3","system_id":"levelo_inurba_marseille","lat":43.27335,"lon":5.39148,"is_reserved":false,"is_disabled":false,"rental_uris":{"android":"levelo://app?vid=b1815a08-757c-40f8-bc68-19e9db51ecd3","ios":"levelo://app?vid=b1815a08-757c-40f8-bc68-19e9db51ecd3"},"vehicle_type_id":"4","last_reported":1767529256,"current_range_meters":10000,"station_id":"ce4bhgp2rcd13ifvqfe0","pricing_plan_id":"cebpf4jnsgd1na2vs0mg"},{"bike_id":"9eb9f2a9-0def-423d-bc04-f48d9e280ab5","system_id":"levelo_inurba_marseille","lat":43.30548,"lon":5.36711,"is_reserved":false,"is_disabled":false,"rental_uris":{"android":"levelo://app?vid=9eb9f2a9-0def-423d-bc04-f48d9e280ab5","ios":"levelo://app?vid=9eb9f2a9-0def-423d-bc04-f48d9e280ab5"},"vehicle_type_id":"4","last_reported":1767529256,"current_range_meters":10000,"station_id":"ce4bgrp2rcd13ifvqc9g","pricing_plan_id":"cebpf4jnsgd1na2vs0mg"},{"bike_id":"1a6323ce-de86-4199-a2af-18e2d129763c","system_id":"levelo_inurba_marseille","lat":43.23157,"lon":5.43706,"is_reserved":false,"is_disabled":false,"rental_uris":{"android":"levelo://app?vid=1a6323ce-de86-4199-a2af-18e2d129763c","ios":"levelo://app?vid=1a6323ce-de86-4199-a2af-18e2d129763c"},"vehicle_type_id":"4","last_reported":1767529256,"current_range_meters":10000,"station_id":"ce4bhmp2rcd13ifvqgog","pricing_plan_id":"cebpf4jnsgd1na2vs0mg"},{"bike_id":"d7927a0c-acc6-4dbc-b121-3fe1c24d45cd","system_id":"levelo_inurba_marseille","lat":43.23953,"lon":5.36633,"is_reserved":false,"is_disabled":false,"rental_uris":{"android":"levelo://app?vid=d7927a0c-acc6-4dbc-b121-3fe1c24d45cd","ios":"levelo://app?vid=d7927a0c-acc6-4dbc-b121-3fe1c24d45cd"},"vehicle_type_id":"4","last_reported":1767529256,"current_range_meters":10000,"station_id":"ce4bhi12rcd13ifvqfp0","pricing_plan_id":"cebpf4jnsgd1na2vs0mg"},{"bike_id":"2a61f7a8-d2f7-4b6f-8828-528b5bab141c","system_id":"levelo_inurba_marseille","lat":43.27182,"lon":5.40996,"is_reserved":false,"is_disabled":false,"rental_uris":{"android":"levelo://app?vid=2a61f7a8-d2f7-4b6f-8828-528b5bab141c","ios":"levelo://app?vid=2a61f7a8-d2f7-4b6f-8828-528b5bab141c"},"vehicle_type_id":"4","last_reported":1767529256,"current_range_meters":10000,"station_id":"ce4bhl12rcd13ifvqgf0","pricing_plan_id":"cebpf4jnsgd1na2vs0mg"},{"bike_id":"42c9b5e6-cebc-4822-9793-9aadf0113a8b","system_id":"levelo_inurba_marseille","lat":43.253338,"lon":5.421834,"is_reserved":false,"is_disabled":false,"rental_uris":{"android":"levelo://app?vid=42c9b5e6-cebc-4822-9793-9aadf0113a8b","ios":"levelo://app?vid=42c9b5e6-cebc-4822-9793-9aadf0113a8b"},"vehicle_type_id":"4","last_reported":1767529256,"current_range_meters":10000,"station_id":"st_d2m65c5bi1j21697t3ng","pricing_plan_id":"cebpf4jnsgd1na2vs0mg"},{"bike_id":"a678a1fe-b62e-4129-8b68-e57d3d6f852d","system_id":"levelo_inurba_marseille","lat":43.30551,"lon":5.36537,"is_reserved":false,"is_disabled":false,"rental_uris":{"android":"levelo://app?vid=a678a1fe-b62e-4129-8b68-e57d3d6f852d","ios":"levelo://app?vid=a678a1fe-b62e-4129-8b68-e57d3d6f852d"},"vehicle_type_id":"4","last_reported":1767529256,"current_range_meters":10000,"station_id":"ce4bgs12rcd13ifvqcag","pricing_plan_id":"cebpf4jnsgd1na2vs0mg"},{"bike_id":"17122469-6fe8-44cc-83aa-2add588c9ff0","system_id":"levelo_inurba_marseille","lat":43.27072,"lon":5.42278,"is_reserved":false,"is_disabled":false,"rental_uris":{"android":"levelo://app?vid=17122469-6fe8-44cc-83aa-2add588c9ff0","ios":"levelo://app?vid=17122469-6fe8-44cc-83aa-2add588c9ff0"},"vehicle_type_id":"4","last_reported":1767529256,"current_range_meters":10000,"station_id":"ce4bhk92rcd13ifvqgb0","pricing_plan_id":"cebpf4jnsgd1na2vs0mg"},{"bike_id":"deb0a903-ff65-4910-ab6f-673f092a1638","system_id":"levelo_inurba_marseille","lat":43.25876,"lon":5.39895,"is_reserved":false,"is_disabled":false,"rental_uris":{"android":"levelo://app?vid=deb0a903-ff65-4910-ab6f-673f092a1638","ios":"levelo://app?vid=deb0a903-ff65-4910-ab6f-673f092a1638"},"vehicle_type_id":"4","last_reported":1767529256,"current_range_meters":10000,"station_id":"ce4bhl92rcd13ifvqghg","pricing_plan_id":"cebpf4jnsgd1na2vs0mg"},{"bike_id":"edbb502a-babb-4b56-b7b2-69e8e10c7c11","system_id":"levelo_inurba_marseille","lat":43.28472,"lon":5.48406,"is_reserved":false,"is_disabled":false,"rental_uris":{"android":"levelo://app?vid=edbb502a-babb-4b56-b7b2-69e8e10c7c11","ios":"levelo://app?vid=edbb502a-babb-4b56-b7b2-69e8e10c7c11"},"vehicle_type_id":"4","last_reported":1767529256,"current_range_meters":10000,"station_id":"","pricing_plan_id":"cebpf4jnsgd1na2vs0mg"},{"bike_id":"a37d40f7-6a7a-463a-8f5a-b25737a5a4f2","system_id":"levelo_inurba_marseille","lat":43.29926,"lon":5.38025,"is_reserved":false,"is_disabled":false,"rental_uris":{"android":"levelo://app?vid=a37d40f7-6a7a-463a-8f5a-b25737a5a4f2","ios":"levelo://app?vid=a37d40f7-6a7a-463a-8f5a-b25737a5a4f2"},"vehicle_type_id":"4","last_reported":1767529256,"current_range_meters":10000,"station_id":"","pricing_plan_id":"cebpf4jnsgd1na2vs0mg"},{"bike_id":"fdf0eff4-9b5a-4907-8250-d268003ad409","system_id":"levelo_inurba_marseille","lat":43.24475,"lon":5.42548,"is_reserved":false,"is_disabled":false,"rental_uris":{"android":"levelo://app?vid=fdf0eff4-9b5a-4907-8250-d268003ad409","ios":"levelo://app?vid=fdf0eff4-9b5a-4907-8250-d268003ad409"},"vehicle_type_id":"4","last_reported":1767529256,"current_range_meters":10000,"station_id":"st_d4a3vfp97mjs738cd8kg","pricing_plan_id":"cebpf4jnsgd1na2vs0mg"},{"bike_id":"be736b14-b68a-4146-9564-3cee1fb8d027","system_id":"levelo_inurba_marseille","lat":43.29006,"lon":5.35599,"is_reserved":false,"is_disabled":false,"rental_uris":{"android":"levelo://app?vid=be736b14-b68a-4146-9564-3cee1fb8d027","ios":"levelo://app?vid=be736b14-b68a-4146-9564-3cee1fb8d027"},"vehicle_type_id":"4","last_reported":1767529256,"current_range_meters":10000,"station_id":"ce4bhb92rcd13ifvqen0","pricing_plan_id":"cebpf4jnsgd1na2vs0mg"},{"bike_id":"d8bac908-4a3d-4d9a-8b84-e486ecbc02f2","system_id":"levelo_inurba_marseille","lat":43.29662,"lon":5.37163,"is_reserved":false,"is_disabled":false,"rental_uris":{"android":"levelo://app?vid=d8bac908-4a3d-4d9a-8b84-e486ecbc02f2","ios":"levelo://app?vid=d8bac908-4a3d-4d9a-8b84-e486ecbc02f2"},"vehicle_type_id":"4","last_reported":1767529256,"current_range_meters":10000,"station_id":"","pricing_plan_id":"cebpf4jnsgd1na2vs0mg"},{"bike_id":"d938298d-16c1-4fcf-a2a1-90f5a487d129","system_id":"levelo_inurba_marseille","lat":43.28126,"lon":5.36008,"is_reserved":false,"is_disabled":false,"rental_uris":{"android":"levelo://app?vid=d938298d-16c1-4fcf-a2a1-90f5a487d129","ios":"levelo://app?vid=d938298d-16c1-4fcf-a2a1-90f5a487d129"},"vehicle_type_id":"4","last_reported":1767529256,"current_range_meters":10000,"station_id":"","pricing_plan_id":"cebpf4jnsgd1na2vs0mg"},{"bike_id":"ce5b50c4-8b7f-4836-923c-9b6bb4694e91","system_id":"levelo_inurba_marseille","lat":43.29911,"lon":5.37562,"is_reserved":false,"is_disabled":false,"rental_uris":{"android":"levelo://app?vid=ce5b50c4-8b7f-4836-923c-9b6bb4694e91","ios":"levelo://app?vid=ce5b50c4-8b7f-4836-923c-9b6bb4694e91"},"vehicle_type_id":"4","last_reported":1767529256,"current_range_meters":10000,"station_id":"","pricing_plan_id":"cebpf4jnsgd1na2vs0mg"},{"bike_id":"d921e2ef-d57d-414d-a30d-b85b95f31cac","system_id":"levelo_inurba_marseille","lat":43.23797,"lon":5.36631,"is_reserved":false,"is_disabled":false,"rental_uris":{"android":"levelo://app?vid=d921e2ef-d57d-414d-a30d-b85b95f31cac","ios":"levelo://app?vid=d921e2ef-d57d-414d-a30d-b85b95f31cac"},"vehicle_type_id":"4","last_reported":1767529256,"current_range_meters":10000,"station_id":"st_d3nk18o9ro0c73en2l3g","pricing_plan_id":"cebpf4jnsgd1na2vs0mg"},{"bike_id":"2d00e765-c5e3-4921-bdc3-7b346757eae1","system_id":"levelo_inurba_marseille","lat":43.28375,"lon":5.432963,"is_reserved":false,"is_disabled":false,"rental_uris":{"android":"levelo://app?vid=2d00e765-c5e3-4921-bdc3-7b346757eae1","ios":"levelo://app?vid=2d00e765-c5e3-4921-bdc3-7b346757eae1"},"vehicle_type_id":"4","last_reported":1767529256,"current_range_meters":10800,"station_id":"","pricing_plan_id":"cebpf4jnsgd1na2vs0mg"},{"bike_id":"8c1916f3-9874-4eb0-8987-deefc3073e14","system_id":"levelo_inurba_marseille","lat":43.29101,"lon":5.38162,"is_reserved":false,"is_disabled":false,"rental_uris":{"android":"levelo://app?vid=8c1916f3-9874-4eb0-8987-deefc3073e14","ios":"levelo://app?vid=8c1916f3-9874-4eb0-8987-deefc3073e14"},"vehicle_type_id":"4","last_reported":1767529256,"current_range_meters":10800,"station_id":"ce4bh512rcd13ifvqe2g","pricing_plan_id":"cebpf4jnsgd1na2vs0mg"},{"bike_id":"464bd772-d29f-48f1-b309-4063001cf9eb","system_id":"levelo_inurba_marseille","lat":43.304223,"lon":5.412876,"is_reserved":false,"is_disabled":true,"rental_uris":{"android":"levelo://app?vid=464bd772-d29f-48f1-b309-4063001cf9eb","ios":"levelo://app?vid=464bd772-d29f-48f1-b309-4063001cf9eb"},"vehicle_type_id":"4","last_reported":1767529256,"current_range_meters":10800,"station_id":"ce4bhop2rcd13ifvqh8g","pricing_plan_id":"cebpf4jnsgd1na2vs0mg"},{"bike_id":"1b6e3569-b3f3-4782-914b-adef5b399af2","system_id":"levelo_inurba_marseille","lat":43.310565,"lon":5.371817,"is_reserved":false,"is_disabled":false,"rental_uris":{"android":"levelo://app?vid=1b6e3569-b3f3-4782-914b-adef5b399af2","ios":"levelo://app?vid=1b6e3569-b3f3-4782-914b-adef5b399af2"},"vehicle_type_id":"4","last_reported":1767529256,"current_range_meters":10800,"station_id":"st_d4kl2rp97mjs73e7tdfg","pricing_plan_id":"cebpf4jnsgd1na2vs0mg"},{"bike_id":"1c4b2bf4-ceba-465d-8191-639338c588e3","system_id":"levelo_inurba_marseille","lat":43.2707,"lon":5.42281,"is_reserved":false,"is_disabled":false,"rental_uris":{"android":"levelo://app?vid=1c4b2bf4-ceba-465d-8191-639338c588e3","ios":"levelo://app?vid=1c4b2bf4-ceba-465d-8191-639338c588e3"},"vehicle_type_id":"4","last_reported":1767529256,"current_range_meters":10800,"station_id":"ce4bhk92rcd13ifvqgb0","pricing_plan_id":"cebpf4jnsgd1na2vs0mg"},{"bike_id":"7f0effc9-a455-4ad1-9f50-585d68dccc8b","system_id":"levelo_inurba_marseille","lat":43.28809,"lon":5.36389,"is_reserved":false,"is_disabled":false,"rental_uris":{"android":"levelo://app?vid=7f0effc9-a455-4ad1-9f50-585d68dccc8b","ios":"levelo://app?vid=7f0effc9-a455-4ad1-9f50-585d68dccc8b"},"vehicle_type_id":"4","last_reported":1767529256,"current_range_meters":10800,"station_id":"","pricing_plan_id":"cebpf4jnsgd1na2vs0mg"},{"bike_id":"79a2c431-e858-4c5a-9530-fd2afe5ff5df","system_id":"levelo_inurba_marseille","lat":43.30121,"lon":5.43116,"is_reserved":false,"is_disabled":false,"rental_uris":{"android":"levelo://app?vid=79a2c431-e858-4c5a-9530-fd2afe5ff5df","ios":"levelo://app?vid=79a2c431-e858-4c5a-9530-fd2afe5ff5df"},"vehicle_type_id":"4","last_reported":1767529256,"current_range_meters":10800,"station_id":"st_d3js3co5814s73ftftug","pricing_plan_id":"cebpf4jnsgd1na2vs0mg"},{"bike_id":"e2368ca3-3227-4bf5-a630-9efd4a9b1155","system_id":"levelo_inurba_marseille","lat":43.23153,"lon":5.43735,"is_reserved":false,"is_disabled":false,"rental_uris":{"android":"levelo://app?vid=e2368ca3-3227-4bf5-a630-9efd4a9b1155","ios":"levelo://app?vid=e2368ca3-3227-4bf5-a630-9efd4a9b1155"},"vehicle_type_id":"4","last_reported":1767529256,"current_range_meters":10800,"station_id":"ce4bhmp2rcd13ifvqgog","pricing_plan_id":"cebpf4jnsgd1na2vs0mg"},