{"last_updated":1752271816,"ttl":60,"version":"2.2","data":{"bikes":[{"bike_id":"625ec6ec-b63a-4098-ab74-3a4cfba8babd","system_id":"levelo_inurba_marseille","lat":43.24545,"lon":5.39527,"is_reserved":false,"is_disabled":false,"rental_uris":{"android":"levelo://app?vid=625ec6ec-b63a-4098-ab74-3a4cfba8babd","ios":"levelo://app?vid=625ec6ec-b63a-4098-ab74-3a4cfba8babd"},"vehicle_type_id":"4","last_reported":1752271816,"current_range_meters":2000,"station_id":"ce4bhlp2rcd13ifvqgjg","pricing_plan_id":"cebpf4jnsgd1na2vs0mg"},{"bike_id":"a4e71c09-d013-4906-bd5c-aaf1012438e0","system_id":"levelo_inurba_marseille","lat":43.30929,"lon":5.40141,"is_reserved":false,"is_disabled":true,"rental_uris":{"android":"levelo://app?vid=a4e71c09-d013-4906-bd5c-aaf1012438e0","ios":"levelo://app?vid=a4e71c09-d013-4906-bd5c-aaf1012438e0"},"vehicle_type_id":"4","last_reported":1752271816,"current_range_meters":2800,"station_id":"ce4bgvp2rcd13ifvqct0","pricing_plan_id":"cebpf4jnsgd1na2vs0mg"},{"bike_id":"1d0751fc-5acc-465d-a999-770a676fc732","system_id":"levelo_inurba_marseille","lat":43.319928,"lon":5.381676,"is_reserved":false,"is_disabled":false,"rental_uris":{"android":"levelo://app?vid=1d0751fc-5acc-465d-a999-770a676fc732","ios":"levelo://app?vid=1d0751fc-5acc-465d-a999-770a676fc732"},"vehicle_type_id":"4","last_reported":1752271816,"current_range_meters":3200,"station_id":"ce4bhr12rcd13ifvqhpg","pricing_plan_id":"cebpf4jnsgd1na2vs0mg"},{"bike_id":"b14d0d78-8635-433f-8305-8e2ed857c830","system_id":"levelo_inurba_marseille","lat":43.307982,"lon":5.381564,"is_reserved":false,"is_disabled":true,"rental_uris":{"android":"levelo://app?vid=b14d0d78-8635-433f-8305-8e2ed857c830","ios":"levelo://app?vid=b14d0d78-8635-433f-8305-8e2ed857c830"},"vehicle_type_id":"4","last_reported":1752271816,"current_range_meters":3200,"station_id":"","pricing_plan_id":"cebpf4jnsgd1na2vs0mg"},{"bike_id":"8a2d289a-e9a4-4d3b-868b-8ee982bda200","system_id":"levelo_inurba_marseille","lat":43.29632,"lon":5.40597,"is_reserved":false,"is_disabled":false,"rental_uris":{"android":"levelo://app?vid=8a2d289a-e9a4-4d3b-868b-8ee982bda200","ios":"levelo://app?vid=8a2d289a-e9a4-4d3b-868b-8ee982bda200"},"vehicle_type_id":"4","last_reported":1752271816,"current_range_meters":2800,"station_id":"ce4bh0h2rcd13ifvqd60","pricing_plan_id":"cebpf4jnsgd1na2vs0mg"},{"bike_id":"833789d2-719f-470f-8aa2-b69edbf07c3f","system_id":"levelo_inurba_marseille","lat":43.296473,"lon":5.392639,"is_reserved":false,"is_disabled":false,"rental_uris":{"android":"levelo://app?vid=833789d2-719f-470f-8aa2-b69edbf07c3f","ios":"levelo://app?vid=833789d2-719f-470f-8aa2-b69edbf07c3f"},"vehicle_type_id":"4","last_reported":1752271816,"current_range_meters":3200,"station_id":"","pricing_plan_id":"cebpf4jnsgd1na2vs0mg"},{"bike_id":"feec9ca5-eb53-4205-a29d-3d797c986952","system_id":"levelo_inurba_marseille","lat":43.289433,"lon":5.366422,"is_reserved":false,"is_disabled":true,"rental_uris":{"android":"levelo://app?vid=feec9ca5-eb53-4205-a29d-3d797c986952","ios":"levelo://app?vid=feec9ca5-eb53-4205-a29d-3d797c986952"},"vehicle_type_id":"4","last_reported":1752271816,"current_range_meters":3200,"station_id":"ce4bhpp2rcd13ifvqhfg","pricing_plan_id":"cebpf4jnsgd1na2vs0mg"},{"bike_id":"e1f8e852-cc2e-44ed-8618-a837bbc6d494","system_id":"levelo_inurba_marseille","lat":43.279582,"lon":5.3871,"is_reserved":false,"is_disabled":false,"rental_uris":{"android":"levelo://app?vid=e1f8e852-cc2e-44ed-8618-a837bbc6d494","ios":"levelo://app?vid=e1f8e852-cc2e-44ed-8618-a837bbc6d494"},"vehicle_type_id":"4","last_reported":1752271816,"current_range_meters":3200,"station_id":"ce4bhdp2rcd13ifvqf20","pricing_plan_id":"cebpf4jnsgd1na2vs0mg"},{"bike_id":"8a8548c8-5024-4ee6-ba3e-a02d35e313f5","system_id":"levelo_inurba_marseille","lat":43.28604,"lon":5.37067,"is_reserved":false,"is_disabled":false,"rental_uris":{"android":"levelo://app?vid=8a8548c8-5024-4ee6-ba3e-a02d35e313f5","ios":"levelo://app?vid=8a8548c8-5024-4ee6-ba3e-a02d35e313f5"},"vehicle_type_id":"4","last_reported":1752271816,"current_range_meters":3600,"station_id":"ce4bht12rcd13ifvqi60","pricing_plan_id":"cebpf4jnsgd1na2vs0mg"},{"bike_id":"c41ebe55-735e-4475-98d9-dec32a4d4e7e","system_id":"levelo_inurba_marseille","lat":43.3088,"lon":5.39644,"is_reserved":false,"is_disabled":false,"rental_uris":{"android":"levelo://app?vid=c41ebe55-735e-4475-98d9-dec32a4d4e7e","ios":"levelo://app?vid=c41ebe55-735e-4475-98d9-dec32a4d4e7e"},"vehicle_type_id":"4","last_reported":1752271816,"current_range_meters":3200,"station_id":"ce4bh012rcd13ifvqcv0","pricing_plan_id":"cebpf4jnsgd1na2vs0mg"},{"bike_id":"bc0ba58e-06a3-432d-8c35-ebe9130c41f9","system_id":"levelo_inurba_marseille","lat":43.337444,"lon":5.374475,"is_reserved":false,"is_disabled":false,"rental_uris":{"android":"levelo://app?vid=bc0ba58e-06a3-432d-8c35-ebe9130c41f9","ios":"levelo://app?vid=bc0ba58e-06a3-432d-8c35-ebe9130c41f9"},"vehicle_type_id":"4","last_reported":1752271816,"current_range_meters":4000,"station_id":"","pricing_plan_id":"cebpf4jnsgd1na2vs0mg"},{"bike_id":"12498c92-cccd-4730-bb07-beea88aab92c","system_id":"levelo_inurba_marseille","lat":43.27938,"lon":5.41047,"is_reserved":false,"is_disabled":false,"rental_uris":{"android":"levelo://app?vid=12498c92-cccd-4730-bb07-beea88aab92c","ios":"levelo://app?vid=12498c92-cccd-4730-bb07-beea88aab92c"},"vehicle_type_id":"4","last_reported":1752271816,"current_range_meters":4400,"station_id":"ce4bhnp2rcd13ifvqh0g","pricing_plan_id":"cebpf4jnsgd1na2vs0mg"},{"bike_id":"089a77bf-7476-4f0b-95a7-4a9f19a7bfb8","system_id":"levelo_inurba_marseille","lat":43.30925,"lon":5.40145,"is_reserved":false,"is_disabled":false,"rental_uris":{"android":"levelo://app?vid=089a77bf-7476-4f0b-95a7-4a9f19a7bfb8","ios":"levelo://app?vid=089a77bf-7476-4f0b-95a7-4a9f19a7bfb8"},"vehicle_type_id":"4","last_reported":1752271816,"current_range_meters":4400,"station_id":"ce4bgvp2rcd13ifvqct0","pricing_plan_id":"cebpf4jnsgd1na2vs0mg"},{"bike_id":"39bfd4e3-21c2-4dd0-b884-e20be6c67793","system_id":"levelo_inurba_marseille","lat":43.26953,"lon":5.38637,"is_reserved":false,"is_disabled":false,"rental_uris":{"android":"levelo://app?vid=39bfd4e3-21c2-4dd0-b884-e20be6c67793","ios":"levelo://app?vid=39bfd4e3-21c2-4dd0-b884-e20be6c67793"},"vehicle_type_id":"4","last_reported":1752271816,"current_range_meters":4800,"station_id":"ce4bhh92rcd13ifvqfh0","pricing_plan_id":"cebpf4jnsgd1na2vs0mg"},{"bike_id":"be81af2c-3723-45df-be8b-8d9f231eee70","system_id":"levelo_inurba_marseille","lat":43.309498,"lon":5.39027,"is_reserved":false,"is_disabled":true,"rental_uris":{"android":"levelo://app?vid=be81af2c-3723-45df-be8b-8d9f231eee70","ios":"levelo://app?vid=be81af2c-3723-45df-be8b-8d9f231eee70"},"vehicle_type_id":"4","last_reported":1752271816,"current_range_meters":4800,"station_id":"","pricing_plan_id":"cebpf4jnsgd1na2vs0mg"},{"bike_id":"492822e9-b40c-4824-8594-38c8605e1a47","system_id":"levelo_inurba_marseille","lat":43.30144,"lon":5.3985,"is_reserved":false,"is_disabled":false,"rental_uris":{"android":"levelo://app?vid=492822e9-b40c-4824-8594-38c8605e1a47","ios":"levelo://app?vid=492822e9-b40c-4824-8594-38c8605e1a47"},"vehicle_type_id":"4","last_reported":1752271816,"current_range_meters":4800,"station_id":"ce4bh0h2rcd13ifvqd40","pricing_plan_id":"cebpf4jnsgd1na2vs0mg"},{"bike_id":"088e776e-f2d5-488b-af42-0accf7d2595f","system_id":"levelo_inurba_marseille","lat":43.29959,"lon":5.38506,"is_reserved":false,"is_disabled":false,"rental_uris":{"android":"levelo://app?vid=088e776e-f2d5-488b-af42-0accf7d2595f","ios":"levelo://app?vid=088e776e-f2d5-488b-af42-0accf7d2595f"},"vehicle_type_id":"4","last_reported":1752271816,"current_range_meters":4800,"station_id":"ce4bgj92rcd13ifvqbd0","pricing_plan_id":"cebpf4jnsgd1na2vs0mg"},{"bike_id":"a61e5202-2e6f-42ff-9191-59ce0636c400","system_id":"levelo_inurba_marseille","lat":43.28444,"lon":5.39207,"is_reserved":false,"is_disabled":false,"rental_uris":{"android":"levelo://app?vid=a61e5202-2e6f-42ff-9191-59ce0636c400","ios":"levelo://app?vid=a61e5202-2e6f-42ff-9191-59ce0636c400"},"vehicle_type_id":"4","last_reported":1752271816,"current_range_meters":4800,"station_id":"ce4bhoh2rcd13ifvqh5g","pricing_plan_id":"cebpf4jnsgd1na2vs0mg"},{"bike_id":"6a5b119e-7cf2-4dc4-b7fa-68080f35defe","system_id":"levelo_inurba_marseille","lat":43.3175,"lon":5.39022,"is_reserved":false,"is_disabled":true,"rental_uris":{"android":"levelo://app?vid=6a5b119e-7cf2-4dc4-b7fa-68080f35defe","ios":"levelo://app?vid=6a5b119e-7cf2-4dc4-b7fa-68080f35defe"},"vehicle_type_id":"4","last_reported":1752271816,"current_range_meters":5600,"station_id":"ce4bhqp2rcd13ifvqhng","pricing_plan_id":"cebpf4jnsgd1na2vs0mg"},{"bike_id":"b757ffbb-2b71-4330-9f60-5f8a9d46d16e","system_id":"levelo_inurba_marseille","lat":43.296543,"lon":5.371153,"is_reserved":false,"is_disabled":false,"rental_uris":{"android":"levelo://app?vid=b757ffbb-2b71-4330-9f60-5f8a9d46d16e","ios":"levelo://app?vid=b757ffbb-2b71-4330-9f60-5f8a9d46d16e"},"vehicle_type_id":"4","last_reported":1752271816,"current_range_meters":6000,"station_id":"","pricing_plan_id":"cebpf4jnsgd1na2vs0mg"},{"bike_id":"49bb61e0-d8bc-4078-aeac-3d41a787d931","system_id":"levelo_inurba_marseille","lat":43.28922,"lon":5.38395,"is_reserved":false,"is_disabled":false,"rental_uris":{"android":"levelo://app?vid=49bb61e0-d8bc-4078-aeac-3d41a787d931","ios":"levelo://app?vid=49bb61e0-d8bc-4078-aeac-3d41a787d931"},"vehicle_type_id":"4","last_reported":1752271816,"current_range_meters":6000,"station_id":"ce4bh612rcd13ifvqe6g","pricing_plan_id":"cebpf4jnsgd1na2vs0mg"},{"bike_id":"d60d8de5-1826-4d69-99a6-c45bf18f1085","system_id":"levelo_inurba_marseille","lat":43.3031,"lon":5.36902,"is_reserved":false,"is_disabled":true,"rental_uris":{"android":"levelo://app?vid=d60d8de5-1826-4d69-99a6-c45bf18f1085","ios":"levelo://app?vid=d60d8de5-1826-4d69-99a6-c45bf18f1085"},"vehicle_type_id":"4","last_reported":1752271816,"current_range_meters":6800,"station_id":"ce4bgqh2rcd13ifvqc5g","pricing_plan_id":"cebpf4jnsgd1na2vs0mg"},{"bike_id":"82c33cde-e0a2-453a-a061-d722fdbf187d","system_id":"levelo_inurba_marseille","lat":43.285716,"lon":5.395065,"is_reserved":false,"is_disabled":false,"rental_uris":{"android":"levelo://app?vid=82c33cde-e0a2-453a-a061-d722fdbf187d","ios":"levelo://app?vid=82c33cde-e0a2-453a-a061-d722fdbf187d"},"vehicle_type_id":"4","last_reported":1752271816,"current_range_meters":6400,"station_id":"ce4bh292rcd13ifvqdg0","pricing_plan_id":"cebpf4jnsgd1na2vs0mg"},{"bike_id":"7cd00374-94f3-4cc4-87f8-79b1b2334760","system_id":"levelo_inurba_marseille","lat":43.29282,"lon":5.4012,"is_reserved":false,"is_disabled":false,"rental_uris":{"android":"levelo://app?vid=7cd00374-94f3-4cc4-87f8-79b1b2334760","ios":"levelo://app?vid=7cd00374-94f3-4cc4-87f8-79b1b2334760"},"vehicle_type_id":"4","last_reported":1752271816,"current_range_meters":6800,"station_id":"ce4bh312rcd13ifvqdk0","pricing_plan_id":"cebpf4jnsgd1na2vs0mg"},{"bike_id":"60fef6dc-fd17-4a75-897f-f130f5dc46aa","system_id":"levelo_inurba_marseille","lat":43.301356,"lon":5.387788,"is_reserved":false,"is_disabled":false,"rental_uris":{"android":"levelo://app?vid=60fef6dc-fd17-4a75-897f-f130f5dc46aa","ios":"levelo://app?vid=60fef6dc-fd17-4a75-897f-f130f5dc46aa"},"vehicle_type_id":"4","last_reported":1752271816,"current_range_meters":6400,"station_id":"ce4bghh2rcd13ifvqb60","pricing_plan_id":"cebpf4jnsgd1na2vs0mg"},{"bike_id":"d6b609dd-cabd-4efa-8f23-61c1353a764b","system_id":"levelo_inurba_marseille","lat":43.28931,"lon":5.36661,"is_reserved":false,"is_disabled":false,"rental_uris":{"android":"levelo://app?vid=d6b609dd-cabd-4efa-8f23-61c1353a764b","ios":"levelo://app?vid=d6b609dd-cabd-4efa-8f23-61c1353a764b"},"vehicle_type_id":"4","last_reported":1752271816,"current_range_meters":7200,"station_id":"ce4bhap2rcd13ifvqek0","pricing_plan_id":"cebpf4jnsgd1na2vs0mg"},{"bike_id":"d8f33195-93cb-4919-8fab-bd796498b905","system_id":"levelo_inurba_marseille","lat":43.265578,"lon":5.390004,"is_reserved":false,"is_disabled":false,"rental_uris":{"android":"levelo://app?vid=d8f33195-93cb-4919-8fab-bd796498b905","ios":"levelo://app?vid=d8f33195-93cb-4919-8fab-bd796498b905"},"vehicle_type_id":"4","last_reported":1752271816,"current_range_meters":7200,"station_id":"ce4bhhp2rcd13ifvqfm0","pricing_plan_id":"cebpf4jnsgd1na2vs0mg"},{"bike_id":"826a84b9-564a-4eef-90d4-79bacd74a34b","system_id":"levelo_inurba_marseille","lat":43.29043,"lon":5.37172,"is_reserved":false,"is_disabled":false,"rental_uris":{"android":"levelo://app?vid=826a84b9-564a-4eef-90d4-79bacd74a34b","ios":"levelo://app?vid=826a84b9-564a-4eef-90d4-79bacd74a34b"},"vehicle_type_id":"4","last_reported":1752271816,"current_range_meters":8000,"station_id":"ce4bh5p2rcd13ifvqe4g","pricing_plan_id":"cebpf4jnsgd1na2vs0mg"},{"bike_id":"80572c0e-dd76-4996-8857-92f8eabf8fca","system_id":"levelo_inurba_marseille","lat":43.3107,"lon":5.38349,"is_reserved":false,"is_disabled":true,"rental_uris":{"android":"levelo://app?vid=80572c0e-dd76-4996-8857-92f8eabf8fca","ios":"levelo://app?vid=80572c0e-dd76-4996-8857-92f8eabf8fca"},"vehicle_type_id":"4","last_reported":1752271816,"current_range_meters":8000,"station_id":"ce4bgv92rcd13ifvqcr0","pricing_plan_id":"cebpf4jnsgd1na2vs0mg"},{"bike_id":"484af41b-54c1-47fb-961b-9b7dd97412d9","system_id":"levelo_inurba_marseille","lat":43.295265,"lon":5.385485,"is_reserved":false,"is_disabled":false,"rental_uris":{"android":"levelo://app?vid=484af41b-54c1-47fb-961b-9b7dd97412d9","ios":"levelo://app?vid=484af41b-54c1-47fb-961b-9b7dd97412d9"},"vehicle_type_id":"4","last_reported":1752271816,"current_range_meters":8000,"station_id":"ce4bgih2rcd13ifvqba0","pricing_plan_id":"cebpf4jnsgd1na2vs0mg"},{"bike_id":"38f01392-0cbb-403f-a4a8-8ce08b6fad27","system_id":"levelo_inurba_marseille","lat":43.297426,"lon":5.38123,"is_reserved":false,"is_disabled":false,"rental_uris":{"android":"levelo://app?vid=38f01392-0cbb-403f-a4a8-8ce08b6fad27","ios":"levelo://app?vid=38f01392-0cbb-403f-a4a8-8ce08b6fad27"},"vehicle_type_id":"4","last_reported":1752271816,"current_range_meters":8000,"station_id":"ce4bgip2rcd13ifvqbb0","pricing_plan_id":"cebpf4jnsgd1na2vs0mg"},{"bike_id":"ea7f713a-f8eb-4f16-8168-36d2161084e8","system_id":"levelo_inurba_marseille","lat":43.27869,"lon":5.39505,"is_reserved":false,"is_disabled":false,"rental_uris":{"android":"levelo://app?vid=ea7f713a-f8eb-4f16-8168-36d2161084e8","ios":"levelo://app?vid=ea7f713a-f8eb-4f16-8168-36d2161084e8"},"vehicle_type_id":"4","last_reported":1752271816,"current_range_meters":8400,"station_id":"","pricing_plan_id":"cebpf4jnsgd1na2vs0mg"},{"bike_id":"c32bb90b-a730-45fb-bcc2-70859a5f6835","system_id":"levelo_inurba_marseille","lat":43.24805,"lon":5.37459,"is_reserved":false,"is_disabled":false,"rental_uris":{"android":"levelo://app?vid=c32bb90b-a730-45fb-bcc2-70859a5f6835","ios":"levelo://app?vid=c32bb90b-a730-45fb-bcc2-70859a5f6835"},"vehicle_type_id":"4","last_reported":1752271816,"current_range_meters":6800,"station_id":"ce4bhgh2rcd13ifvqfb0","pricing_plan_id":"cebpf4jnsgd1na2vs0mg"},{"bike_id":"f6379f47-d054-43a8-bf41-72c2d3a2fa59","system_id":"levelo_inurba_marseille","lat":43.23964,"lon":5.36669,"is_reserved":false,"is_disabled":true,"rental_uris":{"android":"levelo://app?vid=f6379f47-d054-43a8-bf41-72c2d3a2fa59","ios":"levelo://app?vid=f6379f47-d054-43a8-bf41-72c2d3a2fa59"},"vehicle_type_id":"4","last_reported":1752271816,"current_range_meters":8400,"station_id":"ce4bhi12rcd13ifvqfp0","pricing_plan_id":"cebpf4jnsgd1na2vs0mg"},{"bike_id":"07330825-ed99-4d79-b83c-9b7206933da5","system_id":"levelo_inurba_marseille","lat":43.29974,"lon":5.37184,"is_reserved":false,"is_disabled":false,"rental_uris":{"android":"levelo://app?vid=07330825-ed99-4d79-b83c-9b7206933da5","ios":"levelo://app?vid=07330825-ed99-4d79-b83c-9b7206933da5"},"vehicle_type_id":"4","last_reported":1752271816,"current_range_meters":8400,"station_id":"ce4bgr92rcd13ifvqc7g","pricing_plan_id":"cebpf4jnsgd1na2vs0mg"},{"bike_id":"2711e2df-4467-499e-8fe3-b15ecca6968c","system_id":"levelo_inurba_marseille","lat":43.30685,"lon":5.40077,"is_reserved":false,"is_disabled":true,"rental_uris":{"android":"levelo://app?vid=2711e2df-4467-499e-8fe3-b15ecca6968c","ios":"levelo://app?vid=2711e2df-4467-499e-8fe3-b15ecca6968c"},"vehicle_type_id":"4","last_reported":1752271816,"current_range_meters":8400,"station_id":"","pricing_plan_id":"cebpf4jnsgd1na2vs0mg"},{"bike_id":"ac6fa144-a58e-4c9c-88eb-747201fb9c31","system_id":"levelo_inurba_marseille","lat":43.30783,"lon":5.39289,"is_reserved":false,"is_disabled":false,"rental_uris":{"android":"levelo://app?vid=ac6fa144-a58e-4c9c-88eb-747201fb9c31","ios":"levelo://app?vid=ac6fa144-a58e-4c9c-88eb-747201fb9c31"},"vehicle_type_id":"4","last_reported":1752271816,"current_range_meters":8400,"station_id":"","pricing_plan_id":"cebpf4jnsgd1na2vs0mg"},{"bike_id":"c168c4df-93fb-443f-8d95-5b5b2f62c16f","system_id":"levelo_inurba_marseille","lat":43.29269,"lon":5.36859,"is_reserved":false,"is_disabled":true,"rental_uris":{"android":"levelo://app?vid=c168c4df-93fb-443f-8d95-5b5b2f62c16f","ios":"levelo://app?vid=c168c4df-93fb-443f-8d95-5b5b2f62c16f"},"vehicle_type_id":"4","last_reported":1752271816,"current_range_meters":8400,"station_id":"ce4bhbp2rcd13ifvqesg","pricing_plan_id":"cebpf4jnsgd1na2vs0mg"},{"bike_id":"87cdf820-fb0e-45ca-a5dc-662e4973fa18","system_id":"levelo_inurba_marseille","lat":43.23179,"lon":5.39995,"is_reserved":false,"is_disabled":false,"rental_uris":{"android":"levelo://app?vid=87cdf820-fb0e-45ca-a5dc-662e4973fa18","ios":"levelo://app?vid=87cdf820-fb0e-45ca-a5dc-662e4973fa18"},"vehicle_type_id":"4","last_reported":1752271816,"current_range_meters":8400,"station_id":"ce4bhn12rcd13ifvqgqg","pricing_plan_id":"cebpf4jnsgd1na2vs0mg"},{"bike_id":"63c89cef-cfdf-4de8-b86e-bf96b6782371","system_id":"levelo_inurba_marseille","lat":43.29594,"lon":5.38106,"is_reserved":false,"is_disabled":false,"rental_uris":{"android":"levelo://app?vid=63c89cef-cfdf-4de8-b86e-bf96b6782371","ios":"levelo://app?vid=63c89cef-cfdf-4de8-b86e-bf96b6782371"},"vehicle_type_id":"4","last_reported":1752271816,"current_range_meters":8400,"station_id":"ce4bgl12rcd13ifvqbo0","pricing_plan_id":"cebpf4jnsgd1na2vs0mg"},{"bike_id":"b4544312-64e4-4dd2-bd6d-e1d3f6243b40","system_id":"levelo_inurba_marseille","lat":43.28829,"lon":5.38471,"is_reserved":false,"is_disabled":false,"rental_uris":{"android":"levelo://app?vid=b4544312-64e4-4dd2-bd6d-e1d3f6243b40","ios":"levelo://app?vid=b4544312-64e4-4dd2-bd6d-e1d3f6243b40"},"vehicle_type_id":"4","last_reported":1752271816,"current_range_meters":8400,"station_id":"","pricing_plan_id":"cebpf4jnsgd1na2vs0mg"},{"bike_id":"b84efe8f-b40a-4e55-b7c2-d1e60451fba9","system_id":"levelo_inurba_marseille","lat":43.30781,"lon":5.377028,"is_reserved":false,"is_disabled":false,"rental_uris":{"android":"levelo://app?vid=b84efe8f-b40a-4e55-b7c2-d1e60451fba9","ios":"levelo://app?vid=b84efe8f-b40a-4e55-b7c2-d1e60451fba9"},"vehicle_type_id":"4","last_reported":1752271816,"current_range_meters":8800,"station_id":"ce4bgv92rcd13ifvqcq0","pricing_plan_id":"cebpf4jnsgd1na2vs0mg"},{"bike_id":"59a2e80d-c8bf-4a6b-861f-210b18141119","system_id":"levelo_inurba_marseille","lat":43.29026,"lon":5.38652,"is_reserved":false,"is_disabled":false,"rental_uris":{"android":"levelo://app?vid=59a2e80d-c8bf-4a6b-861f-210b18141119","ios":"levelo://app?vid=59a2e80d-c8bf-4a6b-861f-210b18141119"},"vehicle_type_id":"4","last_reported":1752271816,"current_range_meters":8800,"station_id":"ce4bh4p2rcd13ifvqe0g","pricing_plan_id":"cebpf4jnsgd1na2vs0mg"},{"bike_id":"b20c9547-0449-4fae-95a6-a40a4508d54d","system_id":"levelo_inurba_marseille","lat":43.29689,"lon":5.37288,"is_reserved":false,"is_disabled":false,"rental_uris":{"android":"levelo://app?vid=b20c9547-0449-4fae-95a6-a40a4508d54d","ios":"levelo://app?vid=b20c9547-0449-4fae-95a6-a40a4508d54d"},"vehicle_type_id":"4","last_reported":1752271816,"current_range_meters":8800,"station_id":"ce4bgk12rcd13ifvqbj0","pricing_plan_id":"cebpf4jnsgd1na2vs0mg"},{"bike_id":"e50f1f13-e284-4118-b537-2c8e0ae92a8d","system_id":"levelo_inurba_marseille","lat":43.2953,"lon":5.3855,"is_reserved":false,"is_disabled":false,"rental_uris":{"android":"levelo://app?vid=e50f1f13-e284-4118-b537-2c8e0ae92a8d","ios":"levelo://app?vid=e50f1f13-e284-4118-b537-2c8e0ae92a8d"},"vehicle_type_id":"4","last_reported":1752271816,"current_range_meters":8800,"station_id":"ce4bgih2rcd13ifvqba0","pricing_plan_id":"cebpf4jnsgd1na2vs0mg"},{"bike_id":"32e17cee-0637-430b-a3ad-ebe78640ad83","system_id":"levelo_inurba_marseille","lat":43.289004,"lon":5.39509,"is_reserved":false,"is_disabled":false,"rental_uris":{"android":"levelo://app?vid=32e17cee-0637-430b-a3ad-ebe78640ad83","ios":"levelo://app?vid=32e17cee-0637-430b-a3ad-ebe78640ad83"},"vehicle_type_id":"4","last_reported":1752271816,"current_range_meters":9200,"station_id":"ce4bh392rcd13ifvqdm0","pricing_plan_id":"cebpf4jnsgd1na2vs0mg"},{"bike_id":"a259e39e-0666-4dee-aa02-5b472bfbb7b0","system_id":"levelo_inurba_marseille","lat":43.3012,"lon":5.39849,"is_reserved":false,"is_disabled":false,"rental_uris":{"android":"levelo://app?vid=a259e39e-0666-4dee-aa02-5b472bfbb7b0","ios":"levelo://app?vid=a259e39e-0666-4dee-aa02-5b472bfbb7b0"},"vehicle_type_id":"4","last_reported":1752271816,"current_range_meters":9200,"station_id":"ce4bh0h2rcd13ifvqd40","pricing_plan_id":"cebpf4jnsgd1na2vs0mg"},{"bike_id":"cb30c985-f90a-4db9-81ce-e904612c6c07","system_id":"levelo_inurba_marseille","lat":43.25582,"lon":5.38234,"is_reserved":false,"is_disabled":false,"rental_uris":{"android":"levelo://app?vid=cb30c985-f90a-4db9-81ce-e904612c6c07","ios":"levelo://app?vid=cb30c985-f90a-4db9-81ce-e904612c6c07"},"vehicle_type_id":"4","last_reported":1752271816,"current_range_meters":9200,"station_id":"ce4bhih2rcd13ifvqfs0","pricing_plan_id":"cebpf4jnsgd1na2vs0mg"},{"bike_id":"1d8f8fe0-c372-483d-8158-38af6c63c313","system_id":"levelo_inurba_marseille","lat":43.30441,"lon":5.3889,"is_reserved":false,"is_disabled":false,"rental_uris":{"android":"levelo://app?vid=1d8f8fe0-c372-483d-8158-38af6c63c313","ios":"levelo://app?vid=1d8f8fe0-c372-483d-8158-38af6c63c313"},"vehicle_type_id":"4","last_reported":1752271816,"current_range_meters":9200,"station_id":"ce4bgk12rcd13ifvqbi0","pricing_plan_id":"cebpf4jnsgd1na2vs0mg"},{"bike_id":"90323410-6386-4161-babf-c5c508ab6588","system_id":"levelo_inurba_marseille","lat":43.2743,"lon":5.39423,"is_reserved":false,"is_disabled":false,"rental_uris":{"android":"levelo://app?vid=90323410-6386-4161-babf-c5c508ab6588","ios":"levelo://app?vid=90323410-6386-4161-babf-c5c508ab6588"},"vehicle_type_id":"4","last_reported":1752271816,"current_range_meters":9200,"station_id":"ce4bhdp2rcd13ifvqf20","pricing_plan_id":"cebpf4jnsgd1na2vs0mg"},{"bike_id":"4e209b0c-855f-4b51-8120-2faef8673853","system_id":"levelo_inurba_marseille","lat":43.30593,"lon":5.3689,"is_reserved":false,"is_disabled":false,"rental_uris":{"android":"levelo://app?vid=4e209b0c-855f-4b51-8120-2faef8673853","ios":"levelo://app?vid=4e209b0c-855f-4b51-8120-2faef8673853"},"vehicle_type_id":"4","last_reported":1752271816,"current_range_meters":9200,"station_id":"","pricing_plan_id":"cebpf4jnsgd1na2vs0mg"},{"bike_id":"02a04501-b5df-4107-b6b8-4e413e84c827","system_id":"levelo_inurba_marseille","lat":43.27166,"lon":5.40995,"is_reserved":false,"is_disabled":false,"rental_uris":{"android":"levelo://app?vid=02a04501-b5df-4107-b6b8-4e413e84c827","ios":"levelo://app?vid=02a04501-b5df-4107-b6b8-4e413e84c827"},"vehicle_type_id":"4","last_reported":1752271816,"current_range_meters":9600,"station_id":"ce4bhl12rcd13ifvqgf0","pricing_plan_id":"cebpf4jnsgd1na2vs0mg"},{"bike_id":"a5ad5c41-db67-4c05-9d04-9b7351b83e54","system_id":"levelo_inurba_marseille","lat":43.29538,"lon":5.38538,"is_reserved":false,"is_disabled":false,"rental_uris":{"android":"levelo://app?vid=a5ad5c41-db67-4c05-9d04-9b7351b83e54","ios":"levelo://app?vid=a5ad5c41-db67-4c05-9d04-9b7351b83e54"},"vehicle_type_id":"4","last_reported":1752271816,"current_range_meters":9600,"station_id":"ce4bgih2rcd13ifvqba0","pricing_plan_id":"cebpf4jnsgd1na2vs0mg"},{"bike_id":"95dc54ea-46c3-4487-84bf-1afbe9147869","system_id":"levelo_inurba_marseille","lat":43.31343,"lon":5.38502,"is_reserved":false,"is_disabled":false,"rental_uris":{"android":"levelo://app?vid=95dc54ea-46c3-4487-84bf-1afbe9147869","ios":"levelo://app?vid=95dc54ea-46c3-4487-84bf-1afbe9147869"},"vehicle_type_id":"4","last_reported":1752271816,"current_range_meters":9600,"station_id":"ce4bgt92rcd13ifvqcf0","pricing_plan_id":"cebpf4jnsgd1na2vs0mg"},{"bike_id":"a7d71d19-f9e5-4dc8-84b7-1e5989d30a59","system_id":"levelo_inurba_marseille","lat":43.29256,"lon":5.38447,"is_reserved":false,"is_disabled":false,"rental_uris":{"android":"levelo://app?vid=a7d71d19-f9e5-4dc8-84b7-1e5989d30a59","ios":"levelo://app?vid=a7d71d19-f9e5-4dc8-84b7-1e5989d30a59"},"vehicle_type_id":"4","last_reported":1752271816,"current_range_meters":9600,"station_id":"ce4bh692rcd13ifvqea0","pricing_plan_id":"cebpf4jnsgd1na2vs0mg"},{"bike_id":"5a28472d-f80e-4015-80ff-44cee0a4152c","system_id":"levelo_inurba_marseille","lat":43.29938,"lon":5.36561,"is_reserved":false,"is_disabled":false,"rental_uris":{"android":"levelo://app?vid=5a28472d-f80e-4015-80ff-44cee0a4152c","ios":"levelo://app?vid=5a28472d-f80e-4015-80ff-44cee0a4152c"},"vehicle_type_id":"4","last_reported":1752271816,"current_range_meters":9600,"station_id":"ce4bgm92rcd13ifvqbr0","pricing_plan_id":"cebpf4jnsgd1na2vs0mg"},{"bike_id":"ac9edd8f-2e4f-4c31-8f3c-3c983251ba1e","system_id":"levelo_inurba_marseille","lat":43.29028,"lon":5.38647,"is_reserved":false,"is_disabled":false,"rental_uris":{"android":"levelo://app?vid=ac9edd8f-2e4f-4c31-8f3c-3c983251ba1e","ios":"levelo://app?vid=ac9edd8f-2e4f-4c31-8f3c-3c983251ba1e"},"vehicle_type_id":"4","last_reported":1752271816,"current_range_meters":9600,"station_id":"ce4bh4p2rcd13ifvqe0g","pricing_plan_id":"cebpf4jnsgd1na2vs0mg"},{"bike_id":"fab33990-a786-445e-9523-e9b95bbf1c3f","system_id":"levelo_inurba_marseille","lat":43.305285,"lon":5.384375,"is_reserved":false,"is_disabled":false,"rental_uris":{"android":"levelo://app?vid=fab33990-a786-445e-9523-e9b95bbf1c3f","ios":"levelo://app?vid=fab33990-a786-445e-9523-e9b95bbf1c3f"},"vehicle_type_id":"4","last_reported":1752271816,"current_range_meters":9600,"station_id":"ce4bgg92rcd13ifvqb30","pricing_plan_id":"cebpf4jnsgd1na2vs0mg"},{"bike_id":"441b79d5-77e2-4b78-96b0-3c288b7605b0","system_id":"levelo_inurba_marseille","lat":43.30301,"lon":5.39215,"is_reserved":false,"is_disabled":false,"rental_uris":{"android":"levelo://app?vid=441b79d5-77e2-4b78-96b0-3c288b7605b0","ios":"levelo://app?vid=441b79d5-77e2-4b78-96b0-3c288b7605b0"},"vehicle_type_id":"4","last_reported":1752271816,"current_range_meters":9600,"station_id":"ce4bgkh2rcd13ifvqbk0","pricing_plan_id":"cebpf4jnsgd1na2vs0mg"},{"bike_id":"aeafc7f8-91bb-477f-9a76-4adaf46e90b5","system_id":"levelo_inurba_marseille","lat":43.3064,"lon":5.40111,"is_reserved":false,"is_disabled":false,"rental_uris":{"android":"levelo://app?vid=aeafc7f8-91bb-477f-9a76-4adaf46e90b5","ios":"levelo://app?vid=aeafc7f8-91bb-477f-9a76-4adaf46e90b5"},"vehicle_type_id":"4","last_reported":1752271816,"current_range_meters":9200,"station_id":"ce4bh112rcd13ifvqda0","pricing_plan_id":"cebpf4jnsgd1na2vs0mg"},{"bike_id":"6b53f7a8-29e4-461f-9b40-530c044ea943","system_id":"levelo_inurba_marseille","lat":43.30087,"lon":5.39081,"is_reserved":false,"is_disabled":false,"rental_uris":{"android":"levelo://app?vid=6b53f7a8-29e4-461f-9b40-530c044ea943","ios":"levelo://app?vid=6b53f7a8-29e4-461f-9b40-530c044ea943"},"vehicle_type_id":"4","last_reported":1752271816,"current_range_meters":9600,"station_id":"ce4bh192rcd13ifvqdb0","pricing_plan_id":"cebpf4jnsgd1na2vs0mg"},{"bike_id":"39dff95f-e01e-4866-ac67-548bdfdef945","system_id":"levelo_inurba_marseille","lat":43.30094,"lon":5.39069,"is_reserved":false,"is_disabled":false,"rental_uris":{"android":"levelo://app?vid=39dff95f-e01e-4866-ac67-548bdfdef945","ios":"levelo://app?vid=39dff95f-e01e-4866-ac67-548bdfdef945"},"vehicle_type_id":"4","last_reported":1752271816,"current_range_meters":9600,"station_id":"ce4bh192rcd13ifvqdb0","pricing_plan_id":"cebpf4jnsgd1na2vs0mg"},{"bike_id":"0297537f-91b5-4de2-b0b0-4fc60794574e","system_id":"levelo_inurba_marseille","lat":43.31365,"lon":5.38506,"is_reserved":false,"is_disabled":false,"rental_uris":{"android":"levelo://app?vid=0297537f-91b5-4de2-b0b0-4fc60794574e","ios":"levelo://app?vid=0297537f-91b5-4de2-b0b0-4fc60794574e"},"vehicle_type_id":"4","last_reported":1752271816,"current_range_meters":9600,"station_id":"ce4bgt92rcd13ifvqcf0","pricing_plan_id":"cebpf4jnsgd1na2vs0mg"},{"bike_id":"5a7b57ef-a00d-4d19-853c-d49c119db95f","system_id":"levelo_inurba_marseille","lat":43.24566,"lon":5.3734,"is_reserved":false,"is_disabled":true,"rental_uris":{"android":"levelo://app?vid=5a7b57ef-a00d-4d19-853c-d49c119db95f","ios":"levelo://app?vid=5a7b57ef-a00d-4d19-853c-d49c119db95f"},"vehicle_type_id":"4","last_reported":1752271816,"current_range_meters":10000,"station_id":"","pricing_plan_id":"cebpf4jnsgd1na2vs0mg"},{"bike_id":"8330a68f-2f6e-4337-9657-35d7d87c04ca","system_id":"levelo_inurba_marseille","lat":43.25451,"lon":5.37946,"is_reserved":false,"is_disabled":false,"rental_uris":{"android":"levelo://app?vid=8330a68f-2f6e-4337-9657-35d7d87c04ca","ios":"levelo://app?vid=8330a68f-2f6e-4337-9657-35d7d87c04ca"},"vehicle_type_id":"4","last_reported":1752271816,"current_range_meters":10000,"station_id":"","pricing_plan_id":"cebpf4jnsgd1na2vs0mg"},{"bike_id":"e83614b7-1234-4bc3-b14a-b5635492649e","system_id":"levelo_inurba_marseille","lat":43.28653,"lon":5.38496,"is_reserved":false,"is_disabled":false,"rental_uris":{"android":"levelo://app?vid=e83614b7-1234-4bc3-b14a-b5635492649e","ios":"levelo://app?vid=e83614b7-1234-4bc3-b14a-b5635492649e"},"vehicle_type_id":"4","last_reported":1752271816,"current_range_meters":10000,"station_id":"","pricing_plan_id":"cebpf4jnsgd1na2vs0mg"},{"bike_id":"d58ddfe7-3d88-4629-a5a6-3e2f223310b6","system_id":"levelo_inurba_marseille","lat":43.29546,"lon":5.37493,"is_reserved":false,"is_disabled":false,"rental_uris":{"android":"levelo://app?vid=d58ddfe7-3d88-4629-a5a6-3e2f223310b6","ios":"levelo://app?vid=d58ddfe7-3d88-4629-a5a6-3e2f223310b6"},"vehicle_type_id":"4","last_reported":1752271816,"current_range_meters":10000,"station_id":"ce4bgkh2rcd13ifvqbl0","pricing_plan_id":"cebpf4jnsgd1na2vs0mg"},{"bike_id":"4948f761-0b1f-4c54-8188-2de91ebdb20a","system_id":"levelo_inurba_marseille","lat":43.29537,"lon":5.38552,"is_reserved":false,"is_disabled":false,"rental_uris":{"android":"levelo://app?vid=4948f761-0b1f-4c54-8188-2de91ebdb20a","ios":"levelo://app?vid=4948f761-0b1f-4c54-8188-2de91ebdb20a"},"vehicle_type_id":"4","last_reported":1752271816,"current_range_meters":10000,"station_id":"ce4bgih2rcd13ifvqba0","pricing_plan_id":"cebpf4jnsgd1na2vs0mg"},{"bike_id":"534ed68d-5ceb-43a8-968b-be30f01dfa74","system_id":"levelo_inurba_marseille","lat":43.28207,"lon":5.3905,"is_reserved":false,"is_disabled":true,"rental_uris":{"android":"levelo://app?vid=534ed68d-5ceb-43a8-968b-be30f01dfa74","ios":"levelo://app?vid=534ed68d-5ceb-43a8-968b-be30f01dfa74"},"vehicle_type_id":"4","last_reported":1752271816,"current_range_meters":10800,"station_id":"","pricing_plan_id":"cebpf4jnsgd1na2vs0mg"},{"bike_id":"442a8b44-0ac7-4433-8921-d37f0e3db167","system_id":"levelo_inurba_marseille","lat":43.30643,"lon":5.40085,"is_reserved":false,"is_disabled":false,"rental_uris":{"android":"levelo://app?vid=442a8b44-0ac7-4433-8921-d37f0e3db167","ios":"levelo://app?vid=442a8b44-0ac7-4433-8921-d37f0e3db167"},"vehicle_type_id":"4","last_reported":1752271816,"current_range_meters":10800,"station_id":"ce4bh112rcd13ifvqda0","pricing_plan_id":"cebpf4jnsgd1na2vs0mg"},{"bike_id":"b2be30fb-25de-4ba2-90f4-df7253b4a8dc","system_id":"levelo_inurba_marseille","lat":43.2953,"lon":5.385427,"is_reserved":false,"is_disabled":false,"rental_uris":{"android":"levelo://app?vid=b2be30fb-25de-4ba2-90f4-df7253b4a8dc","ios":"levelo://app?vid=b2be30fb-25de-4ba2-90f4-df7253b4a8dc"},"vehicle_type_id":"4","last_reported":1752271816,"current_range_meters":10800,"station_id":"ce4bgih2rcd13ifvqba0","pricing_plan_id":"cebpf4jnsgd1na2vs0mg"},{"bike_id":"6f85eea1-7776-426d-94c2-377eaa29ad1e","system_id":"levelo_inurba_marseille","lat":43.30788,"lon":5.38165,"is_reserved":false,"is_disabled":false,"rental_uris":{"android":"levelo://app?vid=6f85eea1-7776-426d-94c2-377eaa29ad1e","ios":"levelo://app?vid=6f85eea1-7776-426d-94c2-377eaa29ad1e"},"vehicle_type_id":"4","last_reported":1752271816,"current_range_meters":10800,"station_id":"ce4bgt12rcd13ifvqce0","pricing_plan_id":"cebpf4jnsgd1na2vs0mg"},{"bike_id":"33ab2b3b-e110-46f8-bae0-cfb13654c964","system_id":"levelo_inurba_marseille","lat":43.280906,"lon":5.399502,"is_reserved":false,"is_disabled":false,"rental_uris":{"android":"levelo://app?vid=33ab2b3b-e110-46f8-bae0-cfb13654c964","ios":"levelo://app?vid=33ab2b3b-e110-46f8-bae0-cfb13654c964"},"vehicle_type_id":"4","last_reported":1752271816,"current_range_meters":10800,"station_id":"ce4bh292rcd13ifvqdg0","pricing_plan_id":"cebpf4jnsgd1na2vs0mg"},{"bike_id":"01fbd4cb-73f8-49c4-b52c-1f6b3107ec69","system_id":"levelo_inurba_marseille","lat":43.28676,"lon":5.38665,"is_reserved":false,"is_disabled":false,"rental_uris":{"android":"levelo://app?vid=01fbd4cb-73f8-49c4-b52c-1f6b3107ec69","ios":"levelo://app?vid=01fbd4cb-73f8-49c4-b52c-1f6b3107ec69"},"vehicle_type_id":"4","last_reported":1752271816,"current_range_meters":10800,"station_id":"ce4bh492rcd13ifvqdug","pricing_plan_id":"cebpf4jnsgd1na2vs0mg"},{"bike_id":"d79ea3e9-1b7f-4bf1-b17e-a6cd61f7fbd3","system_id":"levelo_inurba_marseille","lat":43.28491,"lon":5.38392,"is_reserved":false,"is_disabled":false,"rental_uris":{"android":"levelo://app?vid=d79ea3e9-1b7f-4bf1-b17e-a6cd61f7fbd3","ios":"levelo://app?vid=d79ea3e9-1b7f-4bf1-b17e-a6cd61f7fbd3"},"vehicle_type_id":"4","last_reported":1752271816,"current_range_meters":10800,"station_id":"ce4bh512rcd13ifvqe3g","pricing_plan_id":"cebpf4jnsgd1na2vs0mg"},{"bike_id":"1797e06b-d9e5-4fb7-be0f-8230d778970b","system_id":"levelo_inurba_marseille","lat":43.29265,"lon":5.36849,"is_reserved":false,"is_disabled":true,"rental_uris":{"android":"levelo://app?vid=1797e06b-d9e5-4fb7-be0f-8230d778970b","ios":"levelo://app?vid=1797e06b-d9e5-4fb7-be0f-8230d778970b"},"vehicle_type_id":"4","last_reported":1752271816,"current_range_meters":10800,"station_id":"ce4bhbp2rcd13ifvqesg","pricing_plan_id":"cebpf4jnsgd1na2vs0mg"},{"bike_id":"fbbf9181-f297-4838-a169-0f219a2cb86e","system_id":"levelo_inurba_marseille","lat":43.29032,"lon":5.38651,"is_reserved":false,"is_disabled":false,"rental_uris":{"android":"levelo://app?vid=fbbf9181-f297-4838-a169-0f219a2cb86e","ios":"levelo://app?vid=fbbf9181-f297-4838-a169-0f219a2cb86e"},"vehicle_type_id":"4","last_reported":1752271816,"current_range_meters":10800,"station_id":"ce4bh4p2rcd13ifvqe0g","pricing_plan_id":"cebpf4jnsgd1na2vs0mg"},{"bike_id":"12962c22-c999-46c4-b70d-26925ea9fc72","system_id":"levelo_inurba_marseille","lat":43.29722,"lon":5.38423,"is_reserved":false,"is_disabled":false,"rental_uris":{"android":"levelo://app?vid=12962c22-c999-46c4-b70d-26925ea9fc72","ios":"levelo://app?vid=12962c22-c999-46c4-b70d-26925ea9fc72"},"vehicle_type_id":"4","last_reported":1752271816,"current_range_meters":10800,"station_id":"","pricing_plan_id":"cebpf4jnsgd1na2vs0mg"},{"bike_id":"cc11c0d9-218f-4a52-a391-377fdc3b0536","system_id":"levelo_inurba_marseille","lat":43.29532,"lon":5.39026,"is_reserved":false,"is_disabled":false,"rental_uris":{"android":"levelo://app?vid=cc11c0d9-218f-4a52-a391-377fdc3b0536","ios":"levelo://app?vid=cc11c0d9-218f-4a52-a391-377fdc3b0536"},"vehicle_type_id":"4","last_reported":1752271816,"current_range_meters":10800,"station_id":"ce4bh3p2rcd13ifvqdp0","pricing_plan_id":"cebpf4jnsgd1na2vs0mg"},{"bike_id":"2bd1f79e-be22-4898-8416-f292f7698a15","system_id":"levelo_inurba_marseille","lat":43.29276,"lon":5.38438,"is_reserved":false,"is_disabled":false,"rental_uris":{"android":"levelo://app?vid=2bd1f79e-be22-4898-8416-f292f7698a15","ios":"levelo://app?vid=2bd1f79e-be22-4898-8416-f292f7698a15"},"vehicle_type_id":"4","last_reported":1752271816,"current_range_meters":10800,"station_id":"ce4bh692rcd13ifvqea0","pricing_plan_id":"cebpf4jnsgd1na2vs0mg"},{"bike_id":"39a9b5e6-3b40-48af-8092-556a533b8434","system_id":"levelo_inurba_marseille","lat":43.2656,"lon":5.37309,"is_reserved":false,"is_disabled":false,"rental_uris":{"android":"levelo://app?vid=39a9b5e6-3b40-48af-8092-556a533b8434","ios":"levelo://app?vid=39a9b5e6-3b40-48af-8092-556a533b8434"},"vehicle_type_id":"4","last_reported":1752271816,"current_range_meters":11200,"station_id":"ce4bhg12rcd13ifvqf70","pricing_plan_id":"cebpf4jnsgd1na2vs0mg"},{"bike_id":"6145e0d4-1b01-4570-bfd0-4fe34ecb56a5","system_id":"levelo_inurba_marseille","lat":43.28436,"lon":5.39199,"is_reserved":false,"is_disabled":false,"rental_uris":{"android":"levelo://app?vid=6145e0d4-1b01-4570-bfd0-4fe34ecb56a5","ios":"levelo://app?vid=6145e0d4-1b01-4570-bfd0-4fe34ecb56a5"},"vehicle_type_id":"4","last_reported":1752271816,"current_range_meters":11200,"station_id":"ce4bhoh2rcd13ifvqh5g","pricing_plan_id":"cebpf4jnsgd1na2vs0mg"},{"bike_id":"82fd5266-f9c3-4c20-aadd-55cc84a52f9a","system_id":"levelo_inurba_marseille","lat":43.29261,"lon":5.38442,"is_reserved":false,"is_disabled":false,"rental_uris":{"android":"levelo://app?vid=82fd5266-f9c3-4c20-aadd-55cc84a52f9a","ios":"levelo://app?vid=82fd5266-f9c3-4c20-aadd-55cc84a52f9a"},"vehicle_type_id":"4","last_reported":1752271816,"current_range_meters":11200,"station_id":"ce4bh692rcd13ifvqea0","pricing_plan_id":"cebpf4jnsgd1na2vs0mg"},{"bike_id":"d849a247-c2c0-4619-bac8-f5a6994e0014","system_id":"levelo_inurba_marseille","lat":43.32051,"lon":5.41577,"is_reserved":false,"is_disabled":true,"rental_uris":{"android":"levelo://app?vid=d849a247-c2c0-4619-bac8-f5a6994e0014","ios":"levelo://app?vid=d849a247-c2c0-4619-bac8-f5a6994e0014"},"vehicle_type_id":"4","last_reported":1752271816,"current_range_meters":11200,"station_id":"ce4bhq92rcd13ifvqhkg","pricing_plan_id":"cebpf4jnsgd1na2vs0mg"},{"bike_id":"f4416027-e963-4c80-b245-a13d63ab71b8","system_id":"levelo_inurba_marseille","lat":43.30242,"lon":5.40051,"is_reserved":false,"is_disabled":false,"rental_uris":{"android":"levelo://app?vid=f4416027-e963-4c80-b245-a13d63ab71b8","ios":"levelo://app?vid=f4416027-e963-4c80-b245-a13d63ab71b8"},"vehicle_type_id":"4","last_reported":1752271816,"current_range_meters":11200,"station_id":"ce4bgvh2rcd13ifvqcs0","pricing_plan_id":"cebpf4jnsgd1na2vs0mg"},{"bike_id":"f166470a-6c77-467a-a537-4628500c78ad","system_id":"levelo_inurba_marseille","lat":43.29787,"lon":5.3709,"is_reserved":false,"is_disabled":false,"rental_uris":{"android":"levelo://app?vid=f166470a-6c77-467a-a537-4628500c78ad","ios":"levelo://app?vid=f166470a-6c77-467a-a537-4628500c78ad"},"vehicle_type_id":"4","last_reported":1752271816,"current_range_meters":11600,"station_id":"ce4bgop2rcd13ifvqc1g","pricing_plan_id":"cebpf4jnsgd1na2vs0mg"},{"bike_id":"f65ed7b3-6947-46fc-82a7-3ba3d3d18c0d","system_id":"levelo_inurba_marseille","lat":43.27915,"lon":5.39579,"is_reserved":false,"is_disabled":false,"rental_uris":{"android":"levelo://app?vid=f65ed7b3-6947-46fc-82a7-3ba3d3d18c0d","ios":"levelo://app?vid=f65ed7b3-6947-46fc-82a7-3ba3d3d18c0d"},"vehicle_type_id":"4","last_reported":1752271816,"current_range_meters":11600,"station_id":"ce4bhf92rcd13ifvqf40","pricing_plan_id":"cebpf4jnsgd1na2vs0mg"},{"bike_id":"87739591-8232-496e-ba38-9e5d4ea6645b","system_id":"levelo_inurba_marseille","lat":43.29263,"lon":5.40899,"is_reserved":false,"is_disabled":false,"rental_uris":{"android":"levelo://app?vid=87739591-8232-496e-ba38-9e5d4ea6645b","ios":"levelo://app?vid=87739591-8232-496e-ba38-9e5d4ea6645b"},"vehicle_type_id":"4","last_reported":1752271816,"current_range_meters":11600,"station_id":"ce4bh192rcd13ifvqdc0","pricing_plan_id":"cebpf4jnsgd1na2vs0mg"},{"bike_id":"6e44525d-ed45-445a-a877-081b94eb5813","system_id":"levelo_inurba_marseille","lat":43.30353,"lon":5.41888,"is_reserved":false,"is_disabled":true,"rental_uris":{"android":"levelo://app?vid=6e44525d-ed45-445a-a877-081b94eb5813","ios":"levelo://app?vid=6e44525d-ed45-445a-a877-081b94eb5813"},"vehicle_type_id":"4","last_reported":1752271816,"current_range_meters":11600,"station_id":"ce4bhop2rcd13ifvqh7g","pricing_plan_id":"cebpf4jnsgd1na2vs0mg"},{"bike_id":"bb4ff68d-1098-4577-ae35-5dfa8158f1a5","system_id":"levelo_inurba_marseille","lat":43.31994,"lon":5.38175,"is_reserved":false,"is_disabled":false,"rental_uris":{"android":"levelo://app?vid=bb4ff68d-1098-4577-ae35-5dfa8158f1a5","ios":"levelo://app?vid=bb4ff68d-1098-4577-ae35-5dfa8158f1a5"},"vehicle_type_id":"4","last_reported":1752271816,"current_range_meters":11600,"station_id":"ce4bhr12rcd13ifvqhpg","pricing_plan_id":"cebpf4jnsgd1na2vs0mg"},{"bike_id":"378e2d70-a5cb-46b0-a3cb-301d4e4598b8","system_id":"levelo_inurba_marseille","lat":43.29262,"lon":5.38438,"is_reserved":false,"is_disabled":false,"rental_uris":{"android":"levelo://app?vid=378e2d70-a5cb-46b0-a3cb-301d4e4598b8","ios":"levelo://app?vid=378e2d70-a5cb-46b0-a3cb-301d4e4598b8"},"vehicle_type_id":"4","last_reported":1752271816,"current_range_meters":12000,"station_id":"ce4bh692rcd13ifvqea0","pricing_plan_id":"cebpf4jnsgd1na2vs0mg"},{"bike_id":"3c36999d-a1e3-413b-8441-bbc4415482ee","system_id":"levelo_inurba_marseille","lat":43.28841,"lon":5.39313,"is_reserved":false,"is_disabled":false,"rental_uris":{"android":"levelo://app?vid=3c36999d-a1e3-413b-8441-bbc4415482ee","ios":"levelo://app?vid=3c36999d-a1e3-413b-8441-bbc4415482ee"},"vehicle_type_id":"4","last_reported":1752271816,"current_range_meters":12000,"station_id":"ce4bh2p2rcd13ifvqdi0","pricing_plan_id":"cebpf4jnsgd1na2vs0mg"},{"bike_id":"6bb7937c-e6c5-45e2-bd92-fade593d2f3c","system_id":"levelo_inurba_marseille","lat":43.25088,"lon":5.39521,"is_reserved":false,"is_disabled":false,"rental_uris":{"android":"levelo://app?vid=6bb7937c-e6c5-45e2-bd92-fade593d2f3c","ios":"levelo://app?vid=6bb7937c-e6c5-45e2-bd92-fade593d2f3c"},"vehicle_type_id":"4","last_reported":1752271816,"current_range_meters":12000,"station_id":"ce4bhm12rcd13ifvqgkg","pricing_plan_id":"cebpf4jnsgd1na2vs0mg"},{"bike_id":"7392143f-a48d-4d17-918a-2d49b0cf2786","system_id":"levelo_inurba_marseille","lat":43.31721,"lon":5.40455,"is_reserved":false,"is_disabled":true,"rental_uris":{"android":"levelo://app?vid=7392143f-a48d-4d17-918a-2d49b0cf2786","ios":"levelo://app?vid=7392143f-a48d-4d17-918a-2d49b0cf2786"},"vehicle_type_id":"4","last_reported":1752271816,"current_range_meters":12000,"station_id":"ce4bh012rcd13ifvqd00","pricing_plan_id":"cebpf4jnsgd1na2vs0mg"},{"bike_id":"4d4b9e28-a4f6-4d45-ac6b-64a63a768bd8","system_id":"levelo_inurba_marseille","lat":43.3151,"lon":5.37414,"is_reserved":false,"is_disabled":false,"rental_uris":{"android":"levelo://app?vid=4d4b9e28-a4f6-4d45-ac6b-64a63a768bd8","ios":"levelo://app?vid=4d4b9e28-a4f6-4d45-ac6b-64a63a768bd8"},"vehicle_type_id":"4","last_reported":1752271816,"current_range_meters":12400,"station_id":"","pricing_plan_id":"cebpf4jnsgd1na2vs0mg"},{"bike_id":"5076ad93-b7e2-4902-b566-655c2183f3e6","system_id":"levelo_inurba_marseille","lat":43.27947,"lon":5.38705,"is_reserved":false,"is_disabled":true,"rental_uris":{"android":"levelo://app?vid=5076ad93-b7e2-4902-b566-655c2183f3e6","ios":"levelo://app?vid=5076ad93-b7e2-4902-b566-655c2183f3e6"},"vehicle_type_id":"4","last_reported":1752271816,"current_range_meters":12400,"station_id":"ce4bhg12rcd13ifvqf80","pricing_plan_id":"cebpf4jnsgd1na2vs0mg"},{"bike_id":"595e9351-a7ce-45de-8995-771f7d9fe86e","system_id":"levelo_inurba_marseille","lat":43.309243,"lon":5.378088,"is_reserved":false,"is_disabled":false,"rental_uris":{"android":"levelo://app?vid=595e9351-a7ce-45de-8995-771f7d9fe86e","ios":"levelo://app?vid=595e9351-a7ce-45de-8995-771f7d9fe86e"},"vehicle_type_id":"4","last_reported":1752271816,"current_range_meters":12400,"station_id":"","pricing_plan_id":"cebpf4jnsgd1na2vs0mg"},{"bike_id":"c35d1d43-a468-40f4-912a-23ac241ccd25","system_id":"levelo_inurba_marseille","lat":43.25575,"lon":5.38231,"is_reserved":false,"is_disabled":false,"rental_uris":{"android":"levelo://app?vid=c35d1d43-a468-40f4-912a-23ac241ccd25","ios":"levelo://app?vid=c35d1d43-a468-40f4-912a-23ac241ccd25"},"vehicle_type_id":"4","last_reported":1752271816,"current_range_meters":12400,"station_id":"ce4bhih2rcd13ifvqfs0","pricing_plan_id":"cebpf4jnsgd1na2vs0mg"},{"bike_id":"aadd4d9d-97a7-4e9b-bf52-e18b1d1cb6b4","system_id":"levelo_inurba_marseille","lat":43.3074,"lon":5.38316,"is_reserved":false,"is_disabled":false,"rental_uris":{"android":"levelo://app?vid=aadd4d9d-97a7-4e9b-bf52-e18b1d1cb6b4","ios":"levelo://app?vid=aadd4d9d-97a7-4e9b-bf52-e18b1d1cb6b4"},"vehicle_type_id":"4","last_reported":1752271816,"current_range_meters":12400,"station_id":"ce4bgt12rcd13ifvqce0","pricing_plan_id":"cebpf4jnsgd1na2vs0mg"},{"bike_id":"4535882f-11a2-419f-8c3f-6261df07adfe","system_id":"levelo_inurba_marseille","lat":43.28682,"lon":5.39971,"is_reserved":false,"is_disabled":false,"rental_uris":{"android":"levelo://app?vid=4535882f-11a2-419f-8c3f-6261df07adfe","ios":"levelo://app?vid=4535882f-11a2-419f-8c3f-6261df07adfe"},"vehicle_type_id":"4","last_reported":1752271816,"current_range_meters":12400,"station_id":"ce4bho92rcd13ifvqh3g","pricing_plan_id":"cebpf4jnsgd1na2vs0mg"},{"bike_id":"32817bc4-7942-4a58-8840-871daf7bccea","system_id":"levelo_inurba_marseille","lat":43.29257,"lon":5.38436,"is_reserved":false,"is_disabled":false,"rental_uris":{"android":"levelo://app?vid=32817bc4-7942-4a58-8840-871daf7bccea","ios":"levelo://app?vid=32817bc4-7942-4a58-8840-871daf7bccea"},"vehicle_type_id":"4","last_reported":1752271816,"current_range_meters":12400,"station_id":"ce4bh692rcd13ifvqea0","pricing_plan_id":"cebpf4jnsgd1na2vs0mg"},{"bike_id":"23482251-93e5-4f04-b764-ff947fe5bdba","system_id":"levelo_inurba_marseille","lat":43.337444,"lon":5.374475,"is_reserved":false,"is_disabled":false,"rental_uris":{"android":"levelo://app?vid=23482251-93e5-4f04-b764-ff947fe5bdba","ios":"levelo://app?vid=23482251-93e5-4f04-b764-ff947fe5bdba"},"vehicle_type_id":"4","last_reported":1752271816,"current_range_meters":12800,"station_id":"","pricing_plan_id":"cebpf4jnsgd1na2vs0mg"},{"bike_id":"fd9f5c27-5d58-42e5-badc-a12a0344229e","system_id":"levelo_inurba_marseille","lat":43.28909,"lon":5.36072,"is_reserved":false,"is_disabled":false,"rental_uris":{"android":"levelo://app?vid=fd9f5c27-5d58-42e5-badc-a12a0344229e","ios":"levelo://app?vid=fd9f5c27-5d58-42e5-badc-a12a0344229e"},"vehicle_type_id":"4","last_reported":1752271816,"current_range_meters":12800,"station_id":"","pricing_plan_id":"cebpf4jnsgd1na2vs0mg"},{"bike_id":"5f27cee9-4808-4986-92e5-73f9f0fefbc8","system_id":"levelo_inurba_marseille","lat":43.24803,"lon":5.37458,"is_reserved":false,"is_disabled":false,"rental_uris":{"android":"levelo://app?vid=5f27cee9-4808-4986-92e5-73f9f0fefbc8","ios":"levelo://app?vid=5f27cee9-4808-4986-92e5-73f9f0fefbc8"},"vehicle_type_id":"4","last_reported":1752271816,"current_range_meters":12800,"station_id":"ce4bhgh2rcd13ifvqfb0","pricing_plan_id":"cebpf4jnsgd1na2vs0mg"},{"bike_id":"c7f48822-262b-48a9-8d7e-16ae62efa937","system_id":"levelo_inurba_marseille","lat":43.2836,"lon":5.38651,"is_reserved":false,"is_disabled":false,"rental_uris":{"android":"levelo://app?vid=c7f48822-262b-48a9-8d7e-16ae62efa937","ios":"levelo://app?vid=c7f48822-262b-48a9-8d7e-16ae62efa937"},"vehicle_type_id":"4","last_reported":1752271816,"current_range_meters":12800,"station_id":"ce4bh492rcd13ifvqdvg","pricing_plan_id":"cebpf4jnsgd1na2vs0mg"},{"bike_id":"647a1903-1834-4730-b34e-6397917620f0","system_id":"levelo_inurba_marseille","lat":43.3167,"lon":5.37028,"is_reserved":false,"is_disabled":false,"rental_uris":{"android":"levelo://app?vid=647a1903-1834-4730-b34e-6397917620f0","ios":"levelo://app?vid=647a1903-1834-4730-b34e-6397917620f0"},"vehicle_type_id":"4","last_reported":1752271816,"current_range_meters":12800,"station_id":"","pricing_plan_id":"cebpf4jnsgd1na2vs0mg"},{"bike_id":"2390aaf2-3ac6-48db-9619-4ad0d8355835","system_id":"levelo_inurba_marseille","lat":43.26063,"lon":5.39388,"is_reserved":false,"is_disabled":false,"rental_uris":{"android":"levelo://app?vid=2390aaf2-3ac6-48db-9619-4ad0d8355835","ios":"levelo://app?vid=2390aaf2-3ac6-48db-9619-4ad0d8355835"},"vehicle_type_id":"4","last_reported":1752271816,"current_range_meters":12800,"station_id":"ce4bhh92rcd13ifvqfj0","pricing_plan_id":"cebpf4jnsgd1na2vs0mg"},{"bike_id":"e3a75ee9-c614-467b-8cc2-f813bcef2ab1","system_id":"levelo_inurba_marseille","lat":43.33743,"lon":5.3919,"is_reserved":false,"is_disabled":false,"rental_uris":{"android":"levelo://app?vid=e3a75ee9-c614-467b-8cc2-f813bcef2ab1","ios":"levelo://app?vid=e3a75ee9-c614-467b-8cc2-f813bcef2ab1"},"vehicle_type_id":"4","last_reported":1752271816,"current_range_meters":12800,"station_id":"ce4bhr92rcd13ifvqhsg","pricing_plan_id":"cebpf4jnsgd1na2vs0mg"},{"bike_id":"eda0ea69-6404-43e6-9ede-2655d170d444","system_id":"levelo_inurba_marseille","lat":43.28826,"lon":5.35858,"is_reserved":false,"is_disabled":true,"rental_uris":{"android":"levelo://app?vid=eda0ea69-6404-43e6-9ede-2655d170d444","ios":"levelo://app?vid=eda0ea69-6404-43e6-9ede-2655d170d444"},"vehicle_type_id":"4","last_reported":1752271816,"current_range_meters":12800,"station_id":"ce4bhb12rcd13ifvqem0","pricing_plan_id":"cebpf4jnsgd1na2vs0mg"},{"bike_id":"b1f563d0-a985-41ba-9e78-5f79e57dd39b","system_id":"levelo_inurba_marseille","lat":43.25721,"lon":5.41119,"is_reserved":false,"is_disabled":false,"rental_uris":{"android":"levelo://app?vid=b1f563d0-a985-41ba-9e78-5f79e57dd39b","ios":"levelo://app?vid=b1f563d0-a985-41ba-9e78-5f79e57dd39b"},"vehicle_type_id":"4","last_reported":1752271816,"current_range_meters":12800,"station_id":"ce4bhkp2rcd13ifvqgd0","pricing_plan_id":"cebpf4jnsgd1na2vs0mg"},{"bike_id":"063dbbb1-f147-41a0-88cc-046766702234","system_id":"levelo_inurba_marseille","lat":43.265527,"lon":5.37289,"is_reserved":false,"is_disabled":false,"rental_uris":{"android":"levelo://app?vid=063dbbb1-f147-41a0-88cc-046766702234","ios":"levelo://app?vid=063dbbb1-f147-41a0-88cc-046766702234"},"vehicle_type_id":"4","last_reported":1752271816,"current_range_meters":13600,"station_id":"ce4bhg12rcd13ifvqf70","pricing_plan_id":"cebpf4jnsgd1na2vs0mg"},{"bike_id":"530fdaa0-3dcf-48bd-ae6d-18f67ca1c283","system_id":"levelo_inurba_marseille","lat":43.297111,"lon":5.366155,"is_reserved":false,"is_disabled":false,"rental_uris":{"android":"levelo://app?vid=530fdaa0-3dcf-48bd-ae6d-18f67ca1c283","ios":"levelo://app?vid=530fdaa0-3dcf-48bd-ae6d-18f67ca1c283"},"vehicle_type_id":"4","last_reported":1752271816,"current_range_meters":13600,"station_id":"","pricing_plan_id":"cebpf4jnsgd1na2vs0mg"},{"bike_id":"b921d7cf-5746-4745-b7bf-2ce90a67a3e6","system_id":"levelo_inurba_marseille","lat":43.29256,"lon":5.38443,"is_reserved":false,"is_disabled":false,"rental_uris":{"android":"levelo://app?vid=b921d7cf-5746-4745-b7bf-2ce90a67a3e6","ios":"levelo://app?vid=b921d7cf-5746-4745-b7bf-2ce90a67a3e6"},"vehicle_type_id":"4","last_reported":1752271816,"current_range_meters":13600,"station_id":"ce4bh692rcd13ifvqea0","pricing_plan_id":"cebpf4jnsgd1na2vs0mg"},{"bike_id":"85758837-e8e8-429b-9b62-411361adebf1","system_id":"levelo_inurba_marseille","lat":43.31757,"lon":5.39042,"is_reserved":false,"is_disabled":true,"rental_uris":{"android":"levelo://app?vid=85758837-e8e8-429b-9b62-411361adebf1","ios":"levelo://app?vid=85758837-e8e8-429b-9b62-411361adebf1"},"vehicle_type_id":"4","last_reported":1752271816,"current_range_meters":13600,"station_id":"ce4bhqp2rcd13ifvqhng","pricing_plan_id":"cebpf4jnsgd1na2vs0mg"},{"bike_id":"650f810a-ea48-4652-b488-5274535ec11b","system_id":"levelo_inurba_marseille","lat":43.24166,"lon":5.36417,"is_reserved":false,"is_disabled":false,"rental_uris":{"android":"levelo://app?vid=650f810a-ea48-4652-b488-5274535ec11b","ios":"levelo://app?vid=650f810a-ea48-4652-b488-5274535ec11b"},"vehicle_type_id":"4","last_reported":1752271816,"current_range_meters":13600,"station_id":"cpo36qri1sfpv3e86is0","pricing_plan_id":"cebpf4jnsgd1na2vs0mg"},{"bike_id":"12ae95d2-446f-4b76-8b75-64d764443126","system_id":"levelo_inurba_marseille","lat":43.30609,"lon":5.372257,"is_reserved":false,"is_disabled":false,"rental_uris":{"android":"levelo://app?vid=12ae95d2-446f-4b76-8b75-64d764443126","ios":"levelo://app?vid=12ae95d2-446f-4b76-8b75-64d764443126"},"vehicle_type_id":"4","last_reported":1752271816,"current_range_meters":14000,"station_id":"ce4bgqh2rcd13ifvqc4g","pricing_plan_id":"cebpf4jnsgd1na2vs0mg"},{"bike_id":"e8e03632-b9d1-480f-a4da-da482a543464","system_id":"levelo_inurba_marseille","lat":43.290294,"lon":5.375646,"is_reserved":false,"is_disabled":true,"rental_uris":{"android":"levelo://app?vid=e8e03632-b9d1-480f-a4da-da482a543464","ios":"levelo://app?vid=e8e03632-b9d1-480f-a4da-da482a543464"},"vehicle_type_id":"4","last_reported":1752271816,"current_range_meters":14000,"station_id":"ce4bh692rcd13ifvqe90","pricing_plan_id":"cebpf4jnsgd1na2vs0mg"},{"bike_id":"d693a7da-6b93-4daa-9c78-2e6899fd2087","system_id":"levelo_inurba_marseille","lat":43.30783,"lon":5.3765,"is_reserved":false,"is_disabled":false,"rental_uris":{"android":"levelo://app?vid=d693a7da-6b93-4daa-9c78-2e6899fd2087","ios":"levelo://app?vid=d693a7da-6b93-4daa-9c78-2e6899fd2087"},"vehicle_type_id":"4","last_reported":1752271816,"current_range_meters":14000,"station_id":"ce4bgv92rcd13ifvqcq0","pricing_plan_id":"cebpf4jnsgd1na2vs0mg"},{"bike_id":"97d4bafb-1703-482a-9af9-9c0328bf232e","system_id":"levelo_inurba_marseille","lat":43.29525,"lon":5.3752,"is_reserved":false,"is_disabled":true,"rental_uris":{"android":"levelo://app?vid=97d4bafb-1703-482a-9af9-9c0328bf232e","ios":"levelo://app?vid=97d4bafb-1703-482a-9af9-9c0328bf232e"},"vehicle_type_id":"4","last_reported":1752271816,"current_range_meters":14000,"station_id":"ce4bgkp2rcd13ifvqbmg","pricing_plan_id":"cebpf4jnsgd1na2vs0mg"},{"bike_id":"550d4654-d838-4a5c-bf54-889593faffd9","system_id":"levelo_inurba_marseille","lat":43.31997,"lon":5.38162,"is_reserved":false,"is_disabled":false,"rental_uris":{"android":"levelo://app?vid=550d4654-d838-4a5c-bf54-889593faffd9","ios":"levelo://app?vid=550d4654-d838-4a5c-bf54-889593faffd9"},"vehicle_type_id":"4","last_reported":1752271816,"current_range_meters":14000,"station_id":"ce4bhr12rcd13ifvqhpg","pricing_plan_id":"cebpf4jnsgd1na2vs0mg"},{"bike_id":"dafa5a87-b26d-4379-9a6b-1f02133b78a6","system_id":"levelo_inurba_marseille","lat":43.211921,"lon":5.350721,"is_reserved":false,"is_disabled":false,"rental_uris":{"android":"levelo://app?vid=dafa5a87-b26d-4379-9a6b-1f02133b78a6","ios":"levelo://app?vid=dafa5a87-b26d-4379-9a6b-1f02133b78a6"},"vehicle_type_id":"4","last_reported":1752271816,"current_range_meters":14000,"station_id":"","pricing_plan_id":"cebpf4jnsgd1na2vs0mg"},{"bike_id":"7b5cd6ce-df57-4328-854d-cb2d1407ab18","system_id":"levelo_inurba_marseille","lat":43.33021,"lon":5.39046,"is_reserved":false,"is_disabled":false,"rental_uris":{"android":"levelo://app?vid=7b5cd6ce-df57-4328-854d-cb2d1407ab18","ios":"levelo://app?vid=7b5cd6ce-df57-4328-854d-cb2d1407ab18"},"vehicle_type_id":"4","last_reported":1752271816,"current_range_meters":14000,"station_id":"ce4bhr92rcd13ifvqhrg","pricing_plan_id":"cebpf4jnsgd1na2vs0mg"},{"bike_id":"335e48f8-bce1-47d7-af9a-14066934fea6","system_id":"levelo_inurba_marseille","lat":43.29249,"lon":5.38455,"is_reserved":false,"is_disabled":false,"rental_uris":{"android":"levelo://app?vid=335e48f8-bce1-47d7-af9a-14066934fea6","ios":"levelo://app?vid=335e48f8-bce1-47d7-af9a-14066934fea6"},"vehicle_type_id":"4","last_reported":1752271816,"current_range_meters":14400,"station_id":"ce4bh692rcd13ifvqea0","pricing_plan_id":"cebpf4jnsgd1na2vs0mg"},{"bike_id":"7eac452f-936d-4848-949a-4cc39c421116","system_id":"levelo_inurba_marseille","lat":43.29262,"lon":5.38444,"is_reserved":false,"is_disabled":false,"rental_uris":{"android":"levelo://app?vid=7eac452f-936d-4848-949a-4cc39c421116","ios":"levelo://app?vid=7eac452f-936d-4848-949a-4cc39c421116"},"vehicle_type_id":"4","last_reported":1752271816,"current_range_meters":14400,"station_id":"ce4bh692rcd13ifvqea0","pricing_plan_id":"cebpf4jnsgd1na2vs0mg"},{"bike_id":"ceb8bcf8-9e11-4102-bd78-9a687c0c96d2","system_id":"levelo_inurba_marseille","lat":43.28925,"lon":5.38425,"is_reserved":false,"is_disabled":true,"rental_uris":{"android":"levelo://app?vid=ceb8bcf8-9e11-4102-bd78-9a687c0c96d2","ios":"levelo://app?vid=ceb8bcf8-9e11-4102-bd78-9a687c0c96d2"},"vehicle_type_id":"4","last_reported":1752271816,"current_range_meters":14400,"station_id":"ce4bh612rcd13ifvqe6g","pricing_plan_id":"cebpf4jnsgd1na2vs0mg"},{"bike_id":"8929c1bf-fd4d-44e4-aa66-b3eb6538c998","system_id":"levelo_inurba_marseille","lat":43.28564,"lon":5.43001,"is_reserved":false,"is_disabled":false,"rental_uris":{"android":"levelo://app?vid=8929c1bf-fd4d-44e4-aa66-b3eb6538c998","ios":"levelo://app?vid=8929c1bf-fd4d-44e4-aa66-b3eb6538c998"},"vehicle_type_id":"4","last_reported":1752271816,"current_range_meters":14400,"station_id":"","pricing_plan_id":"cebpf4jnsgd1na2vs0mg"},{"bike_id":"542e8017-df34-4c0b-8316-4d1f552f9284","system_id":"levelo_inurba_marseille","lat":43.29708,"lon":5.37271,"is_reserved":false,"is_disabled":false,"rental_uris":{"android":"levelo://app?vid=542e8017-df34-4c0b-8316-4d1f552f9284","ios":"levelo://app?vid=542e8017-df34-4c0b-8316-4d1f552f9284"},"vehicle_type_id":"4","last_reported":1752271816,"current_range_meters":14400,"station_id":"ce4bgk12rcd13ifvqbj0","pricing_plan_id":"cebpf4jnsgd1na2vs0mg"},{"bike_id":"7c36ceb0-fdf8-402c-ab17-6aaf17865cf2","system_id":"levelo_inurba_marseille","lat":43.29641,"lon":5.40595,"is_reserved":false,"is_disabled":false,"rental_uris":{"android":"levelo://app?vid=7c36ceb0-fdf8-402c-ab17-6aaf17865cf2","ios":"levelo://app?vid=7c36ceb0-fdf8-402c-ab17-6aaf17865cf2"},"vehicle_type_id":"4","last_reported":1752271816,"current_range_meters":14800,"station_id":"ce4bh0h2rcd13ifvqd60","pricing_plan_id":"cebpf4jnsgd1na2vs0mg"},{"bike_id":"43b90c82-97e0-4fa7-8b67-2448f07d529e","system_id":"levelo_inurba_marseille","lat":43.21194,"lon":5.35069,"is_reserved":false,"is_disabled":false,"rental_uris":{"android":"levelo://app?vid=43b90c82-97e0-4fa7-8b67-2448f07d529e","ios":"levelo://app?vid=43b90c82-97e0-4fa7-8b67-2448f07d529e"},"vehicle_type_id":"4","last_reported":1752271816,"current_range_meters":14800,"station_id":"","pricing_plan_id":"cebpf4jnsgd1na2vs0mg"},{"bike_id":"e51da3c1-8ab5-47c5-abee-45829a7c0aac","system_id":"levelo_inurba_marseille","lat":43.27329,"lon":5.39134,"is_reserved":false,"is_disabled":true,"rental_uris":{"android":"levelo://app?vid=e51da3c1-8ab5-47c5-abee-45829a7c0aac","ios":"levelo://app?vid=e51da3c1-8ab5-47c5-abee-45829a7c0aac"},"vehicle_type_id":"4","last_reported":1752271816,"current_range_meters":14800,"station_id":"ce4bhgp2rcd13ifvqfe0","pricing_plan_id":"cebpf4jnsgd1na2vs0mg"},{"bike_id":"8fccf46e-4269-459a-bd9a-cdd93f6b32bc","system_id":"levelo_inurba_marseille","lat":43.303565,"lon":5.418805,"is_reserved":false,"is_disabled":true,"rental_uris":{"android":"levelo://app?vid=8fccf46e-4269-459a-bd9a-cdd93f6b32bc","ios":"levelo://app?vid=8fccf46e-4269-459a-bd9a-cdd93f6b32bc"},"vehicle_type_id":"4","last_reported":1752271816,"current_range_meters":15200,"station_id":"ce4bhop2rcd13ifvqh7g","pricing_plan_id":"cebpf4jnsgd1na2vs0mg"},{"bike_id":"e9fd0cf8-573b-4177-88a6-f1faf33e8aca","system_id":"levelo_inurba_marseille","lat":43.28973,"lon":5.35635,"is_reserved":false,"is_disabled":true,"rental_uris":{"android":"levelo://app?vid=e9fd0cf8-573b-4177-88a6-f1faf33e8aca","ios":"levelo://app?vid=e9fd0cf8-573b-4177-88a6-f1faf33e8aca"},"vehicle_type_id":"4","last_reported":1752271816,"current_range_meters":15200,"station_id":"ce4bhb92rcd13ifvqen0","pricing_plan_id":"cebpf4jnsgd1na2vs0mg"},{"bike_id":"ace64107-ef6e-4332-b6ed-06e2d53b2c22","system_id":"levelo_inurba_marseille","lat":43.2926,"lon":5.40911,"is_reserved":false,"is_disabled":false,"rental_uris":{"android":"levelo://app?vid=ace64107-ef6e-4332-b6ed-06e2d53b2c22","ios":"levelo://app?vid=ace64107-ef6e-4332-b6ed-06e2d53b2c22"},"vehicle_type_id":"4","last_reported":1752271816,"current_range_meters":15200,"station_id":"ce4bh192rcd13ifvqdc0","pricing_plan_id":"cebpf4jnsgd1na2vs0mg"},{"bike_id":"1761d761-0ead-4f87-bc28-6b1d858c966c","system_id":"levelo_inurba_marseille","lat":43.29193,"lon":5.39315,"is_reserved":false,"is_disabled":false,"rental_uris":{"android":"levelo://app?vid=1761d761-0ead-4f87-bc28-6b1d858c966c","ios":"levelo://app?vid=1761d761-0ead-4f87-bc28-6b1d858c966c"},"vehicle_type_id":"4","last_reported":1752271816,"current_range_meters":14800,"station_id":"ce4bh192rcd13ifvqdd0","pricing_plan_id":"cebpf4jnsgd1na2vs0mg"},{"bike_id":"37b84a38-055a-4a6e-a56a-8ff3d0c1b2ec","system_id":"levelo_inurba_marseille","lat":43.211905,"lon":5.350744,"is_reserved":false,"is_disabled":false,"rental_uris":{"android":"levelo://app?vid=37b84a38-055a-4a6e-a56a-8ff3d0c1b2ec","ios":"levelo://app?vid=37b84a38-055a-4a6e-a56a-8ff3d0c1b2ec"},"vehicle_type_id":"4","last_reported":1752271816,"current_range_meters":15200,"station_id":"st_cvj6sg6p6f1abm77japg","pricing_plan_id":"cebpf4jnsgd1na2vs0mg"},{"bike_id":"dbba3321-20c7-4989-a7b5-ea9ab2c4b3e8","system_id":"levelo_inurba_marseille","lat":43.261935,"lon":5.374477,"is_reserved":false,"is_disabled":false,"rental_uris":{"android":"levelo://app?vid=dbba3321-20c7-4989-a7b5-ea9ab2c4b3e8","ios":"levelo://app?vid=dbba3321-20c7-4989-a7b5-ea9ab2c4b3e8"},"vehicle_type_id":"4","last_reported":1752271816,"current_range_meters":15200,"station_id":"ce4bhgp2rcd13ifvqfc0","pricing_plan_id":"cebpf4jnsgd1na2vs0mg"},{"bike_id":"42137503-30c9-434d-8694-4567f27250bb","system_id":"levelo_inurba_marseille","lat":43.29528,"lon":5.38536,"is_reserved":false,"is_disabled":false,"rental_uris":{"android":"levelo://app?vid=42137503-30c9-434d-8694-4567f27250bb","ios":"levelo://app?vid=42137503-30c9-434d-8694-4567f27250bb"},"vehicle_type_id":"4","last_reported":1752271816,"current_range_meters":16000,"station_id":"ce4bgih2rcd13ifvqba0","pricing_plan_id":"cebpf4jnsgd1na2vs0mg"},{"bike_id":"c9d9c09c-ad83-4661-960e-08696e251bd5","system_id":"levelo_inurba_marseille","lat":43.28932,"lon":5.38386,"is_reserved":false,"is_disabled":false,"rental_uris":{"android":"levelo://app?vid=c9d9c09c-ad83-4661-960e-08696e251bd5","ios":"levelo://app?vid=c9d9c09c-ad83-4661-960e-08696e251bd5"},"vehicle_type_id":"4","last_reported":1752271816,"current_range_meters":16000,"station_id":"ce4bh612rcd13ifvqe6g","pricing_plan_id":"cebpf4jnsgd1na2vs0mg"},{"bike_id":"5cd74eda-833d-42c9-9173-69f518999a0c","system_id":"levelo_inurba_marseille","lat":43.34146,"lon":5.40908,"is_reserved":false,"is_disabled":false,"rental_uris":{"android":"levelo://app?vid=5cd74eda-833d-42c9-9173-69f518999a0c","ios":"levelo://app?vid=5cd74eda-833d-42c9-9173-69f518999a0c"},"vehicle_type_id":"4","last_reported":1752271816,"current_range_meters":16000,"station_id":"ce4bhqh2rcd13ifvqhlg","pricing_plan_id":"cebpf4jnsgd1na2vs0mg"},{"bike_id":"f43bed74-2e8c-4ab8-9ebb-469acb722d36","system_id":"levelo_inurba_marseille","lat":43.292603,"lon":5.384401,"is_reserved":false,"is_disabled":false,"rental_uris":{"android":"levelo://app?vid=f43bed74-2e8c-4ab8-9ebb-469acb722d36","ios":"levelo://app?vid=f43bed74-2e8c-4ab8-9ebb-469acb722d36"},"vehicle_type_id":"4","last_reported":1752271816,"current_range_meters":16000,"station_id":"","pricing_plan_id":"cebpf4jnsgd1na2vs0mg"},{"bike_id":"61198919-e72c-4fce-bc96-126627987dc0","system_id":"levelo_inurba_marseille","lat":43.2958,"lon":5.37885,"is_reserved":false,"is_disabled":false,"rental_uris":{"android":"levelo://app?vid=61198919-e72c-4fce-bc96-126627987dc0","ios":"levelo://app?vid=61198919-e72c-4fce-bc96-126627987dc0"},"vehicle_type_id":"4","last_reported":1752271816,"current_range_meters":16000,"station_id":"","pricing_plan_id":"cebpf4jnsgd1na2vs0mg"},{"bike_id":"9d7c0b35-de8f-45be-b276-cd5d768e4c80","system_id":"levelo_inurba_marseille","lat":43.29924,"lon":5.37471,"is_reserved":false,"is_disabled":false,"rental_uris":{"android":"levelo://app?vid=9d7c0b35-de8f-45be-b276-cd5d768e4c80","ios":"levelo://app?vid=9d7c0b35-de8f-45be-b276-cd5d768e4c80"},"vehicle_type_id":"4","last_reported":1752271816,"current_range_meters":16000,"station_id":"ce4bgjh2rcd13ifvqbg0","pricing_plan_id":"cebpf4jnsgd1na2vs0mg"},{"bike_id":"eb6a2290-40e2-4780-bdeb-a149c699215d","system_id":"levelo_inurba_marseille","lat":43.27946,"lon":5.41057,"is_reserved":false,"is_disabled":false,"rental_uris":{"android":"levelo://app?vid=eb6a2290-40e2-4780-bdeb-a149c699215d","ios":"levelo://app?vid=eb6a2290-40e2-4780-bdeb-a149c699215d"},"vehicle_type_id":"4","last_reported":1752271816,"current_range_meters":16000,"station_id":"ce4bhnp2rcd13ifvqh0g","pricing_plan_id":"cebpf4jnsgd1na2vs0mg"},{"bike_id":"82986741-429a-4b51-8b98-636e2d5ef662","system_id":"levelo_inurba_marseille","lat":43.29534,"lon":5.38552,"is_reserved":false,"is_disabled":false,"rental_uris":{"android":"levelo://app?vid=82986741-429a-4b51-8b98-636e2d5ef662","ios":"levelo://app?vid=82986741-429a-4b51-8b98-636e2d5ef662"},"vehicle_type_id":"4","last_reported":1752271816,"current_range_meters":16000,"station_id":"ce4bgih2rcd13ifvqba0","pricing_plan_id":"cebpf4jnsgd1na2vs0mg"},{"bike_id":"a0138538-145e-45b9-aebb-fed41925ecaf","system_id":"levelo_inurba_marseille","lat":43.2354,"lon":5.36032,"is_reserved":false,"is_disabled":false,"rental_uris":{"android":"levelo://app?vid=a0138538-145e-45b9-aebb-fed41925ecaf","ios":"levelo://app?vid=a0138538-145e-45b9-aebb-fed41925ecaf"},"vehicle_type_id":"4","last_reported":1752271816,"current_range_meters":16000,"station_id":"","pricing_plan_id":"cebpf4jnsgd1na2vs0mg"},{"bike_id":"452e8211-4f44-45d0-814a-3e9e25b8c44e","system_id":"levelo_inurba_marseille","lat":43.21177,"lon":5.35071,"is_reserved":false,"is_disabled":false,"rental_uris":{"android":"levelo://app?vid=452e8211-4f44-45d0-814a-3e9e25b8c44e","ios":"levelo://app?vid=452e8211-4f44-45d0-814a-3e9e25b8c44e"},"vehicle_type_id":"4","last_reported":1752271816,"current_range_meters":16000,"station_id":"st_cvj6sg6p6f1abm77japg","pricing_plan_id":"cebpf4jnsgd1na2vs0mg"},{"bike_id":"e86ba8c9-208d-482c-a826-4c100938472a","system_id":"levelo_inurba_marseille","lat":43.21159,"lon":5.35096,"is_reserved":false,"is_disabled":false,"rental_uris":{"android":"levelo://app?vid=e86ba8c9-208d-482c-a826-4c100938472a","ios":"levelo://app?vid=e86ba8c9-208d-482c-a826-4c100938472a"},"vehicle_type_id":"4","last_reported":1752271816,"current_range_meters":16000,"station_id":"st_cvj6sg6p6f1abm77japg","pricing_plan_id":"cebpf4jnsgd1na2vs0mg"},{"bike_id":"c453155a-5220-48fc-922b-600ca54f8ab5","system_id":"levelo_inurba_marseille","lat":43.28663,"lon":5.3637,"is_reserved":false,"is_disabled":true,"rental_uris":{"android":"levelo://app?vid=c453155a-5220-48fc-922b-600ca54f8ab5","ios":"levelo://app?vid=c453155a-5220-48fc-922b-600ca54f8ab5"},"vehicle_type_id":"4","last_reported":1752271816,"current_range_meters":16000,"station_id":"ce4bhah2rcd13ifvqej0","pricing_plan_id":"cebpf4jnsgd1na2vs0mg"},{"bike_id":"ed019ecd-f4ca-470f-953e-821f34892065","system_id":"levelo_inurba_marseille","lat":43.30552,"lon":5.36705,"is_reserved":false,"is_disabled":true,"rental_uris":{"android":"levelo://app?vid=ed019ecd-f4ca-470f-953e-821f34892065","ios":"levelo://app?vid=ed019ecd-f4ca-470f-953e-821f34892065"},"vehicle_type_id":"4","last_reported":1752271816,"current_range_meters":16400,"station_id":"ce4bgrp2rcd13ifvqc9g","pricing_plan_id":"cebpf4jnsgd1na2vs0mg"},{"bike_id":"945ee497-716d-4428-8e06-654204cd1360","system_id":"levelo_inurba_marseille","lat":43.27558,"lon":5.38425,"is_reserved":false,"is_disabled":false,"rental_uris":{"android":"levelo://app?vid=945ee497-716d-4428-8e06-654204cd1360","ios":"levelo://app?vid=945ee497-716d-4428-8e06-654204cd1360"},"vehicle_type_id":"4","last_reported":1752271816,"current_range_meters":16400,"station_id":"ce4bhh92rcd13ifvqfi0","pricing_plan_id":"cebpf4jnsgd1na2vs0mg"},{"bike_id":"9a8048d4-46f2-4ef7-aa23-5310e4dbfdd4","system_id":"levelo_inurba_marseille","lat":43.27939,"lon":5.396,"is_reserved":false,"is_disabled":false,"rental_uris":{"android":"levelo://app?vid=9a8048d4-46f2-4ef7-aa23-5310e4dbfdd4","ios":"levelo://app?vid=9a8048d4-46f2-4ef7-aa23-5310e4dbfdd4"},"vehicle_type_id":"4","last_reported":1752271816,"current_range_meters":15200,"station_id":"ce4bhf92rcd13ifvqf40","pricing_plan_id":"cebpf4jnsgd1na2vs0mg"},{"bike_id":"f2770ea1-d1a3-4b88-95ee-a5994bbb099d","system_id":"levelo_inurba_marseille","lat":43.28698,"lon":5.39979,"is_reserved":false,"is_disabled":false,"rental_uris":{"android":"levelo://app?vid=f2770ea1-d1a3-4b88-95ee-a5994bbb099d","ios":"levelo://app?vid=f2770ea1-d1a3-4b88-95ee-a5994bbb099d"},"vehicle_type_id":"4","last_reported":1752271816,"current_range_meters":16400,"station_id":"ce4bho92rcd13ifvqh3g","pricing_plan_id":"cebpf4jnsgd1na2vs0mg"},{"bike_id":"a100566b-d122-47f7-b059-1aae620ff9b3","system_id":"levelo_inurba_marseille","lat":43.24059,"lon":5.37768,"is_reserved":false,"is_disabled":false,"rental_uris":{"android":"levelo://app?vid=a100566b-d122-47f7-b059-1aae620ff9b3","ios":"levelo://app?vid=a100566b-d122-47f7-b059-1aae620ff9b3"},"vehicle_type_id":"4","last_reported":1752271816,"current_range_meters":16400,"station_id":"ce4bhnp2rcd13ifvqgvg","pricing_plan_id":"cebpf4jnsgd1na2vs0mg"},{"bike_id":"a81ede20-43a9-47cd-942d-8fb15c54f5f7","system_id":"levelo_inurba_marseille","lat":43.30057,"lon":5.45172,"is_reserved":false,"is_disabled":false,"rental_uris":{"android":"levelo://app?vid=a81ede20-43a9-47cd-942d-8fb15c54f5f7","ios":"levelo://app?vid=a81ede20-43a9-47cd-942d-8fb15c54f5f7"},"vehicle_type_id":"4","last_reported":1752271816,"current_range_meters":16800,"station_id":"","pricing_plan_id":"cebpf4jnsgd1na2vs0mg"},{"bike_id":"8ff98f20-247a-4959-87ed-dae85312140c","system_id":"levelo_inurba_marseille","lat":43.28931,"lon":5.36633,"is_reserved":false,"is_disabled":false,"rental_uris":{"android":"levelo://app?vid=8ff98f20-247a-4959-87ed-dae85312140c","ios":"levelo://app?vid=8ff98f20-247a-4959-87ed-dae85312140c"},"vehicle_type_id":"4","last_reported":1752271816,"current_range_meters":16800,"station_id":"ce4bhap2rcd13ifvqek0","pricing_plan_id":"cebpf4jnsgd1na2vs0mg"},{"bike_id":"a97312ec-c6dc-450b-b87a-bf607fe29c31","system_id":"levelo_inurba_marseille","lat":43.29257,"lon":5.38438,"is_reserved":false,"is_disabled":false,"rental_uris":{"android":"levelo://app?vid=a97312ec-c6dc-450b-b87a-bf607fe29c31","ios":"levelo://app?vid=a97312ec-c6dc-450b-b87a-bf607fe29c31"},"vehicle_type_id":"4","last_reported":1752271816,"current_range_meters":16800,"station_id":"ce4bh692rcd13ifvqea0","pricing_plan_id":"cebpf4jnsgd1na2vs0mg"},{"bike_id":"58c86ff8-b444-4637-8b8c-414b4195493a","system_id":"levelo_inurba_marseille","lat":43.28051,"lon":5.39681,"is_reserved":false,"is_disabled":false,"rental_uris":{"android":"levelo://app?vid=58c86ff8-b444-4637-8b8c-414b4195493a","ios":"levelo://app?vid=58c86ff8-b444-4637-8b8c-414b4195493a"},"vehicle_type_id":"4","last_reported":1752271816,"current_range_meters":16800,"station_id":"ce4bho12rcd13ifvqh2g","pricing_plan_id":"cebpf4jnsgd1na2vs0mg"},{"bike_id":"a581eef9-f0fb-4e5d-8be0-84b96bfd2d41","system_id":"levelo_inurba_marseille","lat":43.29372,"lon":5.37874,"is_reserved":false,"is_disabled":true,"rental_uris":{"android":"levelo://app?vid=a581eef9-f0fb-4e5d-8be0-84b96bfd2d41","ios":"levelo://app?vid=a581eef9-f0fb-4e5d-8be0-84b96bfd2d41"},"vehicle_type_id":"4","last_reported":1752271816,"current_range_meters":16800,"station_id":"ce4bgjh2rcd13ifvqbf0","pricing_plan_id":"cebpf4jnsgd1na2vs0mg"},{"bike_id":"4f40c8f1-1b4f-44c6-8d64-1a3cb05c9635","system_id":"levelo_inurba_marseille","lat":43.292986,"lon":5.374656,"is_reserved":false,"is_disabled":false,"rental_uris":{"android":"levelo://app?vid=4f40c8f1-1b4f-44c6-8d64-1a3cb05c9635","ios":"levelo://app?vid=4f40c8f1-1b4f-44c6-8d64-1a3cb05c9635"},"vehicle_type_id":"4","last_reported":1752271816,"current_range_meters":16800,"station_id":"","pricing_plan_id":"cebpf4jnsgd1na2vs0mg"},{"bike_id":"25e5f971-a9c9-4b07-bb3b-bff8f5b484ea","system_id":"levelo_inurba_marseille","lat":43.30937,"lon":5.40163,"is_reserved":false,"is_disabled":false,"rental_uris":{"android":"levelo://app?vid=25e5f971-a9c9-4b07-bb3b-bff8f5b484ea","ios":"levelo://app?vid=25e5f971-a9c9-4b07-bb3b-bff8f5b484ea"},"vehicle_type_id":"4","last_reported":1752271816,"current_range_meters":16800,"station_id":"ce4bgvp2rcd13ifvqct0","pricing_plan_id":"cebpf4jnsgd1na2vs0mg"},{"bike_id":"709c9beb-13f1-45e2-bbd1-0f71d60cf8b2","system_id":"levelo_inurba_marseille","lat":43.30918,"lon":5.40185,"is_reserved":false,"is_disabled":true,"rental_uris":{"android":"levelo://app?vid=709c9beb-13f1-45e2-bbd1-0f71d60cf8b2","ios":"levelo://app?vid=709c9beb-13f1-45e2-bbd1-0f71d60cf8b2"},"vehicle_type_id":"4","last_reported":1752271816,"current_range_meters":17200,"station_id":"ce4bgvp2rcd13ifvqct0","pricing_plan_id":"cebpf4jnsgd1na2vs0mg"},{"bike_id":"f05b8bfe-6934-41c1-8e7b-6912b26dbed6","system_id":"levelo_inurba_marseille","lat":43.26563,"lon":5.39019,"is_reserved":false,"is_disabled":false,"rental_uris":{"android":"levelo://app?vid=f05b8bfe-6934-41c1-8e7b-6912b26dbed6","ios":"levelo://app?vid=f05b8bfe-6934-41c1-8e7b-6912b26dbed6"},"vehicle_type_id":"4","last_reported":1752271816,"current_range_meters":17200,"station_id":"ce4bhe12rcd13ifvqf30","pricing_plan_id":"cebpf4jnsgd1na2vs0mg"},{"bike_id":"19c18981-05c6-4662-ac88-42d3eff33e52","system_id":"levelo_inurba_marseille","lat":43.28103,"lon":5.37837,"is_reserved":false,"is_disabled":false,"rental_uris":{"android":"levelo://app?vid=19c18981-05c6-4662-ac88-42d3eff33e52","ios":"levelo://app?vid=19c18981-05c6-4662-ac88-42d3eff33e52"},"vehicle_type_id":"4","last_reported":1752271816,"current_range_meters":17200,"station_id":"ce4bha12rcd13ifvqee0","pricing_plan_id":"cebpf4jnsgd1na2vs0mg"},{"bike_id":"169d1bee-d3b4-437e-8b36-e4e46a8ed097","system_id":"levelo_inurba_marseille","lat":43.28926,"lon":5.38394,"is_reserved":false,"is_disabled":false,"rental_uris":{"android":"levelo://app?vid=169d1bee-d3b4-437e-8b36-e4e46a8ed097","ios":"levelo://app?vid=169d1bee-d3b4-437e-8b36-e4e46a8ed097"},"vehicle_type_id":"4","last_reported":1752271816,"current_range_meters":17200,"station_id":"ce4bh612rcd13ifvqe6g","pricing_plan_id":"cebpf4jnsgd1na2vs0mg"},{"bike_id":"aaa3b10e-8c10-48cf-933e-220b9a468a85","system_id":"levelo_inurba_marseille","lat":43.2175,"lon":5.34607,"is_reserved":false,"is_disabled":false,"rental_uris":{"android":"levelo://app?vid=aaa3b10e-8c10-48cf-933e-220b9a468a85","ios":"levelo://app?vid=aaa3b10e-8c10-48cf-933e-220b9a468a85"},"vehicle_type_id":"4","last_reported":1752271816,"current_range_meters":17200,"station_id":"","pricing_plan_id":"cebpf4jnsgd1na2vs0mg"},{"bike_id":"23a3a8de-84db-4fa7-93f2-9c72ce548ce8","system_id":"levelo_inurba_marseille","lat":43.29597,"lon":5.38118,"is_reserved":false,"is_disabled":false,"rental_uris":{"android":"levelo://app?vid=23a3a8de-84db-4fa7-93f2-9c72ce548ce8","ios":"levelo://app?vid=23a3a8de-84db-4fa7-93f2-9c72ce548ce8"},"vehicle_type_id":"4","last_reported":1752271816,"current_range_meters":17200,"station_id":"ce4bgl12rcd13ifvqbo0","pricing_plan_id":"cebpf4jnsgd1na2vs0mg"},{"bike_id":"bd780b9f-2638-45b0-81a5-171acb11391a","system_id":"levelo_inurba_marseille","lat":43.2481,"lon":5.37456,"is_reserved":false,"is_disabled":false,"rental_uris":{"android":"levelo://app?vid=bd780b9f-2638-45b0-81a5-171acb11391a","ios":"levelo://app?vid=bd780b9f-2638-45b0-81a5-171acb11391a"},"vehicle_type_id":"4","last_reported":1752271816,"current_range_meters":17200,"station_id":"ce4bhgh2rcd13ifvqfb0","pricing_plan_id":"cebpf4jnsgd1na2vs0mg"},{"bike_id":"363ef5ac-4365-4008-8b7f-e8e2b403179f","system_id":"levelo_inurba_marseille","lat":43.29532,"lon":5.38544,"is_reserved":false,"is_disabled":false,"rental_uris":{"android":"levelo://app?vid=363ef5ac-4365-4008-8b7f-e8e2b403179f","ios":"levelo://app?vid=363ef5ac-4365-4008-8b7f-e8e2b403179f"},"vehicle_type_id":"4","last_reported":1752271816,"current_range_meters":17200,"station_id":"ce4bgih2rcd13ifvqba0","pricing_plan_id":"cebpf4jnsgd1na2vs0mg"},{"bike_id":"48ba3ad0-e09f-4427-a7dc-e4e0812a0d85","system_id":"levelo_inurba_marseille","lat":43.32665,"lon":5.41,"is_reserved":false,"is_disabled":false,"rental_uris":{"android":"levelo://app?vid=48ba3ad0-e09f-4427-a7dc-e4e0812a0d85","ios":"levelo://app?vid=48ba3ad0-e09f-4427-a7dc-e4e0812a0d85"},"vehicle_type_id":"4","last_reported":1752271816,"current_range_meters":17200,"station_id":"ce4bhpp2rcd13ifvqhgg","pricing_plan_id":"cebpf4jnsgd1na2vs0mg"},{"bike_id":"db2690f4-eb5c-4bb7-a073-68e2f29c4ad8","system_id":"levelo_inurba_marseille","lat":43.248,"lon":5.37449,"is_reserved":false,"is_disabled":false,"rental_uris":{"android":"levelo://app?vid=db2690f4-eb5c-4bb7-a073-68e2f29c4ad8","ios":"levelo://app?vid=db2690f4-eb5c-4bb7-a073-68e2f29c4ad8"},"vehicle_type_id":"4","last_reported":1752271816,"current_range_meters":17600,"station_id":"ce4bhgh2rcd13ifvqfb0","pricing_plan_id":"cebpf4jnsgd1na2vs0mg"},{"bike_id":"ba7e3217-8069-471e-8907-7c5152d45243","system_id":"levelo_inurba_marseille","lat":43.26205,"lon":5.40443,"is_reserved":false,"is_disabled":false,"rental_uris":{"android":"levelo://app?vid=ba7e3217-8069-471e-8907-7c5152d45243","ios":"levelo://app?vid=ba7e3217-8069-471e-8907-7c5152d45243"},"vehicle_type_id":"4","last_reported":1752271816,"current_range_meters":17600,"station_id":"ce4bhmh2rcd13ifvqgmg","pricing_plan_id":"cebpf4jnsgd1na2vs0mg"},{"bike_id":"8d514cb7-a1bf-48e1-8a5e-fa8e7e74a755","system_id":"levelo_inurba_marseille","lat":43.25133,"lon":5.40286,"is_reserved":false,"is_disabled":false,"rental_uris":{"android":"levelo://app?vid=8d514cb7-a1bf-48e1-8a5e-fa8e7e74a755","ios":"levelo://app?vid=8d514cb7-a1bf-48e1-8a5e-fa8e7e74a755"},"vehicle_type_id":"4","last_reported":1752271816,"current_range_meters":17600,"station_id":"ce4bhlh2rcd13ifvqgig","pricing_plan_id":"cebpf4jnsgd1na2vs0mg"},{"bike_id":"f2fba477-5ef1-4e33-89c7-9a7bfd9d310d","system_id":"levelo_inurba_marseille","lat":43.29871,"lon":5.39738,"is_reserved":false,"is_disabled":false,"rental_uris":{"android":"levelo://app?vid=f2fba477-5ef1-4e33-89c7-9a7bfd9d310d","ios":"levelo://app?vid=f2fba477-5ef1-4e33-89c7-9a7bfd9d310d"},"vehicle_type_id":"4","last_reported":1752271816,"current_range_meters":17600,"station_id":"ce4bh0h2rcd13ifvqd50","pricing_plan_id":"cebpf4jnsgd1na2vs0mg"},{"bike_id":"17aca968-6a2c-4144-9dfb-0f0bdb286cb4","system_id":"levelo_inurba_marseille","lat":43.29268,"lon":5.38437,"is_reserved":false,"is_disabled":false,"rental_uris":{"android":"levelo://app?vid=17aca968-6a2c-4144-9dfb-0f0bdb286cb4","ios":"levelo://app?vid=17aca968-6a2c-4144-9dfb-0f0bdb286cb4"},"vehicle_type_id":"4","last_reported":1752271816,"current_range_meters":17600,"station_id":"ce4bh692rcd13ifvqea0","pricing_plan_id":"cebpf4jnsgd1na2vs0mg"},{"bike_id":"ad023729-3d33-44a6-99ca-a047715b7f88","system_id":"levelo_inurba_marseille","lat":43.21186,"lon":5.35096,"is_reserved":false,"is_disabled":false,"rental_uris":{"android":"levelo://app?vid=ad023729-3d33-44a6-99ca-a047715b7f88","ios":"levelo://app?vid=ad023729-3d33-44a6-99ca-a047715b7f88"},"vehicle_type_id":"4","last_reported":1752271816,"current_range_meters":17600,"station_id":"st_cvj6sg6p6f1abm77japg","pricing_plan_id":"cebpf4jnsgd1na2vs0mg"},{"bike_id":"24c91e1d-3342-467e-b1ba-9ae4fcdcdefb","system_id":"levelo_inurba_marseille","lat":43.29531,"lon":5.39025,"is_reserved":false,"is_disabled":false,"rental_uris":{"android":"levelo://app?vid=24c91e1d-3342-467e-b1ba-9ae4fcdcdefb","ios":"levelo://app?vid=24c91e1d-3342-467e-b1ba-9ae4fcdcdefb"},"vehicle_type_id":"4","last_reported":1752271816,"current_range_meters":17200,"station_id":"ce4bh3p2rcd13ifvqdp0","pricing_plan_id":"cebpf4jnsgd1na2vs0mg"},{"bike_id":"d68ca6bb-00b4-4264-baa1-5a5036be73a9","system_id":"levelo_inurba_marseille","lat":43.29265,"lon":5.38446,"is_reserved":false,"is_disabled":false,"rental_uris":{"android":"levelo://app?vid=d68ca6bb-00b4-4264-baa1-5a5036be73a9","ios":"levelo://app?vid=d68ca6bb-00b4-4264-baa1-5a5036be73a9"},"vehicle_type_id":"4","last_reported":1752271816,"current_range_meters":17600,"station_id":"ce4bh692rcd13ifvqea0","pricing_plan_id":"cebpf4jnsgd1na2vs0mg"},{"bike_id":"f19ead5c-f9f0-4541-963c-aa69a2a2b8bc","system_id":"levelo_inurba_marseille","lat":43.29535,"lon":5.38534,"is_reserved":false,"is_disabled":false,"rental_uris":{"android":"levelo://app?vid=f19ead5c-f9f0-4541-963c-aa69a2a2b8bc","ios":"levelo://app?vid=f19ead5c-f9f0-4541-963c-aa69a2a2b8bc"},"vehicle_type_id":"4","last_reported":1752271816,"current_range_meters":18000,"station_id":"ce4bgih2rcd13ifvqba0","pricing_plan_id":"cebpf4jnsgd1na2vs0mg"},{"bike_id":"dfb324bb-b3fa-42ac-af97-fcb3ac59c854","system_id":"levelo_inurba_marseille","lat":43.29778,"lon":5.37106,"is_reserved":false,"is_disabled":false,"rental_uris":{"android":"levelo://app?vid=dfb324bb-b3fa-42ac-af97-fcb3ac59c854","ios":"levelo://app?vid=dfb324bb-b3fa-42ac-af97-fcb3ac59c854"},"vehicle_type_id":"4","last_reported":1752271816,"current_range_meters":18000,"station_id":"ce4bgop2rcd13ifvqc1g","pricing_plan_id":"cebpf4jnsgd1na2vs0mg"},{"bike_id":"2d98c144-979b-4cdc-9c63-d39d433bf790","system_id":"levelo_inurba_marseille","lat":43.26788,"lon":5.39444,"is_reserved":false,"is_disabled":true,"rental_uris":{"android":"levelo://app?vid=2d98c144-979b-4cdc-9c63-d39d433bf790","ios":"levelo://app?vid=2d98c144-979b-4cdc-9c63-d39d433bf790"},"vehicle_type_id":"4","last_reported":1752271816,"current_range_meters":18000,"station_id":"ce4bhh12rcd13ifvqfg0","pricing_plan_id":"cebpf4jnsgd1na2vs0mg"},{"bike_id":"607eff80-7879-4cd4-802a-27da59b17290","system_id":"levelo_inurba_marseille","lat":43.30883,"lon":5.39641,"is_reserved":false,"is_disabled":false,"rental_uris":{"android":"levelo://app?vid=607eff80-7879-4cd4-802a-27da59b17290","ios":"levelo://app?vid=607eff80-7879-4cd4-802a-27da59b17290"},"vehicle_type_id":"4","last_reported":1752271816,"current_range_meters":18000,"station_id":"ce4bh012rcd13ifvqcv0","pricing_plan_id":"cebpf4jnsgd1na2vs0mg"},{"bike_id":"364bd126-2245-4e6c-8da8-e58b9a4f2f3b","system_id":"levelo_inurba_marseille","lat":43.31266,"lon":5.4017,"is_reserved":false,"is_disabled":false,"rental_uris":{"android":"levelo://app?vid=364bd126-2245-4e6c-8da8-e58b9a4f2f3b","ios":"levelo://app?vid=364bd126-2245-4e6c-8da8-e58b9a4f2f3b"},"vehicle_type_id":"4","last_reported":1752271816,"current_range_meters":17600,"station_id":"ce4bh092rcd13ifvqd30","pricing_plan_id":"cebpf4jnsgd1na2vs0mg"},{"bike_id":"141acd88-7ba0-4bed-8068-c3249a5b1382","system_id":"levelo_inurba_marseille","lat":43.275413,"lon":5.38454,"is_reserved":false,"is_disabled":false,"rental_uris":{"android":"levelo://app?vid=141acd88-7ba0-4bed-8068-c3249a5b1382","ios":"levelo://app?vid=141acd88-7ba0-4bed-8068-c3249a5b1382"},"vehicle_type_id":"4","last_reported":1752271816,"current_range_meters":17600,"station_id":"ce4bhh92rcd13ifvqfi0","pricing_plan_id":"cebpf4jnsgd1na2vs0mg"},{"bike_id":"9d7959a7-6007-4dee-9881-af35eb83a1c4","system_id":"levelo_inurba_marseille","lat":43.29409,"lon":5.38608,"is_reserved":false,"is_disabled":false,"rental_uris":{"android":"levelo://app?vid=9d7959a7-6007-4dee-9881-af35eb83a1c4","ios":"levelo://app?vid=9d7959a7-6007-4dee-9881-af35eb83a1c4"},"vehicle_type_id":"4","last_reported":1752271816,"current_range_meters":18000,"station_id":"ce4bh2h2rcd13ifvqdh0","pricing_plan_id":"cebpf4jnsgd1na2vs0mg"},{"bike_id":"7e8b135d-5817-42e4-9329-f32a4e79980f","system_id":"levelo_inurba_marseille","lat":43.29534,"lon":5.38532,"is_reserved":false,"is_disabled":false,"rental_uris":{"android":"levelo://app?vid=7e8b135d-5817-42e4-9329-f32a4e79980f","ios":"levelo://app?vid=7e8b135d-5817-42e4-9329-f32a4e79980f"},"vehicle_type_id":"4","last_reported":1752271816,"current_range_meters":18000,"station_id":"ce4bgih2rcd13ifvqba0","pricing_plan_id":"cebpf4jnsgd1na2vs0mg"},{"bike_id":"919e600e-ebda-4ca0-9126-38ed65a36143","system_id":"levelo_inurba_marseille","lat":43.21173,"lon":5.35098,"is_reserved":false,"is_disabled":false,"rental_uris":{"android":"levelo://app?vid=919e600e-ebda-4ca0-9126-38ed65a36143","ios":"levelo://app?vid=919e600e-ebda-4ca0-9126-38ed65a36143"},"vehicle_type_id":"4","last_reported":1752271816,"current_range_meters":18000,"station_id":"st_cvj6sg6p6f1abm77japg","pricing_plan_id":"cebpf4jnsgd1na2vs0mg"},{"bike_id":"09182a7a-11cf-4c81-94f8-c28915bceb7b","system_id":"levelo_inurba_marseille","lat":43.30304,"lon":5.36965,"is_reserved":false,"is_disabled":false,"rental_uris":{"android":"levelo://app?vid=09182a7a-11cf-4c81-94f8-c28915bceb7b","ios":"levelo://app?vid=09182a7a-11cf-4c81-94f8-c28915bceb7b"},"vehicle_type_id":"4","last_reported":1752271816,"current_range_meters":18000,"station_id":"","pricing_plan_id":"cebpf4jnsgd1na2vs0mg"},{"bike_id":"c5c7562a-9e74-4fab-b932-183cd03786f0","system_id":"levelo_inurba_marseille","lat":43.29528,"lon":5.38552,"is_reserved":false,"is_disabled":false,"rental_uris":{"android":"levelo://app?vid=c5c7562a-9e74-4fab-b932-183cd03786f0","ios":"levelo://app?vid=c5c7562a-9e74-4fab-b932-183cd03786f0"},"vehicle_type_id":"4","last_reported":1752271816,"current_range_meters":18800,"station_id":"ce4bgih2rcd13ifvqba0","pricing_plan_id":"cebpf4jnsgd1na2vs0mg"},{"bike_id":"5969eab6-8ad4-4fde-ac4c-daf15a686651","system_id":"levelo_inurba_marseille","lat":43.28706,"lon":5.40002,"is_reserved":false,"is_disabled":false,"rental_uris":{"android":"levelo://app?vid=5969eab6-8ad4-4fde-ac4c-daf15a686651","ios":"levelo://app?vid=5969eab6-8ad4-4fde-ac4c-daf15a686651"},"vehicle_type_id":"4","last_reported":1752271816,"current_range_meters":18800,"station_id":"ce4bho92rcd13ifvqh3g","pricing_plan_id":"cebpf4jnsgd1na2vs0mg"},{"bike_id":"00bc0b3b-e317-4a17-a011-a3a9a29d816a","system_id":"levelo_inurba_marseille","lat":43.21192,"lon":5.35087,"is_reserved":false,"is_disabled":false,"rental_uris":{"android":"levelo://app?vid=00bc0b3b-e317-4a17-a011-a3a9a29d816a","ios":"levelo://app?vid=00bc0b3b-e317-4a17-a011-a3a9a29d816a"},"vehicle_type_id":"4","last_reported":1752271816,"current_range_meters":18800,"station_id":"st_cvj6sg6p6f1abm77japg","pricing_plan_id":"cebpf4jnsgd1na2vs0mg"},{"bike_id":"606476a6-ca93-445b-85f4-519d2709c787","system_id":"levelo_inurba_marseille","lat":43.29271,"lon":5.38441,"is_reserved":false,"is_disabled":false,"rental_uris":{"android":"levelo://app?vid=606476a6-ca93-445b-85f4-519d2709c787","ios":"levelo://app?vid=606476a6-ca93-445b-85f4-519d2709c787"},"vehicle_type_id":"4","last_reported":1752271816,"current_range_meters":18800,"station_id":"ce4bh692rcd13ifvqea0","pricing_plan_id":"cebpf4jnsgd1na2vs0mg"},{"bike_id":"24409741-4907-4d9b-adf9-5b0850613395","system_id":"levelo_inurba_marseille","lat":43.26027,"lon":5.37551,"is_reserved":false,"is_disabled":false,"rental_uris":{"android":"levelo://app?vid=24409741-4907-4d9b-adf9-5b0850613395","ios":"levelo://app?vid=24409741-4907-4d9b-adf9-5b0850613395"},"vehicle_type_id":"4","last_reported":1752271816,"current_range_meters":18800,"station_id":"ce4bhgh2rcd13ifvqfa0","pricing_plan_id":"cebpf4jnsgd1na2vs0mg"},{"bike_id":"4c55d326-4d6d-44cc-aec4-bf311a466b2e","system_id":"levelo_inurba_marseille","lat":43.30883,"lon":5.37197,"is_reserved":false,"is_disabled":false,"rental_uris":{"android":"levelo://app?vid=4c55d326-4d6d-44cc-aec4-bf311a466b2e","ios":"levelo://app?vid=4c55d326-4d6d-44cc-aec4-bf311a466b2e"},"vehicle_type_id":"4","last_reported":1752271816,"current_range_meters":18000,"station_id":"ce4bguh2rcd13ifvqckg","pricing_plan_id":"cebpf4jnsgd1na2vs0mg"},{"bike_id":"ebddea1c-dc54-40a5-9b0c-3c82275ab65b","system_id":"levelo_inurba_marseille","lat":43.29783,"lon":5.40411,"is_reserved":false,"is_disabled":false,"rental_uris":{"android":"levelo://app?vid=ebddea1c-dc54-40a5-9b0c-3c82275ab65b","ios":"levelo://app?vid=ebddea1c-dc54-40a5-9b0c-3c82275ab65b"},"vehicle_type_id":"4","last_reported":1752271816,"current_range_meters":18000,"station_id":"ce4bh112rcd13ifvqd90","pricing_plan_id":"cebpf4jnsgd1na2vs0mg"},{"bike_id":"9042b977-469b-4ee1-a78c-26612969430e","system_id":"levelo_inurba_marseille","lat":43.31222,"lon":5.36846,"is_reserved":false,"is_disabled":false,"rental_uris":{"android":"levelo://app?vid=9042b977-469b-4ee1-a78c-26612969430e","ios":"levelo://app?vid=9042b977-469b-4ee1-a78c-26612969430e"},"vehicle_type_id":"4","last_reported":1752271816,"current_range_meters":18800,"station_id":"ce4bgl92rcd13ifvqbq0","pricing_plan_id":"cebpf4jnsgd1na2vs0mg"},{"bike_id":"51890362-46b0-4ee7-9f02-afbf036d064e","system_id":"levelo_inurba_marseille","lat":43.21188,"lon":5.35044,"is_reserved":false,"is_disabled":false,"rental_uris":{"android":"levelo://app?vid=51890362-46b0-4ee7-9f02-afbf036d064e","ios":"levelo://app?vid=51890362-46b0-4ee7-9f02-afbf036d064e"},"vehicle_type_id":"4","last_reported":1752271816,"current_range_meters":18800,"station_id":"st_cvj6sg6p6f1abm77japg","pricing_plan_id":"cebpf4jnsgd1na2vs0mg"},{"bike_id":"0d1c6215-e555-43b1-a4f2-48e0a685e2ec","system_id":"levelo_inurba_marseille","lat":43.31269,"lon":5.40172,"is_reserved":false,"is_disabled":false,"rental_uris":{"android":"levelo://app?vid=0d1c6215-e555-43b1-a4f2-48e0a685e2ec","ios":"levelo://app?vid=0d1c6215-e555-43b1-a4f2-48e0a685e2ec"},"vehicle_type_id":"4","last_reported":1752271816,"current_range_meters":18800,"station_id":"ce4bh092rcd13ifvqd30","pricing_plan_id":"cebpf4jnsgd1na2vs0mg"},{"bike_id":"a53da8fd-5594-45c6-bade-2df8fbe3f3dd","system_id":"levelo_inurba_marseille","lat":43.28676,"lon":5.38665,"is_reserved":false,"is_disabled":false,"rental_uris":{"android":"levelo://app?vid=a53da8fd-5594-45c6-bade-2df8fbe3f3dd","ios":"levelo://app?vid=a53da8fd-5594-45c6-bade-2df8fbe3f3dd"},"vehicle_type_id":"4","last_reported":1752271816,"current_range_meters":18800,"station_id":"ce4bh492rcd13ifvqdug","pricing_plan_id":"cebpf4jnsgd1na2vs0mg"},{"bike_id":"2246e185-ebd5-44fe-93be-6b9e19d0be02","system_id":"levelo_inurba_marseille","lat":43.29596,"lon":5.38105,"is_reserved":false,"is_disabled":false,"rental_uris":{"android":"levelo://app?vid=2246e185-ebd5-44fe-93be-6b9e19d0be02","ios":"levelo://app?vid=2246e185-ebd5-44fe-93be-6b9e19d0be02"},"vehicle_type_id":"4","last_reported":1752271816,"current_range_meters":18800,"station_id":"ce4bgl12rcd13ifvqbo0","pricing_plan_id":"cebpf4jnsgd1na2vs0mg"},{"bike_id":"c6f7dabd-b092-4554-a710-07eb4af96a4c","system_id":"levelo_inurba_marseille","lat":43.21192,"lon":5.35084,"is_reserved":false,"is_disabled":false,"rental_uris":{"android":"levelo://app?vid=c6f7dabd-b092-4554-a710-07eb4af96a4c","ios":"levelo://app?vid=c6f7dabd-b092-4554-a710-07eb4af96a4c"},"vehicle_type_id":"4","last_reported":1752271816,"current_range_meters":18800,"station_id":"st_cvj6sg6p6f1abm77japg","pricing_plan_id":"cebpf4jnsgd1na2vs0mg"},{"bike_id":"ded1613d-37f4-4636-b9a1-5b3ab463f128","system_id":"levelo_inurba_marseille","lat":43.30128,"lon":5.39868,"is_reserved":false,"is_disabled":false,"rental_uris":{"android":"levelo://app?vid=ded1613d-37f4-4636-b9a1-5b3ab463f128","ios":"levelo://app?vid=ded1613d-37f4-4636-b9a1-5b3ab463f128"},"vehicle_type_id":"4","last_reported":1752271816,"current_range_meters":18800,"station_id":"ce4bh0h2rcd13ifvqd40","pricing_plan_id":"cebpf4jnsgd1na2vs0mg"},{"bike_id":"a88ad0f9-4dc9-4f3f-841b-ae01ad57516a","system_id":"levelo_inurba_marseille","lat":43.26695,"lon":5.38284,"is_reserved":false,"is_disabled":true,"rental_uris":{"android":"levelo://app?vid=a88ad0f9-4dc9-4f3f-841b-ae01ad57516a","ios":"levelo://app?vid=a88ad0f9-4dc9-4f3f-841b-ae01ad57516a"},"vehicle_type_id":"4","last_reported":1752271816,"current_range_meters":19200,"station_id":"ce4bhg92rcd13ifvqf90","pricing_plan_id":"cebpf4jnsgd1na2vs0mg"},{"bike_id":"ee5338dd-18a1-4b48-a5b0-f8c72f7b1319","system_id":"levelo_inurba_marseille","lat":43.31797,"lon":5.36841,"is_reserved":false,"is_disabled":false,"rental_uris":{"android":"levelo://app?vid=ee5338dd-18a1-4b48-a5b0-f8c72f7b1319","ios":"levelo://app?vid=ee5338dd-18a1-4b48-a5b0-f8c72f7b1319"},"vehicle_type_id":"4","last_reported":1752271816,"current_range_meters":19200,"station_id":"","pricing_plan_id":"cebpf4jnsgd1na2vs0mg"},{"bike_id":"ef7e81cb-482f-4088-a5e9-ae06d5246ba9","system_id":"levelo_inurba_marseille","lat":43.29026,"lon":5.3866,"is_reserved":false,"is_disabled":false,"rental_uris":{"android":"levelo://app?vid=ef7e81cb-482f-4088-a5e9-ae06d5246ba9","ios":"levelo://app?vid=ef7e81cb-482f-4088-a5e9-ae06d5246ba9"},"vehicle_type_id":"4","last_reported":1752271816,"current_range_meters":19200,"station_id":"ce4bh4p2rcd13ifvqe0g","pricing_plan_id":"cebpf4jnsgd1na2vs0mg"},{"bike_id":"1cef150b-b548-4c02-ad02-bbeb0cc85422","system_id":"levelo_inurba_marseille","lat":43.24811,"lon":5.37454,"is_reserved":false,"is_disabled":false,"rental_uris":{"android":"levelo://app?vid=1cef150b-b548-4c02-ad02-bbeb0cc85422","ios":"levelo://app?vid=1cef150b-b548-4c02-ad02-bbeb0cc85422"},"vehicle_type_id":"4","last_reported":1752271816,"current_range_meters":19200,"station_id":"ce4bhgh2rcd13ifvqfb0","pricing_plan_id":"cebpf4jnsgd1na2vs0mg"},{"bike_id":"46f56060-ef82-4815-aade-b0c4dea361e2","system_id":"levelo_inurba_marseille","lat":43.25111,"lon":5.40338,"is_reserved":false,"is_disabled":false,"rental_uris":{"android":"levelo://app?vid=46f56060-ef82-4815-aade-b0c4dea361e2","ios":"levelo://app?vid=46f56060-ef82-4815-aade-b0c4dea361e2"},"vehicle_type_id":"4","last_reported":1752271816,"current_range_meters":19200,"station_id":"ce4bhlh2rcd13ifvqgig","pricing_plan_id":"cebpf4jnsgd1na2vs0mg"},{"bike_id":"486ee436-dc2c-4cbf-b133-565f554ddb1e","system_id":"levelo_inurba_marseille","lat":43.25118,"lon":5.40324,"is_reserved":false,"is_disabled":false,"rental_uris":{"android":"levelo://app?vid=486ee436-dc2c-4cbf-b133-565f554ddb1e","ios":"levelo://app?vid=486ee436-dc2c-4cbf-b133-565f554ddb1e"},"vehicle_type_id":"4","last_reported":1752271816,"current_range_meters":19200,"station_id":"ce4bhlh2rcd13ifvqgig","pricing_plan_id":"cebpf4jnsgd1na2vs0mg"},{"bike_id":"1550d62c-ac23-4182-a92a-927896c39981","system_id":"levelo_inurba_marseille","lat":43.33028,"lon":5.38064,"is_reserved":false,"is_disabled":false,"rental_uris":{"android":"levelo://app?vid=1550d62c-ac23-4182-a92a-927896c39981","ios":"levelo://app?vid=1550d62c-ac23-4182-a92a-927896c39981"},"vehicle_type_id":"4","last_reported":1752271816,"current_range_meters":19200,"station_id":"","pricing_plan_id":"cebpf4jnsgd1na2vs0mg"},{"bike_id":"8e96cc1c-7c1c-42f1-8e93-5f09751459d9","system_id":"levelo_inurba_marseille","lat":43.29299,"lon":5.37472,"is_reserved":false,"is_disabled":true,"rental_uris":{"android":"levelo://app?vid=8e96cc1c-7c1c-42f1-8e93-5f09751459d9","ios":"levelo://app?vid=8e96cc1c-7c1c-42f1-8e93-5f09751459d9"},"vehicle_type_id":"4","last_reported":1752271816,"current_range_meters":19200,"station_id":"ce4bgi12rcd13ifvqb70","pricing_plan_id":"cebpf4jnsgd1na2vs0mg"},{"bike_id":"a0137104-c9f4-434a-a5e3-80725cd5a2b4","system_id":"levelo_inurba_marseille","lat":43.21183,"lon":5.35084,"is_reserved":false,"is_disabled":false,"rental_uris":{"android":"levelo://app?vid=a0137104-c9f4-434a-a5e3-80725cd5a2b4","ios":"levelo://app?vid=a0137104-c9f4-434a-a5e3-80725cd5a2b4"},"vehicle_type_id":"4","last_reported":1752271816,"current_range_meters":19200,"station_id":"st_cvj6sg6p6f1abm77japg","pricing_plan_id":"cebpf4jnsgd1na2vs0mg"},{"bike_id":"00bb04d2-087b-4ba0-958b-5c83f2321f0a","system_id":"levelo_inurba_marseille","lat":43.29546,"lon":5.42318,"is_reserved":false,"is_disabled":false,"rental_uris":{"android":"levelo://app?vid=00bb04d2-087b-4ba0-958b-5c83f2321f0a","ios":"levelo://app?vid=00bb04d2-087b-4ba0-958b-5c83f2321f0a"},"vehicle_type_id":"4","last_reported":1752271816,"current_range_meters":19600,"station_id":"ce4bhph2rcd13ifvqhdg","pricing_plan_id":"cebpf4jnsgd1na2vs0mg"},{"bike_id":"56c23c94-f8a3-45f1-954b-97e889802efd","system_id":"levelo_inurba_marseille","lat":43.29926,"lon":5.3655,"is_reserved":false,"is_disabled":false,"rental_uris":{"android":"levelo://app?vid=56c23c94-f8a3-45f1-954b-97e889802efd","ios":"levelo://app?vid=56c23c94-f8a3-45f1-954b-97e889802efd"},"vehicle_type_id":"4","last_reported":1752271816,"current_range_meters":19600,"station_id":"ce4bgm92rcd13ifvqbr0","pricing_plan_id":"cebpf4jnsgd1na2vs0mg"},{"bike_id":"7ba2e93a-108d-4f0b-b323-96c57e6d1024","system_id":"levelo_inurba_marseille","lat":43.28001,"lon":5.40011,"is_reserved":false,"is_disabled":false,"rental_uris":{"android":"levelo://app?vid=7ba2e93a-108d-4f0b-b323-96c57e6d1024","ios":"levelo://app?vid=7ba2e93a-108d-4f0b-b323-96c57e6d1024"},"vehicle_type_id":"4","last_reported":1752271816,"current_range_meters":19600,"station_id":"ce4bho92rcd13ifvqh4g","pricing_plan_id":"cebpf4jnsgd1na2vs0mg"},{"bike_id":"a82dd6e1-7dd9-4044-97f1-79ae16e1070c","system_id":"levelo_inurba_marseille","lat":43.29252,"lon":5.40917,"is_reserved":false,"is_disabled":false,"rental_uris":{"android":"levelo://app?vid=a82dd6e1-7dd9-4044-97f1-79ae16e1070c","ios":"levelo://app?vid=a82dd6e1-7dd9-4044-97f1-79ae16e1070c"},"vehicle_type_id":"4","last_reported":1752271816,"current_range_meters":19600,"station_id":"ce4bh192rcd13ifvqdc0","pricing_plan_id":"cebpf4jnsgd1na2vs0mg"},{"bike_id":"d799b321-3a7d-4201-b46e-ffe2ad124f19","system_id":"levelo_inurba_marseille","lat":43.32879,"lon":5.38409,"is_reserved":false,"is_disabled":false,"rental_uris":{"android":"levelo://app?vid=d799b321-3a7d-4201-b46e-ffe2ad124f19","ios":"levelo://app?vid=d799b321-3a7d-4201-b46e-ffe2ad124f19"},"vehicle_type_id":"4","last_reported":1752271816,"current_range_meters":19600,"station_id":"","pricing_plan_id":"cebpf4jnsgd1na2vs0mg"},{"bike_id":"44a98a58-e6a2-4248-a4cb-6cc7f2eec709","system_id":"levelo_inurba_marseille","lat":43.29034,"lon":5.38668,"is_reserved":false,"is_disabled":false,"rental_uris":{"android":"levelo://app?vid=44a98a58-e6a2-4248-a4cb-6cc7f2eec709","ios":"levelo://app?vid=44a98a58-e6a2-4248-a4cb-6cc7f2eec709"},"vehicle_type_id":"4","last_reported":1752271816,"current_range_meters":19600,"station_id":"ce4bh4p2rcd13ifvqe0g","pricing_plan_id":"cebpf4jnsgd1na2vs0mg"},{"bike_id":"4f2bffd5-43cc-47cd-acbd-330dd5efe017","system_id":"levelo_inurba_marseille","lat":43.32652,"lon":5.41003,"is_reserved":false,"is_disabled":false,"rental_uris":{"android":"levelo://app?vid=4f2bffd5-43cc-47cd-acbd-330dd5efe017","ios":"levelo://app?vid=4f2bffd5-43cc-47cd-acbd-330dd5efe017"},"vehicle_type_id":"4","last_reported":1752271816,"current_range_meters":20000,"station_id":"ce4bhpp2rcd13ifvqhgg","pricing_plan_id":"cebpf4jnsgd1na2vs0mg"},{"bike_id":"b69f6cc2-602c-49fb-ba7d-0391baa3af25","system_id":"levelo_inurba_marseille","lat":43.24827,"lon":5.37462,"is_reserved":false,"is_disabled":false,"rental_uris":{"android":"levelo://app?vid=b69f6cc2-602c-49fb-ba7d-0391baa3af25","ios":"levelo://app?vid=b69f6cc2-602c-49fb-ba7d-0391baa3af25"},"vehicle_type_id":"4","last_reported":1752271816,"current_range_meters":20000,"station_id":"ce4bhgh2rcd13ifvqfb0","pricing_plan_id":"cebpf4jnsgd1na2vs0mg"},{"bike_id":"319225f2-7459-44d7-a84e-41d93244a074","system_id":"levelo_inurba_marseille","lat":43.29545,"lon":5.42309,"is_reserved":false,"is_disabled":false,"rental_uris":{"android":"levelo://app?vid=319225f2-7459-44d7-a84e-41d93244a074","ios":"levelo://app?vid=319225f2-7459-44d7-a84e-41d93244a074"},"vehicle_type_id":"4","last_reported":1752271816,"current_range_meters":20000,"station_id":"ce4bhph2rcd13ifvqhdg","pricing_plan_id":"cebpf4jnsgd1na2vs0mg"},{"bike_id":"15c005ca-52e7-4b89-8afe-4bc56f68590a","system_id":"levelo_inurba_marseille","lat":43.2656,"lon":5.39021,"is_reserved":false,"is_disabled":false,"rental_uris":{"android":"levelo://app?vid=15c005ca-52e7-4b89-8afe-4bc56f68590a","ios":"levelo://app?vid=15c005ca-52e7-4b89-8afe-4bc56f68590a"},"vehicle_type_id":"4","last_reported":1752271816,"current_range_meters":20000,"station_id":"ce4bhe12rcd13ifvqf30","pricing_plan_id":"cebpf4jnsgd1na2vs0mg"},