{"last_updated":1733746807,"ttl":60,"version":"2.2","data":{"bikes":[{"bike_id":"e3ec3af1-7bf1-430a-953d-6924b6c71ac1","system_id":"levelo_inurba_marseille","lat":43.30551,"lon":5.36563,"is_reserved":false,"is_disabled":false,"rental_uris":{"android":"levelo://app?vid=e3ec3af1-7bf1-430a-953d-6924b6c71ac1","ios":"levelo://app?vid=e3ec3af1-7bf1-430a-953d-6924b6c71ac1"},"vehicle_type_id":"4","last_reported":1733746807,"current_range_meters":32400,"station_id":"ce4bgs12rcd13ifvqcag","pricing_plan_id":"cebpf4jnsgd1na2vs0mg"},{"bike_id":"878a96d3-6236-4b1f-81fa-3aafce8c3c11","system_id":"levelo_inurba_marseille","lat":43.29735,"lon":5.37691,"is_reserved":false,"is_disabled":false,"rental_uris":{"android":"levelo://app?vid=878a96d3-6236-4b1f-81fa-3aafce8c3c11","ios":"levelo://app?vid=878a96d3-6236-4b1f-81fa-3aafce8c3c11"},"vehicle_type_id":"4","last_reported":1733746807,"current_range_meters":10000,"station_id":"ce4bgkh2rcd13ifvqbl0","pricing_plan_id":"cebpf4jnsgd1na2vs0mg"},{"bike_id":"8e029eaf-e104-4c5d-858d-6cd39de73d09","system_id":"levelo_inurba_marseille","lat":43.24158,"lon":5.36405,"is_reserved":false,"is_disabled":false,"rental_uris":{"android":"levelo://app?vid=8e029eaf-e104-4c5d-858d-6cd39de73d09","ios":"levelo://app?vid=8e029eaf-e104-4c5d-858d-6cd39de73d09"},"vehicle_type_id":"4","last_reported":1733746807,"current_range_meters":22800,"station_id":"cpo36qri1sfpv3e86is0","pricing_plan_id":"cebpf4jnsgd1na2vs0mg"},{"bike_id":"7bc62a75-e447-408e-8c41-af432d7f19d2","system_id":"levelo_inurba_marseille","lat":43.27982,"lon":5.38758,"is_reserved":false,"is_disabled":false,"rental_uris":{"android":"levelo://app?vid=7bc62a75-e447-408e-8c41-af432d7f19d2","ios":"levelo://app?vid=7bc62a75-e447-408e-8c41-af432d7f19d2"},"vehicle_type_id":"4","last_reported":1733746807,"current_range_meters":18000,"station_id":"ce4bhg12rcd13ifvqf80","pricing_plan_id":"cebpf4jnsgd1na2vs0mg"},{"bike_id":"a8f51250-5df8-4a33-90cc-2bd162226f64","system_id":"levelo_inurba_marseille","lat":43.24182,"lon":5.39731,"is_reserved":false,"is_disabled":false,"rental_uris":{"android":"levelo://app?vid=a8f51250-5df8-4a33-90cc-2bd162226f64","ios":"levelo://app?vid=a8f51250-5df8-4a33-90cc-2bd162226f64"},"vehicle_type_id":"4","last_reported":1733746807,"current_range_meters":35200,"station_id":"ce4bhn12rcd13ifvqgpg","pricing_plan_id":"cebpf4jnsgd1na2vs0mg"},{"bike_id":"ba5e9603-9efa-46a1-a491-af58be8cd5cb","system_id":"levelo_inurba_marseille","lat":43.32364,"lon":5.36753,"is_reserved":false,"is_disabled":false,"rental_uris":{"android":"levelo://app?vid=ba5e9603-9efa-46a1-a491-af58be8cd5cb","ios":"levelo://app?vid=ba5e9603-9efa-46a1-a491-af58be8cd5cb"},"vehicle_type_id":"4","last_reported":1733746807,"current_range_meters":36400,"station_id":"ce4bhsh2rcd13ifvqi2g","pricing_plan_id":"cebpf4jnsgd1na2vs0mg"},{"bike_id":"7076e633-86a9-45e7-b89b-adbd9a632e0f","system_id":"levelo_inurba_marseille","lat":43.24382,"lon":5.37055,"is_reserved":false,"is_disabled":false,"rental_uris":{"android":"levelo://app?vid=7076e633-86a9-45e7-b89b-adbd9a632e0f","ios":"levelo://app?vid=7076e633-86a9-45e7-b89b-adbd9a632e0f"},"vehicle_type_id":"4","last_reported":1733746807,"current_range_meters":39200,"station_id":"ce4bhhh2rcd13ifvqfk0","pricing_plan_id":"cebpf4jnsgd1na2vs0mg"},{"bike_id":"fd18c155-5606-4d8c-b7f8-52fc47ce1611","system_id":"levelo_inurba_marseille","lat":43.25501,"lon":5.37656,"is_reserved":false,"is_disabled":false,"rental_uris":{"android":"levelo://app?vid=fd18c155-5606-4d8c-b7f8-52fc47ce1611","ios":"levelo://app?vid=fd18c155-5606-4d8c-b7f8-52fc47ce1611"},"vehicle_type_id":"4","last_reported":1733746807,"current_range_meters":31200,"station_id":"ce4bhh12rcd13ifvqff0","pricing_plan_id":"cebpf4jnsgd1na2vs0mg"},{"bike_id":"8bd642b2-0279-44c7-9ee2-fc3b57332c83","system_id":"levelo_inurba_marseille","lat":43.27455,"lon":5.40073,"is_reserved":false,"is_disabled":true,"rental_uris":{"android":"levelo://app?vid=8bd642b2-0279-44c7-9ee2-fc3b57332c83","ios":"levelo://app?vid=8bd642b2-0279-44c7-9ee2-fc3b57332c83"},"vehicle_type_id":"4","last_reported":1733746807,"current_range_meters":0,"station_id":"","pricing_plan_id":"cebpf4jnsgd1na2vs0mg"},{"bike_id":"4d6734ba-ecfc-4542-90d5-c7f302403810","system_id":"levelo_inurba_marseille","lat":43.24999,"lon":5.3894,"is_reserved":false,"is_disabled":false,"rental_uris":{"android":"levelo://app?vid=4d6734ba-ecfc-4542-90d5-c7f302403810","ios":"levelo://app?vid=4d6734ba-ecfc-4542-90d5-c7f302403810"},"vehicle_type_id":"4","last_reported":1733746807,"current_range_meters":9600,"station_id":"ce4bhgp2rcd13ifvqfd0","pricing_plan_id":"cebpf4jnsgd1na2vs0mg"},{"bike_id":"a32f2387-6816-4cd9-b83f-aea3da25d538","system_id":"levelo_inurba_marseille","lat":43.27206,"lon":5.39199,"is_reserved":false,"is_disabled":true,"rental_uris":{"android":"levelo://app?vid=a32f2387-6816-4cd9-b83f-aea3da25d538","ios":"levelo://app?vid=a32f2387-6816-4cd9-b83f-aea3da25d538"},"vehicle_type_id":"4","last_reported":1733746807,"current_range_meters":10000,"station_id":"ce4bhhp2rcd13ifvqfm0","pricing_plan_id":"cebpf4jnsgd1na2vs0mg"},{"bike_id":"78c11dd6-ee46-4a47-aa72-e5fca06ffb06","system_id":"levelo_inurba_marseille","lat":43.29847,"lon":5.3628,"is_reserved":false,"is_disabled":false,"rental_uris":{"android":"levelo://app?vid=78c11dd6-ee46-4a47-aa72-e5fca06ffb06","ios":"levelo://app?vid=78c11dd6-ee46-4a47-aa72-e5fca06ffb06"},"vehicle_type_id":"4","last_reported":1733746807,"current_range_meters":30400,"station_id":"ce4bgpp2rcd13ifvqc3g","pricing_plan_id":"cebpf4jnsgd1na2vs0mg"},{"bike_id":"f09914a1-032a-4233-965f-c73f49a269ba","system_id":"levelo_inurba_marseille","lat":43.337444,"lon":5.374475,"is_reserved":false,"is_disabled":true,"rental_uris":{"android":"levelo://app?vid=f09914a1-032a-4233-965f-c73f49a269ba","ios":"levelo://app?vid=f09914a1-032a-4233-965f-c73f49a269ba"},"vehicle_type_id":"4","last_reported":1733746807,"current_range_meters":0,"station_id":"","pricing_plan_id":"cebpf4jnsgd1na2vs0mg"},{"bike_id":"ca801751-b095-4db9-8a09-965a4a5d5400","system_id":"levelo_inurba_marseille","lat":43.26683,"lon":5.38277,"is_reserved":false,"is_disabled":false,"rental_uris":{"android":"levelo://app?vid=ca801751-b095-4db9-8a09-965a4a5d5400","ios":"levelo://app?vid=ca801751-b095-4db9-8a09-965a4a5d5400"},"vehicle_type_id":"4","last_reported":1733746807,"current_range_meters":38000,"station_id":"ce4bhg92rcd13ifvqf90","pricing_plan_id":"cebpf4jnsgd1na2vs0mg"},{"bike_id":"cb442d5a-cce0-41d7-9c51-b4c2e4d876d4","system_id":"levelo_inurba_marseille","lat":43.32634,"lon":5.36472,"is_reserved":false,"is_disabled":false,"rental_uris":{"android":"levelo://app?vid=cb442d5a-cce0-41d7-9c51-b4c2e4d876d4","ios":"levelo://app?vid=cb442d5a-cce0-41d7-9c51-b4c2e4d876d4"},"vehicle_type_id":"4","last_reported":1733746807,"current_range_meters":28000,"station_id":"","pricing_plan_id":"cebpf4jnsgd1na2vs0mg"},{"bike_id":"650aedbd-7fe9-41b2-ab79-4b8450652642","system_id":"levelo_inurba_marseille","lat":43.29186,"lon":5.35805,"is_reserved":false,"is_disabled":true,"rental_uris":{"android":"levelo://app?vid=650aedbd-7fe9-41b2-ab79-4b8450652642","ios":"levelo://app?vid=650aedbd-7fe9-41b2-ab79-4b8450652642"},"vehicle_type_id":"4","last_reported":1733746807,"current_range_meters":32400,"station_id":"ce4bhb12rcd13ifvqel0","pricing_plan_id":"cebpf4jnsgd1na2vs0mg"},{"bike_id":"949cda8c-da96-46e7-9f14-da0213e57002","system_id":"levelo_inurba_marseille","lat":43.2407,"lon":5.37763,"is_reserved":false,"is_disabled":false,"rental_uris":{"android":"levelo://app?vid=949cda8c-da96-46e7-9f14-da0213e57002","ios":"levelo://app?vid=949cda8c-da96-46e7-9f14-da0213e57002"},"vehicle_type_id":"4","last_reported":1733746807,"current_range_meters":16800,"station_id":"ce4bhnp2rcd13ifvqgvg","pricing_plan_id":"cebpf4jnsgd1na2vs0mg"},{"bike_id":"1055c99e-6a30-4bd9-b979-6d399b57fff2","system_id":"levelo_inurba_marseille","lat":43.29898,"lon":5.4367,"is_reserved":false,"is_disabled":false,"rental_uris":{"android":"levelo://app?vid=1055c99e-6a30-4bd9-b979-6d399b57fff2","ios":"levelo://app?vid=1055c99e-6a30-4bd9-b979-6d399b57fff2"},"vehicle_type_id":"4","last_reported":1733746807,"current_range_meters":31200,"station_id":"ce4bhpp2rcd13ifvqhfg","pricing_plan_id":"cebpf4jnsgd1na2vs0mg"},{"bike_id":"82becea1-2f70-4634-93c8-9a8542ce239b","system_id":"levelo_inurba_marseille","lat":43.24678,"lon":5.38162,"is_reserved":false,"is_disabled":false,"rental_uris":{"android":"levelo://app?vid=82becea1-2f70-4634-93c8-9a8542ce239b","ios":"levelo://app?vid=82becea1-2f70-4634-93c8-9a8542ce239b"},"vehicle_type_id":"4","last_reported":1733746807,"current_range_meters":24400,"station_id":"ce4bhih2rcd13ifvqfr0","pricing_plan_id":"cebpf4jnsgd1na2vs0mg"},{"bike_id":"95cfddd6-1f3c-4fd2-9652-931f20cf06bd","system_id":"levelo_inurba_marseille","lat":43.25579,"lon":5.38247,"is_reserved":false,"is_disabled":false,"rental_uris":{"android":"levelo://app?vid=95cfddd6-1f3c-4fd2-9652-931f20cf06bd","ios":"levelo://app?vid=95cfddd6-1f3c-4fd2-9652-931f20cf06bd"},"vehicle_type_id":"4","last_reported":1733746807,"current_range_meters":20800,"station_id":"ce4bhih2rcd13ifvqfs0","pricing_plan_id":"cebpf4jnsgd1na2vs0mg"},{"bike_id":"faa7bf9c-8f43-4d37-ad83-5c946172d0a9","system_id":"levelo_inurba_marseille","lat":43.26032,"lon":5.37562,"is_reserved":false,"is_disabled":false,"rental_uris":{"android":"levelo://app?vid=faa7bf9c-8f43-4d37-ad83-5c946172d0a9","ios":"levelo://app?vid=faa7bf9c-8f43-4d37-ad83-5c946172d0a9"},"vehicle_type_id":"4","last_reported":1733746807,"current_range_meters":35200,"station_id":"ce4bhgh2rcd13ifvqfa0","pricing_plan_id":"cebpf4jnsgd1na2vs0mg"},{"bike_id":"c5eeea5d-215e-4676-bc90-d2c67a2510d0","system_id":"levelo_inurba_marseille","lat":43.29417,"lon":5.38631,"is_reserved":false,"is_disabled":false,"rental_uris":{"android":"levelo://app?vid=c5eeea5d-215e-4676-bc90-d2c67a2510d0","ios":"levelo://app?vid=c5eeea5d-215e-4676-bc90-d2c67a2510d0"},"vehicle_type_id":"4","last_reported":1733746807,"current_range_meters":38800,"station_id":"ce4bh2h2rcd13ifvqdh0","pricing_plan_id":"cebpf4jnsgd1na2vs0mg"},{"bike_id":"7d5a2045-d7bb-40e9-b142-f14242744b22","system_id":"levelo_inurba_marseille","lat":43.29707,"lon":5.36595,"is_reserved":false,"is_disabled":false,"rental_uris":{"android":"levelo://app?vid=7d5a2045-d7bb-40e9-b142-f14242744b22","ios":"levelo://app?vid=7d5a2045-d7bb-40e9-b142-f14242744b22"},"vehicle_type_id":"4","last_reported":1733746807,"current_range_meters":34800,"station_id":"ce4bgn12rcd13ifvqbt0","pricing_plan_id":"cebpf4jnsgd1na2vs0mg"},{"bike_id":"cb279b37-69c4-4632-9e9c-3b04ffd71cfb","system_id":"levelo_inurba_marseille","lat":43.32541,"lon":5.41426,"is_reserved":false,"is_disabled":false,"rental_uris":{"android":"levelo://app?vid=cb279b37-69c4-4632-9e9c-3b04ffd71cfb","ios":"levelo://app?vid=cb279b37-69c4-4632-9e9c-3b04ffd71cfb"},"vehicle_type_id":"4","last_reported":1733746807,"current_range_meters":18000,"station_id":"ce4bhq12rcd13ifvqhhg","pricing_plan_id":"cebpf4jnsgd1na2vs0mg"},{"bike_id":"9fe6b7cd-2407-4646-bd70-b263eb65c9e1","system_id":"levelo_inurba_marseille","lat":43.33715,"lon":5.39181,"is_reserved":false,"is_disabled":false,"rental_uris":{"android":"levelo://app?vid=9fe6b7cd-2407-4646-bd70-b263eb65c9e1","ios":"levelo://app?vid=9fe6b7cd-2407-4646-bd70-b263eb65c9e1"},"vehicle_type_id":"4","last_reported":1733746807,"current_range_meters":26800,"station_id":"ce4bhr92rcd13ifvqhsg","pricing_plan_id":"cebpf4jnsgd1na2vs0mg"},{"bike_id":"7ce7cf12-335b-4aea-bf7b-f495438b5ff6","system_id":"levelo_inurba_marseille","lat":43.24164,"lon":5.36389,"is_reserved":false,"is_disabled":false,"rental_uris":{"android":"levelo://app?vid=7ce7cf12-335b-4aea-bf7b-f495438b5ff6","ios":"levelo://app?vid=7ce7cf12-335b-4aea-bf7b-f495438b5ff6"},"vehicle_type_id":"4","last_reported":1733746807,"current_range_meters":10800,"station_id":"cpo36qri1sfpv3e86is0","pricing_plan_id":"cebpf4jnsgd1na2vs0mg"},{"bike_id":"938640b4-f78c-4def-9b16-e6205edb88bc","system_id":"levelo_inurba_marseille","lat":43.28154,"lon":5.42636,"is_reserved":false,"is_disabled":true,"rental_uris":{"android":"levelo://app?vid=938640b4-f78c-4def-9b16-e6205edb88bc","ios":"levelo://app?vid=938640b4-f78c-4def-9b16-e6205edb88bc"},"vehicle_type_id":"4","last_reported":1733746807,"current_range_meters":36000,"station_id":"ce4bhnh2rcd13ifvqgug","pricing_plan_id":"cebpf4jnsgd1na2vs0mg"},{"bike_id":"e1729548-b450-4fc8-93a5-2bc651267bf5","system_id":"levelo_inurba_marseille","lat":43.29931,"lon":5.3656,"is_reserved":false,"is_disabled":false,"rental_uris":{"android":"levelo://app?vid=e1729548-b450-4fc8-93a5-2bc651267bf5","ios":"levelo://app?vid=e1729548-b450-4fc8-93a5-2bc651267bf5"},"vehicle_type_id":"4","last_reported":1733746807,"current_range_meters":20400,"station_id":"ce4bgm92rcd13ifvqbr0","pricing_plan_id":"cebpf4jnsgd1na2vs0mg"},{"bike_id":"9776ab8f-8e39-4ee5-b7ba-1910b2750a64","system_id":"levelo_inurba_marseille","lat":43.29442,"lon":5.39744,"is_reserved":false,"is_disabled":false,"rental_uris":{"android":"levelo://app?vid=9776ab8f-8e39-4ee5-b7ba-1910b2750a64","ios":"levelo://app?vid=9776ab8f-8e39-4ee5-b7ba-1910b2750a64"},"vehicle_type_id":"4","last_reported":1733746807,"current_range_meters":38800,"station_id":"ce4bh3h2rcd13ifvqdo0","pricing_plan_id":"cebpf4jnsgd1na2vs0mg"},{"bike_id":"cf55b169-9388-4819-bfa4-c55a8fa03873","system_id":"levelo_inurba_marseille","lat":43.27611,"lon":5.36109,"is_reserved":false,"is_disabled":true,"rental_uris":{"android":"levelo://app?vid=cf55b169-9388-4819-bfa4-c55a8fa03873","ios":"levelo://app?vid=cf55b169-9388-4819-bfa4-c55a8fa03873"},"vehicle_type_id":"4","last_reported":1733746807,"current_range_meters":30000,"station_id":"ce4bgj92rcd13ifvqbe0","pricing_plan_id":"cebpf4jnsgd1na2vs0mg"},{"bike_id":"2f3968e7-9336-4ee4-ba78-8e92c0a818cc","system_id":"levelo_inurba_marseille","lat":43.31322,"lon":5.36647,"is_reserved":false,"is_disabled":true,"rental_uris":{"android":"levelo://app?vid=2f3968e7-9336-4ee4-ba78-8e92c0a818cc","ios":"levelo://app?vid=2f3968e7-9336-4ee4-ba78-8e92c0a818cc"},"vehicle_type_id":"4","last_reported":1733746807,"current_range_meters":0,"station_id":"","pricing_plan_id":"cebpf4jnsgd1na2vs0mg"},{"bike_id":"442ec397-f107-4c75-99a4-d95d87577819","system_id":"levelo_inurba_marseille","lat":43.25502,"lon":5.3765,"is_reserved":false,"is_disabled":false,"rental_uris":{"android":"levelo://app?vid=442ec397-f107-4c75-99a4-d95d87577819","ios":"levelo://app?vid=442ec397-f107-4c75-99a4-d95d87577819"},"vehicle_type_id":"4","last_reported":1733746807,"current_range_meters":38800,"station_id":"ce4bhh12rcd13ifvqff0","pricing_plan_id":"cebpf4jnsgd1na2vs0mg"},{"bike_id":"39919d78-4e9f-4dc8-a3fe-e397440e1cbb","system_id":"levelo_inurba_marseille","lat":43.30181,"lon":5.36628,"is_reserved":false,"is_disabled":false,"rental_uris":{"android":"levelo://app?vid=39919d78-4e9f-4dc8-a3fe-e397440e1cbb","ios":"levelo://app?vid=39919d78-4e9f-4dc8-a3fe-e397440e1cbb"},"vehicle_type_id":"4","last_reported":1733746807,"current_range_meters":28000,"station_id":"ce4bgrh2rcd13ifvqc8g","pricing_plan_id":"cebpf4jnsgd1na2vs0mg"},{"bike_id":"1399a3ef-92a4-445c-bd1d-5e76f10167f9","system_id":"levelo_inurba_marseille","lat":43.29252,"lon":5.4092,"is_reserved":false,"is_disabled":false,"rental_uris":{"android":"levelo://app?vid=1399a3ef-92a4-445c-bd1d-5e76f10167f9","ios":"levelo://app?vid=1399a3ef-92a4-445c-bd1d-5e76f10167f9"},"vehicle_type_id":"4","last_reported":1733746807,"current_range_meters":22000,"station_id":"ce4bh192rcd13ifvqdc0","pricing_plan_id":"cebpf4jnsgd1na2vs0mg"},{"bike_id":"6d34cc84-2e6c-4e40-ae0d-d77091ecdb17","system_id":"levelo_inurba_marseille","lat":43.27074,"lon":5.42286,"is_reserved":false,"is_disabled":false,"rental_uris":{"android":"levelo://app?vid=6d34cc84-2e6c-4e40-ae0d-d77091ecdb17","ios":"levelo://app?vid=6d34cc84-2e6c-4e40-ae0d-d77091ecdb17"},"vehicle_type_id":"4","last_reported":1733746807,"current_range_meters":33200,"station_id":"ce4bhk92rcd13ifvqgb0","pricing_plan_id":"cebpf4jnsgd1na2vs0mg"},{"bike_id":"7f0b121b-7748-43bd-b861-318cbdf6fb69","system_id":"levelo_inurba_marseille","lat":43.28459,"lon":5.35892,"is_reserved":false,"is_disabled":true,"rental_uris":{"android":"levelo://app?vid=7f0b121b-7748-43bd-b861-318cbdf6fb69","ios":"levelo://app?vid=7f0b121b-7748-43bd-b861-318cbdf6fb69"},"vehicle_type_id":"4","last_reported":1733746807,"current_range_meters":6000,"station_id":"ce4bhah2rcd13ifvqei0","pricing_plan_id":"cebpf4jnsgd1na2vs0mg"},{"bike_id":"6583aefc-6815-4bd5-8f5c-a9c5d794f47e","system_id":"levelo_inurba_marseille","lat":43.36443,"lon":5.34241,"is_reserved":false,"is_disabled":false,"rental_uris":{"android":"levelo://app?vid=6583aefc-6815-4bd5-8f5c-a9c5d794f47e","ios":"levelo://app?vid=6583aefc-6815-4bd5-8f5c-a9c5d794f47e"},"vehicle_type_id":"4","last_reported":1733746807,"current_range_meters":14800,"station_id":"","pricing_plan_id":"cebpf4jnsgd1na2vs0mg"},{"bike_id":"7377d45e-6547-4992-b23a-eb80278f7871","system_id":"levelo_inurba_marseille","lat":43.26487,"lon":5.39549,"is_reserved":false,"is_disabled":false,"rental_uris":{"android":"levelo://app?vid=7377d45e-6547-4992-b23a-eb80278f7871","ios":"levelo://app?vid=7377d45e-6547-4992-b23a-eb80278f7871"},"vehicle_type_id":"4","last_reported":1733746807,"current_range_meters":33200,"station_id":"ce4bhi12rcd13ifvqfq0","pricing_plan_id":"cebpf4jnsgd1na2vs0mg"},{"bike_id":"6738dbdc-10d7-4808-8efe-1811d7c261b3","system_id":"levelo_inurba_marseille","lat":43.30541,"lon":5.36703,"is_reserved":false,"is_disabled":false,"rental_uris":{"android":"levelo://app?vid=6738dbdc-10d7-4808-8efe-1811d7c261b3","ios":"levelo://app?vid=6738dbdc-10d7-4808-8efe-1811d7c261b3"},"vehicle_type_id":"4","last_reported":1733746807,"current_range_meters":14400,"station_id":"ce4bgrp2rcd13ifvqc9g","pricing_plan_id":"cebpf4jnsgd1na2vs0mg"},{"bike_id":"8c7a6400-9f79-403c-b59a-e8e456bb0ff8","system_id":"levelo_inurba_marseille","lat":43.27073,"lon":5.42292,"is_reserved":false,"is_disabled":false,"rental_uris":{"android":"levelo://app?vid=8c7a6400-9f79-403c-b59a-e8e456bb0ff8","ios":"levelo://app?vid=8c7a6400-9f79-403c-b59a-e8e456bb0ff8"},"vehicle_type_id":"4","last_reported":1733746807,"current_range_meters":38800,"station_id":"ce4bhk92rcd13ifvqgb0","pricing_plan_id":"cebpf4jnsgd1na2vs0mg"},{"bike_id":"cc2692dc-c871-4555-8f1d-ad3a4cba46fe","system_id":"levelo_inurba_marseille","lat":43.30585,"lon":5.39357,"is_reserved":false,"is_disabled":false,"rental_uris":{"android":"levelo://app?vid=cc2692dc-c871-4555-8f1d-ad3a4cba46fe","ios":"levelo://app?vid=cc2692dc-c871-4555-8f1d-ad3a4cba46fe"},"vehicle_type_id":"4","last_reported":1733746807,"current_range_meters":28800,"station_id":"ce4bh0p2rcd13ifvqd80","pricing_plan_id":"cebpf4jnsgd1na2vs0mg"},{"bike_id":"468d023e-e483-49f2-92d7-7b95c7b3c650","system_id":"levelo_inurba_marseille","lat":43.29892,"lon":5.4366,"is_reserved":false,"is_disabled":false,"rental_uris":{"android":"levelo://app?vid=468d023e-e483-49f2-92d7-7b95c7b3c650","ios":"levelo://app?vid=468d023e-e483-49f2-92d7-7b95c7b3c650"},"vehicle_type_id":"4","last_reported":1733746807,"current_range_meters":38800,"station_id":"ce4bhpp2rcd13ifvqhfg","pricing_plan_id":"cebpf4jnsgd1na2vs0mg"},{"bike_id":"be11bf77-dce6-4575-b3d6-de65c68412a2","system_id":"levelo_inurba_marseille","lat":43.26056,"lon":5.394,"is_reserved":false,"is_disabled":false,"rental_uris":{"android":"levelo://app?vid=be11bf77-dce6-4575-b3d6-de65c68412a2","ios":"levelo://app?vid=be11bf77-dce6-4575-b3d6-de65c68412a2"},"vehicle_type_id":"4","last_reported":1733746807,"current_range_meters":36800,"station_id":"ce4bhh92rcd13ifvqfj0","pricing_plan_id":"cebpf4jnsgd1na2vs0mg"},{"bike_id":"49213fa3-142b-4e8e-a212-30a049376c3f","system_id":"levelo_inurba_marseille","lat":43.23153,"lon":5.43713,"is_reserved":false,"is_disabled":false,"rental_uris":{"android":"levelo://app?vid=49213fa3-142b-4e8e-a212-30a049376c3f","ios":"levelo://app?vid=49213fa3-142b-4e8e-a212-30a049376c3f"},"vehicle_type_id":"4","last_reported":1733746807,"current_range_meters":19200,"station_id":"ce4bhmp2rcd13ifvqgog","pricing_plan_id":"cebpf4jnsgd1na2vs0mg"},{"bike_id":"f10c5e90-601b-4bd4-87e7-4cbb6a13a4fb","system_id":"levelo_inurba_marseille","lat":43.26123,"lon":5.39268,"is_reserved":false,"is_disabled":true,"rental_uris":{"android":"levelo://app?vid=f10c5e90-601b-4bd4-87e7-4cbb6a13a4fb","ios":"levelo://app?vid=f10c5e90-601b-4bd4-87e7-4cbb6a13a4fb"},"vehicle_type_id":"4","last_reported":1733746807,"current_range_meters":0,"station_id":"","pricing_plan_id":"cebpf4jnsgd1na2vs0mg"},{"bike_id":"00339817-9333-484f-a692-33d924352b29","system_id":"levelo_inurba_marseille","lat":43.28846,"lon":5.35848,"is_reserved":false,"is_disabled":false,"rental_uris":{"android":"levelo://app?vid=00339817-9333-484f-a692-33d924352b29","ios":"levelo://app?vid=00339817-9333-484f-a692-33d924352b29"},"vehicle_type_id":"4","last_reported":1733746807,"current_range_meters":24800,"station_id":"ce4bhb12rcd13ifvqem0","pricing_plan_id":"cebpf4jnsgd1na2vs0mg"},{"bike_id":"e49bac90-7c8f-4468-a1ce-d43e7732a138","system_id":"levelo_inurba_marseille","lat":43.34129,"lon":5.40917,"is_reserved":false,"is_disabled":false,"rental_uris":{"android":"levelo://app?vid=e49bac90-7c8f-4468-a1ce-d43e7732a138","ios":"levelo://app?vid=e49bac90-7c8f-4468-a1ce-d43e7732a138"},"vehicle_type_id":"4","last_reported":1733746807,"current_range_meters":38800,"station_id":"ce4bhqh2rcd13ifvqhlg","pricing_plan_id":"cebpf4jnsgd1na2vs0mg"},{"bike_id":"a9c92845-55ae-4653-9c5d-606f306a0f38","system_id":"levelo_inurba_marseille","lat":43.27066,"lon":5.40263,"is_reserved":false,"is_disabled":false,"rental_uris":{"android":"levelo://app?vid=a9c92845-55ae-4653-9c5d-606f306a0f38","ios":"levelo://app?vid=a9c92845-55ae-4653-9c5d-606f306a0f38"},"vehicle_type_id":"4","last_reported":1733746807,"current_range_meters":37600,"station_id":"ce4bhk92rcd13ifvqgc0","pricing_plan_id":"cebpf4jnsgd1na2vs0mg"},{"bike_id":"14dfaea3-3caa-4290-bde0-ff2aefcdc7be","system_id":"levelo_inurba_marseille","lat":43.26802,"lon":5.40272,"is_reserved":false,"is_disabled":false,"rental_uris":{"android":"levelo://app?vid=14dfaea3-3caa-4290-bde0-ff2aefcdc7be","ios":"levelo://app?vid=14dfaea3-3caa-4290-bde0-ff2aefcdc7be"},"vehicle_type_id":"4","last_reported":1733746807,"current_range_meters":38000,"station_id":"ce501612rcd8frsf0b60","pricing_plan_id":"cebpf4jnsgd1na2vs0mg"},{"bike_id":"5d900b8e-65af-49f6-9cd8-e21b37d3d530","system_id":"levelo_inurba_marseille","lat":43.24807,"lon":5.3746,"is_reserved":false,"is_disabled":false,"rental_uris":{"android":"levelo://app?vid=5d900b8e-65af-49f6-9cd8-e21b37d3d530","ios":"levelo://app?vid=5d900b8e-65af-49f6-9cd8-e21b37d3d530"},"vehicle_type_id":"4","last_reported":1733746807,"current_range_meters":29600,"station_id":"ce4bhgh2rcd13ifvqfb0","pricing_plan_id":"cebpf4jnsgd1na2vs0mg"},{"bike_id":"4d406fcb-1eb3-4c13-8e34-22ee43b77cef","system_id":"levelo_inurba_marseille","lat":43.27983,"lon":5.38753,"is_reserved":false,"is_disabled":false,"rental_uris":{"android":"levelo://app?vid=4d406fcb-1eb3-4c13-8e34-22ee43b77cef","ios":"levelo://app?vid=4d406fcb-1eb3-4c13-8e34-22ee43b77cef"},"vehicle_type_id":"4","last_reported":1733746807,"current_range_meters":38800,"station_id":"ce4bhg12rcd13ifvqf80","pricing_plan_id":"cebpf4jnsgd1na2vs0mg"},{"bike_id":"58c4a809-128a-4b73-86b2-6406fa5b615d","system_id":"levelo_inurba_marseille","lat":43.30536,"lon":5.36703,"is_reserved":false,"is_disabled":false,"rental_uris":{"android":"levelo://app?vid=58c4a809-128a-4b73-86b2-6406fa5b615d","ios":"levelo://app?vid=58c4a809-128a-4b73-86b2-6406fa5b615d"},"vehicle_type_id":"4","last_reported":1733746807,"current_range_meters":37600,"station_id":"ce4bgrp2rcd13ifvqc9g","pricing_plan_id":"cebpf4jnsgd1na2vs0mg"},{"bike_id":"48da8aae-4710-45d2-bd05-08252165ffb6","system_id":"levelo_inurba_marseille","lat":43.31693,"lon":5.40475,"is_reserved":false,"is_disabled":false,"rental_uris":{"android":"levelo://app?vid=48da8aae-4710-45d2-bd05-08252165ffb6","ios":"levelo://app?vid=48da8aae-4710-45d2-bd05-08252165ffb6"},"vehicle_type_id":"4","last_reported":1733746807,"current_range_meters":24000,"station_id":"ce4bh012rcd13ifvqd00","pricing_plan_id":"cebpf4jnsgd1na2vs0mg"},{"bike_id":"6f5aafc4-06b9-4dba-b612-5d926167490b","system_id":"levelo_inurba_marseille","lat":43.32484,"lon":5.36594,"is_reserved":false,"is_disabled":true,"rental_uris":{"android":"levelo://app?vid=6f5aafc4-06b9-4dba-b612-5d926167490b","ios":"levelo://app?vid=6f5aafc4-06b9-4dba-b612-5d926167490b"},"vehicle_type_id":"4","last_reported":1733746807,"current_range_meters":1200,"station_id":"ce4bhs12rcd13ifvqhvg","pricing_plan_id":"cebpf4jnsgd1na2vs0mg"},{"bike_id":"1a572d35-d484-45c0-8bc4-913107598312","system_id":"levelo_inurba_marseille","lat":43.27373,"lon":5.36247,"is_reserved":false,"is_disabled":false,"rental_uris":{"android":"levelo://app?vid=1a572d35-d484-45c0-8bc4-913107598312","ios":"levelo://app?vid=1a572d35-d484-45c0-8bc4-913107598312"},"vehicle_type_id":"4","last_reported":1733746807,"current_range_meters":28400,"station_id":"ce4bhbh2rcd13ifvqeo0","pricing_plan_id":"cebpf4jnsgd1na2vs0mg"},{"bike_id":"2b070ee9-d57b-47e2-9dcb-42e211bff210","system_id":"levelo_inurba_marseille","lat":43.28697,"lon":5.39987,"is_reserved":false,"is_disabled":false,"rental_uris":{"android":"levelo://app?vid=2b070ee9-d57b-47e2-9dcb-42e211bff210","ios":"levelo://app?vid=2b070ee9-d57b-47e2-9dcb-42e211bff210"},"vehicle_type_id":"4","last_reported":1733746807,"current_range_meters":3600,"station_id":"ce4bho92rcd13ifvqh3g","pricing_plan_id":"cebpf4jnsgd1na2vs0mg"},{"bike_id":"74ddbdc3-b082-4f44-a075-38dfc2e6b2cd","system_id":"levelo_inurba_marseille","lat":43.24163,"lon":5.36399,"is_reserved":false,"is_disabled":false,"rental_uris":{"android":"levelo://app?vid=74ddbdc3-b082-4f44-a075-38dfc2e6b2cd","ios":"levelo://app?vid=74ddbdc3-b082-4f44-a075-38dfc2e6b2cd"},"vehicle_type_id":"4","last_reported":1733746807,"current_range_meters":27200,"station_id":"cpo36qri1sfpv3e86is0","pricing_plan_id":"cebpf4jnsgd1na2vs0mg"},{"bike_id":"e4879495-5167-4765-a285-85d423aa6c56","system_id":"levelo_inurba_marseille","lat":43.29631,"lon":5.40599,"is_reserved":false,"is_disabled":false,"rental_uris":{"android":"levelo://app?vid=e4879495-5167-4765-a285-85d423aa6c56","ios":"levelo://app?vid=e4879495-5167-4765-a285-85d423aa6c56"},"vehicle_type_id":"4","last_reported":1733746807,"current_range_meters":16000,"station_id":"ce4bh0h2rcd13ifvqd60","pricing_plan_id":"cebpf4jnsgd1na2vs0mg"},{"bike_id":"8171ac9a-b6ac-4295-aad4-cdf4428d56ee","system_id":"levelo_inurba_marseille","lat":43.23195,"lon":5.35552,"is_reserved":false,"is_disabled":false,"rental_uris":{"android":"levelo://app?vid=8171ac9a-b6ac-4295-aad4-cdf4428d56ee","ios":"levelo://app?vid=8171ac9a-b6ac-4295-aad4-cdf4428d56ee"},"vehicle_type_id":"4","last_reported":1733746807,"current_range_meters":8400,"station_id":"ce4bhu92rcd13ifvqi70","pricing_plan_id":"cebpf4jnsgd1na2vs0mg"},{"bike_id":"35172008-bffd-4bf9-9720-ab88e5f3cfd8","system_id":"levelo_inurba_marseille","lat":43.27073,"lon":5.42284,"is_reserved":false,"is_disabled":false,"rental_uris":{"android":"levelo://app?vid=35172008-bffd-4bf9-9720-ab88e5f3cfd8","ios":"levelo://app?vid=35172008-bffd-4bf9-9720-ab88e5f3cfd8"},"vehicle_type_id":"4","last_reported":1733746807,"current_range_meters":38800,"station_id":"ce4bhk92rcd13ifvqgb0","pricing_plan_id":"cebpf4jnsgd1na2vs0mg"},{"bike_id":"f942e722-5039-4601-9971-0207b150598d","system_id":"levelo_inurba_marseille","lat":43.29847,"lon":5.36286,"is_reserved":false,"is_disabled":false,"rental_uris":{"android":"levelo://app?vid=f942e722-5039-4601-9971-0207b150598d","ios":"levelo://app?vid=f942e722-5039-4601-9971-0207b150598d"},"vehicle_type_id":"4","last_reported":1733746807,"current_range_meters":20000,"station_id":"ce4bgpp2rcd13ifvqc3g","pricing_plan_id":"cebpf4jnsgd1na2vs0mg"},{"bike_id":"9cd79aab-6f4c-4919-b570-803a9e8b35c5","system_id":"levelo_inurba_marseille","lat":43.30471,"lon":5.36713,"is_reserved":false,"is_disabled":true,"rental_uris":{"android":"levelo://app?vid=9cd79aab-6f4c-4919-b570-803a9e8b35c5","ios":"levelo://app?vid=9cd79aab-6f4c-4919-b570-803a9e8b35c5"},"vehicle_type_id":"4","last_reported":1733746807,"current_range_meters":28000,"station_id":"","pricing_plan_id":"cebpf4jnsgd1na2vs0mg"},{"bike_id":"da5ceef1-8c6b-44ee-9a26-8deac252420c","system_id":"levelo_inurba_marseille","lat":43.27844,"lon":5.39232,"is_reserved":false,"is_disabled":false,"rental_uris":{"android":"levelo://app?vid=da5ceef1-8c6b-44ee-9a26-8deac252420c","ios":"levelo://app?vid=da5ceef1-8c6b-44ee-9a26-8deac252420c"},"vehicle_type_id":"4","last_reported":1733746807,"current_range_meters":36800,"station_id":"ce4bhjp2rcd13ifvqga0","pricing_plan_id":"cebpf4jnsgd1na2vs0mg"},{"bike_id":"4a74c10f-6658-453e-959b-726fe1311d20","system_id":"levelo_inurba_marseille","lat":43.30185,"lon":5.37416,"is_reserved":false,"is_disabled":false,"rental_uris":{"android":"levelo://app?vid=4a74c10f-6658-453e-959b-726fe1311d20","ios":"levelo://app?vid=4a74c10f-6658-453e-959b-726fe1311d20"},"vehicle_type_id":"4","last_reported":1733746807,"current_range_meters":38400,"station_id":"ce4bgs92rcd13ifvqcc0","pricing_plan_id":"cebpf4jnsgd1na2vs0mg"},{"bike_id":"cf80ef54-0b0f-4dfe-80d1-0c382470e0e9","system_id":"levelo_inurba_marseille","lat":43.250775,"lon":5.395393,"is_reserved":false,"is_disabled":false,"rental_uris":{"android":"levelo://app?vid=cf80ef54-0b0f-4dfe-80d1-0c382470e0e9","ios":"levelo://app?vid=cf80ef54-0b0f-4dfe-80d1-0c382470e0e9"},"vehicle_type_id":"4","last_reported":1733746807,"current_range_meters":19200,"station_id":"","pricing_plan_id":"cebpf4jnsgd1na2vs0mg"},{"bike_id":"165d3311-a977-4745-b689-5e6993d37f26","system_id":"levelo_inurba_marseille","lat":43.32477,"lon":5.36591,"is_reserved":false,"is_disabled":false,"rental_uris":{"android":"levelo://app?vid=165d3311-a977-4745-b689-5e6993d37f26","ios":"levelo://app?vid=165d3311-a977-4745-b689-5e6993d37f26"},"vehicle_type_id":"4","last_reported":1733746807,"current_range_meters":38800,"station_id":"ce4bhs12rcd13ifvqhvg","pricing_plan_id":"cebpf4jnsgd1na2vs0mg"},{"bike_id":"46010d90-dde3-4883-8f93-a37adb0c7913","system_id":"levelo_inurba_marseille","lat":43.31359,"lon":5.36726,"is_reserved":false,"is_disabled":false,"rental_uris":{"android":"levelo://app?vid=46010d90-dde3-4883-8f93-a37adb0c7913","ios":"levelo://app?vid=46010d90-dde3-4883-8f93-a37adb0c7913"},"vehicle_type_id":"4","last_reported":1733746807,"current_range_meters":38000,"station_id":"ce4bgr92rcd13ifvqc6g","pricing_plan_id":"cebpf4jnsgd1na2vs0mg"},{"bike_id":"b78769f1-963e-4f9b-8dba-4c1b6d2ce99a","system_id":"levelo_inurba_marseille","lat":43.28153,"lon":5.42654,"is_reserved":false,"is_disabled":false,"rental_uris":{"android":"levelo://app?vid=b78769f1-963e-4f9b-8dba-4c1b6d2ce99a","ios":"levelo://app?vid=b78769f1-963e-4f9b-8dba-4c1b6d2ce99a"},"vehicle_type_id":"4","last_reported":1733746807,"current_range_meters":30000,"station_id":"ce4bhnh2rcd13ifvqgug","pricing_plan_id":"cebpf4jnsgd1na2vs0mg"},{"bike_id":"11e86528-eb6b-4391-86a5-9b1822d069a4","system_id":"levelo_inurba_marseille","lat":43.278805,"lon":5.388003,"is_reserved":false,"is_disabled":true,"rental_uris":{"android":"levelo://app?vid=11e86528-eb6b-4391-86a5-9b1822d069a4","ios":"levelo://app?vid=11e86528-eb6b-4391-86a5-9b1822d069a4"},"vehicle_type_id":"4","last_reported":1733746807,"current_range_meters":0,"station_id":"","pricing_plan_id":"cebpf4jnsgd1na2vs0mg"},{"bike_id":"6cc6805f-c0ca-4585-bdf1-b5a0339762b0","system_id":"levelo_inurba_marseille","lat":43.29027,"lon":5.42744,"is_reserved":false,"is_disabled":true,"rental_uris":{"android":"levelo://app?vid=6cc6805f-c0ca-4585-bdf1-b5a0339762b0","ios":"levelo://app?vid=6cc6805f-c0ca-4585-bdf1-b5a0339762b0"},"vehicle_type_id":"4","last_reported":1733746807,"current_range_meters":0,"station_id":"","pricing_plan_id":"cebpf4jnsgd1na2vs0mg"},{"bike_id":"a478bcff-2af8-4db5-8351-cdbe6b849a6d","system_id":"levelo_inurba_marseille","lat":43.33417,"lon":5.36217,"is_reserved":false,"is_disabled":true,"rental_uris":{"android":"levelo://app?vid=a478bcff-2af8-4db5-8351-cdbe6b849a6d","ios":"levelo://app?vid=a478bcff-2af8-4db5-8351-cdbe6b849a6d"},"vehicle_type_id":"4","last_reported":1733746807,"current_range_meters":0,"station_id":"","pricing_plan_id":"cebpf4jnsgd1na2vs0mg"},{"bike_id":"9f03dca4-237a-49dc-8f4b-3b6a07909c99","system_id":"levelo_inurba_marseille","lat":43.23196,"lon":5.35557,"is_reserved":false,"is_disabled":false,"rental_uris":{"android":"levelo://app?vid=9f03dca4-237a-49dc-8f4b-3b6a07909c99","ios":"levelo://app?vid=9f03dca4-237a-49dc-8f4b-3b6a07909c99"},"vehicle_type_id":"4","last_reported":1733746807,"current_range_meters":8400,"station_id":"ce4bhu92rcd13ifvqi70","pricing_plan_id":"cebpf4jnsgd1na2vs0mg"},{"bike_id":"53e1889b-f2a2-4b82-9fcd-20ab08dc2395","system_id":"levelo_inurba_marseille","lat":43.290845,"lon":5.381252,"is_reserved":false,"is_disabled":false,"rental_uris":{"android":"levelo://app?vid=53e1889b-f2a2-4b82-9fcd-20ab08dc2395","ios":"levelo://app?vid=53e1889b-f2a2-4b82-9fcd-20ab08dc2395"},"vehicle_type_id":"4","last_reported":1733746807,"current_range_meters":23200,"station_id":"ce4bh512rcd13ifvqe2g","pricing_plan_id":"cebpf4jnsgd1na2vs0mg"},{"bike_id":"7eb6dfb6-6da7-49ed-b380-aa64e5c5e4b4","system_id":"levelo_inurba_marseille","lat":43.30534,"lon":5.36714,"is_reserved":false,"is_disabled":false,"rental_uris":{"android":"levelo://app?vid=7eb6dfb6-6da7-49ed-b380-aa64e5c5e4b4","ios":"levelo://app?vid=7eb6dfb6-6da7-49ed-b380-aa64e5c5e4b4"},"vehicle_type_id":"4","last_reported":1733746807,"current_range_meters":28000,"station_id":"ce4bgrp2rcd13ifvqc9g","pricing_plan_id":"cebpf4jnsgd1na2vs0mg"},{"bike_id":"df7be86b-a89f-499f-8324-5f20f3201f60","system_id":"levelo_inurba_marseille","lat":43.27624,"lon":5.36112,"is_reserved":false,"is_disabled":false,"rental_uris":{"android":"levelo://app?vid=df7be86b-a89f-499f-8324-5f20f3201f60","ios":"levelo://app?vid=df7be86b-a89f-499f-8324-5f20f3201f60"},"vehicle_type_id":"4","last_reported":1733746807,"current_range_meters":30000,"station_id":"ce4bhb12rcd13ifvqel0","pricing_plan_id":"cebpf4jnsgd1na2vs0mg"},{"bike_id":"1c7d0032-a32c-4438-b1d4-2f3714d2b0e9","system_id":"levelo_inurba_marseille","lat":43.26035,"lon":5.37553,"is_reserved":false,"is_disabled":false,"rental_uris":{"android":"levelo://app?vid=1c7d0032-a32c-4438-b1d4-2f3714d2b0e9","ios":"levelo://app?vid=1c7d0032-a32c-4438-b1d4-2f3714d2b0e9"},"vehicle_type_id":"4","last_reported":1733746807,"current_range_meters":6800,"station_id":"ce4bhgh2rcd13ifvqfa0","pricing_plan_id":"cebpf4jnsgd1na2vs0mg"},{"bike_id":"cf995f0f-a2d6-4303-85db-6d52c33aec36","system_id":"levelo_inurba_marseille","lat":43.33026,"lon":5.39042,"is_reserved":false,"is_disabled":false,"rental_uris":{"android":"levelo://app?vid=cf995f0f-a2d6-4303-85db-6d52c33aec36","ios":"levelo://app?vid=cf995f0f-a2d6-4303-85db-6d52c33aec36"},"vehicle_type_id":"4","last_reported":1733746807,"current_range_meters":38800,"station_id":"ce4bhr92rcd13ifvqhrg","pricing_plan_id":"cebpf4jnsgd1na2vs0mg"},{"bike_id":"cbf9c981-cbe9-407f-b4c6-5d2065d44b78","system_id":"levelo_inurba_marseille","lat":43.33025,"lon":5.39046,"is_reserved":false,"is_disabled":false,"rental_uris":{"android":"levelo://app?vid=cbf9c981-cbe9-407f-b4c6-5d2065d44b78","ios":"levelo://app?vid=cbf9c981-cbe9-407f-b4c6-5d2065d44b78"},"vehicle_type_id":"4","last_reported":1733746807,"current_range_meters":24400,"station_id":"ce4bhr92rcd13ifvqhrg","pricing_plan_id":"cebpf4jnsgd1na2vs0mg"},{"bike_id":"e301fb9b-fdcc-43a0-ab66-d6957eaeb5ee","system_id":"levelo_inurba_marseille","lat":43.23148,"lon":5.43721,"is_reserved":false,"is_disabled":false,"rental_uris":{"android":"levelo://app?vid=e301fb9b-fdcc-43a0-ab66-d6957eaeb5ee","ios":"levelo://app?vid=e301fb9b-fdcc-43a0-ab66-d6957eaeb5ee"},"vehicle_type_id":"4","last_reported":1733746807,"current_range_meters":38800,"station_id":"ce4bhmp2rcd13ifvqgog","pricing_plan_id":"cebpf4jnsgd1na2vs0mg"},{"bike_id":"3a1cabfd-7ea0-40e5-ba2a-bc16f7acb1fa","system_id":"levelo_inurba_marseille","lat":43.34325,"lon":5.35816,"is_reserved":false,"is_disabled":true,"rental_uris":{"android":"levelo://app?vid=3a1cabfd-7ea0-40e5-ba2a-bc16f7acb1fa","ios":"levelo://app?vid=3a1cabfd-7ea0-40e5-ba2a-bc16f7acb1fa"},"vehicle_type_id":"4","last_reported":1733746807,"current_range_meters":0,"station_id":"","pricing_plan_id":"cebpf4jnsgd1na2vs0mg"},{"bike_id":"243c0fa9-fb27-4111-81f0-175e30eaaaed","system_id":"levelo_inurba_marseille","lat":43.2904,"lon":5.35923,"is_reserved":false,"is_disabled":true,"rental_uris":{"android":"levelo://app?vid=243c0fa9-fb27-4111-81f0-175e30eaaaed","ios":"levelo://app?vid=243c0fa9-fb27-4111-81f0-175e30eaaaed"},"vehicle_type_id":"4","last_reported":1733746807,"current_range_meters":38000,"station_id":"ce4bha92rcd13ifvqeg0","pricing_plan_id":"cebpf4jnsgd1na2vs0mg"},{"bike_id":"aa4be561-c50a-48fd-9f8e-9470a5ac688c","system_id":"levelo_inurba_marseille","lat":43.262121,"lon":5.374447,"is_reserved":false,"is_disabled":false,"rental_uris":{"android":"levelo://app?vid=aa4be561-c50a-48fd-9f8e-9470a5ac688c","ios":"levelo://app?vid=aa4be561-c50a-48fd-9f8e-9470a5ac688c"},"vehicle_type_id":"4","last_reported":1733746807,"current_range_meters":39200,"station_id":"ce4bhgp2rcd13ifvqfc0","pricing_plan_id":"cebpf4jnsgd1na2vs0mg"},{"bike_id":"a873af9b-a353-4469-b239-adbb5bf5dc0d","system_id":"levelo_inurba_marseille","lat":43.25864,"lon":5.39905,"is_reserved":false,"is_disabled":false,"rental_uris":{"android":"levelo://app?vid=a873af9b-a353-4469-b239-adbb5bf5dc0d","ios":"levelo://app?vid=a873af9b-a353-4469-b239-adbb5bf5dc0d"},"vehicle_type_id":"4","last_reported":1733746807,"current_range_meters":38800,"station_id":"ce4bhl92rcd13ifvqghg","pricing_plan_id":"cebpf4jnsgd1na2vs0mg"},{"bike_id":"a410c0b7-5772-4814-b6fc-ba7ab8c82411","system_id":"levelo_inurba_marseille","lat":43.3123,"lon":5.36882,"is_reserved":false,"is_disabled":false,"rental_uris":{"android":"levelo://app?vid=a410c0b7-5772-4814-b6fc-ba7ab8c82411","ios":"levelo://app?vid=a410c0b7-5772-4814-b6fc-ba7ab8c82411"},"vehicle_type_id":"4","last_reported":1733746807,"current_range_meters":35600,"station_id":"ce4bgl92rcd13ifvqbq0","pricing_plan_id":"cebpf4jnsgd1na2vs0mg"},{"bike_id":"95b68163-8c31-4ce4-989b-0d594a1f53e9","system_id":"levelo_inurba_marseille","lat":43.2969,"lon":5.37266,"is_reserved":false,"is_disabled":false,"rental_uris":{"android":"levelo://app?vid=95b68163-8c31-4ce4-989b-0d594a1f53e9","ios":"levelo://app?vid=95b68163-8c31-4ce4-989b-0d594a1f53e9"},"vehicle_type_id":"4","last_reported":1733746807,"current_range_meters":27600,"station_id":"ce4bgk12rcd13ifvqbj0","pricing_plan_id":"cebpf4jnsgd1na2vs0mg"},{"bike_id":"16d4975c-e9d3-4622-9e69-6ca21679f96a","system_id":"levelo_inurba_marseille","lat":43.24401,"lon":5.3707,"is_reserved":false,"is_disabled":false,"rental_uris":{"android":"levelo://app?vid=16d4975c-e9d3-4622-9e69-6ca21679f96a","ios":"levelo://app?vid=16d4975c-e9d3-4622-9e69-6ca21679f96a"},"vehicle_type_id":"4","last_reported":1733746807,"current_range_meters":39200,"station_id":"","pricing_plan_id":"cebpf4jnsgd1na2vs0mg"},{"bike_id":"85d1ba34-a6bd-4c9b-b015-6e8109e00660","system_id":"levelo_inurba_marseille","lat":43.305341,"lon":5.365362,"is_reserved":false,"is_disabled":false,"rental_uris":{"android":"levelo://app?vid=85d1ba34-a6bd-4c9b-b015-6e8109e00660","ios":"levelo://app?vid=85d1ba34-a6bd-4c9b-b015-6e8109e00660"},"vehicle_type_id":"4","last_reported":1733746807,"current_range_meters":17200,"station_id":"ce4bgs12rcd13ifvqcag","pricing_plan_id":"cebpf4jnsgd1na2vs0mg"},{"bike_id":"6d5ac6ce-9798-4ed2-ba56-8d8334459797","system_id":"levelo_inurba_marseille","lat":43.31882,"lon":5.40732,"is_reserved":false,"is_disabled":false,"rental_uris":{"android":"levelo://app?vid=6d5ac6ce-9798-4ed2-ba56-8d8334459797","ios":"levelo://app?vid=6d5ac6ce-9798-4ed2-ba56-8d8334459797"},"vehicle_type_id":"4","last_reported":1733746807,"current_range_meters":38800,"station_id":"ce4bhq12rcd13ifvqhig","pricing_plan_id":"cebpf4jnsgd1na2vs0mg"},{"bike_id":"2831b09f-9a34-4459-adba-573279e426ca","system_id":"levelo_inurba_marseille","lat":43.28148,"lon":5.42653,"is_reserved":false,"is_disabled":false,"rental_uris":{"android":"levelo://app?vid=2831b09f-9a34-4459-adba-573279e426ca","ios":"levelo://app?vid=2831b09f-9a34-4459-adba-573279e426ca"},"vehicle_type_id":"4","last_reported":1733746807,"current_range_meters":34000,"station_id":"ce4bhnh2rcd13ifvqgug","pricing_plan_id":"cebpf4jnsgd1na2vs0mg"},{"bike_id":"8a3b90a9-b1cc-4628-83f4-2f9e628eccda","system_id":"levelo_inurba_marseille","lat":43.33025,"lon":5.39034,"is_reserved":false,"is_disabled":false,"rental_uris":{"android":"levelo://app?vid=8a3b90a9-b1cc-4628-83f4-2f9e628eccda","ios":"levelo://app?vid=8a3b90a9-b1cc-4628-83f4-2f9e628eccda"},"vehicle_type_id":"4","last_reported":1733746807,"current_range_meters":38800,"station_id":"ce4bhr92rcd13ifvqhrg","pricing_plan_id":"cebpf4jnsgd1na2vs0mg"},{"bike_id":"2e14ff18-3a06-4388-ad18-1e3f20ce59bb","system_id":"levelo_inurba_marseille","lat":43.3052,"lon":5.36522,"is_reserved":false,"is_disabled":false,"rental_uris":{"android":"levelo://app?vid=2e14ff18-3a06-4388-ad18-1e3f20ce59bb","ios":"levelo://app?vid=2e14ff18-3a06-4388-ad18-1e3f20ce59bb"},"vehicle_type_id":"4","last_reported":1733746807,"current_range_meters":24400,"station_id":"ce4bgs12rcd13ifvqcag","pricing_plan_id":"cebpf4jnsgd1na2vs0mg"},{"bike_id":"2be97ccb-b953-4305-9487-268ca9b01140","system_id":"levelo_inurba_marseille","lat":43.28426,"lon":5.34991,"is_reserved":false,"is_disabled":false,"rental_uris":{"android":"levelo://app?vid=2be97ccb-b953-4305-9487-268ca9b01140","ios":"levelo://app?vid=2be97ccb-b953-4305-9487-268ca9b01140"},"vehicle_type_id":"4","last_reported":1733746807,"current_range_meters":36800,"station_id":"ce4bhbh2rcd13ifvqepg","pricing_plan_id":"cebpf4jnsgd1na2vs0mg"},{"bike_id":"51851808-aee3-4ca6-a2a1-e8308ef8a83a","system_id":"levelo_inurba_marseille","lat":43.24181,"lon":5.39735,"is_reserved":false,"is_disabled":false,"rental_uris":{"android":"levelo://app?vid=51851808-aee3-4ca6-a2a1-e8308ef8a83a","ios":"levelo://app?vid=51851808-aee3-4ca6-a2a1-e8308ef8a83a"},"vehicle_type_id":"4","last_reported":1733746807,"current_range_meters":38800,"station_id":"ce4bhn12rcd13ifvqgpg","pricing_plan_id":"cebpf4jnsgd1na2vs0mg"},{"bike_id":"58d3480e-9a25-4142-9952-995aac0b5e71","system_id":"levelo_inurba_marseille","lat":43.30551,"lon":5.36546,"is_reserved":false,"is_disabled":false,"rental_uris":{"android":"levelo://app?vid=58d3480e-9a25-4142-9952-995aac0b5e71","ios":"levelo://app?vid=58d3480e-9a25-4142-9952-995aac0b5e71"},"vehicle_type_id":"4","last_reported":1733746807,"current_range_meters":38800,"station_id":"ce4bgs12rcd13ifvqcag","pricing_plan_id":"cebpf4jnsgd1na2vs0mg"},{"bike_id":"067d4f8e-eded-4040-9b89-eb14aebc4852","system_id":"levelo_inurba_marseille","lat":43.299,"lon":5.43672,"is_reserved":false,"is_disabled":false,"rental_uris":{"android":"levelo://app?vid=067d4f8e-eded-4040-9b89-eb14aebc4852","ios":"levelo://app?vid=067d4f8e-eded-4040-9b89-eb14aebc4852"},"vehicle_type_id":"4","last_reported":1733746807,"current_range_meters":38000,"station_id":"ce4bhpp2rcd13ifvqhfg","pricing_plan_id":"cebpf4jnsgd1na2vs0mg"},{"bike_id":"bcc4b2b2-49d9-45f1-9f29-e05e097e6ff2","system_id":"levelo_inurba_marseille","lat":43.26029,"lon":5.37552,"is_reserved":false,"is_disabled":false,"rental_uris":{"android":"levelo://app?vid=bcc4b2b2-49d9-45f1-9f29-e05e097e6ff2","ios":"levelo://app?vid=bcc4b2b2-49d9-45f1-9f29-e05e097e6ff2"},"vehicle_type_id":"4","last_reported":1733746807,"current_range_meters":28800,"station_id":"ce4bhgh2rcd13ifvqfa0","pricing_plan_id":"cebpf4jnsgd1na2vs0mg"},{"bike_id":"9f3769a7-f392-475e-913a-8ad10d3e2daf","system_id":"levelo_inurba_marseille","lat":43.24171,"lon":5.36399,"is_reserved":false,"is_disabled":false,"rental_uris":{"android":"levelo://app?vid=9f3769a7-f392-475e-913a-8ad10d3e2daf","ios":"levelo://app?vid=9f3769a7-f392-475e-913a-8ad10d3e2daf"},"vehicle_type_id":"4","last_reported":1733746807,"current_range_meters":22400,"station_id":"cpo36qri1sfpv3e86is0","pricing_plan_id":"cebpf4jnsgd1na2vs0mg"},{"bike_id":"4fd00502-ec25-44c2-81a7-a01dd56766ca","system_id":"levelo_inurba_marseille","lat":43.25014,"lon":5.38918,"is_reserved":false,"is_disabled":false,"rental_uris":{"android":"levelo://app?vid=4fd00502-ec25-44c2-81a7-a01dd56766ca","ios":"levelo://app?vid=4fd00502-ec25-44c2-81a7-a01dd56766ca"},"vehicle_type_id":"4","last_reported":1733746807,"current_range_meters":11600,"station_id":"ce4bhgp2rcd13ifvqfd0","pricing_plan_id":"cebpf4jnsgd1na2vs0mg"},{"bike_id":"71a951ce-2d92-4a7b-8d01-ded46b5eb111","system_id":"levelo_inurba_marseille","lat":43.30327,"lon":5.40443,"is_reserved":false,"is_disabled":false,"rental_uris":{"android":"levelo://app?vid=71a951ce-2d92-4a7b-8d01-ded46b5eb111","ios":"levelo://app?vid=71a951ce-2d92-4a7b-8d01-ded46b5eb111"},"vehicle_type_id":"4","last_reported":1733746807,"current_range_meters":38400,"station_id":"ce4bh012rcd13ifvqd10","pricing_plan_id":"cebpf4jnsgd1na2vs0mg"},{"bike_id":"69aa3a0a-5721-46c5-9758-98476b5fa0cc","system_id":"levelo_inurba_marseille","lat":43.32487,"lon":5.36576,"is_reserved":false,"is_disabled":false,"rental_uris":{"android":"levelo://app?vid=69aa3a0a-5721-46c5-9758-98476b5fa0cc","ios":"levelo://app?vid=69aa3a0a-5721-46c5-9758-98476b5fa0cc"},"vehicle_type_id":"4","last_reported":1733746807,"current_range_meters":22400,"station_id":"ce4bhs12rcd13ifvqhvg","pricing_plan_id":"cebpf4jnsgd1na2vs0mg"},{"bike_id":"9e0086f4-2f6b-424f-93ec-f62f3a62a2f6","system_id":"levelo_inurba_marseille","lat":43.3053,"lon":5.36703,"is_reserved":false,"is_disabled":false,"rental_uris":{"android":"levelo://app?vid=9e0086f4-2f6b-424f-93ec-f62f3a62a2f6","ios":"levelo://app?vid=9e0086f4-2f6b-424f-93ec-f62f3a62a2f6"},"vehicle_type_id":"4","last_reported":1733746807,"current_range_meters":32400,"station_id":"ce4bgrp2rcd13ifvqc9g","pricing_plan_id":"cebpf4jnsgd1na2vs0mg"},{"bike_id":"abd339b6-3390-4bd9-8b58-858bae062a65","system_id":"levelo_inurba_marseille","lat":43.27562,"lon":5.38429,"is_reserved":false,"is_disabled":false,"rental_uris":{"android":"levelo://app?vid=abd339b6-3390-4bd9-8b58-858bae062a65","ios":"levelo://app?vid=abd339b6-3390-4bd9-8b58-858bae062a65"},"vehicle_type_id":"4","last_reported":1733746807,"current_range_meters":38800,"station_id":"ce4bhh92rcd13ifvqfi0","pricing_plan_id":"cebpf4jnsgd1na2vs0mg"},{"bike_id":"119c4bf0-81aa-4bf7-b898-58936efa01a9","system_id":"levelo_inurba_marseille","lat":43.24384,"lon":5.37058,"is_reserved":false,"is_disabled":false,"rental_uris":{"android":"levelo://app?vid=119c4bf0-81aa-4bf7-b898-58936efa01a9","ios":"levelo://app?vid=119c4bf0-81aa-4bf7-b898-58936efa01a9"},"vehicle_type_id":"4","last_reported":1733746807,"current_range_meters":38800,"station_id":"ce4bhhh2rcd13ifvqfk0","pricing_plan_id":"cebpf4jnsgd1na2vs0mg"},{"bike_id":"4f7be149-818b-45b3-9c9e-d655ff970dcc","system_id":"levelo_inurba_marseille","lat":43.31893,"lon":5.40749,"is_reserved":false,"is_disabled":false,"rental_uris":{"android":"levelo://app?vid=4f7be149-818b-45b3-9c9e-d655ff970dcc","ios":"levelo://app?vid=4f7be149-818b-45b3-9c9e-d655ff970dcc"},"vehicle_type_id":"4","last_reported":1733746807,"current_range_meters":36800,"station_id":"ce4bhq12rcd13ifvqhig","pricing_plan_id":"cebpf4jnsgd1na2vs0mg"},{"bike_id":"dd752027-199c-4884-b13c-712908e512e0","system_id":"levelo_inurba_marseille","lat":43.30525,"lon":5.36535,"is_reserved":false,"is_disabled":false,"rental_uris":{"android":"levelo://app?vid=dd752027-199c-4884-b13c-712908e512e0","ios":"levelo://app?vid=dd752027-199c-4884-b13c-712908e512e0"},"vehicle_type_id":"4","last_reported":1733746807,"current_range_meters":24000,"station_id":"ce4bgs12rcd13ifvqcag","pricing_plan_id":"cebpf4jnsgd1na2vs0mg"},{"bike_id":"0092eb5b-b0f2-4dc7-8f26-00d3ff5f52bf","system_id":"levelo_inurba_marseille","lat":43.30594,"lon":5.39363,"is_reserved":false,"is_disabled":false,"rental_uris":{"android":"levelo://app?vid=0092eb5b-b0f2-4dc7-8f26-00d3ff5f52bf","ios":"levelo://app?vid=0092eb5b-b0f2-4dc7-8f26-00d3ff5f52bf"},"vehicle_type_id":"4","last_reported":1733746807,"current_range_meters":17600,"station_id":"ce4bh0p2rcd13ifvqd80","pricing_plan_id":"cebpf4jnsgd1na2vs0mg"},{"bike_id":"5edf82fa-e9d0-4d1f-98f1-37c98092771a","system_id":"levelo_inurba_marseille","lat":43.23193,"lon":5.35551,"is_reserved":false,"is_disabled":false,"rental_uris":{"android":"levelo://app?vid=5edf82fa-e9d0-4d1f-98f1-37c98092771a","ios":"levelo://app?vid=5edf82fa-e9d0-4d1f-98f1-37c98092771a"},"vehicle_type_id":"4","last_reported":1733746807,"current_range_meters":38800,"station_id":"ce4bhu92rcd13ifvqi70","pricing_plan_id":"cebpf4jnsgd1na2vs0mg"},{"bike_id":"25a20b03-9830-4773-bc6b-d425633d2c5c","system_id":"levelo_inurba_marseille","lat":43.24767,"lon":5.40032,"is_reserved":false,"is_disabled":true,"rental_uris":{"android":"levelo://app?vid=25a20b03-9830-4773-bc6b-d425633d2c5c","ios":"levelo://app?vid=25a20b03-9830-4773-bc6b-d425633d2c5c"},"vehicle_type_id":"4","last_reported":1733746807,"current_range_meters":0,"station_id":"","pricing_plan_id":"cebpf4jnsgd1na2vs0mg"},{"bike_id":"ff4d4df8-8594-4023-95bb-7ada819d62d3","system_id":"levelo_inurba_marseille","lat":43.29842,"lon":5.36268,"is_reserved":false,"is_disabled":false,"rental_uris":{"android":"levelo://app?vid=ff4d4df8-8594-4023-95bb-7ada819d62d3","ios":"levelo://app?vid=ff4d4df8-8594-4023-95bb-7ada819d62d3"},"vehicle_type_id":"4","last_reported":1733746807,"current_range_meters":31200,"station_id":"ce4bgpp2rcd13ifvqc3g","pricing_plan_id":"cebpf4jnsgd1na2vs0mg"},{"bike_id":"f8f70040-284d-4510-bf52-6c2bd83859c8","system_id":"levelo_inurba_marseille","lat":43.27993,"lon":5.41663,"is_reserved":false,"is_disabled":false,"rental_uris":{"android":"levelo://app?vid=f8f70040-284d-4510-bf52-6c2bd83859c8","ios":"levelo://app?vid=f8f70040-284d-4510-bf52-6c2bd83859c8"},"vehicle_type_id":"4","last_reported":1733746807,"current_range_meters":8000,"station_id":"ce4bho12rcd13ifvqh1g","pricing_plan_id":"cebpf4jnsgd1na2vs0mg"},{"bike_id":"0522a6ca-fd2c-439d-b614-1277852e82e1","system_id":"levelo_inurba_marseille","lat":43.29281,"lon":5.40133,"is_reserved":false,"is_disabled":false,"rental_uris":{"android":"levelo://app?vid=0522a6ca-fd2c-439d-b614-1277852e82e1","ios":"levelo://app?vid=0522a6ca-fd2c-439d-b614-1277852e82e1"},"vehicle_type_id":"4","last_reported":1733746807,"current_range_meters":38800,"station_id":"ce4bh312rcd13ifvqdk0","pricing_plan_id":"cebpf4jnsgd1na2vs0mg"},{"bike_id":"0cf65f96-a008-4027-8474-eeec79f9a6f9","system_id":"levelo_inurba_marseille","lat":43.3019,"lon":5.36614,"is_reserved":false,"is_disabled":false,"rental_uris":{"android":"levelo://app?vid=0cf65f96-a008-4027-8474-eeec79f9a6f9","ios":"levelo://app?vid=0cf65f96-a008-4027-8474-eeec79f9a6f9"},"vehicle_type_id":"4","last_reported":1733746807,"current_range_meters":38800,"station_id":"ce4bgrh2rcd13ifvqc8g","pricing_plan_id":"cebpf4jnsgd1na2vs0mg"},{"bike_id":"b497ad4d-1643-419c-aba6-8e8a5474d77a","system_id":"levelo_inurba_marseille","lat":43.29897,"lon":5.4367,"is_reserved":false,"is_disabled":false,"rental_uris":{"android":"levelo://app?vid=b497ad4d-1643-419c-aba6-8e8a5474d77a","ios":"levelo://app?vid=b497ad4d-1643-419c-aba6-8e8a5474d77a"},"vehicle_type_id":"4","last_reported":1733746807,"current_range_meters":38800,"station_id":"ce4bhpp2rcd13ifvqhfg","pricing_plan_id":"cebpf4jnsgd1na2vs0mg"},{"bike_id":"df6a3cc8-c2ec-4c77-b7ea-281408ce5b40","system_id":"levelo_inurba_marseille","lat":43.24392,"lon":5.37077,"is_reserved":false,"is_disabled":false,"rental_uris":{"android":"levelo://app?vid=df6a3cc8-c2ec-4c77-b7ea-281408ce5b40","ios":"levelo://app?vid=df6a3cc8-c2ec-4c77-b7ea-281408ce5b40"},"vehicle_type_id":"4","last_reported":1733746807,"current_range_meters":32800,"station_id":"ce4bhhh2rcd13ifvqfk0","pricing_plan_id":"cebpf4jnsgd1na2vs0mg"},{"bike_id":"8cd4149f-756b-4a7e-908c-fb8839696c4b","system_id":"levelo_inurba_marseille","lat":43.27068,"lon":5.42287,"is_reserved":false,"is_disabled":false,"rental_uris":{"android":"levelo://app?vid=8cd4149f-756b-4a7e-908c-fb8839696c4b","ios":"levelo://app?vid=8cd4149f-756b-4a7e-908c-fb8839696c4b"},"vehicle_type_id":"4","last_reported":1733746807,"current_range_meters":33600,"station_id":"ce4bhk92rcd13ifvqgb0","pricing_plan_id":"cebpf4jnsgd1na2vs0mg"},{"bike_id":"32389338-5494-4add-865d-3982018eb560","system_id":"levelo_inurba_marseille","lat":43.29942,"lon":5.36564,"is_reserved":false,"is_disabled":false,"rental_uris":{"android":"levelo://app?vid=32389338-5494-4add-865d-3982018eb560","ios":"levelo://app?vid=32389338-5494-4add-865d-3982018eb560"},"vehicle_type_id":"4","last_reported":1733746807,"current_range_meters":9600,"station_id":"ce4bgm92rcd13ifvqbr0","pricing_plan_id":"cebpf4jnsgd1na2vs0mg"},{"bike_id":"a0bc6083-92c2-46da-9b9f-ff54d5d5607b","system_id":"levelo_inurba_marseille","lat":43.24649,"lon":5.38905,"is_reserved":false,"is_disabled":false,"rental_uris":{"android":"levelo://app?vid=a0bc6083-92c2-46da-9b9f-ff54d5d5607b","ios":"levelo://app?vid=a0bc6083-92c2-46da-9b9f-ff54d5d5607b"},"vehicle_type_id":"4","last_reported":1733746807,"current_range_meters":36400,"station_id":"ce4bhg12rcd13ifvqf60","pricing_plan_id":"cebpf4jnsgd1na2vs0mg"},{"bike_id":"7989d5dd-6f35-4ed7-bce7-c7981761f794","system_id":"levelo_inurba_marseille","lat":43.24069,"lon":5.37762,"is_reserved":false,"is_disabled":false,"rental_uris":{"android":"levelo://app?vid=7989d5dd-6f35-4ed7-bce7-c7981761f794","ios":"levelo://app?vid=7989d5dd-6f35-4ed7-bce7-c7981761f794"},"vehicle_type_id":"4","last_reported":1733746807,"current_range_meters":26000,"station_id":"ce4bhnp2rcd13ifvqgvg","pricing_plan_id":"cebpf4jnsgd1na2vs0mg"},{"bike_id":"2c2812b2-0f96-448f-bd20-1e16053fbc63","system_id":"levelo_inurba_marseille","lat":43.29733,"lon":5.37687,"is_reserved":false,"is_disabled":false,"rental_uris":{"android":"levelo://app?vid=2c2812b2-0f96-448f-bd20-1e16053fbc63","ios":"levelo://app?vid=2c2812b2-0f96-448f-bd20-1e16053fbc63"},"vehicle_type_id":"4","last_reported":1733746807,"current_range_meters":32000,"station_id":"ce4bgkh2rcd13ifvqbl0","pricing_plan_id":"cebpf4jnsgd1na2vs0mg"},{"bike_id":"e471678f-d5da-4a2e-95d6-46e8540ec649","system_id":"levelo_inurba_marseille","lat":43.30908,"lon":5.36849,"is_reserved":false,"is_disabled":false,"rental_uris":{"android":"levelo://app?vid=e471678f-d5da-4a2e-95d6-46e8540ec649","ios":"levelo://app?vid=e471678f-d5da-4a2e-95d6-46e8540ec649"},"vehicle_type_id":"4","last_reported":1733746807,"current_range_meters":39200,"station_id":"ce4bgn92rcd13ifvqbvg","pricing_plan_id":"cebpf4jnsgd1na2vs0mg"},{"bike_id":"e652bd0e-f25c-4f49-88d2-3023d62cd5aa","system_id":"levelo_inurba_marseille","lat":43.295892,"lon":5.37506,"is_reserved":false,"is_disabled":true,"rental_uris":{"android":"levelo://app?vid=e652bd0e-f25c-4f49-88d2-3023d62cd5aa","ios":"levelo://app?vid=e652bd0e-f25c-4f49-88d2-3023d62cd5aa"},"vehicle_type_id":"4","last_reported":1733746807,"current_range_meters":0,"station_id":"","pricing_plan_id":"cebpf4jnsgd1na2vs0mg"},{"bike_id":"fe5707ac-071f-4824-98b8-d6b028bc38f8","system_id":"levelo_inurba_marseille","lat":43.258279,"lon":5.399173,"is_reserved":false,"is_disabled":false,"rental_uris":{"android":"levelo://app?vid=fe5707ac-071f-4824-98b8-d6b028bc38f8","ios":"levelo://app?vid=fe5707ac-071f-4824-98b8-d6b028bc38f8"},"vehicle_type_id":"4","last_reported":1733746807,"current_range_meters":32800,"station_id":"ce4bhl92rcd13ifvqghg","pricing_plan_id":"cebpf4jnsgd1na2vs0mg"},{"bike_id":"50f52497-54ca-47ea-a19e-1fc86f8c6045","system_id":"levelo_inurba_marseille","lat":43.28237,"lon":5.42415,"is_reserved":false,"is_disabled":true,"rental_uris":{"android":"levelo://app?vid=50f52497-54ca-47ea-a19e-1fc86f8c6045","ios":"levelo://app?vid=50f52497-54ca-47ea-a19e-1fc86f8c6045"},"vehicle_type_id":"4","last_reported":1733746807,"current_range_meters":8400,"station_id":"","pricing_plan_id":"cebpf4jnsgd1na2vs0mg"},{"bike_id":"752f0fcf-d3c3-41e2-a1e9-51894dcb343a","system_id":"levelo_inurba_marseille","lat":43.23197,"lon":5.35549,"is_reserved":false,"is_disabled":false,"rental_uris":{"android":"levelo://app?vid=752f0fcf-d3c3-41e2-a1e9-51894dcb343a","ios":"levelo://app?vid=752f0fcf-d3c3-41e2-a1e9-51894dcb343a"},"vehicle_type_id":"4","last_reported":1733746807,"current_range_meters":19600,"station_id":"ce4bhu92rcd13ifvqi70","pricing_plan_id":"cebpf4jnsgd1na2vs0mg"},{"bike_id":"561f1b87-0f16-45bb-9060-6ce7723ae9e8","system_id":"levelo_inurba_marseille","lat":43.2694,"lon":5.4025,"is_reserved":false,"is_disabled":false,"rental_uris":{"android":"levelo://app?vid=561f1b87-0f16-45bb-9060-6ce7723ae9e8","ios":"levelo://app?vid=561f1b87-0f16-45bb-9060-6ce7723ae9e8"},"vehicle_type_id":"4","last_reported":1733746807,"current_range_meters":38400,"station_id":"cjm6bp8fraef2m0cb0m0","pricing_plan_id":"cebpf4jnsgd1na2vs0mg"},{"bike_id":"5fdd27f7-11e2-4d7e-a1f4-c3aea6418467","system_id":"levelo_inurba_marseille","lat":43.30308,"lon":5.36904,"is_reserved":false,"is_disabled":false,"rental_uris":{"android":"levelo://app?vid=5fdd27f7-11e2-4d7e-a1f4-c3aea6418467","ios":"levelo://app?vid=5fdd27f7-11e2-4d7e-a1f4-c3aea6418467"},"vehicle_type_id":"4","last_reported":1733746807,"current_range_meters":4800,"station_id":"ce4bgqh2rcd13ifvqc5g","pricing_plan_id":"cebpf4jnsgd1na2vs0mg"},{"bike_id":"33f1a526-a5a3-4261-b1e0-d90c46ff918d","system_id":"levelo_inurba_marseille","lat":43.28151,"lon":5.42643,"is_reserved":false,"is_disabled":true,"rental_uris":{"android":"levelo://app?vid=33f1a526-a5a3-4261-b1e0-d90c46ff918d","ios":"levelo://app?vid=33f1a526-a5a3-4261-b1e0-d90c46ff918d"},"vehicle_type_id":"4","last_reported":1733746807,"current_range_meters":22400,"station_id":"ce4bhnh2rcd13ifvqgug","pricing_plan_id":"cebpf4jnsgd1na2vs0mg"},{"bike_id":"0013832b-0f69-439d-8d9d-ea1055d29c18","system_id":"levelo_inurba_marseille","lat":43.24072,"lon":5.37749,"is_reserved":false,"is_disabled":false,"rental_uris":{"android":"levelo://app?vid=0013832b-0f69-439d-8d9d-ea1055d29c18","ios":"levelo://app?vid=0013832b-0f69-439d-8d9d-ea1055d29c18"},"vehicle_type_id":"4","last_reported":1733746807,"current_range_meters":32400,"station_id":"ce4bhnp2rcd13ifvqgvg","pricing_plan_id":"cebpf4jnsgd1na2vs0mg"},{"bike_id":"b98192c1-b34d-4d62-9f14-4e0b2c6a31be","system_id":"levelo_inurba_marseille","lat":43.29279,"lon":5.40112,"is_reserved":false,"is_disabled":false,"rental_uris":{"android":"levelo://app?vid=b98192c1-b34d-4d62-9f14-4e0b2c6a31be","ios":"levelo://app?vid=b98192c1-b34d-4d62-9f14-4e0b2c6a31be"},"vehicle_type_id":"4","last_reported":1733746807,"current_range_meters":26800,"station_id":"ce4bh312rcd13ifvqdk0","pricing_plan_id":"cebpf4jnsgd1na2vs0mg"},{"bike_id":"6ad3bf91-4bd3-4ff4-b3e0-237779181bfb","system_id":"levelo_inurba_marseille","lat":43.29589,"lon":5.36735,"is_reserved":false,"is_disabled":false,"rental_uris":{"android":"levelo://app?vid=6ad3bf91-4bd3-4ff4-b3e0-237779181bfb","ios":"levelo://app?vid=6ad3bf91-4bd3-4ff4-b3e0-237779181bfb"},"vehicle_type_id":"4","last_reported":1733746807,"current_range_meters":34000,"station_id":"ce4bgph2rcd13ifvqc2g","pricing_plan_id":"cebpf4jnsgd1na2vs0mg"},{"bike_id":"a629e894-91b0-43d1-900c-14f13b8962fe","system_id":"levelo_inurba_marseille","lat":43.3033,"lon":5.40435,"is_reserved":false,"is_disabled":false,"rental_uris":{"android":"levelo://app?vid=a629e894-91b0-43d1-900c-14f13b8962fe","ios":"levelo://app?vid=a629e894-91b0-43d1-900c-14f13b8962fe"},"vehicle_type_id":"4","last_reported":1733746807,"current_range_meters":15200,"station_id":"ce4bh012rcd13ifvqd10","pricing_plan_id":"cebpf4jnsgd1na2vs0mg"},{"bike_id":"17f0450d-cbb4-4f48-86e7-bc347f46001e","system_id":"levelo_inurba_marseille","lat":43.29563,"lon":5.37739,"is_reserved":false,"is_disabled":false,"rental_uris":{"android":"levelo://app?vid=17f0450d-cbb4-4f48-86e7-bc347f46001e","ios":"levelo://app?vid=17f0450d-cbb4-4f48-86e7-bc347f46001e"},"vehicle_type_id":"4","last_reported":1733746807,"current_range_meters":20800,"station_id":"","pricing_plan_id":"cebpf4jnsgd1na2vs0mg"},{"bike_id":"369fa2d8-1a9b-4d91-8661-c3407579d723","system_id":"levelo_inurba_marseille","lat":43.27059,"lon":5.42288,"is_reserved":false,"is_disabled":false,"rental_uris":{"android":"levelo://app?vid=369fa2d8-1a9b-4d91-8661-c3407579d723","ios":"levelo://app?vid=369fa2d8-1a9b-4d91-8661-c3407579d723"},"vehicle_type_id":"4","last_reported":1733746807,"current_range_meters":22000,"station_id":"ce4bhk92rcd13ifvqgb0","pricing_plan_id":"cebpf4jnsgd1na2vs0mg"},{"bike_id":"9565e048-e89e-4669-984a-0c1ee97b93cc","system_id":"levelo_inurba_marseille","lat":43.31075,"lon":5.38352,"is_reserved":false,"is_disabled":false,"rental_uris":{"android":"levelo://app?vid=9565e048-e89e-4669-984a-0c1ee97b93cc","ios":"levelo://app?vid=9565e048-e89e-4669-984a-0c1ee97b93cc"},"vehicle_type_id":"4","last_reported":1733746807,"current_range_meters":32800,"station_id":"ce4bgv92rcd13ifvqcr0","pricing_plan_id":"cebpf4jnsgd1na2vs0mg"},{"bike_id":"575985ff-f8b8-494d-ac48-9bd25d698d1d","system_id":"levelo_inurba_marseille","lat":43.26681,"lon":5.38274,"is_reserved":false,"is_disabled":false,"rental_uris":{"android":"levelo://app?vid=575985ff-f8b8-494d-ac48-9bd25d698d1d","ios":"levelo://app?vid=575985ff-f8b8-494d-ac48-9bd25d698d1d"},"vehicle_type_id":"4","last_reported":1733746807,"current_range_meters":33600,"station_id":"ce4bhg92rcd13ifvqf90","pricing_plan_id":"cebpf4jnsgd1na2vs0mg"},{"bike_id":"c908d40e-1bb1-45db-b307-5185fcfb3f7b","system_id":"levelo_inurba_marseille","lat":43.25719,"lon":5.41115,"is_reserved":false,"is_disabled":false,"rental_uris":{"android":"levelo://app?vid=c908d40e-1bb1-45db-b307-5185fcfb3f7b","ios":"levelo://app?vid=c908d40e-1bb1-45db-b307-5185fcfb3f7b"},"vehicle_type_id":"4","last_reported":1733746807,"current_range_meters":38800,"station_id":"ce4bhkp2rcd13ifvqgd0","pricing_plan_id":"cebpf4jnsgd1na2vs0mg"},{"bike_id":"5ac1c430-b416-4d56-8a0b-c67b5e80ba2c","system_id":"levelo_inurba_marseille","lat":43.23151,"lon":5.43711,"is_reserved":false,"is_disabled":false,"rental_uris":{"android":"levelo://app?vid=5ac1c430-b416-4d56-8a0b-c67b5e80ba2c","ios":"levelo://app?vid=5ac1c430-b416-4d56-8a0b-c67b5e80ba2c"},"vehicle_type_id":"4","last_reported":1733746807,"current_range_meters":38800,"station_id":"ce4bhmp2rcd13ifvqgog","pricing_plan_id":"cebpf4jnsgd1na2vs0mg"},{"bike_id":"5f34fd59-c18b-4355-b5fd-a5fe2d247b78","system_id":"levelo_inurba_marseille","lat":43.29782,"lon":5.38122,"is_reserved":false,"is_disabled":true,"rental_uris":{"android":"levelo://app?vid=5f34fd59-c18b-4355-b5fd-a5fe2d247b78","ios":"levelo://app?vid=5f34fd59-c18b-4355-b5fd-a5fe2d247b78"},"vehicle_type_id":"4","last_reported":1733746807,"current_range_meters":10800,"station_id":"ce4bgip2rcd13ifvqbb0","pricing_plan_id":"cebpf4jnsgd1na2vs0mg"},{"bike_id":"bbf69444-63c0-4f67-9227-1be4349c46d5","system_id":"levelo_inurba_marseille","lat":43.29533,"lon":5.39036,"is_reserved":false,"is_disabled":false,"rental_uris":{"android":"levelo://app?vid=bbf69444-63c0-4f67-9227-1be4349c46d5","ios":"levelo://app?vid=bbf69444-63c0-4f67-9227-1be4349c46d5"},"vehicle_type_id":"4","last_reported":1733746807,"current_range_meters":36400,"station_id":"ce4bh3p2rcd13ifvqdp0","pricing_plan_id":"cebpf4jnsgd1na2vs0mg"},{"bike_id":"8adb385c-4540-45bd-bf84-7345f9c5670e","system_id":"levelo_inurba_marseille","lat":43.23208,"lon":5.35541,"is_reserved":false,"is_disabled":false,"rental_uris":{"android":"levelo://app?vid=8adb385c-4540-45bd-bf84-7345f9c5670e","ios":"levelo://app?vid=8adb385c-4540-45bd-bf84-7345f9c5670e"},"vehicle_type_id":"4","last_reported":1733746807,"current_range_meters":35600,"station_id":"ce4bhu92rcd13ifvqi70","pricing_plan_id":"cebpf4jnsgd1na2vs0mg"},{"bike_id":"06cbc9bc-31e7-4dc4-a15a-916676e349b8","system_id":"levelo_inurba_marseille","lat":43.27381,"lon":5.36253,"is_reserved":false,"is_disabled":true,"rental_uris":{"android":"levelo://app?vid=06cbc9bc-31e7-4dc4-a15a-916676e349b8","ios":"levelo://app?vid=06cbc9bc-31e7-4dc4-a15a-916676e349b8"},"vehicle_type_id":"4","last_reported":1733746807,"current_range_meters":38000,"station_id":"ce4bhbh2rcd13ifvqeo0","pricing_plan_id":"cebpf4jnsgd1na2vs0mg"},{"bike_id":"5260ced4-7564-448d-9818-7245cb224691","system_id":"levelo_inurba_marseille","lat":43.27614,"lon":5.36113,"is_reserved":false,"is_disabled":false,"rental_uris":{"android":"levelo://app?vid=5260ced4-7564-448d-9818-7245cb224691","ios":"levelo://app?vid=5260ced4-7564-448d-9818-7245cb224691"},"vehicle_type_id":"4","last_reported":1733746807,"current_range_meters":36800,"station_id":"ce4bgj92rcd13ifvqbe0","pricing_plan_id":"cebpf4jnsgd1na2vs0mg"},{"bike_id":"444020c8-4f92-4826-a2c2-e6d442c6b048","system_id":"levelo_inurba_marseille","lat":43.29786,"lon":5.371,"is_reserved":false,"is_disabled":false,"rental_uris":{"android":"levelo://app?vid=444020c8-4f92-4826-a2c2-e6d442c6b048","ios":"levelo://app?vid=444020c8-4f92-4826-a2c2-e6d442c6b048"},"vehicle_type_id":"4","last_reported":1733746807,"current_range_meters":38800,"station_id":"ce4bgop2rcd13ifvqc1g","pricing_plan_id":"cebpf4jnsgd1na2vs0mg"},{"bike_id":"96d1bd76-32ab-4aeb-a842-5f73930b4053","system_id":"levelo_inurba_marseille","lat":43.29038,"lon":5.37572,"is_reserved":false,"is_disabled":false,"rental_uris":{"android":"levelo://app?vid=96d1bd76-32ab-4aeb-a842-5f73930b4053","ios":"levelo://app?vid=96d1bd76-32ab-4aeb-a842-5f73930b4053"},"vehicle_type_id":"4","last_reported":1733746807,"current_range_meters":28800,"station_id":"ce4bh692rcd13ifvqe90","pricing_plan_id":"cebpf4jnsgd1na2vs0mg"},{"bike_id":"eb4e32cd-a02d-4e92-a013-1fdc0dd71ccb","system_id":"levelo_inurba_marseille","lat":43.324799,"lon":5.365716,"is_reserved":false,"is_disabled":true,"rental_uris":{"android":"levelo://app?vid=eb4e32cd-a02d-4e92-a013-1fdc0dd71ccb","ios":"levelo://app?vid=eb4e32cd-a02d-4e92-a013-1fdc0dd71ccb"},"vehicle_type_id":"4","last_reported":1733746807,"current_range_meters":0,"station_id":"","pricing_plan_id":"cebpf4jnsgd1na2vs0mg"},{"bike_id":"09e8f0c0-31a1-48cb-ac52-2c1af9fee810","system_id":"levelo_inurba_marseille","lat":43.2408,"lon":5.37756,"is_reserved":false,"is_disabled":false,"rental_uris":{"android":"levelo://app?vid=09e8f0c0-31a1-48cb-ac52-2c1af9fee810","ios":"levelo://app?vid=09e8f0c0-31a1-48cb-ac52-2c1af9fee810"},"vehicle_type_id":"4","last_reported":1733746807,"current_range_meters":36400,"station_id":"ce4bhnp2rcd13ifvqgvg","pricing_plan_id":"cebpf4jnsgd1na2vs0mg"},{"bike_id":"0fe6e81e-db94-4c1f-b1e7-76a009e392e8","system_id":"levelo_inurba_marseille","lat":43.27832,"lon":5.39212,"is_reserved":false,"is_disabled":false,"rental_uris":{"android":"levelo://app?vid=0fe6e81e-db94-4c1f-b1e7-76a009e392e8","ios":"levelo://app?vid=0fe6e81e-db94-4c1f-b1e7-76a009e392e8"},"vehicle_type_id":"4","last_reported":1733746807,"current_range_meters":38800,"station_id":"ce4bhjp2rcd13ifvqga0","pricing_plan_id":"cebpf4jnsgd1na2vs0mg"},{"bike_id":"e34ee14e-0bfc-42ec-9665-939086b2e2f4","system_id":"levelo_inurba_marseille","lat":43.25112,"lon":5.40324,"is_reserved":false,"is_disabled":false,"rental_uris":{"android":"levelo://app?vid=e34ee14e-0bfc-42ec-9665-939086b2e2f4","ios":"levelo://app?vid=e34ee14e-0bfc-42ec-9665-939086b2e2f4"},"vehicle_type_id":"4","last_reported":1733746807,"current_range_meters":11200,"station_id":"ce4bhlh2rcd13ifvqgig","pricing_plan_id":"cebpf4jnsgd1na2vs0mg"},{"bike_id":"c60baa79-11a1-436a-bf15-c2456ed1b149","system_id":"levelo_inurba_marseille","lat":43.29622,"lon":5.37178,"is_reserved":false,"is_disabled":false,"rental_uris":{"android":"levelo://app?vid=c60baa79-11a1-436a-bf15-c2456ed1b149","ios":"levelo://app?vid=c60baa79-11a1-436a-bf15-c2456ed1b149"},"vehicle_type_id":"4","last_reported":1733746807,"current_range_meters":36400,"station_id":"ce4bgnh2rcd13ifvqc0g","pricing_plan_id":"cebpf4jnsgd1na2vs0mg"},{"bike_id":"f0b913d1-d0e1-470d-ae33-f9bd9a0968a8","system_id":"levelo_inurba_marseille","lat":43.27813,"lon":5.40723,"is_reserved":false,"is_disabled":true,"rental_uris":{"android":"levelo://app?vid=f0b913d1-d0e1-470d-ae33-f9bd9a0968a8","ios":"levelo://app?vid=f0b913d1-d0e1-470d-ae33-f9bd9a0968a8"},"vehicle_type_id":"4","last_reported":1733746807,"current_range_meters":38800,"station_id":"ce4bhnh2rcd13ifvqgtg","pricing_plan_id":"cebpf4jnsgd1na2vs0mg"},{"bike_id":"26924fb9-4179-4abe-8b03-e0d47c141d92","system_id":"levelo_inurba_marseille","lat":43.27172,"lon":5.40995,"is_reserved":false,"is_disabled":false,"rental_uris":{"android":"levelo://app?vid=26924fb9-4179-4abe-8b03-e0d47c141d92","ios":"levelo://app?vid=26924fb9-4179-4abe-8b03-e0d47c141d92"},"vehicle_type_id":"4","last_reported":1733746807,"current_range_meters":32000,"station_id":"ce4bhl12rcd13ifvqgf0","pricing_plan_id":"cebpf4jnsgd1na2vs0mg"},{"bike_id":"5f8ec334-1b7e-4b0c-ba3e-ca6ef20f5afe","system_id":"levelo_inurba_marseille","lat":43.29576,"lon":5.39801,"is_reserved":false,"is_disabled":false,"rental_uris":{"android":"levelo://app?vid=5f8ec334-1b7e-4b0c-ba3e-ca6ef20f5afe","ios":"levelo://app?vid=5f8ec334-1b7e-4b0c-ba3e-ca6ef20f5afe"},"vehicle_type_id":"4","last_reported":1733746807,"current_range_meters":38400,"station_id":"ce4bgvh2rcd13ifvqcs0","pricing_plan_id":"cebpf4jnsgd1na2vs0mg"},{"bike_id":"db14e876-0fd6-46a7-8620-bb06967f83cc","system_id":"levelo_inurba_marseille","lat":43.31331,"lon":5.39701,"is_reserved":false,"is_disabled":true,"rental_uris":{"android":"levelo://app?vid=db14e876-0fd6-46a7-8620-bb06967f83cc","ios":"levelo://app?vid=db14e876-0fd6-46a7-8620-bb06967f83cc"},"vehicle_type_id":"4","last_reported":1733746807,"current_range_meters":38400,"station_id":"ce4bgvp2rcd13ifvqcu0","pricing_plan_id":"cebpf4jnsgd1na2vs0mg"},{"bike_id":"3b2e3ce8-7d4a-4581-8b02-5deff31350a7","system_id":"levelo_inurba_marseille","lat":43.32658,"lon":5.40991,"is_reserved":false,"is_disabled":false,"rental_uris":{"android":"levelo://app?vid=3b2e3ce8-7d4a-4581-8b02-5deff31350a7","ios":"levelo://app?vid=3b2e3ce8-7d4a-4581-8b02-5deff31350a7"},"vehicle_type_id":"4","last_reported":1733746807,"current_range_meters":38800,"station_id":"ce4bhpp2rcd13ifvqhgg","pricing_plan_id":"cebpf4jnsgd1na2vs0mg"},{"bike_id":"c0abe749-4c6e-4563-badf-b96b4b6f64fe","system_id":"levelo_inurba_marseille","lat":43.30568,"lon":5.36754,"is_reserved":false,"is_disabled":false,"rental_uris":{"android":"levelo://app?vid=c0abe749-4c6e-4563-badf-b96b4b6f64fe","ios":"levelo://app?vid=c0abe749-4c6e-4563-badf-b96b4b6f64fe"},"vehicle_type_id":"4","last_reported":1733746807,"current_range_meters":38800,"station_id":"ce4bgrp2rcd13ifvqc9g","pricing_plan_id":"cebpf4jnsgd1na2vs0mg"},{"bike_id":"c2b1fa7c-c8a0-4edf-86b1-acaa3eea3550","system_id":"levelo_inurba_marseille","lat":43.33765,"lon":5.37441,"is_reserved":false,"is_disabled":false,"rental_uris":{"android":"levelo://app?vid=c2b1fa7c-c8a0-4edf-86b1-acaa3eea3550","ios":"levelo://app?vid=c2b1fa7c-c8a0-4edf-86b1-acaa3eea3550"},"vehicle_type_id":"4","last_reported":1733746807,"current_range_meters":36400,"station_id":"","pricing_plan_id":"cebpf4jnsgd1na2vs0mg"},{"bike_id":"7986f744-f9dd-44d0-b04a-f34f2b9a7e4e","system_id":"levelo_inurba_marseille","lat":43.24651,"lon":5.38912,"is_reserved":false,"is_disabled":false,"rental_uris":{"android":"levelo://app?vid=7986f744-f9dd-44d0-b04a-f34f2b9a7e4e","ios":"levelo://app?vid=7986f744-f9dd-44d0-b04a-f34f2b9a7e4e"},"vehicle_type_id":"4","last_reported":1733746807,"current_range_meters":36400,"station_id":"ce4bhg12rcd13ifvqf60","pricing_plan_id":"cebpf4jnsgd1na2vs0mg"},{"bike_id":"25edd699-2e47-4c45-aa5d-458525863c93","system_id":"levelo_inurba_marseille","lat":43.29303,"lon":5.37167,"is_reserved":false,"is_disabled":true,"rental_uris":{"android":"levelo://app?vid=25edd699-2e47-4c45-aa5d-458525863c93","ios":"levelo://app?vid=25edd699-2e47-4c45-aa5d-458525863c93"},"vehicle_type_id":"4","last_reported":1733746807,"current_range_meters":35600,"station_id":"ce4bgh92rcd13ifvqb40","pricing_plan_id":"cebpf4jnsgd1na2vs0mg"},{"bike_id":"ae317f02-09f3-4c30-806d-3deec5e539e7","system_id":"levelo_inurba_marseille","lat":43.292,"lon":5.39324,"is_reserved":false,"is_disabled":false,"rental_uris":{"android":"levelo://app?vid=ae317f02-09f3-4c30-806d-3deec5e539e7","ios":"levelo://app?vid=ae317f02-09f3-4c30-806d-3deec5e539e7"},"vehicle_type_id":"4","last_reported":1733746807,"current_range_meters":28000,"station_id":"ce4bh192rcd13ifvqdd0","pricing_plan_id":"cebpf4jnsgd1na2vs0mg"},{"bike_id":"09281e7f-b15d-40c3-92c2-6ba7a2702b6b","system_id":"levelo_inurba_marseille","lat":43.27614,"lon":5.36102,"is_reserved":false,"is_disabled":false,"rental_uris":{"android":"levelo://app?vid=09281e7f-b15d-40c3-92c2-6ba7a2702b6b","ios":"levelo://app?vid=09281e7f-b15d-40c3-92c2-6ba7a2702b6b"},"vehicle_type_id":"4","last_reported":1733746807,"current_range_meters":11200,"station_id":"ce4bgj92rcd13ifvqbe0","pricing_plan_id":"cebpf4jnsgd1na2vs0mg"},{"bike_id":"0bff9157-1c4b-44c6-bca8-a8d8094c2395","system_id":"levelo_inurba_marseille","lat":43.27054,"lon":5.40264,"is_reserved":false,"is_disabled":false,"rental_uris":{"android":"levelo://app?vid=0bff9157-1c4b-44c6-bca8-a8d8094c2395","ios":"levelo://app?vid=0bff9157-1c4b-44c6-bca8-a8d8094c2395"},"vehicle_type_id":"4","last_reported":1733746807,"current_range_meters":12400,"station_id":"ce4bhk92rcd13ifvqgc0","pricing_plan_id":"cebpf4jnsgd1na2vs0mg"},{"bike_id":"0ccd581d-9c76-4795-b702-2d923b116e9d","system_id":"levelo_inurba_marseille","lat":43.27179,"lon":5.40993,"is_reserved":false,"is_disabled":false,"rental_uris":{"android":"levelo://app?vid=0ccd581d-9c76-4795-b702-2d923b116e9d","ios":"levelo://app?vid=0ccd581d-9c76-4795-b702-2d923b116e9d"},"vehicle_type_id":"4","last_reported":1733746807,"current_range_meters":37600,"station_id":"ce4bhl12rcd13ifvqgf0","pricing_plan_id":"cebpf4jnsgd1na2vs0mg"},{"bike_id":"4ad4489d-ea7b-49f5-a12e-9356c8af13a5","system_id":"levelo_inurba_marseille","lat":43.30143,"lon":5.381,"is_reserved":false,"is_disabled":true,"rental_uris":{"android":"levelo://app?vid=4ad4489d-ea7b-49f5-a12e-9356c8af13a5","ios":"levelo://app?vid=4ad4489d-ea7b-49f5-a12e-9356c8af13a5"},"vehicle_type_id":"4","last_reported":1733746807,"current_range_meters":21600,"station_id":"ce4bgjp2rcd13ifvqbh0","pricing_plan_id":"cebpf4jnsgd1na2vs0mg"},{"bike_id":"95d8628d-10b1-47e7-9a42-9b126ec315c6","system_id":"levelo_inurba_marseille","lat":43.2319,"lon":5.35554,"is_reserved":false,"is_disabled":false,"rental_uris":{"android":"levelo://app?vid=95d8628d-10b1-47e7-9a42-9b126ec315c6","ios":"levelo://app?vid=95d8628d-10b1-47e7-9a42-9b126ec315c6"},"vehicle_type_id":"4","last_reported":1733746807,"current_range_meters":28800,"station_id":"ce4bhu92rcd13ifvqi70","pricing_plan_id":"cebpf4jnsgd1na2vs0mg"},{"bike_id":"84160b40-ce7b-44a2-a7ca-4591eb995185","system_id":"levelo_inurba_marseille","lat":43.32073,"lon":5.38819,"is_reserved":false,"is_disabled":false,"rental_uris":{"android":"levelo://app?vid=84160b40-ce7b-44a2-a7ca-4591eb995185","ios":"levelo://app?vid=84160b40-ce7b-44a2-a7ca-4591eb995185"},"vehicle_type_id":"4","last_reported":1733746807,"current_range_meters":10800,"station_id":"","pricing_plan_id":"cebpf4jnsgd1na2vs0mg"},{"bike_id":"d209eb08-3f06-41b7-841d-fe042b7cecf8","system_id":"levelo_inurba_marseille","lat":43.291,"lon":5.3813,"is_reserved":false,"is_disabled":false,"rental_uris":{"android":"levelo://app?vid=d209eb08-3f06-41b7-841d-fe042b7cecf8","ios":"levelo://app?vid=d209eb08-3f06-41b7-841d-fe042b7cecf8"},"vehicle_type_id":"4","last_reported":1733746807,"current_range_meters":38400,"station_id":"ce4bh512rcd13ifvqe2g","pricing_plan_id":"cebpf4jnsgd1na2vs0mg"},{"bike_id":"e526c444-6dce-4400-90aa-d9df173b428b","system_id":"levelo_inurba_marseille","lat":43.26784,"lon":5.39413,"is_reserved":false,"is_disabled":false,"rental_uris":{"android":"levelo://app?vid=e526c444-6dce-4400-90aa-d9df173b428b","ios":"levelo://app?vid=e526c444-6dce-4400-90aa-d9df173b428b"},"vehicle_type_id":"4","last_reported":1733746807,"current_range_meters":38800,"station_id":"ce4bhh12rcd13ifvqfg0","pricing_plan_id":"cebpf4jnsgd1na2vs0mg"},{"bike_id":"76bd6b8b-3bd2-4b02-bd6e-379029e15bf1","system_id":"levelo_inurba_marseille","lat":43.30881,"lon":5.37215,"is_reserved":false,"is_disabled":false,"rental_uris":{"android":"levelo://app?vid=76bd6b8b-3bd2-4b02-bd6e-379029e15bf1","ios":"levelo://app?vid=76bd6b8b-3bd2-4b02-bd6e-379029e15bf1"},"vehicle_type_id":"4","last_reported":1733746807,"current_range_meters":38800,"station_id":"ce4bguh2rcd13ifvqckg","pricing_plan_id":"cebpf4jnsgd1na2vs0mg"},{"bike_id":"2baccb83-0ae5-4d5f-bdc6-4fd732d471d5","system_id":"levelo_inurba_marseille","lat":43.24667,"lon":5.38158,"is_reserved":false,"is_disabled":false,"rental_uris":{"android":"levelo://app?vid=2baccb83-0ae5-4d5f-bdc6-4fd732d471d5","ios":"levelo://app?vid=2baccb83-0ae5-4d5f-bdc6-4fd732d471d5"},"vehicle_type_id":"4","last_reported":1733746807,"current_range_meters":38800,"station_id":"ce4bhih2rcd13ifvqfr0","pricing_plan_id":"cebpf4jnsgd1na2vs0mg"},{"bike_id":"b37c5139-e3a4-45d5-ad7b-3e5cf5b69206","system_id":"levelo_inurba_marseille","lat":43.26191,"lon":5.37456,"is_reserved":false,"is_disabled":false,"rental_uris":{"android":"levelo://app?vid=b37c5139-e3a4-45d5-ad7b-3e5cf5b69206","ios":"levelo://app?vid=b37c5139-e3a4-45d5-ad7b-3e5cf5b69206"},"vehicle_type_id":"4","last_reported":1733746807,"current_range_meters":38000,"station_id":"ce4bhgp2rcd13ifvqfc0","pricing_plan_id":"cebpf4jnsgd1na2vs0mg"},{"bike_id":"6c660714-bd36-4e1d-858f-095636bba76e","system_id":"levelo_inurba_marseille","lat":43.25937,"lon":5.40907,"is_reserved":false,"is_disabled":false,"rental_uris":{"android":"levelo://app?vid=6c660714-bd36-4e1d-858f-095636bba76e","ios":"levelo://app?vid=6c660714-bd36-4e1d-858f-095636bba76e"},"vehicle_type_id":"4","last_reported":1733746807,"current_range_meters":38800,"station_id":"ce4bhm92rcd13ifvqglg","pricing_plan_id":"cebpf4jnsgd1na2vs0mg"},{"bike_id":"27249416-5dab-45fb-aa64-41504dc93171","system_id":"levelo_inurba_marseille","lat":43.31825,"lon":5.40641,"is_reserved":false,"is_disabled":false,"rental_uris":{"android":"levelo://app?vid=27249416-5dab-45fb-aa64-41504dc93171","ios":"levelo://app?vid=27249416-5dab-45fb-aa64-41504dc93171"},"vehicle_type_id":"4","last_reported":1733746807,"current_range_meters":24000,"station_id":"ce4bh012rcd13ifvqd00","pricing_plan_id":"cebpf4jnsgd1na2vs0mg"},{"bike_id":"fdbe1005-b4fb-44f6-88fb-f62b7c565355","system_id":"levelo_inurba_marseille","lat":43.27491,"lon":5.4246,"is_reserved":false,"is_disabled":false,"rental_uris":{"android":"levelo://app?vid=fdbe1005-b4fb-44f6-88fb-f62b7c565355","ios":"levelo://app?vid=fdbe1005-b4fb-44f6-88fb-f62b7c565355"},"vehicle_type_id":"4","last_reported":1733746807,"current_range_meters":24800,"station_id":"ce4bhn92rcd13ifvqgrg","pricing_plan_id":"cebpf4jnsgd1na2vs0mg"},{"bike_id":"184ee7e7-c0be-4db3-aa81-4d4277cc62e7","system_id":"levelo_inurba_marseille","lat":43.30881,"lon":5.39645,"is_reserved":false,"is_disabled":true,"rental_uris":{"android":"levelo://app?vid=184ee7e7-c0be-4db3-aa81-4d4277cc62e7","ios":"levelo://app?vid=184ee7e7-c0be-4db3-aa81-4d4277cc62e7"},"vehicle_type_id":"4","last_reported":1733746807,"current_range_meters":38800,"station_id":"ce4bh012rcd13ifvqcv0","pricing_plan_id":"cebpf4jnsgd1na2vs0mg"},{"bike_id":"02d7a8ec-2083-474f-b19d-7d650093db9d","system_id":"levelo_inurba_marseille","lat":43.2466,"lon":5.38162,"is_reserved":false,"is_disabled":false,"rental_uris":{"android":"levelo://app?vid=02d7a8ec-2083-474f-b19d-7d650093db9d","ios":"levelo://app?vid=02d7a8ec-2083-474f-b19d-7d650093db9d"},"vehicle_type_id":"4","last_reported":1733746807,"current_range_meters":20400,"station_id":"ce4bhih2rcd13ifvqfr0","pricing_plan_id":"cebpf4jnsgd1na2vs0mg"},{"bike_id":"4b7d8316-82aa-4b1b-b75a-f789cbc42c93","system_id":"levelo_inurba_marseille","lat":43.25503,"lon":5.37655,"is_reserved":false,"is_disabled":false,"rental_uris":{"android":"levelo://app?vid=4b7d8316-82aa-4b1b-b75a-f789cbc42c93","ios":"levelo://app?vid=4b7d8316-82aa-4b1b-b75a-f789cbc42c93"},"vehicle_type_id":"4","last_reported":1733746807,"current_range_meters":38800,"station_id":"ce4bhh12rcd13ifvqff0","pricing_plan_id":"cebpf4jnsgd1na2vs0mg"},{"bike_id":"fa477f15-a4f1-4cd4-b64e-4106e6886c17","system_id":"levelo_inurba_marseille","lat":43.23197,"lon":5.3555,"is_reserved":false,"is_disabled":false,"rental_uris":{"android":"levelo://app?vid=fa477f15-a4f1-4cd4-b64e-4106e6886c17","ios":"levelo://app?vid=fa477f15-a4f1-4cd4-b64e-4106e6886c17"},"vehicle_type_id":"4","last_reported":1733746807,"current_range_meters":14800,"station_id":"ce4bhu92rcd13ifvqi70","pricing_plan_id":"cebpf4jnsgd1na2vs0mg"},{"bike_id":"080fcb1c-52b8-42d7-b477-4dbab7fa601d","system_id":"levelo_inurba_marseille","lat":43.33023,"lon":5.3904,"is_reserved":false,"is_disabled":false,"rental_uris":{"android":"levelo://app?vid=080fcb1c-52b8-42d7-b477-4dbab7fa601d","ios":"levelo://app?vid=080fcb1c-52b8-42d7-b477-4dbab7fa601d"},"vehicle_type_id":"4","last_reported":1733746807,"current_range_meters":38800,"station_id":"ce4bhr92rcd13ifvqhrg","pricing_plan_id":"cebpf4jnsgd1na2vs0mg"},{"bike_id":"00dfce39-0a3e-42bd-85ef-7a7a8f87f756","system_id":"levelo_inurba_marseille","lat":43.27059,"lon":5.40259,"is_reserved":false,"is_disabled":false,"rental_uris":{"android":"levelo://app?vid=00dfce39-0a3e-42bd-85ef-7a7a8f87f756","ios":"levelo://app?vid=00dfce39-0a3e-42bd-85ef-7a7a8f87f756"},"vehicle_type_id":"4","last_reported":1733746807,"current_range_meters":21600,"station_id":"ce4bhk92rcd13ifvqgc0","pricing_plan_id":"cebpf4jnsgd1na2vs0mg"},{"bike_id":"5a7394d4-9cba-4a10-bb14-bef36628bcdf","system_id":"levelo_inurba_marseille","lat":43.24169,"lon":5.364,"is_reserved":false,"is_disabled":false,"rental_uris":{"android":"levelo://app?vid=5a7394d4-9cba-4a10-bb14-bef36628bcdf","ios":"levelo://app?vid=5a7394d4-9cba-4a10-bb14-bef36628bcdf"},"vehicle_type_id":"4","last_reported":1733746807,"current_range_meters":18800,"station_id":"cpo36qri1sfpv3e86is0","pricing_plan_id":"cebpf4jnsgd1na2vs0mg"},{"bike_id":"f1313a10-24a0-422d-8988-e5a28693b059","system_id":"levelo_inurba_marseille","lat":43.3059,"lon":5.39359,"is_reserved":false,"is_disabled":false,"rental_uris":{"android":"levelo://app?vid=f1313a10-24a0-422d-8988-e5a28693b059","ios":"levelo://app?vid=f1313a10-24a0-422d-8988-e5a28693b059"},"vehicle_type_id":"4","last_reported":1733746807,"current_range_meters":24800,"station_id":"ce4bh0p2rcd13ifvqd80","pricing_plan_id":"cebpf4jnsgd1na2vs0mg"},{"bike_id":"08c2a45a-da89-4dd7-af84-428076a257bb","system_id":"levelo_inurba_marseille","lat":43.27366,"lon":5.36246,"is_reserved":false,"is_disabled":false,"rental_uris":{"android":"levelo://app?vid=08c2a45a-da89-4dd7-af84-428076a257bb","ios":"levelo://app?vid=08c2a45a-da89-4dd7-af84-428076a257bb"},"vehicle_type_id":"4","last_reported":1733746807,"current_range_meters":30800,"station_id":"ce4bhbh2rcd13ifvqeo0","pricing_plan_id":"cebpf4jnsgd1na2vs0mg"},{"bike_id":"bbbfb292-3d43-43a5-a6bc-bd133b9a8d23","system_id":"levelo_inurba_marseille","lat":43.33026,"lon":5.39035,"is_reserved":false,"is_disabled":false,"rental_uris":{"android":"levelo://app?vid=bbbfb292-3d43-43a5-a6bc-bd133b9a8d23","ios":"levelo://app?vid=bbbfb292-3d43-43a5-a6bc-bd133b9a8d23"},"vehicle_type_id":"4","last_reported":1733746807,"current_range_meters":32800,"station_id":"ce4bhr92rcd13ifvqhrg","pricing_plan_id":"cebpf4jnsgd1na2vs0mg"},{"bike_id":"a0b44e86-9121-4df3-b62a-0fc9a0d1110c","system_id":"levelo_inurba_marseille","lat":43.23064,"lon":5.35492,"is_reserved":false,"is_disabled":false,"rental_uris":{"android":"levelo://app?vid=a0b44e86-9121-4df3-b62a-0fc9a0d1110c","ios":"levelo://app?vid=a0b44e86-9121-4df3-b62a-0fc9a0d1110c"},"vehicle_type_id":"4","last_reported":1733746807,"current_range_meters":6800,"station_id":"cpo3342slgdg3j2ifvpg","pricing_plan_id":"cebpf4jnsgd1na2vs0mg"},{"bike_id":"a0c230af-183e-4db9-b10f-8c1a6d844ebf","system_id":"levelo_inurba_marseille","lat":43.3013,"lon":5.38788,"is_reserved":false,"is_disabled":true,"rental_uris":{"android":"levelo://app?vid=a0c230af-183e-4db9-b10f-8c1a6d844ebf","ios":"levelo://app?vid=a0c230af-183e-4db9-b10f-8c1a6d844ebf"},"vehicle_type_id":"4","last_reported":1733746807,"current_range_meters":0,"station_id":"ce4bghh2rcd13ifvqb60","pricing_plan_id":"cebpf4jnsgd1na2vs0mg"},{"bike_id":"10e02497-99ed-494a-9afd-42b125779829","system_id":"levelo_inurba_marseille","lat":43.23151,"lon":5.4372,"is_reserved":false,"is_disabled":false,"rental_uris":{"android":"levelo://app?vid=10e02497-99ed-494a-9afd-42b125779829","ios":"levelo://app?vid=10e02497-99ed-494a-9afd-42b125779829"},"vehicle_type_id":"4","last_reported":1733746807,"current_range_meters":27600,"station_id":"ce4bhmp2rcd13ifvqgog","pricing_plan_id":"cebpf4jnsgd1na2vs0mg"},{"bike_id":"4ae5fe7f-a755-40fe-9b35-59fbb2437146","system_id":"levelo_inurba_marseille","lat":43.24162,"lon":5.36409,"is_reserved":false,"is_disabled":false,"rental_uris":{"android":"levelo://app?vid=4ae5fe7f-a755-40fe-9b35-59fbb2437146","ios":"levelo://app?vid=4ae5fe7f-a755-40fe-9b35-59fbb2437146"},"vehicle_type_id":"4","last_reported":1733746807,"current_range_meters":22800,"station_id":"cpo36qri1sfpv3e86is0","pricing_plan_id":"cebpf4jnsgd1na2vs0mg"},{"bike_id":"ae10a726-acf0-4945-b89d-97aeed5dca91","system_id":"levelo_inurba_marseille","lat":43.27059,"lon":5.4027,"is_reserved":false,"is_disabled":false,"rental_uris":{"android":"levelo://app?vid=ae10a726-acf0-4945-b89d-97aeed5dca91","ios":"levelo://app?vid=ae10a726-acf0-4945-b89d-97aeed5dca91"},"vehicle_type_id":"4","last_reported":1733746807,"current_range_meters":6400,"station_id":"ce4bhk92rcd13ifvqgc0","pricing_plan_id":"cebpf4jnsgd1na2vs0mg"},{"bike_id":"11a1822d-fb1b-4449-ac3a-92e75855d3ff","system_id":"levelo_inurba_marseille","lat":43.25717,"lon":5.4112,"is_reserved":false,"is_disabled":false,"rental_uris":{"android":"levelo://app?vid=11a1822d-fb1b-4449-ac3a-92e75855d3ff","ios":"levelo://app?vid=11a1822d-fb1b-4449-ac3a-92e75855d3ff"},"vehicle_type_id":"4","last_reported":1733746807,"current_range_meters":27600,"station_id":"ce4bhkp2rcd13ifvqgd0","pricing_plan_id":"cebpf4jnsgd1na2vs0mg"},{"bike_id":"bd91f3b6-bfa9-416a-b41f-c58557cb0550","system_id":"levelo_inurba_marseille","lat":43.29282,"lon":5.40119,"is_reserved":false,"is_disabled":false,"rental_uris":{"android":"levelo://app?vid=bd91f3b6-bfa9-416a-b41f-c58557cb0550","ios":"levelo://app?vid=bd91f3b6-bfa9-416a-b41f-c58557cb0550"},"vehicle_type_id":"4","last_reported":1733746807,"current_range_meters":28400,"station_id":"ce4bh312rcd13ifvqdk0","pricing_plan_id":"cebpf4jnsgd1na2vs0mg"},{"bike_id":"daf53fe8-de30-4d41-9b23-035c854c7088","system_id":"levelo_inurba_marseille","lat":43.24072,"lon":5.37763,"is_reserved":false,"is_disabled":false,"rental_uris":{"android":"levelo://app?vid=daf53fe8-de30-4d41-9b23-035c854c7088","ios":"levelo://app?vid=daf53fe8-de30-4d41-9b23-035c854c7088"},"vehicle_type_id":"4","last_reported":1733746807,"current_range_meters":38800,"station_id":"ce4bhnp2rcd13ifvqgvg","pricing_plan_id":"cebpf4jnsgd1na2vs0mg"},{"bike_id":"d8bbcd25-4300-4b62-8d7b-865e32031b49","system_id":"levelo_inurba_marseille","lat":43.28157,"lon":5.42642,"is_reserved":false,"is_disabled":false,"rental_uris":{"android":"levelo://app?vid=d8bbcd25-4300-4b62-8d7b-865e32031b49","ios":"levelo://app?vid=d8bbcd25-4300-4b62-8d7b-865e32031b49"},"vehicle_type_id":"4","last_reported":1733746807,"current_range_meters":38800,"station_id":"ce4bhnh2rcd13ifvqgug","pricing_plan_id":"cebpf4jnsgd1na2vs0mg"},{"bike_id":"4a5a1beb-311f-4326-8a10-7ca48759e9aa","system_id":"levelo_inurba_marseille","lat":43.30529,"lon":5.38423,"is_reserved":false,"is_disabled":false,"rental_uris":{"android":"levelo://app?vid=4a5a1beb-311f-4326-8a10-7ca48759e9aa","ios":"levelo://app?vid=4a5a1beb-311f-4326-8a10-7ca48759e9aa"},"vehicle_type_id":"4","last_reported":1733746807,"current_range_meters":26000,"station_id":"ce4bgg92rcd13ifvqb30","pricing_plan_id":"cebpf4jnsgd1na2vs0mg"},{"bike_id":"fd430ec8-d2aa-4771-9d27-f4977f1834b2","system_id":"levelo_inurba_marseille","lat":43.3372,"lon":5.39183,"is_reserved":false,"is_disabled":false,"rental_uris":{"android":"levelo://app?vid=fd430ec8-d2aa-4771-9d27-f4977f1834b2","ios":"levelo://app?vid=fd430ec8-d2aa-4771-9d27-f4977f1834b2"},"vehicle_type_id":"4","last_reported":1733746807,"current_range_meters":38800,"station_id":"ce4bhr92rcd13ifvqhsg","pricing_plan_id":"cebpf4jnsgd1na2vs0mg"},{"bike_id":"ba5e4c54-9e0f-419d-acd3-894b4507a88b","system_id":"levelo_inurba_marseille","lat":43.23056,"lon":5.35489,"is_reserved":false,"is_disabled":false,"rental_uris":{"android":"levelo://app?vid=ba5e4c54-9e0f-419d-acd3-894b4507a88b","ios":"levelo://app?vid=ba5e4c54-9e0f-419d-acd3-894b4507a88b"},"vehicle_type_id":"4","last_reported":1733746807,"current_range_meters":30800,"station_id":"cpo3342slgdg3j2ifvpg","pricing_plan_id":"cebpf4jnsgd1na2vs0mg"},{"bike_id":"01438061-10ef-4547-83a4-b7c2feaa683c","system_id":"levelo_inurba_marseille","lat":43.30529,"lon":5.36723,"is_reserved":false,"is_disabled":false,"rental_uris":{"android":"levelo://app?vid=01438061-10ef-4547-83a4-b7c2feaa683c","ios":"levelo://app?vid=01438061-10ef-4547-83a4-b7c2feaa683c"},"vehicle_type_id":"4","last_reported":1733746807,"current_range_meters":26800,"station_id":"ce4bgrp2rcd13ifvqc9g","pricing_plan_id":"cebpf4jnsgd1na2vs0mg"},{"bike_id":"3766e884-eccf-4c38-8694-a5e31fa72ca0","system_id":"levelo_inurba_marseille","lat":43.31273,"lon":5.40156,"is_reserved":false,"is_disabled":false,"rental_uris":{"android":"levelo://app?vid=3766e884-eccf-4c38-8694-a5e31fa72ca0","ios":"levelo://app?vid=3766e884-eccf-4c38-8694-a5e31fa72ca0"},"vehicle_type_id":"4","last_reported":1733746807,"current_range_meters":38000,"station_id":"ce4bh092rcd13ifvqd30","pricing_plan_id":"cebpf4jnsgd1na2vs0mg"},{"bike_id":"45086712-1023-4a35-a0ec-49d14554c9ac","system_id":"levelo_inurba_marseille","lat":43.34139,"lon":5.40902,"is_reserved":false,"is_disabled":false,"rental_uris":{"android":"levelo://app?vid=45086712-1023-4a35-a0ec-49d14554c9ac","ios":"levelo://app?vid=45086712-1023-4a35-a0ec-49d14554c9ac"},"vehicle_type_id":"4","last_reported":1733746807,"current_range_meters":27200,"station_id":"ce4bhqh2rcd13ifvqhlg","pricing_plan_id":"cebpf4jnsgd1na2vs0mg"},{"bike_id":"8ea5f175-acc7-4073-a5b8-16e2175dbac5","system_id":"levelo_inurba_marseille","lat":43.240658,"lon":5.377999,"is_reserved":false,"is_disabled":false,"rental_uris":{"android":"levelo://app?vid=8ea5f175-acc7-4073-a5b8-16e2175dbac5","ios":"levelo://app?vid=8ea5f175-acc7-4073-a5b8-16e2175dbac5"},"vehicle_type_id":"4","last_reported":1733746807,"current_range_meters":28800,"station_id":"ce4bhnp2rcd13ifvqgvg","pricing_plan_id":"cebpf4jnsgd1na2vs0mg"},{"bike_id":"155e4552-adf3-45a5-aa6c-6e25fcaf05e5","system_id":"levelo_inurba_marseille","lat":43.27174,"lon":5.40989,"is_reserved":false,"is_disabled":false,"rental_uris":{"android":"levelo://app?vid=155e4552-adf3-45a5-aa6c-6e25fcaf05e5","ios":"levelo://app?vid=155e4552-adf3-45a5-aa6c-6e25fcaf05e5"},"vehicle_type_id":"4","last_reported":1733746807,"current_range_meters":22800,"station_id":"ce4bhl12rcd13ifvqgf0","pricing_plan_id":"cebpf4jnsgd1na2vs0mg"},{"bike_id":"35f3c44e-0e88-42b6-9d0a-a15513a6f190","system_id":"levelo_inurba_marseille","lat":43.31119,"lon":5.36708,"is_reserved":false,"is_disabled":false,"rental_uris":{"android":"levelo://app?vid=35f3c44e-0e88-42b6-9d0a-a15513a6f190","ios":"levelo://app?vid=35f3c44e-0e88-42b6-9d0a-a15513a6f190"},"vehicle_type_id":"4","last_reported":1733746807,"current_range_meters":25200,"station_id":"","pricing_plan_id":"cebpf4jnsgd1na2vs0mg"},{"bike_id":"3702917b-7e66-4f83-a6eb-bc58a3f2a139","system_id":"levelo_inurba_marseille","lat":43.26054,"lon":5.39395,"is_reserved":false,"is_disabled":true,"rental_uris":{"android":"levelo://app?vid=3702917b-7e66-4f83-a6eb-bc58a3f2a139","ios":"levelo://app?vid=3702917b-7e66-4f83-a6eb-bc58a3f2a139"},"vehicle_type_id":"4","last_reported":1733746807,"current_range_meters":38800,"station_id":"ce4bhh92rcd13ifvqfj0","pricing_plan_id":"cebpf4jnsgd1na2vs0mg"},{"bike_id":"bd45d4b8-a794-47d3-b71a-c238d420c3d9","system_id":"levelo_inurba_marseille","lat":43.29001,"lon":5.35615,"is_reserved":false,"is_disabled":true,"rental_uris":{"android":"levelo://app?vid=bd45d4b8-a794-47d3-b71a-c238d420c3d9","ios":"levelo://app?vid=bd45d4b8-a794-47d3-b71a-c238d420c3d9"},"vehicle_type_id":"4","last_reported":1733746807,"current_range_meters":31200,"station_id":"ce4bhb92rcd13ifvqen0","pricing_plan_id":"cebpf4jnsgd1na2vs0mg"},{"bike_id":"d1536a78-ea0e-400d-aba2-381c23866ae8","system_id":"levelo_inurba_marseille","lat":43.27372,"lon":5.36257,"is_reserved":false,"is_disabled":false,"rental_uris":{"android":"levelo://app?vid=d1536a78-ea0e-400d-aba2-381c23866ae8","ios":"levelo://app?vid=d1536a78-ea0e-400d-aba2-381c23866ae8"},"vehicle_type_id":"4","last_reported":1733746807,"current_range_meters":22000,"station_id":"ce4bhbh2rcd13ifvqeo0","pricing_plan_id":"cebpf4jnsgd1na2vs0mg"},{"bike_id":"c32f9e8a-18cf-4a25-838d-1aeb8d588bea","system_id":"levelo_inurba_marseille","lat":43.24081,"lon":5.37759,"is_reserved":false,"is_disabled":false,"rental_uris":{"android":"levelo://app?vid=c32f9e8a-18cf-4a25-838d-1aeb8d588bea","ios":"levelo://app?vid=c32f9e8a-18cf-4a25-838d-1aeb8d588bea"},"vehicle_type_id":"4","last_reported":1733746807,"current_range_meters":35200,"station_id":"ce4bhnp2rcd13ifvqgvg","pricing_plan_id":"cebpf4jnsgd1na2vs0mg"},{"bike_id":"13999a8a-a944-4422-8258-4b400c2b65a8","system_id":"levelo_inurba_marseille","lat":43.24081,"lon":5.37739,"is_reserved":false,"is_disabled":false,"rental_uris":{"android":"levelo://app?vid=13999a8a-a944-4422-8258-4b400c2b65a8","ios":"levelo://app?vid=13999a8a-a944-4422-8258-4b400c2b65a8"},"vehicle_type_id":"4","last_reported":1733746807,"current_range_meters":24000,"station_id":"ce4bhnp2rcd13ifvqgvg","pricing_plan_id":"cebpf4jnsgd1na2vs0mg"},{"bike_id":"b69a25c4-cb4a-4398-bd49-a12912254e2e","system_id":"levelo_inurba_marseille","lat":43.29896,"lon":5.43671,"is_reserved":false,"is_disabled":false,"rental_uris":{"android":"levelo://app?vid=b69a25c4-cb4a-4398-bd49-a12912254e2e","ios":"levelo://app?vid=b69a25c4-cb4a-4398-bd49-a12912254e2e"},"vehicle_type_id":"4","last_reported":1733746807,"current_range_meters":37600,"station_id":"ce4bhpp2rcd13ifvqhfg","pricing_plan_id":"cebpf4jnsgd1na2vs0mg"},{"bike_id":"65cc25cb-0410-4a1f-9bd3-99965fb262ff","system_id":"levelo_inurba_marseille","lat":43.26564,"lon":5.39037,"is_reserved":false,"is_disabled":false,"rental_uris":{"android":"levelo://app?vid=65cc25cb-0410-4a1f-9bd3-99965fb262ff","ios":"levelo://app?vid=65cc25cb-0410-4a1f-9bd3-99965fb262ff"},"vehicle_type_id":"4","last_reported":1733746807,"current_range_meters":38800,"station_id":"ce4bhe12rcd13ifvqf30","pricing_plan_id":"cebpf4jnsgd1na2vs0mg"},{"bike_id":"6149d10a-ee53-4413-9592-38357ced78cb","system_id":"levelo_inurba_marseille","lat":43.26189,"lon":5.3745,"is_reserved":false,"is_disabled":false,"rental_uris":{"android":"levelo://app?vid=6149d10a-ee53-4413-9592-38357ced78cb","ios":"levelo://app?vid=6149d10a-ee53-4413-9592-38357ced78cb"},"vehicle_type_id":"4","last_reported":1733746807,"current_range_meters":38800,"station_id":"ce4bhgp2rcd13ifvqfc0","pricing_plan_id":"cebpf4jnsgd1na2vs0mg"},{"bike_id":"55a10de8-9346-4005-b1a2-a51b7da72667","system_id":"levelo_inurba_marseille","lat":43.28847,"lon":5.35845,"is_reserved":false,"is_disabled":false,"rental_uris":{"android":"levelo://app?vid=55a10de8-9346-4005-b1a2-a51b7da72667","ios":"levelo://app?vid=55a10de8-9346-4005-b1a2-a51b7da72667"},"vehicle_type_id":"4","last_reported":1733746807,"current_range_meters":8000,"station_id":"ce4bhb12rcd13ifvqem0","pricing_plan_id":"cebpf4jnsgd1na2vs0mg"},{"bike_id":"f03a0fd2-8b78-4caf-823d-2d72f29eb1fc","system_id":"levelo_inurba_marseille","lat":43.27185,"lon":5.40995,"is_reserved":false,"is_disabled":false,"rental_uris":{"android":"levelo://app?vid=f03a0fd2-8b78-4caf-823d-2d72f29eb1fc","ios":"levelo://app?vid=f03a0fd2-8b78-4caf-823d-2d72f29eb1fc"},"vehicle_type_id":"4","last_reported":1733746807,"current_range_meters":38800,"station_id":"ce4bhl12rcd13ifvqgf0","pricing_plan_id":"cebpf4jnsgd1na2vs0mg"},{"bike_id":"20e9db8d-d68b-4418-94af-d9d63f8c2b96","system_id":"levelo_inurba_marseille","lat":43.337444,"lon":5.374475,"is_reserved":false,"is_disabled":true,"rental_uris":{"android":"levelo://app?vid=20e9db8d-d68b-4418-94af-d9d63f8c2b96","ios":"levelo://app?vid=20e9db8d-d68b-4418-94af-d9d63f8c2b96"},"vehicle_type_id":"4","last_reported":1733746807,"current_range_meters":0,"station_id":"","pricing_plan_id":"cebpf4jnsgd1na2vs0mg"},{"bike_id":"448ae88c-dabf-4589-a5e8-b16a7f8908ef","system_id":"levelo_inurba_marseille","lat":43.27065,"lon":5.42283,"is_reserved":false,"is_disabled":false,"rental_uris":{"android":"levelo://app?vid=448ae88c-dabf-4589-a5e8-b16a7f8908ef","ios":"levelo://app?vid=448ae88c-dabf-4589-a5e8-b16a7f8908ef"},"vehicle_type_id":"4","last_reported":1733746807,"current_range_meters":27200,"station_id":"ce4bhk92rcd13ifvqgb0","pricing_plan_id":"cebpf4jnsgd1na2vs0mg"},{"bike_id":"fa7f1210-1a59-49da-a06e-e9a907734490","system_id":"levelo_inurba_marseille","lat":43.27168,"lon":5.40991,"is_reserved":false,"is_disabled":false,"rental_uris":{"android":"levelo://app?vid=fa7f1210-1a59-49da-a06e-e9a907734490","ios":"levelo://app?vid=fa7f1210-1a59-49da-a06e-e9a907734490"},"vehicle_type_id":"4","last_reported":1733746807,"current_range_meters":23200,"station_id":"ce4bhl12rcd13ifvqgf0","pricing_plan_id":"cebpf4jnsgd1na2vs0mg"},{"bike_id":"2f926e3d-b9a2-42bb-ae70-0952b07e5020","system_id":"levelo_inurba_marseille","lat":43.26207,"lon":5.37443,"is_reserved":false,"is_disabled":false,"rental_uris":{"android":"levelo://app?vid=2f926e3d-b9a2-42bb-ae70-0952b07e5020","ios":"levelo://app?vid=2f926e3d-b9a2-42bb-ae70-0952b07e5020"},"vehicle_type_id":"4","last_reported":1733746807,"current_range_meters":37600,"station_id":"ce4bhgp2rcd13ifvqfc0","pricing_plan_id":"cebpf4jnsgd1na2vs0mg"},{"bike_id":"f7a6f0a3-57fc-42fd-9a12-d05e62e1f65e","system_id":"levelo_inurba_marseille","lat":43.27052,"lon":5.40262,"is_reserved":false,"is_disabled":false,"rental_uris":{"android":"levelo://app?vid=f7a6f0a3-57fc-42fd-9a12-d05e62e1f65e","ios":"levelo://app?vid=f7a6f0a3-57fc-42fd-9a12-d05e62e1f65e"},"vehicle_type_id":"4","last_reported":1733746807,"current_range_meters":30800,"station_id":"ce4bhk92rcd13ifvqgc0","pricing_plan_id":"cebpf4jnsgd1na2vs0mg"},{"bike_id":"f6f6210d-5e07-46dd-93e4-3e102dd7cb0e","system_id":"levelo_inurba_marseille","lat":43.29395,"lon":5.38885,"is_reserved":false,"is_disabled":true,"rental_uris":{"android":"levelo://app?vid=f6f6210d-5e07-46dd-93e4-3e102dd7cb0e","ios":"levelo://app?vid=f6f6210d-5e07-46dd-93e4-3e102dd7cb0e"},"vehicle_type_id":"4","last_reported":1733746807,"current_range_meters":0,"station_id":"","pricing_plan_id":"cebpf4jnsgd1na2vs0mg"},{"bike_id":"1075bbdb-a40c-4140-a27c-fda972d203c7","system_id":"levelo_inurba_marseille","lat":43.29033,"lon":5.38148,"is_reserved":false,"is_disabled":true,"rental_uris":{"android":"levelo://app?vid=1075bbdb-a40c-4140-a27c-fda972d203c7","ios":"levelo://app?vid=1075bbdb-a40c-4140-a27c-fda972d203c7"},"vehicle_type_id":"4","last_reported":1733746807,"current_range_meters":24800,"station_id":"ce4bh4p2rcd13ifvqe1g","pricing_plan_id":"cebpf4jnsgd1na2vs0mg"},{"bike_id":"ce432022-ba2c-4611-9b24-44ff111ded31","system_id":"levelo_inurba_marseille","lat":43.30143,"lon":5.39883,"is_reserved":false,"is_disabled":false,"rental_uris":{"android":"levelo://app?vid=ce432022-ba2c-4611-9b24-44ff111ded31","ios":"levelo://app?vid=ce432022-ba2c-4611-9b24-44ff111ded31"},"vehicle_type_id":"4","last_reported":1733746807,"current_range_meters":38800,"station_id":"ce4bh0h2rcd13ifvqd40","pricing_plan_id":"cebpf4jnsgd1na2vs0mg"},{"bike_id":"6d8b4d42-f450-4734-acc6-2e713ae18747","system_id":"levelo_inurba_marseille","lat":43.28553,"lon":5.4813,"is_reserved":false,"is_disabled":true,"rental_uris":{"android":"levelo://app?vid=6d8b4d42-f450-4734-acc6-2e713ae18747","ios":"levelo://app?vid=6d8b4d42-f450-4734-acc6-2e713ae18747"},"vehicle_type_id":"4","last_reported":1733746807,"current_range_meters":21600,"station_id":"","pricing_plan_id":"cebpf4jnsgd1na2vs0mg"},