{"last_updated":1728083292,"ttl":60,"version":"2.2","data":{"bikes":[{"bike_id":"e4b84675-a2ef-4a08-972b-c8ccf50cd9f9","system_id":"levelo_inurba_marseille","lat":43.23182,"lon":5.39985,"is_reserved":false,"is_disabled":false,"rental_uris":{"android":"levelo://app?vid=e4b84675-a2ef-4a08-972b-c8ccf50cd9f9","ios":"levelo://app?vid=e4b84675-a2ef-4a08-972b-c8ccf50cd9f9"},"vehicle_type_id":"4","last_reported":1728083292,"current_range_meters":25200,"station_id":"ce4bhn12rcd13ifvqgqg","pricing_plan_id":"cebpf4jnsgd1na2vs0mg"},{"bike_id":"7244a60b-bd29-46a8-b6b6-1ba592f74ded","system_id":"levelo_inurba_marseille","lat":43.25117,"lon":5.40322,"is_reserved":false,"is_disabled":false,"rental_uris":{"android":"levelo://app?vid=7244a60b-bd29-46a8-b6b6-1ba592f74ded","ios":"levelo://app?vid=7244a60b-bd29-46a8-b6b6-1ba592f74ded"},"vehicle_type_id":"4","last_reported":1728083292,"current_range_meters":23200,"station_id":"ce4bhlh2rcd13ifvqgig","pricing_plan_id":"cebpf4jnsgd1na2vs0mg"},{"bike_id":"fc4cd310-d92c-4df7-a20f-bde8894c63db","system_id":"levelo_inurba_marseille","lat":43.25149,"lon":5.40333,"is_reserved":false,"is_disabled":false,"rental_uris":{"android":"levelo://app?vid=fc4cd310-d92c-4df7-a20f-bde8894c63db","ios":"levelo://app?vid=fc4cd310-d92c-4df7-a20f-bde8894c63db"},"vehicle_type_id":"4","last_reported":1728083292,"current_range_meters":6000,"station_id":"","pricing_plan_id":"cebpf4jnsgd1na2vs0mg"},{"bike_id":"a56c66a8-2c2c-450d-99ae-17d6eaa42433","system_id":"levelo_inurba_marseille","lat":43.2439,"lon":5.37062,"is_reserved":false,"is_disabled":false,"rental_uris":{"android":"levelo://app?vid=a56c66a8-2c2c-450d-99ae-17d6eaa42433","ios":"levelo://app?vid=a56c66a8-2c2c-450d-99ae-17d6eaa42433"},"vehicle_type_id":"4","last_reported":1728083292,"current_range_meters":38000,"station_id":"ce4bhhh2rcd13ifvqfk0","pricing_plan_id":"cebpf4jnsgd1na2vs0mg"},{"bike_id":"40fa03b7-66ea-4ec1-9bdc-41ec2b95b381","system_id":"levelo_inurba_marseille","lat":43.31082,"lon":5.42424,"is_reserved":false,"is_disabled":false,"rental_uris":{"android":"levelo://app?vid=40fa03b7-66ea-4ec1-9bdc-41ec2b95b381","ios":"levelo://app?vid=40fa03b7-66ea-4ec1-9bdc-41ec2b95b381"},"vehicle_type_id":"4","last_reported":1728083292,"current_range_meters":16000,"station_id":"ce4bhp92rcd13ifvqhag","pricing_plan_id":"cebpf4jnsgd1na2vs0mg"},{"bike_id":"0ab31a2b-100e-46ba-8518-e3de7fc7122e","system_id":"levelo_inurba_marseille","lat":43.33762,"lon":5.3744,"is_reserved":false,"is_disabled":false,"rental_uris":{"android":"levelo://app?vid=0ab31a2b-100e-46ba-8518-e3de7fc7122e","ios":"levelo://app?vid=0ab31a2b-100e-46ba-8518-e3de7fc7122e"},"vehicle_type_id":"4","last_reported":1728083292,"current_range_meters":35200,"station_id":"","pricing_plan_id":"cebpf4jnsgd1na2vs0mg"},{"bike_id":"4e5d55ab-5625-4878-b6f4-3a40ac8fe1fe","system_id":"levelo_inurba_marseille","lat":43.30325,"lon":5.40443,"is_reserved":false,"is_disabled":false,"rental_uris":{"android":"levelo://app?vid=4e5d55ab-5625-4878-b6f4-3a40ac8fe1fe","ios":"levelo://app?vid=4e5d55ab-5625-4878-b6f4-3a40ac8fe1fe"},"vehicle_type_id":"4","last_reported":1728083292,"current_range_meters":20800,"station_id":"ce4bh012rcd13ifvqd10","pricing_plan_id":"cebpf4jnsgd1na2vs0mg"},{"bike_id":"74c7d066-3397-4384-9159-7995f69e0cb0","system_id":"levelo_inurba_marseille","lat":43.25867,"lon":5.39889,"is_reserved":false,"is_disabled":false,"rental_uris":{"android":"levelo://app?vid=74c7d066-3397-4384-9159-7995f69e0cb0","ios":"levelo://app?vid=74c7d066-3397-4384-9159-7995f69e0cb0"},"vehicle_type_id":"4","last_reported":1728083292,"current_range_meters":7200,"station_id":"ce4bhl92rcd13ifvqghg","pricing_plan_id":"cebpf4jnsgd1na2vs0mg"},{"bike_id":"756088e4-bd38-4606-aa6f-cbbf1461af00","system_id":"levelo_inurba_marseille","lat":43.22936,"lon":5.35378,"is_reserved":false,"is_disabled":false,"rental_uris":{"android":"levelo://app?vid=756088e4-bd38-4606-aa6f-cbbf1461af00","ios":"levelo://app?vid=756088e4-bd38-4606-aa6f-cbbf1461af00"},"vehicle_type_id":"4","last_reported":1728083292,"current_range_meters":10000,"station_id":"cpo3532slgdg3j2ikp40","pricing_plan_id":"cebpf4jnsgd1na2vs0mg"},{"bike_id":"6389b576-d923-4269-964f-3722f353b0aa","system_id":"levelo_inurba_marseille","lat":43.25112,"lon":5.40333,"is_reserved":false,"is_disabled":false,"rental_uris":{"android":"levelo://app?vid=6389b576-d923-4269-964f-3722f353b0aa","ios":"levelo://app?vid=6389b576-d923-4269-964f-3722f353b0aa"},"vehicle_type_id":"4","last_reported":1728083292,"current_range_meters":16800,"station_id":"ce4bhlh2rcd13ifvqgig","pricing_plan_id":"cebpf4jnsgd1na2vs0mg"},{"bike_id":"a4aa62ee-7487-458b-b1e7-90a175527687","system_id":"levelo_inurba_marseille","lat":43.29361,"lon":5.392124,"is_reserved":false,"is_disabled":false,"rental_uris":{"android":"levelo://app?vid=a4aa62ee-7487-458b-b1e7-90a175527687","ios":"levelo://app?vid=a4aa62ee-7487-458b-b1e7-90a175527687"},"vehicle_type_id":"4","last_reported":1728083292,"current_range_meters":34000,"station_id":"","pricing_plan_id":"cebpf4jnsgd1na2vs0mg"},{"bike_id":"b533c485-8de5-4435-9b8a-7bede3d5f21f","system_id":"levelo_inurba_marseille","lat":43.3112,"lon":5.37747,"is_reserved":false,"is_disabled":false,"rental_uris":{"android":"levelo://app?vid=b533c485-8de5-4435-9b8a-7bede3d5f21f","ios":"levelo://app?vid=b533c485-8de5-4435-9b8a-7bede3d5f21f"},"vehicle_type_id":"4","last_reported":1728083292,"current_range_meters":38800,"station_id":"ce4bgt92rcd13ifvqcg0","pricing_plan_id":"cebpf4jnsgd1na2vs0mg"},{"bike_id":"4baa9b83-4430-4f18-814e-ddb2add7d50a","system_id":"levelo_inurba_marseille","lat":43.30934,"lon":5.4015,"is_reserved":false,"is_disabled":false,"rental_uris":{"android":"levelo://app?vid=4baa9b83-4430-4f18-814e-ddb2add7d50a","ios":"levelo://app?vid=4baa9b83-4430-4f18-814e-ddb2add7d50a"},"vehicle_type_id":"4","last_reported":1728083292,"current_range_meters":32000,"station_id":"ce4bgvp2rcd13ifvqct0","pricing_plan_id":"cebpf4jnsgd1na2vs0mg"},{"bike_id":"00719d00-6c3a-4265-905e-1dc35535967d","system_id":"levelo_inurba_marseille","lat":43.28104,"lon":5.37834,"is_reserved":false,"is_disabled":false,"rental_uris":{"android":"levelo://app?vid=00719d00-6c3a-4265-905e-1dc35535967d","ios":"levelo://app?vid=00719d00-6c3a-4265-905e-1dc35535967d"},"vehicle_type_id":"4","last_reported":1728083292,"current_range_meters":22000,"station_id":"ce4bha12rcd13ifvqee0","pricing_plan_id":"cebpf4jnsgd1na2vs0mg"},{"bike_id":"dd0f2957-e221-4884-8191-7bf176b6f125","system_id":"levelo_inurba_marseille","lat":43.30174,"lon":5.36961,"is_reserved":false,"is_disabled":false,"rental_uris":{"android":"levelo://app?vid=dd0f2957-e221-4884-8191-7bf176b6f125","ios":"levelo://app?vid=dd0f2957-e221-4884-8191-7bf176b6f125"},"vehicle_type_id":"4","last_reported":1728083292,"current_range_meters":37600,"station_id":"","pricing_plan_id":"cebpf4jnsgd1na2vs0mg"},{"bike_id":"e5a282ac-f003-4b24-85f3-6a97a2c39269","system_id":"levelo_inurba_marseille","lat":43.31496,"lon":5.37308,"is_reserved":false,"is_disabled":false,"rental_uris":{"android":"levelo://app?vid=e5a282ac-f003-4b24-85f3-6a97a2c39269","ios":"levelo://app?vid=e5a282ac-f003-4b24-85f3-6a97a2c39269"},"vehicle_type_id":"4","last_reported":1728083292,"current_range_meters":38800,"station_id":"ce4bgt12rcd13ifvqcd0","pricing_plan_id":"cebpf4jnsgd1na2vs0mg"},{"bike_id":"37042c1b-99f0-4379-a7d0-0b6867cdb669","system_id":"levelo_inurba_marseille","lat":43.23179,"lon":5.39984,"is_reserved":false,"is_disabled":false,"rental_uris":{"android":"levelo://app?vid=37042c1b-99f0-4379-a7d0-0b6867cdb669","ios":"levelo://app?vid=37042c1b-99f0-4379-a7d0-0b6867cdb669"},"vehicle_type_id":"4","last_reported":1728083292,"current_range_meters":24400,"station_id":"ce4bhn12rcd13ifvqgqg","pricing_plan_id":"cebpf4jnsgd1na2vs0mg"},{"bike_id":"949f4c7b-f4a8-4118-8901-e4fe18c36241","system_id":"levelo_inurba_marseille","lat":43.32662,"lon":5.40991,"is_reserved":false,"is_disabled":false,"rental_uris":{"android":"levelo://app?vid=949f4c7b-f4a8-4118-8901-e4fe18c36241","ios":"levelo://app?vid=949f4c7b-f4a8-4118-8901-e4fe18c36241"},"vehicle_type_id":"4","last_reported":1728083292,"current_range_meters":27200,"station_id":"ce4bhpp2rcd13ifvqhgg","pricing_plan_id":"cebpf4jnsgd1na2vs0mg"},{"bike_id":"57ca37b5-3df4-46a1-89d9-502a214a9079","system_id":"levelo_inurba_marseille","lat":43.31284,"lon":5.40168,"is_reserved":false,"is_disabled":false,"rental_uris":{"android":"levelo://app?vid=57ca37b5-3df4-46a1-89d9-502a214a9079","ios":"levelo://app?vid=57ca37b5-3df4-46a1-89d9-502a214a9079"},"vehicle_type_id":"4","last_reported":1728083292,"current_range_meters":13600,"station_id":"ce4bh092rcd13ifvqd30","pricing_plan_id":"cebpf4jnsgd1na2vs0mg"},{"bike_id":"0dc8198c-8784-429a-9654-bc3e6d0ff90b","system_id":"levelo_inurba_marseille","lat":43.23967,"lon":5.36629,"is_reserved":false,"is_disabled":false,"rental_uris":{"android":"levelo://app?vid=0dc8198c-8784-429a-9654-bc3e6d0ff90b","ios":"levelo://app?vid=0dc8198c-8784-429a-9654-bc3e6d0ff90b"},"vehicle_type_id":"4","last_reported":1728083292,"current_range_meters":18800,"station_id":"ce4bhi12rcd13ifvqfp0","pricing_plan_id":"cebpf4jnsgd1na2vs0mg"},{"bike_id":"63c8fa7d-6106-4fec-a19a-c06be543e12d","system_id":"levelo_inurba_marseille","lat":43.29053,"lon":5.35908,"is_reserved":false,"is_disabled":false,"rental_uris":{"android":"levelo://app?vid=63c8fa7d-6106-4fec-a19a-c06be543e12d","ios":"levelo://app?vid=63c8fa7d-6106-4fec-a19a-c06be543e12d"},"vehicle_type_id":"4","last_reported":1728083292,"current_range_meters":16400,"station_id":"ce4bha92rcd13ifvqeg0","pricing_plan_id":"cebpf4jnsgd1na2vs0mg"},{"bike_id":"c68cc33a-4a9b-4083-b265-cd063174559a","system_id":"levelo_inurba_marseille","lat":43.28457,"lon":5.35894,"is_reserved":false,"is_disabled":false,"rental_uris":{"android":"levelo://app?vid=c68cc33a-4a9b-4083-b265-cd063174559a","ios":"levelo://app?vid=c68cc33a-4a9b-4083-b265-cd063174559a"},"vehicle_type_id":"4","last_reported":1728083292,"current_range_meters":23200,"station_id":"ce4bhah2rcd13ifvqei0","pricing_plan_id":"cebpf4jnsgd1na2vs0mg"},{"bike_id":"5a484b9f-0ab5-40c4-af5c-dba35c9c07cb","system_id":"levelo_inurba_marseille","lat":43.30326,"lon":5.40458,"is_reserved":false,"is_disabled":false,"rental_uris":{"android":"levelo://app?vid=5a484b9f-0ab5-40c4-af5c-dba35c9c07cb","ios":"levelo://app?vid=5a484b9f-0ab5-40c4-af5c-dba35c9c07cb"},"vehicle_type_id":"4","last_reported":1728083292,"current_range_meters":8800,"station_id":"ce4bh012rcd13ifvqd10","pricing_plan_id":"cebpf4jnsgd1na2vs0mg"},{"bike_id":"69b2ab72-6eb7-403d-85c7-be72aa2ab82b","system_id":"levelo_inurba_marseille","lat":43.30099,"lon":5.40031,"is_reserved":false,"is_disabled":false,"rental_uris":{"android":"levelo://app?vid=69b2ab72-6eb7-403d-85c7-be72aa2ab82b","ios":"levelo://app?vid=69b2ab72-6eb7-403d-85c7-be72aa2ab82b"},"vehicle_type_id":"4","last_reported":1728083292,"current_range_meters":20800,"station_id":"","pricing_plan_id":"cebpf4jnsgd1na2vs0mg"},{"bike_id":"07701ea3-09ca-48fa-90b8-240bf912dcd9","system_id":"levelo_inurba_marseille","lat":43.295746,"lon":5.375692,"is_reserved":false,"is_disabled":false,"rental_uris":{"android":"levelo://app?vid=07701ea3-09ca-48fa-90b8-240bf912dcd9","ios":"levelo://app?vid=07701ea3-09ca-48fa-90b8-240bf912dcd9"},"vehicle_type_id":"4","last_reported":1728083292,"current_range_meters":35600,"station_id":"","pricing_plan_id":"cebpf4jnsgd1na2vs0mg"},{"bike_id":"3b5b5a7f-d2d7-43a6-b6f5-9af24c7d5b7a","system_id":"levelo_inurba_marseille","lat":43.26202,"lon":5.37937,"is_reserved":false,"is_disabled":false,"rental_uris":{"android":"levelo://app?vid=3b5b5a7f-d2d7-43a6-b6f5-9af24c7d5b7a","ios":"levelo://app?vid=3b5b5a7f-d2d7-43a6-b6f5-9af24c7d5b7a"},"vehicle_type_id":"4","last_reported":1728083292,"current_range_meters":38800,"station_id":"ce4bhjp2rcd13ifvqg90","pricing_plan_id":"cebpf4jnsgd1na2vs0mg"},{"bike_id":"2ee470a2-f6fc-41c4-9ed0-be15e787887a","system_id":"levelo_inurba_marseille","lat":43.239694,"lon":5.366306,"is_reserved":false,"is_disabled":false,"rental_uris":{"android":"levelo://app?vid=2ee470a2-f6fc-41c4-9ed0-be15e787887a","ios":"levelo://app?vid=2ee470a2-f6fc-41c4-9ed0-be15e787887a"},"vehicle_type_id":"4","last_reported":1728083292,"current_range_meters":35200,"station_id":"ce4bhi12rcd13ifvqfp0","pricing_plan_id":"cebpf4jnsgd1na2vs0mg"},{"bike_id":"a9cd8ef9-5de1-41de-9136-7414b29e70d3","system_id":"levelo_inurba_marseille","lat":43.30937,"lon":5.40139,"is_reserved":false,"is_disabled":false,"rental_uris":{"android":"levelo://app?vid=a9cd8ef9-5de1-41de-9136-7414b29e70d3","ios":"levelo://app?vid=a9cd8ef9-5de1-41de-9136-7414b29e70d3"},"vehicle_type_id":"4","last_reported":1728083292,"current_range_meters":38800,"station_id":"ce4bgvp2rcd13ifvqct0","pricing_plan_id":"cebpf4jnsgd1na2vs0mg"},{"bike_id":"4782596d-3e6e-4437-8d44-1e1923d90165","system_id":"levelo_inurba_marseille","lat":43.31126,"lon":5.37773,"is_reserved":false,"is_disabled":false,"rental_uris":{"android":"levelo://app?vid=4782596d-3e6e-4437-8d44-1e1923d90165","ios":"levelo://app?vid=4782596d-3e6e-4437-8d44-1e1923d90165"},"vehicle_type_id":"4","last_reported":1728083292,"current_range_meters":37600,"station_id":"ce4bgt92rcd13ifvqcg0","pricing_plan_id":"cebpf4jnsgd1na2vs0mg"},{"bike_id":"e6b2df58-b4a0-4aec-933d-a62e42f34d34","system_id":"levelo_inurba_marseille","lat":43.33722,"lon":5.39195,"is_reserved":false,"is_disabled":false,"rental_uris":{"android":"levelo://app?vid=e6b2df58-b4a0-4aec-933d-a62e42f34d34","ios":"levelo://app?vid=e6b2df58-b4a0-4aec-933d-a62e42f34d34"},"vehicle_type_id":"4","last_reported":1728083292,"current_range_meters":16800,"station_id":"ce4bhr92rcd13ifvqhsg","pricing_plan_id":"cebpf4jnsgd1na2vs0mg"},{"bike_id":"445b3126-2656-47b3-82b8-be21a8d0e2fa","system_id":"levelo_inurba_marseille","lat":43.29792,"lon":5.404025,"is_reserved":false,"is_disabled":false,"rental_uris":{"android":"levelo://app?vid=445b3126-2656-47b3-82b8-be21a8d0e2fa","ios":"levelo://app?vid=445b3126-2656-47b3-82b8-be21a8d0e2fa"},"vehicle_type_id":"4","last_reported":1728083292,"current_range_meters":38800,"station_id":"ce4bh112rcd13ifvqd90","pricing_plan_id":"cebpf4jnsgd1na2vs0mg"},{"bike_id":"09d39197-7e1a-46cd-b544-55475c0ede20","system_id":"levelo_inurba_marseille","lat":43.31361,"lon":5.38496,"is_reserved":false,"is_disabled":false,"rental_uris":{"android":"levelo://app?vid=09d39197-7e1a-46cd-b544-55475c0ede20","ios":"levelo://app?vid=09d39197-7e1a-46cd-b544-55475c0ede20"},"vehicle_type_id":"4","last_reported":1728083292,"current_range_meters":25200,"station_id":"ce4bgt92rcd13ifvqcf0","pricing_plan_id":"cebpf4jnsgd1na2vs0mg"},{"bike_id":"d77938b7-ff1e-465c-a8b9-4b07085a5cc9","system_id":"levelo_inurba_marseille","lat":43.2307,"lon":5.35496,"is_reserved":false,"is_disabled":false,"rental_uris":{"android":"levelo://app?vid=d77938b7-ff1e-465c-a8b9-4b07085a5cc9","ios":"levelo://app?vid=d77938b7-ff1e-465c-a8b9-4b07085a5cc9"},"vehicle_type_id":"4","last_reported":1728083292,"current_range_meters":16800,"station_id":"cpo3342slgdg3j2ifvpg","pricing_plan_id":"cebpf4jnsgd1na2vs0mg"},{"bike_id":"852457a1-813f-46b8-bb13-232384e208e9","system_id":"levelo_inurba_marseille","lat":43.33769,"lon":5.37436,"is_reserved":false,"is_disabled":false,"rental_uris":{"android":"levelo://app?vid=852457a1-813f-46b8-bb13-232384e208e9","ios":"levelo://app?vid=852457a1-813f-46b8-bb13-232384e208e9"},"vehicle_type_id":"4","last_reported":1728083292,"current_range_meters":36400,"station_id":"","pricing_plan_id":"cebpf4jnsgd1na2vs0mg"},{"bike_id":"4a2e0de6-cbd1-4669-a60e-ddc9113ecbc6","system_id":"levelo_inurba_marseille","lat":43.29284,"lon":5.4012,"is_reserved":false,"is_disabled":false,"rental_uris":{"android":"levelo://app?vid=4a2e0de6-cbd1-4669-a60e-ddc9113ecbc6","ios":"levelo://app?vid=4a2e0de6-cbd1-4669-a60e-ddc9113ecbc6"},"vehicle_type_id":"4","last_reported":1728083292,"current_range_meters":9200,"station_id":"ce4bh312rcd13ifvqdk0","pricing_plan_id":"cebpf4jnsgd1na2vs0mg"},{"bike_id":"e5eec57e-9b0f-4559-b4c4-8a0dc3855cc7","system_id":"levelo_inurba_marseille","lat":43.27383,"lon":5.3625,"is_reserved":false,"is_disabled":false,"rental_uris":{"android":"levelo://app?vid=e5eec57e-9b0f-4559-b4c4-8a0dc3855cc7","ios":"levelo://app?vid=e5eec57e-9b0f-4559-b4c4-8a0dc3855cc7"},"vehicle_type_id":"4","last_reported":1728083292,"current_range_meters":24000,"station_id":"ce4bhbh2rcd13ifvqeo0","pricing_plan_id":"cebpf4jnsgd1na2vs0mg"},{"bike_id":"54d09a39-e79d-434c-8a05-a8f2660c6a94","system_id":"levelo_inurba_marseille","lat":43.299,"lon":5.43669,"is_reserved":false,"is_disabled":false,"rental_uris":{"android":"levelo://app?vid=54d09a39-e79d-434c-8a05-a8f2660c6a94","ios":"levelo://app?vid=54d09a39-e79d-434c-8a05-a8f2660c6a94"},"vehicle_type_id":"4","last_reported":1728083292,"current_range_meters":14000,"station_id":"ce4bhpp2rcd13ifvqhfg","pricing_plan_id":"cebpf4jnsgd1na2vs0mg"},{"bike_id":"5d0d361f-0b03-4b33-9914-8e6ecba53f9d","system_id":"levelo_inurba_marseille","lat":43.32639,"lon":5.41016,"is_reserved":false,"is_disabled":false,"rental_uris":{"android":"levelo://app?vid=5d0d361f-0b03-4b33-9914-8e6ecba53f9d","ios":"levelo://app?vid=5d0d361f-0b03-4b33-9914-8e6ecba53f9d"},"vehicle_type_id":"4","last_reported":1728083292,"current_range_meters":39200,"station_id":"ce4bhpp2rcd13ifvqhgg","pricing_plan_id":"cebpf4jnsgd1na2vs0mg"},{"bike_id":"2f6471d4-b16d-44e6-92e3-eb26e2526693","system_id":"levelo_inurba_marseille","lat":43.28407,"lon":5.37511,"is_reserved":false,"is_disabled":false,"rental_uris":{"android":"levelo://app?vid=2f6471d4-b16d-44e6-92e3-eb26e2526693","ios":"levelo://app?vid=2f6471d4-b16d-44e6-92e3-eb26e2526693"},"vehicle_type_id":"4","last_reported":1728083292,"current_range_meters":28400,"station_id":"ce4bh412rcd13ifvqds0","pricing_plan_id":"cebpf4jnsgd1na2vs0mg"},{"bike_id":"1b5570bc-0cd8-4e9b-8227-4974e5a1d5c5","system_id":"levelo_inurba_marseille","lat":43.25723,"lon":5.41111,"is_reserved":false,"is_disabled":false,"rental_uris":{"android":"levelo://app?vid=1b5570bc-0cd8-4e9b-8227-4974e5a1d5c5","ios":"levelo://app?vid=1b5570bc-0cd8-4e9b-8227-4974e5a1d5c5"},"vehicle_type_id":"4","last_reported":1728083292,"current_range_meters":35600,"station_id":"ce4bhkp2rcd13ifvqgd0","pricing_plan_id":"cebpf4jnsgd1na2vs0mg"},{"bike_id":"58da2d85-0a0f-4148-ab1e-457dd3339d52","system_id":"levelo_inurba_marseille","lat":43.28576,"lon":5.39504,"is_reserved":false,"is_disabled":false,"rental_uris":{"android":"levelo://app?vid=58da2d85-0a0f-4148-ab1e-457dd3339d52","ios":"levelo://app?vid=58da2d85-0a0f-4148-ab1e-457dd3339d52"},"vehicle_type_id":"4","last_reported":1728083292,"current_range_meters":22000,"station_id":"ce4bh292rcd13ifvqdg0","pricing_plan_id":"cebpf4jnsgd1na2vs0mg"},{"bike_id":"a2757abc-4224-428a-a673-690954ea5d2d","system_id":"levelo_inurba_marseille","lat":43.25005,"lon":5.38194,"is_reserved":false,"is_disabled":false,"rental_uris":{"android":"levelo://app?vid=a2757abc-4224-428a-a673-690954ea5d2d","ios":"levelo://app?vid=a2757abc-4224-428a-a673-690954ea5d2d"},"vehicle_type_id":"4","last_reported":1728083292,"current_range_meters":24400,"station_id":"","pricing_plan_id":"cebpf4jnsgd1na2vs0mg"},{"bike_id":"b7f0ea75-1d64-47c2-8da3-0fc132ba74f6","system_id":"levelo_inurba_marseille","lat":43.31328,"lon":5.39677,"is_reserved":false,"is_disabled":false,"rental_uris":{"android":"levelo://app?vid=b7f0ea75-1d64-47c2-8da3-0fc132ba74f6","ios":"levelo://app?vid=b7f0ea75-1d64-47c2-8da3-0fc132ba74f6"},"vehicle_type_id":"4","last_reported":1728083292,"current_range_meters":8400,"station_id":"ce4bgvp2rcd13ifvqcu0","pricing_plan_id":"cebpf4jnsgd1na2vs0mg"},{"bike_id":"308ae973-a71c-45c1-9a03-b73643f01e25","system_id":"levelo_inurba_marseille","lat":43.31715,"lon":5.43712,"is_reserved":false,"is_disabled":false,"rental_uris":{"android":"levelo://app?vid=308ae973-a71c-45c1-9a03-b73643f01e25","ios":"levelo://app?vid=308ae973-a71c-45c1-9a03-b73643f01e25"},"vehicle_type_id":"4","last_reported":1728083292,"current_range_meters":26000,"station_id":"ce4bhp92rcd13ifvqhcg","pricing_plan_id":"cebpf4jnsgd1na2vs0mg"},{"bike_id":"3ab35772-ab98-4e0e-bb77-b34f7802889b","system_id":"levelo_inurba_marseille","lat":43.25118,"lon":5.40319,"is_reserved":false,"is_disabled":false,"rental_uris":{"android":"levelo://app?vid=3ab35772-ab98-4e0e-bb77-b34f7802889b","ios":"levelo://app?vid=3ab35772-ab98-4e0e-bb77-b34f7802889b"},"vehicle_type_id":"4","last_reported":1728083292,"current_range_meters":27200,"station_id":"ce4bhlh2rcd13ifvqgig","pricing_plan_id":"cebpf4jnsgd1na2vs0mg"},{"bike_id":"a4721277-157e-42b9-87f0-290a3d401919","system_id":"levelo_inurba_marseille","lat":43.2594,"lon":5.40904,"is_reserved":false,"is_disabled":false,"rental_uris":{"android":"levelo://app?vid=a4721277-157e-42b9-87f0-290a3d401919","ios":"levelo://app?vid=a4721277-157e-42b9-87f0-290a3d401919"},"vehicle_type_id":"4","last_reported":1728083292,"current_range_meters":38400,"station_id":"ce4bhm92rcd13ifvqglg","pricing_plan_id":"cebpf4jnsgd1na2vs0mg"},{"bike_id":"f1a9e041-9fc0-46b2-97b3-08f9dcfab20c","system_id":"levelo_inurba_marseille","lat":43.27206,"lon":5.39179,"is_reserved":false,"is_disabled":false,"rental_uris":{"android":"levelo://app?vid=f1a9e041-9fc0-46b2-97b3-08f9dcfab20c","ios":"levelo://app?vid=f1a9e041-9fc0-46b2-97b3-08f9dcfab20c"},"vehicle_type_id":"4","last_reported":1728083292,"current_range_meters":28400,"station_id":"ce4bhhp2rcd13ifvqfm0","pricing_plan_id":"cebpf4jnsgd1na2vs0mg"},{"bike_id":"dc48ab9b-cbcc-4d1d-86f8-205a873b3ee0","system_id":"levelo_inurba_marseille","lat":43.27562,"lon":5.38426,"is_reserved":false,"is_disabled":false,"rental_uris":{"android":"levelo://app?vid=dc48ab9b-cbcc-4d1d-86f8-205a873b3ee0","ios":"levelo://app?vid=dc48ab9b-cbcc-4d1d-86f8-205a873b3ee0"},"vehicle_type_id":"4","last_reported":1728083292,"current_range_meters":9600,"station_id":"ce4bhh92rcd13ifvqfi0","pricing_plan_id":"cebpf4jnsgd1na2vs0mg"},{"bike_id":"ac1312d6-a9b4-4549-b2a1-bf2faa5e309c","system_id":"levelo_inurba_marseille","lat":43.31118,"lon":5.37763,"is_reserved":false,"is_disabled":false,"rental_uris":{"android":"levelo://app?vid=ac1312d6-a9b4-4549-b2a1-bf2faa5e309c","ios":"levelo://app?vid=ac1312d6-a9b4-4549-b2a1-bf2faa5e309c"},"vehicle_type_id":"4","last_reported":1728083292,"current_range_meters":28800,"station_id":"ce4bgt92rcd13ifvqcg0","pricing_plan_id":"cebpf4jnsgd1na2vs0mg"},{"bike_id":"015abb97-0f96-4260-bfde-c551e4a1363b","system_id":"levelo_inurba_marseille","lat":43.31164,"lon":5.38721,"is_reserved":false,"is_disabled":false,"rental_uris":{"android":"levelo://app?vid=015abb97-0f96-4260-bfde-c551e4a1363b","ios":"levelo://app?vid=015abb97-0f96-4260-bfde-c551e4a1363b"},"vehicle_type_id":"4","last_reported":1728083292,"current_range_meters":25200,"station_id":"ce4bgv12rcd13ifvqcp0","pricing_plan_id":"cebpf4jnsgd1na2vs0mg"},{"bike_id":"bf214ee5-bcc3-48ed-b2c5-a945b0468078","system_id":"levelo_inurba_marseille","lat":43.24651,"lon":5.38902,"is_reserved":false,"is_disabled":false,"rental_uris":{"android":"levelo://app?vid=bf214ee5-bcc3-48ed-b2c5-a945b0468078","ios":"levelo://app?vid=bf214ee5-bcc3-48ed-b2c5-a945b0468078"},"vehicle_type_id":"4","last_reported":1728083292,"current_range_meters":23200,"station_id":"ce4bhg12rcd13ifvqf60","pricing_plan_id":"cebpf4jnsgd1na2vs0mg"},{"bike_id":"a093bdd9-36dc-4dbd-ab69-790a2d1301fe","system_id":"levelo_inurba_marseille","lat":43.31684,"lon":5.40474,"is_reserved":false,"is_disabled":false,"rental_uris":{"android":"levelo://app?vid=a093bdd9-36dc-4dbd-ab69-790a2d1301fe","ios":"levelo://app?vid=a093bdd9-36dc-4dbd-ab69-790a2d1301fe"},"vehicle_type_id":"4","last_reported":1728083292,"current_range_meters":30000,"station_id":"ce4bh012rcd13ifvqd00","pricing_plan_id":"cebpf4jnsgd1na2vs0mg"},{"bike_id":"6102bacc-0bb3-4c79-854a-2d4ec81b21c1","system_id":"levelo_inurba_marseille","lat":43.31719,"lon":5.42407,"is_reserved":false,"is_disabled":false,"rental_uris":{"android":"levelo://app?vid=6102bacc-0bb3-4c79-854a-2d4ec81b21c1","ios":"levelo://app?vid=6102bacc-0bb3-4c79-854a-2d4ec81b21c1"},"vehicle_type_id":"4","last_reported":1728083292,"current_range_meters":38800,"station_id":"ce4bhp92rcd13ifvqhbg","pricing_plan_id":"cebpf4jnsgd1na2vs0mg"},{"bike_id":"74926ff8-a339-47b4-973e-bb8e6cae9cc5","system_id":"levelo_inurba_marseille","lat":43.23156,"lon":5.43711,"is_reserved":false,"is_disabled":false,"rental_uris":{"android":"levelo://app?vid=74926ff8-a339-47b4-973e-bb8e6cae9cc5","ios":"levelo://app?vid=74926ff8-a339-47b4-973e-bb8e6cae9cc5"},"vehicle_type_id":"4","last_reported":1728083292,"current_range_meters":12000,"station_id":"ce4bhmp2rcd13ifvqgog","pricing_plan_id":"cebpf4jnsgd1na2vs0mg"},{"bike_id":"13a35d1a-1c21-4cdd-9282-17040c700716","system_id":"levelo_inurba_marseille","lat":43.32542,"lon":5.4145,"is_reserved":false,"is_disabled":false,"rental_uris":{"android":"levelo://app?vid=13a35d1a-1c21-4cdd-9282-17040c700716","ios":"levelo://app?vid=13a35d1a-1c21-4cdd-9282-17040c700716"},"vehicle_type_id":"4","last_reported":1728083292,"current_range_meters":38800,"station_id":"ce4bhq12rcd13ifvqhhg","pricing_plan_id":"cebpf4jnsgd1na2vs0mg"},{"bike_id":"6069b2c9-bef2-4e62-bd0b-326d633c9d8f","system_id":"levelo_inurba_marseille","lat":43.26806,"lon":5.40267,"is_reserved":false,"is_disabled":false,"rental_uris":{"android":"levelo://app?vid=6069b2c9-bef2-4e62-bd0b-326d633c9d8f","ios":"levelo://app?vid=6069b2c9-bef2-4e62-bd0b-326d633c9d8f"},"vehicle_type_id":"4","last_reported":1728083292,"current_range_meters":12800,"station_id":"ce501612rcd8frsf0b60","pricing_plan_id":"cebpf4jnsgd1na2vs0mg"},{"bike_id":"265a7a9b-2f01-4738-b642-8a75440677b8","system_id":"levelo_inurba_marseille","lat":43.28573,"lon":5.39508,"is_reserved":false,"is_disabled":false,"rental_uris":{"android":"levelo://app?vid=265a7a9b-2f01-4738-b642-8a75440677b8","ios":"levelo://app?vid=265a7a9b-2f01-4738-b642-8a75440677b8"},"vehicle_type_id":"4","last_reported":1728083292,"current_range_meters":38800,"station_id":"ce4bh292rcd13ifvqdg0","pricing_plan_id":"cebpf4jnsgd1na2vs0mg"},{"bike_id":"d3264400-1e63-45b5-89ad-88118bde7042","system_id":"levelo_inurba_marseille","lat":43.28613,"lon":5.3706,"is_reserved":false,"is_disabled":false,"rental_uris":{"android":"levelo://app?vid=d3264400-1e63-45b5-89ad-88118bde7042","ios":"levelo://app?vid=d3264400-1e63-45b5-89ad-88118bde7042"},"vehicle_type_id":"4","last_reported":1728083292,"current_range_meters":28800,"station_id":"ce4bht12rcd13ifvqi60","pricing_plan_id":"cebpf4jnsgd1na2vs0mg"},{"bike_id":"ffc2f399-08e8-40c1-86d1-d728d8c4be5c","system_id":"levelo_inurba_marseille","lat":43.27836,"lon":5.39214,"is_reserved":false,"is_disabled":false,"rental_uris":{"android":"levelo://app?vid=ffc2f399-08e8-40c1-86d1-d728d8c4be5c","ios":"levelo://app?vid=ffc2f399-08e8-40c1-86d1-d728d8c4be5c"},"vehicle_type_id":"4","last_reported":1728083292,"current_range_meters":28400,"station_id":"ce4bhjp2rcd13ifvqga0","pricing_plan_id":"cebpf4jnsgd1na2vs0mg"},{"bike_id":"0bc4da86-c871-4c42-9afa-cbea77a620ca","system_id":"levelo_inurba_marseille","lat":43.28034,"lon":5.36953,"is_reserved":false,"is_disabled":false,"rental_uris":{"android":"levelo://app?vid=0bc4da86-c871-4c42-9afa-cbea77a620ca","ios":"levelo://app?vid=0bc4da86-c871-4c42-9afa-cbea77a620ca"},"vehicle_type_id":"4","last_reported":1728083292,"current_range_meters":38800,"station_id":"ce4bha12rcd13ifvqef0","pricing_plan_id":"cebpf4jnsgd1na2vs0mg"},{"bike_id":"e08c062f-61a2-493a-875d-6e296e2965d6","system_id":"levelo_inurba_marseille","lat":43.33758,"lon":5.37448,"is_reserved":false,"is_disabled":false,"rental_uris":{"android":"levelo://app?vid=e08c062f-61a2-493a-875d-6e296e2965d6","ios":"levelo://app?vid=e08c062f-61a2-493a-875d-6e296e2965d6"},"vehicle_type_id":"4","last_reported":1728083292,"current_range_meters":32000,"station_id":"","pricing_plan_id":"cebpf4jnsgd1na2vs0mg"},{"bike_id":"767b5572-7a96-45fd-9ea6-1b05056115f2","system_id":"levelo_inurba_marseille","lat":43.33023,"lon":5.39037,"is_reserved":false,"is_disabled":false,"rental_uris":{"android":"levelo://app?vid=767b5572-7a96-45fd-9ea6-1b05056115f2","ios":"levelo://app?vid=767b5572-7a96-45fd-9ea6-1b05056115f2"},"vehicle_type_id":"4","last_reported":1728083292,"current_range_meters":35200,"station_id":"ce4bhr92rcd13ifvqhrg","pricing_plan_id":"cebpf4jnsgd1na2vs0mg"},{"bike_id":"b871d3e1-c5d5-4d1f-8267-43a325f41cf2","system_id":"levelo_inurba_marseille","lat":43.25094,"lon":5.39519,"is_reserved":false,"is_disabled":false,"rental_uris":{"android":"levelo://app?vid=b871d3e1-c5d5-4d1f-8267-43a325f41cf2","ios":"levelo://app?vid=b871d3e1-c5d5-4d1f-8267-43a325f41cf2"},"vehicle_type_id":"4","last_reported":1728083292,"current_range_meters":38800,"station_id":"ce4bhm12rcd13ifvqgkg","pricing_plan_id":"cebpf4jnsgd1na2vs0mg"},{"bike_id":"96f1be7c-f292-40b6-814b-7ccf02ec8974","system_id":"levelo_inurba_marseille","lat":43.29779,"lon":5.3935,"is_reserved":false,"is_disabled":false,"rental_uris":{"android":"levelo://app?vid=96f1be7c-f292-40b6-814b-7ccf02ec8974","ios":"levelo://app?vid=96f1be7c-f292-40b6-814b-7ccf02ec8974"},"vehicle_type_id":"4","last_reported":1728083292,"current_range_meters":17200,"station_id":"chh1huq6cuj3fo74tm60","pricing_plan_id":"cebpf4jnsgd1na2vs0mg"},{"bike_id":"fcfb42de-cde1-4ec3-8e89-f197fdfcc1a8","system_id":"levelo_inurba_marseille","lat":43.23965,"lon":5.3665,"is_reserved":false,"is_disabled":false,"rental_uris":{"android":"levelo://app?vid=fcfb42de-cde1-4ec3-8e89-f197fdfcc1a8","ios":"levelo://app?vid=fcfb42de-cde1-4ec3-8e89-f197fdfcc1a8"},"vehicle_type_id":"4","last_reported":1728083292,"current_range_meters":35600,"station_id":"ce4bhi12rcd13ifvqfp0","pricing_plan_id":"cebpf4jnsgd1na2vs0mg"},{"bike_id":"633d2344-d99e-4174-b6fb-920c3267e701","system_id":"levelo_inurba_marseille","lat":43.33716,"lon":5.39177,"is_reserved":false,"is_disabled":false,"rental_uris":{"android":"levelo://app?vid=633d2344-d99e-4174-b6fb-920c3267e701","ios":"levelo://app?vid=633d2344-d99e-4174-b6fb-920c3267e701"},"vehicle_type_id":"4","last_reported":1728083292,"current_range_meters":27200,"station_id":"ce4bhr92rcd13ifvqhsg","pricing_plan_id":"cebpf4jnsgd1na2vs0mg"},{"bike_id":"5f8d3d8f-1503-41ea-a148-3895c82e3ec7","system_id":"levelo_inurba_marseille","lat":43.28157,"lon":5.42646,"is_reserved":false,"is_disabled":false,"rental_uris":{"android":"levelo://app?vid=5f8d3d8f-1503-41ea-a148-3895c82e3ec7","ios":"levelo://app?vid=5f8d3d8f-1503-41ea-a148-3895c82e3ec7"},"vehicle_type_id":"4","last_reported":1728083292,"current_range_meters":14800,"station_id":"ce4bhnh2rcd13ifvqgug","pricing_plan_id":"cebpf4jnsgd1na2vs0mg"},{"bike_id":"62c78f5b-20fb-4d63-b31e-bdbdc97f952a","system_id":"levelo_inurba_marseille","lat":43.27809,"lon":5.40718,"is_reserved":false,"is_disabled":false,"rental_uris":{"android":"levelo://app?vid=62c78f5b-20fb-4d63-b31e-bdbdc97f952a","ios":"levelo://app?vid=62c78f5b-20fb-4d63-b31e-bdbdc97f952a"},"vehicle_type_id":"4","last_reported":1728083292,"current_range_meters":14000,"station_id":"ce4bhnh2rcd13ifvqgtg","pricing_plan_id":"cebpf4jnsgd1na2vs0mg"},{"bike_id":"413470b3-58fa-4390-86c7-e52e68df3ba5","system_id":"levelo_inurba_marseille","lat":43.30266,"lon":5.36885,"is_reserved":false,"is_disabled":false,"rental_uris":{"android":"levelo://app?vid=413470b3-58fa-4390-86c7-e52e68df3ba5","ios":"levelo://app?vid=413470b3-58fa-4390-86c7-e52e68df3ba5"},"vehicle_type_id":"4","last_reported":1728083292,"current_range_meters":38800,"station_id":"","pricing_plan_id":"cebpf4jnsgd1na2vs0mg"},{"bike_id":"88d763e9-254b-4f45-a733-903d4efd49e1","system_id":"levelo_inurba_marseille","lat":43.31064,"lon":5.38351,"is_reserved":false,"is_disabled":false,"rental_uris":{"android":"levelo://app?vid=88d763e9-254b-4f45-a733-903d4efd49e1","ios":"levelo://app?vid=88d763e9-254b-4f45-a733-903d4efd49e1"},"vehicle_type_id":"4","last_reported":1728083292,"current_range_meters":36800,"station_id":"ce4bgv92rcd13ifvqcr0","pricing_plan_id":"cebpf4jnsgd1na2vs0mg"},{"bike_id":"fd872ba7-9877-4e67-9269-d8995abba644","system_id":"levelo_inurba_marseille","lat":43.22941,"lon":5.35377,"is_reserved":false,"is_disabled":false,"rental_uris":{"android":"levelo://app?vid=fd872ba7-9877-4e67-9269-d8995abba644","ios":"levelo://app?vid=fd872ba7-9877-4e67-9269-d8995abba644"},"vehicle_type_id":"4","last_reported":1728083292,"current_range_meters":17600,"station_id":"cpo3532slgdg3j2ikp40","pricing_plan_id":"cebpf4jnsgd1na2vs0mg"},{"bike_id":"af48d5c9-ef26-46f5-bef2-b06e0b0f902d","system_id":"levelo_inurba_marseille","lat":43.28845,"lon":5.39306,"is_reserved":false,"is_disabled":false,"rental_uris":{"android":"levelo://app?vid=af48d5c9-ef26-46f5-bef2-b06e0b0f902d","ios":"levelo://app?vid=af48d5c9-ef26-46f5-bef2-b06e0b0f902d"},"vehicle_type_id":"4","last_reported":1728083292,"current_range_meters":30400,"station_id":"ce4bh2p2rcd13ifvqdi0","pricing_plan_id":"cebpf4jnsgd1na2vs0mg"},{"bike_id":"fe069c0c-ab7e-4066-b369-24f70f595c37","system_id":"levelo_inurba_marseille","lat":43.32481,"lon":5.3656,"is_reserved":false,"is_disabled":false,"rental_uris":{"android":"levelo://app?vid=fe069c0c-ab7e-4066-b369-24f70f595c37","ios":"levelo://app?vid=fe069c0c-ab7e-4066-b369-24f70f595c37"},"vehicle_type_id":"4","last_reported":1728083292,"current_range_meters":27200,"station_id":"ce4bhs12rcd13ifvqhvg","pricing_plan_id":"cebpf4jnsgd1na2vs0mg"},{"bike_id":"2cfde8ca-341f-4330-863a-fa6449e2eb47","system_id":"levelo_inurba_marseille","lat":43.29517,"lon":5.39381,"is_reserved":false,"is_disabled":false,"rental_uris":{"android":"levelo://app?vid=2cfde8ca-341f-4330-863a-fa6449e2eb47","ios":"levelo://app?vid=2cfde8ca-341f-4330-863a-fa6449e2eb47"},"vehicle_type_id":"4","last_reported":1728083292,"current_range_meters":28400,"station_id":"ce4bh292rcd13ifvqdf0","pricing_plan_id":"cebpf4jnsgd1na2vs0mg"},{"bike_id":"02287b3e-a2e5-4db9-badc-4f46622493bb","system_id":"levelo_inurba_marseille","lat":43.27073,"lon":5.4228,"is_reserved":false,"is_disabled":false,"rental_uris":{"android":"levelo://app?vid=02287b3e-a2e5-4db9-badc-4f46622493bb","ios":"levelo://app?vid=02287b3e-a2e5-4db9-badc-4f46622493bb"},"vehicle_type_id":"4","last_reported":1728083292,"current_range_meters":39200,"station_id":"ce4bhk92rcd13ifvqgb0","pricing_plan_id":"cebpf4jnsgd1na2vs0mg"},{"bike_id":"2dfa250e-fa81-43be-b763-8f49843284b7","system_id":"levelo_inurba_marseille","lat":43.23187,"lon":5.39996,"is_reserved":false,"is_disabled":false,"rental_uris":{"android":"levelo://app?vid=2dfa250e-fa81-43be-b763-8f49843284b7","ios":"levelo://app?vid=2dfa250e-fa81-43be-b763-8f49843284b7"},"vehicle_type_id":"4","last_reported":1728083292,"current_range_meters":5600,"station_id":"ce4bhn12rcd13ifvqgqg","pricing_plan_id":"cebpf4jnsgd1na2vs0mg"},{"bike_id":"2664d19f-333c-4813-9a04-76ab9f04646b","system_id":"levelo_inurba_marseille","lat":43.27947,"lon":5.41049,"is_reserved":false,"is_disabled":false,"rental_uris":{"android":"levelo://app?vid=2664d19f-333c-4813-9a04-76ab9f04646b","ios":"levelo://app?vid=2664d19f-333c-4813-9a04-76ab9f04646b"},"vehicle_type_id":"4","last_reported":1728083292,"current_range_meters":34000,"station_id":"ce4bhnp2rcd13ifvqh0g","pricing_plan_id":"cebpf4jnsgd1na2vs0mg"},{"bike_id":"23938a5c-578f-44dc-8282-7f985ee714ac","system_id":"levelo_inurba_marseille","lat":43.29019,"lon":5.38126,"is_reserved":false,"is_disabled":false,"rental_uris":{"android":"levelo://app?vid=23938a5c-578f-44dc-8282-7f985ee714ac","ios":"levelo://app?vid=23938a5c-578f-44dc-8282-7f985ee714ac"},"vehicle_type_id":"4","last_reported":1728083292,"current_range_meters":38000,"station_id":"ce4bh4p2rcd13ifvqe1g","pricing_plan_id":"cebpf4jnsgd1na2vs0mg"},{"bike_id":"2127827a-03bd-4f9a-a0c5-31598fd2cadd","system_id":"levelo_inurba_marseille","lat":43.32658,"lon":5.40996,"is_reserved":false,"is_disabled":false,"rental_uris":{"android":"levelo://app?vid=2127827a-03bd-4f9a-a0c5-31598fd2cadd","ios":"levelo://app?vid=2127827a-03bd-4f9a-a0c5-31598fd2cadd"},"vehicle_type_id":"4","last_reported":1728083292,"current_range_meters":8400,"station_id":"ce4bhpp2rcd13ifvqhgg","pricing_plan_id":"cebpf4jnsgd1na2vs0mg"},{"bike_id":"8f0da960-1b49-4f73-b0e6-073f32882857","system_id":"levelo_inurba_marseille","lat":43.30311,"lon":5.36878,"is_reserved":false,"is_disabled":false,"rental_uris":{"android":"levelo://app?vid=8f0da960-1b49-4f73-b0e6-073f32882857","ios":"levelo://app?vid=8f0da960-1b49-4f73-b0e6-073f32882857"},"vehicle_type_id":"4","last_reported":1728083292,"current_range_meters":39200,"station_id":"ce4bgqh2rcd13ifvqc5g","pricing_plan_id":"cebpf4jnsgd1na2vs0mg"},{"bike_id":"796f7bf9-e0c7-4ea3-b96f-9594e19b892e","system_id":"levelo_inurba_marseille","lat":43.24648,"lon":5.38893,"is_reserved":false,"is_disabled":false,"rental_uris":{"android":"levelo://app?vid=796f7bf9-e0c7-4ea3-b96f-9594e19b892e","ios":"levelo://app?vid=796f7bf9-e0c7-4ea3-b96f-9594e19b892e"},"vehicle_type_id":"4","last_reported":1728083292,"current_range_meters":38800,"station_id":"ce4bhg12rcd13ifvqf60","pricing_plan_id":"cebpf4jnsgd1na2vs0mg"},{"bike_id":"2124345a-a03d-4321-81f4-8ef1cf0cb940","system_id":"levelo_inurba_marseille","lat":43.28656,"lon":5.36347,"is_reserved":false,"is_disabled":false,"rental_uris":{"android":"levelo://app?vid=2124345a-a03d-4321-81f4-8ef1cf0cb940","ios":"levelo://app?vid=2124345a-a03d-4321-81f4-8ef1cf0cb940"},"vehicle_type_id":"4","last_reported":1728083292,"current_range_meters":6000,"station_id":"ce4bhah2rcd13ifvqej0","pricing_plan_id":"cebpf4jnsgd1na2vs0mg"},{"bike_id":"82fb1d9b-f78d-4572-93cd-c097376a885d","system_id":"levelo_inurba_marseille","lat":43.23151,"lon":5.43702,"is_reserved":false,"is_disabled":false,"rental_uris":{"android":"levelo://app?vid=82fb1d9b-f78d-4572-93cd-c097376a885d","ios":"levelo://app?vid=82fb1d9b-f78d-4572-93cd-c097376a885d"},"vehicle_type_id":"4","last_reported":1728083292,"current_range_meters":6000,"station_id":"ce4bhmp2rcd13ifvqgog","pricing_plan_id":"cebpf4jnsgd1na2vs0mg"},{"bike_id":"e04e5431-207d-4263-8b72-762e4c4878e5","system_id":"levelo_inurba_marseille","lat":43.23059,"lon":5.35492,"is_reserved":false,"is_disabled":false,"rental_uris":{"android":"levelo://app?vid=e04e5431-207d-4263-8b72-762e4c4878e5","ios":"levelo://app?vid=e04e5431-207d-4263-8b72-762e4c4878e5"},"vehicle_type_id":"4","last_reported":1728083292,"current_range_meters":19200,"station_id":"cpo3342slgdg3j2ifvpg","pricing_plan_id":"cebpf4jnsgd1na2vs0mg"},{"bike_id":"1a5410ba-9fbb-4266-a0fe-2364c4d5e366","system_id":"levelo_inurba_marseille","lat":43.31361,"lon":5.36717,"is_reserved":false,"is_disabled":false,"rental_uris":{"android":"levelo://app?vid=1a5410ba-9fbb-4266-a0fe-2364c4d5e366","ios":"levelo://app?vid=1a5410ba-9fbb-4266-a0fe-2364c4d5e366"},"vehicle_type_id":"4","last_reported":1728083292,"current_range_meters":19200,"station_id":"ce4bgr92rcd13ifvqc6g","pricing_plan_id":"cebpf4jnsgd1na2vs0mg"},{"bike_id":"50e6aeb8-7e25-4c09-9781-24c9f5d23dff","system_id":"levelo_inurba_marseille","lat":43.33757,"lon":5.37453,"is_reserved":false,"is_disabled":false,"rental_uris":{"android":"levelo://app?vid=50e6aeb8-7e25-4c09-9781-24c9f5d23dff","ios":"levelo://app?vid=50e6aeb8-7e25-4c09-9781-24c9f5d23dff"},"vehicle_type_id":"4","last_reported":1728083292,"current_range_meters":30400,"station_id":"","pricing_plan_id":"cebpf4jnsgd1na2vs0mg"},{"bike_id":"b7910d1d-667c-4469-92f4-913a926359b0","system_id":"levelo_inurba_marseille","lat":43.30282,"lon":5.37704,"is_reserved":false,"is_disabled":false,"rental_uris":{"android":"levelo://app?vid=b7910d1d-667c-4469-92f4-913a926359b0","ios":"levelo://app?vid=b7910d1d-667c-4469-92f4-913a926359b0"},"vehicle_type_id":"4","last_reported":1728083292,"current_range_meters":38400,"station_id":"ce4bguh2rcd13ifvqcj0","pricing_plan_id":"cebpf4jnsgd1na2vs0mg"},{"bike_id":"db6d3114-5e27-4869-bbbf-86348f43961f","system_id":"levelo_inurba_marseille","lat":43.29559,"lon":5.42285,"is_reserved":false,"is_disabled":false,"rental_uris":{"android":"levelo://app?vid=db6d3114-5e27-4869-bbbf-86348f43961f","ios":"levelo://app?vid=db6d3114-5e27-4869-bbbf-86348f43961f"},"vehicle_type_id":"4","last_reported":1728083292,"current_range_meters":6400,"station_id":"ce4bhph2rcd13ifvqhdg","pricing_plan_id":"cebpf4jnsgd1na2vs0mg"},{"bike_id":"094b268c-4cc2-43fc-862b-773d8ae92352","system_id":"levelo_inurba_marseille","lat":43.31123,"lon":5.37771,"is_reserved":false,"is_disabled":false,"rental_uris":{"android":"levelo://app?vid=094b268c-4cc2-43fc-862b-773d8ae92352","ios":"levelo://app?vid=094b268c-4cc2-43fc-862b-773d8ae92352"},"vehicle_type_id":"4","last_reported":1728083292,"current_range_meters":38000,"station_id":"ce4bgt92rcd13ifvqcg0","pricing_plan_id":"cebpf4jnsgd1na2vs0mg"},{"bike_id":"f5e93991-8630-4f47-9b21-ba3d107cb0ab","system_id":"levelo_inurba_marseille","lat":43.28109,"lon":5.37841,"is_reserved":false,"is_disabled":false,"rental_uris":{"android":"levelo://app?vid=f5e93991-8630-4f47-9b21-ba3d107cb0ab","ios":"levelo://app?vid=f5e93991-8630-4f47-9b21-ba3d107cb0ab"},"vehicle_type_id":"4","last_reported":1728083292,"current_range_meters":35600,"station_id":"ce4bha12rcd13ifvqee0","pricing_plan_id":"cebpf4jnsgd1na2vs0mg"},{"bike_id":"98d582f9-ede5-40c4-ac16-70b213b8a5c6","system_id":"levelo_inurba_marseille","lat":43.29778,"lon":5.39349,"is_reserved":false,"is_disabled":false,"rental_uris":{"android":"levelo://app?vid=98d582f9-ede5-40c4-ac16-70b213b8a5c6","ios":"levelo://app?vid=98d582f9-ede5-40c4-ac16-70b213b8a5c6"},"vehicle_type_id":"4","last_reported":1728083292,"current_range_meters":34000,"station_id":"chh1huq6cuj3fo74tm60","pricing_plan_id":"cebpf4jnsgd1na2vs0mg"},{"bike_id":"be855d3f-aa37-4c69-9485-bcd30590fee9","system_id":"levelo_inurba_marseille","lat":43.31072,"lon":5.38357,"is_reserved":false,"is_disabled":false,"rental_uris":{"android":"levelo://app?vid=be855d3f-aa37-4c69-9485-bcd30590fee9","ios":"levelo://app?vid=be855d3f-aa37-4c69-9485-bcd30590fee9"},"vehicle_type_id":"4","last_reported":1728083292,"current_range_meters":38800,"station_id":"ce4bgv92rcd13ifvqcr0","pricing_plan_id":"cebpf4jnsgd1na2vs0mg"},{"bike_id":"98fe9666-1214-4d75-b1e8-91292b88bd3c","system_id":"levelo_inurba_marseille","lat":43.28845,"lon":5.3583,"is_reserved":false,"is_disabled":false,"rental_uris":{"android":"levelo://app?vid=98fe9666-1214-4d75-b1e8-91292b88bd3c","ios":"levelo://app?vid=98fe9666-1214-4d75-b1e8-91292b88bd3c"},"vehicle_type_id":"4","last_reported":1728083292,"current_range_meters":20800,"station_id":"ce4bhb12rcd13ifvqem0","pricing_plan_id":"cebpf4jnsgd1na2vs0mg"},{"bike_id":"df748370-d915-4457-9b65-98ab99c2c59f","system_id":"levelo_inurba_marseille","lat":43.30422,"lon":5.39757,"is_reserved":false,"is_disabled":false,"rental_uris":{"android":"levelo://app?vid=df748370-d915-4457-9b65-98ab99c2c59f","ios":"levelo://app?vid=df748370-d915-4457-9b65-98ab99c2c59f"},"vehicle_type_id":"4","last_reported":1728083292,"current_range_meters":36800,"station_id":"ce4bh092rcd13ifvqd20","pricing_plan_id":"cebpf4jnsgd1na2vs0mg"},{"bike_id":"2d753ee9-4ed8-4692-a866-820e1b2e3dab","system_id":"levelo_inurba_marseille","lat":43.3133,"lon":5.39691,"is_reserved":false,"is_disabled":false,"rental_uris":{"android":"levelo://app?vid=2d753ee9-4ed8-4692-a866-820e1b2e3dab","ios":"levelo://app?vid=2d753ee9-4ed8-4692-a866-820e1b2e3dab"},"vehicle_type_id":"4","last_reported":1728083292,"current_range_meters":30800,"station_id":"ce4bgvp2rcd13ifvqcu0","pricing_plan_id":"cebpf4jnsgd1na2vs0mg"},{"bike_id":"3cc4d07d-3eee-4b93-9fc0-d4f2d12e1e80","system_id":"levelo_inurba_marseille","lat":43.30325,"lon":5.40438,"is_reserved":false,"is_disabled":false,"rental_uris":{"android":"levelo://app?vid=3cc4d07d-3eee-4b93-9fc0-d4f2d12e1e80","ios":"levelo://app?vid=3cc4d07d-3eee-4b93-9fc0-d4f2d12e1e80"},"vehicle_type_id":"4","last_reported":1728083292,"current_range_meters":6400,"station_id":"ce4bh012rcd13ifvqd10","pricing_plan_id":"cebpf4jnsgd1na2vs0mg"},{"bike_id":"2a6aa3b3-8bf0-4931-90ed-b880517e5b02","system_id":"levelo_inurba_marseille","lat":43.28265,"lon":5.35068,"is_reserved":false,"is_disabled":false,"rental_uris":{"android":"levelo://app?vid=2a6aa3b3-8bf0-4931-90ed-b880517e5b02","ios":"levelo://app?vid=2a6aa3b3-8bf0-4931-90ed-b880517e5b02"},"vehicle_type_id":"4","last_reported":1728083292,"current_range_meters":8800,"station_id":"ce4bhbp2rcd13ifvqerg","pricing_plan_id":"cebpf4jnsgd1na2vs0mg"},{"bike_id":"b15a883e-54e0-4352-b2a7-b044b5752d89","system_id":"levelo_inurba_marseille","lat":43.28457,"lon":5.35888,"is_reserved":false,"is_disabled":false,"rental_uris":{"android":"levelo://app?vid=b15a883e-54e0-4352-b2a7-b044b5752d89","ios":"levelo://app?vid=b15a883e-54e0-4352-b2a7-b044b5752d89"},"vehicle_type_id":"4","last_reported":1728083292,"current_range_meters":22800,"station_id":"ce4bhah2rcd13ifvqei0","pricing_plan_id":"cebpf4jnsgd1na2vs0mg"},{"bike_id":"d4de802b-7b1f-4c87-bfd7-e6e463405806","system_id":"levelo_inurba_marseille","lat":43.312764,"lon":5.401722,"is_reserved":false,"is_disabled":false,"rental_uris":{"android":"levelo://app?vid=d4de802b-7b1f-4c87-bfd7-e6e463405806","ios":"levelo://app?vid=d4de802b-7b1f-4c87-bfd7-e6e463405806"},"vehicle_type_id":"4","last_reported":1728083292,"current_range_meters":38800,"station_id":"ce4bh092rcd13ifvqd30","pricing_plan_id":"cebpf4jnsgd1na2vs0mg"},{"bike_id":"b539cef5-a0ee-4eb9-af10-1c3a300ff81c","system_id":"levelo_inurba_marseille","lat":43.32107,"lon":5.36774,"is_reserved":false,"is_disabled":false,"rental_uris":{"android":"levelo://app?vid=b539cef5-a0ee-4eb9-af10-1c3a300ff81c","ios":"levelo://app?vid=b539cef5-a0ee-4eb9-af10-1c3a300ff81c"},"vehicle_type_id":"4","last_reported":1728083292,"current_range_meters":36400,"station_id":"ce4bhrh2rcd13ifvqhug","pricing_plan_id":"cebpf4jnsgd1na2vs0mg"},{"bike_id":"51e85f59-1755-498a-9375-8ea113241647","system_id":"levelo_inurba_marseille","lat":43.30278,"lon":5.37703,"is_reserved":false,"is_disabled":false,"rental_uris":{"android":"levelo://app?vid=51e85f59-1755-498a-9375-8ea113241647","ios":"levelo://app?vid=51e85f59-1755-498a-9375-8ea113241647"},"vehicle_type_id":"4","last_reported":1728083292,"current_range_meters":36800,"station_id":"ce4bguh2rcd13ifvqcj0","pricing_plan_id":"cebpf4jnsgd1na2vs0mg"},{"bike_id":"e829c5d2-756d-4b53-abf5-5abe0bb9f837","system_id":"levelo_inurba_marseille","lat":43.28652,"lon":5.36353,"is_reserved":false,"is_disabled":false,"rental_uris":{"android":"levelo://app?vid=e829c5d2-756d-4b53-abf5-5abe0bb9f837","ios":"levelo://app?vid=e829c5d2-756d-4b53-abf5-5abe0bb9f837"},"vehicle_type_id":"4","last_reported":1728083292,"current_range_meters":15200,"station_id":"ce4bhah2rcd13ifvqej0","pricing_plan_id":"cebpf4jnsgd1na2vs0mg"},{"bike_id":"500956c9-eeb0-4c1a-8001-8490f6e76b14","system_id":"levelo_inurba_marseille","lat":43.23176,"lon":5.39986,"is_reserved":false,"is_disabled":false,"rental_uris":{"android":"levelo://app?vid=500956c9-eeb0-4c1a-8001-8490f6e76b14","ios":"levelo://app?vid=500956c9-eeb0-4c1a-8001-8490f6e76b14"},"vehicle_type_id":"4","last_reported":1728083292,"current_range_meters":18800,"station_id":"ce4bhn12rcd13ifvqgqg","pricing_plan_id":"cebpf4jnsgd1na2vs0mg"},{"bike_id":"206bf6bf-09ad-4763-85da-6f36c3ad29a0","system_id":"levelo_inurba_marseille","lat":43.27994,"lon":5.41664,"is_reserved":false,"is_disabled":false,"rental_uris":{"android":"levelo://app?vid=206bf6bf-09ad-4763-85da-6f36c3ad29a0","ios":"levelo://app?vid=206bf6bf-09ad-4763-85da-6f36c3ad29a0"},"vehicle_type_id":"4","last_reported":1728083292,"current_range_meters":24800,"station_id":"ce4bho12rcd13ifvqh1g","pricing_plan_id":"cebpf4jnsgd1na2vs0mg"},{"bike_id":"6a2ecc02-eb74-4108-af94-a2504e7fa070","system_id":"levelo_inurba_marseille","lat":43.31178,"lon":5.38719,"is_reserved":false,"is_disabled":false,"rental_uris":{"android":"levelo://app?vid=6a2ecc02-eb74-4108-af94-a2504e7fa070","ios":"levelo://app?vid=6a2ecc02-eb74-4108-af94-a2504e7fa070"},"vehicle_type_id":"4","last_reported":1728083292,"current_range_meters":38000,"station_id":"ce4bgv12rcd13ifvqcp0","pricing_plan_id":"cebpf4jnsgd1na2vs0mg"},{"bike_id":"cebe3c67-d41a-43e6-a853-969ec8b7b5da","system_id":"levelo_inurba_marseille","lat":43.28103,"lon":5.37839,"is_reserved":false,"is_disabled":false,"rental_uris":{"android":"levelo://app?vid=cebe3c67-d41a-43e6-a853-969ec8b7b5da","ios":"levelo://app?vid=cebe3c67-d41a-43e6-a853-969ec8b7b5da"},"vehicle_type_id":"4","last_reported":1728083292,"current_range_meters":35200,"station_id":"ce4bha12rcd13ifvqee0","pricing_plan_id":"cebpf4jnsgd1na2vs0mg"},{"bike_id":"bb5f5452-4b9b-417d-b148-b396a874f3d9","system_id":"levelo_inurba_marseille","lat":43.3376,"lon":5.37423,"is_reserved":false,"is_disabled":false,"rental_uris":{"android":"levelo://app?vid=bb5f5452-4b9b-417d-b148-b396a874f3d9","ios":"levelo://app?vid=bb5f5452-4b9b-417d-b148-b396a874f3d9"},"vehicle_type_id":"4","last_reported":1728083292,"current_range_meters":35200,"station_id":"","pricing_plan_id":"cebpf4jnsgd1na2vs0mg"},{"bike_id":"7fba70e7-3d48-4504-abe7-a2e207a752eb","system_id":"levelo_inurba_marseille","lat":43.290016,"lon":5.356173,"is_reserved":false,"is_disabled":false,"rental_uris":{"android":"levelo://app?vid=7fba70e7-3d48-4504-abe7-a2e207a752eb","ios":"levelo://app?vid=7fba70e7-3d48-4504-abe7-a2e207a752eb"},"vehicle_type_id":"4","last_reported":1728083292,"current_range_meters":37600,"station_id":"ce4bhb92rcd13ifvqen0","pricing_plan_id":"cebpf4jnsgd1na2vs0mg"},{"bike_id":"13a13290-41bd-474d-b1aa-5ba6091a798f","system_id":"levelo_inurba_marseille","lat":43.29283,"lon":5.40129,"is_reserved":false,"is_disabled":false,"rental_uris":{"android":"levelo://app?vid=13a13290-41bd-474d-b1aa-5ba6091a798f","ios":"levelo://app?vid=13a13290-41bd-474d-b1aa-5ba6091a798f"},"vehicle_type_id":"4","last_reported":1728083292,"current_range_meters":38800,"station_id":"ce4bh312rcd13ifvqdk0","pricing_plan_id":"cebpf4jnsgd1na2vs0mg"},{"bike_id":"d7a0298f-5c2b-438d-ab05-5d6a7ac83160","system_id":"levelo_inurba_marseille","lat":43.30804,"lon":5.43527,"is_reserved":false,"is_disabled":false,"rental_uris":{"android":"levelo://app?vid=d7a0298f-5c2b-438d-ab05-5d6a7ac83160","ios":"levelo://app?vid=d7a0298f-5c2b-438d-ab05-5d6a7ac83160"},"vehicle_type_id":"4","last_reported":1728083292,"current_range_meters":38400,"station_id":"ce4bhph2rcd13ifvqheg","pricing_plan_id":"cebpf4jnsgd1na2vs0mg"},{"bike_id":"2a02ca06-0ccf-473f-bce9-20b886c4b744","system_id":"levelo_inurba_marseille","lat":43.31705,"lon":5.37753,"is_reserved":false,"is_disabled":false,"rental_uris":{"android":"levelo://app?vid=2a02ca06-0ccf-473f-bce9-20b886c4b744","ios":"levelo://app?vid=2a02ca06-0ccf-473f-bce9-20b886c4b744"},"vehicle_type_id":"4","last_reported":1728083292,"current_range_meters":38000,"station_id":"ce4bgth2rcd13ifvqch0","pricing_plan_id":"cebpf4jnsgd1na2vs0mg"},{"bike_id":"d3d7a7fc-28da-4268-9109-ef9b8e7c61f6","system_id":"levelo_inurba_marseille","lat":43.308928,"lon":5.396526,"is_reserved":false,"is_disabled":false,"rental_uris":{"android":"levelo://app?vid=d3d7a7fc-28da-4268-9109-ef9b8e7c61f6","ios":"levelo://app?vid=d3d7a7fc-28da-4268-9109-ef9b8e7c61f6"},"vehicle_type_id":"4","last_reported":1728083292,"current_range_meters":27600,"station_id":"ce4bh012rcd13ifvqcv0","pricing_plan_id":"cebpf4jnsgd1na2vs0mg"},{"bike_id":"f5e02da9-f093-4a34-83ad-144f93bcad87","system_id":"levelo_inurba_marseille","lat":43.23188,"lon":5.39986,"is_reserved":false,"is_disabled":false,"rental_uris":{"android":"levelo://app?vid=f5e02da9-f093-4a34-83ad-144f93bcad87","ios":"levelo://app?vid=f5e02da9-f093-4a34-83ad-144f93bcad87"},"vehicle_type_id":"4","last_reported":1728083292,"current_range_meters":1600,"station_id":"ce4bhn12rcd13ifvqgqg","pricing_plan_id":"cebpf4jnsgd1na2vs0mg"},{"bike_id":"b0dc2897-cb6b-44e2-947a-9e1de3e6a940","system_id":"levelo_inurba_marseille","lat":43.28157,"lon":5.42642,"is_reserved":false,"is_disabled":false,"rental_uris":{"android":"levelo://app?vid=b0dc2897-cb6b-44e2-947a-9e1de3e6a940","ios":"levelo://app?vid=b0dc2897-cb6b-44e2-947a-9e1de3e6a940"},"vehicle_type_id":"4","last_reported":1728083292,"current_range_meters":7200,"station_id":"ce4bhnh2rcd13ifvqgug","pricing_plan_id":"cebpf4jnsgd1na2vs0mg"},{"bike_id":"69d22968-5985-4dc4-b82a-a054e66a9462","system_id":"levelo_inurba_marseille","lat":43.33608,"lon":5.41035,"is_reserved":false,"is_disabled":false,"rental_uris":{"android":"levelo://app?vid=69d22968-5985-4dc4-b82a-a054e66a9462","ios":"levelo://app?vid=69d22968-5985-4dc4-b82a-a054e66a9462"},"vehicle_type_id":"4","last_reported":1728083292,"current_range_meters":32800,"station_id":"ce4bhqh2rcd13ifvqhmg","pricing_plan_id":"cebpf4jnsgd1na2vs0mg"},{"bike_id":"43fc5487-6973-4fc7-a12f-6a97ffe8a3ce","system_id":"levelo_inurba_marseille","lat":43.2511,"lon":5.40328,"is_reserved":false,"is_disabled":false,"rental_uris":{"android":"levelo://app?vid=43fc5487-6973-4fc7-a12f-6a97ffe8a3ce","ios":"levelo://app?vid=43fc5487-6973-4fc7-a12f-6a97ffe8a3ce"},"vehicle_type_id":"4","last_reported":1728083292,"current_range_meters":38800,"station_id":"ce4bhlh2rcd13ifvqgig","pricing_plan_id":"cebpf4jnsgd1na2vs0mg"},{"bike_id":"2eaa0040-6ce1-4a14-a1ce-ca4c4f1a6624","system_id":"levelo_inurba_marseille","lat":43.29058,"lon":5.35924,"is_reserved":false,"is_disabled":false,"rental_uris":{"android":"levelo://app?vid=2eaa0040-6ce1-4a14-a1ce-ca4c4f1a6624","ios":"levelo://app?vid=2eaa0040-6ce1-4a14-a1ce-ca4c4f1a6624"},"vehicle_type_id":"4","last_reported":1728083292,"current_range_meters":27200,"station_id":"ce4bha92rcd13ifvqeg0","pricing_plan_id":"cebpf4jnsgd1na2vs0mg"},{"bike_id":"219df1b6-9d69-46f8-bdd5-caa50ce674cf","system_id":"levelo_inurba_marseille","lat":43.255493,"lon":5.37674,"is_reserved":false,"is_disabled":false,"rental_uris":{"android":"levelo://app?vid=219df1b6-9d69-46f8-bdd5-caa50ce674cf","ios":"levelo://app?vid=219df1b6-9d69-46f8-bdd5-caa50ce674cf"},"vehicle_type_id":"4","last_reported":1728083292,"current_range_meters":19200,"station_id":"","pricing_plan_id":"cebpf4jnsgd1na2vs0mg"},{"bike_id":"034e404b-7118-4ae3-866b-ddb41e09353f","system_id":"levelo_inurba_marseille","lat":43.281095,"lon":5.378313,"is_reserved":false,"is_disabled":false,"rental_uris":{"android":"levelo://app?vid=034e404b-7118-4ae3-866b-ddb41e09353f","ios":"levelo://app?vid=034e404b-7118-4ae3-866b-ddb41e09353f"},"vehicle_type_id":"4","last_reported":1728083292,"current_range_meters":28000,"station_id":"ce4bha12rcd13ifvqee0","pricing_plan_id":"cebpf4jnsgd1na2vs0mg"},{"bike_id":"24288944-0101-44b2-8f05-dfa33a293120","system_id":"levelo_inurba_marseille","lat":43.31356,"lon":5.38504,"is_reserved":false,"is_disabled":false,"rental_uris":{"android":"levelo://app?vid=24288944-0101-44b2-8f05-dfa33a293120","ios":"levelo://app?vid=24288944-0101-44b2-8f05-dfa33a293120"},"vehicle_type_id":"4","last_reported":1728083292,"current_range_meters":36800,"station_id":"ce4bgt92rcd13ifvqcf0","pricing_plan_id":"cebpf4jnsgd1na2vs0mg"},{"bike_id":"6a4b0bea-a36c-4e34-8edb-b3ea3c6da77f","system_id":"levelo_inurba_marseille","lat":43.25117,"lon":5.4032,"is_reserved":false,"is_disabled":false,"rental_uris":{"android":"levelo://app?vid=6a4b0bea-a36c-4e34-8edb-b3ea3c6da77f","ios":"levelo://app?vid=6a4b0bea-a36c-4e34-8edb-b3ea3c6da77f"},"vehicle_type_id":"4","last_reported":1728083292,"current_range_meters":25200,"station_id":"ce4bhlh2rcd13ifvqgig","pricing_plan_id":"cebpf4jnsgd1na2vs0mg"},{"bike_id":"57d7b7bf-9a1e-4c35-8388-96cc980f8410","system_id":"levelo_inurba_marseille","lat":43.2293,"lon":5.35379,"is_reserved":false,"is_disabled":false,"rental_uris":{"android":"levelo://app?vid=57d7b7bf-9a1e-4c35-8388-96cc980f8410","ios":"levelo://app?vid=57d7b7bf-9a1e-4c35-8388-96cc980f8410"},"vehicle_type_id":"4","last_reported":1728083292,"current_range_meters":18000,"station_id":"cpo3532slgdg3j2ikp40","pricing_plan_id":"cebpf4jnsgd1na2vs0mg"},{"bike_id":"99f1f2a8-0457-4fa2-8932-b14e28a30068","system_id":"levelo_inurba_marseille","lat":43.29938,"lon":5.36522,"is_reserved":false,"is_disabled":false,"rental_uris":{"android":"levelo://app?vid=99f1f2a8-0457-4fa2-8932-b14e28a30068","ios":"levelo://app?vid=99f1f2a8-0457-4fa2-8932-b14e28a30068"},"vehicle_type_id":"4","last_reported":1728083292,"current_range_meters":37600,"station_id":"ce4bgm92rcd13ifvqbr0","pricing_plan_id":"cebpf4jnsgd1na2vs0mg"},{"bike_id":"77c59eab-5250-44c4-be86-099c0defe9c4","system_id":"levelo_inurba_marseille","lat":43.33756,"lon":5.37445,"is_reserved":false,"is_disabled":false,"rental_uris":{"android":"levelo://app?vid=77c59eab-5250-44c4-be86-099c0defe9c4","ios":"levelo://app?vid=77c59eab-5250-44c4-be86-099c0defe9c4"},"vehicle_type_id":"4","last_reported":1728083292,"current_range_meters":28400,"station_id":"","pricing_plan_id":"cebpf4jnsgd1na2vs0mg"},{"bike_id":"a3200287-bfcf-4e8e-9323-c29b70c2baf7","system_id":"levelo_inurba_marseille","lat":43.25087,"lon":5.39522,"is_reserved":false,"is_disabled":false,"rental_uris":{"android":"levelo://app?vid=a3200287-bfcf-4e8e-9323-c29b70c2baf7","ios":"levelo://app?vid=a3200287-bfcf-4e8e-9323-c29b70c2baf7"},"vehicle_type_id":"4","last_reported":1728083292,"current_range_meters":26000,"station_id":"ce4bhm12rcd13ifvqgkg","pricing_plan_id":"cebpf4jnsgd1na2vs0mg"},{"bike_id":"bb915d33-cf6f-4eb4-af8e-51267873ce7e","system_id":"levelo_inurba_marseille","lat":43.30809,"lon":5.38145,"is_reserved":false,"is_disabled":false,"rental_uris":{"android":"levelo://app?vid=bb915d33-cf6f-4eb4-af8e-51267873ce7e","ios":"levelo://app?vid=bb915d33-cf6f-4eb4-af8e-51267873ce7e"},"vehicle_type_id":"4","last_reported":1728083292,"current_range_meters":36800,"station_id":"ce4bgt12rcd13ifvqce0","pricing_plan_id":"cebpf4jnsgd1na2vs0mg"},{"bike_id":"655c7a70-a9e9-4bdb-90df-3dd326718d46","system_id":"levelo_inurba_marseille","lat":43.24659,"lon":5.38169,"is_reserved":false,"is_disabled":false,"rental_uris":{"android":"levelo://app?vid=655c7a70-a9e9-4bdb-90df-3dd326718d46","ios":"levelo://app?vid=655c7a70-a9e9-4bdb-90df-3dd326718d46"},"vehicle_type_id":"4","last_reported":1728083292,"current_range_meters":24400,"station_id":"ce4bhih2rcd13ifvqfr0","pricing_plan_id":"cebpf4jnsgd1na2vs0mg"},{"bike_id":"6e4404fe-9f2c-4094-b7ac-6438d3421190","system_id":"levelo_inurba_marseille","lat":43.25828,"lon":5.39435,"is_reserved":false,"is_disabled":false,"rental_uris":{"android":"levelo://app?vid=6e4404fe-9f2c-4094-b7ac-6438d3421190","ios":"levelo://app?vid=6e4404fe-9f2c-4094-b7ac-6438d3421190"},"vehicle_type_id":"4","last_reported":1728083292,"current_range_meters":39200,"station_id":"ce4bhip2rcd13ifvqft0","pricing_plan_id":"cebpf4jnsgd1na2vs0mg"},{"bike_id":"84b07b81-8a90-4e9c-96ec-461a75726f5b","system_id":"levelo_inurba_marseille","lat":43.31996,"lon":5.38158,"is_reserved":false,"is_disabled":false,"rental_uris":{"android":"levelo://app?vid=84b07b81-8a90-4e9c-96ec-461a75726f5b","ios":"levelo://app?vid=84b07b81-8a90-4e9c-96ec-461a75726f5b"},"vehicle_type_id":"4","last_reported":1728083292,"current_range_meters":8800,"station_id":"ce4bhr12rcd13ifvqhpg","pricing_plan_id":"cebpf4jnsgd1na2vs0mg"},{"bike_id":"d3831008-2e40-49ed-9feb-19f1d9f96d9c","system_id":"levelo_inurba_marseille","lat":43.31179,"lon":5.38715,"is_reserved":false,"is_disabled":false,"rental_uris":{"android":"levelo://app?vid=d3831008-2e40-49ed-9feb-19f1d9f96d9c","ios":"levelo://app?vid=d3831008-2e40-49ed-9feb-19f1d9f96d9c"},"vehicle_type_id":"4","last_reported":1728083292,"current_range_meters":23200,"station_id":"ce4bgv12rcd13ifvqcp0","pricing_plan_id":"cebpf4jnsgd1na2vs0mg"},{"bike_id":"66abda2b-1382-4853-b1f1-dd71ae8ab888","system_id":"levelo_inurba_marseille","lat":43.308054,"lon":5.381494,"is_reserved":false,"is_disabled":false,"rental_uris":{"android":"levelo://app?vid=66abda2b-1382-4853-b1f1-dd71ae8ab888","ios":"levelo://app?vid=66abda2b-1382-4853-b1f1-dd71ae8ab888"},"vehicle_type_id":"4","last_reported":1728083292,"current_range_meters":39200,"station_id":"ce4bgt12rcd13ifvqce0","pricing_plan_id":"cebpf4jnsgd1na2vs0mg"},{"bike_id":"32ceac28-dacd-4d4c-9c55-d75f7e6d1aa1","system_id":"levelo_inurba_marseille","lat":43.30804,"lon":5.43531,"is_reserved":false,"is_disabled":false,"rental_uris":{"android":"levelo://app?vid=32ceac28-dacd-4d4c-9c55-d75f7e6d1aa1","ios":"levelo://app?vid=32ceac28-dacd-4d4c-9c55-d75f7e6d1aa1"},"vehicle_type_id":"4","last_reported":1728083292,"current_range_meters":12400,"station_id":"ce4bhph2rcd13ifvqheg","pricing_plan_id":"cebpf4jnsgd1na2vs0mg"},{"bike_id":"3e0ada6c-630f-49c5-bd04-c47d3b9da6d5","system_id":"levelo_inurba_marseille","lat":43.2707,"lon":5.42279,"is_reserved":false,"is_disabled":false,"rental_uris":{"android":"levelo://app?vid=3e0ada6c-630f-49c5-bd04-c47d3b9da6d5","ios":"levelo://app?vid=3e0ada6c-630f-49c5-bd04-c47d3b9da6d5"},"vehicle_type_id":"4","last_reported":1728083292,"current_range_meters":32000,"station_id":"ce4bhk92rcd13ifvqgb0","pricing_plan_id":"cebpf4jnsgd1na2vs0mg"},{"bike_id":"99198af3-abe6-4f8c-82f0-757453242f24","system_id":"levelo_inurba_marseille","lat":43.30328,"lon":5.40441,"is_reserved":false,"is_disabled":false,"rental_uris":{"android":"levelo://app?vid=99198af3-abe6-4f8c-82f0-757453242f24","ios":"levelo://app?vid=99198af3-abe6-4f8c-82f0-757453242f24"},"vehicle_type_id":"4","last_reported":1728083292,"current_range_meters":7200,"station_id":"ce4bh012rcd13ifvqd10","pricing_plan_id":"cebpf4jnsgd1na2vs0mg"},{"bike_id":"b417a8d0-1fac-4a2b-9294-35cea48e57c1","system_id":"levelo_inurba_marseille","lat":43.33026,"lon":5.3905,"is_reserved":false,"is_disabled":false,"rental_uris":{"android":"levelo://app?vid=b417a8d0-1fac-4a2b-9294-35cea48e57c1","ios":"levelo://app?vid=b417a8d0-1fac-4a2b-9294-35cea48e57c1"},"vehicle_type_id":"4","last_reported":1728083292,"current_range_meters":29600,"station_id":"ce4bhr92rcd13ifvqhrg","pricing_plan_id":"cebpf4jnsgd1na2vs0mg"},{"bike_id":"c3f19662-ad7c-4256-8bf0-c70bd4b53024","system_id":"levelo_inurba_marseille","lat":43.295593,"lon":5.422952,"is_reserved":false,"is_disabled":false,"rental_uris":{"android":"levelo://app?vid=c3f19662-ad7c-4256-8bf0-c70bd4b53024","ios":"levelo://app?vid=c3f19662-ad7c-4256-8bf0-c70bd4b53024"},"vehicle_type_id":"4","last_reported":1728083292,"current_range_meters":18000,"station_id":"ce4bhph2rcd13ifvqhdg","pricing_plan_id":"cebpf4jnsgd1na2vs0mg"},{"bike_id":"d217497d-1510-4778-9b96-28eea513fd88","system_id":"levelo_inurba_marseille","lat":43.24662,"lon":5.3817,"is_reserved":false,"is_disabled":false,"rental_uris":{"android":"levelo://app?vid=d217497d-1510-4778-9b96-28eea513fd88","ios":"levelo://app?vid=d217497d-1510-4778-9b96-28eea513fd88"},"vehicle_type_id":"4","last_reported":1728083292,"current_range_meters":23200,"station_id":"ce4bhih2rcd13ifvqfr0","pricing_plan_id":"cebpf4jnsgd1na2vs0mg"},{"bike_id":"7adcdde4-3d04-40ad-b9e9-b5f0afbb5f4e","system_id":"levelo_inurba_marseille","lat":43.29633,"lon":5.40597,"is_reserved":false,"is_disabled":false,"rental_uris":{"android":"levelo://app?vid=7adcdde4-3d04-40ad-b9e9-b5f0afbb5f4e","ios":"levelo://app?vid=7adcdde4-3d04-40ad-b9e9-b5f0afbb5f4e"},"vehicle_type_id":"4","last_reported":1728083292,"current_range_meters":3200,"station_id":"ce4bh0h2rcd13ifvqd60","pricing_plan_id":"cebpf4jnsgd1na2vs0mg"},{"bike_id":"49de90c0-55ec-465f-9634-cca22de14fd6","system_id":"levelo_inurba_marseille","lat":43.30588,"lon":5.39351,"is_reserved":false,"is_disabled":false,"rental_uris":{"android":"levelo://app?vid=49de90c0-55ec-465f-9634-cca22de14fd6","ios":"levelo://app?vid=49de90c0-55ec-465f-9634-cca22de14fd6"},"vehicle_type_id":"4","last_reported":1728083292,"current_range_meters":36800,"station_id":"ce4bh0p2rcd13ifvqd80","pricing_plan_id":"cebpf4jnsgd1na2vs0mg"},{"bike_id":"fdfedb27-0d71-4488-8023-a13584ae499a","system_id":"levelo_inurba_marseille","lat":43.32104,"lon":5.3677,"is_reserved":false,"is_disabled":false,"rental_uris":{"android":"levelo://app?vid=fdfedb27-0d71-4488-8023-a13584ae499a","ios":"levelo://app?vid=fdfedb27-0d71-4488-8023-a13584ae499a"},"vehicle_type_id":"4","last_reported":1728083292,"current_range_meters":30800,"station_id":"ce4bhrh2rcd13ifvqhug","pricing_plan_id":"cebpf4jnsgd1na2vs0mg"},{"bike_id":"8e303be2-37fb-4902-a31e-04c22c3f9276","system_id":"levelo_inurba_marseille","lat":43.31327,"lon":5.39701,"is_reserved":false,"is_disabled":false,"rental_uris":{"android":"levelo://app?vid=8e303be2-37fb-4902-a31e-04c22c3f9276","ios":"levelo://app?vid=8e303be2-37fb-4902-a31e-04c22c3f9276"},"vehicle_type_id":"4","last_reported":1728083292,"current_range_meters":17600,"station_id":"ce4bgvp2rcd13ifvqcu0","pricing_plan_id":"cebpf4jnsgd1na2vs0mg"},{"bike_id":"8444ed0b-fdac-4648-a368-f82ca7e16cd9","system_id":"levelo_inurba_marseille","lat":43.25111,"lon":5.40324,"is_reserved":false,"is_disabled":false,"rental_uris":{"android":"levelo://app?vid=8444ed0b-fdac-4648-a368-f82ca7e16cd9","ios":"levelo://app?vid=8444ed0b-fdac-4648-a368-f82ca7e16cd9"},"vehicle_type_id":"4","last_reported":1728083292,"current_range_meters":6000,"station_id":"ce4bhlh2rcd13ifvqgig","pricing_plan_id":"cebpf4jnsgd1na2vs0mg"},{"bike_id":"e29905d2-f72b-4460-9a84-70242c6e5ad1","system_id":"levelo_inurba_marseille","lat":43.27989,"lon":5.4166,"is_reserved":false,"is_disabled":false,"rental_uris":{"android":"levelo://app?vid=e29905d2-f72b-4460-9a84-70242c6e5ad1","ios":"levelo://app?vid=e29905d2-f72b-4460-9a84-70242c6e5ad1"},"vehicle_type_id":"4","last_reported":1728083292,"current_range_meters":30000,"station_id":"ce4bho12rcd13ifvqh1g","pricing_plan_id":"cebpf4jnsgd1na2vs0mg"},{"bike_id":"4e9c938a-031c-4e72-8d0a-bcbf9531b10e","system_id":"levelo_inurba_marseille","lat":43.30882,"lon":5.39636,"is_reserved":false,"is_disabled":false,"rental_uris":{"android":"levelo://app?vid=4e9c938a-031c-4e72-8d0a-bcbf9531b10e","ios":"levelo://app?vid=4e9c938a-031c-4e72-8d0a-bcbf9531b10e"},"vehicle_type_id":"4","last_reported":1728083292,"current_range_meters":6000,"station_id":"ce4bh012rcd13ifvqcv0","pricing_plan_id":"cebpf4jnsgd1na2vs0mg"},{"bike_id":"21af6422-8f85-4c18-9237-da3ba75c0021","system_id":"levelo_inurba_marseille","lat":43.31179,"lon":5.38721,"is_reserved":false,"is_disabled":false,"rental_uris":{"android":"levelo://app?vid=21af6422-8f85-4c18-9237-da3ba75c0021","ios":"levelo://app?vid=21af6422-8f85-4c18-9237-da3ba75c0021"},"vehicle_type_id":"4","last_reported":1728083292,"current_range_meters":31200,"station_id":"ce4bgv12rcd13ifvqcp0","pricing_plan_id":"cebpf4jnsgd1na2vs0mg"},{"bike_id":"d9513a24-3235-43a7-b9a5-1c5cfe37603f","system_id":"levelo_inurba_marseille","lat":43.23056,"lon":5.35493,"is_reserved":false,"is_disabled":false,"rental_uris":{"android":"levelo://app?vid=d9513a24-3235-43a7-b9a5-1c5cfe37603f","ios":"levelo://app?vid=d9513a24-3235-43a7-b9a5-1c5cfe37603f"},"vehicle_type_id":"4","last_reported":1728083292,"current_range_meters":23200,"station_id":"cpo3342slgdg3j2ifvpg","pricing_plan_id":"cebpf4jnsgd1na2vs0mg"},{"bike_id":"009d6d0e-c1a8-4ddc-b330-ebf04e9c45b9","system_id":"levelo_inurba_marseille","lat":43.29904,"lon":5.43663,"is_reserved":false,"is_disabled":false,"rental_uris":{"android":"levelo://app?vid=009d6d0e-c1a8-4ddc-b330-ebf04e9c45b9","ios":"levelo://app?vid=009d6d0e-c1a8-4ddc-b330-ebf04e9c45b9"},"vehicle_type_id":"4","last_reported":1728083292,"current_range_meters":24400,"station_id":"ce4bhpp2rcd13ifvqhfg","pricing_plan_id":"cebpf4jnsgd1na2vs0mg"},{"bike_id":"9ed72c1d-a68e-4774-acfb-97e2ad622d09","system_id":"levelo_inurba_marseille","lat":43.2738,"lon":5.36251,"is_reserved":false,"is_disabled":false,"rental_uris":{"android":"levelo://app?vid=9ed72c1d-a68e-4774-acfb-97e2ad622d09","ios":"levelo://app?vid=9ed72c1d-a68e-4774-acfb-97e2ad622d09"},"vehicle_type_id":"4","last_reported":1728083292,"current_range_meters":36000,"station_id":"ce4bhbh2rcd13ifvqeo0","pricing_plan_id":"cebpf4jnsgd1na2vs0mg"},{"bike_id":"31594295-92e4-4dbd-8214-dcf2ae152c50","system_id":"levelo_inurba_marseille","lat":43.30127,"lon":5.398569,"is_reserved":false,"is_disabled":false,"rental_uris":{"android":"levelo://app?vid=31594295-92e4-4dbd-8214-dcf2ae152c50","ios":"levelo://app?vid=31594295-92e4-4dbd-8214-dcf2ae152c50"},"vehicle_type_id":"4","last_reported":1728083292,"current_range_meters":2800,"station_id":"ce4bh0h2rcd13ifvqd40","pricing_plan_id":"cebpf4jnsgd1na2vs0mg"},{"bike_id":"d0898481-3578-40b2-9add-8b714658de6d","system_id":"levelo_inurba_marseille","lat":43.28152,"lon":5.42644,"is_reserved":false,"is_disabled":false,"rental_uris":{"android":"levelo://app?vid=d0898481-3578-40b2-9add-8b714658de6d","ios":"levelo://app?vid=d0898481-3578-40b2-9add-8b714658de6d"},"vehicle_type_id":"4","last_reported":1728083292,"current_range_meters":30000,"station_id":"ce4bhnh2rcd13ifvqgug","pricing_plan_id":"cebpf4jnsgd1na2vs0mg"},{"bike_id":"9c2ed353-e0c3-4e49-ae26-291d7de7b953","system_id":"levelo_inurba_marseille","lat":43.30286,"lon":5.37691,"is_reserved":false,"is_disabled":false,"rental_uris":{"android":"levelo://app?vid=9c2ed353-e0c3-4e49-ae26-291d7de7b953","ios":"levelo://app?vid=9c2ed353-e0c3-4e49-ae26-291d7de7b953"},"vehicle_type_id":"4","last_reported":1728083292,"current_range_meters":35600,"station_id":"ce4bguh2rcd13ifvqcj0","pricing_plan_id":"cebpf4jnsgd1na2vs0mg"},{"bike_id":"4e0c83a2-b0c3-4894-8559-e509681998d3","system_id":"levelo_inurba_marseille","lat":43.31128,"lon":5.38317,"is_reserved":false,"is_disabled":false,"rental_uris":{"android":"levelo://app?vid=4e0c83a2-b0c3-4894-8559-e509681998d3","ios":"levelo://app?vid=4e0c83a2-b0c3-4894-8559-e509681998d3"},"vehicle_type_id":"4","last_reported":1728083292,"current_range_meters":19600,"station_id":"","pricing_plan_id":"cebpf4jnsgd1na2vs0mg"},{"bike_id":"c2f21302-0bda-4485-a5df-98d1ef9f2991","system_id":"levelo_inurba_marseille","lat":43.23946,"lon":5.38284,"is_reserved":false,"is_disabled":false,"rental_uris":{"android":"levelo://app?vid=c2f21302-0bda-4485-a5df-98d1ef9f2991","ios":"levelo://app?vid=c2f21302-0bda-4485-a5df-98d1ef9f2991"},"vehicle_type_id":"4","last_reported":1728083292,"current_range_meters":10000,"station_id":"","pricing_plan_id":"cebpf4jnsgd1na2vs0mg"},{"bike_id":"2e0c5314-cd4b-4635-a356-5dee48587906","system_id":"levelo_inurba_marseille","lat":43.31113,"lon":5.37757,"is_reserved":false,"is_disabled":false,"rental_uris":{"android":"levelo://app?vid=2e0c5314-cd4b-4635-a356-5dee48587906","ios":"levelo://app?vid=2e0c5314-cd4b-4635-a356-5dee48587906"},"vehicle_type_id":"4","last_reported":1728083292,"current_range_meters":38800,"station_id":"ce4bgt92rcd13ifvqcg0","pricing_plan_id":"cebpf4jnsgd1na2vs0mg"},{"bike_id":"38182fe7-68ca-4f9d-9d2a-81005fb62bc7","system_id":"levelo_inurba_marseille","lat":43.27322,"lon":5.39089,"is_reserved":false,"is_disabled":false,"rental_uris":{"android":"levelo://app?vid=38182fe7-68ca-4f9d-9d2a-81005fb62bc7","ios":"levelo://app?vid=38182fe7-68ca-4f9d-9d2a-81005fb62bc7"},"vehicle_type_id":"4","last_reported":1728083292,"current_range_meters":24800,"station_id":"ce4bhgp2rcd13ifvqfe0","pricing_plan_id":"cebpf4jnsgd1na2vs0mg"},{"bike_id":"9a8c6e17-c713-4327-bea9-717c9a5f1a1d","system_id":"levelo_inurba_marseille","lat":43.284036,"lon":5.375037,"is_reserved":false,"is_disabled":false,"rental_uris":{"android":"levelo://app?vid=9a8c6e17-c713-4327-bea9-717c9a5f1a1d","ios":"levelo://app?vid=9a8c6e17-c713-4327-bea9-717c9a5f1a1d"},"vehicle_type_id":"4","last_reported":1728083292,"current_range_meters":9200,"station_id":"ce4bh412rcd13ifvqds0","pricing_plan_id":"cebpf4jnsgd1na2vs0mg"},{"bike_id":"61537623-d7da-4711-9110-514752c5c1a4","system_id":"levelo_inurba_marseille","lat":43.25117,"lon":5.4032,"is_reserved":false,"is_disabled":false,"rental_uris":{"android":"levelo://app?vid=61537623-d7da-4711-9110-514752c5c1a4","ios":"levelo://app?vid=61537623-d7da-4711-9110-514752c5c1a4"},"vehicle_type_id":"4","last_reported":1728083292,"current_range_meters":10000,"station_id":"ce4bhlh2rcd13ifvqgig","pricing_plan_id":"cebpf4jnsgd1na2vs0mg"},{"bike_id":"745956e2-85a4-4e28-8a9f-f9dc9abb062e","system_id":"levelo_inurba_marseille","lat":43.28789,"lon":5.37363,"is_reserved":false,"is_disabled":false,"rental_uris":{"android":"levelo://app?vid=745956e2-85a4-4e28-8a9f-f9dc9abb062e","ios":"levelo://app?vid=745956e2-85a4-4e28-8a9f-f9dc9abb062e"},"vehicle_type_id":"4","last_reported":1728083292,"current_range_meters":35600,"station_id":"","pricing_plan_id":"cebpf4jnsgd1na2vs0mg"},{"bike_id":"aa6ea80f-d3cc-43e6-a69f-38faa11735ba","system_id":"levelo_inurba_marseille","lat":43.23958,"lon":5.36656,"is_reserved":false,"is_disabled":false,"rental_uris":{"android":"levelo://app?vid=aa6ea80f-d3cc-43e6-a69f-38faa11735ba","ios":"levelo://app?vid=aa6ea80f-d3cc-43e6-a69f-38faa11735ba"},"vehicle_type_id":"4","last_reported":1728083292,"current_range_meters":39200,"station_id":"ce4bhi12rcd13ifvqfp0","pricing_plan_id":"cebpf4jnsgd1na2vs0mg"},{"bike_id":"d6c08f12-cb4e-48b2-b2d8-b2463a523ed6","system_id":"levelo_inurba_marseille","lat":43.29569,"lon":5.3997,"is_reserved":false,"is_disabled":false,"rental_uris":{"android":"levelo://app?vid=d6c08f12-cb4e-48b2-b2d8-b2463a523ed6","ios":"levelo://app?vid=d6c08f12-cb4e-48b2-b2d8-b2463a523ed6"},"vehicle_type_id":"4","last_reported":1728083292,"current_range_meters":8800,"station_id":"ce4bh312rcd13ifvqdj0","pricing_plan_id":"cebpf4jnsgd1na2vs0mg"},{"bike_id":"1adbd935-3970-4bf3-bb35-757d00845feb","system_id":"levelo_inurba_marseille","lat":43.30954,"lon":5.39035,"is_reserved":false,"is_disabled":false,"rental_uris":{"android":"levelo://app?vid=1adbd935-3970-4bf3-bb35-757d00845feb","ios":"levelo://app?vid=1adbd935-3970-4bf3-bb35-757d00845feb"},"vehicle_type_id":"4","last_reported":1728083292,"current_range_meters":32800,"station_id":"ce4bgup2rcd13ifvqco0","pricing_plan_id":"cebpf4jnsgd1na2vs0mg"},{"bike_id":"d054fab0-6a9a-4a13-8a72-8f548595cf1c","system_id":"levelo_inurba_marseille","lat":43.31538,"lon":5.38025,"is_reserved":false,"is_disabled":false,"rental_uris":{"android":"levelo://app?vid=d054fab0-6a9a-4a13-8a72-8f548595cf1c","ios":"levelo://app?vid=d054fab0-6a9a-4a13-8a72-8f548595cf1c"},"vehicle_type_id":"4","last_reported":1728083292,"current_range_meters":36800,"station_id":"ce4bhsp2rcd13ifvqi50","pricing_plan_id":"cebpf4jnsgd1na2vs0mg"},{"bike_id":"c507a3b2-9a20-4d43-b6bc-4ff2177e6fcd","system_id":"levelo_inurba_marseille","lat":43.28457,"lon":5.35898,"is_reserved":false,"is_disabled":false,"rental_uris":{"android":"levelo://app?vid=c507a3b2-9a20-4d43-b6bc-4ff2177e6fcd","ios":"levelo://app?vid=c507a3b2-9a20-4d43-b6bc-4ff2177e6fcd"},"vehicle_type_id":"4","last_reported":1728083292,"current_range_meters":30000,"station_id":"ce4bhah2rcd13ifvqei0","pricing_plan_id":"cebpf4jnsgd1na2vs0mg"},{"bike_id":"10bf43ce-7e3a-4fca-bf40-b7eb5fa4925c","system_id":"levelo_inurba_marseille","lat":43.33606,"lon":5.4102,"is_reserved":false,"is_disabled":false,"rental_uris":{"android":"levelo://app?vid=10bf43ce-7e3a-4fca-bf40-b7eb5fa4925c","ios":"levelo://app?vid=10bf43ce-7e3a-4fca-bf40-b7eb5fa4925c"},"vehicle_type_id":"4","last_reported":1728083292,"current_range_meters":17600,"station_id":"ce4bhqh2rcd13ifvqhmg","pricing_plan_id":"cebpf4jnsgd1na2vs0mg"},{"bike_id":"4d3c3a12-3d26-4428-b945-f0fc9ad847fd","system_id":"levelo_inurba_marseille","lat":43.29286,"lon":5.39589,"is_reserved":false,"is_disabled":false,"rental_uris":{"android":"levelo://app?vid=4d3c3a12-3d26-4428-b945-f0fc9ad847fd","ios":"levelo://app?vid=4d3c3a12-3d26-4428-b945-f0fc9ad847fd"},"vehicle_type_id":"4","last_reported":1728083292,"current_range_meters":33200,"station_id":"ce4bhh92rcd13ifvqfh0","pricing_plan_id":"cebpf4jnsgd1na2vs0mg"},{"bike_id":"528fb6f3-88ae-456a-bdc0-080831a42338","system_id":"levelo_inurba_marseille","lat":43.2871,"lon":5.37398,"is_reserved":false,"is_disabled":false,"rental_uris":{"android":"levelo://app?vid=528fb6f3-88ae-456a-bdc0-080831a42338","ios":"levelo://app?vid=528fb6f3-88ae-456a-bdc0-080831a42338"},"vehicle_type_id":"4","last_reported":1728083292,"current_range_meters":30800,"station_id":"ce4bhjp2rcd13ifvqga0","pricing_plan_id":"cebpf4jnsgd1na2vs0mg"},{"bike_id":"bdefae95-7cc5-4880-bfcb-b1af39586be0","system_id":"levelo_inurba_marseille","lat":43.3266,"lon":5.40996,"is_reserved":false,"is_disabled":false,"rental_uris":{"android":"levelo://app?vid=bdefae95-7cc5-4880-bfcb-b1af39586be0","ios":"levelo://app?vid=bdefae95-7cc5-4880-bfcb-b1af39586be0"},"vehicle_type_id":"4","last_reported":1728083292,"current_range_meters":39200,"station_id":"ce4bhpp2rcd13ifvqhgg","pricing_plan_id":"cebpf4jnsgd1na2vs0mg"},{"bike_id":"b24782e4-0942-4fb2-8640-eb4318c77a49","system_id":"levelo_inurba_marseille","lat":43.303292,"lon":5.404384,"is_reserved":false,"is_disabled":false,"rental_uris":{"android":"levelo://app?vid=b24782e4-0942-4fb2-8640-eb4318c77a49","ios":"levelo://app?vid=b24782e4-0942-4fb2-8640-eb4318c77a49"},"vehicle_type_id":"4","last_reported":1728083292,"current_range_meters":38000,"station_id":"ce4bh012rcd13ifvqd10","pricing_plan_id":"cebpf4jnsgd1na2vs0mg"},{"bike_id":"53c1f228-ada5-4ce4-9fae-f213ce8abe67","system_id":"levelo_inurba_marseille","lat":43.31332,"lon":5.39688,"is_reserved":false,"is_disabled":false,"rental_uris":{"android":"levelo://app?vid=53c1f228-ada5-4ce4-9fae-f213ce8abe67","ios":"levelo://app?vid=53c1f228-ada5-4ce4-9fae-f213ce8abe67"},"vehicle_type_id":"4","last_reported":1728083292,"current_range_meters":34000,"station_id":"ce4bgvp2rcd13ifvqcu0","pricing_plan_id":"cebpf4jnsgd1na2vs0mg"},{"bike_id":"7a90b2f2-d00e-4c33-b981-befe4f1139d2","system_id":"levelo_inurba_marseille","lat":43.23178,"lon":5.39982,"is_reserved":false,"is_disabled":false,"rental_uris":{"android":"levelo://app?vid=7a90b2f2-d00e-4c33-b981-befe4f1139d2","ios":"levelo://app?vid=7a90b2f2-d00e-4c33-b981-befe4f1139d2"},"vehicle_type_id":"4","last_reported":1728083292,"current_range_meters":28000,"station_id":"ce4bhn12rcd13ifvqgqg","pricing_plan_id":"cebpf4jnsgd1na2vs0mg"},{"bike_id":"a1a02613-7cac-499f-8e1a-0883e8761657","system_id":"levelo_inurba_marseille","lat":43.28103,"lon":5.37835,"is_reserved":false,"is_disabled":false,"rental_uris":{"android":"levelo://app?vid=a1a02613-7cac-499f-8e1a-0883e8761657","ios":"levelo://app?vid=a1a02613-7cac-499f-8e1a-0883e8761657"},"vehicle_type_id":"4","last_reported":1728083292,"current_range_meters":9200,"station_id":"ce4bha12rcd13ifvqee0","pricing_plan_id":"cebpf4jnsgd1na2vs0mg"},{"bike_id":"af92d777-761b-4c49-a2e0-a54aa5ba23c9","system_id":"levelo_inurba_marseille","lat":43.25871,"lon":5.399,"is_reserved":false,"is_disabled":false,"rental_uris":{"android":"levelo://app?vid=af92d777-761b-4c49-a2e0-a54aa5ba23c9","ios":"levelo://app?vid=af92d777-761b-4c49-a2e0-a54aa5ba23c9"},"vehicle_type_id":"4","last_reported":1728083292,"current_range_meters":36800,"station_id":"ce4bhl92rcd13ifvqghg","pricing_plan_id":"cebpf4jnsgd1na2vs0mg"},{"bike_id":"c34ce5f2-7d94-4d45-be97-91e82089085e","system_id":"levelo_inurba_marseille","lat":43.31541,"lon":5.38038,"is_reserved":false,"is_disabled":false,"rental_uris":{"android":"levelo://app?vid=c34ce5f2-7d94-4d45-be97-91e82089085e","ios":"levelo://app?vid=c34ce5f2-7d94-4d45-be97-91e82089085e"},"vehicle_type_id":"4","last_reported":1728083292,"current_range_meters":37600,"station_id":"ce4bhsp2rcd13ifvqi50","pricing_plan_id":"cebpf4jnsgd1na2vs0mg"},{"bike_id":"b81de3e4-0dfb-419f-8ef9-1696814f8f0b","system_id":"levelo_inurba_marseille","lat":43.31492,"lon":5.380834,"is_reserved":false,"is_disabled":false,"rental_uris":{"android":"levelo://app?vid=b81de3e4-0dfb-419f-8ef9-1696814f8f0b","ios":"levelo://app?vid=b81de3e4-0dfb-419f-8ef9-1696814f8f0b"},"vehicle_type_id":"4","last_reported":1728083292,"current_range_meters":33200,"station_id":"ce4bhsp2rcd13ifvqi50","pricing_plan_id":"cebpf4jnsgd1na2vs0mg"},{"bike_id":"1e9e701f-fb8e-430e-be7f-54907f1b9076","system_id":"levelo_inurba_marseille","lat":43.33023,"lon":5.39043,"is_reserved":false,"is_disabled":false,"rental_uris":{"android":"levelo://app?vid=1e9e701f-fb8e-430e-be7f-54907f1b9076","ios":"levelo://app?vid=1e9e701f-fb8e-430e-be7f-54907f1b9076"},"vehicle_type_id":"4","last_reported":1728083292,"current_range_meters":21600,"station_id":"ce4bhr92rcd13ifvqhrg","pricing_plan_id":"cebpf4jnsgd1na2vs0mg"},{"bike_id":"26f290bb-1447-4f43-ab6d-1590e2a06a4b","system_id":"levelo_inurba_marseille","lat":43.3146,"lon":5.37358,"is_reserved":false,"is_disabled":false,"rental_uris":{"android":"levelo://app?vid=26f290bb-1447-4f43-ab6d-1590e2a06a4b","ios":"levelo://app?vid=26f290bb-1447-4f43-ab6d-1590e2a06a4b"},"vehicle_type_id":"4","last_reported":1728083292,"current_range_meters":36800,"station_id":"ce4bgt12rcd13ifvqcd0","pricing_plan_id":"cebpf4jnsgd1na2vs0mg"},{"bike_id":"cbca4171-9459-4ba9-bf7e-395183c1638b","system_id":"levelo_inurba_marseille","lat":43.29516,"lon":5.37508,"is_reserved":false,"is_disabled":false,"rental_uris":{"android":"levelo://app?vid=cbca4171-9459-4ba9-bf7e-395183c1638b","ios":"levelo://app?vid=cbca4171-9459-4ba9-bf7e-395183c1638b"},"vehicle_type_id":"4","last_reported":1728083292,"current_range_meters":20800,"station_id":"ce4bgkp2rcd13ifvqbmg","pricing_plan_id":"cebpf4jnsgd1na2vs0mg"},{"bike_id":"e0a07a08-8ace-4a01-b000-9c812c1d132e","system_id":"levelo_inurba_marseille","lat":43.31538,"lon":5.38043,"is_reserved":false,"is_disabled":false,"rental_uris":{"android":"levelo://app?vid=e0a07a08-8ace-4a01-b000-9c812c1d132e","ios":"levelo://app?vid=e0a07a08-8ace-4a01-b000-9c812c1d132e"},"vehicle_type_id":"4","last_reported":1728083292,"current_range_meters":7200,"station_id":"ce4bhsp2rcd13ifvqi50","pricing_plan_id":"cebpf4jnsgd1na2vs0mg"},{"bike_id":"a1c36e90-d938-4845-ab25-edfddd38bab7","system_id":"levelo_inurba_marseille","lat":43.30934,"lon":5.40145,"is_reserved":false,"is_disabled":false,"rental_uris":{"android":"levelo://app?vid=a1c36e90-d938-4845-ab25-edfddd38bab7","ios":"levelo://app?vid=a1c36e90-d938-4845-ab25-edfddd38bab7"},"vehicle_type_id":"4","last_reported":1728083292,"current_range_meters":35600,"station_id":"ce4bgvp2rcd13ifvqct0","pricing_plan_id":"cebpf4jnsgd1na2vs0mg"},{"bike_id":"e2b62f7b-f163-4ce0-a035-e5fe5a9f421d","system_id":"levelo_inurba_marseille","lat":43.28016,"lon":5.36937,"is_reserved":false,"is_disabled":false,"rental_uris":{"android":"levelo://app?vid=e2b62f7b-f163-4ce0-a035-e5fe5a9f421d","ios":"levelo://app?vid=e2b62f7b-f163-4ce0-a035-e5fe5a9f421d"},"vehicle_type_id":"4","last_reported":1728083292,"current_range_meters":10800,"station_id":"ce4bha12rcd13ifvqef0","pricing_plan_id":"cebpf4jnsgd1na2vs0mg"},{"bike_id":"15907423-e2e0-4eaf-80aa-cddbb7684b5b","system_id":"levelo_inurba_marseille","lat":43.29802,"lon":5.40409,"is_reserved":false,"is_disabled":false,"rental_uris":{"android":"levelo://app?vid=15907423-e2e0-4eaf-80aa-cddbb7684b5b","ios":"levelo://app?vid=15907423-e2e0-4eaf-80aa-cddbb7684b5b"},"vehicle_type_id":"4","last_reported":1728083292,"current_range_meters":12400,"station_id":"ce4bh112rcd13ifvqd90","pricing_plan_id":"cebpf4jnsgd1na2vs0mg"},{"bike_id":"fe894fa8-2950-42c3-b21f-a384c41b699b","system_id":"levelo_inurba_marseille","lat":43.31716,"lon":5.4371,"is_reserved":false,"is_disabled":false,"rental_uris":{"android":"levelo://app?vid=fe894fa8-2950-42c3-b21f-a384c41b699b","ios":"levelo://app?vid=fe894fa8-2950-42c3-b21f-a384c41b699b"},"vehicle_type_id":"4","last_reported":1728083292,"current_range_meters":27600,"station_id":"ce4bhp92rcd13ifvqhcg","pricing_plan_id":"cebpf4jnsgd1na2vs0mg"},{"bike_id":"5b0a6d7f-c426-454a-82ad-28e2608bee63","system_id":"levelo_inurba_marseille","lat":43.322992,"lon":5.386626,"is_reserved":false,"is_disabled":false,"rental_uris":{"android":"levelo://app?vid=5b0a6d7f-c426-454a-82ad-28e2608bee63","ios":"levelo://app?vid=5b0a6d7f-c426-454a-82ad-28e2608bee63"},"vehicle_type_id":"4","last_reported":1728083292,"current_range_meters":24400,"station_id":"","pricing_plan_id":"cebpf4jnsgd1na2vs0mg"},{"bike_id":"4de60834-d192-45cc-9f41-15893aad862d","system_id":"levelo_inurba_marseille","lat":43.28852,"lon":5.35856,"is_reserved":false,"is_disabled":false,"rental_uris":{"android":"levelo://app?vid=4de60834-d192-45cc-9f41-15893aad862d","ios":"levelo://app?vid=4de60834-d192-45cc-9f41-15893aad862d"},"vehicle_type_id":"4","last_reported":1728083292,"current_range_meters":36400,"station_id":"ce4bhb12rcd13ifvqem0","pricing_plan_id":"cebpf4jnsgd1na2vs0mg"},{"bike_id":"5cbc9e7e-36a4-4ee2-9b2e-b9b518fe7f8a","system_id":"levelo_inurba_marseille","lat":43.31703,"lon":5.43711,"is_reserved":false,"is_disabled":false,"rental_uris":{"android":"levelo://app?vid=5cbc9e7e-36a4-4ee2-9b2e-b9b518fe7f8a","ios":"levelo://app?vid=5cbc9e7e-36a4-4ee2-9b2e-b9b518fe7f8a"},"vehicle_type_id":"4","last_reported":1728083292,"current_range_meters":37600,"station_id":"ce4bhp92rcd13ifvqhcg","pricing_plan_id":"cebpf4jnsgd1na2vs0mg"},{"bike_id":"5f566fee-9176-4125-9565-72a01102890d","system_id":"levelo_inurba_marseille","lat":43.27918,"lon":5.39575,"is_reserved":false,"is_disabled":false,"rental_uris":{"android":"levelo://app?vid=5f566fee-9176-4125-9565-72a01102890d","ios":"levelo://app?vid=5f566fee-9176-4125-9565-72a01102890d"},"vehicle_type_id":"4","last_reported":1728083292,"current_range_meters":3600,"station_id":"ce4bhf92rcd13ifvqf40","pricing_plan_id":"cebpf4jnsgd1na2vs0mg"},{"bike_id":"02ce21ed-3847-40cd-9cc1-a0519369f558","system_id":"levelo_inurba_marseille","lat":43.28417,"lon":5.37516,"is_reserved":false,"is_disabled":false,"rental_uris":{"android":"levelo://app?vid=02ce21ed-3847-40cd-9cc1-a0519369f558","ios":"levelo://app?vid=02ce21ed-3847-40cd-9cc1-a0519369f558"},"vehicle_type_id":"4","last_reported":1728083292,"current_range_meters":30000,"station_id":"ce4bh412rcd13ifvqds0","pricing_plan_id":"cebpf4jnsgd1na2vs0mg"},{"bike_id":"3c76bc3c-ba6b-497c-b639-532eac44bc71","system_id":"levelo_inurba_marseille","lat":43.32369,"lon":5.3889,"is_reserved":false,"is_disabled":false,"rental_uris":{"android":"levelo://app?vid=3c76bc3c-ba6b-497c-b639-532eac44bc71","ios":"levelo://app?vid=3c76bc3c-ba6b-497c-b639-532eac44bc71"},"vehicle_type_id":"4","last_reported":1728083292,"current_range_meters":8800,"station_id":"ce4bhqp2rcd13ifvqhog","pricing_plan_id":"cebpf4jnsgd1na2vs0mg"},{"bike_id":"0a5d7662-44ac-4d3b-8872-a58239f98f93","system_id":"levelo_inurba_marseille","lat":43.32112,"lon":5.36767,"is_reserved":false,"is_disabled":false,"rental_uris":{"android":"levelo://app?vid=0a5d7662-44ac-4d3b-8872-a58239f98f93","ios":"levelo://app?vid=0a5d7662-44ac-4d3b-8872-a58239f98f93"},"vehicle_type_id":"4","last_reported":1728083292,"current_range_meters":30800,"station_id":"ce4bhrh2rcd13ifvqhug","pricing_plan_id":"cebpf4jnsgd1na2vs0mg"},{"bike_id":"e376f453-9dc8-41e2-a2c6-97eefa5da716","system_id":"levelo_inurba_marseille","lat":43.25578,"lon":5.3824,"is_reserved":false,"is_disabled":false,"rental_uris":{"android":"levelo://app?vid=e376f453-9dc8-41e2-a2c6-97eefa5da716","ios":"levelo://app?vid=e376f453-9dc8-41e2-a2c6-97eefa5da716"},"vehicle_type_id":"4","last_reported":1728083292,"current_range_meters":37600,"station_id":"ce4bhih2rcd13ifvqfs0","pricing_plan_id":"cebpf4jnsgd1na2vs0mg"},{"bike_id":"666bc129-da48-43b6-859c-bfc1c5948593","system_id":"levelo_inurba_marseille","lat":43.31661,"lon":5.38367,"is_reserved":false,"is_disabled":false,"rental_uris":{"android":"levelo://app?vid=666bc129-da48-43b6-859c-bfc1c5948593","ios":"levelo://app?vid=666bc129-da48-43b6-859c-bfc1c5948593"},"vehicle_type_id":"4","last_reported":1728083292,"current_range_meters":31200,"station_id":"","pricing_plan_id":"cebpf4jnsgd1na2vs0mg"},{"bike_id":"a3f3e091-d1ce-4ea8-8fbc-099d24b122e5","system_id":"levelo_inurba_marseille","lat":43.314033,"lon":5.402779,"is_reserved":false,"is_disabled":false,"rental_uris":{"android":"levelo://app?vid=a3f3e091-d1ce-4ea8-8fbc-099d24b122e5","ios":"levelo://app?vid=a3f3e091-d1ce-4ea8-8fbc-099d24b122e5"},"vehicle_type_id":"4","last_reported":1728083292,"current_range_meters":11600,"station_id":"ce4bh092rcd13ifvqd30","pricing_plan_id":"cebpf4jnsgd1na2vs0mg"},{"bike_id":"3cf7d202-a4fb-496c-bc1d-a214862d864b","system_id":"levelo_inurba_marseille","lat":43.287062,"lon":5.399826,"is_reserved":false,"is_disabled":false,"rental_uris":{"android":"levelo://app?vid=3cf7d202-a4fb-496c-bc1d-a214862d864b","ios":"levelo://app?vid=3cf7d202-a4fb-496c-bc1d-a214862d864b"},"vehicle_type_id":"4","last_reported":1728083292,"current_range_meters":12000,"station_id":"ce4bho92rcd13ifvqh3g","pricing_plan_id":"cebpf4jnsgd1na2vs0mg"},{"bike_id":"e3a55123-dd31-4c6a-9a44-7e5a51c0f0eb","system_id":"levelo_inurba_marseille","lat":43.25115,"lon":5.40318,"is_reserved":false,"is_disabled":false,"rental_uris":{"android":"levelo://app?vid=e3a55123-dd31-4c6a-9a44-7e5a51c0f0eb","ios":"levelo://app?vid=e3a55123-dd31-4c6a-9a44-7e5a51c0f0eb"},"vehicle_type_id":"4","last_reported":1728083292,"current_range_meters":6800,"station_id":"ce4bhlh2rcd13ifvqgig","pricing_plan_id":"cebpf4jnsgd1na2vs0mg"},{"bike_id":"b6a817d8-5787-46a3-898e-0b46c75fc481","system_id":"levelo_inurba_marseille","lat":43.32965,"lon":5.40344,"is_reserved":false,"is_disabled":false,"rental_uris":{"android":"levelo://app?vid=b6a817d8-5787-46a3-898e-0b46c75fc481","ios":"levelo://app?vid=b6a817d8-5787-46a3-898e-0b46c75fc481"},"vehicle_type_id":"4","last_reported":1728083292,"current_range_meters":8800,"station_id":"","pricing_plan_id":"cebpf4jnsgd1na2vs0mg"},{"bike_id":"a7094075-0769-4eb0-8ab5-844e93f33032","system_id":"levelo_inurba_marseille","lat":43.31068,"lon":5.3835,"is_reserved":false,"is_disabled":false,"rental_uris":{"android":"levelo://app?vid=a7094075-0769-4eb0-8ab5-844e93f33032","ios":"levelo://app?vid=a7094075-0769-4eb0-8ab5-844e93f33032"},"vehicle_type_id":"4","last_reported":1728083292,"current_range_meters":11600,"station_id":"ce4bgv92rcd13ifvqcr0","pricing_plan_id":"cebpf4jnsgd1na2vs0mg"},{"bike_id":"b3e9bf44-9c12-447b-a5d3-33f7d8037304","system_id":"levelo_inurba_marseille","lat":43.28414,"lon":5.37509,"is_reserved":false,"is_disabled":false,"rental_uris":{"android":"levelo://app?vid=b3e9bf44-9c12-447b-a5d3-33f7d8037304","ios":"levelo://app?vid=b3e9bf44-9c12-447b-a5d3-33f7d8037304"},"vehicle_type_id":"4","last_reported":1728083292,"current_range_meters":38800,"station_id":"ce4bh412rcd13ifvqds0","pricing_plan_id":"cebpf4jnsgd1na2vs0mg"},{"bike_id":"b39307f1-682c-4d00-90a9-c74c54d1a44d","system_id":"levelo_inurba_marseille","lat":43.24652,"lon":5.38888,"is_reserved":false,"is_disabled":false,"rental_uris":{"android":"levelo://app?vid=b39307f1-682c-4d00-90a9-c74c54d1a44d","ios":"levelo://app?vid=b39307f1-682c-4d00-90a9-c74c54d1a44d"},"vehicle_type_id":"4","last_reported":1728083292,"current_range_meters":6800,"station_id":"ce4bhg12rcd13ifvqf60","pricing_plan_id":"cebpf4jnsgd1na2vs0mg"},{"bike_id":"89e81577-92c7-4a0e-af64-6838f65f3419","system_id":"levelo_inurba_marseille","lat":43.287,"lon":5.39981,"is_reserved":false,"is_disabled":false,"rental_uris":{"android":"levelo://app?vid=89e81577-92c7-4a0e-af64-6838f65f3419","ios":"levelo://app?vid=89e81577-92c7-4a0e-af64-6838f65f3419"},"vehicle_type_id":"4","last_reported":1728083292,"current_range_meters":31200,"station_id":"ce4bho92rcd13ifvqh3g","pricing_plan_id":"cebpf4jnsgd1na2vs0mg"},{"bike_id":"64bd957e-b978-44cb-a85c-928d627d24ec","system_id":"levelo_inurba_marseille","lat":43.35424,"lon":5.35869,"is_reserved":false,"is_disabled":false,"rental_uris":{"android":"levelo://app?vid=64bd957e-b978-44cb-a85c-928d627d24ec","ios":"levelo://app?vid=64bd957e-b978-44cb-a85c-928d627d24ec"},"vehicle_type_id":"4","last_reported":1728083292,"current_range_meters":10000,"station_id":"","pricing_plan_id":"cebpf4jnsgd1na2vs0mg"},{"bike_id":"b0a7b179-e7bc-4ccd-91fa-da639e758fb9","system_id":"levelo_inurba_marseille","lat":43.31701,"lon":5.37774,"is_reserved":false,"is_disabled":false,"rental_uris":{"android":"levelo://app?vid=b0a7b179-e7bc-4ccd-91fa-da639e758fb9","ios":"levelo://app?vid=b0a7b179-e7bc-4ccd-91fa-da639e758fb9"},"vehicle_type_id":"4","last_reported":1728083292,"current_range_meters":12400,"station_id":"ce4bgth2rcd13ifvqch0","pricing_plan_id":"cebpf4jnsgd1na2vs0mg"},{"bike_id":"5d27344c-48db-4143-abcc-d6fc82ce47ec","system_id":"levelo_inurba_marseille","lat":43.32484,"lon":5.36566,"is_reserved":false,"is_disabled":false,"rental_uris":{"android":"levelo://app?vid=5d27344c-48db-4143-abcc-d6fc82ce47ec","ios":"levelo://app?vid=5d27344c-48db-4143-abcc-d6fc82ce47ec"},"vehicle_type_id":"4","last_reported":1728083292,"current_range_meters":38000,"station_id":"ce4bhs12rcd13ifvqhvg","pricing_plan_id":"cebpf4jnsgd1na2vs0mg"},{"bike_id":"4a79b7f5-df06-47d9-894a-c23c245e5186","system_id":"levelo_inurba_marseille","lat":43.29562,"lon":5.42283,"is_reserved":false,"is_disabled":false,"rental_uris":{"android":"levelo://app?vid=4a79b7f5-df06-47d9-894a-c23c245e5186","ios":"levelo://app?vid=4a79b7f5-df06-47d9-894a-c23c245e5186"},"vehicle_type_id":"4","last_reported":1728083292,"current_range_meters":6000,"station_id":"ce4bhph2rcd13ifvqhdg","pricing_plan_id":"cebpf4jnsgd1na2vs0mg"},{"bike_id":"32242c56-871c-43e9-886b-ffb4c5d66c0e","system_id":"levelo_inurba_marseille","lat":43.25932,"lon":5.40915,"is_reserved":false,"is_disabled":false,"rental_uris":{"android":"levelo://app?vid=32242c56-871c-43e9-886b-ffb4c5d66c0e","ios":"levelo://app?vid=32242c56-871c-43e9-886b-ffb4c5d66c0e"},"vehicle_type_id":"4","last_reported":1728083292,"current_range_meters":14800,"station_id":"ce4bhm92rcd13ifvqglg","pricing_plan_id":"cebpf4jnsgd1na2vs0mg"},{"bike_id":"b86d657d-d1f9-462c-a65b-0988989a59c2","system_id":"levelo_inurba_marseille","lat":43.30211,"lon":5.39477,"is_reserved":false,"is_disabled":false,"rental_uris":{"android":"levelo://app?vid=b86d657d-d1f9-462c-a65b-0988989a59c2","ios":"levelo://app?vid=b86d657d-d1f9-462c-a65b-0988989a59c2"},"vehicle_type_id":"4","last_reported":1728083292,"current_range_meters":37600,"station_id":"ce4bh0p2rcd13ifvqd70","pricing_plan_id":"cebpf4jnsgd1na2vs0mg"},{"bike_id":"19dc696a-2df3-4720-928f-146a4ed17896","system_id":"levelo_inurba_marseille","lat":43.28157,"lon":5.42647,"is_reserved":false,"is_disabled":false,"rental_uris":{"android":"levelo://app?vid=19dc696a-2df3-4720-928f-146a4ed17896","ios":"levelo://app?vid=19dc696a-2df3-4720-928f-146a4ed17896"},"vehicle_type_id":"4","last_reported":1728083292,"current_range_meters":18800,"station_id":"ce4bhnh2rcd13ifvqgug","pricing_plan_id":"cebpf4jnsgd1na2vs0mg"},{"bike_id":"eef258b6-9094-4eb2-9cc9-3e92595ebc44","system_id":"levelo_inurba_marseille","lat":43.28967,"lon":5.3593,"is_reserved":false,"is_disabled":false,"rental_uris":{"android":"levelo://app?vid=eef258b6-9094-4eb2-9cc9-3e92595ebc44","ios":"levelo://app?vid=eef258b6-9094-4eb2-9cc9-3e92595ebc44"},"vehicle_type_id":"4","last_reported":1728083292,"current_range_meters":27600,"station_id":"ce4bha92rcd13ifvqeg0","pricing_plan_id":"cebpf4jnsgd1na2vs0mg"},{"bike_id":"6d679b6b-38e0-4f37-8caf-d0dfb3677fc5","system_id":"levelo_inurba_marseille","lat":43.22939,"lon":5.35381,"is_reserved":false,"is_disabled":false,"rental_uris":{"android":"levelo://app?vid=6d679b6b-38e0-4f37-8caf-d0dfb3677fc5","ios":"levelo://app?vid=6d679b6b-38e0-4f37-8caf-d0dfb3677fc5"},"vehicle_type_id":"4","last_reported":1728083292,"current_range_meters":16400,"station_id":"cpo3532slgdg3j2ikp40","pricing_plan_id":"cebpf4jnsgd1na2vs0mg"},{"bike_id":"5305316b-eb43-43cb-bedf-3a735be36892","system_id":"levelo_inurba_marseille","lat":43.31715,"lon":5.4371,"is_reserved":false,"is_disabled":false,"rental_uris":{"android":"levelo://app?vid=5305316b-eb43-43cb-bedf-3a735be36892","ios":"levelo://app?vid=5305316b-eb43-43cb-bedf-3a735be36892"},"vehicle_type_id":"4","last_reported":1728083292,"current_range_meters":38800,"station_id":"ce4bhp92rcd13ifvqhcg","pricing_plan_id":"cebpf4jnsgd1na2vs0mg"},{"bike_id":"66dc3971-d3cb-4ea7-a66e-6b8ddfc220d6","system_id":"levelo_inurba_marseille","lat":43.30462,"lon":5.37909,"is_reserved":false,"is_disabled":false,"rental_uris":{"android":"levelo://app?vid=66dc3971-d3cb-4ea7-a66e-6b8ddfc220d6","ios":"levelo://app?vid=66dc3971-d3cb-4ea7-a66e-6b8ddfc220d6"},"vehicle_type_id":"4","last_reported":1728083292,"current_range_meters":10000,"station_id":"ce4bgup2rcd13ifvqcn0","pricing_plan_id":"cebpf4jnsgd1na2vs0mg"},{"bike_id":"0763101f-8b36-4375-a91e-b47578d360a8","system_id":"levelo_inurba_marseille","lat":43.24071,"lon":5.37764,"is_reserved":false,"is_disabled":false,"rental_uris":{"android":"levelo://app?vid=0763101f-8b36-4375-a91e-b47578d360a8","ios":"levelo://app?vid=0763101f-8b36-4375-a91e-b47578d360a8"},"vehicle_type_id":"4","last_reported":1728083292,"current_range_meters":25200,"station_id":"ce4bhnp2rcd13ifvqgvg","pricing_plan_id":"cebpf4jnsgd1na2vs0mg"},{"bike_id":"1df4a6b4-39e4-4279-8ea5-f5fb23e15a36","system_id":"levelo_inurba_marseille","lat":43.29253,"lon":5.40911,"is_reserved":false,"is_disabled":false,"rental_uris":{"android":"levelo://app?vid=1df4a6b4-39e4-4279-8ea5-f5fb23e15a36","ios":"levelo://app?vid=1df4a6b4-39e4-4279-8ea5-f5fb23e15a36"},"vehicle_type_id":"4","last_reported":1728083292,"current_range_meters":24800,"station_id":"ce4bh192rcd13ifvqdc0","pricing_plan_id":"cebpf4jnsgd1na2vs0mg"},{"bike_id":"42715632-e225-47f3-813c-9451f24e5700","system_id":"levelo_inurba_marseille","lat":43.23196,"lon":5.35557,"is_reserved":false,"is_disabled":false,"rental_uris":{"android":"levelo://app?vid=42715632-e225-47f3-813c-9451f24e5700","ios":"levelo://app?vid=42715632-e225-47f3-813c-9451f24e5700"},"vehicle_type_id":"4","last_reported":1728083292,"current_range_meters":9600,"station_id":"ce4bhu92rcd13ifvqi70","pricing_plan_id":"cebpf4jnsgd1na2vs0mg"},{"bike_id":"cb37c559-343e-4c3a-974d-f0c103e5a9b6","system_id":"levelo_inurba_marseille","lat":43.32338,"lon":5.40619,"is_reserved":false,"is_disabled":false,"rental_uris":{"android":"levelo://app?vid=cb37c559-343e-4c3a-974d-f0c103e5a9b6","ios":"levelo://app?vid=cb37c559-343e-4c3a-974d-f0c103e5a9b6"},"vehicle_type_id":"4","last_reported":1728083292,"current_range_meters":4800,"station_id":"ce4bhq92rcd13ifvqhjg","pricing_plan_id":"cebpf4jnsgd1na2vs0mg"},{"bike_id":"b4d0f903-0d6a-4d8a-a93b-a5b90f71412b","system_id":"levelo_inurba_marseille","lat":43.25934,"lon":5.40914,"is_reserved":false,"is_disabled":false,"rental_uris":{"android":"levelo://app?vid=b4d0f903-0d6a-4d8a-a93b-a5b90f71412b","ios":"levelo://app?vid=b4d0f903-0d6a-4d8a-a93b-a5b90f71412b"},"vehicle_type_id":"4","last_reported":1728083292,"current_range_meters":28800,"station_id":"ce4bhm92rcd13ifvqglg","pricing_plan_id":"cebpf4jnsgd1na2vs0mg"},{"bike_id":"61b250a8-7554-458a-a5fb-1b6808a08b9e","system_id":"levelo_inurba_marseille","lat":43.33021,"lon":5.39043,"is_reserved":false,"is_disabled":false,"rental_uris":{"android":"levelo://app?vid=61b250a8-7554-458a-a5fb-1b6808a08b9e","ios":"levelo://app?vid=61b250a8-7554-458a-a5fb-1b6808a08b9e"},"vehicle_type_id":"4","last_reported":1728083292,"current_range_meters":38800,"station_id":"ce4bhr92rcd13ifvqhrg","pricing_plan_id":"cebpf4jnsgd1na2vs0mg"},{"bike_id":"9c6ceacf-46aa-4972-8a1c-69fbeaf93293","system_id":"levelo_inurba_marseille","lat":43.31758,"lon":5.39022,"is_reserved":false,"is_disabled":false,"rental_uris":{"android":"levelo://app?vid=9c6ceacf-46aa-4972-8a1c-69fbeaf93293","ios":"levelo://app?vid=9c6ceacf-46aa-4972-8a1c-69fbeaf93293"},"vehicle_type_id":"4","last_reported":1728083292,"current_range_meters":9600,"station_id":"ce4bhqp2rcd13ifvqhng","pricing_plan_id":"cebpf4jnsgd1na2vs0mg"},{"bike_id":"0e03e2f4-2327-4e8b-83a8-aa1742610092","system_id":"levelo_inurba_marseille","lat":43.29198,"lon":5.39327,"is_reserved":false,"is_disabled":false,"rental_uris":{"android":"levelo://app?vid=0e03e2f4-2327-4e8b-83a8-aa1742610092","ios":"levelo://app?vid=0e03e2f4-2327-4e8b-83a8-aa1742610092"},"vehicle_type_id":"4","last_reported":1728083292,"current_range_meters":34000,"station_id":"ce4bh192rcd13ifvqdd0","pricing_plan_id":"cebpf4jnsgd1na2vs0mg"},{"bike_id":"83282495-0229-495d-a72e-2f5eb58927a3","system_id":"levelo_inurba_marseille","lat":43.30307,"lon":5.392154,"is_reserved":false,"is_disabled":false,"rental_uris":{"android":"levelo://app?vid=83282495-0229-495d-a72e-2f5eb58927a3","ios":"levelo://app?vid=83282495-0229-495d-a72e-2f5eb58927a3"},"vehicle_type_id":"4","last_reported":1728083292,"current_range_meters":38000,"station_id":"ce4bh0p2rcd13ifvqd80","pricing_plan_id":"cebpf4jnsgd1na2vs0mg"},{"bike_id":"eec0fdc3-c696-4c2b-8fff-9abe3910eec4","system_id":"levelo_inurba_marseille","lat":43.29283,"lon":5.40121,"is_reserved":false,"is_disabled":false,"rental_uris":{"android":"levelo://app?vid=eec0fdc3-c696-4c2b-8fff-9abe3910eec4","ios":"levelo://app?vid=eec0fdc3-c696-4c2b-8fff-9abe3910eec4"},