{"last_updated":1685739921,"ttl":30,"version":"2.2","data":{"bikes":[{"bike_id":"db50a2c9-d127-4b1a-a8c6-1bb3cfcd227c","system_id":"levelo_inurba_marseille","lat":43.31147,"lon":5.37087,"is_reserved":false,"is_disabled":false,"rental_uris":{"android":"levelo://app?vid=db50a2c9-d127-4b1a-a8c6-1bb3cfcd227c","ios":"levelo://app?vid=db50a2c9-d127-4b1a-a8c6-1bb3cfcd227c"},"vehicle_type_id":"4","last_reported":1685739921,"current_range_meters":3200,"station_id":"","pricing_plan_id":"free"},{"bike_id":"64515ae6-b6d1-4e6f-baff-2974be876834","system_id":"levelo_inurba_marseille","lat":43.314811,"lon":5.373103,"is_reserved":false,"is_disabled":false,"rental_uris":{"android":"levelo://app?vid=64515ae6-b6d1-4e6f-baff-2974be876834","ios":"levelo://app?vid=64515ae6-b6d1-4e6f-baff-2974be876834"},"vehicle_type_id":"4","last_reported":1685739921,"current_range_meters":10800,"station_id":"ce4bgt12rcd13ifvqcd0","pricing_plan_id":"free"},{"bike_id":"9457e89a-5c92-474c-9340-a4a31e8f9016","system_id":"levelo_inurba_marseille","lat":43.30886,"lon":5.37199,"is_reserved":false,"is_disabled":false,"rental_uris":{"android":"levelo://app?vid=9457e89a-5c92-474c-9340-a4a31e8f9016","ios":"levelo://app?vid=9457e89a-5c92-474c-9340-a4a31e8f9016"},"vehicle_type_id":"4","last_reported":1685739921,"current_range_meters":5200,"station_id":"ce4bguh2rcd13ifvqckg","pricing_plan_id":"free"},{"bike_id":"25a8dcab-ece4-42b7-a12a-a0dd7d71635f","system_id":"levelo_inurba_marseille","lat":43.30903,"lon":5.37265,"is_reserved":false,"is_disabled":false,"rental_uris":{"android":"levelo://app?vid=25a8dcab-ece4-42b7-a12a-a0dd7d71635f","ios":"levelo://app?vid=25a8dcab-ece4-42b7-a12a-a0dd7d71635f"},"vehicle_type_id":"4","last_reported":1685739921,"current_range_meters":12800,"station_id":"","pricing_plan_id":"free"},{"bike_id":"4d43e892-ec90-4fce-8475-f727fed3851f","system_id":"levelo_inurba_marseille","lat":43.3198,"lon":5.36582,"is_reserved":false,"is_disabled":false,"rental_uris":{"android":"levelo://app?vid=4d43e892-ec90-4fce-8475-f727fed3851f","ios":"levelo://app?vid=4d43e892-ec90-4fce-8475-f727fed3851f"},"vehicle_type_id":"4","last_reported":1685739921,"current_range_meters":8000,"station_id":"","pricing_plan_id":"free"},{"bike_id":"b41cfad0-e33e-437e-b9c1-907658ddf3bd","system_id":"levelo_inurba_marseille","lat":43.305368,"lon":5.367343,"is_reserved":false,"is_disabled":false,"rental_uris":{"android":"levelo://app?vid=b41cfad0-e33e-437e-b9c1-907658ddf3bd","ios":"levelo://app?vid=b41cfad0-e33e-437e-b9c1-907658ddf3bd"},"vehicle_type_id":"4","last_reported":1685739921,"current_range_meters":24800,"station_id":"ce4bgrp2rcd13ifvqc9g","pricing_plan_id":"free"},{"bike_id":"890e93ac-4bac-484a-baff-b468d73fa7c8","system_id":"levelo_inurba_marseille","lat":43.31348,"lon":5.37697,"is_reserved":false,"is_disabled":false,"rental_uris":{"android":"levelo://app?vid=890e93ac-4bac-484a-baff-b468d73fa7c8","ios":"levelo://app?vid=890e93ac-4bac-484a-baff-b468d73fa7c8"},"vehicle_type_id":"4","last_reported":1685739921,"current_range_meters":12400,"station_id":"","pricing_plan_id":"free"},{"bike_id":"3279f723-3fa9-4823-9a0c-40aa011676de","system_id":"levelo_inurba_marseille","lat":43.317075,"lon":5.377367,"is_reserved":false,"is_disabled":false,"rental_uris":{"android":"levelo://app?vid=3279f723-3fa9-4823-9a0c-40aa011676de","ios":"levelo://app?vid=3279f723-3fa9-4823-9a0c-40aa011676de"},"vehicle_type_id":"4","last_reported":1685739921,"current_range_meters":22000,"station_id":"ce4bgth2rcd13ifvqch0","pricing_plan_id":"free"},{"bike_id":"cb8f0fee-d0c8-473e-9f1b-9c552cd1fe7a","system_id":"levelo_inurba_marseille","lat":43.303046,"lon":5.368981,"is_reserved":false,"is_disabled":false,"rental_uris":{"android":"levelo://app?vid=cb8f0fee-d0c8-473e-9f1b-9c552cd1fe7a","ios":"levelo://app?vid=cb8f0fee-d0c8-473e-9f1b-9c552cd1fe7a"},"vehicle_type_id":"4","last_reported":1685739921,"current_range_meters":0,"station_id":"ce4bgqh2rcd13ifvqc5g","pricing_plan_id":"free"},{"bike_id":"64668d62-2c56-40da-9e4a-cb84a2c2ea4d","system_id":"levelo_inurba_marseille","lat":43.31002,"lon":5.38021,"is_reserved":false,"is_disabled":false,"rental_uris":{"android":"levelo://app?vid=64668d62-2c56-40da-9e4a-cb84a2c2ea4d","ios":"levelo://app?vid=64668d62-2c56-40da-9e4a-cb84a2c2ea4d"},"vehicle_type_id":"4","last_reported":1685739921,"current_range_meters":0,"station_id":"","pricing_plan_id":"free"},{"bike_id":"6e744b27-ecbb-4ab6-852d-c16ca9c9b92d","system_id":"levelo_inurba_marseille","lat":43.308012,"lon":5.381511,"is_reserved":false,"is_disabled":false,"rental_uris":{"android":"levelo://app?vid=6e744b27-ecbb-4ab6-852d-c16ca9c9b92d","ios":"levelo://app?vid=6e744b27-ecbb-4ab6-852d-c16ca9c9b92d"},"vehicle_type_id":"4","last_reported":1685739921,"current_range_meters":16400,"station_id":"ce4bgt12rcd13ifvqce0","pricing_plan_id":"free"},{"bike_id":"f00ffa52-e11d-4863-9e44-7699c2e65c3e","system_id":"levelo_inurba_marseille","lat":43.308012,"lon":5.381511,"is_reserved":false,"is_disabled":false,"rental_uris":{"android":"levelo://app?vid=f00ffa52-e11d-4863-9e44-7699c2e65c3e","ios":"levelo://app?vid=f00ffa52-e11d-4863-9e44-7699c2e65c3e"},"vehicle_type_id":"4","last_reported":1685739921,"current_range_meters":29200,"station_id":"ce4bgt12rcd13ifvqce0","pricing_plan_id":"free"},{"bike_id":"c06ad1b5-e4f1-4ce7-a110-0b14619efa9b","system_id":"levelo_inurba_marseille","lat":43.304606,"lon":5.379026,"is_reserved":false,"is_disabled":false,"rental_uris":{"android":"levelo://app?vid=c06ad1b5-e4f1-4ce7-a110-0b14619efa9b","ios":"levelo://app?vid=c06ad1b5-e4f1-4ce7-a110-0b14619efa9b"},"vehicle_type_id":"4","last_reported":1685739921,"current_range_meters":23600,"station_id":"ce4bgup2rcd13ifvqcn0","pricing_plan_id":"free"},{"bike_id":"cae54548-b1c5-43c5-854c-9258b28b419d","system_id":"levelo_inurba_marseille","lat":43.32527,"lon":5.36852,"is_reserved":false,"is_disabled":false,"rental_uris":{"android":"levelo://app?vid=cae54548-b1c5-43c5-854c-9258b28b419d","ios":"levelo://app?vid=cae54548-b1c5-43c5-854c-9258b28b419d"},"vehicle_type_id":"4","last_reported":1685739921,"current_range_meters":22800,"station_id":"","pricing_plan_id":"free"},{"bike_id":"b6af2cee-22c0-4696-a3cc-c5ab5878f58f","system_id":"levelo_inurba_marseille","lat":43.319935,"lon":5.381699,"is_reserved":false,"is_disabled":false,"rental_uris":{"android":"levelo://app?vid=b6af2cee-22c0-4696-a3cc-c5ab5878f58f","ios":"levelo://app?vid=b6af2cee-22c0-4696-a3cc-c5ab5878f58f"},"vehicle_type_id":"4","last_reported":1685739921,"current_range_meters":30400,"station_id":"ce4bhr12rcd13ifvqhpg","pricing_plan_id":"free"},{"bike_id":"8c3cbb59-cd72-4768-8a58-eb62ab11aad1","system_id":"levelo_inurba_marseille","lat":43.319935,"lon":5.381699,"is_reserved":false,"is_disabled":false,"rental_uris":{"android":"levelo://app?vid=8c3cbb59-cd72-4768-8a58-eb62ab11aad1","ios":"levelo://app?vid=8c3cbb59-cd72-4768-8a58-eb62ab11aad1"},"vehicle_type_id":"4","last_reported":1685739921,"current_range_meters":31200,"station_id":"ce4bhr12rcd13ifvqhpg","pricing_plan_id":"free"},{"bike_id":"ad129339-b339-4ccc-9ee0-2774c8b55114","system_id":"levelo_inurba_marseille","lat":43.319935,"lon":5.381699,"is_reserved":false,"is_disabled":false,"rental_uris":{"android":"levelo://app?vid=ad129339-b339-4ccc-9ee0-2774c8b55114","ios":"levelo://app?vid=ad129339-b339-4ccc-9ee0-2774c8b55114"},"vehicle_type_id":"4","last_reported":1685739921,"current_range_meters":27200,"station_id":"ce4bhr12rcd13ifvqhpg","pricing_plan_id":"free"},{"bike_id":"548c349e-be6a-4430-b129-e3909ffabcea","system_id":"levelo_inurba_marseille","lat":43.313571,"lon":5.384829,"is_reserved":false,"is_disabled":false,"rental_uris":{"android":"levelo://app?vid=548c349e-be6a-4430-b129-e3909ffabcea","ios":"levelo://app?vid=548c349e-be6a-4430-b129-e3909ffabcea"},"vehicle_type_id":"4","last_reported":1685739921,"current_range_meters":4000,"station_id":"ce4bgt92rcd13ifvqcf0","pricing_plan_id":"free"},{"bike_id":"8378b03b-6ed0-41b1-8fb0-aadd3fc16f96","system_id":"levelo_inurba_marseille","lat":43.313571,"lon":5.384829,"is_reserved":false,"is_disabled":false,"rental_uris":{"android":"levelo://app?vid=8378b03b-6ed0-41b1-8fb0-aadd3fc16f96","ios":"levelo://app?vid=8378b03b-6ed0-41b1-8fb0-aadd3fc16f96"},"vehicle_type_id":"4","last_reported":1685739921,"current_range_meters":17200,"station_id":"ce4bgt92rcd13ifvqcf0","pricing_plan_id":"free"},{"bike_id":"e215cedf-b29a-4fe6-bc3b-6ab2e078d0b7","system_id":"levelo_inurba_marseille","lat":43.313571,"lon":5.384829,"is_reserved":false,"is_disabled":false,"rental_uris":{"android":"levelo://app?vid=e215cedf-b29a-4fe6-bc3b-6ab2e078d0b7","ios":"levelo://app?vid=e215cedf-b29a-4fe6-bc3b-6ab2e078d0b7"},"vehicle_type_id":"4","last_reported":1685739921,"current_range_meters":8000,"station_id":"ce4bgt92rcd13ifvqcf0","pricing_plan_id":"free"},{"bike_id":"ed727c7f-c08c-4f4a-b3c8-0aec6e852aec","system_id":"levelo_inurba_marseille","lat":43.313571,"lon":5.384829,"is_reserved":false,"is_disabled":false,"rental_uris":{"android":"levelo://app?vid=ed727c7f-c08c-4f4a-b3c8-0aec6e852aec","ios":"levelo://app?vid=ed727c7f-c08c-4f4a-b3c8-0aec6e852aec"},"vehicle_type_id":"4","last_reported":1685739921,"current_range_meters":2800,"station_id":"ce4bgt92rcd13ifvqcf0","pricing_plan_id":"free"},{"bike_id":"055b7752-e1d1-47aa-8994-f066ec6366d5","system_id":"levelo_inurba_marseille","lat":43.30534,"lon":5.38428,"is_reserved":false,"is_disabled":false,"rental_uris":{"android":"levelo://app?vid=055b7752-e1d1-47aa-8994-f066ec6366d5","ios":"levelo://app?vid=055b7752-e1d1-47aa-8994-f066ec6366d5"},"vehicle_type_id":"4","last_reported":1685739921,"current_range_meters":8000,"station_id":"ce4bgg92rcd13ifvqb30","pricing_plan_id":"free"},{"bike_id":"a5ef33e6-a221-4312-a02b-7cc1d4ac2f6e","system_id":"levelo_inurba_marseille","lat":43.311722,"lon":5.387247,"is_reserved":false,"is_disabled":false,"rental_uris":{"android":"levelo://app?vid=a5ef33e6-a221-4312-a02b-7cc1d4ac2f6e","ios":"levelo://app?vid=a5ef33e6-a221-4312-a02b-7cc1d4ac2f6e"},"vehicle_type_id":"4","last_reported":1685739921,"current_range_meters":24400,"station_id":"ce4bgv12rcd13ifvqcp0","pricing_plan_id":"free"},{"bike_id":"73358a4c-93c0-4eda-a88d-776a673cd973","system_id":"levelo_inurba_marseille","lat":43.328371,"lon":5.366909,"is_reserved":false,"is_disabled":false,"rental_uris":{"android":"levelo://app?vid=73358a4c-93c0-4eda-a88d-776a673cd973","ios":"levelo://app?vid=73358a4c-93c0-4eda-a88d-776a673cd973"},"vehicle_type_id":"4","last_reported":1685739921,"current_range_meters":31200,"station_id":"ce4bhs92rcd13ifvqi0g","pricing_plan_id":"free"},{"bike_id":"3df85bc5-dfcb-4777-95e4-83da0b168eb3","system_id":"levelo_inurba_marseille","lat":43.328371,"lon":5.366909,"is_reserved":false,"is_disabled":false,"rental_uris":{"android":"levelo://app?vid=3df85bc5-dfcb-4777-95e4-83da0b168eb3","ios":"levelo://app?vid=3df85bc5-dfcb-4777-95e4-83da0b168eb3"},"vehicle_type_id":"4","last_reported":1685739921,"current_range_meters":30400,"station_id":"ce4bhs92rcd13ifvqi0g","pricing_plan_id":"free"},{"bike_id":"6dab6eca-b352-49ea-add2-026ea7782376","system_id":"levelo_inurba_marseille","lat":43.328371,"lon":5.366909,"is_reserved":false,"is_disabled":false,"rental_uris":{"android":"levelo://app?vid=6dab6eca-b352-49ea-add2-026ea7782376","ios":"levelo://app?vid=6dab6eca-b352-49ea-add2-026ea7782376"},"vehicle_type_id":"4","last_reported":1685739921,"current_range_meters":31200,"station_id":"ce4bhs92rcd13ifvqi0g","pricing_plan_id":"free"},{"bike_id":"7652560c-7deb-42f7-934b-ad6212fb0a0d","system_id":"levelo_inurba_marseille","lat":43.328371,"lon":5.366909,"is_reserved":false,"is_disabled":false,"rental_uris":{"android":"levelo://app?vid=7652560c-7deb-42f7-934b-ad6212fb0a0d","ios":"levelo://app?vid=7652560c-7deb-42f7-934b-ad6212fb0a0d"},"vehicle_type_id":"4","last_reported":1685739921,"current_range_meters":18800,"station_id":"ce4bhs92rcd13ifvqi0g","pricing_plan_id":"free"},{"bike_id":"0daf4039-752f-496b-80e9-a618f55d4936","system_id":"levelo_inurba_marseille","lat":43.328371,"lon":5.366909,"is_reserved":false,"is_disabled":false,"rental_uris":{"android":"levelo://app?vid=0daf4039-752f-496b-80e9-a618f55d4936","ios":"levelo://app?vid=0daf4039-752f-496b-80e9-a618f55d4936"},"vehicle_type_id":"4","last_reported":1685739921,"current_range_meters":31200,"station_id":"ce4bhs92rcd13ifvqi0g","pricing_plan_id":"free"},{"bike_id":"b74363e3-c470-421b-a209-a2323c5d5cf3","system_id":"levelo_inurba_marseille","lat":43.328371,"lon":5.366909,"is_reserved":false,"is_disabled":false,"rental_uris":{"android":"levelo://app?vid=b74363e3-c470-421b-a209-a2323c5d5cf3","ios":"levelo://app?vid=b74363e3-c470-421b-a209-a2323c5d5cf3"},"vehicle_type_id":"4","last_reported":1685739921,"current_range_meters":31200,"station_id":"ce4bhs92rcd13ifvqi0g","pricing_plan_id":"free"},{"bike_id":"048d6a5e-97c9-4f67-bf89-16ecba2081b0","system_id":"levelo_inurba_marseille","lat":43.328371,"lon":5.366909,"is_reserved":false,"is_disabled":false,"rental_uris":{"android":"levelo://app?vid=048d6a5e-97c9-4f67-bf89-16ecba2081b0","ios":"levelo://app?vid=048d6a5e-97c9-4f67-bf89-16ecba2081b0"},"vehicle_type_id":"4","last_reported":1685739921,"current_range_meters":22000,"station_id":"ce4bhs92rcd13ifvqi0g","pricing_plan_id":"free"},{"bike_id":"44461937-e383-441a-8ed9-77517a1c8c2f","system_id":"levelo_inurba_marseille","lat":43.328371,"lon":5.366909,"is_reserved":false,"is_disabled":false,"rental_uris":{"android":"levelo://app?vid=44461937-e383-441a-8ed9-77517a1c8c2f","ios":"levelo://app?vid=44461937-e383-441a-8ed9-77517a1c8c2f"},"vehicle_type_id":"4","last_reported":1685739921,"current_range_meters":20800,"station_id":"ce4bhs92rcd13ifvqi0g","pricing_plan_id":"free"},{"bike_id":"d308f696-6458-4415-97ec-0d05b605b33d","system_id":"levelo_inurba_marseille","lat":43.32834,"lon":5.36685,"is_reserved":false,"is_disabled":false,"rental_uris":{"android":"levelo://app?vid=d308f696-6458-4415-97ec-0d05b605b33d","ios":"levelo://app?vid=d308f696-6458-4415-97ec-0d05b605b33d"},"vehicle_type_id":"4","last_reported":1685739921,"current_range_meters":31200,"station_id":"ce4bhs92rcd13ifvqi0g","pricing_plan_id":"free"},{"bike_id":"0bba8e8a-f48b-4061-8d9c-e09d8e2912a6","system_id":"levelo_inurba_marseille","lat":43.29822,"lon":5.37687,"is_reserved":false,"is_disabled":false,"rental_uris":{"android":"levelo://app?vid=0bba8e8a-f48b-4061-8d9c-e09d8e2912a6","ios":"levelo://app?vid=0bba8e8a-f48b-4061-8d9c-e09d8e2912a6"},"vehicle_type_id":"4","last_reported":1685739921,"current_range_meters":0,"station_id":"","pricing_plan_id":"free"},{"bike_id":"13aa8da7-2542-4613-a6b9-f311dca7a8d9","system_id":"levelo_inurba_marseille","lat":43.29583,"lon":5.36735,"is_reserved":false,"is_disabled":false,"rental_uris":{"android":"levelo://app?vid=13aa8da7-2542-4613-a6b9-f311dca7a8d9","ios":"levelo://app?vid=13aa8da7-2542-4613-a6b9-f311dca7a8d9"},"vehicle_type_id":"4","last_reported":1685739921,"current_range_meters":14400,"station_id":"ce4bgph2rcd13ifvqc2g","pricing_plan_id":"free"},{"bike_id":"e1de62a1-50f3-4112-ab32-1ce1a7bddf3b","system_id":"levelo_inurba_marseille","lat":43.2958,"lon":5.36742,"is_reserved":false,"is_disabled":false,"rental_uris":{"android":"levelo://app?vid=e1de62a1-50f3-4112-ab32-1ce1a7bddf3b","ios":"levelo://app?vid=e1de62a1-50f3-4112-ab32-1ce1a7bddf3b"},"vehicle_type_id":"4","last_reported":1685739921,"current_range_meters":20400,"station_id":"ce4bgph2rcd13ifvqc2g","pricing_plan_id":"free"},{"bike_id":"44977cb7-5bcf-4c29-a11d-ff7f4fe64da0","system_id":"levelo_inurba_marseille","lat":43.299028,"lon":5.381509,"is_reserved":false,"is_disabled":false,"rental_uris":{"android":"levelo://app?vid=44977cb7-5bcf-4c29-a11d-ff7f4fe64da0","ios":"levelo://app?vid=44977cb7-5bcf-4c29-a11d-ff7f4fe64da0"},"vehicle_type_id":"4","last_reported":1685739921,"current_range_meters":8000,"station_id":"ce4bgj12rcd13ifvqbc0","pricing_plan_id":"free"},{"bike_id":"8c1da8ab-1391-4ff7-8ba7-aeac772fae65","system_id":"levelo_inurba_marseille","lat":43.299028,"lon":5.381509,"is_reserved":false,"is_disabled":false,"rental_uris":{"android":"levelo://app?vid=8c1da8ab-1391-4ff7-8ba7-aeac772fae65","ios":"levelo://app?vid=8c1da8ab-1391-4ff7-8ba7-aeac772fae65"},"vehicle_type_id":"4","last_reported":1685739921,"current_range_meters":0,"station_id":"ce4bgj12rcd13ifvqbc0","pricing_plan_id":"free"},{"bike_id":"42b39972-260f-40ee-a639-a6114f6ab53b","system_id":"levelo_inurba_marseille","lat":43.309589,"lon":5.390258,"is_reserved":false,"is_disabled":false,"rental_uris":{"android":"levelo://app?vid=42b39972-260f-40ee-a639-a6114f6ab53b","ios":"levelo://app?vid=42b39972-260f-40ee-a639-a6114f6ab53b"},"vehicle_type_id":"4","last_reported":1685739921,"current_range_meters":28800,"station_id":"ce4bgup2rcd13ifvqco0","pricing_plan_id":"free"},{"bike_id":"fbabeaff-3078-433f-8f6f-bdbbdd2951f6","system_id":"levelo_inurba_marseille","lat":43.309589,"lon":5.390258,"is_reserved":false,"is_disabled":false,"rental_uris":{"android":"levelo://app?vid=fbabeaff-3078-433f-8f6f-bdbbdd2951f6","ios":"levelo://app?vid=fbabeaff-3078-433f-8f6f-bdbbdd2951f6"},"vehicle_type_id":"4","last_reported":1685739921,"current_range_meters":22400,"station_id":"ce4bgup2rcd13ifvqco0","pricing_plan_id":"free"},{"bike_id":"11bb5bbc-864c-47e1-9f03-c9c194bd04b3","system_id":"levelo_inurba_marseille","lat":43.31764,"lon":5.39002,"is_reserved":false,"is_disabled":false,"rental_uris":{"android":"levelo://app?vid=11bb5bbc-864c-47e1-9f03-c9c194bd04b3","ios":"levelo://app?vid=11bb5bbc-864c-47e1-9f03-c9c194bd04b3"},"vehicle_type_id":"4","last_reported":1685739921,"current_range_meters":24400,"station_id":"ce4bhqp2rcd13ifvqhng","pricing_plan_id":"free"},{"bike_id":"a6489762-53c7-44a0-b97d-1b44c1a5b8b0","system_id":"levelo_inurba_marseille","lat":43.299724,"lon":5.384848,"is_reserved":false,"is_disabled":false,"rental_uris":{"android":"levelo://app?vid=a6489762-53c7-44a0-b97d-1b44c1a5b8b0","ios":"levelo://app?vid=a6489762-53c7-44a0-b97d-1b44c1a5b8b0"},"vehicle_type_id":"4","last_reported":1685739921,"current_range_meters":12000,"station_id":"ce4bgj92rcd13ifvqbd0","pricing_plan_id":"free"},{"bike_id":"d321ec47-f166-4381-afa6-7bf9afc7eee8","system_id":"levelo_inurba_marseille","lat":43.32367,"lon":5.388836,"is_reserved":false,"is_disabled":false,"rental_uris":{"android":"levelo://app?vid=d321ec47-f166-4381-afa6-7bf9afc7eee8","ios":"levelo://app?vid=d321ec47-f166-4381-afa6-7bf9afc7eee8"},"vehicle_type_id":"4","last_reported":1685739921,"current_range_meters":30400,"station_id":"ce4bhqp2rcd13ifvqhog","pricing_plan_id":"free"},{"bike_id":"2bf9f571-8ae5-431e-aedf-1c815125cefd","system_id":"levelo_inurba_marseille","lat":43.32368,"lon":5.38882,"is_reserved":false,"is_disabled":false,"rental_uris":{"android":"levelo://app?vid=2bf9f571-8ae5-431e-aedf-1c815125cefd","ios":"levelo://app?vid=2bf9f571-8ae5-431e-aedf-1c815125cefd"},"vehicle_type_id":"4","last_reported":1685739921,"current_range_meters":24800,"station_id":"ce4bhqp2rcd13ifvqhog","pricing_plan_id":"free"},{"bike_id":"eb500a68-299c-4bfe-996b-c50aa893b955","system_id":"levelo_inurba_marseille","lat":43.32367,"lon":5.388836,"is_reserved":false,"is_disabled":false,"rental_uris":{"android":"levelo://app?vid=eb500a68-299c-4bfe-996b-c50aa893b955","ios":"levelo://app?vid=eb500a68-299c-4bfe-996b-c50aa893b955"},"vehicle_type_id":"4","last_reported":1685739921,"current_range_meters":16800,"station_id":"ce4bhqp2rcd13ifvqhog","pricing_plan_id":"free"},{"bike_id":"90bbfd03-d00c-4933-b38d-99b5da852988","system_id":"levelo_inurba_marseille","lat":43.32367,"lon":5.388836,"is_reserved":false,"is_disabled":false,"rental_uris":{"android":"levelo://app?vid=90bbfd03-d00c-4933-b38d-99b5da852988","ios":"levelo://app?vid=90bbfd03-d00c-4933-b38d-99b5da852988"},"vehicle_type_id":"4","last_reported":1685739921,"current_range_meters":31200,"station_id":"ce4bhqp2rcd13ifvqhog","pricing_plan_id":"free"},{"bike_id":"d9b3487e-4661-4b3b-a198-2212de300ca1","system_id":"levelo_inurba_marseille","lat":43.323671,"lon":5.388836,"is_reserved":false,"is_disabled":false,"rental_uris":{"android":"levelo://app?vid=d9b3487e-4661-4b3b-a198-2212de300ca1","ios":"levelo://app?vid=d9b3487e-4661-4b3b-a198-2212de300ca1"},"vehicle_type_id":"4","last_reported":1685739921,"current_range_meters":31200,"station_id":"ce4bhqp2rcd13ifvqhog","pricing_plan_id":"free"},{"bike_id":"c07fe0f2-772a-435f-9629-10108908cbeb","system_id":"levelo_inurba_marseille","lat":43.32367,"lon":5.388836,"is_reserved":false,"is_disabled":false,"rental_uris":{"android":"levelo://app?vid=c07fe0f2-772a-435f-9629-10108908cbeb","ios":"levelo://app?vid=c07fe0f2-772a-435f-9629-10108908cbeb"},"vehicle_type_id":"4","last_reported":1685739921,"current_range_meters":31200,"station_id":"ce4bhqp2rcd13ifvqhog","pricing_plan_id":"free"},{"bike_id":"0c7ce3fd-9fe0-458e-9687-20b832dfee04","system_id":"levelo_inurba_marseille","lat":43.32367,"lon":5.388836,"is_reserved":false,"is_disabled":false,"rental_uris":{"android":"levelo://app?vid=0c7ce3fd-9fe0-458e-9687-20b832dfee04","ios":"levelo://app?vid=0c7ce3fd-9fe0-458e-9687-20b832dfee04"},"vehicle_type_id":"4","last_reported":1685739921,"current_range_meters":16000,"station_id":"ce4bhqp2rcd13ifvqhog","pricing_plan_id":"free"},{"bike_id":"960eec46-5647-43ce-b43c-39221f54dcf6","system_id":"levelo_inurba_marseille","lat":43.292749,"lon":5.368402,"is_reserved":false,"is_disabled":false,"rental_uris":{"android":"levelo://app?vid=960eec46-5647-43ce-b43c-39221f54dcf6","ios":"levelo://app?vid=960eec46-5647-43ce-b43c-39221f54dcf6"},"vehicle_type_id":"4","last_reported":1685739921,"current_range_meters":0,"station_id":"ce4bhbp2rcd13ifvqesg","pricing_plan_id":"free"},{"bike_id":"4130752f-1e13-49f7-a74c-4f2b5acd12fa","system_id":"levelo_inurba_marseille","lat":43.292749,"lon":5.368402,"is_reserved":false,"is_disabled":false,"rental_uris":{"android":"levelo://app?vid=4130752f-1e13-49f7-a74c-4f2b5acd12fa","ios":"levelo://app?vid=4130752f-1e13-49f7-a74c-4f2b5acd12fa"},"vehicle_type_id":"4","last_reported":1685739921,"current_range_meters":17200,"station_id":"ce4bhbp2rcd13ifvqesg","pricing_plan_id":"free"},{"bike_id":"24ae077c-eadb-4e3d-ba7a-034c63189534","system_id":"levelo_inurba_marseille","lat":43.2936,"lon":5.37835,"is_reserved":false,"is_disabled":false,"rental_uris":{"android":"levelo://app?vid=24ae077c-eadb-4e3d-ba7a-034c63189534","ios":"levelo://app?vid=24ae077c-eadb-4e3d-ba7a-034c63189534"},"vehicle_type_id":"4","last_reported":1685739921,"current_range_meters":27600,"station_id":"ce4bgjh2rcd13ifvqbf0","pricing_plan_id":"free"},{"bike_id":"b2114660-d009-454b-a5cb-541330ff193b","system_id":"levelo_inurba_marseille","lat":43.302992,"lon":5.392136,"is_reserved":false,"is_disabled":false,"rental_uris":{"android":"levelo://app?vid=b2114660-d009-454b-a5cb-541330ff193b","ios":"levelo://app?vid=b2114660-d009-454b-a5cb-541330ff193b"},"vehicle_type_id":"4","last_reported":1685739921,"current_range_meters":0,"station_id":"ce4bgkh2rcd13ifvqbk0","pricing_plan_id":"free"},{"bike_id":"7490636d-3350-44b5-9571-76dcdaedb50b","system_id":"levelo_inurba_marseille","lat":43.2936,"lon":5.37835,"is_reserved":false,"is_disabled":false,"rental_uris":{"android":"levelo://app?vid=7490636d-3350-44b5-9571-76dcdaedb50b","ios":"levelo://app?vid=7490636d-3350-44b5-9571-76dcdaedb50b"},"vehicle_type_id":"4","last_reported":1685739921,"current_range_meters":1200,"station_id":"ce4bgjh2rcd13ifvqbf0","pricing_plan_id":"free"},{"bike_id":"097f983f-c8c9-42c5-a9a0-17da2db92da0","system_id":"levelo_inurba_marseille","lat":43.305994,"lon":5.393687,"is_reserved":false,"is_disabled":false,"rental_uris":{"android":"levelo://app?vid=097f983f-c8c9-42c5-a9a0-17da2db92da0","ios":"levelo://app?vid=097f983f-c8c9-42c5-a9a0-17da2db92da0"},"vehicle_type_id":"4","last_reported":1685739921,"current_range_meters":4000,"station_id":"ce4bh0p2rcd13ifvqd80","pricing_plan_id":"free"},{"bike_id":"01d7ab6c-5ae7-4f0e-9b64-e8e19c646768","system_id":"levelo_inurba_marseille","lat":43.29888,"lon":5.38898,"is_reserved":false,"is_disabled":false,"rental_uris":{"android":"levelo://app?vid=01d7ab6c-5ae7-4f0e-9b64-e8e19c646768","ios":"levelo://app?vid=01d7ab6c-5ae7-4f0e-9b64-e8e19c646768"},"vehicle_type_id":"4","last_reported":1685739921,"current_range_meters":5200,"station_id":"ce4bh392rcd13ifvqdl0","pricing_plan_id":"free"},{"bike_id":"1e00111d-a5b5-4eb1-975f-a031b81fe04b","system_id":"levelo_inurba_marseille","lat":43.291671,"lon":5.371575,"is_reserved":false,"is_disabled":false,"rental_uris":{"android":"levelo://app?vid=1e00111d-a5b5-4eb1-975f-a031b81fe04b","ios":"levelo://app?vid=1e00111d-a5b5-4eb1-975f-a031b81fe04b"},"vehicle_type_id":"4","last_reported":1685739921,"current_range_meters":0,"station_id":"ce4bha92rcd13ifvqeh0","pricing_plan_id":"free"},{"bike_id":"5a660338-3281-43aa-affc-986af7b1f5e7","system_id":"levelo_inurba_marseille","lat":43.31928,"lon":5.39548,"is_reserved":false,"is_disabled":false,"rental_uris":{"android":"levelo://app?vid=5a660338-3281-43aa-affc-986af7b1f5e7","ios":"levelo://app?vid=5a660338-3281-43aa-affc-986af7b1f5e7"},"vehicle_type_id":"4","last_reported":1685739921,"current_range_meters":1600,"station_id":"","pricing_plan_id":"free"},{"bike_id":"94a0100b-6a8c-4bb7-87df-360a51af980a","system_id":"levelo_inurba_marseille","lat":43.309038,"lon":5.396546,"is_reserved":false,"is_disabled":false,"rental_uris":{"android":"levelo://app?vid=94a0100b-6a8c-4bb7-87df-360a51af980a","ios":"levelo://app?vid=94a0100b-6a8c-4bb7-87df-360a51af980a"},"vehicle_type_id":"4","last_reported":1685739921,"current_range_meters":15200,"station_id":"ce4bh012rcd13ifvqcv0","pricing_plan_id":"free"},{"bike_id":"e79598f5-7a3d-4734-8fa1-aa447d4c1019","system_id":"levelo_inurba_marseille","lat":43.313291,"lon":5.396838,"is_reserved":false,"is_disabled":false,"rental_uris":{"android":"levelo://app?vid=e79598f5-7a3d-4734-8fa1-aa447d4c1019","ios":"levelo://app?vid=e79598f5-7a3d-4734-8fa1-aa447d4c1019"},"vehicle_type_id":"4","last_reported":1685739921,"current_range_meters":3600,"station_id":"ce4bgvp2rcd13ifvqcu0","pricing_plan_id":"free"},{"bike_id":"d1a6650d-935a-419a-a873-62e13d60b6c2","system_id":"levelo_inurba_marseille","lat":43.309038,"lon":5.396546,"is_reserved":false,"is_disabled":false,"rental_uris":{"android":"levelo://app?vid=d1a6650d-935a-419a-a873-62e13d60b6c2","ios":"levelo://app?vid=d1a6650d-935a-419a-a873-62e13d60b6c2"},"vehicle_type_id":"4","last_reported":1685739921,"current_range_meters":13600,"station_id":"ce4bh012rcd13ifvqcv0","pricing_plan_id":"free"},{"bike_id":"59ff721e-72f2-41a0-8530-1e486b804ac0","system_id":"levelo_inurba_marseille","lat":43.31329,"lon":5.39694,"is_reserved":false,"is_disabled":false,"rental_uris":{"android":"levelo://app?vid=59ff721e-72f2-41a0-8530-1e486b804ac0","ios":"levelo://app?vid=59ff721e-72f2-41a0-8530-1e486b804ac0"},"vehicle_type_id":"4","last_reported":1685739921,"current_range_meters":0,"station_id":"ce4bgvp2rcd13ifvqcu0","pricing_plan_id":"free"},{"bike_id":"96f50266-9ac9-4f90-a5c3-24814eefa4da","system_id":"levelo_inurba_marseille","lat":43.31323,"lon":5.39696,"is_reserved":false,"is_disabled":false,"rental_uris":{"android":"levelo://app?vid=96f50266-9ac9-4f90-a5c3-24814eefa4da","ios":"levelo://app?vid=96f50266-9ac9-4f90-a5c3-24814eefa4da"},"vehicle_type_id":"4","last_reported":1685739921,"current_range_meters":12800,"station_id":"ce4bgvp2rcd13ifvqcu0","pricing_plan_id":"free"},{"bike_id":"abae94e5-b10b-4018-8f9a-f2e7577aaac4","system_id":"levelo_inurba_marseille","lat":43.309038,"lon":5.396546,"is_reserved":false,"is_disabled":false,"rental_uris":{"android":"levelo://app?vid=abae94e5-b10b-4018-8f9a-f2e7577aaac4","ios":"levelo://app?vid=abae94e5-b10b-4018-8f9a-f2e7577aaac4"},"vehicle_type_id":"4","last_reported":1685739921,"current_range_meters":16400,"station_id":"ce4bh012rcd13ifvqcv0","pricing_plan_id":"free"},{"bike_id":"0ee69443-74f9-4526-9d7d-8ca3fea3e9dc","system_id":"levelo_inurba_marseille","lat":43.29528,"lon":5.38539,"is_reserved":false,"is_disabled":false,"rental_uris":{"android":"levelo://app?vid=0ee69443-74f9-4526-9d7d-8ca3fea3e9dc","ios":"levelo://app?vid=0ee69443-74f9-4526-9d7d-8ca3fea3e9dc"},"vehicle_type_id":"4","last_reported":1685739921,"current_range_meters":26400,"station_id":"ce4bgih2rcd13ifvqba0","pricing_plan_id":"free"},{"bike_id":"9a786914-56e6-442d-aec8-07aea80b1aab","system_id":"levelo_inurba_marseille","lat":43.29529,"lon":5.385581,"is_reserved":false,"is_disabled":false,"rental_uris":{"android":"levelo://app?vid=9a786914-56e6-442d-aec8-07aea80b1aab","ios":"levelo://app?vid=9a786914-56e6-442d-aec8-07aea80b1aab"},"vehicle_type_id":"4","last_reported":1685739921,"current_range_meters":0,"station_id":"ce4bgih2rcd13ifvqba0","pricing_plan_id":"free"},{"bike_id":"a22762c2-871b-4e0d-af58-acdddbfad40d","system_id":"levelo_inurba_marseille","lat":43.295274,"lon":5.385449,"is_reserved":false,"is_disabled":false,"rental_uris":{"android":"levelo://app?vid=a22762c2-871b-4e0d-af58-acdddbfad40d","ios":"levelo://app?vid=a22762c2-871b-4e0d-af58-acdddbfad40d"},"vehicle_type_id":"4","last_reported":1685739921,"current_range_meters":5200,"station_id":"","pricing_plan_id":"free"},{"bike_id":"f2e37959-97bf-4f02-86be-9b3da3b28036","system_id":"levelo_inurba_marseille","lat":43.302992,"lon":5.392136,"is_reserved":false,"is_disabled":false,"rental_uris":{"android":"levelo://app?vid=f2e37959-97bf-4f02-86be-9b3da3b28036","ios":"levelo://app?vid=f2e37959-97bf-4f02-86be-9b3da3b28036"},"vehicle_type_id":"4","last_reported":1685739921,"current_range_meters":8800,"station_id":"ce4bgkh2rcd13ifvqbk0","pricing_plan_id":"free"},{"bike_id":"a1d588f9-8125-4a8f-9f59-c1cf1bdc5430","system_id":"levelo_inurba_marseille","lat":43.32817,"lon":5.38906,"is_reserved":false,"is_disabled":false,"rental_uris":{"android":"levelo://app?vid=a1d588f9-8125-4a8f-9f59-c1cf1bdc5430","ios":"levelo://app?vid=a1d588f9-8125-4a8f-9f59-c1cf1bdc5430"},"vehicle_type_id":"4","last_reported":1685739921,"current_range_meters":19600,"station_id":"","pricing_plan_id":"free"},{"bike_id":"6329b933-ccce-46ac-8329-7916355c352b","system_id":"levelo_inurba_marseille","lat":43.29062,"lon":5.37163,"is_reserved":false,"is_disabled":false,"rental_uris":{"android":"levelo://app?vid=6329b933-ccce-46ac-8329-7916355c352b","ios":"levelo://app?vid=6329b933-ccce-46ac-8329-7916355c352b"},"vehicle_type_id":"4","last_reported":1685739921,"current_range_meters":0,"station_id":"ce4bh5p2rcd13ifvqe4g","pricing_plan_id":"free"},{"bike_id":"58f60dfb-34b9-43a9-b037-7f7575fddaa8","system_id":"levelo_inurba_marseille","lat":43.30597,"lon":5.39683,"is_reserved":false,"is_disabled":false,"rental_uris":{"android":"levelo://app?vid=58f60dfb-34b9-43a9-b037-7f7575fddaa8","ios":"levelo://app?vid=58f60dfb-34b9-43a9-b037-7f7575fddaa8"},"vehicle_type_id":"4","last_reported":1685739921,"current_range_meters":2800,"station_id":"","pricing_plan_id":"free"},{"bike_id":"3b366eec-8c60-48b8-9335-35aaee5b7cde","system_id":"levelo_inurba_marseille","lat":43.294162,"lon":5.386292,"is_reserved":false,"is_disabled":false,"rental_uris":{"android":"levelo://app?vid=3b366eec-8c60-48b8-9335-35aaee5b7cde","ios":"levelo://app?vid=3b366eec-8c60-48b8-9335-35aaee5b7cde"},"vehicle_type_id":"4","last_reported":1685739921,"current_range_meters":18000,"station_id":"ce4bh2h2rcd13ifvqdh0","pricing_plan_id":"free"},{"bike_id":"a3637349-1f11-46b6-bef8-18dd02f83b67","system_id":"levelo_inurba_marseille","lat":43.292644,"lon":5.384257,"is_reserved":false,"is_disabled":false,"rental_uris":{"android":"levelo://app?vid=a3637349-1f11-46b6-bef8-18dd02f83b67","ios":"levelo://app?vid=a3637349-1f11-46b6-bef8-18dd02f83b67"},"vehicle_type_id":"4","last_reported":1685739921,"current_range_meters":9600,"station_id":"ce4bh692rcd13ifvqea0","pricing_plan_id":"free"},{"bike_id":"f828ff48-d8b3-472b-8dd8-e8b307f05059","system_id":"levelo_inurba_marseille","lat":43.292644,"lon":5.384257,"is_reserved":false,"is_disabled":false,"rental_uris":{"android":"levelo://app?vid=f828ff48-d8b3-472b-8dd8-e8b307f05059","ios":"levelo://app?vid=f828ff48-d8b3-472b-8dd8-e8b307f05059"},"vehicle_type_id":"4","last_reported":1685739921,"current_range_meters":0,"station_id":"ce4bh692rcd13ifvqea0","pricing_plan_id":"free"},{"bike_id":"e9ba406b-00fa-49ca-966e-295433b5de60","system_id":"levelo_inurba_marseille","lat":43.304296,"lon":5.397513,"is_reserved":false,"is_disabled":false,"rental_uris":{"android":"levelo://app?vid=e9ba406b-00fa-49ca-966e-295433b5de60","ios":"levelo://app?vid=e9ba406b-00fa-49ca-966e-295433b5de60"},"vehicle_type_id":"4","last_reported":1685739921,"current_range_meters":2800,"station_id":"ce4bh092rcd13ifvqd20","pricing_plan_id":"free"},{"bike_id":"450c77a3-3466-4f5a-940c-3c2ea706a125","system_id":"levelo_inurba_marseille","lat":43.292642,"lon":5.384254,"is_reserved":false,"is_disabled":false,"rental_uris":{"android":"levelo://app?vid=450c77a3-3466-4f5a-940c-3c2ea706a125","ios":"levelo://app?vid=450c77a3-3466-4f5a-940c-3c2ea706a125"},"vehicle_type_id":"4","last_reported":1685739921,"current_range_meters":400,"station_id":"ce4bh692rcd13ifvqea0","pricing_plan_id":"free"},{"bike_id":"493b471f-8ac0-4c06-8626-4a067aadf2ea","system_id":"levelo_inurba_marseille","lat":43.292642,"lon":5.384254,"is_reserved":false,"is_disabled":false,"rental_uris":{"android":"levelo://app?vid=493b471f-8ac0-4c06-8626-4a067aadf2ea","ios":"levelo://app?vid=493b471f-8ac0-4c06-8626-4a067aadf2ea"},"vehicle_type_id":"4","last_reported":1685739921,"current_range_meters":5200,"station_id":"ce4bh692rcd13ifvqea0","pricing_plan_id":"free"},{"bike_id":"d3ef6d61-5413-4254-9fa6-8bb1cfe57530","system_id":"levelo_inurba_marseille","lat":43.292642,"lon":5.384254,"is_reserved":false,"is_disabled":false,"rental_uris":{"android":"levelo://app?vid=d3ef6d61-5413-4254-9fa6-8bb1cfe57530","ios":"levelo://app?vid=d3ef6d61-5413-4254-9fa6-8bb1cfe57530"},"vehicle_type_id":"4","last_reported":1685739921,"current_range_meters":24800,"station_id":"ce4bh692rcd13ifvqea0","pricing_plan_id":"free"},{"bike_id":"a05aa7b2-65ae-4c00-9ac7-36200056da53","system_id":"levelo_inurba_marseille","lat":43.33038,"lon":5.38922,"is_reserved":false,"is_disabled":false,"rental_uris":{"android":"levelo://app?vid=a05aa7b2-65ae-4c00-9ac7-36200056da53","ios":"levelo://app?vid=a05aa7b2-65ae-4c00-9ac7-36200056da53"},"vehicle_type_id":"4","last_reported":1685739921,"current_range_meters":31200,"station_id":"ce4bhr92rcd13ifvqhrg","pricing_plan_id":"free"},{"bike_id":"0a8aba60-b51b-427d-be66-8709066b23d1","system_id":"levelo_inurba_marseille","lat":43.33046,"lon":5.38915,"is_reserved":false,"is_disabled":false,"rental_uris":{"android":"levelo://app?vid=0a8aba60-b51b-427d-be66-8709066b23d1","ios":"levelo://app?vid=0a8aba60-b51b-427d-be66-8709066b23d1"},"vehicle_type_id":"4","last_reported":1685739921,"current_range_meters":31200,"station_id":"ce4bhr92rcd13ifvqhrg","pricing_plan_id":"free"},{"bike_id":"2364282a-cb9d-46e5-8a93-f3855a133753","system_id":"levelo_inurba_marseille","lat":43.330427,"lon":5.38921,"is_reserved":false,"is_disabled":false,"rental_uris":{"android":"levelo://app?vid=2364282a-cb9d-46e5-8a93-f3855a133753","ios":"levelo://app?vid=2364282a-cb9d-46e5-8a93-f3855a133753"},"vehicle_type_id":"4","last_reported":1685739921,"current_range_meters":22800,"station_id":"ce4bhr92rcd13ifvqhrg","pricing_plan_id":"free"},{"bike_id":"06e9957f-e8d1-43f8-82d7-4a09aba1bdc7","system_id":"levelo_inurba_marseille","lat":43.295169,"lon":5.390426,"is_reserved":false,"is_disabled":false,"rental_uris":{"android":"levelo://app?vid=06e9957f-e8d1-43f8-82d7-4a09aba1bdc7","ios":"levelo://app?vid=06e9957f-e8d1-43f8-82d7-4a09aba1bdc7"},"vehicle_type_id":"4","last_reported":1685739921,"current_range_meters":0,"station_id":"ce4bh3p2rcd13ifvqdp0","pricing_plan_id":"free"},{"bike_id":"c19b7670-3b55-4009-987a-cc1d0765ac42","system_id":"levelo_inurba_marseille","lat":43.295169,"lon":5.390426,"is_reserved":false,"is_disabled":false,"rental_uris":{"android":"levelo://app?vid=c19b7670-3b55-4009-987a-cc1d0765ac42","ios":"levelo://app?vid=c19b7670-3b55-4009-987a-cc1d0765ac42"},"vehicle_type_id":"4","last_reported":1685739921,"current_range_meters":1600,"station_id":"ce4bh3p2rcd13ifvqdp0","pricing_plan_id":"free"},{"bike_id":"3676c1b6-8d66-4e51-b034-48e1c1e91810","system_id":"levelo_inurba_marseille","lat":43.292644,"lon":5.384257,"is_reserved":false,"is_disabled":false,"rental_uris":{"android":"levelo://app?vid=3676c1b6-8d66-4e51-b034-48e1c1e91810","ios":"levelo://app?vid=3676c1b6-8d66-4e51-b034-48e1c1e91810"},"vehicle_type_id":"4","last_reported":1685739921,"current_range_meters":9200,"station_id":"ce4bh692rcd13ifvqea0","pricing_plan_id":"free"},{"bike_id":"00d13861-64b7-4dbb-be77-b182b9146321","system_id":"levelo_inurba_marseille","lat":43.30282,"lon":5.39868,"is_reserved":false,"is_disabled":false,"rental_uris":{"android":"levelo://app?vid=00d13861-64b7-4dbb-be77-b182b9146321","ios":"levelo://app?vid=00d13861-64b7-4dbb-be77-b182b9146321"},"vehicle_type_id":"4","last_reported":1685739921,"current_range_meters":9600,"station_id":"ce4bh092rcd13ifvqd20","pricing_plan_id":"free"},{"bike_id":"a8292916-21a7-416a-b6e6-39c5e96fa536","system_id":"levelo_inurba_marseille","lat":43.30938,"lon":5.40141,"is_reserved":false,"is_disabled":false,"rental_uris":{"android":"levelo://app?vid=a8292916-21a7-416a-b6e6-39c5e96fa536","ios":"levelo://app?vid=a8292916-21a7-416a-b6e6-39c5e96fa536"},"vehicle_type_id":"4","last_reported":1685739921,"current_range_meters":6400,"station_id":"","pricing_plan_id":"free"},{"bike_id":"50b1b457-64ff-454b-ba1d-356e92ae89a8","system_id":"levelo_inurba_marseille","lat":43.33773,"lon":5.37439,"is_reserved":false,"is_disabled":false,"rental_uris":{"android":"levelo://app?vid=50b1b457-64ff-454b-ba1d-356e92ae89a8","ios":"levelo://app?vid=50b1b457-64ff-454b-ba1d-356e92ae89a8"},"vehicle_type_id":"4","last_reported":1685739921,"current_range_meters":27600,"station_id":"","pricing_plan_id":"free"},{"bike_id":"cf0caa37-cec8-408b-98f7-37211a80813c","system_id":"levelo_inurba_marseille","lat":43.33801,"lon":5.3745,"is_reserved":false,"is_disabled":false,"rental_uris":{"android":"levelo://app?vid=cf0caa37-cec8-408b-98f7-37211a80813c","ios":"levelo://app?vid=cf0caa37-cec8-408b-98f7-37211a80813c"},"vehicle_type_id":"4","last_reported":1685739921,"current_range_meters":26400,"station_id":"","pricing_plan_id":"free"},{"bike_id":"ca6ad71c-c6cd-4e45-ab95-eb5959d2d1a4","system_id":"levelo_inurba_marseille","lat":43.276769,"lon":5.388787,"is_reserved":false,"is_disabled":false,"rental_uris":{"android":"levelo://app?vid=ca6ad71c-c6cd-4e45-ab95-eb5959d2d1a4","ios":"levelo://app?vid=ca6ad71c-c6cd-4e45-ab95-eb5959d2d1a4"},"vehicle_type_id":"4","last_reported":1685739921,"current_range_meters":2400,"station_id":"ce4bhi12rcd13ifvqfo0","pricing_plan_id":"free"},{"bike_id":"1291281c-7acf-4ec3-84ef-209abb2795a3","system_id":"levelo_inurba_marseille","lat":43.30411,"lon":5.40101,"is_reserved":false,"is_disabled":false,"rental_uris":{"android":"levelo://app?vid=1291281c-7acf-4ec3-84ef-209abb2795a3","ios":"levelo://app?vid=1291281c-7acf-4ec3-84ef-209abb2795a3"},"vehicle_type_id":"4","last_reported":1685739921,"current_range_meters":3600,"station_id":"","pricing_plan_id":"free"},{"bike_id":"789f1bfc-a062-43ff-b409-c09b697a8635","system_id":"levelo_inurba_marseille","lat":43.28697,"lon":5.3739,"is_reserved":false,"is_disabled":false,"rental_uris":{"android":"levelo://app?vid=789f1bfc-a062-43ff-b409-c09b697a8635","ios":"levelo://app?vid=789f1bfc-a062-43ff-b409-c09b697a8635"},"vehicle_type_id":"4","last_reported":1685739921,"current_range_meters":10800,"station_id":"","pricing_plan_id":"free"},{"bike_id":"989bc882-f145-4bad-82be-ef8f0e6e02f0","system_id":"levelo_inurba_marseille","lat":43.295194,"lon":5.39397,"is_reserved":false,"is_disabled":false,"rental_uris":{"android":"levelo://app?vid=989bc882-f145-4bad-82be-ef8f0e6e02f0","ios":"levelo://app?vid=989bc882-f145-4bad-82be-ef8f0e6e02f0"},"vehicle_type_id":"4","last_reported":1685739921,"current_range_meters":0,"station_id":"ce4bh292rcd13ifvqdf0","pricing_plan_id":"free"},{"bike_id":"eb147574-c0e9-4627-86ee-583f7d56740e","system_id":"levelo_inurba_marseille","lat":43.295194,"lon":5.39397,"is_reserved":false,"is_disabled":false,"rental_uris":{"android":"levelo://app?vid=eb147574-c0e9-4627-86ee-583f7d56740e","ios":"levelo://app?vid=eb147574-c0e9-4627-86ee-583f7d56740e"},"vehicle_type_id":"4","last_reported":1685739921,"current_range_meters":0,"station_id":"ce4bh292rcd13ifvqdf0","pricing_plan_id":"free"},{"bike_id":"4cf0f580-fd8d-4b8b-a72b-f0b57427c6b1","system_id":"levelo_inurba_marseille","lat":43.290345,"lon":5.38646,"is_reserved":false,"is_disabled":false,"rental_uris":{"android":"levelo://app?vid=4cf0f580-fd8d-4b8b-a72b-f0b57427c6b1","ios":"levelo://app?vid=4cf0f580-fd8d-4b8b-a72b-f0b57427c6b1"},"vehicle_type_id":"4","last_reported":1685739921,"current_range_meters":5200,"station_id":"ce4bh4p2rcd13ifvqe0g","pricing_plan_id":"free"},{"bike_id":"a669cc2d-fb16-49e5-9ea7-8a663e1dd3ec","system_id":"levelo_inurba_marseille","lat":43.290345,"lon":5.38646,"is_reserved":false,"is_disabled":false,"rental_uris":{"android":"levelo://app?vid=a669cc2d-fb16-49e5-9ea7-8a663e1dd3ec","ios":"levelo://app?vid=a669cc2d-fb16-49e5-9ea7-8a663e1dd3ec"},"vehicle_type_id":"4","last_reported":1685739921,"current_range_meters":0,"station_id":"ce4bh4p2rcd13ifvqe0g","pricing_plan_id":"free"},{"bike_id":"edde8d86-e324-4b86-a668-ae6cf70b971d","system_id":"levelo_inurba_marseille","lat":43.29026,"lon":5.38645,"is_reserved":false,"is_disabled":false,"rental_uris":{"android":"levelo://app?vid=edde8d86-e324-4b86-a668-ae6cf70b971d","ios":"levelo://app?vid=edde8d86-e324-4b86-a668-ae6cf70b971d"},"vehicle_type_id":"4","last_reported":1685739921,"current_range_meters":2400,"station_id":"","pricing_plan_id":"free"},{"bike_id":"05ed1a5c-d127-440e-89de-c5203e744228","system_id":"levelo_inurba_marseille","lat":43.302759,"lon":5.400793,"is_reserved":false,"is_disabled":false,"rental_uris":{"android":"levelo://app?vid=05ed1a5c-d127-440e-89de-c5203e744228","ios":"levelo://app?vid=05ed1a5c-d127-440e-89de-c5203e744228"},"vehicle_type_id":"4","last_reported":1685739921,"current_range_meters":30400,"station_id":"ce4bgvh2rcd13ifvqcs0","pricing_plan_id":"free"},{"bike_id":"83d2e105-a745-4d54-b063-9a16623baeeb","system_id":"levelo_inurba_marseille","lat":43.286039,"lon":5.370679,"is_reserved":false,"is_disabled":false,"rental_uris":{"android":"levelo://app?vid=83d2e105-a745-4d54-b063-9a16623baeeb","ios":"levelo://app?vid=83d2e105-a745-4d54-b063-9a16623baeeb"},"vehicle_type_id":"4","last_reported":1685739921,"current_range_meters":12400,"station_id":"ce4bht12rcd13ifvqi60","pricing_plan_id":"free"},{"bike_id":"5e464122-f472-45e7-9ab4-522964c006d6","system_id":"levelo_inurba_marseille","lat":43.288501,"lon":5.393087,"is_reserved":false,"is_disabled":false,"rental_uris":{"android":"levelo://app?vid=5e464122-f472-45e7-9ab4-522964c006d6","ios":"levelo://app?vid=5e464122-f472-45e7-9ab4-522964c006d6"},"vehicle_type_id":"4","last_reported":1685739921,"current_range_meters":0,"station_id":"ce4bh2p2rcd13ifvqdi0","pricing_plan_id":"free"},{"bike_id":"0ab2bb99-5423-4870-b6db-949f0e3d1789","system_id":"levelo_inurba_marseille","lat":43.28463,"lon":5.35892,"is_reserved":false,"is_disabled":false,"rental_uris":{"android":"levelo://app?vid=0ab2bb99-5423-4870-b6db-949f0e3d1789","ios":"levelo://app?vid=0ab2bb99-5423-4870-b6db-949f0e3d1789"},"vehicle_type_id":"4","last_reported":1685739921,"current_range_meters":0,"station_id":"ce4bhah2rcd13ifvqei0","pricing_plan_id":"free"},{"bike_id":"3e296c66-79af-4c1b-b252-6d89a5bc0e62","system_id":"levelo_inurba_marseille","lat":43.284534,"lon":5.358662,"is_reserved":false,"is_disabled":false,"rental_uris":{"android":"levelo://app?vid=3e296c66-79af-4c1b-b252-6d89a5bc0e62","ios":"levelo://app?vid=3e296c66-79af-4c1b-b252-6d89a5bc0e62"},"vehicle_type_id":"4","last_reported":1685739921,"current_range_meters":0,"station_id":"ce4bhah2rcd13ifvqei0","pricing_plan_id":"free"},{"bike_id":"b205e703-9cc6-479d-b47b-dcec15459f4d","system_id":"levelo_inurba_marseille","lat":43.32699,"lon":5.40374,"is_reserved":false,"is_disabled":false,"rental_uris":{"android":"levelo://app?vid=b205e703-9cc6-479d-b47b-dcec15459f4d","ios":"levelo://app?vid=b205e703-9cc6-479d-b47b-dcec15459f4d"},"vehicle_type_id":"4","last_reported":1685739921,"current_range_meters":20000,"station_id":"","pricing_plan_id":"free"},{"bike_id":"61cf99f5-e338-4980-9f86-7b115e7516a1","system_id":"levelo_inurba_marseille","lat":43.284765,"lon":5.384156,"is_reserved":false,"is_disabled":false,"rental_uris":{"android":"levelo://app?vid=61cf99f5-e338-4980-9f86-7b115e7516a1","ios":"levelo://app?vid=61cf99f5-e338-4980-9f86-7b115e7516a1"},"vehicle_type_id":"4","last_reported":1685739921,"current_range_meters":3600,"station_id":"","pricing_plan_id":"free"},{"bike_id":"fc514cac-940f-41f0-8b20-a5d3b118cf4d","system_id":"levelo_inurba_marseille","lat":43.284793,"lon":5.384119,"is_reserved":false,"is_disabled":false,"rental_uris":{"android":"levelo://app?vid=fc514cac-940f-41f0-8b20-a5d3b118cf4d","ios":"levelo://app?vid=fc514cac-940f-41f0-8b20-a5d3b118cf4d"},"vehicle_type_id":"4","last_reported":1685739921,"current_range_meters":0,"station_id":"ce4bh512rcd13ifvqe3g","pricing_plan_id":"free"},{"bike_id":"a37e87ec-8582-465d-bdff-4f28ad25165c","system_id":"levelo_inurba_marseille","lat":43.2885,"lon":5.39304,"is_reserved":false,"is_disabled":false,"rental_uris":{"android":"levelo://app?vid=a37e87ec-8582-465d-bdff-4f28ad25165c","ios":"levelo://app?vid=a37e87ec-8582-465d-bdff-4f28ad25165c"},"vehicle_type_id":"4","last_reported":1685739921,"current_range_meters":7200,"station_id":"ce4bh2p2rcd13ifvqdi0","pricing_plan_id":"free"},{"bike_id":"7f667089-ad2a-4e3c-817b-02594c0fe89c","system_id":"levelo_inurba_marseille","lat":43.288501,"lon":5.393087,"is_reserved":false,"is_disabled":false,"rental_uris":{"android":"levelo://app?vid=7f667089-ad2a-4e3c-817b-02594c0fe89c","ios":"levelo://app?vid=7f667089-ad2a-4e3c-817b-02594c0fe89c"},"vehicle_type_id":"4","last_reported":1685739921,"current_range_meters":18400,"station_id":"ce4bh2p2rcd13ifvqdi0","pricing_plan_id":"free"},{"bike_id":"dc3adcdc-4d19-4805-82ad-3defe05c051c","system_id":"levelo_inurba_marseille","lat":43.288497,"lon":5.393089,"is_reserved":false,"is_disabled":false,"rental_uris":{"android":"levelo://app?vid=dc3adcdc-4d19-4805-82ad-3defe05c051c","ios":"levelo://app?vid=dc3adcdc-4d19-4805-82ad-3defe05c051c"},"vehicle_type_id":"4","last_reported":1685739921,"current_range_meters":1600,"station_id":"ce4bh2p2rcd13ifvqdi0","pricing_plan_id":"free"},{"bike_id":"4d5e1d7a-4b22-4630-99ca-82b8862b9815","system_id":"levelo_inurba_marseille","lat":43.284192,"lon":5.349725,"is_reserved":false,"is_disabled":false,"rental_uris":{"android":"levelo://app?vid=4d5e1d7a-4b22-4630-99ca-82b8862b9815","ios":"levelo://app?vid=4d5e1d7a-4b22-4630-99ca-82b8862b9815"},"vehicle_type_id":"4","last_reported":1685739921,"current_range_meters":19600,"station_id":"ce4bhbh2rcd13ifvqepg","pricing_plan_id":"free"},{"bike_id":"aebf6da0-0a38-4261-94c4-d568bf959777","system_id":"levelo_inurba_marseille","lat":43.283638,"lon":5.386403,"is_reserved":false,"is_disabled":false,"rental_uris":{"android":"levelo://app?vid=aebf6da0-0a38-4261-94c4-d568bf959777","ios":"levelo://app?vid=aebf6da0-0a38-4261-94c4-d568bf959777"},"vehicle_type_id":"4","last_reported":1685739921,"current_range_meters":0,"station_id":"ce4bh492rcd13ifvqdvg","pricing_plan_id":"free"},{"bike_id":"3ff98499-7131-4fce-9e32-3616da92de0c","system_id":"levelo_inurba_marseille","lat":43.280382,"lon":5.369291,"is_reserved":false,"is_disabled":false,"rental_uris":{"android":"levelo://app?vid=3ff98499-7131-4fce-9e32-3616da92de0c","ios":"levelo://app?vid=3ff98499-7131-4fce-9e32-3616da92de0c"},"vehicle_type_id":"4","last_reported":1685739921,"current_range_meters":4400,"station_id":"ce4bha12rcd13ifvqef0","pricing_plan_id":"free"},{"bike_id":"1f08f756-c54c-45ed-9142-409809097d79","system_id":"levelo_inurba_marseille","lat":43.284462,"lon":5.392121,"is_reserved":false,"is_disabled":false,"rental_uris":{"android":"levelo://app?vid=1f08f756-c54c-45ed-9142-409809097d79","ios":"levelo://app?vid=1f08f756-c54c-45ed-9142-409809097d79"},"vehicle_type_id":"4","last_reported":1685739921,"current_range_meters":0,"station_id":"ce4bhoh2rcd13ifvqh5g","pricing_plan_id":"free"},{"bike_id":"68cf256b-8445-4651-86f0-0f2a9fe965ee","system_id":"levelo_inurba_marseille","lat":43.287154,"lon":5.399979,"is_reserved":false,"is_disabled":false,"rental_uris":{"android":"levelo://app?vid=68cf256b-8445-4651-86f0-0f2a9fe965ee","ios":"levelo://app?vid=68cf256b-8445-4651-86f0-0f2a9fe965ee"},"vehicle_type_id":"4","last_reported":1685739921,"current_range_meters":0,"station_id":"ce4bho92rcd13ifvqh3g","pricing_plan_id":"free"},{"bike_id":"950b5777-439b-4451-9b08-660a61c09b91","system_id":"levelo_inurba_marseille","lat":43.287154,"lon":5.399979,"is_reserved":false,"is_disabled":false,"rental_uris":{"android":"levelo://app?vid=950b5777-439b-4451-9b08-660a61c09b91","ios":"levelo://app?vid=950b5777-439b-4451-9b08-660a61c09b91"},"vehicle_type_id":"4","last_reported":1685739921,"current_range_meters":8800,"station_id":"ce4bho92rcd13ifvqh3g","pricing_plan_id":"free"},{"bike_id":"8c813163-9081-4a2e-bd65-78122d58dbb4","system_id":"levelo_inurba_marseille","lat":43.287154,"lon":5.399979,"is_reserved":false,"is_disabled":false,"rental_uris":{"android":"levelo://app?vid=8c813163-9081-4a2e-bd65-78122d58dbb4","ios":"levelo://app?vid=8c813163-9081-4a2e-bd65-78122d58dbb4"},"vehicle_type_id":"4","last_reported":1685739921,"current_range_meters":16400,"station_id":"ce4bho92rcd13ifvqh3g","pricing_plan_id":"free"},{"bike_id":"3e4b0161-6deb-4f2f-9446-bd5731c1ed2e","system_id":"levelo_inurba_marseille","lat":43.325233,"lon":5.414318,"is_reserved":false,"is_disabled":false,"rental_uris":{"android":"levelo://app?vid=3e4b0161-6deb-4f2f-9446-bd5731c1ed2e","ios":"levelo://app?vid=3e4b0161-6deb-4f2f-9446-bd5731c1ed2e"},"vehicle_type_id":"4","last_reported":1685739921,"current_range_meters":18000,"station_id":"ce4bhq12rcd13ifvqhhg","pricing_plan_id":"free"},{"bike_id":"797f2585-b0d8-4ef9-8965-4e245dba6b44","system_id":"levelo_inurba_marseille","lat":43.325233,"lon":5.414318,"is_reserved":false,"is_disabled":false,"rental_uris":{"android":"levelo://app?vid=797f2585-b0d8-4ef9-8965-4e245dba6b44","ios":"levelo://app?vid=797f2585-b0d8-4ef9-8965-4e245dba6b44"},"vehicle_type_id":"4","last_reported":1685739921,"current_range_meters":27200,"station_id":"ce4bhq12rcd13ifvqhhg","pricing_plan_id":"free"},{"bike_id":"d9cad4df-24a6-4d57-8f3e-c5ae757185d6","system_id":"levelo_inurba_marseille","lat":43.292571,"lon":5.409107,"is_reserved":false,"is_disabled":false,"rental_uris":{"android":"levelo://app?vid=d9cad4df-24a6-4d57-8f3e-c5ae757185d6","ios":"levelo://app?vid=d9cad4df-24a6-4d57-8f3e-c5ae757185d6"},"vehicle_type_id":"4","last_reported":1685739921,"current_range_meters":22800,"station_id":"ce4bh192rcd13ifvqdc0","pricing_plan_id":"free"},{"bike_id":"0923b74d-5a90-43f5-93c8-26a24cb96ad2","system_id":"levelo_inurba_marseille","lat":43.276769,"lon":5.388787,"is_reserved":false,"is_disabled":false,"rental_uris":{"android":"levelo://app?vid=0923b74d-5a90-43f5-93c8-26a24cb96ad2","ios":"levelo://app?vid=0923b74d-5a90-43f5-93c8-26a24cb96ad2"},"vehicle_type_id":"4","last_reported":1685739921,"current_range_meters":24400,"station_id":"ce4bhi12rcd13ifvqfo0","pricing_plan_id":"free"},{"bike_id":"502b4fa2-7ef9-44b3-8945-597cb4d4b895","system_id":"levelo_inurba_marseille","lat":43.276769,"lon":5.388787,"is_reserved":false,"is_disabled":false,"rental_uris":{"android":"levelo://app?vid=502b4fa2-7ef9-44b3-8945-597cb4d4b895","ios":"levelo://app?vid=502b4fa2-7ef9-44b3-8945-597cb4d4b895"},"vehicle_type_id":"4","last_reported":1685739921,"current_range_meters":3200,"station_id":"ce4bhi12rcd13ifvqfo0","pricing_plan_id":"free"},{"bike_id":"546f562b-1fb1-4615-9421-5148ace048fb","system_id":"levelo_inurba_marseille","lat":43.304096,"lon":5.425385,"is_reserved":false,"is_disabled":false,"rental_uris":{"android":"levelo://app?vid=546f562b-1fb1-4615-9421-5148ace048fb","ios":"levelo://app?vid=546f562b-1fb1-4615-9421-5148ace048fb"},"vehicle_type_id":"4","last_reported":1685739921,"current_range_meters":7200,"station_id":"ce4bhoh2rcd13ifvqh6g","pricing_plan_id":"free"},{"bike_id":"7fddc8f9-81e6-4abf-b8d7-f80962ac7beb","system_id":"levelo_inurba_marseille","lat":43.278128,"lon":5.407195,"is_reserved":false,"is_disabled":false,"rental_uris":{"android":"levelo://app?vid=7fddc8f9-81e6-4abf-b8d7-f80962ac7beb","ios":"levelo://app?vid=7fddc8f9-81e6-4abf-b8d7-f80962ac7beb"},"vehicle_type_id":"4","last_reported":1685739921,"current_range_meters":8400,"station_id":"ce4bhnh2rcd13ifvqgtg","pricing_plan_id":"free"},{"bike_id":"477c9b24-a1bd-4af2-9e3a-7a10b9af13d1","system_id":"levelo_inurba_marseille","lat":43.31719,"lon":5.43306,"is_reserved":false,"is_disabled":false,"rental_uris":{"android":"levelo://app?vid=477c9b24-a1bd-4af2-9e3a-7a10b9af13d1","ios":"levelo://app?vid=477c9b24-a1bd-4af2-9e3a-7a10b9af13d1"},"vehicle_type_id":"4","last_reported":1685739921,"current_range_meters":0,"station_id":"","pricing_plan_id":"free"},{"bike_id":"1fe7bc64-c463-4293-b942-fbfc4e08a7fc","system_id":"levelo_inurba_marseille","lat":43.26188,"lon":5.37441,"is_reserved":false,"is_disabled":false,"rental_uris":{"android":"levelo://app?vid=1fe7bc64-c463-4293-b942-fbfc4e08a7fc","ios":"levelo://app?vid=1fe7bc64-c463-4293-b942-fbfc4e08a7fc"},"vehicle_type_id":"4","last_reported":1685739921,"current_range_meters":0,"station_id":"ce4bhgp2rcd13ifvqfc0","pricing_plan_id":"free"},{"bike_id":"89665d95-5c70-493b-9e56-3369f434e891","system_id":"levelo_inurba_marseille","lat":43.317104,"lon":5.436818,"is_reserved":false,"is_disabled":false,"rental_uris":{"android":"levelo://app?vid=89665d95-5c70-493b-9e56-3369f434e891","ios":"levelo://app?vid=89665d95-5c70-493b-9e56-3369f434e891"},"vehicle_type_id":"4","last_reported":1685739921,"current_range_meters":16000,"station_id":"ce4bhp92rcd13ifvqhcg","pricing_plan_id":"free"},{"bike_id":"450651b5-5e98-4a29-acd8-67acccbd55ad","system_id":"levelo_inurba_marseille","lat":43.26202,"lon":5.379299,"is_reserved":false,"is_disabled":false,"rental_uris":{"android":"levelo://app?vid=450651b5-5e98-4a29-acd8-67acccbd55ad","ios":"levelo://app?vid=450651b5-5e98-4a29-acd8-67acccbd55ad"},"vehicle_type_id":"4","last_reported":1685739921,"current_range_meters":0,"station_id":"ce4bhjp2rcd13ifvqg90","pricing_plan_id":"free"},{"bike_id":"c8651eda-c68b-48ed-acbf-32040e290220","system_id":"levelo_inurba_marseille","lat":43.26202,"lon":5.379299,"is_reserved":false,"is_disabled":false,"rental_uris":{"android":"levelo://app?vid=c8651eda-c68b-48ed-acbf-32040e290220","ios":"levelo://app?vid=c8651eda-c68b-48ed-acbf-32040e290220"},"vehicle_type_id":"4","last_reported":1685739921,"current_range_meters":27200,"station_id":"ce4bhjp2rcd13ifvqg90","pricing_plan_id":"free"},{"bike_id":"8b5113cb-a194-4864-b195-27eb93e32b7b","system_id":"levelo_inurba_marseille","lat":43.271368,"lon":5.40928,"is_reserved":false,"is_disabled":false,"rental_uris":{"android":"levelo://app?vid=8b5113cb-a194-4864-b195-27eb93e32b7b","ios":"levelo://app?vid=8b5113cb-a194-4864-b195-27eb93e32b7b"},"vehicle_type_id":"4","last_reported":1685739921,"current_range_meters":8000,"station_id":"ce4bhl12rcd13ifvqgf0","pricing_plan_id":"free"},{"bike_id":"d7e1a804-f075-4150-a886-bd13c743ece7","system_id":"levelo_inurba_marseille","lat":43.267959,"lon":5.402687,"is_reserved":false,"is_disabled":false,"rental_uris":{"android":"levelo://app?vid=d7e1a804-f075-4150-a886-bd13c743ece7","ios":"levelo://app?vid=d7e1a804-f075-4150-a886-bd13c743ece7"},"vehicle_type_id":"4","last_reported":1685739921,"current_range_meters":15200,"station_id":"ce501612rcd8frsf0b60","pricing_plan_id":"free"},{"bike_id":"17c46147-9991-4b94-801e-664a03a22e73","system_id":"levelo_inurba_marseille","lat":43.29891,"lon":5.43667,"is_reserved":false,"is_disabled":false,"rental_uris":{"android":"levelo://app?vid=17c46147-9991-4b94-801e-664a03a22e73","ios":"levelo://app?vid=17c46147-9991-4b94-801e-664a03a22e73"},"vehicle_type_id":"4","last_reported":1685739921,"current_range_meters":6800,"station_id":"ce4bhpp2rcd13ifvqhfg","pricing_plan_id":"free"},{"bike_id":"2c1d053c-1626-4ea1-906d-e43e125a5652","system_id":"levelo_inurba_marseille","lat":43.255756,"lon":5.382303,"is_reserved":false,"is_disabled":false,"rental_uris":{"android":"levelo://app?vid=2c1d053c-1626-4ea1-906d-e43e125a5652","ios":"levelo://app?vid=2c1d053c-1626-4ea1-906d-e43e125a5652"},"vehicle_type_id":"4","last_reported":1685739921,"current_range_meters":6400,"station_id":"ce4bhih2rcd13ifvqfs0","pricing_plan_id":"free"},{"bike_id":"0a3adffc-5c28-4831-9fb5-b37fc9aefbf3","system_id":"levelo_inurba_marseille","lat":43.270721,"lon":5.422764,"is_reserved":false,"is_disabled":false,"rental_uris":{"android":"levelo://app?vid=0a3adffc-5c28-4831-9fb5-b37fc9aefbf3","ios":"levelo://app?vid=0a3adffc-5c28-4831-9fb5-b37fc9aefbf3"},"vehicle_type_id":"4","last_reported":1685739921,"current_range_meters":30000,"station_id":"ce4bhk92rcd13ifvqgb0","pricing_plan_id":"free"},{"bike_id":"614ee532-46a5-4f29-91d2-162f738f50bb","system_id":"levelo_inurba_marseille","lat":43.258658,"lon":5.398935,"is_reserved":false,"is_disabled":false,"rental_uris":{"android":"levelo://app?vid=614ee532-46a5-4f29-91d2-162f738f50bb","ios":"levelo://app?vid=614ee532-46a5-4f29-91d2-162f738f50bb"},"vehicle_type_id":"4","last_reported":1685739921,"current_range_meters":6000,"station_id":"ce4bhl92rcd13ifvqghg","pricing_plan_id":"free"},{"bike_id":"37089764-d04f-4cb3-99b4-c2b5aa980d9a","system_id":"levelo_inurba_marseille","lat":43.258658,"lon":5.398935,"is_reserved":false,"is_disabled":false,"rental_uris":{"android":"levelo://app?vid=37089764-d04f-4cb3-99b4-c2b5aa980d9a","ios":"levelo://app?vid=37089764-d04f-4cb3-99b4-c2b5aa980d9a"},"vehicle_type_id":"4","last_reported":1685739921,"current_range_meters":18000,"station_id":"ce4bhl92rcd13ifvqghg","pricing_plan_id":"free"},{"bike_id":"6dd2c7f7-af15-4eac-a2dd-b83b33195bb6","system_id":"levelo_inurba_marseille","lat":43.258658,"lon":5.398935,"is_reserved":false,"is_disabled":false,"rental_uris":{"android":"levelo://app?vid=6dd2c7f7-af15-4eac-a2dd-b83b33195bb6","ios":"levelo://app?vid=6dd2c7f7-af15-4eac-a2dd-b83b33195bb6"},"vehicle_type_id":"4","last_reported":1685739921,"current_range_meters":2400,"station_id":"ce4bhl92rcd13ifvqghg","pricing_plan_id":"free"},{"bike_id":"41c2590e-164d-41e9-b96b-588d43dd2f8b","system_id":"levelo_inurba_marseille","lat":43.28604,"lon":5.4421,"is_reserved":false,"is_disabled":false,"rental_uris":{"android":"levelo://app?vid=41c2590e-164d-41e9-b96b-588d43dd2f8b","ios":"levelo://app?vid=41c2590e-164d-41e9-b96b-588d43dd2f8b"},"vehicle_type_id":"4","last_reported":1685739921,"current_range_meters":10800,"station_id":"","pricing_plan_id":"free"},{"bike_id":"46197146-4a3f-4d2f-abf6-827375f4ef35","system_id":"levelo_inurba_marseille","lat":43.25003,"lon":5.38925,"is_reserved":false,"is_disabled":false,"rental_uris":{"android":"levelo://app?vid=46197146-4a3f-4d2f-abf6-827375f4ef35","ios":"levelo://app?vid=46197146-4a3f-4d2f-abf6-827375f4ef35"},"vehicle_type_id":"4","last_reported":1685739921,"current_range_meters":28400,"station_id":"ce4bhgp2rcd13ifvqfd0","pricing_plan_id":"free"},{"bike_id":"58ce0725-944b-4b25-931f-a56358cc8122","system_id":"levelo_inurba_marseille","lat":43.24814,"lon":5.3746,"is_reserved":false,"is_disabled":false,"rental_uris":{"android":"levelo://app?vid=58ce0725-944b-4b25-931f-a56358cc8122","ios":"levelo://app?vid=58ce0725-944b-4b25-931f-a56358cc8122"},"vehicle_type_id":"4","last_reported":1685739921,"current_range_meters":0,"station_id":"","pricing_plan_id":"free"},{"bike_id":"aa17c216-0192-4312-8e04-3b53a1e4e4f3","system_id":"levelo_inurba_marseille","lat":43.250966,"lon":5.395186,"is_reserved":false,"is_disabled":false,"rental_uris":{"android":"levelo://app?vid=aa17c216-0192-4312-8e04-3b53a1e4e4f3","ios":"levelo://app?vid=aa17c216-0192-4312-8e04-3b53a1e4e4f3"},"vehicle_type_id":"4","last_reported":1685739921,"current_range_meters":3600,"station_id":"ce4bhm12rcd13ifvqgkg","pricing_plan_id":"free"},{"bike_id":"ac42859d-78a6-42e7-8fc2-69b154946a53","system_id":"levelo_inurba_marseille","lat":43.24693,"lon":5.382096,"is_reserved":false,"is_disabled":false,"rental_uris":{"android":"levelo://app?vid=ac42859d-78a6-42e7-8fc2-69b154946a53","ios":"levelo://app?vid=ac42859d-78a6-42e7-8fc2-69b154946a53"},"vehicle_type_id":"4","last_reported":1685739921,"current_range_meters":28000,"station_id":"ce4bhih2rcd13ifvqfr0","pricing_plan_id":"free"},{"bike_id":"f9554e05-40bd-4078-b322-0237fa6671c2","system_id":"levelo_inurba_marseille","lat":43.24693,"lon":5.382096,"is_reserved":false,"is_disabled":false,"rental_uris":{"android":"levelo://app?vid=f9554e05-40bd-4078-b322-0237fa6671c2","ios":"levelo://app?vid=f9554e05-40bd-4078-b322-0237fa6671c2"},"vehicle_type_id":"4","last_reported":1685739921,"current_range_meters":25200,"station_id":"ce4bhih2rcd13ifvqfr0","pricing_plan_id":"free"},{"bike_id":"fbb27c46-56c8-49f5-b0ef-6bddf27242e7","system_id":"levelo_inurba_marseille","lat":43.25102,"lon":5.403214,"is_reserved":false,"is_disabled":false,"rental_uris":{"android":"levelo://app?vid=fbb27c46-56c8-49f5-b0ef-6bddf27242e7","ios":"levelo://app?vid=fbb27c46-56c8-49f5-b0ef-6bddf27242e7"},"vehicle_type_id":"4","last_reported":1685739921,"current_range_meters":5600,"station_id":"ce4bhlh2rcd13ifvqgig","pricing_plan_id":"free"},{"bike_id":"7f803c6e-a08e-4b9a-b9fa-528036886d25","system_id":"levelo_inurba_marseille","lat":43.24693,"lon":5.382096,"is_reserved":false,"is_disabled":false,"rental_uris":{"android":"levelo://app?vid=7f803c6e-a08e-4b9a-b9fa-528036886d25","ios":"levelo://app?vid=7f803c6e-a08e-4b9a-b9fa-528036886d25"},"vehicle_type_id":"4","last_reported":1685739921,"current_range_meters":16800,"station_id":"ce4bhih2rcd13ifvqfr0","pricing_plan_id":"free"},{"bike_id":"b0257db9-e2a1-4bd1-916a-41989d2f8f8e","system_id":"levelo_inurba_marseille","lat":43.25102,"lon":5.403214,"is_reserved":false,"is_disabled":false,"rental_uris":{"android":"levelo://app?vid=b0257db9-e2a1-4bd1-916a-41989d2f8f8e","ios":"levelo://app?vid=b0257db9-e2a1-4bd1-916a-41989d2f8f8e"},"vehicle_type_id":"4","last_reported":1685739921,"current_range_meters":400,"station_id":"ce4bhlh2rcd13ifvqgig","pricing_plan_id":"free"},{"bike_id":"121d223b-86c3-419b-a060-e3f7a7afd231","system_id":"levelo_inurba_marseille","lat":43.25102,"lon":5.403214,"is_reserved":false,"is_disabled":false,"rental_uris":{"android":"levelo://app?vid=121d223b-86c3-419b-a060-e3f7a7afd231","ios":"levelo://app?vid=121d223b-86c3-419b-a060-e3f7a7afd231"},"vehicle_type_id":"4","last_reported":1685739921,"current_range_meters":10800,"station_id":"ce4bhlh2rcd13ifvqgig","pricing_plan_id":"free"},{"bike_id":"3f4fbeb5-043c-45d2-81ab-46f179a7e9ce","system_id":"levelo_inurba_marseille","lat":43.24693,"lon":5.382096,"is_reserved":false,"is_disabled":false,"rental_uris":{"android":"levelo://app?vid=3f4fbeb5-043c-45d2-81ab-46f179a7e9ce","ios":"levelo://app?vid=3f4fbeb5-043c-45d2-81ab-46f179a7e9ce"},"vehicle_type_id":"4","last_reported":1685739921,"current_range_meters":16400,"station_id":"ce4bhih2rcd13ifvqfr0","pricing_plan_id":"free"},{"bike_id":"53702d69-b6d7-4a9e-a7d2-0f9bef37703b","system_id":"levelo_inurba_marseille","lat":43.25102,"lon":5.403214,"is_reserved":false,"is_disabled":false,"rental_uris":{"android":"levelo://app?vid=53702d69-b6d7-4a9e-a7d2-0f9bef37703b","ios":"levelo://app?vid=53702d69-b6d7-4a9e-a7d2-0f9bef37703b"},"vehicle_type_id":"4","last_reported":1685739921,"current_range_meters":7600,"station_id":"ce4bhlh2rcd13ifvqgig","pricing_plan_id":"free"},{"bike_id":"bf443b40-d18b-424a-8fde-3cb92af8115a","system_id":"levelo_inurba_marseille","lat":43.246467,"lon":5.388984,"is_reserved":false,"is_disabled":false,"rental_uris":{"android":"levelo://app?vid=bf443b40-d18b-424a-8fde-3cb92af8115a","ios":"levelo://app?vid=bf443b40-d18b-424a-8fde-3cb92af8115a"},"vehicle_type_id":"4","last_reported":1685739921,"current_range_meters":18800,"station_id":"ce4bhg12rcd13ifvqf60","pricing_plan_id":"free"},{"bike_id":"90ec6158-08ad-4670-8a96-0a5e300cb0d7","system_id":"levelo_inurba_marseille","lat":43.246467,"lon":5.388984,"is_reserved":false,"is_disabled":false,"rental_uris":{"android":"levelo://app?vid=90ec6158-08ad-4670-8a96-0a5e300cb0d7","ios":"levelo://app?vid=90ec6158-08ad-4670-8a96-0a5e300cb0d7"},"vehicle_type_id":"4","last_reported":1685739921,"current_range_meters":14400,"station_id":"ce4bhg12rcd13ifvqf60","pricing_plan_id":"free"},{"bike_id":"dc249dd8-e499-4012-aa2f-796b7a8db3ad","system_id":"levelo_inurba_marseille","lat":43.24418,"lon":5.37137,"is_reserved":false,"is_disabled":false,"rental_uris":{"android":"levelo://app?vid=dc249dd8-e499-4012-aa2f-796b7a8db3ad","ios":"levelo://app?vid=dc249dd8-e499-4012-aa2f-796b7a8db3ad"},"vehicle_type_id":"4","last_reported":1685739921,"current_range_meters":3600,"station_id":"ce4bhhh2rcd13ifvqfk0","pricing_plan_id":"free"},{"bike_id":"fe99c974-8a59-4185-82e3-fe3937c01989","system_id":"levelo_inurba_marseille","lat":43.24604,"lon":5.393,"is_reserved":false,"is_disabled":false,"rental_uris":{"android":"levelo://app?vid=fe99c974-8a59-4185-82e3-fe3937c01989","ios":"levelo://app?vid=fe99c974-8a59-4185-82e3-fe3937c01989"},"vehicle_type_id":"4","last_reported":1685739921,"current_range_meters":2400,"station_id":"","pricing_plan_id":"free"},{"bike_id":"2c8cb84b-1112-4638-840b-42a6227cf279","system_id":"levelo_inurba_marseille","lat":43.28922,"lon":5.45714,"is_reserved":false,"is_disabled":false,"rental_uris":{"android":"levelo://app?vid=2c8cb84b-1112-4638-840b-42a6227cf279","ios":"levelo://app?vid=2c8cb84b-1112-4638-840b-42a6227cf279"},"vehicle_type_id":"4","last_reported":1685739921,"current_range_meters":14400,"station_id":"","pricing_plan_id":"free"},{"bike_id":"97911575-0740-4ace-9259-7ac6b2b09d9e","system_id":"levelo_inurba_marseille","lat":43.28544,"lon":5.45834,"is_reserved":false,"is_disabled":false,"rental_uris":{"android":"levelo://app?vid=97911575-0740-4ace-9259-7ac6b2b09d9e","ios":"levelo://app?vid=97911575-0740-4ace-9259-7ac6b2b09d9e"},"vehicle_type_id":"4","last_reported":1685739921,"current_range_meters":5200,"station_id":"","pricing_plan_id":"free"},{"bike_id":"71205e01-1677-4731-b621-730f3aea689a","system_id":"levelo_inurba_marseille","lat":43.23967,"lon":5.36633,"is_reserved":false,"is_disabled":false,"rental_uris":{"android":"levelo://app?vid=71205e01-1677-4731-b621-730f3aea689a","ios":"levelo://app?vid=71205e01-1677-4731-b621-730f3aea689a"},"vehicle_type_id":"4","last_reported":1685739921,"current_range_meters":19600,"station_id":"ce4bhi12rcd13ifvqfp0","pricing_plan_id":"free"},{"bike_id":"f3050c6c-b3b7-4cd4-8d5f-2a4e0bed16bd","system_id":"levelo_inurba_marseille","lat":43.23962,"lon":5.36631,"is_reserved":false,"is_disabled":false,"rental_uris":{"android":"levelo://app?vid=f3050c6c-b3b7-4cd4-8d5f-2a4e0bed16bd","ios":"levelo://app?vid=f3050c6c-b3b7-4cd4-8d5f-2a4e0bed16bd"},"vehicle_type_id":"4","last_reported":1685739921,"current_range_meters":16000,"station_id":"ce4bhi12rcd13ifvqfp0","pricing_plan_id":"free"},{"bike_id":"e6da453c-4933-43de-9871-6f873e7471dd","system_id":"levelo_inurba_marseille","lat":43.239588,"lon":5.366238,"is_reserved":false,"is_disabled":false,"rental_uris":{"android":"levelo://app?vid=e6da453c-4933-43de-9871-6f873e7471dd","ios":"levelo://app?vid=e6da453c-4933-43de-9871-6f873e7471dd"},"vehicle_type_id":"4","last_reported":1685739921,"current_range_meters":15600,"station_id":"ce4bhi12rcd13ifvqfp0","pricing_plan_id":"free"},{"bike_id":"53f08f08-69f5-4767-bd69-93f505062dcf","system_id":"levelo_inurba_marseille","lat":43.23961,"lon":5.3663,"is_reserved":false,"is_disabled":false,"rental_uris":{"android":"levelo://app?vid=53f08f08-69f5-4767-bd69-93f505062dcf","ios":"levelo://app?vid=53f08f08-69f5-4767-bd69-93f505062dcf"},"vehicle_type_id":"4","last_reported":1685739921,"current_range_meters":3200,"station_id":"ce4bhi12rcd13ifvqfp0","pricing_plan_id":"free"},{"bike_id":"3d54e830-364c-4b45-8adb-293a0fe4f129","system_id":"levelo_inurba_marseille","lat":43.239588,"lon":5.366238,"is_reserved":false,"is_disabled":false,"rental_uris":{"android":"levelo://app?vid=3d54e830-364c-4b45-8adb-293a0fe4f129","ios":"levelo://app?vid=3d54e830-364c-4b45-8adb-293a0fe4f129"},"vehicle_type_id":"4","last_reported":1685739921,"current_range_meters":28800,"station_id":"ce4bhi12rcd13ifvqfp0","pricing_plan_id":"free"},{"bike_id":"a697fe3e-88b8-4cbf-8fee-b70f20033c13","system_id":"levelo_inurba_marseille","lat":43.23893,"lon":5.38464,"is_reserved":false,"is_disabled":false,"rental_uris":{"android":"levelo://app?vid=a697fe3e-88b8-4cbf-8fee-b70f20033c13","ios":"levelo://app?vid=a697fe3e-88b8-4cbf-8fee-b70f20033c13"},"vehicle_type_id":"4","last_reported":1685739921,"current_range_meters":24800,"station_id":"","pricing_plan_id":"free"},{"bike_id":"36be0654-a594-495b-a31c-6463ea32f1be","system_id":"levelo_inurba_marseille","lat":43.30387,"lon":5.47463,"is_reserved":false,"is_disabled":false,"rental_uris":{"android":"levelo://app?vid=36be0654-a594-495b-a31c-6463ea32f1be","ios":"levelo://app?vid=36be0654-a594-495b-a31c-6463ea32f1be"},"vehicle_type_id":"4","last_reported":1685739921,"current_range_meters":6000,"station_id":"","pricing_plan_id":"free"},{"bike_id":"8a16b42b-59d0-4b4d-bf27-134027b1c282","system_id":"levelo_inurba_marseille","lat":43.23201,"lon":5.35556,"is_reserved":false,"is_disabled":false,"rental_uris":{"android":"levelo://app?vid=8a16b42b-59d0-4b4d-bf27-134027b1c282","ios":"levelo://app?vid=8a16b42b-59d0-4b4d-bf27-134027b1c282"},"vehicle_type_id":"4","last_reported":1685739921,"current_range_meters":13200,"station_id":"ce4bhu92rcd13ifvqi70","pricing_plan_id":"free"},{"bike_id":"cbb7bd5f-a90a-4bac-a3db-75103487be10","system_id":"levelo_inurba_marseille","lat":43.231923,"lon":5.355545,"is_reserved":false,"is_disabled":false,"rental_uris":{"android":"levelo://app?vid=cbb7bd5f-a90a-4bac-a3db-75103487be10","ios":"levelo://app?vid=cbb7bd5f-a90a-4bac-a3db-75103487be10"},"vehicle_type_id":"4","last_reported":1685739921,"current_range_meters":30000,"station_id":"ce4bhu92rcd13ifvqi70","pricing_plan_id":"free"},{"bike_id":"d591bc7e-b1c1-41fb-9408-36bb5ec2af01","system_id":"levelo_inurba_marseille","lat":43.23199,"lon":5.3555,"is_reserved":false,"is_disabled":false,"rental_uris":{"android":"levelo://app?vid=d591bc7e-b1c1-41fb-9408-36bb5ec2af01","ios":"levelo://app?vid=d591bc7e-b1c1-41fb-9408-36bb5ec2af01"},"vehicle_type_id":"4","last_reported":1685739921,"current_range_meters":27600,"station_id":"ce4bhu92rcd13ifvqi70","pricing_plan_id":"free"},{"bike_id":"a04dc097-9951-4a9d-9c8c-aa30a8e2ff65","system_id":"levelo_inurba_marseille","lat":43.23198,"lon":5.35552,"is_reserved":false,"is_disabled":false,"rental_uris":{"android":"levelo://app?vid=a04dc097-9951-4a9d-9c8c-aa30a8e2ff65","ios":"levelo://app?vid=a04dc097-9951-4a9d-9c8c-aa30a8e2ff65"},"vehicle_type_id":"4","last_reported":1685739921,"current_range_meters":8400,"station_id":"ce4bhu92rcd13ifvqi70","pricing_plan_id":"free"},{"bike_id":"f1bea723-3b9c-4b54-8892-1f065b738df5","system_id":"levelo_inurba_marseille","lat":43.23198,"lon":5.35552,"is_reserved":false,"is_disabled":false,"rental_uris":{"android":"levelo://app?vid=f1bea723-3b9c-4b54-8892-1f065b738df5","ios":"levelo://app?vid=f1bea723-3b9c-4b54-8892-1f065b738df5"},"vehicle_type_id":"4","last_reported":1685739921,"current_range_meters":24800,"station_id":"ce4bhu92rcd13ifvqi70","pricing_plan_id":"free"},{"bike_id":"836ef873-5387-4690-8868-8360617ae71f","system_id":"levelo_inurba_marseille","lat":43.23196,"lon":5.3556,"is_reserved":false,"is_disabled":false,"rental_uris":{"android":"levelo://app?vid=836ef873-5387-4690-8868-8360617ae71f","ios":"levelo://app?vid=836ef873-5387-4690-8868-8360617ae71f"},"vehicle_type_id":"4","last_reported":1685739921,"current_range_meters":25200,"station_id":"ce4bhu92rcd13ifvqi70","pricing_plan_id":"free"},{"bike_id":"93f75688-d7e3-4d0b-ad74-a50af79949d7","system_id":"levelo_inurba_marseille","lat":43.231923,"lon":5.355545,"is_reserved":false,"is_disabled":false,"rental_uris":{"android":"levelo://app?vid=93f75688-d7e3-4d0b-ad74-a50af79949d7","ios":"levelo://app?vid=93f75688-d7e3-4d0b-ad74-a50af79949d7"},"vehicle_type_id":"4","last_reported":1685739921,"current_range_meters":8800,"station_id":"ce4bhu92rcd13ifvqi70","pricing_plan_id":"free"},{"bike_id":"327922dd-97e5-4dce-a6af-917065566420","system_id":"levelo_inurba_marseille","lat":43.231923,"lon":5.355545,"is_reserved":false,"is_disabled":false,"rental_uris":{"android":"levelo://app?vid=327922dd-97e5-4dce-a6af-917065566420","ios":"levelo://app?vid=327922dd-97e5-4dce-a6af-917065566420"},"vehicle_type_id":"4","last_reported":1685739921,"current_range_meters":12000,"station_id":"ce4bhu92rcd13ifvqi70","pricing_plan_id":"free"},{"bike_id":"1bf4f659-3dfb-4cd9-a96d-61138ce0752b","system_id":"levelo_inurba_marseille","lat":43.231923,"lon":5.355545,"is_reserved":false,"is_disabled":false,"rental_uris":{"android":"levelo://app?vid=1bf4f659-3dfb-4cd9-a96d-61138ce0752b","ios":"levelo://app?vid=1bf4f659-3dfb-4cd9-a96d-61138ce0752b"},"vehicle_type_id":"4","last_reported":1685739921,"current_range_meters":20800,"station_id":"ce4bhu92rcd13ifvqi70","pricing_plan_id":"free"},{"bike_id":"4c97787f-370a-4d14-8cc5-bad3a38574f4","system_id":"levelo_inurba_marseille","lat":43.23193,"lon":5.35548,"is_reserved":false,"is_disabled":false,"rental_uris":{"android":"levelo://app?vid=4c97787f-370a-4d14-8cc5-bad3a38574f4","ios":"levelo://app?vid=4c97787f-370a-4d14-8cc5-bad3a38574f4"},"vehicle_type_id":"4","last_reported":1685739921,"current_range_meters":9200,"station_id":"ce4bhu92rcd13ifvqi70","pricing_plan_id":"free"},{"bike_id":"fe6b2939-a513-4dd9-b556-3dfc5f2115f2","system_id":"levelo_inurba_marseille","lat":43.23192,"lon":5.35553,"is_reserved":false,"is_disabled":false,"rental_uris":{"android":"levelo://app?vid=fe6b2939-a513-4dd9-b556-3dfc5f2115f2","ios":"levelo://app?vid=fe6b2939-a513-4dd9-b556-3dfc5f2115f2"},"vehicle_type_id":"4","last_reported":1685739921,"current_range_meters":23200,"station_id":"ce4bhu92rcd13ifvqi70","pricing_plan_id":"free"},{"bike_id":"8e00e7d7-6d57-4467-bd86-2dce8784d558","system_id":"levelo_inurba_marseille","lat":43.231923,"lon":5.355545,"is_reserved":false,"is_disabled":false,"rental_uris":{"android":"levelo://app?vid=8e00e7d7-6d57-4467-bd86-2dce8784d558","ios":"levelo://app?vid=8e00e7d7-6d57-4467-bd86-2dce8784d558"},"vehicle_type_id":"4","last_reported":1685739921,"current_range_meters":31200,"station_id":"ce4bhu92rcd13ifvqi70","pricing_plan_id":"free"},{"bike_id":"632820bc-e4a0-4878-877f-cea161bce7a0","system_id":"levelo_inurba_marseille","lat":43.23191,"lon":5.35547,"is_reserved":false,"is_disabled":false,"rental_uris":{"android":"levelo://app?vid=632820bc-e4a0-4878-877f-cea161bce7a0","ios":"levelo://app?vid=632820bc-e4a0-4878-877f-cea161bce7a0"},"vehicle_type_id":"4","last_reported":1685739921,"current_range_meters":10400,"station_id":"ce4bhu92rcd13ifvqi70","pricing_plan_id":"free"},{"bike_id":"ccdd659d-d1f3-423b-8596-d04101dbe64d","system_id":"levelo_inurba_marseille","lat":43.231923,"lon":5.355545,"is_reserved":false,"is_disabled":false,"rental_uris":{"android":"levelo://app?vid=ccdd659d-d1f3-423b-8596-d04101dbe64d","ios":"levelo://app?vid=ccdd659d-d1f3-423b-8596-d04101dbe64d"},"vehicle_type_id":"4","last_reported":1685739921,"current_range_meters":31600,"station_id":"ce4bhu92rcd13ifvqi70","pricing_plan_id":"free"},{"bike_id":"2a2e6820-ea61-463e-8945-882c6a5f8bef","system_id":"levelo_inurba_marseille","lat":43.23188,"lon":5.35555,"is_reserved":false,"is_disabled":false,"rental_uris":{"android":"levelo://app?vid=2a2e6820-ea61-463e-8945-882c6a5f8bef","ios":"levelo://app?vid=2a2e6820-ea61-463e-8945-882c6a5f8bef"},"vehicle_type_id":"4","last_reported":1685739921,"current_range_meters":17200,"station_id":"ce4bhu92rcd13ifvqi70","pricing_plan_id":"free"},{"bike_id":"28482e00-7034-4413-b356-d983b48fb55f","system_id":"levelo_inurba_marseille","lat":43.23187,"lon":5.35557,"is_reserved":false,"is_disabled":false,"rental_uris":{"android":"levelo://app?vid=28482e00-7034-4413-b356-d983b48fb55f","ios":"levelo://app?vid=28482e00-7034-4413-b356-d983b48fb55f"},"vehicle_type_id":"4","last_reported":1685739921,"current_range_meters":12800,"station_id":"ce4bhu92rcd13ifvqi70","pricing_plan_id":"free"},{"bike_id":"517b5adf-f053-423a-bf94-3157b15923dc","system_id":"levelo_inurba_marseille","lat":43.23182,"lon":5.35558,"is_reserved":false,"is_disabled":false,"rental_uris":{"android":"levelo://app?vid=517b5adf-f053-423a-bf94-3157b15923dc","ios":"levelo://app?vid=517b5adf-f053-423a-bf94-3157b15923dc"},"vehicle_type_id":"4","last_reported":1685739921,"current_range_meters":7600,"station_id":"ce4bhu92rcd13ifvqi70","pricing_plan_id":"free"},{"bike_id":"1ad3f919-8ac3-47d7-b9ec-69b41ef47389","system_id":"levelo_inurba_marseille","lat":43.231794,"lon":5.400052,"is_reserved":false,"is_disabled":false,"rental_uris":{"android":"levelo://app?vid=1ad3f919-8ac3-47d7-b9ec-69b41ef47389","ios":"levelo://app?vid=1ad3f919-8ac3-47d7-b9ec-69b41ef47389"},"vehicle_type_id":"4","last_reported":1685739921,"current_range_meters":29200,"station_id":"ce4bhn12rcd13ifvqgqg","pricing_plan_id":"free"},{"bike_id":"4c757bea-cafc-44ff-b8a0-4af7d65f6992","system_id":"levelo_inurba_marseille","lat":43.231793,"lon":5.400044,"is_reserved":false,"is_disabled":false,"rental_uris":{"android":"levelo://app?vid=4c757bea-cafc-44ff-b8a0-4af7d65f6992","ios":"levelo://app?vid=4c757bea-cafc-44ff-b8a0-4af7d65f6992"},"vehicle_type_id":"4","last_reported":1685739921,"current_range_meters":25200,"station_id":"ce4bhn12rcd13ifvqgqg","pricing_plan_id":"free"},{"bike_id":"17d4dd21-727a-4cca-a171-6ee88694f458","system_id":"levelo_inurba_marseille","lat":43.231793,"lon":5.400044,"is_reserved":false,"is_disabled":false,"rental_uris":{"android":"levelo://app?vid=17d4dd21-727a-4cca-a171-6ee88694f458","ios":"levelo://app?vid=17d4dd21-727a-4cca-a171-6ee88694f458"},"vehicle_type_id":"4","last_reported":1685739921,"current_range_meters":31200,"station_id":"ce4bhn12rcd13ifvqgqg","pricing_plan_id":"free"},{"bike_id":"b1fb5ae5-82c0-4c4b-8cdb-25c35b8c07da","system_id":"levelo_inurba_marseille","lat":43.231794,"lon":5.400052,"is_reserved":false,"is_disabled":false,"rental_uris":{"android":"levelo://app?vid=b1fb5ae5-82c0-4c4b-8cdb-25c35b8c07da","ios":"levelo://app?vid=b1fb5ae5-82c0-4c4b-8cdb-25c35b8c07da"},"vehicle_type_id":"4","last_reported":1685739921,"current_range_meters":18800,"station_id":"ce4bhn12rcd13ifvqgqg","pricing_plan_id":"free"}]}}