{"last_updated":1740993085,"ttl":60,"version":"2.2","data":{"bikes":[{"bike_id":"d5458f89-73a3-43f1-9894-000389f52995","system_id":"levelo_inurba_marseille","lat":43.27577,"lon":5.41474,"is_reserved":false,"is_disabled":true,"rental_uris":{"android":"levelo://app?vid=d5458f89-73a3-43f1-9894-000389f52995","ios":"levelo://app?vid=d5458f89-73a3-43f1-9894-000389f52995"},"vehicle_type_id":"4","last_reported":1740993085,"current_range_meters":0,"station_id":"","pricing_plan_id":"cebpf4jnsgd1na2vs0mg"},{"bike_id":"ed7da576-e349-42a9-b88d-fc5826b9e322","system_id":"levelo_inurba_marseille","lat":43.27989,"lon":5.4256,"is_reserved":false,"is_disabled":true,"rental_uris":{"android":"levelo://app?vid=ed7da576-e349-42a9-b88d-fc5826b9e322","ios":"levelo://app?vid=ed7da576-e349-42a9-b88d-fc5826b9e322"},"vehicle_type_id":"4","last_reported":1740993085,"current_range_meters":0,"station_id":"","pricing_plan_id":"cebpf4jnsgd1na2vs0mg"},{"bike_id":"afcec8eb-28d8-4889-8879-0897cb5957e3","system_id":"levelo_inurba_marseille","lat":43.27982,"lon":5.40567,"is_reserved":false,"is_disabled":true,"rental_uris":{"android":"levelo://app?vid=afcec8eb-28d8-4889-8879-0897cb5957e3","ios":"levelo://app?vid=afcec8eb-28d8-4889-8879-0897cb5957e3"},"vehicle_type_id":"4","last_reported":1740993085,"current_range_meters":0,"station_id":"","pricing_plan_id":"cebpf4jnsgd1na2vs0mg"},{"bike_id":"7299c7f5-b19a-415a-98fb-92e8f867f54e","system_id":"levelo_inurba_marseille","lat":43.31678,"lon":5.39703,"is_reserved":false,"is_disabled":true,"rental_uris":{"android":"levelo://app?vid=7299c7f5-b19a-415a-98fb-92e8f867f54e","ios":"levelo://app?vid=7299c7f5-b19a-415a-98fb-92e8f867f54e"},"vehicle_type_id":"4","last_reported":1740993085,"current_range_meters":0,"station_id":"","pricing_plan_id":"cebpf4jnsgd1na2vs0mg"},{"bike_id":"6bead628-b45f-47a3-8763-22c7c035af2e","system_id":"levelo_inurba_marseille","lat":43.33211,"lon":5.398,"is_reserved":false,"is_disabled":true,"rental_uris":{"android":"levelo://app?vid=6bead628-b45f-47a3-8763-22c7c035af2e","ios":"levelo://app?vid=6bead628-b45f-47a3-8763-22c7c035af2e"},"vehicle_type_id":"4","last_reported":1740993085,"current_range_meters":0,"station_id":"","pricing_plan_id":"cebpf4jnsgd1na2vs0mg"},{"bike_id":"0aba857b-44fd-4c08-a47b-aac762062db1","system_id":"levelo_inurba_marseille","lat":43.26841,"lon":5.39365,"is_reserved":false,"is_disabled":true,"rental_uris":{"android":"levelo://app?vid=0aba857b-44fd-4c08-a47b-aac762062db1","ios":"levelo://app?vid=0aba857b-44fd-4c08-a47b-aac762062db1"},"vehicle_type_id":"4","last_reported":1740993085,"current_range_meters":0,"station_id":"","pricing_plan_id":"cebpf4jnsgd1na2vs0mg"},{"bike_id":"d49878c9-5ae2-4d1e-b215-2a87ee5068c0","system_id":"levelo_inurba_marseille","lat":43.2997,"lon":5.37172,"is_reserved":false,"is_disabled":true,"rental_uris":{"android":"levelo://app?vid=d49878c9-5ae2-4d1e-b215-2a87ee5068c0","ios":"levelo://app?vid=d49878c9-5ae2-4d1e-b215-2a87ee5068c0"},"vehicle_type_id":"4","last_reported":1740993085,"current_range_meters":0,"station_id":"ce4bgr92rcd13ifvqc7g","pricing_plan_id":"cebpf4jnsgd1na2vs0mg"},{"bike_id":"056fe720-fbba-435e-8b6e-1023d90274d9","system_id":"levelo_inurba_marseille","lat":43.30096,"lon":5.39085,"is_reserved":false,"is_disabled":true,"rental_uris":{"android":"levelo://app?vid=056fe720-fbba-435e-8b6e-1023d90274d9","ios":"levelo://app?vid=056fe720-fbba-435e-8b6e-1023d90274d9"},"vehicle_type_id":"4","last_reported":1740993085,"current_range_meters":0,"station_id":"ce4bh192rcd13ifvqdb0","pricing_plan_id":"cebpf4jnsgd1na2vs0mg"},{"bike_id":"7661d539-bffb-44cc-a64d-67a8684941c2","system_id":"levelo_inurba_marseille","lat":43.2602,"lon":5.375666,"is_reserved":false,"is_disabled":true,"rental_uris":{"android":"levelo://app?vid=7661d539-bffb-44cc-a64d-67a8684941c2","ios":"levelo://app?vid=7661d539-bffb-44cc-a64d-67a8684941c2"},"vehicle_type_id":"4","last_reported":1740993085,"current_range_meters":0,"station_id":"ce4bhgh2rcd13ifvqfa0","pricing_plan_id":"cebpf4jnsgd1na2vs0mg"},{"bike_id":"4f975b79-5d87-410f-bedd-cd7f3224893a","system_id":"levelo_inurba_marseille","lat":43.2509,"lon":5.39525,"is_reserved":false,"is_disabled":true,"rental_uris":{"android":"levelo://app?vid=4f975b79-5d87-410f-bedd-cd7f3224893a","ios":"levelo://app?vid=4f975b79-5d87-410f-bedd-cd7f3224893a"},"vehicle_type_id":"4","last_reported":1740993085,"current_range_meters":0,"station_id":"ce4bhm12rcd13ifvqgkg","pricing_plan_id":"cebpf4jnsgd1na2vs0mg"},{"bike_id":"48bad899-0577-4a3f-9ec8-345a0e75180e","system_id":"levelo_inurba_marseille","lat":43.25943,"lon":5.4091,"is_reserved":false,"is_disabled":true,"rental_uris":{"android":"levelo://app?vid=48bad899-0577-4a3f-9ec8-345a0e75180e","ios":"levelo://app?vid=48bad899-0577-4a3f-9ec8-345a0e75180e"},"vehicle_type_id":"4","last_reported":1740993085,"current_range_meters":0,"station_id":"ce4bhm92rcd13ifvqglg","pricing_plan_id":"cebpf4jnsgd1na2vs0mg"},{"bike_id":"2f91dc2e-9bfe-4b4b-9407-d984fd8ccf1f","system_id":"levelo_inurba_marseille","lat":43.231445,"lon":5.437075,"is_reserved":false,"is_disabled":true,"rental_uris":{"android":"levelo://app?vid=2f91dc2e-9bfe-4b4b-9407-d984fd8ccf1f","ios":"levelo://app?vid=2f91dc2e-9bfe-4b4b-9407-d984fd8ccf1f"},"vehicle_type_id":"4","last_reported":1740993085,"current_range_meters":0,"station_id":"ce4bhmp2rcd13ifvqgog","pricing_plan_id":"cebpf4jnsgd1na2vs0mg"},{"bike_id":"757eba66-4149-42bd-b948-108e047a6ee8","system_id":"levelo_inurba_marseille","lat":43.23158,"lon":5.43706,"is_reserved":false,"is_disabled":true,"rental_uris":{"android":"levelo://app?vid=757eba66-4149-42bd-b948-108e047a6ee8","ios":"levelo://app?vid=757eba66-4149-42bd-b948-108e047a6ee8"},"vehicle_type_id":"4","last_reported":1740993085,"current_range_meters":0,"station_id":"ce4bhmp2rcd13ifvqgog","pricing_plan_id":"cebpf4jnsgd1na2vs0mg"},{"bike_id":"0b7f5b71-f4ed-4763-9583-67e09d08abcf","system_id":"levelo_inurba_marseille","lat":43.24172,"lon":5.39734,"is_reserved":false,"is_disabled":true,"rental_uris":{"android":"levelo://app?vid=0b7f5b71-f4ed-4763-9583-67e09d08abcf","ios":"levelo://app?vid=0b7f5b71-f4ed-4763-9583-67e09d08abcf"},"vehicle_type_id":"4","last_reported":1740993085,"current_range_meters":0,"station_id":"ce4bhn12rcd13ifvqgpg","pricing_plan_id":"cebpf4jnsgd1na2vs0mg"},{"bike_id":"77566084-a98d-4dc2-916a-266e71e8472f","system_id":"levelo_inurba_marseille","lat":43.24179,"lon":5.39735,"is_reserved":false,"is_disabled":true,"rental_uris":{"android":"levelo://app?vid=77566084-a98d-4dc2-916a-266e71e8472f","ios":"levelo://app?vid=77566084-a98d-4dc2-916a-266e71e8472f"},"vehicle_type_id":"4","last_reported":1740993085,"current_range_meters":0,"station_id":"ce4bhn12rcd13ifvqgpg","pricing_plan_id":"cebpf4jnsgd1na2vs0mg"},{"bike_id":"28f34d60-4464-4cd7-a2b7-feed8edfc586","system_id":"levelo_inurba_marseille","lat":43.275,"lon":5.42462,"is_reserved":false,"is_disabled":true,"rental_uris":{"android":"levelo://app?vid=28f34d60-4464-4cd7-a2b7-feed8edfc586","ios":"levelo://app?vid=28f34d60-4464-4cd7-a2b7-feed8edfc586"},"vehicle_type_id":"4","last_reported":1740993085,"current_range_meters":0,"station_id":"ce4bhn92rcd13ifvqgrg","pricing_plan_id":"cebpf4jnsgd1na2vs0mg"},{"bike_id":"d7ee2a0c-5521-43cd-b5d8-51146eb86d00","system_id":"levelo_inurba_marseille","lat":43.28153,"lon":5.42667,"is_reserved":false,"is_disabled":true,"rental_uris":{"android":"levelo://app?vid=d7ee2a0c-5521-43cd-b5d8-51146eb86d00","ios":"levelo://app?vid=d7ee2a0c-5521-43cd-b5d8-51146eb86d00"},"vehicle_type_id":"4","last_reported":1740993085,"current_range_meters":0,"station_id":"ce4bhnh2rcd13ifvqgug","pricing_plan_id":"cebpf4jnsgd1na2vs0mg"},{"bike_id":"2b3ffbed-53e1-4abd-aef4-e1ad79b4146a","system_id":"levelo_inurba_marseille","lat":43.27946,"lon":5.41053,"is_reserved":false,"is_disabled":true,"rental_uris":{"android":"levelo://app?vid=2b3ffbed-53e1-4abd-aef4-e1ad79b4146a","ios":"levelo://app?vid=2b3ffbed-53e1-4abd-aef4-e1ad79b4146a"},"vehicle_type_id":"4","last_reported":1740993085,"current_range_meters":0,"station_id":"ce4bhnp2rcd13ifvqh0g","pricing_plan_id":"cebpf4jnsgd1na2vs0mg"},{"bike_id":"bfdffacc-57e7-4b26-ac88-982817e70f42","system_id":"levelo_inurba_marseille","lat":43.32365,"lon":5.38891,"is_reserved":false,"is_disabled":true,"rental_uris":{"android":"levelo://app?vid=bfdffacc-57e7-4b26-ac88-982817e70f42","ios":"levelo://app?vid=bfdffacc-57e7-4b26-ac88-982817e70f42"},"vehicle_type_id":"4","last_reported":1740993085,"current_range_meters":0,"station_id":"ce4bhqp2rcd13ifvqhog","pricing_plan_id":"cebpf4jnsgd1na2vs0mg"},{"bike_id":"6a19106f-e8bd-4e83-8827-71506c322ab2","system_id":"levelo_inurba_marseille","lat":43.286086,"lon":5.370678,"is_reserved":false,"is_disabled":true,"rental_uris":{"android":"levelo://app?vid=6a19106f-e8bd-4e83-8827-71506c322ab2","ios":"levelo://app?vid=6a19106f-e8bd-4e83-8827-71506c322ab2"},"vehicle_type_id":"4","last_reported":1740993085,"current_range_meters":0,"station_id":"ce4bht12rcd13ifvqi60","pricing_plan_id":"cebpf4jnsgd1na2vs0mg"},{"bike_id":"21762d5f-08a9-43d5-a2a2-f08660ddcc46","system_id":"levelo_inurba_marseille","lat":43.23066,"lon":5.35496,"is_reserved":false,"is_disabled":true,"rental_uris":{"android":"levelo://app?vid=21762d5f-08a9-43d5-a2a2-f08660ddcc46","ios":"levelo://app?vid=21762d5f-08a9-43d5-a2a2-f08660ddcc46"},"vehicle_type_id":"4","last_reported":1740993085,"current_range_meters":0,"station_id":"cpo3342slgdg3j2ifvpg","pricing_plan_id":"cebpf4jnsgd1na2vs0mg"},{"bike_id":"3cb78de1-661d-46f3-a285-753fdff77589","system_id":"levelo_inurba_marseille","lat":43.30594,"lon":5.3823,"is_reserved":false,"is_disabled":true,"rental_uris":{"android":"levelo://app?vid=3cb78de1-661d-46f3-a285-753fdff77589","ios":"levelo://app?vid=3cb78de1-661d-46f3-a285-753fdff77589"},"vehicle_type_id":"4","last_reported":1740993085,"current_range_meters":400,"station_id":"","pricing_plan_id":"cebpf4jnsgd1na2vs0mg"},{"bike_id":"79feedda-f181-4666-b735-dd3cfb2d8c0f","system_id":"levelo_inurba_marseille","lat":43.31871,"lon":5.4113,"is_reserved":false,"is_disabled":true,"rental_uris":{"android":"levelo://app?vid=79feedda-f181-4666-b735-dd3cfb2d8c0f","ios":"levelo://app?vid=79feedda-f181-4666-b735-dd3cfb2d8c0f"},"vehicle_type_id":"4","last_reported":1740993085,"current_range_meters":400,"station_id":"","pricing_plan_id":"cebpf4jnsgd1na2vs0mg"},{"bike_id":"05efb80a-a1a5-4b4d-8733-2780fddf4e5b","system_id":"levelo_inurba_marseille","lat":43.28056,"lon":5.40791,"is_reserved":false,"is_disabled":true,"rental_uris":{"android":"levelo://app?vid=05efb80a-a1a5-4b4d-8733-2780fddf4e5b","ios":"levelo://app?vid=05efb80a-a1a5-4b4d-8733-2780fddf4e5b"},"vehicle_type_id":"4","last_reported":1740993085,"current_range_meters":400,"station_id":"","pricing_plan_id":"cebpf4jnsgd1na2vs0mg"},{"bike_id":"d5de36dd-5d22-4765-8f01-09ddd8b02c2e","system_id":"levelo_inurba_marseille","lat":43.32963,"lon":5.40899,"is_reserved":false,"is_disabled":true,"rental_uris":{"android":"levelo://app?vid=d5de36dd-5d22-4765-8f01-09ddd8b02c2e","ios":"levelo://app?vid=d5de36dd-5d22-4765-8f01-09ddd8b02c2e"},"vehicle_type_id":"4","last_reported":1740993085,"current_range_meters":400,"station_id":"","pricing_plan_id":"cebpf4jnsgd1na2vs0mg"},{"bike_id":"d81b2cc8-fb23-4c08-9ddd-89d546b76a90","system_id":"levelo_inurba_marseille","lat":43.32551,"lon":5.38591,"is_reserved":false,"is_disabled":true,"rental_uris":{"android":"levelo://app?vid=d81b2cc8-fb23-4c08-9ddd-89d546b76a90","ios":"levelo://app?vid=d81b2cc8-fb23-4c08-9ddd-89d546b76a90"},"vehicle_type_id":"4","last_reported":1740993085,"current_range_meters":800,"station_id":"","pricing_plan_id":"cebpf4jnsgd1na2vs0mg"},{"bike_id":"e65d2be1-9161-4ae6-9036-c75e0fa7ad1f","system_id":"levelo_inurba_marseille","lat":43.26584,"lon":5.39011,"is_reserved":false,"is_disabled":true,"rental_uris":{"android":"levelo://app?vid=e65d2be1-9161-4ae6-9036-c75e0fa7ad1f","ios":"levelo://app?vid=e65d2be1-9161-4ae6-9036-c75e0fa7ad1f"},"vehicle_type_id":"4","last_reported":1740993085,"current_range_meters":800,"station_id":"ce4bhe12rcd13ifvqf30","pricing_plan_id":"cebpf4jnsgd1na2vs0mg"},{"bike_id":"1e42ea53-463b-4a03-92f5-c395ff4abf73","system_id":"levelo_inurba_marseille","lat":43.25501,"lon":5.37655,"is_reserved":false,"is_disabled":false,"rental_uris":{"android":"levelo://app?vid=1e42ea53-463b-4a03-92f5-c395ff4abf73","ios":"levelo://app?vid=1e42ea53-463b-4a03-92f5-c395ff4abf73"},"vehicle_type_id":"4","last_reported":1740993085,"current_range_meters":800,"station_id":"ce4bhh12rcd13ifvqff0","pricing_plan_id":"cebpf4jnsgd1na2vs0mg"},{"bike_id":"798b8017-ff68-4ca6-bf96-b9cd86f1a27b","system_id":"levelo_inurba_marseille","lat":43.24068,"lon":5.37716,"is_reserved":false,"is_disabled":true,"rental_uris":{"android":"levelo://app?vid=798b8017-ff68-4ca6-bf96-b9cd86f1a27b","ios":"levelo://app?vid=798b8017-ff68-4ca6-bf96-b9cd86f1a27b"},"vehicle_type_id":"4","last_reported":1740993085,"current_range_meters":800,"station_id":"ce4bhnp2rcd13ifvqgvg","pricing_plan_id":"cebpf4jnsgd1na2vs0mg"},{"bike_id":"cae47438-eddb-4ea7-ad60-e45ef1cce088","system_id":"levelo_inurba_marseille","lat":43.32575,"lon":5.41459,"is_reserved":false,"is_disabled":true,"rental_uris":{"android":"levelo://app?vid=cae47438-eddb-4ea7-ad60-e45ef1cce088","ios":"levelo://app?vid=cae47438-eddb-4ea7-ad60-e45ef1cce088"},"vehicle_type_id":"4","last_reported":1740993085,"current_range_meters":1200,"station_id":"","pricing_plan_id":"cebpf4jnsgd1na2vs0mg"},{"bike_id":"165587fc-a035-4aca-9851-cadc16d6f507","system_id":"levelo_inurba_marseille","lat":43.28426,"lon":5.37508,"is_reserved":false,"is_disabled":true,"rental_uris":{"android":"levelo://app?vid=165587fc-a035-4aca-9851-cadc16d6f507","ios":"levelo://app?vid=165587fc-a035-4aca-9851-cadc16d6f507"},"vehicle_type_id":"4","last_reported":1740993085,"current_range_meters":1200,"station_id":"ce4bh412rcd13ifvqds0","pricing_plan_id":"cebpf4jnsgd1na2vs0mg"},{"bike_id":"b7201307-5540-4438-b750-e30d3ffb19e8","system_id":"levelo_inurba_marseille","lat":43.27948,"lon":5.38729,"is_reserved":false,"is_disabled":true,"rental_uris":{"android":"levelo://app?vid=b7201307-5540-4438-b750-e30d3ffb19e8","ios":"levelo://app?vid=b7201307-5540-4438-b750-e30d3ffb19e8"},"vehicle_type_id":"4","last_reported":1740993085,"current_range_meters":1200,"station_id":"ce4bhg12rcd13ifvqf80","pricing_plan_id":"cebpf4jnsgd1na2vs0mg"},{"bike_id":"27b7843e-3934-44bc-8565-42c1b5629bf5","system_id":"levelo_inurba_marseille","lat":43.27077,"lon":5.42281,"is_reserved":false,"is_disabled":true,"rental_uris":{"android":"levelo://app?vid=27b7843e-3934-44bc-8565-42c1b5629bf5","ios":"levelo://app?vid=27b7843e-3934-44bc-8565-42c1b5629bf5"},"vehicle_type_id":"4","last_reported":1740993085,"current_range_meters":1200,"station_id":"ce4bhk92rcd13ifvqgb0","pricing_plan_id":"cebpf4jnsgd1na2vs0mg"},{"bike_id":"b009fe55-4d59-4f52-910b-e497dc53dfe6","system_id":"levelo_inurba_marseille","lat":43.23151,"lon":5.4371,"is_reserved":false,"is_disabled":true,"rental_uris":{"android":"levelo://app?vid=b009fe55-4d59-4f52-910b-e497dc53dfe6","ios":"levelo://app?vid=b009fe55-4d59-4f52-910b-e497dc53dfe6"},"vehicle_type_id":"4","last_reported":1740993085,"current_range_meters":1200,"station_id":"ce4bhmp2rcd13ifvqgog","pricing_plan_id":"cebpf4jnsgd1na2vs0mg"},{"bike_id":"2fcd25b0-c421-4d0f-ba30-5f6f5ff608f3","system_id":"levelo_inurba_marseille","lat":43.3076,"lon":5.38634,"is_reserved":false,"is_disabled":true,"rental_uris":{"android":"levelo://app?vid=2fcd25b0-c421-4d0f-ba30-5f6f5ff608f3","ios":"levelo://app?vid=2fcd25b0-c421-4d0f-ba30-5f6f5ff608f3"},"vehicle_type_id":"4","last_reported":1740993085,"current_range_meters":1600,"station_id":"","pricing_plan_id":"cebpf4jnsgd1na2vs0mg"},{"bike_id":"318e62ec-c992-4c2f-8ce0-cf60457d06ba","system_id":"levelo_inurba_marseille","lat":43.217705,"lon":5.346376,"is_reserved":false,"is_disabled":true,"rental_uris":{"android":"levelo://app?vid=318e62ec-c992-4c2f-8ce0-cf60457d06ba","ios":"levelo://app?vid=318e62ec-c992-4c2f-8ce0-cf60457d06ba"},"vehicle_type_id":"4","last_reported":1740993085,"current_range_meters":1600,"station_id":"","pricing_plan_id":"cebpf4jnsgd1na2vs0mg"},{"bike_id":"2a6c84cf-c8a9-4f5d-86a2-89faec862185","system_id":"levelo_inurba_marseille","lat":43.24067,"lon":5.37837,"is_reserved":false,"is_disabled":true,"rental_uris":{"android":"levelo://app?vid=2a6c84cf-c8a9-4f5d-86a2-89faec862185","ios":"levelo://app?vid=2a6c84cf-c8a9-4f5d-86a2-89faec862185"},"vehicle_type_id":"4","last_reported":1740993085,"current_range_meters":1600,"station_id":"","pricing_plan_id":"cebpf4jnsgd1na2vs0mg"},{"bike_id":"45bc461d-4ed1-438c-83aa-fdc541d2645a","system_id":"levelo_inurba_marseille","lat":43.29308,"lon":5.37164,"is_reserved":false,"is_disabled":false,"rental_uris":{"android":"levelo://app?vid=45bc461d-4ed1-438c-83aa-fdc541d2645a","ios":"levelo://app?vid=45bc461d-4ed1-438c-83aa-fdc541d2645a"},"vehicle_type_id":"4","last_reported":1740993085,"current_range_meters":1600,"station_id":"ce4bgh92rcd13ifvqb40","pricing_plan_id":"cebpf4jnsgd1na2vs0mg"},{"bike_id":"be59fd5e-0450-451a-b3d3-4277ce4a3f15","system_id":"levelo_inurba_marseille","lat":43.29034,"lon":5.39915,"is_reserved":false,"is_disabled":true,"rental_uris":{"android":"levelo://app?vid=be59fd5e-0450-451a-b3d3-4277ce4a3f15","ios":"levelo://app?vid=be59fd5e-0450-451a-b3d3-4277ce4a3f15"},"vehicle_type_id":"4","last_reported":1740993085,"current_range_meters":1600,"station_id":"ce4bh392rcd13ifvqdm0","pricing_plan_id":"cebpf4jnsgd1na2vs0mg"},{"bike_id":"d5f3545a-d7d3-4bdb-b9ca-af46e105f623","system_id":"levelo_inurba_marseille","lat":43.27451,"lon":5.39422,"is_reserved":false,"is_disabled":true,"rental_uris":{"android":"levelo://app?vid=d5f3545a-d7d3-4bdb-b9ca-af46e105f623","ios":"levelo://app?vid=d5f3545a-d7d3-4bdb-b9ca-af46e105f623"},"vehicle_type_id":"4","last_reported":1740993085,"current_range_meters":1600,"station_id":"ce4bhdp2rcd13ifvqf20","pricing_plan_id":"cebpf4jnsgd1na2vs0mg"},{"bike_id":"79940204-33a2-4adc-adb7-69e577505cbb","system_id":"levelo_inurba_marseille","lat":43.30593,"lon":5.39342,"is_reserved":false,"is_disabled":true,"rental_uris":{"android":"levelo://app?vid=79940204-33a2-4adc-adb7-69e577505cbb","ios":"levelo://app?vid=79940204-33a2-4adc-adb7-69e577505cbb"},"vehicle_type_id":"4","last_reported":1740993085,"current_range_meters":2000,"station_id":"ce4bh0p2rcd13ifvqd80","pricing_plan_id":"cebpf4jnsgd1na2vs0mg"},{"bike_id":"0ff708a2-103c-4c72-8ccd-a8d1bdf0b6cd","system_id":"levelo_inurba_marseille","lat":43.26956,"lon":5.38644,"is_reserved":false,"is_disabled":true,"rental_uris":{"android":"levelo://app?vid=0ff708a2-103c-4c72-8ccd-a8d1bdf0b6cd","ios":"levelo://app?vid=0ff708a2-103c-4c72-8ccd-a8d1bdf0b6cd"},"vehicle_type_id":"4","last_reported":1740993085,"current_range_meters":2000,"station_id":"ce4bhh92rcd13ifvqfh0","pricing_plan_id":"cebpf4jnsgd1na2vs0mg"},{"bike_id":"1489ce82-77e8-4a10-9808-3dba697bae84","system_id":"levelo_inurba_marseille","lat":43.2511,"lon":5.40324,"is_reserved":false,"is_disabled":false,"rental_uris":{"android":"levelo://app?vid=1489ce82-77e8-4a10-9808-3dba697bae84","ios":"levelo://app?vid=1489ce82-77e8-4a10-9808-3dba697bae84"},"vehicle_type_id":"4","last_reported":1740993085,"current_range_meters":3200,"station_id":"ce4bhlh2rcd13ifvqgig","pricing_plan_id":"cebpf4jnsgd1na2vs0mg"},{"bike_id":"bb8d91f6-7806-417e-9f40-7af7d2a367da","system_id":"levelo_inurba_marseille","lat":43.23184,"lon":5.39987,"is_reserved":false,"is_disabled":false,"rental_uris":{"android":"levelo://app?vid=bb8d91f6-7806-417e-9f40-7af7d2a367da","ios":"levelo://app?vid=bb8d91f6-7806-417e-9f40-7af7d2a367da"},"vehicle_type_id":"4","last_reported":1740993085,"current_range_meters":3600,"station_id":"ce4bhn12rcd13ifvqgqg","pricing_plan_id":"cebpf4jnsgd1na2vs0mg"},{"bike_id":"135f36cc-93f5-45a5-acd8-d499db183800","system_id":"levelo_inurba_marseille","lat":43.30145,"lon":5.37427,"is_reserved":false,"is_disabled":false,"rental_uris":{"android":"levelo://app?vid=135f36cc-93f5-45a5-acd8-d499db183800","ios":"levelo://app?vid=135f36cc-93f5-45a5-acd8-d499db183800"},"vehicle_type_id":"4","last_reported":1740993085,"current_range_meters":4000,"station_id":"ce4bgs92rcd13ifvqcc0","pricing_plan_id":"cebpf4jnsgd1na2vs0mg"},{"bike_id":"443de3ee-b6aa-4c50-9cc7-1fbc55092239","system_id":"levelo_inurba_marseille","lat":43.30959,"lon":5.39042,"is_reserved":false,"is_disabled":false,"rental_uris":{"android":"levelo://app?vid=443de3ee-b6aa-4c50-9cc7-1fbc55092239","ios":"levelo://app?vid=443de3ee-b6aa-4c50-9cc7-1fbc55092239"},"vehicle_type_id":"4","last_reported":1740993085,"current_range_meters":4000,"station_id":"ce4bgup2rcd13ifvqco0","pricing_plan_id":"cebpf4jnsgd1na2vs0mg"},{"bike_id":"318dcb1b-9247-409e-9dad-ff18bd11104d","system_id":"levelo_inurba_marseille","lat":43.24823,"lon":5.37465,"is_reserved":false,"is_disabled":false,"rental_uris":{"android":"levelo://app?vid=318dcb1b-9247-409e-9dad-ff18bd11104d","ios":"levelo://app?vid=318dcb1b-9247-409e-9dad-ff18bd11104d"},"vehicle_type_id":"4","last_reported":1740993085,"current_range_meters":4000,"station_id":"ce4bhgh2rcd13ifvqfb0","pricing_plan_id":"cebpf4jnsgd1na2vs0mg"},{"bike_id":"c1f55817-34f7-48aa-aedd-e75f099eaecf","system_id":"levelo_inurba_marseille","lat":43.32664,"lon":5.40993,"is_reserved":false,"is_disabled":false,"rental_uris":{"android":"levelo://app?vid=c1f55817-34f7-48aa-aedd-e75f099eaecf","ios":"levelo://app?vid=c1f55817-34f7-48aa-aedd-e75f099eaecf"},"vehicle_type_id":"4","last_reported":1740993085,"current_range_meters":4000,"station_id":"ce4bhpp2rcd13ifvqhgg","pricing_plan_id":"cebpf4jnsgd1na2vs0mg"},{"bike_id":"b0242234-6b00-4ef0-86bc-1c257d71e896","system_id":"levelo_inurba_marseille","lat":43.34143,"lon":5.40908,"is_reserved":false,"is_disabled":false,"rental_uris":{"android":"levelo://app?vid=b0242234-6b00-4ef0-86bc-1c257d71e896","ios":"levelo://app?vid=b0242234-6b00-4ef0-86bc-1c257d71e896"},"vehicle_type_id":"4","last_reported":1740993085,"current_range_meters":4000,"station_id":"ce4bhqh2rcd13ifvqhlg","pricing_plan_id":"cebpf4jnsgd1na2vs0mg"},{"bike_id":"f0111401-57c2-44bf-9e2b-5a91e6d0048c","system_id":"levelo_inurba_marseille","lat":43.320403,"lon":5.415537,"is_reserved":false,"is_disabled":false,"rental_uris":{"android":"levelo://app?vid=f0111401-57c2-44bf-9e2b-5a91e6d0048c","ios":"levelo://app?vid=f0111401-57c2-44bf-9e2b-5a91e6d0048c"},"vehicle_type_id":"4","last_reported":1740993085,"current_range_meters":4400,"station_id":"ce4bhqh2rcd13ifvqhlg","pricing_plan_id":"cebpf4jnsgd1na2vs0mg"},{"bike_id":"36d09393-2416-4dae-8e0d-c4643034c234","system_id":"levelo_inurba_marseille","lat":43.30148,"lon":5.38143,"is_reserved":false,"is_disabled":false,"rental_uris":{"android":"levelo://app?vid=36d09393-2416-4dae-8e0d-c4643034c234","ios":"levelo://app?vid=36d09393-2416-4dae-8e0d-c4643034c234"},"vehicle_type_id":"4","last_reported":1740993085,"current_range_meters":4800,"station_id":"ce4bgjp2rcd13ifvqbh0","pricing_plan_id":"cebpf4jnsgd1na2vs0mg"},{"bike_id":"6f11d198-b6d9-4dd3-ba4e-754d90956bde","system_id":"levelo_inurba_marseille","lat":43.25091,"lon":5.39505,"is_reserved":false,"is_disabled":false,"rental_uris":{"android":"levelo://app?vid=6f11d198-b6d9-4dd3-ba4e-754d90956bde","ios":"levelo://app?vid=6f11d198-b6d9-4dd3-ba4e-754d90956bde"},"vehicle_type_id":"4","last_reported":1740993085,"current_range_meters":5600,"station_id":"ce4bhm12rcd13ifvqgkg","pricing_plan_id":"cebpf4jnsgd1na2vs0mg"},{"bike_id":"7e57feb3-b099-4928-a843-4bcc80e172de","system_id":"levelo_inurba_marseille","lat":43.33601,"lon":5.4103,"is_reserved":false,"is_disabled":false,"rental_uris":{"android":"levelo://app?vid=7e57feb3-b099-4928-a843-4bcc80e172de","ios":"levelo://app?vid=7e57feb3-b099-4928-a843-4bcc80e172de"},"vehicle_type_id":"4","last_reported":1740993085,"current_range_meters":5600,"station_id":"ce4bhqh2rcd13ifvqhmg","pricing_plan_id":"cebpf4jnsgd1na2vs0mg"},{"bike_id":"eafe4694-db55-4cde-85aa-971c3787bde8","system_id":"levelo_inurba_marseille","lat":43.24174,"lon":5.36422,"is_reserved":false,"is_disabled":false,"rental_uris":{"android":"levelo://app?vid=eafe4694-db55-4cde-85aa-971c3787bde8","ios":"levelo://app?vid=eafe4694-db55-4cde-85aa-971c3787bde8"},"vehicle_type_id":"4","last_reported":1740993085,"current_range_meters":5600,"station_id":"cpo36qri1sfpv3e86is0","pricing_plan_id":"cebpf4jnsgd1na2vs0mg"},{"bike_id":"3cbb5843-7d6f-4ab1-8221-c879ecca96e4","system_id":"levelo_inurba_marseille","lat":43.32738,"lon":5.36278,"is_reserved":false,"is_disabled":false,"rental_uris":{"android":"levelo://app?vid=3cbb5843-7d6f-4ab1-8221-c879ecca96e4","ios":"levelo://app?vid=3cbb5843-7d6f-4ab1-8221-c879ecca96e4"},"vehicle_type_id":"4","last_reported":1740993085,"current_range_meters":6000,"station_id":"","pricing_plan_id":"cebpf4jnsgd1na2vs0mg"},{"bike_id":"822ba722-c0d0-4cc1-831a-ec528db99bbb","system_id":"levelo_inurba_marseille","lat":43.25004,"lon":5.38923,"is_reserved":false,"is_disabled":false,"rental_uris":{"android":"levelo://app?vid=822ba722-c0d0-4cc1-831a-ec528db99bbb","ios":"levelo://app?vid=822ba722-c0d0-4cc1-831a-ec528db99bbb"},"vehicle_type_id":"4","last_reported":1740993085,"current_range_meters":6000,"station_id":"ce4bhgp2rcd13ifvqfd0","pricing_plan_id":"cebpf4jnsgd1na2vs0mg"},{"bike_id":"25902d4d-975b-4953-871f-d69793e83f38","system_id":"levelo_inurba_marseille","lat":43.240723,"lon":5.377612,"is_reserved":false,"is_disabled":false,"rental_uris":{"android":"levelo://app?vid=25902d4d-975b-4953-871f-d69793e83f38","ios":"levelo://app?vid=25902d4d-975b-4953-871f-d69793e83f38"},"vehicle_type_id":"4","last_reported":1740993085,"current_range_meters":6000,"station_id":"ce4bhih2rcd13ifvqfr0","pricing_plan_id":"cebpf4jnsgd1na2vs0mg"},{"bike_id":"d16ba5cd-0c1a-4fde-a64c-f9658f5b62cb","system_id":"levelo_inurba_marseille","lat":43.283478,"lon":5.381028,"is_reserved":false,"is_disabled":false,"rental_uris":{"android":"levelo://app?vid=d16ba5cd-0c1a-4fde-a64c-f9658f5b62cb","ios":"levelo://app?vid=d16ba5cd-0c1a-4fde-a64c-f9658f5b62cb"},"vehicle_type_id":"4","last_reported":1740993085,"current_range_meters":6000,"station_id":"ce4bhjp2rcd13ifvqg90","pricing_plan_id":"cebpf4jnsgd1na2vs0mg"},{"bike_id":"97e8d4c3-f9a5-4604-95d3-9a0f93d23194","system_id":"levelo_inurba_marseille","lat":43.29164,"lon":5.40917,"is_reserved":false,"is_disabled":false,"rental_uris":{"android":"levelo://app?vid=97e8d4c3-f9a5-4604-95d3-9a0f93d23194","ios":"levelo://app?vid=97e8d4c3-f9a5-4604-95d3-9a0f93d23194"},"vehicle_type_id":"4","last_reported":1740993085,"current_range_meters":6400,"station_id":"","pricing_plan_id":"cebpf4jnsgd1na2vs0mg"},{"bike_id":"8a176c24-9cad-47e8-8777-72b0e258a9fd","system_id":"levelo_inurba_marseille","lat":43.29315,"lon":5.3747,"is_reserved":false,"is_disabled":false,"rental_uris":{"android":"levelo://app?vid=8a176c24-9cad-47e8-8777-72b0e258a9fd","ios":"levelo://app?vid=8a176c24-9cad-47e8-8777-72b0e258a9fd"},"vehicle_type_id":"4","last_reported":1740993085,"current_range_meters":6400,"station_id":"ce4bgi12rcd13ifvqb70","pricing_plan_id":"cebpf4jnsgd1na2vs0mg"},{"bike_id":"06599db3-cbaa-4b8c-b9f6-8e60fc8e7748","system_id":"levelo_inurba_marseille","lat":43.29799,"lon":5.38113,"is_reserved":false,"is_disabled":false,"rental_uris":{"android":"levelo://app?vid=06599db3-cbaa-4b8c-b9f6-8e60fc8e7748","ios":"levelo://app?vid=06599db3-cbaa-4b8c-b9f6-8e60fc8e7748"},"vehicle_type_id":"4","last_reported":1740993085,"current_range_meters":6400,"station_id":"ce4bgip2rcd13ifvqbb0","pricing_plan_id":"cebpf4jnsgd1na2vs0mg"},{"bike_id":"926c1bda-983c-4a02-8b9b-c145d55d3b98","system_id":"levelo_inurba_marseille","lat":43.2407,"lon":5.37769,"is_reserved":false,"is_disabled":false,"rental_uris":{"android":"levelo://app?vid=926c1bda-983c-4a02-8b9b-c145d55d3b98","ios":"levelo://app?vid=926c1bda-983c-4a02-8b9b-c145d55d3b98"},"vehicle_type_id":"4","last_reported":1740993085,"current_range_meters":6400,"station_id":"ce4bhnp2rcd13ifvqgvg","pricing_plan_id":"cebpf4jnsgd1na2vs0mg"},{"bike_id":"0693b9d6-4a9d-4e38-bfa2-80f934bcc2e3","system_id":"levelo_inurba_marseille","lat":43.24169,"lon":5.3641,"is_reserved":false,"is_disabled":false,"rental_uris":{"android":"levelo://app?vid=0693b9d6-4a9d-4e38-bfa2-80f934bcc2e3","ios":"levelo://app?vid=0693b9d6-4a9d-4e38-bfa2-80f934bcc2e3"},"vehicle_type_id":"4","last_reported":1740993085,"current_range_meters":6400,"station_id":"cpo36qri1sfpv3e86is0","pricing_plan_id":"cebpf4jnsgd1na2vs0mg"},{"bike_id":"2da3d4e5-bf9d-4cd3-b7fa-4e79daa1c81d","system_id":"levelo_inurba_marseille","lat":43.31364,"lon":5.36699,"is_reserved":false,"is_disabled":false,"rental_uris":{"android":"levelo://app?vid=2da3d4e5-bf9d-4cd3-b7fa-4e79daa1c81d","ios":"levelo://app?vid=2da3d4e5-bf9d-4cd3-b7fa-4e79daa1c81d"},"vehicle_type_id":"4","last_reported":1740993085,"current_range_meters":6800,"station_id":"ce4bgr92rcd13ifvqc6g","pricing_plan_id":"cebpf4jnsgd1na2vs0mg"},{"bike_id":"fdbd28e6-17ba-4371-bfab-70426a578170","system_id":"levelo_inurba_marseille","lat":43.31335,"lon":5.39695,"is_reserved":false,"is_disabled":false,"rental_uris":{"android":"levelo://app?vid=fdbd28e6-17ba-4371-bfab-70426a578170","ios":"levelo://app?vid=fdbd28e6-17ba-4371-bfab-70426a578170"},"vehicle_type_id":"4","last_reported":1740993085,"current_range_meters":6800,"station_id":"ce4bh092rcd13ifvqd20","pricing_plan_id":"cebpf4jnsgd1na2vs0mg"},{"bike_id":"bf4b91df-5eb4-4add-944c-6381da5a1f9b","system_id":"levelo_inurba_marseille","lat":43.26505,"lon":5.39537,"is_reserved":false,"is_disabled":false,"rental_uris":{"android":"levelo://app?vid=bf4b91df-5eb4-4add-944c-6381da5a1f9b","ios":"levelo://app?vid=bf4b91df-5eb4-4add-944c-6381da5a1f9b"},"vehicle_type_id":"4","last_reported":1740993085,"current_range_meters":6800,"station_id":"ce4bhi12rcd13ifvqfq0","pricing_plan_id":"cebpf4jnsgd1na2vs0mg"},{"bike_id":"7dbc97d2-8d43-423b-a2e9-b386d44d772f","system_id":"levelo_inurba_marseille","lat":43.27501,"lon":5.42474,"is_reserved":false,"is_disabled":false,"rental_uris":{"android":"levelo://app?vid=7dbc97d2-8d43-423b-a2e9-b386d44d772f","ios":"levelo://app?vid=7dbc97d2-8d43-423b-a2e9-b386d44d772f"},"vehicle_type_id":"4","last_reported":1740993085,"current_range_meters":6800,"station_id":"ce4bhn92rcd13ifvqgrg","pricing_plan_id":"cebpf4jnsgd1na2vs0mg"},{"bike_id":"89635486-9713-42c5-bc52-673a06446afa","system_id":"levelo_inurba_marseille","lat":43.29913,"lon":5.38151,"is_reserved":false,"is_disabled":false,"rental_uris":{"android":"levelo://app?vid=89635486-9713-42c5-bc52-673a06446afa","ios":"levelo://app?vid=89635486-9713-42c5-bc52-673a06446afa"},"vehicle_type_id":"4","last_reported":1740993085,"current_range_meters":7200,"station_id":"ce4bgj12rcd13ifvqbc0","pricing_plan_id":"cebpf4jnsgd1na2vs0mg"},{"bike_id":"769136f3-f3ae-4411-b6d7-424e2510d081","system_id":"levelo_inurba_marseille","lat":43.31354,"lon":5.3672,"is_reserved":false,"is_disabled":false,"rental_uris":{"android":"levelo://app?vid=769136f3-f3ae-4411-b6d7-424e2510d081","ios":"levelo://app?vid=769136f3-f3ae-4411-b6d7-424e2510d081"},"vehicle_type_id":"4","last_reported":1740993085,"current_range_meters":7200,"station_id":"ce4bgr92rcd13ifvqc6g","pricing_plan_id":"cebpf4jnsgd1na2vs0mg"},{"bike_id":"0ae26234-8d13-496b-85ef-ee7fcde2c590","system_id":"levelo_inurba_marseille","lat":43.24106,"lon":5.37763,"is_reserved":false,"is_disabled":false,"rental_uris":{"android":"levelo://app?vid=0ae26234-8d13-496b-85ef-ee7fcde2c590","ios":"levelo://app?vid=0ae26234-8d13-496b-85ef-ee7fcde2c590"},"vehicle_type_id":"4","last_reported":1740993085,"current_range_meters":7200,"station_id":"ce4bhnp2rcd13ifvqgvg","pricing_plan_id":"cebpf4jnsgd1na2vs0mg"},{"bike_id":"18f1b3e1-ede3-4983-a28f-a94bea436e7f","system_id":"levelo_inurba_marseille","lat":43.30886,"lon":5.39673,"is_reserved":false,"is_disabled":false,"rental_uris":{"android":"levelo://app?vid=18f1b3e1-ede3-4983-a28f-a94bea436e7f","ios":"levelo://app?vid=18f1b3e1-ede3-4983-a28f-a94bea436e7f"},"vehicle_type_id":"4","last_reported":1740993085,"current_range_meters":8000,"station_id":"ce4bh012rcd13ifvqcv0","pricing_plan_id":"cebpf4jnsgd1na2vs0mg"},{"bike_id":"1b344f98-6688-4136-9c42-a7220efc4b4a","system_id":"levelo_inurba_marseille","lat":43.28485,"lon":5.38428,"is_reserved":false,"is_disabled":false,"rental_uris":{"android":"levelo://app?vid=1b344f98-6688-4136-9c42-a7220efc4b4a","ios":"levelo://app?vid=1b344f98-6688-4136-9c42-a7220efc4b4a"},"vehicle_type_id":"4","last_reported":1740993085,"current_range_meters":8000,"station_id":"ce4bh512rcd13ifvqe3g","pricing_plan_id":"cebpf4jnsgd1na2vs0mg"},{"bike_id":"d7e4b643-f4bb-4858-b99e-1e809ea6bd9a","system_id":"levelo_inurba_marseille","lat":43.24412,"lon":5.37067,"is_reserved":false,"is_disabled":false,"rental_uris":{"android":"levelo://app?vid=d7e4b643-f4bb-4858-b99e-1e809ea6bd9a","ios":"levelo://app?vid=d7e4b643-f4bb-4858-b99e-1e809ea6bd9a"},"vehicle_type_id":"4","last_reported":1740993085,"current_range_meters":8000,"station_id":"ce4bhhh2rcd13ifvqfk0","pricing_plan_id":"cebpf4jnsgd1na2vs0mg"},{"bike_id":"7c4be158-4b98-4ffa-8fd3-45ef392532d1","system_id":"levelo_inurba_marseille","lat":43.23143,"lon":5.43724,"is_reserved":false,"is_disabled":false,"rental_uris":{"android":"levelo://app?vid=7c4be158-4b98-4ffa-8fd3-45ef392532d1","ios":"levelo://app?vid=7c4be158-4b98-4ffa-8fd3-45ef392532d1"},"vehicle_type_id":"4","last_reported":1740993085,"current_range_meters":8000,"station_id":"ce4bhmp2rcd13ifvqgog","pricing_plan_id":"cebpf4jnsgd1na2vs0mg"},{"bike_id":"752ec0a4-08cc-4402-944f-6ae0b001a24f","system_id":"levelo_inurba_marseille","lat":43.275,"lon":5.42453,"is_reserved":false,"is_disabled":false,"rental_uris":{"android":"levelo://app?vid=752ec0a4-08cc-4402-944f-6ae0b001a24f","ios":"levelo://app?vid=752ec0a4-08cc-4402-944f-6ae0b001a24f"},"vehicle_type_id":"4","last_reported":1740993085,"current_range_meters":8000,"station_id":"ce4bhn92rcd13ifvqgrg","pricing_plan_id":"cebpf4jnsgd1na2vs0mg"},{"bike_id":"3de4ea9d-11ca-4a08-bc71-cb766e043b6c","system_id":"levelo_inurba_marseille","lat":43.31758,"lon":5.3902,"is_reserved":false,"is_disabled":false,"rental_uris":{"android":"levelo://app?vid=3de4ea9d-11ca-4a08-bc71-cb766e043b6c","ios":"levelo://app?vid=3de4ea9d-11ca-4a08-bc71-cb766e043b6c"},"vehicle_type_id":"4","last_reported":1740993085,"current_range_meters":8000,"station_id":"ce4bhqp2rcd13ifvqhng","pricing_plan_id":"cebpf4jnsgd1na2vs0mg"},{"bike_id":"3284e9b8-acd3-4c31-a875-3d42ab73c106","system_id":"levelo_inurba_marseille","lat":43.31522,"lon":5.37366,"is_reserved":false,"is_disabled":false,"rental_uris":{"android":"levelo://app?vid=3284e9b8-acd3-4c31-a875-3d42ab73c106","ios":"levelo://app?vid=3284e9b8-acd3-4c31-a875-3d42ab73c106"},"vehicle_type_id":"4","last_reported":1740993085,"current_range_meters":8400,"station_id":"","pricing_plan_id":"cebpf4jnsgd1na2vs0mg"},{"bike_id":"505d6f52-7cd5-4bd3-8ab6-c1fdcf30a87f","system_id":"levelo_inurba_marseille","lat":43.276174,"lon":5.361146,"is_reserved":false,"is_disabled":false,"rental_uris":{"android":"levelo://app?vid=505d6f52-7cd5-4bd3-8ab6-c1fdcf30a87f","ios":"levelo://app?vid=505d6f52-7cd5-4bd3-8ab6-c1fdcf30a87f"},"vehicle_type_id":"4","last_reported":1740993085,"current_range_meters":8400,"station_id":"ce4bgj92rcd13ifvqbe0","pricing_plan_id":"cebpf4jnsgd1na2vs0mg"},{"bike_id":"96f394c5-686e-4cf9-9cca-970195a46b3e","system_id":"levelo_inurba_marseille","lat":43.26683,"lon":5.38273,"is_reserved":false,"is_disabled":false,"rental_uris":{"android":"levelo://app?vid=96f394c5-686e-4cf9-9cca-970195a46b3e","ios":"levelo://app?vid=96f394c5-686e-4cf9-9cca-970195a46b3e"},"vehicle_type_id":"4","last_reported":1740993085,"current_range_meters":8400,"station_id":"ce4bhg92rcd13ifvqf90","pricing_plan_id":"cebpf4jnsgd1na2vs0mg"},{"bike_id":"1dd4abe7-652c-4db5-9c15-f76be88de608","system_id":"levelo_inurba_marseille","lat":43.26944,"lon":5.38643,"is_reserved":false,"is_disabled":false,"rental_uris":{"android":"levelo://app?vid=1dd4abe7-652c-4db5-9c15-f76be88de608","ios":"levelo://app?vid=1dd4abe7-652c-4db5-9c15-f76be88de608"},"vehicle_type_id":"4","last_reported":1740993085,"current_range_meters":8400,"station_id":"ce4bhh92rcd13ifvqfh0","pricing_plan_id":"cebpf4jnsgd1na2vs0mg"},{"bike_id":"95bb5a60-e338-4ea7-a971-63dccfeeec35","system_id":"levelo_inurba_marseille","lat":43.25817,"lon":5.39428,"is_reserved":false,"is_disabled":false,"rental_uris":{"android":"levelo://app?vid=95bb5a60-e338-4ea7-a971-63dccfeeec35","ios":"levelo://app?vid=95bb5a60-e338-4ea7-a971-63dccfeeec35"},"vehicle_type_id":"4","last_reported":1740993085,"current_range_meters":8400,"station_id":"ce4bhip2rcd13ifvqft0","pricing_plan_id":"cebpf4jnsgd1na2vs0mg"},{"bike_id":"878e1786-5c8b-4fbd-97e0-962177e72bdb","system_id":"levelo_inurba_marseille","lat":43.25926,"lon":5.40881,"is_reserved":false,"is_disabled":false,"rental_uris":{"android":"levelo://app?vid=878e1786-5c8b-4fbd-97e0-962177e72bdb","ios":"levelo://app?vid=878e1786-5c8b-4fbd-97e0-962177e72bdb"},"vehicle_type_id":"4","last_reported":1740993085,"current_range_meters":8400,"station_id":"ce4bhm92rcd13ifvqglg","pricing_plan_id":"cebpf4jnsgd1na2vs0mg"},{"bike_id":"1d3c7fd7-b709-4008-8e9f-a0f764fe60d9","system_id":"levelo_inurba_marseille","lat":43.28279,"lon":5.38551,"is_reserved":false,"is_disabled":false,"rental_uris":{"android":"levelo://app?vid=1d3c7fd7-b709-4008-8e9f-a0f764fe60d9","ios":"levelo://app?vid=1d3c7fd7-b709-4008-8e9f-a0f764fe60d9"},"vehicle_type_id":"4","last_reported":1740993085,"current_range_meters":8800,"station_id":"","pricing_plan_id":"cebpf4jnsgd1na2vs0mg"},{"bike_id":"05e9cf7b-c090-4ef5-8c8c-4775308fa653","system_id":"levelo_inurba_marseille","lat":43.31193,"lon":5.36878,"is_reserved":false,"is_disabled":false,"rental_uris":{"android":"levelo://app?vid=05e9cf7b-c090-4ef5-8c8c-4775308fa653","ios":"levelo://app?vid=05e9cf7b-c090-4ef5-8c8c-4775308fa653"},"vehicle_type_id":"4","last_reported":1740993085,"current_range_meters":8800,"station_id":"ce4bgl92rcd13ifvqbq0","pricing_plan_id":"cebpf4jnsgd1na2vs0mg"},{"bike_id":"8feb0e94-8e50-4dd3-8ecd-f22e158f75e1","system_id":"levelo_inurba_marseille","lat":43.25936,"lon":5.40905,"is_reserved":false,"is_disabled":false,"rental_uris":{"android":"levelo://app?vid=8feb0e94-8e50-4dd3-8ecd-f22e158f75e1","ios":"levelo://app?vid=8feb0e94-8e50-4dd3-8ecd-f22e158f75e1"},"vehicle_type_id":"4","last_reported":1740993085,"current_range_meters":8800,"station_id":"ce4bhm92rcd13ifvqglg","pricing_plan_id":"cebpf4jnsgd1na2vs0mg"},{"bike_id":"a3e4e670-96af-42cb-8c2e-a7c558780b0b","system_id":"levelo_inurba_marseille","lat":43.24087,"lon":5.37757,"is_reserved":false,"is_disabled":false,"rental_uris":{"android":"levelo://app?vid=a3e4e670-96af-42cb-8c2e-a7c558780b0b","ios":"levelo://app?vid=a3e4e670-96af-42cb-8c2e-a7c558780b0b"},"vehicle_type_id":"4","last_reported":1740993085,"current_range_meters":8800,"station_id":"ce4bhnp2rcd13ifvqgvg","pricing_plan_id":"cebpf4jnsgd1na2vs0mg"},{"bike_id":"88d09cbc-1497-4fea-99b9-c1fe29ff58f0","system_id":"levelo_inurba_marseille","lat":43.28037,"lon":5.36637,"is_reserved":false,"is_disabled":false,"rental_uris":{"android":"levelo://app?vid=88d09cbc-1497-4fea-99b9-c1fe29ff58f0","ios":"levelo://app?vid=88d09cbc-1497-4fea-99b9-c1fe29ff58f0"},"vehicle_type_id":"4","last_reported":1740993085,"current_range_meters":9200,"station_id":"","pricing_plan_id":"cebpf4jnsgd1na2vs0mg"},{"bike_id":"edc2ba51-4f5e-4cbf-8563-7b141dc3a37b","system_id":"levelo_inurba_marseille","lat":43.31218,"lon":5.36838,"is_reserved":false,"is_disabled":false,"rental_uris":{"android":"levelo://app?vid=edc2ba51-4f5e-4cbf-8563-7b141dc3a37b","ios":"levelo://app?vid=edc2ba51-4f5e-4cbf-8563-7b141dc3a37b"},"vehicle_type_id":"4","last_reported":1740993085,"current_range_meters":9200,"station_id":"ce4bgl92rcd13ifvqbq0","pricing_plan_id":"cebpf4jnsgd1na2vs0mg"},{"bike_id":"14691fab-3b2a-472c-8059-e47ab0efef83","system_id":"levelo_inurba_marseille","lat":43.29035,"lon":5.37566,"is_reserved":false,"is_disabled":false,"rental_uris":{"android":"levelo://app?vid=14691fab-3b2a-472c-8059-e47ab0efef83","ios":"levelo://app?vid=14691fab-3b2a-472c-8059-e47ab0efef83"},"vehicle_type_id":"4","last_reported":1740993085,"current_range_meters":9200,"station_id":"ce4bh692rcd13ifvqe90","pricing_plan_id":"cebpf4jnsgd1na2vs0mg"},{"bike_id":"18090932-ccd6-4a13-9da3-91f57f52eec2","system_id":"levelo_inurba_marseille","lat":43.279683,"lon":5.388053,"is_reserved":false,"is_disabled":false,"rental_uris":{"android":"levelo://app?vid=18090932-ccd6-4a13-9da3-91f57f52eec2","ios":"levelo://app?vid=18090932-ccd6-4a13-9da3-91f57f52eec2"},"vehicle_type_id":"4","last_reported":1740993085,"current_range_meters":9200,"station_id":"ce4bhg92rcd13ifvqf90","pricing_plan_id":"cebpf4jnsgd1na2vs0mg"},{"bike_id":"d31ef7e5-4770-41fd-869e-1786c21beb85","system_id":"levelo_inurba_marseille","lat":43.25018,"lon":5.3893,"is_reserved":false,"is_disabled":false,"rental_uris":{"android":"levelo://app?vid=d31ef7e5-4770-41fd-869e-1786c21beb85","ios":"levelo://app?vid=d31ef7e5-4770-41fd-869e-1786c21beb85"},"vehicle_type_id":"4","last_reported":1740993085,"current_range_meters":9200,"station_id":"ce4bhgp2rcd13ifvqfd0","pricing_plan_id":"cebpf4jnsgd1na2vs0mg"},{"bike_id":"a860675f-01c4-49a9-bc48-68f8b5f286c8","system_id":"levelo_inurba_marseille","lat":43.24378,"lon":5.37081,"is_reserved":false,"is_disabled":false,"rental_uris":{"android":"levelo://app?vid=a860675f-01c4-49a9-bc48-68f8b5f286c8","ios":"levelo://app?vid=a860675f-01c4-49a9-bc48-68f8b5f286c8"},"vehicle_type_id":"4","last_reported":1740993085,"current_range_meters":9200,"station_id":"ce4bhhh2rcd13ifvqfk0","pricing_plan_id":"cebpf4jnsgd1na2vs0mg"},{"bike_id":"27fe48aa-8429-40c2-abfa-227bf9e74c6b","system_id":"levelo_inurba_marseille","lat":43.2996,"lon":5.41314,"is_reserved":false,"is_disabled":false,"rental_uris":{"android":"levelo://app?vid=27fe48aa-8429-40c2-abfa-227bf9e74c6b","ios":"levelo://app?vid=27fe48aa-8429-40c2-abfa-227bf9e74c6b"},"vehicle_type_id":"4","last_reported":1740993085,"current_range_meters":9200,"station_id":"ce4bhp12rcd13ifvqh9g","pricing_plan_id":"cebpf4jnsgd1na2vs0mg"},{"bike_id":"61e3c74e-7012-4cb6-8ef4-17db5d82fdf7","system_id":"levelo_inurba_marseille","lat":43.25325,"lon":5.39285,"is_reserved":false,"is_disabled":false,"rental_uris":{"android":"levelo://app?vid=61e3c74e-7012-4cb6-8ef4-17db5d82fdf7","ios":"levelo://app?vid=61e3c74e-7012-4cb6-8ef4-17db5d82fdf7"},"vehicle_type_id":"4","last_reported":1740993085,"current_range_meters":9600,"station_id":"","pricing_plan_id":"cebpf4jnsgd1na2vs0mg"},{"bike_id":"67914107-e830-4c63-85fa-638b268eca8e","system_id":"levelo_inurba_marseille","lat":43.31499,"lon":5.37305,"is_reserved":false,"is_disabled":false,"rental_uris":{"android":"levelo://app?vid=67914107-e830-4c63-85fa-638b268eca8e","ios":"levelo://app?vid=67914107-e830-4c63-85fa-638b268eca8e"},"vehicle_type_id":"4","last_reported":1740993085,"current_range_meters":9600,"station_id":"ce4bgt12rcd13ifvqcd0","pricing_plan_id":"cebpf4jnsgd1na2vs0mg"},{"bike_id":"ecd1e842-641e-4a6a-be60-41d8d8c37859","system_id":"levelo_inurba_marseille","lat":43.30952,"lon":5.39037,"is_reserved":false,"is_disabled":false,"rental_uris":{"android":"levelo://app?vid=ecd1e842-641e-4a6a-be60-41d8d8c37859","ios":"levelo://app?vid=ecd1e842-641e-4a6a-be60-41d8d8c37859"},"vehicle_type_id":"4","last_reported":1740993085,"current_range_meters":9600,"station_id":"ce4bgup2rcd13ifvqco0","pricing_plan_id":"cebpf4jnsgd1na2vs0mg"},{"bike_id":"25df8132-4386-4da2-bc35-759c58bda8ec","system_id":"levelo_inurba_marseille","lat":43.26571,"lon":5.39012,"is_reserved":false,"is_disabled":false,"rental_uris":{"android":"levelo://app?vid=25df8132-4386-4da2-bc35-759c58bda8ec","ios":"levelo://app?vid=25df8132-4386-4da2-bc35-759c58bda8ec"},"vehicle_type_id":"4","last_reported":1740993085,"current_range_meters":9600,"station_id":"ce4bhe12rcd13ifvqf30","pricing_plan_id":"cebpf4jnsgd1na2vs0mg"},{"bike_id":"12ab922a-f881-4968-9e63-ec8d58f2ca05","system_id":"levelo_inurba_marseille","lat":43.24821,"lon":5.3748,"is_reserved":false,"is_disabled":false,"rental_uris":{"android":"levelo://app?vid=12ab922a-f881-4968-9e63-ec8d58f2ca05","ios":"levelo://app?vid=12ab922a-f881-4968-9e63-ec8d58f2ca05"},"vehicle_type_id":"4","last_reported":1740993085,"current_range_meters":9600,"station_id":"ce4bhgh2rcd13ifvqfb0","pricing_plan_id":"cebpf4jnsgd1na2vs0mg"},{"bike_id":"9fe32dd4-8c83-4f55-8d4d-26816ab2fe7e","system_id":"levelo_inurba_marseille","lat":43.23144,"lon":5.43739,"is_reserved":false,"is_disabled":false,"rental_uris":{"android":"levelo://app?vid=9fe32dd4-8c83-4f55-8d4d-26816ab2fe7e","ios":"levelo://app?vid=9fe32dd4-8c83-4f55-8d4d-26816ab2fe7e"},"vehicle_type_id":"4","last_reported":1740993085,"current_range_meters":9600,"station_id":"ce4bhmp2rcd13ifvqgog","pricing_plan_id":"cebpf4jnsgd1na2vs0mg"},{"bike_id":"e0c607bf-7f3d-4c22-8ed8-7156f04c1a25","system_id":"levelo_inurba_marseille","lat":43.28137,"lon":5.42643,"is_reserved":false,"is_disabled":false,"rental_uris":{"android":"levelo://app?vid=e0c607bf-7f3d-4c22-8ed8-7156f04c1a25","ios":"levelo://app?vid=e0c607bf-7f3d-4c22-8ed8-7156f04c1a25"},"vehicle_type_id":"4","last_reported":1740993085,"current_range_meters":9600,"station_id":"ce4bhnh2rcd13ifvqgug","pricing_plan_id":"cebpf4jnsgd1na2vs0mg"},{"bike_id":"60dd4efc-4924-4e7d-95a9-c7fec06f8636","system_id":"levelo_inurba_marseille","lat":43.25592,"lon":5.40072,"is_reserved":false,"is_disabled":false,"rental_uris":{"android":"levelo://app?vid=60dd4efc-4924-4e7d-95a9-c7fec06f8636","ios":"levelo://app?vid=60dd4efc-4924-4e7d-95a9-c7fec06f8636"},"vehicle_type_id":"4","last_reported":1740993085,"current_range_meters":10000,"station_id":"","pricing_plan_id":"cebpf4jnsgd1na2vs0mg"},{"bike_id":"2cd1d484-9a1b-427e-8eba-a2971082a0e0","system_id":"levelo_inurba_marseille","lat":43.2999,"lon":5.38495,"is_reserved":false,"is_disabled":false,"rental_uris":{"android":"levelo://app?vid=2cd1d484-9a1b-427e-8eba-a2971082a0e0","ios":"levelo://app?vid=2cd1d484-9a1b-427e-8eba-a2971082a0e0"},"vehicle_type_id":"4","last_reported":1740993085,"current_range_meters":10000,"station_id":"ce4bgj92rcd13ifvqbd0","pricing_plan_id":"cebpf4jnsgd1na2vs0mg"},{"bike_id":"b86ebd64-46e7-4dad-984c-5f1808cec3f0","system_id":"levelo_inurba_marseille","lat":43.27629,"lon":5.36123,"is_reserved":false,"is_disabled":false,"rental_uris":{"android":"levelo://app?vid=b86ebd64-46e7-4dad-984c-5f1808cec3f0","ios":"levelo://app?vid=b86ebd64-46e7-4dad-984c-5f1808cec3f0"},"vehicle_type_id":"4","last_reported":1740993085,"current_range_meters":10000,"station_id":"ce4bgj92rcd13ifvqbe0","pricing_plan_id":"cebpf4jnsgd1na2vs0mg"},{"bike_id":"3db63e1c-f912-4551-bfd3-ee24e3e2eebe","system_id":"levelo_inurba_marseille","lat":43.309,"lon":5.36842,"is_reserved":false,"is_disabled":false,"rental_uris":{"android":"levelo://app?vid=3db63e1c-f912-4551-bfd3-ee24e3e2eebe","ios":"levelo://app?vid=3db63e1c-f912-4551-bfd3-ee24e3e2eebe"},"vehicle_type_id":"4","last_reported":1740993085,"current_range_meters":10000,"station_id":"ce4bgn92rcd13ifvqbvg","pricing_plan_id":"cebpf4jnsgd1na2vs0mg"},{"bike_id":"53682d1a-3c4c-48d8-86fb-90fac64cd913","system_id":"levelo_inurba_marseille","lat":43.29229,"lon":5.40112,"is_reserved":false,"is_disabled":false,"rental_uris":{"android":"levelo://app?vid=53682d1a-3c4c-48d8-86fb-90fac64cd913","ios":"levelo://app?vid=53682d1a-3c4c-48d8-86fb-90fac64cd913"},"vehicle_type_id":"4","last_reported":1740993085,"current_range_meters":10000,"station_id":"ce4bh312rcd13ifvqdk0","pricing_plan_id":"cebpf4jnsgd1na2vs0mg"},{"bike_id":"8474e65a-12c0-4925-857b-50c7089e6556","system_id":"levelo_inurba_marseille","lat":43.26698,"lon":5.38246,"is_reserved":false,"is_disabled":false,"rental_uris":{"android":"levelo://app?vid=8474e65a-12c0-4925-857b-50c7089e6556","ios":"levelo://app?vid=8474e65a-12c0-4925-857b-50c7089e6556"},"vehicle_type_id":"4","last_reported":1740993085,"current_range_meters":10000,"station_id":"ce4bhg92rcd13ifvqf90","pricing_plan_id":"cebpf4jnsgd1na2vs0mg"},{"bike_id":"1ee6ee85-aacf-4f28-85b7-1722f623e4c8","system_id":"levelo_inurba_marseille","lat":43.27313,"lon":5.39111,"is_reserved":false,"is_disabled":false,"rental_uris":{"android":"levelo://app?vid=1ee6ee85-aacf-4f28-85b7-1722f623e4c8","ios":"levelo://app?vid=1ee6ee85-aacf-4f28-85b7-1722f623e4c8"},"vehicle_type_id":"4","last_reported":1740993085,"current_range_meters":10000,"station_id":"ce4bhgp2rcd13ifvqfe0","pricing_plan_id":"cebpf4jnsgd1na2vs0mg"},{"bike_id":"7ffc6c71-8e8e-4d89-b588-4addf102a7b5","system_id":"levelo_inurba_marseille","lat":43.267088,"lon":5.397695,"is_reserved":false,"is_disabled":false,"rental_uris":{"android":"levelo://app?vid=7ffc6c71-8e8e-4d89-b588-4addf102a7b5","ios":"levelo://app?vid=7ffc6c71-8e8e-4d89-b588-4addf102a7b5"},"vehicle_type_id":"4","last_reported":1740993085,"current_range_meters":10000,"station_id":"ce4bhi12rcd13ifvqfq0","pricing_plan_id":"cebpf4jnsgd1na2vs0mg"},{"bike_id":"b013add8-306f-455f-8106-4ff222c92509","system_id":"levelo_inurba_marseille","lat":43.33614,"lon":5.41026,"is_reserved":false,"is_disabled":false,"rental_uris":{"android":"levelo://app?vid=b013add8-306f-455f-8106-4ff222c92509","ios":"levelo://app?vid=b013add8-306f-455f-8106-4ff222c92509"},"vehicle_type_id":"4","last_reported":1740993085,"current_range_meters":10000,"station_id":"ce4bhqh2rcd13ifvqhmg","pricing_plan_id":"cebpf4jnsgd1na2vs0mg"},{"bike_id":"fa99dc59-4ea3-41b1-bdef-0fd8a7de9150","system_id":"levelo_inurba_marseille","lat":43.277,"lon":5.41546,"is_reserved":false,"is_disabled":false,"rental_uris":{"android":"levelo://app?vid=fa99dc59-4ea3-41b1-bdef-0fd8a7de9150","ios":"levelo://app?vid=fa99dc59-4ea3-41b1-bdef-0fd8a7de9150"},"vehicle_type_id":"4","last_reported":1740993085,"current_range_meters":10800,"station_id":"","pricing_plan_id":"cebpf4jnsgd1na2vs0mg"},{"bike_id":"370d1a81-985c-4d99-ab61-562439783278","system_id":"levelo_inurba_marseille","lat":43.31361,"lon":5.36736,"is_reserved":false,"is_disabled":false,"rental_uris":{"android":"levelo://app?vid=370d1a81-985c-4d99-ab61-562439783278","ios":"levelo://app?vid=370d1a81-985c-4d99-ab61-562439783278"},"vehicle_type_id":"4","last_reported":1740993085,"current_range_meters":10800,"station_id":"ce4bgr92rcd13ifvqc6g","pricing_plan_id":"cebpf4jnsgd1na2vs0mg"},{"bike_id":"09393a00-973d-43b6-814c-ce2027404caf","system_id":"levelo_inurba_marseille","lat":43.25829,"lon":5.39433,"is_reserved":false,"is_disabled":false,"rental_uris":{"android":"levelo://app?vid=09393a00-973d-43b6-814c-ce2027404caf","ios":"levelo://app?vid=09393a00-973d-43b6-814c-ce2027404caf"},"vehicle_type_id":"4","last_reported":1740993085,"current_range_meters":10800,"station_id":"ce4bhip2rcd13ifvqft0","pricing_plan_id":"cebpf4jnsgd1na2vs0mg"},{"bike_id":"ad32254e-8609-42c5-8df7-9012f5ec17c7","system_id":"levelo_inurba_marseille","lat":43.23156,"lon":5.43706,"is_reserved":false,"is_disabled":false,"rental_uris":{"android":"levelo://app?vid=ad32254e-8609-42c5-8df7-9012f5ec17c7","ios":"levelo://app?vid=ad32254e-8609-42c5-8df7-9012f5ec17c7"},"vehicle_type_id":"4","last_reported":1740993085,"current_range_meters":10800,"station_id":"ce4bhmp2rcd13ifvqgog","pricing_plan_id":"cebpf4jnsgd1na2vs0mg"},{"bike_id":"d55bc5d6-7957-454d-bc05-b37e9f5d5c19","system_id":"levelo_inurba_marseille","lat":43.31357,"lon":5.36741,"is_reserved":false,"is_disabled":false,"rental_uris":{"android":"levelo://app?vid=d55bc5d6-7957-454d-bc05-b37e9f5d5c19","ios":"levelo://app?vid=d55bc5d6-7957-454d-bc05-b37e9f5d5c19"},"vehicle_type_id":"4","last_reported":1740993085,"current_range_meters":11200,"station_id":"ce4bgr92rcd13ifvqc6g","pricing_plan_id":"cebpf4jnsgd1na2vs0mg"},{"bike_id":"0a82aec0-942b-4d98-ad9b-8aab4930c3df","system_id":"levelo_inurba_marseille","lat":43.337444,"lon":5.374475,"is_reserved":false,"is_disabled":false,"rental_uris":{"android":"levelo://app?vid=0a82aec0-942b-4d98-ad9b-8aab4930c3df","ios":"levelo://app?vid=0a82aec0-942b-4d98-ad9b-8aab4930c3df"},"vehicle_type_id":"4","last_reported":1740993085,"current_range_meters":11200,"station_id":"ce4bgup2rcd13ifvqco0","pricing_plan_id":"cebpf4jnsgd1na2vs0mg"},{"bike_id":"c5b35fc3-133b-4fcd-9bc1-000b1b46221f","system_id":"levelo_inurba_marseille","lat":43.24162,"lon":5.36387,"is_reserved":false,"is_disabled":false,"rental_uris":{"android":"levelo://app?vid=c5b35fc3-133b-4fcd-9bc1-000b1b46221f","ios":"levelo://app?vid=c5b35fc3-133b-4fcd-9bc1-000b1b46221f"},"vehicle_type_id":"4","last_reported":1740993085,"current_range_meters":11200,"station_id":"cpo36qri1sfpv3e86is0","pricing_plan_id":"cebpf4jnsgd1na2vs0mg"},{"bike_id":"8afe136c-0c51-4aca-ad51-f30e81f8c519","system_id":"levelo_inurba_marseille","lat":43.32536,"lon":5.42615,"is_reserved":false,"is_disabled":false,"rental_uris":{"android":"levelo://app?vid=8afe136c-0c51-4aca-ad51-f30e81f8c519","ios":"levelo://app?vid=8afe136c-0c51-4aca-ad51-f30e81f8c519"},"vehicle_type_id":"4","last_reported":1740993085,"current_range_meters":11600,"station_id":"","pricing_plan_id":"cebpf4jnsgd1na2vs0mg"},{"bike_id":"a5d67b8b-c1b7-4de5-ba1e-c23dbefc7e59","system_id":"levelo_inurba_marseille","lat":43.30326,"lon":5.36912,"is_reserved":false,"is_disabled":false,"rental_uris":{"android":"levelo://app?vid=a5d67b8b-c1b7-4de5-ba1e-c23dbefc7e59","ios":"levelo://app?vid=a5d67b8b-c1b7-4de5-ba1e-c23dbefc7e59"},"vehicle_type_id":"4","last_reported":1740993085,"current_range_meters":11600,"station_id":"ce4bgqh2rcd13ifvqc5g","pricing_plan_id":"cebpf4jnsgd1na2vs0mg"},{"bike_id":"fa29dcb6-2607-4ad4-851e-c0b5f9e03763","system_id":"levelo_inurba_marseille","lat":43.27446,"lon":5.39414,"is_reserved":false,"is_disabled":false,"rental_uris":{"android":"levelo://app?vid=fa29dcb6-2607-4ad4-851e-c0b5f9e03763","ios":"levelo://app?vid=fa29dcb6-2607-4ad4-851e-c0b5f9e03763"},"vehicle_type_id":"4","last_reported":1740993085,"current_range_meters":11600,"station_id":"ce4bhdp2rcd13ifvqf20","pricing_plan_id":"cebpf4jnsgd1na2vs0mg"},{"bike_id":"c52f616b-3464-417a-a1bc-41003b356f42","system_id":"levelo_inurba_marseille","lat":43.26029,"lon":5.37552,"is_reserved":false,"is_disabled":false,"rental_uris":{"android":"levelo://app?vid=c52f616b-3464-417a-a1bc-41003b356f42","ios":"levelo://app?vid=c52f616b-3464-417a-a1bc-41003b356f42"},"vehicle_type_id":"4","last_reported":1740993085,"current_range_meters":11600,"station_id":"ce4bhgh2rcd13ifvqfa0","pricing_plan_id":"cebpf4jnsgd1na2vs0mg"},{"bike_id":"edc1a413-247b-4125-8ff6-3193d9b9b0b7","system_id":"levelo_inurba_marseille","lat":43.244,"lon":5.37067,"is_reserved":false,"is_disabled":false,"rental_uris":{"android":"levelo://app?vid=edc1a413-247b-4125-8ff6-3193d9b9b0b7","ios":"levelo://app?vid=edc1a413-247b-4125-8ff6-3193d9b9b0b7"},"vehicle_type_id":"4","last_reported":1740993085,"current_range_meters":11600,"station_id":"ce4bhhh2rcd13ifvqfk0","pricing_plan_id":"cebpf4jnsgd1na2vs0mg"},{"bike_id":"4dd78a9f-9698-4bed-9997-ee4fd5bc3a76","system_id":"levelo_inurba_marseille","lat":43.27074,"lon":5.42284,"is_reserved":false,"is_disabled":false,"rental_uris":{"android":"levelo://app?vid=4dd78a9f-9698-4bed-9997-ee4fd5bc3a76","ios":"levelo://app?vid=4dd78a9f-9698-4bed-9997-ee4fd5bc3a76"},"vehicle_type_id":"4","last_reported":1740993085,"current_range_meters":11600,"station_id":"ce4bhk92rcd13ifvqgb0","pricing_plan_id":"cebpf4jnsgd1na2vs0mg"},{"bike_id":"30452236-79fc-4cba-8ba7-e268e5bb0e99","system_id":"levelo_inurba_marseille","lat":43.23156,"lon":5.43731,"is_reserved":false,"is_disabled":false,"rental_uris":{"android":"levelo://app?vid=30452236-79fc-4cba-8ba7-e268e5bb0e99","ios":"levelo://app?vid=30452236-79fc-4cba-8ba7-e268e5bb0e99"},"vehicle_type_id":"4","last_reported":1740993085,"current_range_meters":11600,"station_id":"ce4bhmp2rcd13ifvqgog","pricing_plan_id":"cebpf4jnsgd1na2vs0mg"},{"bike_id":"21a25fa3-011a-487c-a6a1-9a4a8b99ec63","system_id":"levelo_inurba_marseille","lat":43.312701,"lon":5.377566,"is_reserved":false,"is_disabled":false,"rental_uris":{"android":"levelo://app?vid=21a25fa3-011a-487c-a6a1-9a4a8b99ec63","ios":"levelo://app?vid=21a25fa3-011a-487c-a6a1-9a4a8b99ec63"},"vehicle_type_id":"4","last_reported":1740993085,"current_range_meters":12000,"station_id":"","pricing_plan_id":"cebpf4jnsgd1na2vs0mg"},{"bike_id":"c5ecef9a-b710-4b96-915e-685597e5ef00","system_id":"levelo_inurba_marseille","lat":43.3208,"lon":5.37166,"is_reserved":false,"is_disabled":false,"rental_uris":{"android":"levelo://app?vid=c5ecef9a-b710-4b96-915e-685597e5ef00","ios":"levelo://app?vid=c5ecef9a-b710-4b96-915e-685597e5ef00"},"vehicle_type_id":"4","last_reported":1740993085,"current_range_meters":12000,"station_id":"","pricing_plan_id":"cebpf4jnsgd1na2vs0mg"},{"bike_id":"d585f3f9-3bb7-47a7-af64-e9d788d84292","system_id":"levelo_inurba_marseille","lat":43.295974,"lon":5.381038,"is_reserved":false,"is_disabled":false,"rental_uris":{"android":"levelo://app?vid=d585f3f9-3bb7-47a7-af64-e9d788d84292","ios":"levelo://app?vid=d585f3f9-3bb7-47a7-af64-e9d788d84292"},"vehicle_type_id":"4","last_reported":1740993085,"current_range_meters":12000,"station_id":"ce4bgl12rcd13ifvqbo0","pricing_plan_id":"cebpf4jnsgd1na2vs0mg"},{"bike_id":"f5572dc0-57a5-4136-9a5c-670a39f52d61","system_id":"levelo_inurba_marseille","lat":43.26939,"lon":5.386827,"is_reserved":false,"is_disabled":false,"rental_uris":{"android":"levelo://app?vid=f5572dc0-57a5-4136-9a5c-670a39f52d61","ios":"levelo://app?vid=f5572dc0-57a5-4136-9a5c-670a39f52d61"},"vehicle_type_id":"4","last_reported":1740993085,"current_range_meters":12000,"station_id":"ce4bhh92rcd13ifvqfh0","pricing_plan_id":"cebpf4jnsgd1na2vs0mg"},{"bike_id":"839b75a2-3b79-4986-9389-18e9e5eaf91d","system_id":"levelo_inurba_marseille","lat":43.25933,"lon":5.40904,"is_reserved":false,"is_disabled":false,"rental_uris":{"android":"levelo://app?vid=839b75a2-3b79-4986-9389-18e9e5eaf91d","ios":"levelo://app?vid=839b75a2-3b79-4986-9389-18e9e5eaf91d"},"vehicle_type_id":"4","last_reported":1740993085,"current_range_meters":12000,"station_id":"ce4bhm92rcd13ifvqglg","pricing_plan_id":"cebpf4jnsgd1na2vs0mg"},{"bike_id":"f164bd11-0ab8-433b-8827-632ef0abcfea","system_id":"levelo_inurba_marseille","lat":43.2418,"lon":5.39727,"is_reserved":false,"is_disabled":false,"rental_uris":{"android":"levelo://app?vid=f164bd11-0ab8-433b-8827-632ef0abcfea","ios":"levelo://app?vid=f164bd11-0ab8-433b-8827-632ef0abcfea"},"vehicle_type_id":"4","last_reported":1740993085,"current_range_meters":12000,"station_id":"ce4bhn12rcd13ifvqgpg","pricing_plan_id":"cebpf4jnsgd1na2vs0mg"},{"bike_id":"d0e90060-d634-4f5f-8a3a-6f8ec476c326","system_id":"levelo_inurba_marseille","lat":43.32479,"lon":5.3656,"is_reserved":false,"is_disabled":false,"rental_uris":{"android":"levelo://app?vid=d0e90060-d634-4f5f-8a3a-6f8ec476c326","ios":"levelo://app?vid=d0e90060-d634-4f5f-8a3a-6f8ec476c326"},"vehicle_type_id":"4","last_reported":1740993085,"current_range_meters":12000,"station_id":"ce4bhs12rcd13ifvqhvg","pricing_plan_id":"cebpf4jnsgd1na2vs0mg"},{"bike_id":"687cd9e6-0cef-4cf3-a0fd-75f582330f2e","system_id":"levelo_inurba_marseille","lat":43.337444,"lon":5.374475,"is_reserved":false,"is_disabled":false,"rental_uris":{"android":"levelo://app?vid=687cd9e6-0cef-4cf3-a0fd-75f582330f2e","ios":"levelo://app?vid=687cd9e6-0cef-4cf3-a0fd-75f582330f2e"},"vehicle_type_id":"4","last_reported":1740993085,"current_range_meters":12400,"station_id":"","pricing_plan_id":"cebpf4jnsgd1na2vs0mg"},{"bike_id":"2848430c-e0ac-406b-99f8-d4a1f7459337","system_id":"levelo_inurba_marseille","lat":43.21284,"lon":5.35351,"is_reserved":false,"is_disabled":false,"rental_uris":{"android":"levelo://app?vid=2848430c-e0ac-406b-99f8-d4a1f7459337","ios":"levelo://app?vid=2848430c-e0ac-406b-99f8-d4a1f7459337"},"vehicle_type_id":"4","last_reported":1740993085,"current_range_meters":12800,"station_id":"","pricing_plan_id":"cebpf4jnsgd1na2vs0mg"},{"bike_id":"18dda957-3659-4111-8f9d-293dfb6e4e36","system_id":"levelo_inurba_marseille","lat":43.30155,"lon":5.38093,"is_reserved":false,"is_disabled":false,"rental_uris":{"android":"levelo://app?vid=18dda957-3659-4111-8f9d-293dfb6e4e36","ios":"levelo://app?vid=18dda957-3659-4111-8f9d-293dfb6e4e36"},"vehicle_type_id":"4","last_reported":1740993085,"current_range_meters":12800,"station_id":"ce4bgjp2rcd13ifvqbh0","pricing_plan_id":"cebpf4jnsgd1na2vs0mg"},{"bike_id":"54baa64e-6b30-4dda-b5b9-b15315b65499","system_id":"levelo_inurba_marseille","lat":43.30188,"lon":5.37399,"is_reserved":false,"is_disabled":false,"rental_uris":{"android":"levelo://app?vid=54baa64e-6b30-4dda-b5b9-b15315b65499","ios":"levelo://app?vid=54baa64e-6b30-4dda-b5b9-b15315b65499"},"vehicle_type_id":"4","last_reported":1740993085,"current_range_meters":12800,"station_id":"ce4bgs92rcd13ifvqcc0","pricing_plan_id":"cebpf4jnsgd1na2vs0mg"},{"bike_id":"805ef58a-35a9-4167-a85f-b5f7d2e70296","system_id":"levelo_inurba_marseille","lat":43.28977,"lon":5.37834,"is_reserved":false,"is_disabled":false,"rental_uris":{"android":"levelo://app?vid=805ef58a-35a9-4167-a85f-b5f7d2e70296","ios":"levelo://app?vid=805ef58a-35a9-4167-a85f-b5f7d2e70296"},"vehicle_type_id":"4","last_reported":1740993085,"current_range_meters":12800,"station_id":"ce4bh9p2rcd13ifvqed0","pricing_plan_id":"cebpf4jnsgd1na2vs0mg"},{"bike_id":"16e1da39-9676-4d26-8eab-a05616e22cb3","system_id":"levelo_inurba_marseille","lat":43.2558,"lon":5.38232,"is_reserved":false,"is_disabled":false,"rental_uris":{"android":"levelo://app?vid=16e1da39-9676-4d26-8eab-a05616e22cb3","ios":"levelo://app?vid=16e1da39-9676-4d26-8eab-a05616e22cb3"},"vehicle_type_id":"4","last_reported":1740993085,"current_range_meters":12800,"station_id":"ce4bhih2rcd13ifvqfs0","pricing_plan_id":"cebpf4jnsgd1na2vs0mg"},{"bike_id":"f80adb4d-755a-4c9d-867d-4ad01abe820c","system_id":"levelo_inurba_marseille","lat":43.24174,"lon":5.39718,"is_reserved":false,"is_disabled":false,"rental_uris":{"android":"levelo://app?vid=f80adb4d-755a-4c9d-867d-4ad01abe820c","ios":"levelo://app?vid=f80adb4d-755a-4c9d-867d-4ad01abe820c"},"vehicle_type_id":"4","last_reported":1740993085,"current_range_meters":12800,"station_id":"ce4bhn12rcd13ifvqgpg","pricing_plan_id":"cebpf4jnsgd1na2vs0mg"},{"bike_id":"0a01f054-914c-4aa4-8403-14bafd0f2e01","system_id":"levelo_inurba_marseille","lat":43.27482,"lon":5.42447,"is_reserved":false,"is_disabled":false,"rental_uris":{"android":"levelo://app?vid=0a01f054-914c-4aa4-8403-14bafd0f2e01","ios":"levelo://app?vid=0a01f054-914c-4aa4-8403-14bafd0f2e01"},"vehicle_type_id":"4","last_reported":1740993085,"current_range_meters":12800,"station_id":"ce4bhn92rcd13ifvqgrg","pricing_plan_id":"cebpf4jnsgd1na2vs0mg"},{"bike_id":"800b86e1-041b-4de1-9ce1-4bda92c8e875","system_id":"levelo_inurba_marseille","lat":43.27502,"lon":5.42455,"is_reserved":false,"is_disabled":false,"rental_uris":{"android":"levelo://app?vid=800b86e1-041b-4de1-9ce1-4bda92c8e875","ios":"levelo://app?vid=800b86e1-041b-4de1-9ce1-4bda92c8e875"},"vehicle_type_id":"4","last_reported":1740993085,"current_range_meters":12800,"station_id":"ce4bhn92rcd13ifvqgrg","pricing_plan_id":"cebpf4jnsgd1na2vs0mg"},{"bike_id":"76f0ecc2-74d2-4458-9089-c4bdf8553e65","system_id":"levelo_inurba_marseille","lat":43.27203,"lon":5.41872,"is_reserved":false,"is_disabled":false,"rental_uris":{"android":"levelo://app?vid=76f0ecc2-74d2-4458-9089-c4bdf8553e65","ios":"levelo://app?vid=76f0ecc2-74d2-4458-9089-c4bdf8553e65"},"vehicle_type_id":"4","last_reported":1740993085,"current_range_meters":14000,"station_id":"","pricing_plan_id":"cebpf4jnsgd1na2vs0mg"},{"bike_id":"afa00d43-dc26-4b6a-839c-eb9531af7c1f","system_id":"levelo_inurba_marseille","lat":43.30616,"lon":5.36793,"is_reserved":false,"is_disabled":false,"rental_uris":{"android":"levelo://app?vid=afa00d43-dc26-4b6a-839c-eb9531af7c1f","ios":"levelo://app?vid=afa00d43-dc26-4b6a-839c-eb9531af7c1f"},"vehicle_type_id":"4","last_reported":1740993085,"current_range_meters":14000,"station_id":"","pricing_plan_id":"cebpf4jnsgd1na2vs0mg"},{"bike_id":"9c485707-27b3-49e4-a74c-56f0dc648377","system_id":"levelo_inurba_marseille","lat":43.30187,"lon":5.36611,"is_reserved":false,"is_disabled":false,"rental_uris":{"android":"levelo://app?vid=9c485707-27b3-49e4-a74c-56f0dc648377","ios":"levelo://app?vid=9c485707-27b3-49e4-a74c-56f0dc648377"},"vehicle_type_id":"4","last_reported":1740993085,"current_range_meters":14000,"station_id":"ce4bgrh2rcd13ifvqc8g","pricing_plan_id":"cebpf4jnsgd1na2vs0mg"},{"bike_id":"62cb0cc9-5e6c-492a-b088-33fea151eb3e","system_id":"levelo_inurba_marseille","lat":43.2792,"lon":5.41664,"is_reserved":false,"is_disabled":false,"rental_uris":{"android":"levelo://app?vid=62cb0cc9-5e6c-492a-b088-33fea151eb3e","ios":"levelo://app?vid=62cb0cc9-5e6c-492a-b088-33fea151eb3e"},"vehicle_type_id":"4","last_reported":1740993085,"current_range_meters":14400,"station_id":"","pricing_plan_id":"cebpf4jnsgd1na2vs0mg"},{"bike_id":"f4eb20d0-e62f-4954-b7a9-ec4720bef3aa","system_id":"levelo_inurba_marseille","lat":43.25929,"lon":5.40962,"is_reserved":false,"is_disabled":false,"rental_uris":{"android":"levelo://app?vid=f4eb20d0-e62f-4954-b7a9-ec4720bef3aa","ios":"levelo://app?vid=f4eb20d0-e62f-4954-b7a9-ec4720bef3aa"},"vehicle_type_id":"4","last_reported":1740993085,"current_range_meters":14400,"station_id":"","pricing_plan_id":"cebpf4jnsgd1na2vs0mg"},{"bike_id":"ee8338ba-0f97-4826-83f5-3271605e8158","system_id":"levelo_inurba_marseille","lat":43.25483,"lon":5.37671,"is_reserved":false,"is_disabled":false,"rental_uris":{"android":"levelo://app?vid=ee8338ba-0f97-4826-83f5-3271605e8158","ios":"levelo://app?vid=ee8338ba-0f97-4826-83f5-3271605e8158"},"vehicle_type_id":"4","last_reported":1740993085,"current_range_meters":14400,"station_id":"ce4bhh12rcd13ifvqff0","pricing_plan_id":"cebpf4jnsgd1na2vs0mg"},{"bike_id":"b94571a4-2bdc-4bdb-bb79-84efe8609c50","system_id":"levelo_inurba_marseille","lat":43.32478,"lon":5.36566,"is_reserved":false,"is_disabled":false,"rental_uris":{"android":"levelo://app?vid=b94571a4-2bdc-4bdb-bb79-84efe8609c50","ios":"levelo://app?vid=b94571a4-2bdc-4bdb-bb79-84efe8609c50"},"vehicle_type_id":"4","last_reported":1740993085,"current_range_meters":14400,"station_id":"ce4bhs12rcd13ifvqhvg","pricing_plan_id":"cebpf4jnsgd1na2vs0mg"},{"bike_id":"3881f8b8-e47f-44f6-8a6c-292587a630e3","system_id":"levelo_inurba_marseille","lat":43.26494,"lon":5.39551,"is_reserved":false,"is_disabled":false,"rental_uris":{"android":"levelo://app?vid=3881f8b8-e47f-44f6-8a6c-292587a630e3","ios":"levelo://app?vid=3881f8b8-e47f-44f6-8a6c-292587a630e3"},"vehicle_type_id":"4","last_reported":1740993085,"current_range_meters":14400,"station_id":"chh1huq6cuj3fo74tm60","pricing_plan_id":"cebpf4jnsgd1na2vs0mg"},{"bike_id":"e3d7d43b-d33e-4764-883d-77097c242d7a","system_id":"levelo_inurba_marseille","lat":43.30535,"lon":5.36708,"is_reserved":false,"is_disabled":false,"rental_uris":{"android":"levelo://app?vid=e3d7d43b-d33e-4764-883d-77097c242d7a","ios":"levelo://app?vid=e3d7d43b-d33e-4764-883d-77097c242d7a"},"vehicle_type_id":"4","last_reported":1740993085,"current_range_meters":14800,"station_id":"ce4bgrp2rcd13ifvqc9g","pricing_plan_id":"cebpf4jnsgd1na2vs0mg"},{"bike_id":"8f91da26-e2cf-46fe-b02f-7e053f55b38a","system_id":"levelo_inurba_marseille","lat":43.30147,"lon":5.37402,"is_reserved":false,"is_disabled":false,"rental_uris":{"android":"levelo://app?vid=8f91da26-e2cf-46fe-b02f-7e053f55b38a","ios":"levelo://app?vid=8f91da26-e2cf-46fe-b02f-7e053f55b38a"},"vehicle_type_id":"4","last_reported":1740993085,"current_range_meters":14800,"station_id":"ce4bgs92rcd13ifvqcc0","pricing_plan_id":"cebpf4jnsgd1na2vs0mg"},{"bike_id":"7d3f29a2-77e1-43cf-a74e-c2df62166b7a","system_id":"levelo_inurba_marseille","lat":43.24818,"lon":5.37481,"is_reserved":false,"is_disabled":false,"rental_uris":{"android":"levelo://app?vid=7d3f29a2-77e1-43cf-a74e-c2df62166b7a","ios":"levelo://app?vid=7d3f29a2-77e1-43cf-a74e-c2df62166b7a"},"vehicle_type_id":"4","last_reported":1740993085,"current_range_meters":14800,"station_id":"ce4bhgh2rcd13ifvqfb0","pricing_plan_id":"cebpf4jnsgd1na2vs0mg"},{"bike_id":"ed5d0ef3-c829-4838-97e0-fd2bf3c2b10d","system_id":"levelo_inurba_marseille","lat":43.25905,"lon":5.40881,"is_reserved":false,"is_disabled":false,"rental_uris":{"android":"levelo://app?vid=ed5d0ef3-c829-4838-97e0-fd2bf3c2b10d","ios":"levelo://app?vid=ed5d0ef3-c829-4838-97e0-fd2bf3c2b10d"},"vehicle_type_id":"4","last_reported":1740993085,"current_range_meters":14800,"station_id":"ce4bhm92rcd13ifvqglg","pricing_plan_id":"cebpf4jnsgd1na2vs0mg"},{"bike_id":"02398146-8ff0-4d12-99d3-ff67c614a6bc","system_id":"levelo_inurba_marseille","lat":43.30282,"lon":5.37689,"is_reserved":false,"is_disabled":false,"rental_uris":{"android":"levelo://app?vid=02398146-8ff0-4d12-99d3-ff67c614a6bc","ios":"levelo://app?vid=02398146-8ff0-4d12-99d3-ff67c614a6bc"},"vehicle_type_id":"4","last_reported":1740993085,"current_range_meters":15200,"station_id":"ce4bguh2rcd13ifvqcj0","pricing_plan_id":"cebpf4jnsgd1na2vs0mg"},{"bike_id":"bb395383-c9bc-49ff-aea2-6c2e2e297485","system_id":"levelo_inurba_marseille","lat":43.25824,"lon":5.39443,"is_reserved":false,"is_disabled":false,"rental_uris":{"android":"levelo://app?vid=bb395383-c9bc-49ff-aea2-6c2e2e297485","ios":"levelo://app?vid=bb395383-c9bc-49ff-aea2-6c2e2e297485"},"vehicle_type_id":"4","last_reported":1740993085,"current_range_meters":15200,"station_id":"ce4bhip2rcd13ifvqft0","pricing_plan_id":"cebpf4jnsgd1na2vs0mg"},{"bike_id":"bbfc1f0b-7516-482b-ba93-62568297a8ed","system_id":"levelo_inurba_marseille","lat":43.337444,"lon":5.374475,"is_reserved":false,"is_disabled":false,"rental_uris":{"android":"levelo://app?vid=bbfc1f0b-7516-482b-ba93-62568297a8ed","ios":"levelo://app?vid=bbfc1f0b-7516-482b-ba93-62568297a8ed"},"vehicle_type_id":"4","last_reported":1740993085,"current_range_meters":16000,"station_id":"","pricing_plan_id":"cebpf4jnsgd1na2vs0mg"},{"bike_id":"db6557e3-d612-45f1-870f-c403bf17088e","system_id":"levelo_inurba_marseille","lat":43.21246,"lon":5.35341,"is_reserved":false,"is_disabled":false,"rental_uris":{"android":"levelo://app?vid=db6557e3-d612-45f1-870f-c403bf17088e","ios":"levelo://app?vid=db6557e3-d612-45f1-870f-c403bf17088e"},"vehicle_type_id":"4","last_reported":1740993085,"current_range_meters":16000,"station_id":"","pricing_plan_id":"cebpf4jnsgd1na2vs0mg"},{"bike_id":"45433a9d-cd00-433d-9da8-01d123b61e2c","system_id":"levelo_inurba_marseille","lat":43.30172,"lon":5.38083,"is_reserved":false,"is_disabled":false,"rental_uris":{"android":"levelo://app?vid=45433a9d-cd00-433d-9da8-01d123b61e2c","ios":"levelo://app?vid=45433a9d-cd00-433d-9da8-01d123b61e2c"},"vehicle_type_id":"4","last_reported":1740993085,"current_range_meters":16000,"station_id":"ce4bgjp2rcd13ifvqbh0","pricing_plan_id":"cebpf4jnsgd1na2vs0mg"},{"bike_id":"b0155e5e-bf89-45a0-bb1d-1e3cbfdfd791","system_id":"levelo_inurba_marseille","lat":43.30886,"lon":5.37206,"is_reserved":false,"is_disabled":false,"rental_uris":{"android":"levelo://app?vid=b0155e5e-bf89-45a0-bb1d-1e3cbfdfd791","ios":"levelo://app?vid=b0155e5e-bf89-45a0-bb1d-1e3cbfdfd791"},"vehicle_type_id":"4","last_reported":1740993085,"current_range_meters":16000,"station_id":"ce4bguh2rcd13ifvqckg","pricing_plan_id":"cebpf4jnsgd1na2vs0mg"},{"bike_id":"8489c2d8-3c6b-46b5-981c-b786574136d8","system_id":"levelo_inurba_marseille","lat":43.28943,"lon":5.36639,"is_reserved":false,"is_disabled":false,"rental_uris":{"android":"levelo://app?vid=8489c2d8-3c6b-46b5-981c-b786574136d8","ios":"levelo://app?vid=8489c2d8-3c6b-46b5-981c-b786574136d8"},"vehicle_type_id":"4","last_reported":1740993085,"current_range_meters":16000,"station_id":"ce4bhap2rcd13ifvqek0","pricing_plan_id":"cebpf4jnsgd1na2vs0mg"},{"bike_id":"1024a527-973e-4d90-8c0e-33da3577f919","system_id":"levelo_inurba_marseille","lat":43.25012,"lon":5.38953,"is_reserved":false,"is_disabled":false,"rental_uris":{"android":"levelo://app?vid=1024a527-973e-4d90-8c0e-33da3577f919","ios":"levelo://app?vid=1024a527-973e-4d90-8c0e-33da3577f919"},"vehicle_type_id":"4","last_reported":1740993085,"current_range_meters":16000,"station_id":"ce4bhgp2rcd13ifvqfd0","pricing_plan_id":"cebpf4jnsgd1na2vs0mg"},{"bike_id":"ba1ba081-a651-458b-864c-f93419b9b0b6","system_id":"levelo_inurba_marseille","lat":43.25041,"lon":5.38928,"is_reserved":false,"is_disabled":false,"rental_uris":{"android":"levelo://app?vid=ba1ba081-a651-458b-864c-f93419b9b0b6","ios":"levelo://app?vid=ba1ba081-a651-458b-864c-f93419b9b0b6"},"vehicle_type_id":"4","last_reported":1740993085,"current_range_meters":16000,"station_id":"ce4bhgp2rcd13ifvqfd0","pricing_plan_id":"cebpf4jnsgd1na2vs0mg"},{"bike_id":"f8a6667f-b1cb-45b4-af07-08e19aba090b","system_id":"levelo_inurba_marseille","lat":43.25078,"lon":5.39521,"is_reserved":false,"is_disabled":false,"rental_uris":{"android":"levelo://app?vid=f8a6667f-b1cb-45b4-af07-08e19aba090b","ios":"levelo://app?vid=f8a6667f-b1cb-45b4-af07-08e19aba090b"},"vehicle_type_id":"4","last_reported":1740993085,"current_range_meters":16000,"station_id":"ce4bhm12rcd13ifvqgkg","pricing_plan_id":"cebpf4jnsgd1na2vs0mg"},{"bike_id":"335de567-973d-4d4a-a45e-574d6adac4d8","system_id":"levelo_inurba_marseille","lat":43.32549,"lon":5.41447,"is_reserved":false,"is_disabled":false,"rental_uris":{"android":"levelo://app?vid=335de567-973d-4d4a-a45e-574d6adac4d8","ios":"levelo://app?vid=335de567-973d-4d4a-a45e-574d6adac4d8"},"vehicle_type_id":"4","last_reported":1740993085,"current_range_meters":16000,"station_id":"ce4bhq12rcd13ifvqhhg","pricing_plan_id":"cebpf4jnsgd1na2vs0mg"},{"bike_id":"76394e5b-b5d3-409a-954a-e09b2559a295","system_id":"levelo_inurba_marseille","lat":43.23195,"lon":5.35565,"is_reserved":false,"is_disabled":false,"rental_uris":{"android":"levelo://app?vid=76394e5b-b5d3-409a-954a-e09b2559a295","ios":"levelo://app?vid=76394e5b-b5d3-409a-954a-e09b2559a295"},"vehicle_type_id":"4","last_reported":1740993085,"current_range_meters":16000,"station_id":"ce4bhu92rcd13ifvqi70","pricing_plan_id":"cebpf4jnsgd1na2vs0mg"},{"bike_id":"db0b6833-b3f9-418f-8c99-3c507bc17098","system_id":"levelo_inurba_marseille","lat":43.30302,"lon":5.39212,"is_reserved":false,"is_disabled":false,"rental_uris":{"android":"levelo://app?vid=db0b6833-b3f9-418f-8c99-3c507bc17098","ios":"levelo://app?vid=db0b6833-b3f9-418f-8c99-3c507bc17098"},"vehicle_type_id":"4","last_reported":1740993085,"current_range_meters":16400,"station_id":"ce4bgkh2rcd13ifvqbk0","pricing_plan_id":"cebpf4jnsgd1na2vs0mg"},{"bike_id":"1312362b-f724-4f2c-9c2a-b48bb5825475","system_id":"levelo_inurba_marseille","lat":43.28421,"lon":5.34978,"is_reserved":false,"is_disabled":false,"rental_uris":{"android":"levelo://app?vid=1312362b-f724-4f2c-9c2a-b48bb5825475","ios":"levelo://app?vid=1312362b-f724-4f2c-9c2a-b48bb5825475"},"vehicle_type_id":"4","last_reported":1740993085,"current_range_meters":16400,"station_id":"ce4bhbh2rcd13ifvqepg","pricing_plan_id":"cebpf4jnsgd1na2vs0mg"},{"bike_id":"360cb8fb-ae2d-4942-a777-0b20fe1843ea","system_id":"levelo_inurba_marseille","lat":43.2657,"lon":5.37302,"is_reserved":false,"is_disabled":false,"rental_uris":{"android":"levelo://app?vid=360cb8fb-ae2d-4942-a777-0b20fe1843ea","ios":"levelo://app?vid=360cb8fb-ae2d-4942-a777-0b20fe1843ea"},"vehicle_type_id":"4","last_reported":1740993085,"current_range_meters":16400,"station_id":"ce4bhg12rcd13ifvqf70","pricing_plan_id":"cebpf4jnsgd1na2vs0mg"},{"bike_id":"a3fdac1b-69a8-42b0-ae47-bcf671ff3241","system_id":"levelo_inurba_marseille","lat":43.2501,"lon":5.38921,"is_reserved":false,"is_disabled":false,"rental_uris":{"android":"levelo://app?vid=a3fdac1b-69a8-42b0-ae47-bcf671ff3241","ios":"levelo://app?vid=a3fdac1b-69a8-42b0-ae47-bcf671ff3241"},"vehicle_type_id":"4","last_reported":1740993085,"current_range_meters":16400,"station_id":"ce4bhgp2rcd13ifvqfd0","pricing_plan_id":"cebpf4jnsgd1na2vs0mg"},{"bike_id":"aab51bbc-3ab4-4d20-9eb7-ef91ecee4234","system_id":"levelo_inurba_marseille","lat":43.26047,"lon":5.39412,"is_reserved":false,"is_disabled":false,"rental_uris":{"android":"levelo://app?vid=aab51bbc-3ab4-4d20-9eb7-ef91ecee4234","ios":"levelo://app?vid=aab51bbc-3ab4-4d20-9eb7-ef91ecee4234"},"vehicle_type_id":"4","last_reported":1740993085,"current_range_meters":16400,"station_id":"ce4bhh92rcd13ifvqfj0","pricing_plan_id":"cebpf4jnsgd1na2vs0mg"},{"bike_id":"123d5adf-8e93-46cc-93b8-80cd2a012f7c","system_id":"levelo_inurba_marseille","lat":43.27084,"lon":5.42279,"is_reserved":false,"is_disabled":false,"rental_uris":{"android":"levelo://app?vid=123d5adf-8e93-46cc-93b8-80cd2a012f7c","ios":"levelo://app?vid=123d5adf-8e93-46cc-93b8-80cd2a012f7c"},"vehicle_type_id":"4","last_reported":1740993085,"current_range_meters":16400,"station_id":"ce4bhk92rcd13ifvqgb0","pricing_plan_id":"cebpf4jnsgd1na2vs0mg"},{"bike_id":"a3ca239a-a279-4c5c-805b-6c183853c02e","system_id":"levelo_inurba_marseille","lat":43.23061,"lon":5.3549,"is_reserved":false,"is_disabled":false,"rental_uris":{"android":"levelo://app?vid=a3ca239a-a279-4c5c-805b-6c183853c02e","ios":"levelo://app?vid=a3ca239a-a279-4c5c-805b-6c183853c02e"},"vehicle_type_id":"4","last_reported":1740993085,"current_range_meters":16400,"station_id":"cpo3342slgdg3j2ifvpg","pricing_plan_id":"cebpf4jnsgd1na2vs0mg"},{"bike_id":"440876d4-dc42-40f0-b4a2-14a0a7b63572","system_id":"levelo_inurba_marseille","lat":43.31356,"lon":5.36723,"is_reserved":false,"is_disabled":false,"rental_uris":{"android":"levelo://app?vid=440876d4-dc42-40f0-b4a2-14a0a7b63572","ios":"levelo://app?vid=440876d4-dc42-40f0-b4a2-14a0a7b63572"},"vehicle_type_id":"4","last_reported":1740993085,"current_range_meters":16800,"station_id":"ce4bgr92rcd13ifvqc6g","pricing_plan_id":"cebpf4jnsgd1na2vs0mg"},{"bike_id":"7f546ac2-bd59-49e4-8321-4b112ee2ca26","system_id":"levelo_inurba_marseille","lat":43.29055,"lon":5.39974,"is_reserved":false,"is_disabled":false,"rental_uris":{"android":"levelo://app?vid=7f546ac2-bd59-49e4-8321-4b112ee2ca26","ios":"levelo://app?vid=7f546ac2-bd59-49e4-8321-4b112ee2ca26"},"vehicle_type_id":"4","last_reported":1740993085,"current_range_meters":16800,"station_id":"ce4bh392rcd13ifvqdm0","pricing_plan_id":"cebpf4jnsgd1na2vs0mg"},{"bike_id":"8e4c220f-0622-4a63-a36f-ca94361420c4","system_id":"levelo_inurba_marseille","lat":43.26561,"lon":5.37285,"is_reserved":false,"is_disabled":false,"rental_uris":{"android":"levelo://app?vid=8e4c220f-0622-4a63-a36f-ca94361420c4","ios":"levelo://app?vid=8e4c220f-0622-4a63-a36f-ca94361420c4"},"vehicle_type_id":"4","last_reported":1740993085,"current_range_meters":16800,"station_id":"ce4bhg12rcd13ifvqf70","pricing_plan_id":"cebpf4jnsgd1na2vs0mg"},{"bike_id":"f1dcfab8-8c4b-4001-beee-8a2b3c7442f3","system_id":"levelo_inurba_marseille","lat":43.26682,"lon":5.38266,"is_reserved":false,"is_disabled":false,"rental_uris":{"android":"levelo://app?vid=f1dcfab8-8c4b-4001-beee-8a2b3c7442f3","ios":"levelo://app?vid=f1dcfab8-8c4b-4001-beee-8a2b3c7442f3"},"vehicle_type_id":"4","last_reported":1740993085,"current_range_meters":16800,"station_id":"ce4bhg92rcd13ifvqf90","pricing_plan_id":"cebpf4jnsgd1na2vs0mg"},{"bike_id":"23e7b74e-5cc3-434b-85a0-4486a824dddd","system_id":"levelo_inurba_marseille","lat":43.23155,"lon":5.4372,"is_reserved":false,"is_disabled":false,"rental_uris":{"android":"levelo://app?vid=23e7b74e-5cc3-434b-85a0-4486a824dddd","ios":"levelo://app?vid=23e7b74e-5cc3-434b-85a0-4486a824dddd"},"vehicle_type_id":"4","last_reported":1740993085,"current_range_meters":16800,"station_id":"ce4bhmp2rcd13ifvqgog","pricing_plan_id":"cebpf4jnsgd1na2vs0mg"},{"bike_id":"3b778583-4fa4-4286-b3fb-8e250bde10fe","system_id":"levelo_inurba_marseille","lat":43.241767,"lon":5.397333,"is_reserved":false,"is_disabled":false,"rental_uris":{"android":"levelo://app?vid=3b778583-4fa4-4286-b3fb-8e250bde10fe","ios":"levelo://app?vid=3b778583-4fa4-4286-b3fb-8e250bde10fe"},"vehicle_type_id":"4","last_reported":1740993085,"current_range_meters":16800,"station_id":"ce4bhn12rcd13ifvqgpg","pricing_plan_id":"cebpf4jnsgd1na2vs0mg"},{"bike_id":"56945672-b685-4d51-989f-9617328c754d","system_id":"levelo_inurba_marseille","lat":43.31094,"lon":5.42442,"is_reserved":false,"is_disabled":false,"rental_uris":{"android":"levelo://app?vid=56945672-b685-4d51-989f-9617328c754d","ios":"levelo://app?vid=56945672-b685-4d51-989f-9617328c754d"},"vehicle_type_id":"4","last_reported":1740993085,"current_range_meters":16800,"station_id":"ce4bhp92rcd13ifvqhag","pricing_plan_id":"cebpf4jnsgd1na2vs0mg"},{"bike_id":"51731d2c-70b6-4c87-8971-1699ab46e6f3","system_id":"levelo_inurba_marseille","lat":43.255807,"lon":5.382285,"is_reserved":false,"is_disabled":false,"rental_uris":{"android":"levelo://app?vid=51731d2c-70b6-4c87-8971-1699ab46e6f3","ios":"levelo://app?vid=51731d2c-70b6-4c87-8971-1699ab46e6f3"},"vehicle_type_id":"4","last_reported":1740993085,"current_range_meters":16800,"station_id":"cjm6bp8fraef2m0cb0m0","pricing_plan_id":"cebpf4jnsgd1na2vs0mg"},{"bike_id":"056e5918-eaae-4bb0-a14f-4ff0f6c20d5c","system_id":"levelo_inurba_marseille","lat":43.24179,"lon":5.36401,"is_reserved":false,"is_disabled":false,"rental_uris":{"android":"levelo://app?vid=056e5918-eaae-4bb0-a14f-4ff0f6c20d5c","ios":"levelo://app?vid=056e5918-eaae-4bb0-a14f-4ff0f6c20d5c"},"vehicle_type_id":"4","last_reported":1740993085,"current_range_meters":16800,"station_id":"cpo36qri1sfpv3e86is0","pricing_plan_id":"cebpf4jnsgd1na2vs0mg"},{"bike_id":"4300cf9b-3f21-4db1-957e-9b9d93ea7ac9","system_id":"levelo_inurba_marseille","lat":43.31074,"lon":5.38136,"is_reserved":false,"is_disabled":false,"rental_uris":{"android":"levelo://app?vid=4300cf9b-3f21-4db1-957e-9b9d93ea7ac9","ios":"levelo://app?vid=4300cf9b-3f21-4db1-957e-9b9d93ea7ac9"},"vehicle_type_id":"4","last_reported":1740993085,"current_range_meters":17200,"station_id":"","pricing_plan_id":"cebpf4jnsgd1na2vs0mg"},{"bike_id":"88858c28-5a08-41e9-b766-6b2e555e71e3","system_id":"levelo_inurba_marseille","lat":43.29608,"lon":5.38177,"is_reserved":false,"is_disabled":false,"rental_uris":{"android":"levelo://app?vid=88858c28-5a08-41e9-b766-6b2e555e71e3","ios":"levelo://app?vid=88858c28-5a08-41e9-b766-6b2e555e71e3"},"vehicle_type_id":"4","last_reported":1740993085,"current_range_meters":17200,"station_id":"","pricing_plan_id":"cebpf4jnsgd1na2vs0mg"},{"bike_id":"bf9de349-fe7b-40fd-af3d-a84a158770e4","system_id":"levelo_inurba_marseille","lat":43.29777,"lon":5.38105,"is_reserved":false,"is_disabled":false,"rental_uris":{"android":"levelo://app?vid=bf9de349-fe7b-40fd-af3d-a84a158770e4","ios":"levelo://app?vid=bf9de349-fe7b-40fd-af3d-a84a158770e4"},"vehicle_type_id":"4","last_reported":1740993085,"current_range_meters":17200,"station_id":"ce4bgip2rcd13ifvqbb0","pricing_plan_id":"cebpf4jnsgd1na2vs0mg"},{"bike_id":"2e98121c-8891-4ab6-a9c5-0c0bca4f1004","system_id":"levelo_inurba_marseille","lat":43.29936,"lon":5.36564,"is_reserved":false,"is_disabled":false,"rental_uris":{"android":"levelo://app?vid=2e98121c-8891-4ab6-a9c5-0c0bca4f1004","ios":"levelo://app?vid=2e98121c-8891-4ab6-a9c5-0c0bca4f1004"},"vehicle_type_id":"4","last_reported":1740993085,"current_range_meters":17200,"station_id":"ce4bgm92rcd13ifvqbr0","pricing_plan_id":"cebpf4jnsgd1na2vs0mg"},{"bike_id":"461ffa8d-67a7-4de7-91e4-8e943cdf9bae","system_id":"levelo_inurba_marseille","lat":43.29042,"lon":5.37569,"is_reserved":false,"is_disabled":false,"rental_uris":{"android":"levelo://app?vid=461ffa8d-67a7-4de7-91e4-8e943cdf9bae","ios":"levelo://app?vid=461ffa8d-67a7-4de7-91e4-8e943cdf9bae"},"vehicle_type_id":"4","last_reported":1740993085,"current_range_meters":17200,"station_id":"ce4bh692rcd13ifvqe90","pricing_plan_id":"cebpf4jnsgd1na2vs0mg"},{"bike_id":"8a1b475c-3c27-45aa-8fe6-5ed146fff984","system_id":"levelo_inurba_marseille","lat":43.29228,"lon":5.36059,"is_reserved":false,"is_disabled":false,"rental_uris":{"android":"levelo://app?vid=8a1b475c-3c27-45aa-8fe6-5ed146fff984","ios":"levelo://app?vid=8a1b475c-3c27-45aa-8fe6-5ed146fff984"},"vehicle_type_id":"4","last_reported":1740993085,"current_range_meters":17200,"station_id":"ce4bhbh2rcd13ifvqeqg","pricing_plan_id":"cebpf4jnsgd1na2vs0mg"},{"bike_id":"c3bee511-6167-4ea0-8a35-dad8393e941c","system_id":"levelo_inurba_marseille","lat":43.26683,"lon":5.38267,"is_reserved":false,"is_disabled":false,"rental_uris":{"android":"levelo://app?vid=c3bee511-6167-4ea0-8a35-dad8393e941c","ios":"levelo://app?vid=c3bee511-6167-4ea0-8a35-dad8393e941c"},"vehicle_type_id":"4","last_reported":1740993085,"current_range_meters":17200,"station_id":"ce4bhg92rcd13ifvqf90","pricing_plan_id":"cebpf4jnsgd1na2vs0mg"},{"bike_id":"92d19735-9078-4365-86f3-62ab8cfe1bcf","system_id":"levelo_inurba_marseille","lat":43.23963,"lon":5.36633,"is_reserved":false,"is_disabled":false,"rental_uris":{"android":"levelo://app?vid=92d19735-9078-4365-86f3-62ab8cfe1bcf","ios":"levelo://app?vid=92d19735-9078-4365-86f3-62ab8cfe1bcf"},"vehicle_type_id":"4","last_reported":1740993085,"current_range_meters":17200,"station_id":"ce4bhi12rcd13ifvqfp0","pricing_plan_id":"cebpf4jnsgd1na2vs0mg"},{"bike_id":"6df526da-e0fc-42b8-897e-57cca2fda7cc","system_id":"levelo_inurba_marseille","lat":43.27079,"lon":5.42279,"is_reserved":false,"is_disabled":false,"rental_uris":{"android":"levelo://app?vid=6df526da-e0fc-42b8-897e-57cca2fda7cc","ios":"levelo://app?vid=6df526da-e0fc-42b8-897e-57cca2fda7cc"},"vehicle_type_id":"4","last_reported":1740993085,"current_range_meters":17200,"station_id":"ce4bhk92rcd13ifvqgb0","pricing_plan_id":"cebpf4jnsgd1na2vs0mg"},{"bike_id":"b6e6106f-0746-491a-9be6-56aeaff10cea","system_id":"levelo_inurba_marseille","lat":43.23156,"lon":5.43706,"is_reserved":false,"is_disabled":false,"rental_uris":{"android":"levelo://app?vid=b6e6106f-0746-491a-9be6-56aeaff10cea","ios":"levelo://app?vid=b6e6106f-0746-491a-9be6-56aeaff10cea"},"vehicle_type_id":"4","last_reported":1740993085,"current_range_meters":17200,"station_id":"ce4bhmp2rcd13ifvqgog","pricing_plan_id":"cebpf4jnsgd1na2vs0mg"},{"bike_id":"13203078-7922-4853-ab3a-32638914891f","system_id":"levelo_inurba_marseille","lat":43.24025,"lon":5.37733,"is_reserved":false,"is_disabled":false,"rental_uris":{"android":"levelo://app?vid=13203078-7922-4853-ab3a-32638914891f","ios":"levelo://app?vid=13203078-7922-4853-ab3a-32638914891f"},"vehicle_type_id":"4","last_reported":1740993085,"current_range_meters":17200,"station_id":"ce4bhnp2rcd13ifvqgvg","pricing_plan_id":"cebpf4jnsgd1na2vs0mg"},{"bike_id":"c986bd4c-3766-4a76-8c78-4827ba0c9de7","system_id":"levelo_inurba_marseille","lat":43.24058,"lon":5.37747,"is_reserved":false,"is_disabled":false,"rental_uris":{"android":"levelo://app?vid=c986bd4c-3766-4a76-8c78-4827ba0c9de7","ios":"levelo://app?vid=c986bd4c-3766-4a76-8c78-4827ba0c9de7"},"vehicle_type_id":"4","last_reported":1740993085,"current_range_meters":17200,"station_id":"ce4bhnp2rcd13ifvqgvg","pricing_plan_id":"cebpf4jnsgd1na2vs0mg"},{"bike_id":"70a79de1-7504-4fe3-a2f9-7c161020d32e","system_id":"levelo_inurba_marseille","lat":43.32543,"lon":5.4143,"is_reserved":false,"is_disabled":false,"rental_uris":{"android":"levelo://app?vid=70a79de1-7504-4fe3-a2f9-7c161020d32e","ios":"levelo://app?vid=70a79de1-7504-4fe3-a2f9-7c161020d32e"},"vehicle_type_id":"4","last_reported":1740993085,"current_range_meters":17200,"station_id":"ce4bhq12rcd13ifvqhhg","pricing_plan_id":"cebpf4jnsgd1na2vs0mg"},{"bike_id":"4aaec2e6-2dfb-4159-821a-7a493fa8e5f4","system_id":"levelo_inurba_marseille","lat":43.25013,"lon":5.38918,"is_reserved":false,"is_disabled":false,"rental_uris":{"android":"levelo://app?vid=4aaec2e6-2dfb-4159-821a-7a493fa8e5f4","ios":"levelo://app?vid=4aaec2e6-2dfb-4159-821a-7a493fa8e5f4"},"vehicle_type_id":"4","last_reported":1740993085,"current_range_meters":17600,"station_id":"ce4bhgp2rcd13ifvqfd0","pricing_plan_id":"cebpf4jnsgd1na2vs0mg"},{"bike_id":"31b68950-9614-4f37-8c01-60100b683157","system_id":"levelo_inurba_marseille","lat":43.24084,"lon":5.37795,"is_reserved":false,"is_disabled":false,"rental_uris":{"android":"levelo://app?vid=31b68950-9614-4f37-8c01-60100b683157","ios":"levelo://app?vid=31b68950-9614-4f37-8c01-60100b683157"},"vehicle_type_id":"4","last_reported":1740993085,"current_range_meters":17600,"station_id":"ce4bhnp2rcd13ifvqgvg","pricing_plan_id":"cebpf4jnsgd1na2vs0mg"},{"bike_id":"f57abd34-ece4-42fe-a8b8-f10a92956111","system_id":"levelo_inurba_marseille","lat":43.23157,"lon":5.43704,"is_reserved":false,"is_disabled":false,"rental_uris":{"android":"levelo://app?vid=f57abd34-ece4-42fe-a8b8-f10a92956111","ios":"levelo://app?vid=f57abd34-ece4-42fe-a8b8-f10a92956111"},"vehicle_type_id":"4","last_reported":1740993085,"current_range_meters":18000,"station_id":"ce4bhmp2rcd13ifvqgog","pricing_plan_id":"cebpf4jnsgd1na2vs0mg"},{"bike_id":"127a1fac-5e85-4bf8-a2a4-9dd40f0473f7","system_id":"levelo_inurba_marseille","lat":43.27499,"lon":5.4246,"is_reserved":false,"is_disabled":false,"rental_uris":{"android":"levelo://app?vid=127a1fac-5e85-4bf8-a2a4-9dd40f0473f7","ios":"levelo://app?vid=127a1fac-5e85-4bf8-a2a4-9dd40f0473f7"},"vehicle_type_id":"4","last_reported":1740993085,"current_range_meters":18000,"station_id":"ce4bhn92rcd13ifvqgrg","pricing_plan_id":"cebpf4jnsgd1na2vs0mg"},{"bike_id":"69379c57-b1c7-4e95-b8eb-049067b38329","system_id":"levelo_inurba_marseille","lat":43.27501,"lon":5.42471,"is_reserved":false,"is_disabled":false,"rental_uris":{"android":"levelo://app?vid=69379c57-b1c7-4e95-b8eb-049067b38329","ios":"levelo://app?vid=69379c57-b1c7-4e95-b8eb-049067b38329"},"vehicle_type_id":"4","last_reported":1740993085,"current_range_meters":18000,"station_id":"ce4bhn92rcd13ifvqgrg","pricing_plan_id":"cebpf4jnsgd1na2vs0mg"},{"bike_id":"3fce2522-c30c-47f7-bdc4-b542eab709bc","system_id":"levelo_inurba_marseille","lat":43.33594,"lon":5.40983,"is_reserved":false,"is_disabled":false,"rental_uris":{"android":"levelo://app?vid=3fce2522-c30c-47f7-bdc4-b542eab709bc","ios":"levelo://app?vid=3fce2522-c30c-47f7-bdc4-b542eab709bc"},"vehicle_type_id":"4","last_reported":1740993085,"current_range_meters":18000,"station_id":"ce4bhqh2rcd13ifvqhmg","pricing_plan_id":"cebpf4jnsgd1na2vs0mg"},{"bike_id":"b49050a7-0ea8-46d2-9831-68f0b93f9b29","system_id":"levelo_inurba_marseille","lat":43.24169,"lon":5.36395,"is_reserved":false,"is_disabled":false,"rental_uris":{"android":"levelo://app?vid=b49050a7-0ea8-46d2-9831-68f0b93f9b29","ios":"levelo://app?vid=b49050a7-0ea8-46d2-9831-68f0b93f9b29"},"vehicle_type_id":"4","last_reported":1740993085,"current_range_meters":18000,"station_id":"cpo36qri1sfpv3e86is0","pricing_plan_id":"cebpf4jnsgd1na2vs0mg"},{"bike_id":"88ea3635-d6ec-4847-b8de-04e30512df40","system_id":"levelo_inurba_marseille","lat":43.30317,"lon":5.36924,"is_reserved":false,"is_disabled":false,"rental_uris":{"android":"levelo://app?vid=88ea3635-d6ec-4847-b8de-04e30512df40","ios":"levelo://app?vid=88ea3635-d6ec-4847-b8de-04e30512df40"},"vehicle_type_id":"4","last_reported":1740993085,"current_range_meters":18800,"station_id":"","pricing_plan_id":"cebpf4jnsgd1na2vs0mg"},{"bike_id":"dea98afb-bb4e-4a6d-b20e-200595b5e05a","system_id":"levelo_inurba_marseille","lat":43.2985,"lon":5.36273,"is_reserved":false,"is_disabled":false,"rental_uris":{"android":"levelo://app?vid=dea98afb-bb4e-4a6d-b20e-200595b5e05a","ios":"levelo://app?vid=dea98afb-bb4e-4a6d-b20e-200595b5e05a"},"vehicle_type_id":"4","last_reported":1740993085,"current_range_meters":18800,"station_id":"ce4bgpp2rcd13ifvqc3g","pricing_plan_id":"cebpf4jnsgd1na2vs0mg"},{"bike_id":"f230aa52-0a6a-4b8e-9015-f6c3b15842fb","system_id":"levelo_inurba_marseille","lat":43.30496,"lon":5.37902,"is_reserved":false,"is_disabled":false,"rental_uris":{"android":"levelo://app?vid=f230aa52-0a6a-4b8e-9015-f6c3b15842fb","ios":"levelo://app?vid=f230aa52-0a6a-4b8e-9015-f6c3b15842fb"},"vehicle_type_id":"4","last_reported":1740993085,"current_range_meters":18800,"station_id":"ce4bgup2rcd13ifvqcn0","pricing_plan_id":"cebpf4jnsgd1na2vs0mg"},{"bike_id":"46ebcd19-e5fe-48eb-86a4-8f11d2a95090","system_id":"levelo_inurba_marseille","lat":43.28492,"lon":5.38567,"is_reserved":false,"is_disabled":false,"rental_uris":{"android":"levelo://app?vid=46ebcd19-e5fe-48eb-86a4-8f11d2a95090","ios":"levelo://app?vid=46ebcd19-e5fe-48eb-86a4-8f11d2a95090"},"vehicle_type_id":"4","last_reported":1740993085,"current_range_meters":18800,"station_id":"ce4bh8p2rcd13ifvqeb0","pricing_plan_id":"cebpf4jnsgd1na2vs0mg"},{"bike_id":"b7312433-4430-42ec-aa1b-94ae0daea126","system_id":"levelo_inurba_marseille","lat":43.26689,"lon":5.38272,"is_reserved":false,"is_disabled":false,"rental_uris":{"android":"levelo://app?vid=b7312433-4430-42ec-aa1b-94ae0daea126","ios":"levelo://app?vid=b7312433-4430-42ec-aa1b-94ae0daea126"},"vehicle_type_id":"4","last_reported":1740993085,"current_range_meters":18800,"station_id":"ce4bhg92rcd13ifvqf90","pricing_plan_id":"cebpf4jnsgd1na2vs0mg"},{"bike_id":"888d2267-0c80-486d-813b-65f07d0c0490","system_id":"levelo_inurba_marseille","lat":43.32272,"lon":5.38279,"is_reserved":false,"is_disabled":false,"rental_uris":{"android":"levelo://app?vid=888d2267-0c80-486d-813b-65f07d0c0490","ios":"levelo://app?vid=888d2267-0c80-486d-813b-65f07d0c0490"},"vehicle_type_id":"4","last_reported":1740993085,"current_range_meters":18800,"station_id":"ce4bhr12rcd13ifvqhqg","pricing_plan_id":"cebpf4jnsgd1na2vs0mg"},{"bike_id":"43099ed8-c284-4b7a-993c-835512f450ad","system_id":"levelo_inurba_marseille","lat":43.32932,"lon":5.43044,"is_reserved":false,"is_disabled":false,"rental_uris":{"android":"levelo://app?vid=43099ed8-c284-4b7a-993c-835512f450ad","ios":"levelo://app?vid=43099ed8-c284-4b7a-993c-835512f450ad"},"vehicle_type_id":"4","last_reported":1740993085,"current_range_meters":19200,"station_id":"","pricing_plan_id":"cebpf4jnsgd1na2vs0mg"},{"bike_id":"492c4b20-b2fa-4d98-a9ce-b09a5d81bdf8","system_id":"levelo_inurba_marseille","lat":43.24651,"lon":5.38171,"is_reserved":false,"is_disabled":false,"rental_uris":{"android":"levelo://app?vid=492c4b20-b2fa-4d98-a9ce-b09a5d81bdf8","ios":"levelo://app?vid=492c4b20-b2fa-4d98-a9ce-b09a5d81bdf8"},"vehicle_type_id":"4","last_reported":1740993085,"current_range_meters":19200,"station_id":"ce4bhih2rcd13ifvqfr0","pricing_plan_id":"cebpf4jnsgd1na2vs0mg"},{"bike_id":"fa2f572a-5292-47eb-a025-3be61b13b694","system_id":"levelo_inurba_marseille","lat":43.27055,"lon":5.40267,"is_reserved":false,"is_disabled":false,"rental_uris":{"android":"levelo://app?vid=fa2f572a-5292-47eb-a025-3be61b13b694","ios":"levelo://app?vid=fa2f572a-5292-47eb-a025-3be61b13b694"},"vehicle_type_id":"4","last_reported":1740993085,"current_range_meters":19200,"station_id":"ce4bhk92rcd13ifvqgc0","pricing_plan_id":"cebpf4jnsgd1na2vs0mg"},{"bike_id":"db582611-bf2b-4e09-8484-64243755ee89","system_id":"levelo_inurba_marseille","lat":43.23182,"lon":5.39987,"is_reserved":false,"is_disabled":false,"rental_uris":{"android":"levelo://app?vid=db582611-bf2b-4e09-8484-64243755ee89","ios":"levelo://app?vid=db582611-bf2b-4e09-8484-64243755ee89"},"vehicle_type_id":"4","last_reported":1740993085,"current_range_meters":19200,"station_id":"ce4bhn12rcd13ifvqgqg","pricing_plan_id":"cebpf4jnsgd1na2vs0mg"},{"bike_id":"7b33248e-7f92-49da-bb66-36d5c14b9ff1","system_id":"levelo_inurba_marseille","lat":43.27503,"lon":5.42456,"is_reserved":false,"is_disabled":false,"rental_uris":{"android":"levelo://app?vid=7b33248e-7f92-49da-bb66-36d5c14b9ff1","ios":"levelo://app?vid=7b33248e-7f92-49da-bb66-36d5c14b9ff1"},"vehicle_type_id":"4","last_reported":1740993085,"current_range_meters":19200,"station_id":"ce4bhn92rcd13ifvqgrg","pricing_plan_id":"cebpf4jnsgd1na2vs0mg"},{"bike_id":"71d2d9e1-13cc-4811-9025-ef4d811ce446","system_id":"levelo_inurba_marseille","lat":43.30279,"lon":5.37718,"is_reserved":false,"is_disabled":false,"rental_uris":{"android":"levelo://app?vid=71d2d9e1-13cc-4811-9025-ef4d811ce446","ios":"levelo://app?vid=71d2d9e1-13cc-4811-9025-ef4d811ce446"},"vehicle_type_id":"4","last_reported":1740993085,"current_range_meters":19600,"station_id":"ce4bguh2rcd13ifvqcj0","pricing_plan_id":"cebpf4jnsgd1na2vs0mg"},{"bike_id":"eae398bc-91bf-451a-bd78-bc0ce4649278","system_id":"levelo_inurba_marseille","lat":43.29561,"lon":5.42292,"is_reserved":false,"is_disabled":false,"rental_uris":{"android":"levelo://app?vid=eae398bc-91bf-451a-bd78-bc0ce4649278","ios":"levelo://app?vid=eae398bc-91bf-451a-bd78-bc0ce4649278"},"vehicle_type_id":"4","last_reported":1740993085,"current_range_meters":19600,"station_id":"ce4bhph2rcd13ifvqhdg","pricing_plan_id":"cebpf4jnsgd1na2vs0mg"},{"bike_id":"d5871994-6bbc-4539-90ae-04244fd18631","system_id":"levelo_inurba_marseille","lat":43.28807,"lon":5.40014,"is_reserved":false,"is_disabled":false,"rental_uris":{"android":"levelo://app?vid=d5871994-6bbc-4539-90ae-04244fd18631","ios":"levelo://app?vid=d5871994-6bbc-4539-90ae-04244fd18631"},"vehicle_type_id":"4","last_reported":1740993085,"current_range_meters":20000,"station_id":"","pricing_plan_id":"cebpf4jnsgd1na2vs0mg"},{"bike_id":"73d30b01-c62a-4110-b405-9fd8cc43096e","system_id":"levelo_inurba_marseille","lat":43.30145,"lon":5.38094,"is_reserved":false,"is_disabled":false,"rental_uris":{"android":"levelo://app?vid=73d30b01-c62a-4110-b405-9fd8cc43096e","ios":"levelo://app?vid=73d30b01-c62a-4110-b405-9fd8cc43096e"},"vehicle_type_id":"4","last_reported":1740993085,"current_range_meters":20000,"station_id":"ce4bgjp2rcd13ifvqbh0","pricing_plan_id":"cebpf4jnsgd1na2vs0mg"},{"bike_id":"9bcaadbf-8cfa-45de-92f8-7e7996e24f04","system_id":"levelo_inurba_marseille","lat":43.30956,"lon":5.39034,"is_reserved":false,"is_disabled":false,"rental_uris":{"android":"levelo://app?vid=9bcaadbf-8cfa-45de-92f8-7e7996e24f04","ios":"levelo://app?vid=9bcaadbf-8cfa-45de-92f8-7e7996e24f04"},"vehicle_type_id":"4","last_reported":1740993085,"current_range_meters":20000,"station_id":"ce4bgup2rcd13ifvqco0","pricing_plan_id":"cebpf4jnsgd1na2vs0mg"},{"bike_id":"31accac7-daa1-48e4-9364-efbbdee2d729","system_id":"levelo_inurba_marseille","lat":43.31406,"lon":5.38628,"is_reserved":false,"is_disabled":false,"rental_uris":{"android":"levelo://app?vid=31accac7-daa1-48e4-9364-efbbdee2d729","ios":"levelo://app?vid=31accac7-daa1-48e4-9364-efbbdee2d729"},"vehicle_type_id":"4","last_reported":1740993085,"current_range_meters":20400,"station_id":"","pricing_plan_id":"cebpf4jnsgd1na2vs0mg"},{"bike_id":"94f84b8c-e021-4c1e-8ed0-f390bcea07c5","system_id":"levelo_inurba_marseille","lat":43.25007,"lon":5.38923,"is_reserved":false,"is_disabled":false,"rental_uris":{"android":"levelo://app?vid=94f84b8c-e021-4c1e-8ed0-f390bcea07c5","ios":"levelo://app?vid=94f84b8c-e021-4c1e-8ed0-f390bcea07c5"},"vehicle_type_id":"4","last_reported":1740993085,"current_range_meters":20400,"station_id":"ce4bhgp2rcd13ifvqfd0","pricing_plan_id":"cebpf4jnsgd1na2vs0mg"},{"bike_id":"5adca0c6-4b24-4647-938a-5901c7772c02","system_id":"levelo_inurba_marseille","lat":43.25931,"lon":5.40915,"is_reserved":false,"is_disabled":false,"rental_uris":{"android":"levelo://app?vid=5adca0c6-4b24-4647-938a-5901c7772c02","ios":"levelo://app?vid=5adca0c6-4b24-4647-938a-5901c7772c02"},"vehicle_type_id":"4","last_reported":1740993085,"current_range_meters":20400,"station_id":"ce4bhm92rcd13ifvqglg","pricing_plan_id":"cebpf4jnsgd1na2vs0mg"},{"bike_id":"53759501-a87b-42ec-8f67-527a4bda8836","system_id":"levelo_inurba_marseille","lat":43.28004,"lon":5.4001,"is_reserved":false,"is_disabled":false,"rental_uris":{"android":"levelo://app?vid=53759501-a87b-42ec-8f67-527a4bda8836","ios":"levelo://app?vid=53759501-a87b-42ec-8f67-527a4bda8836"},"vehicle_type_id":"4","last_reported":1740993085,"current_range_meters":20400,"station_id":"ce4bho92rcd13ifvqh4g","pricing_plan_id":"cebpf4jnsgd1na2vs0mg"},{"bike_id":"b5ccea05-d5f0-4c55-8e0a-e9d39e58f27a","system_id":"levelo_inurba_marseille","lat":43.3122,"lon":5.36856,"is_reserved":false,"is_disabled":false,"rental_uris":{"android":"levelo://app?vid=b5ccea05-d5f0-4c55-8e0a-e9d39e58f27a","ios":"levelo://app?vid=b5ccea05-d5f0-4c55-8e0a-e9d39e58f27a"},"vehicle_type_id":"4","last_reported":1740993085,"current_range_meters":20800,"station_id":"ce4bgl92rcd13ifvqbq0","pricing_plan_id":"cebpf4jnsgd1na2vs0mg"},{"bike_id":"90f9f2c1-a878-43b5-a0f5-f53efd753482","system_id":"levelo_inurba_marseille","lat":43.31356,"lon":5.36744,"is_reserved":false,"is_disabled":false,"rental_uris":{"android":"levelo://app?vid=90f9f2c1-a878-43b5-a0f5-f53efd753482","ios":"levelo://app?vid=90f9f2c1-a878-43b5-a0f5-f53efd753482"},