{"last_updated":1722528613,"ttl":30,"version":"2.2","data":{"bikes":[{"bike_id":"8970fd13-15af-4762-8a9d-2fe10686ca01","system_id":"levelo_inurba_marseille","lat":43.312239,"lon":5.368562,"is_reserved":false,"is_disabled":false,"rental_uris":{"android":"levelo://app?vid=8970fd13-15af-4762-8a9d-2fe10686ca01","ios":"levelo://app?vid=8970fd13-15af-4762-8a9d-2fe10686ca01"},"vehicle_type_id":"4","last_reported":1722528613,"current_range_meters":14400,"station_id":"ce4bgl92rcd13ifvqbq0","pricing_plan_id":"cebpf4jnsgd1na2vs0mg"},{"bike_id":"6028d61c-9a4b-4447-b63c-c8ba3ca76270","system_id":"levelo_inurba_marseille","lat":43.312196,"lon":5.36868,"is_reserved":false,"is_disabled":false,"rental_uris":{"android":"levelo://app?vid=6028d61c-9a4b-4447-b63c-c8ba3ca76270","ios":"levelo://app?vid=6028d61c-9a4b-4447-b63c-c8ba3ca76270"},"vehicle_type_id":"4","last_reported":1722528613,"current_range_meters":0,"station_id":"ce4bgl92rcd13ifvqbq0","pricing_plan_id":"cebpf4jnsgd1na2vs0mg"},{"bike_id":"68a28aef-a066-4b07-a1ef-8716cd07bdc4","system_id":"levelo_inurba_marseille","lat":43.309076,"lon":5.368465,"is_reserved":false,"is_disabled":false,"rental_uris":{"android":"levelo://app?vid=68a28aef-a066-4b07-a1ef-8716cd07bdc4","ios":"levelo://app?vid=68a28aef-a066-4b07-a1ef-8716cd07bdc4"},"vehicle_type_id":"4","last_reported":1722528613,"current_range_meters":0,"station_id":"ce4bgn92rcd13ifvqbvg","pricing_plan_id":"cebpf4jnsgd1na2vs0mg"},{"bike_id":"505f9ce3-05ec-449d-8c21-c96e882a0e2a","system_id":"levelo_inurba_marseille","lat":43.30793,"lon":5.372357,"is_reserved":false,"is_disabled":false,"rental_uris":{"android":"levelo://app?vid=505f9ce3-05ec-449d-8c21-c96e882a0e2a","ios":"levelo://app?vid=505f9ce3-05ec-449d-8c21-c96e882a0e2a"},"vehicle_type_id":"4","last_reported":1722528613,"current_range_meters":18800,"station_id":"","pricing_plan_id":"cebpf4jnsgd1na2vs0mg"},{"bike_id":"cd49b7c7-5ac3-4236-8e65-99ccc733d2ee","system_id":"levelo_inurba_marseille","lat":43.305989,"lon":5.37225,"is_reserved":false,"is_disabled":false,"rental_uris":{"android":"levelo://app?vid=cd49b7c7-5ac3-4236-8e65-99ccc733d2ee","ios":"levelo://app?vid=cd49b7c7-5ac3-4236-8e65-99ccc733d2ee"},"vehicle_type_id":"4","last_reported":1722528613,"current_range_meters":0,"station_id":"ce4bgqh2rcd13ifvqc4g","pricing_plan_id":"cebpf4jnsgd1na2vs0mg"},{"bike_id":"749576d7-ac1c-4fdc-b071-bdc937fb475d","system_id":"levelo_inurba_marseille","lat":43.319746,"lon":5.37167,"is_reserved":false,"is_disabled":false,"rental_uris":{"android":"levelo://app?vid=749576d7-ac1c-4fdc-b071-bdc937fb475d","ios":"levelo://app?vid=749576d7-ac1c-4fdc-b071-bdc937fb475d"},"vehicle_type_id":"4","last_reported":1722528613,"current_range_meters":20000,"station_id":"","pricing_plan_id":"cebpf4jnsgd1na2vs0mg"},{"bike_id":"d067f403-0bf8-4322-b5d4-9f4c0fada9b9","system_id":"levelo_inurba_marseille","lat":43.311131,"lon":5.377651,"is_reserved":false,"is_disabled":false,"rental_uris":{"android":"levelo://app?vid=d067f403-0bf8-4322-b5d4-9f4c0fada9b9","ios":"levelo://app?vid=d067f403-0bf8-4322-b5d4-9f4c0fada9b9"},"vehicle_type_id":"4","last_reported":1722528613,"current_range_meters":10000,"station_id":"ce4bgt92rcd13ifvqcg0","pricing_plan_id":"cebpf4jnsgd1na2vs0mg"},{"bike_id":"0c4651a2-4eaa-477b-b1aa-686c9e5483de","system_id":"levelo_inurba_marseille","lat":43.32035,"lon":5.371887,"is_reserved":false,"is_disabled":false,"rental_uris":{"android":"levelo://app?vid=0c4651a2-4eaa-477b-b1aa-686c9e5483de","ios":"levelo://app?vid=0c4651a2-4eaa-477b-b1aa-686c9e5483de"},"vehicle_type_id":"4","last_reported":1722528613,"current_range_meters":18400,"station_id":"","pricing_plan_id":"cebpf4jnsgd1na2vs0mg"},{"bike_id":"d8f4cb67-38b4-4356-9fc5-df6ff9f377fe","system_id":"levelo_inurba_marseille","lat":43.307945,"lon":5.376487,"is_reserved":false,"is_disabled":false,"rental_uris":{"android":"levelo://app?vid=d8f4cb67-38b4-4356-9fc5-df6ff9f377fe","ios":"levelo://app?vid=d8f4cb67-38b4-4356-9fc5-df6ff9f377fe"},"vehicle_type_id":"4","last_reported":1722528613,"current_range_meters":800,"station_id":"ce4bgv92rcd13ifvqcq0","pricing_plan_id":"cebpf4jnsgd1na2vs0mg"},{"bike_id":"dd369b40-9f00-4f57-8609-8fc74c7ace9d","system_id":"levelo_inurba_marseille","lat":43.317075,"lon":5.377367,"is_reserved":false,"is_disabled":false,"rental_uris":{"android":"levelo://app?vid=dd369b40-9f00-4f57-8609-8fc74c7ace9d","ios":"levelo://app?vid=dd369b40-9f00-4f57-8609-8fc74c7ace9d"},"vehicle_type_id":"4","last_reported":1722528613,"current_range_meters":11600,"station_id":"ce4bgth2rcd13ifvqch0","pricing_plan_id":"cebpf4jnsgd1na2vs0mg"},{"bike_id":"9ee09bed-8f25-41c5-98fa-1c2a22ccff1e","system_id":"levelo_inurba_marseille","lat":43.317114,"lon":5.377554,"is_reserved":false,"is_disabled":false,"rental_uris":{"android":"levelo://app?vid=9ee09bed-8f25-41c5-98fa-1c2a22ccff1e","ios":"levelo://app?vid=9ee09bed-8f25-41c5-98fa-1c2a22ccff1e"},"vehicle_type_id":"4","last_reported":1722528613,"current_range_meters":0,"station_id":"ce4bgth2rcd13ifvqch0","pricing_plan_id":"cebpf4jnsgd1na2vs0mg"},{"bike_id":"e589a8df-2272-4444-a94c-bbfa6bb57419","system_id":"levelo_inurba_marseille","lat":43.317056,"lon":5.378274,"is_reserved":false,"is_disabled":false,"rental_uris":{"android":"levelo://app?vid=e589a8df-2272-4444-a94c-bbfa6bb57419","ios":"levelo://app?vid=e589a8df-2272-4444-a94c-bbfa6bb57419"},"vehicle_type_id":"4","last_reported":1722528613,"current_range_meters":8400,"station_id":"","pricing_plan_id":"cebpf4jnsgd1na2vs0mg"},{"bike_id":"a07059be-c0ef-414e-91a6-54e22ce13d7a","system_id":"levelo_inurba_marseille","lat":43.31151,"lon":5.37998,"is_reserved":false,"is_disabled":false,"rental_uris":{"android":"levelo://app?vid=a07059be-c0ef-414e-91a6-54e22ce13d7a","ios":"levelo://app?vid=a07059be-c0ef-414e-91a6-54e22ce13d7a"},"vehicle_type_id":"4","last_reported":1722528613,"current_range_meters":28400,"station_id":"","pricing_plan_id":"cebpf4jnsgd1na2vs0mg"},{"bike_id":"eaf061e4-344d-41b2-9b25-c5714ddb436e","system_id":"levelo_inurba_marseille","lat":43.315289,"lon":5.380349,"is_reserved":false,"is_disabled":false,"rental_uris":{"android":"levelo://app?vid=eaf061e4-344d-41b2-9b25-c5714ddb436e","ios":"levelo://app?vid=eaf061e4-344d-41b2-9b25-c5714ddb436e"},"vehicle_type_id":"4","last_reported":1722528613,"current_range_meters":5600,"station_id":"ce4bhsp2rcd13ifvqi50","pricing_plan_id":"cebpf4jnsgd1na2vs0mg"},{"bike_id":"d39886cd-9939-40b4-ba42-4df4fd072bf2","system_id":"levelo_inurba_marseille","lat":43.315289,"lon":5.380349,"is_reserved":false,"is_disabled":false,"rental_uris":{"android":"levelo://app?vid=d39886cd-9939-40b4-ba42-4df4fd072bf2","ios":"levelo://app?vid=d39886cd-9939-40b4-ba42-4df4fd072bf2"},"vehicle_type_id":"4","last_reported":1722528613,"current_range_meters":0,"station_id":"ce4bhsp2rcd13ifvqi50","pricing_plan_id":"cebpf4jnsgd1na2vs0mg"},{"bike_id":"2f39c49e-f320-468b-88f7-1f2e7cefede2","system_id":"levelo_inurba_marseille","lat":43.3155,"lon":5.38066,"is_reserved":false,"is_disabled":false,"rental_uris":{"android":"levelo://app?vid=2f39c49e-f320-468b-88f7-1f2e7cefede2","ios":"levelo://app?vid=2f39c49e-f320-468b-88f7-1f2e7cefede2"},"vehicle_type_id":"4","last_reported":1722528613,"current_range_meters":6000,"station_id":"ce4bhsp2rcd13ifvqi50","pricing_plan_id":"cebpf4jnsgd1na2vs0mg"},{"bike_id":"2905fa32-cfc9-4d0f-bcad-e767e5135746","system_id":"levelo_inurba_marseille","lat":43.308012,"lon":5.381511,"is_reserved":false,"is_disabled":false,"rental_uris":{"android":"levelo://app?vid=2905fa32-cfc9-4d0f-bcad-e767e5135746","ios":"levelo://app?vid=2905fa32-cfc9-4d0f-bcad-e767e5135746"},"vehicle_type_id":"4","last_reported":1722528613,"current_range_meters":0,"station_id":"ce4bgt12rcd13ifvqce0","pricing_plan_id":"cebpf4jnsgd1na2vs0mg"},{"bike_id":"bb36a515-b1d9-4e60-afa3-e6c7512473b8","system_id":"levelo_inurba_marseille","lat":43.308012,"lon":5.381511,"is_reserved":false,"is_disabled":false,"rental_uris":{"android":"levelo://app?vid=bb36a515-b1d9-4e60-afa3-e6c7512473b8","ios":"levelo://app?vid=bb36a515-b1d9-4e60-afa3-e6c7512473b8"},"vehicle_type_id":"4","last_reported":1722528613,"current_range_meters":25600,"station_id":"ce4bgt12rcd13ifvqce0","pricing_plan_id":"cebpf4jnsgd1na2vs0mg"},{"bike_id":"8fe0e3d2-a958-45b5-81ab-af5bc8c4e7e5","system_id":"levelo_inurba_marseille","lat":43.308012,"lon":5.381511,"is_reserved":false,"is_disabled":false,"rental_uris":{"android":"levelo://app?vid=8fe0e3d2-a958-45b5-81ab-af5bc8c4e7e5","ios":"levelo://app?vid=8fe0e3d2-a958-45b5-81ab-af5bc8c4e7e5"},"vehicle_type_id":"4","last_reported":1722528613,"current_range_meters":3200,"station_id":"ce4bgt12rcd13ifvqce0","pricing_plan_id":"cebpf4jnsgd1na2vs0mg"},{"bike_id":"70554541-c595-4f3f-9e58-2394dda55380","system_id":"levelo_inurba_marseille","lat":43.308012,"lon":5.381511,"is_reserved":false,"is_disabled":false,"rental_uris":{"android":"levelo://app?vid=70554541-c595-4f3f-9e58-2394dda55380","ios":"levelo://app?vid=70554541-c595-4f3f-9e58-2394dda55380"},"vehicle_type_id":"4","last_reported":1722528613,"current_range_meters":1600,"station_id":"ce4bgt12rcd13ifvqce0","pricing_plan_id":"cebpf4jnsgd1na2vs0mg"},{"bike_id":"4742e3c5-5dd6-44fb-8626-c921f7b001f5","system_id":"levelo_inurba_marseille","lat":43.308012,"lon":5.381511,"is_reserved":false,"is_disabled":false,"rental_uris":{"android":"levelo://app?vid=4742e3c5-5dd6-44fb-8626-c921f7b001f5","ios":"levelo://app?vid=4742e3c5-5dd6-44fb-8626-c921f7b001f5"},"vehicle_type_id":"4","last_reported":1722528613,"current_range_meters":19200,"station_id":"ce4bgt12rcd13ifvqce0","pricing_plan_id":"cebpf4jnsgd1na2vs0mg"},{"bike_id":"59feab20-3a22-46ea-9f76-c3dea5bb5798","system_id":"levelo_inurba_marseille","lat":43.304606,"lon":5.379026,"is_reserved":false,"is_disabled":false,"rental_uris":{"android":"levelo://app?vid=59feab20-3a22-46ea-9f76-c3dea5bb5798","ios":"levelo://app?vid=59feab20-3a22-46ea-9f76-c3dea5bb5798"},"vehicle_type_id":"4","last_reported":1722528613,"current_range_meters":29200,"station_id":"ce4bgup2rcd13ifvqcn0","pricing_plan_id":"cebpf4jnsgd1na2vs0mg"},{"bike_id":"d35a5a2a-c304-45e6-9e7e-3cd26fa6ca11","system_id":"levelo_inurba_marseille","lat":43.304606,"lon":5.379026,"is_reserved":false,"is_disabled":false,"rental_uris":{"android":"levelo://app?vid=d35a5a2a-c304-45e6-9e7e-3cd26fa6ca11","ios":"levelo://app?vid=d35a5a2a-c304-45e6-9e7e-3cd26fa6ca11"},"vehicle_type_id":"4","last_reported":1722528613,"current_range_meters":14400,"station_id":"ce4bgup2rcd13ifvqcn0","pricing_plan_id":"cebpf4jnsgd1na2vs0mg"},{"bike_id":"fcd2df4f-3274-4077-bb05-b0d542c28100","system_id":"levelo_inurba_marseille","lat":43.30462,"lon":5.3791,"is_reserved":false,"is_disabled":false,"rental_uris":{"android":"levelo://app?vid=fcd2df4f-3274-4077-bb05-b0d542c28100","ios":"levelo://app?vid=fcd2df4f-3274-4077-bb05-b0d542c28100"},"vehicle_type_id":"4","last_reported":1722528613,"current_range_meters":0,"station_id":"ce4bgup2rcd13ifvqcn0","pricing_plan_id":"cebpf4jnsgd1na2vs0mg"},{"bike_id":"bb54af00-83f8-4b86-98cf-3754436e71c2","system_id":"levelo_inurba_marseille","lat":43.304606,"lon":5.379026,"is_reserved":false,"is_disabled":false,"rental_uris":{"android":"levelo://app?vid=bb54af00-83f8-4b86-98cf-3754436e71c2","ios":"levelo://app?vid=bb54af00-83f8-4b86-98cf-3754436e71c2"},"vehicle_type_id":"4","last_reported":1722528613,"current_range_meters":15200,"station_id":"ce4bgup2rcd13ifvqcn0","pricing_plan_id":"cebpf4jnsgd1na2vs0mg"},{"bike_id":"2578976b-18ef-4143-a79b-6bb86065152b","system_id":"levelo_inurba_marseille","lat":43.32477,"lon":5.36565,"is_reserved":false,"is_disabled":false,"rental_uris":{"android":"levelo://app?vid=2578976b-18ef-4143-a79b-6bb86065152b","ios":"levelo://app?vid=2578976b-18ef-4143-a79b-6bb86065152b"},"vehicle_type_id":"4","last_reported":1722528613,"current_range_meters":26000,"station_id":"ce4bhs12rcd13ifvqhvg","pricing_plan_id":"cebpf4jnsgd1na2vs0mg"},{"bike_id":"fac97cdd-30b9-4f44-92f5-df8a68b328eb","system_id":"levelo_inurba_marseille","lat":43.324785,"lon":5.365658,"is_reserved":false,"is_disabled":false,"rental_uris":{"android":"levelo://app?vid=fac97cdd-30b9-4f44-92f5-df8a68b328eb","ios":"levelo://app?vid=fac97cdd-30b9-4f44-92f5-df8a68b328eb"},"vehicle_type_id":"4","last_reported":1722528613,"current_range_meters":18400,"station_id":"ce4bhs12rcd13ifvqhvg","pricing_plan_id":"cebpf4jnsgd1na2vs0mg"},{"bike_id":"180aa3e5-6bfe-402b-ad5e-a880edefeca2","system_id":"levelo_inurba_marseille","lat":43.324771,"lon":5.36557,"is_reserved":false,"is_disabled":false,"rental_uris":{"android":"levelo://app?vid=180aa3e5-6bfe-402b-ad5e-a880edefeca2","ios":"levelo://app?vid=180aa3e5-6bfe-402b-ad5e-a880edefeca2"},"vehicle_type_id":"4","last_reported":1722528613,"current_range_meters":7200,"station_id":"ce4bhs12rcd13ifvqhvg","pricing_plan_id":"cebpf4jnsgd1na2vs0mg"},{"bike_id":"6081998e-1125-493b-939c-54880bd02346","system_id":"levelo_inurba_marseille","lat":43.32479,"lon":5.36568,"is_reserved":false,"is_disabled":false,"rental_uris":{"android":"levelo://app?vid=6081998e-1125-493b-939c-54880bd02346","ios":"levelo://app?vid=6081998e-1125-493b-939c-54880bd02346"},"vehicle_type_id":"4","last_reported":1722528613,"current_range_meters":31200,"station_id":"ce4bhs12rcd13ifvqhvg","pricing_plan_id":"cebpf4jnsgd1na2vs0mg"},{"bike_id":"10539333-899f-4310-b761-ee5f556f1f64","system_id":"levelo_inurba_marseille","lat":43.324795,"lon":5.365694,"is_reserved":false,"is_disabled":false,"rental_uris":{"android":"levelo://app?vid=10539333-899f-4310-b761-ee5f556f1f64","ios":"levelo://app?vid=10539333-899f-4310-b761-ee5f556f1f64"},"vehicle_type_id":"4","last_reported":1722528613,"current_range_meters":16800,"station_id":"ce4bhs12rcd13ifvqhvg","pricing_plan_id":"cebpf4jnsgd1na2vs0mg"},{"bike_id":"b2b802a2-3024-40e7-bb62-6bb8cbcf3923","system_id":"levelo_inurba_marseille","lat":43.324771,"lon":5.36557,"is_reserved":false,"is_disabled":false,"rental_uris":{"android":"levelo://app?vid=b2b802a2-3024-40e7-bb62-6bb8cbcf3923","ios":"levelo://app?vid=b2b802a2-3024-40e7-bb62-6bb8cbcf3923"},"vehicle_type_id":"4","last_reported":1722528613,"current_range_meters":14400,"station_id":"ce4bhs12rcd13ifvqhvg","pricing_plan_id":"cebpf4jnsgd1na2vs0mg"},{"bike_id":"fefa8c85-a143-45d7-b3d1-15bf6b235f88","system_id":"levelo_inurba_marseille","lat":43.324771,"lon":5.36557,"is_reserved":false,"is_disabled":false,"rental_uris":{"android":"levelo://app?vid=fefa8c85-a143-45d7-b3d1-15bf6b235f88","ios":"levelo://app?vid=fefa8c85-a143-45d7-b3d1-15bf6b235f88"},"vehicle_type_id":"4","last_reported":1722528613,"current_range_meters":4400,"station_id":"ce4bhs12rcd13ifvqhvg","pricing_plan_id":"cebpf4jnsgd1na2vs0mg"},{"bike_id":"ceae0131-9a67-46ee-b0c6-af477392144d","system_id":"levelo_inurba_marseille","lat":43.32482,"lon":5.36562,"is_reserved":false,"is_disabled":false,"rental_uris":{"android":"levelo://app?vid=ceae0131-9a67-46ee-b0c6-af477392144d","ios":"levelo://app?vid=ceae0131-9a67-46ee-b0c6-af477392144d"},"vehicle_type_id":"4","last_reported":1722528613,"current_range_meters":21600,"station_id":"ce4bhs12rcd13ifvqhvg","pricing_plan_id":"cebpf4jnsgd1na2vs0mg"},{"bike_id":"94477832-449d-4ffd-9cb9-012b040a3969","system_id":"levelo_inurba_marseille","lat":43.32483,"lon":5.36572,"is_reserved":false,"is_disabled":false,"rental_uris":{"android":"levelo://app?vid=94477832-449d-4ffd-9cb9-012b040a3969","ios":"levelo://app?vid=94477832-449d-4ffd-9cb9-012b040a3969"},"vehicle_type_id":"4","last_reported":1722528613,"current_range_meters":8000,"station_id":"ce4bhs12rcd13ifvqhvg","pricing_plan_id":"cebpf4jnsgd1na2vs0mg"},{"bike_id":"f11f734c-c7d2-426a-bbdf-007248f36834","system_id":"levelo_inurba_marseille","lat":43.319935,"lon":5.381699,"is_reserved":false,"is_disabled":false,"rental_uris":{"android":"levelo://app?vid=f11f734c-c7d2-426a-bbdf-007248f36834","ios":"levelo://app?vid=f11f734c-c7d2-426a-bbdf-007248f36834"},"vehicle_type_id":"4","last_reported":1722528613,"current_range_meters":9600,"station_id":"ce4bhr12rcd13ifvqhpg","pricing_plan_id":"cebpf4jnsgd1na2vs0mg"},{"bike_id":"79047d65-269d-43fd-ba1a-e22a45174406","system_id":"levelo_inurba_marseille","lat":43.319935,"lon":5.381699,"is_reserved":false,"is_disabled":false,"rental_uris":{"android":"levelo://app?vid=79047d65-269d-43fd-ba1a-e22a45174406","ios":"levelo://app?vid=79047d65-269d-43fd-ba1a-e22a45174406"},"vehicle_type_id":"4","last_reported":1722528613,"current_range_meters":4400,"station_id":"ce4bhr12rcd13ifvqhpg","pricing_plan_id":"cebpf4jnsgd1na2vs0mg"},{"bike_id":"8eb13985-8d54-44aa-b9f1-489a532d2068","system_id":"levelo_inurba_marseille","lat":43.299845,"lon":5.371855,"is_reserved":false,"is_disabled":false,"rental_uris":{"android":"levelo://app?vid=8eb13985-8d54-44aa-b9f1-489a532d2068","ios":"levelo://app?vid=8eb13985-8d54-44aa-b9f1-489a532d2068"},"vehicle_type_id":"4","last_reported":1722528613,"current_range_meters":31200,"station_id":"ce4bgr92rcd13ifvqc7g","pricing_plan_id":"cebpf4jnsgd1na2vs0mg"},{"bike_id":"2c07d27d-6c9d-41cd-a234-fb62dc181875","system_id":"levelo_inurba_marseille","lat":43.299724,"lon":5.371829,"is_reserved":false,"is_disabled":false,"rental_uris":{"android":"levelo://app?vid=2c07d27d-6c9d-41cd-a234-fb62dc181875","ios":"levelo://app?vid=2c07d27d-6c9d-41cd-a234-fb62dc181875"},"vehicle_type_id":"4","last_reported":1722528613,"current_range_meters":30400,"station_id":"ce4bgr92rcd13ifvqc7g","pricing_plan_id":"cebpf4jnsgd1na2vs0mg"},{"bike_id":"48004da3-959b-4a4e-a496-188d634611a9","system_id":"levelo_inurba_marseille","lat":43.299724,"lon":5.371829,"is_reserved":false,"is_disabled":false,"rental_uris":{"android":"levelo://app?vid=48004da3-959b-4a4e-a496-188d634611a9","ios":"levelo://app?vid=48004da3-959b-4a4e-a496-188d634611a9"},"vehicle_type_id":"4","last_reported":1722528613,"current_range_meters":31200,"station_id":"ce4bgr92rcd13ifvqc7g","pricing_plan_id":"cebpf4jnsgd1na2vs0mg"},{"bike_id":"c13518c0-b897-4832-8532-272f8cb41e91","system_id":"levelo_inurba_marseille","lat":43.30493,"lon":5.38234,"is_reserved":false,"is_disabled":false,"rental_uris":{"android":"levelo://app?vid=c13518c0-b897-4832-8532-272f8cb41e91","ios":"levelo://app?vid=c13518c0-b897-4832-8532-272f8cb41e91"},"vehicle_type_id":"4","last_reported":1722528613,"current_range_meters":21600,"station_id":"","pricing_plan_id":"cebpf4jnsgd1na2vs0mg"},{"bike_id":"2b76f578-6b7a-4e14-80da-7bb609b6e9a0","system_id":"levelo_inurba_marseille","lat":43.298433,"lon":5.362774,"is_reserved":false,"is_disabled":false,"rental_uris":{"android":"levelo://app?vid=2b76f578-6b7a-4e14-80da-7bb609b6e9a0","ios":"levelo://app?vid=2b76f578-6b7a-4e14-80da-7bb609b6e9a0"},"vehicle_type_id":"4","last_reported":1722528613,"current_range_meters":400,"station_id":"ce4bgpp2rcd13ifvqc3g","pricing_plan_id":"cebpf4jnsgd1na2vs0mg"},{"bike_id":"96f78924-2940-475f-8d36-076dcce00648","system_id":"levelo_inurba_marseille","lat":43.3118,"lon":5.38715,"is_reserved":false,"is_disabled":false,"rental_uris":{"android":"levelo://app?vid=96f78924-2940-475f-8d36-076dcce00648","ios":"levelo://app?vid=96f78924-2940-475f-8d36-076dcce00648"},"vehicle_type_id":"4","last_reported":1722528613,"current_range_meters":2800,"station_id":"ce4bgv12rcd13ifvqcp0","pricing_plan_id":"cebpf4jnsgd1na2vs0mg"},{"bike_id":"154fa9a6-4518-4ed2-b57d-4911b3050c0f","system_id":"levelo_inurba_marseille","lat":43.311722,"lon":5.387247,"is_reserved":false,"is_disabled":false,"rental_uris":{"android":"levelo://app?vid=154fa9a6-4518-4ed2-b57d-4911b3050c0f","ios":"levelo://app?vid=154fa9a6-4518-4ed2-b57d-4911b3050c0f"},"vehicle_type_id":"4","last_reported":1722528613,"current_range_meters":10000,"station_id":"ce4bgv12rcd13ifvqcp0","pricing_plan_id":"cebpf4jnsgd1na2vs0mg"},{"bike_id":"11eeb4e9-14ad-46eb-9bd3-6cbfa3eac259","system_id":"levelo_inurba_marseille","lat":43.30185,"lon":5.38073,"is_reserved":false,"is_disabled":false,"rental_uris":{"android":"levelo://app?vid=11eeb4e9-14ad-46eb-9bd3-6cbfa3eac259","ios":"levelo://app?vid=11eeb4e9-14ad-46eb-9bd3-6cbfa3eac259"},"vehicle_type_id":"4","last_reported":1722528613,"current_range_meters":5200,"station_id":"","pricing_plan_id":"cebpf4jnsgd1na2vs0mg"},{"bike_id":"03b727cd-da3b-4f0b-a442-ee8e2e7c0af8","system_id":"levelo_inurba_marseille","lat":43.298433,"lon":5.362774,"is_reserved":false,"is_disabled":false,"rental_uris":{"android":"levelo://app?vid=03b727cd-da3b-4f0b-a442-ee8e2e7c0af8","ios":"levelo://app?vid=03b727cd-da3b-4f0b-a442-ee8e2e7c0af8"},"vehicle_type_id":"4","last_reported":1722528613,"current_range_meters":22800,"station_id":"ce4bgpp2rcd13ifvqc3g","pricing_plan_id":"cebpf4jnsgd1na2vs0mg"},{"bike_id":"3f58ccc6-2045-4fda-ab69-434c0ff5a82d","system_id":"levelo_inurba_marseille","lat":43.297163,"lon":5.365866,"is_reserved":false,"is_disabled":false,"rental_uris":{"android":"levelo://app?vid=3f58ccc6-2045-4fda-ab69-434c0ff5a82d","ios":"levelo://app?vid=3f58ccc6-2045-4fda-ab69-434c0ff5a82d"},"vehicle_type_id":"4","last_reported":1722528613,"current_range_meters":6400,"station_id":"ce4bgn12rcd13ifvqbt0","pricing_plan_id":"cebpf4jnsgd1na2vs0mg"},{"bike_id":"cafafbf9-f460-4e46-819d-d62b21f93410","system_id":"levelo_inurba_marseille","lat":43.297163,"lon":5.365866,"is_reserved":false,"is_disabled":false,"rental_uris":{"android":"levelo://app?vid=cafafbf9-f460-4e46-819d-d62b21f93410","ios":"levelo://app?vid=cafafbf9-f460-4e46-819d-d62b21f93410"},"vehicle_type_id":"4","last_reported":1722528613,"current_range_meters":0,"station_id":"ce4bgn12rcd13ifvqbt0","pricing_plan_id":"cebpf4jnsgd1na2vs0mg"},{"bike_id":"9f734725-f554-4b91-bcb2-84c8c73c0dfa","system_id":"levelo_inurba_marseille","lat":43.296131,"lon":5.370791,"is_reserved":false,"is_disabled":false,"rental_uris":{"android":"levelo://app?vid=9f734725-f554-4b91-bcb2-84c8c73c0dfa","ios":"levelo://app?vid=9f734725-f554-4b91-bcb2-84c8c73c0dfa"},"vehicle_type_id":"4","last_reported":1722528613,"current_range_meters":0,"station_id":"ce4bgnh2rcd13ifvqc0g","pricing_plan_id":"cebpf4jnsgd1na2vs0mg"},{"bike_id":"d3ecfc4d-f53a-42d0-84d8-3cb506dcd3e9","system_id":"levelo_inurba_marseille","lat":43.296131,"lon":5.370773,"is_reserved":false,"is_disabled":false,"rental_uris":{"android":"levelo://app?vid=d3ecfc4d-f53a-42d0-84d8-3cb506dcd3e9","ios":"levelo://app?vid=d3ecfc4d-f53a-42d0-84d8-3cb506dcd3e9"},"vehicle_type_id":"4","last_reported":1722528613,"current_range_meters":0,"station_id":"ce4bgnh2rcd13ifvqc0g","pricing_plan_id":"cebpf4jnsgd1na2vs0mg"},{"bike_id":"27e2c571-b124-4ff9-8b47-123d50a84136","system_id":"levelo_inurba_marseille","lat":43.299028,"lon":5.381509,"is_reserved":false,"is_disabled":false,"rental_uris":{"android":"levelo://app?vid=27e2c571-b124-4ff9-8b47-123d50a84136","ios":"levelo://app?vid=27e2c571-b124-4ff9-8b47-123d50a84136"},"vehicle_type_id":"4","last_reported":1722528613,"current_range_meters":1200,"station_id":"ce4bgj12rcd13ifvqbc0","pricing_plan_id":"cebpf4jnsgd1na2vs0mg"},{"bike_id":"4ba91a6e-36bc-4d03-a1c9-04f7a7dadec5","system_id":"levelo_inurba_marseille","lat":43.299028,"lon":5.381509,"is_reserved":false,"is_disabled":false,"rental_uris":{"android":"levelo://app?vid=4ba91a6e-36bc-4d03-a1c9-04f7a7dadec5","ios":"levelo://app?vid=4ba91a6e-36bc-4d03-a1c9-04f7a7dadec5"},"vehicle_type_id":"4","last_reported":1722528613,"current_range_meters":8000,"station_id":"ce4bgj12rcd13ifvqbc0","pricing_plan_id":"cebpf4jnsgd1na2vs0mg"},{"bike_id":"f75075aa-dbc7-4e48-9e0c-2d155d3c40ab","system_id":"levelo_inurba_marseille","lat":43.317557,"lon":5.390173,"is_reserved":false,"is_disabled":false,"rental_uris":{"android":"levelo://app?vid=f75075aa-dbc7-4e48-9e0c-2d155d3c40ab","ios":"levelo://app?vid=f75075aa-dbc7-4e48-9e0c-2d155d3c40ab"},"vehicle_type_id":"4","last_reported":1722528613,"current_range_meters":9600,"station_id":"ce4bhqp2rcd13ifvqhng","pricing_plan_id":"cebpf4jnsgd1na2vs0mg"},{"bike_id":"926afef0-977f-491c-b43d-319bb4d15341","system_id":"levelo_inurba_marseille","lat":43.304278,"lon":5.388868,"is_reserved":false,"is_disabled":false,"rental_uris":{"android":"levelo://app?vid=926afef0-977f-491c-b43d-319bb4d15341","ios":"levelo://app?vid=926afef0-977f-491c-b43d-319bb4d15341"},"vehicle_type_id":"4","last_reported":1722528613,"current_range_meters":13600,"station_id":"ce4bgk12rcd13ifvqbi0","pricing_plan_id":"cebpf4jnsgd1na2vs0mg"},{"bike_id":"32bcd5de-20de-4872-858d-97b79cdb975a","system_id":"levelo_inurba_marseille","lat":43.295748,"lon":5.37522,"is_reserved":false,"is_disabled":false,"rental_uris":{"android":"levelo://app?vid=32bcd5de-20de-4872-858d-97b79cdb975a","ios":"levelo://app?vid=32bcd5de-20de-4872-858d-97b79cdb975a"},"vehicle_type_id":"4","last_reported":1722528613,"current_range_meters":19200,"station_id":"ce4bgh92rcd13ifvqb50","pricing_plan_id":"cebpf4jnsgd1na2vs0mg"},{"bike_id":"b9d1eba7-de3a-4c33-91e6-6037135de7dc","system_id":"levelo_inurba_marseille","lat":43.29759,"lon":5.38047,"is_reserved":false,"is_disabled":false,"rental_uris":{"android":"levelo://app?vid=b9d1eba7-de3a-4c33-91e6-6037135de7dc","ios":"levelo://app?vid=b9d1eba7-de3a-4c33-91e6-6037135de7dc"},"vehicle_type_id":"4","last_reported":1722528613,"current_range_meters":8000,"station_id":"","pricing_plan_id":"cebpf4jnsgd1na2vs0mg"},{"bike_id":"d460eb1e-6238-4689-8213-50b42255d7ea","system_id":"levelo_inurba_marseille","lat":43.304278,"lon":5.388868,"is_reserved":false,"is_disabled":false,"rental_uris":{"android":"levelo://app?vid=d460eb1e-6238-4689-8213-50b42255d7ea","ios":"levelo://app?vid=d460eb1e-6238-4689-8213-50b42255d7ea"},"vehicle_type_id":"4","last_reported":1722528613,"current_range_meters":22000,"station_id":"ce4bgk12rcd13ifvqbi0","pricing_plan_id":"cebpf4jnsgd1na2vs0mg"},{"bike_id":"f066eb1a-8c68-4934-aa07-589c75419ac5","system_id":"levelo_inurba_marseille","lat":43.304278,"lon":5.388868,"is_reserved":false,"is_disabled":false,"rental_uris":{"android":"levelo://app?vid=f066eb1a-8c68-4934-aa07-589c75419ac5","ios":"levelo://app?vid=f066eb1a-8c68-4934-aa07-589c75419ac5"},"vehicle_type_id":"4","last_reported":1722528613,"current_range_meters":12800,"station_id":"ce4bgk12rcd13ifvqbi0","pricing_plan_id":"cebpf4jnsgd1na2vs0mg"},{"bike_id":"33a91f58-7018-49a0-ae56-4bf9da27f251","system_id":"levelo_inurba_marseille","lat":43.296263,"lon":5.377094,"is_reserved":false,"is_disabled":false,"rental_uris":{"android":"levelo://app?vid=33a91f58-7018-49a0-ae56-4bf9da27f251","ios":"levelo://app?vid=33a91f58-7018-49a0-ae56-4bf9da27f251"},"vehicle_type_id":"4","last_reported":1722528613,"current_range_meters":25600,"station_id":"ce4bgi92rcd13ifvqb90","pricing_plan_id":"cebpf4jnsgd1na2vs0mg"},{"bike_id":"c1946076-4d39-43ff-a62f-99ee4698bd41","system_id":"levelo_inurba_marseille","lat":43.29973,"lon":5.38493,"is_reserved":false,"is_disabled":false,"rental_uris":{"android":"levelo://app?vid=c1946076-4d39-43ff-a62f-99ee4698bd41","ios":"levelo://app?vid=c1946076-4d39-43ff-a62f-99ee4698bd41"},"vehicle_type_id":"4","last_reported":1722528613,"current_range_meters":0,"station_id":"ce4bgj92rcd13ifvqbd0","pricing_plan_id":"cebpf4jnsgd1na2vs0mg"},{"bike_id":"42cd3fc0-1808-4057-a058-ee1d1162e97e","system_id":"levelo_inurba_marseille","lat":43.299717,"lon":5.384845,"is_reserved":false,"is_disabled":false,"rental_uris":{"android":"levelo://app?vid=42cd3fc0-1808-4057-a058-ee1d1162e97e","ios":"levelo://app?vid=42cd3fc0-1808-4057-a058-ee1d1162e97e"},"vehicle_type_id":"4","last_reported":1722528613,"current_range_meters":0,"station_id":"ce4bgj92rcd13ifvqbd0","pricing_plan_id":"cebpf4jnsgd1na2vs0mg"},{"bike_id":"15575591-0fa7-46f7-b732-06e288fd0fe6","system_id":"levelo_inurba_marseille","lat":43.299717,"lon":5.384845,"is_reserved":false,"is_disabled":false,"rental_uris":{"android":"levelo://app?vid=15575591-0fa7-46f7-b732-06e288fd0fe6","ios":"levelo://app?vid=15575591-0fa7-46f7-b732-06e288fd0fe6"},"vehicle_type_id":"4","last_reported":1722528613,"current_range_meters":0,"station_id":"ce4bgj92rcd13ifvqbd0","pricing_plan_id":"cebpf4jnsgd1na2vs0mg"},{"bike_id":"b3692453-0b72-450e-97c2-76e709b9b912","system_id":"levelo_inurba_marseille","lat":43.301396,"lon":5.387812,"is_reserved":false,"is_disabled":false,"rental_uris":{"android":"levelo://app?vid=b3692453-0b72-450e-97c2-76e709b9b912","ios":"levelo://app?vid=b3692453-0b72-450e-97c2-76e709b9b912"},"vehicle_type_id":"4","last_reported":1722528613,"current_range_meters":9600,"station_id":"ce4bghh2rcd13ifvqb60","pricing_plan_id":"cebpf4jnsgd1na2vs0mg"},{"bike_id":"700c71e0-523b-4a6a-9d53-bd1891f334f5","system_id":"levelo_inurba_marseille","lat":43.29594,"lon":5.37996,"is_reserved":false,"is_disabled":false,"rental_uris":{"android":"levelo://app?vid=700c71e0-523b-4a6a-9d53-bd1891f334f5","ios":"levelo://app?vid=700c71e0-523b-4a6a-9d53-bd1891f334f5"},"vehicle_type_id":"4","last_reported":1722528613,"current_range_meters":1600,"station_id":"","pricing_plan_id":"cebpf4jnsgd1na2vs0mg"},{"bike_id":"38740db2-26ef-417b-a0a1-e8b8e25e0117","system_id":"levelo_inurba_marseille","lat":43.29602,"lon":5.381084,"is_reserved":false,"is_disabled":false,"rental_uris":{"android":"levelo://app?vid=38740db2-26ef-417b-a0a1-e8b8e25e0117","ios":"levelo://app?vid=38740db2-26ef-417b-a0a1-e8b8e25e0117"},"vehicle_type_id":"4","last_reported":1722528613,"current_range_meters":4000,"station_id":"ce4bgl12rcd13ifvqbo0","pricing_plan_id":"cebpf4jnsgd1na2vs0mg"},{"bike_id":"fbd1acd9-186a-4074-a029-3a0da52f25ba","system_id":"levelo_inurba_marseille","lat":43.295898,"lon":5.381031,"is_reserved":false,"is_disabled":false,"rental_uris":{"android":"levelo://app?vid=fbd1acd9-186a-4074-a029-3a0da52f25ba","ios":"levelo://app?vid=fbd1acd9-186a-4074-a029-3a0da52f25ba"},"vehicle_type_id":"4","last_reported":1722528613,"current_range_meters":0,"station_id":"ce4bgl12rcd13ifvqbo0","pricing_plan_id":"cebpf4jnsgd1na2vs0mg"},{"bike_id":"8da9ed5b-451f-44c0-b62c-907b426c5d18","system_id":"levelo_inurba_marseille","lat":43.273613,"lon":5.362705,"is_reserved":false,"is_disabled":false,"rental_uris":{"android":"levelo://app?vid=8da9ed5b-451f-44c0-b62c-907b426c5d18","ios":"levelo://app?vid=8da9ed5b-451f-44c0-b62c-907b426c5d18"},"vehicle_type_id":"4","last_reported":1722528613,"current_range_meters":17600,"station_id":"ce4bhbh2rcd13ifvqeo0","pricing_plan_id":"cebpf4jnsgd1na2vs0mg"},{"bike_id":"e665b2dd-f3e7-45d2-af94-5bb0cc48b667","system_id":"levelo_inurba_marseille","lat":43.292749,"lon":5.368398,"is_reserved":false,"is_disabled":false,"rental_uris":{"android":"levelo://app?vid=e665b2dd-f3e7-45d2-af94-5bb0cc48b667","ios":"levelo://app?vid=e665b2dd-f3e7-45d2-af94-5bb0cc48b667"},"vehicle_type_id":"4","last_reported":1722528613,"current_range_meters":11600,"station_id":"ce4bhbp2rcd13ifvqesg","pricing_plan_id":"cebpf4jnsgd1na2vs0mg"},{"bike_id":"9dbde60a-ba8e-40d7-abb0-890c184efdf6","system_id":"levelo_inurba_marseille","lat":43.293009,"lon":5.374584,"is_reserved":false,"is_disabled":false,"rental_uris":{"android":"levelo://app?vid=9dbde60a-ba8e-40d7-abb0-890c184efdf6","ios":"levelo://app?vid=9dbde60a-ba8e-40d7-abb0-890c184efdf6"},"vehicle_type_id":"4","last_reported":1722528613,"current_range_meters":29600,"station_id":"ce4bgi12rcd13ifvqb70","pricing_plan_id":"cebpf4jnsgd1na2vs0mg"},{"bike_id":"06b72afe-a9c1-4aea-aefe-a9c94fa9d95c","system_id":"levelo_inurba_marseille","lat":43.293009,"lon":5.374584,"is_reserved":false,"is_disabled":false,"rental_uris":{"android":"levelo://app?vid=06b72afe-a9c1-4aea-aefe-a9c94fa9d95c","ios":"levelo://app?vid=06b72afe-a9c1-4aea-aefe-a9c94fa9d95c"},"vehicle_type_id":"4","last_reported":1722528613,"current_range_meters":16000,"station_id":"ce4bgi12rcd13ifvqb70","pricing_plan_id":"cebpf4jnsgd1na2vs0mg"},{"bike_id":"f555c3cd-d0b2-4757-b8fe-1ba822bf2ec3","system_id":"levelo_inurba_marseille","lat":43.293009,"lon":5.374584,"is_reserved":false,"is_disabled":false,"rental_uris":{"android":"levelo://app?vid=f555c3cd-d0b2-4757-b8fe-1ba822bf2ec3","ios":"levelo://app?vid=f555c3cd-d0b2-4757-b8fe-1ba822bf2ec3"},"vehicle_type_id":"4","last_reported":1722528613,"current_range_meters":16400,"station_id":"ce4bgi12rcd13ifvqb70","pricing_plan_id":"cebpf4jnsgd1na2vs0mg"},{"bike_id":"627f9071-49cd-45d3-af65-065042778436","system_id":"levelo_inurba_marseille","lat":43.290104,"lon":5.356111,"is_reserved":false,"is_disabled":false,"rental_uris":{"android":"levelo://app?vid=627f9071-49cd-45d3-af65-065042778436","ios":"levelo://app?vid=627f9071-49cd-45d3-af65-065042778436"},"vehicle_type_id":"4","last_reported":1722528613,"current_range_meters":8800,"station_id":"ce4bhb92rcd13ifvqen0","pricing_plan_id":"cebpf4jnsgd1na2vs0mg"},{"bike_id":"6b1b81fa-23e0-462b-990f-05f5ad7d1844","system_id":"levelo_inurba_marseille","lat":43.292311,"lon":5.360731,"is_reserved":false,"is_disabled":false,"rental_uris":{"android":"levelo://app?vid=6b1b81fa-23e0-462b-990f-05f5ad7d1844","ios":"levelo://app?vid=6b1b81fa-23e0-462b-990f-05f5ad7d1844"},"vehicle_type_id":"4","last_reported":1722528613,"current_range_meters":5600,"station_id":"ce4bhbh2rcd13ifvqeqg","pricing_plan_id":"cebpf4jnsgd1na2vs0mg"},{"bike_id":"7022ef95-0e65-41f2-b823-67a107925bf7","system_id":"levelo_inurba_marseille","lat":43.30087,"lon":5.39081,"is_reserved":false,"is_disabled":false,"rental_uris":{"android":"levelo://app?vid=7022ef95-0e65-41f2-b823-67a107925bf7","ios":"levelo://app?vid=7022ef95-0e65-41f2-b823-67a107925bf7"},"vehicle_type_id":"4","last_reported":1722528613,"current_range_meters":800,"station_id":"ce4bh192rcd13ifvqdb0","pricing_plan_id":"cebpf4jnsgd1na2vs0mg"},{"bike_id":"bf5561d1-3131-48c7-950a-4e007c5bebe4","system_id":"levelo_inurba_marseille","lat":43.292311,"lon":5.360731,"is_reserved":false,"is_disabled":false,"rental_uris":{"android":"levelo://app?vid=bf5561d1-3131-48c7-950a-4e007c5bebe4","ios":"levelo://app?vid=bf5561d1-3131-48c7-950a-4e007c5bebe4"},"vehicle_type_id":"4","last_reported":1722528613,"current_range_meters":0,"station_id":"ce4bhbh2rcd13ifvqeqg","pricing_plan_id":"cebpf4jnsgd1na2vs0mg"},{"bike_id":"0deae302-8105-406d-92a0-65697874fa43","system_id":"levelo_inurba_marseille","lat":43.2989,"lon":5.38892,"is_reserved":false,"is_disabled":false,"rental_uris":{"android":"levelo://app?vid=0deae302-8105-406d-92a0-65697874fa43","ios":"levelo://app?vid=0deae302-8105-406d-92a0-65697874fa43"},"vehicle_type_id":"4","last_reported":1722528613,"current_range_meters":16000,"station_id":"ce4bh392rcd13ifvqdl0","pricing_plan_id":"cebpf4jnsgd1na2vs0mg"},{"bike_id":"97eba9a0-f692-461b-b549-d32647b6643d","system_id":"levelo_inurba_marseille","lat":43.293009,"lon":5.374584,"is_reserved":false,"is_disabled":false,"rental_uris":{"android":"levelo://app?vid=97eba9a0-f692-461b-b549-d32647b6643d","ios":"levelo://app?vid=97eba9a0-f692-461b-b549-d32647b6643d"},"vehicle_type_id":"4","last_reported":1722528613,"current_range_meters":0,"station_id":"ce4bgi12rcd13ifvqb70","pricing_plan_id":"cebpf4jnsgd1na2vs0mg"},{"bike_id":"3df138c5-11c0-4b67-900d-1f5036275fe8","system_id":"levelo_inurba_marseille","lat":43.298764,"lon":5.388973,"is_reserved":false,"is_disabled":false,"rental_uris":{"android":"levelo://app?vid=3df138c5-11c0-4b67-900d-1f5036275fe8","ios":"levelo://app?vid=3df138c5-11c0-4b67-900d-1f5036275fe8"},"vehicle_type_id":"4","last_reported":1722528613,"current_range_meters":10800,"station_id":"ce4bh392rcd13ifvqdl0","pricing_plan_id":"cebpf4jnsgd1na2vs0mg"},{"bike_id":"de89f947-99d2-467b-93b7-9fbed83784d6","system_id":"levelo_inurba_marseille","lat":43.313291,"lon":5.396838,"is_reserved":false,"is_disabled":false,"rental_uris":{"android":"levelo://app?vid=de89f947-99d2-467b-93b7-9fbed83784d6","ios":"levelo://app?vid=de89f947-99d2-467b-93b7-9fbed83784d6"},"vehicle_type_id":"4","last_reported":1722528613,"current_range_meters":800,"station_id":"ce4bgvp2rcd13ifvqcu0","pricing_plan_id":"cebpf4jnsgd1na2vs0mg"},{"bike_id":"43d4975d-6607-47c4-9494-1b806c2aa87a","system_id":"levelo_inurba_marseille","lat":43.313291,"lon":5.396838,"is_reserved":false,"is_disabled":false,"rental_uris":{"android":"levelo://app?vid=43d4975d-6607-47c4-9494-1b806c2aa87a","ios":"levelo://app?vid=43d4975d-6607-47c4-9494-1b806c2aa87a"},"vehicle_type_id":"4","last_reported":1722528613,"current_range_meters":14000,"station_id":"ce4bgvp2rcd13ifvqcu0","pricing_plan_id":"cebpf4jnsgd1na2vs0mg"},{"bike_id":"994b8898-62de-4bf5-85e8-579b4d427c11","system_id":"levelo_inurba_marseille","lat":43.313291,"lon":5.396838,"is_reserved":false,"is_disabled":false,"rental_uris":{"android":"levelo://app?vid=994b8898-62de-4bf5-85e8-579b4d427c11","ios":"levelo://app?vid=994b8898-62de-4bf5-85e8-579b4d427c11"},"vehicle_type_id":"4","last_reported":1722528613,"current_range_meters":4000,"station_id":"ce4bgvp2rcd13ifvqcu0","pricing_plan_id":"cebpf4jnsgd1na2vs0mg"},{"bike_id":"73e82c4d-9c47-4c6d-8ddd-384842587aa5","system_id":"levelo_inurba_marseille","lat":43.313291,"lon":5.396838,"is_reserved":false,"is_disabled":false,"rental_uris":{"android":"levelo://app?vid=73e82c4d-9c47-4c6d-8ddd-384842587aa5","ios":"levelo://app?vid=73e82c4d-9c47-4c6d-8ddd-384842587aa5"},"vehicle_type_id":"4","last_reported":1722528613,"current_range_meters":6400,"station_id":"ce4bgvp2rcd13ifvqcu0","pricing_plan_id":"cebpf4jnsgd1na2vs0mg"},{"bike_id":"9b997886-7cab-4a77-8473-2658df2230b5","system_id":"levelo_inurba_marseille","lat":43.309047,"lon":5.396551,"is_reserved":false,"is_disabled":false,"rental_uris":{"android":"levelo://app?vid=9b997886-7cab-4a77-8473-2658df2230b5","ios":"levelo://app?vid=9b997886-7cab-4a77-8473-2658df2230b5"},"vehicle_type_id":"4","last_reported":1722528613,"current_range_meters":9600,"station_id":"ce4bh012rcd13ifvqcv0","pricing_plan_id":"cebpf4jnsgd1na2vs0mg"},{"bike_id":"7caaee81-e582-496b-b63c-47455d0dafa1","system_id":"levelo_inurba_marseille","lat":43.309038,"lon":5.396546,"is_reserved":false,"is_disabled":false,"rental_uris":{"android":"levelo://app?vid=7caaee81-e582-496b-b63c-47455d0dafa1","ios":"levelo://app?vid=7caaee81-e582-496b-b63c-47455d0dafa1"},"vehicle_type_id":"4","last_reported":1722528613,"current_range_meters":5200,"station_id":"ce4bh012rcd13ifvqcv0","pricing_plan_id":"cebpf4jnsgd1na2vs0mg"},{"bike_id":"e4130024-0244-4993-8bd7-51ac8389299b","system_id":"levelo_inurba_marseille","lat":43.29529,"lon":5.385581,"is_reserved":false,"is_disabled":false,"rental_uris":{"android":"levelo://app?vid=e4130024-0244-4993-8bd7-51ac8389299b","ios":"levelo://app?vid=e4130024-0244-4993-8bd7-51ac8389299b"},"vehicle_type_id":"4","last_reported":1722528613,"current_range_meters":21600,"station_id":"ce4bgih2rcd13ifvqba0","pricing_plan_id":"cebpf4jnsgd1na2vs0mg"},{"bike_id":"2dd33529-0257-45a6-b35a-699ec97dc084","system_id":"levelo_inurba_marseille","lat":43.295327,"lon":5.385463,"is_reserved":false,"is_disabled":false,"rental_uris":{"android":"levelo://app?vid=2dd33529-0257-45a6-b35a-699ec97dc084","ios":"levelo://app?vid=2dd33529-0257-45a6-b35a-699ec97dc084"},"vehicle_type_id":"4","last_reported":1722528613,"current_range_meters":30400,"station_id":"","pricing_plan_id":"cebpf4jnsgd1na2vs0mg"},{"bike_id":"3ca135a3-b647-4722-abd4-8306ddd6eb8d","system_id":"levelo_inurba_marseille","lat":43.29529,"lon":5.385581,"is_reserved":false,"is_disabled":false,"rental_uris":{"android":"levelo://app?vid=3ca135a3-b647-4722-abd4-8306ddd6eb8d","ios":"levelo://app?vid=3ca135a3-b647-4722-abd4-8306ddd6eb8d"},"vehicle_type_id":"4","last_reported":1722528613,"current_range_meters":2000,"station_id":"ce4bgih2rcd13ifvqba0","pricing_plan_id":"cebpf4jnsgd1na2vs0mg"},{"bike_id":"721ababa-0227-485a-8144-428ab7651d59","system_id":"levelo_inurba_marseille","lat":43.290779,"lon":5.371482,"is_reserved":false,"is_disabled":false,"rental_uris":{"android":"levelo://app?vid=721ababa-0227-485a-8144-428ab7651d59","ios":"levelo://app?vid=721ababa-0227-485a-8144-428ab7651d59"},"vehicle_type_id":"4","last_reported":1722528613,"current_range_meters":1200,"station_id":"ce4bh5p2rcd13ifvqe4g","pricing_plan_id":"cebpf4jnsgd1na2vs0mg"},{"bike_id":"4604a2d8-cf13-4b53-a0e6-2d8840624a9c","system_id":"levelo_inurba_marseille","lat":43.29071,"lon":5.37154,"is_reserved":false,"is_disabled":false,"rental_uris":{"android":"levelo://app?vid=4604a2d8-cf13-4b53-a0e6-2d8840624a9c","ios":"levelo://app?vid=4604a2d8-cf13-4b53-a0e6-2d8840624a9c"},"vehicle_type_id":"4","last_reported":1722528613,"current_range_meters":0,"station_id":"ce4bh5p2rcd13ifvqe4g","pricing_plan_id":"cebpf4jnsgd1na2vs0mg"},{"bike_id":"d38f6867-ce92-49e1-8651-a8777df1969f","system_id":"levelo_inurba_marseille","lat":43.290631,"lon":5.359244,"is_reserved":false,"is_disabled":false,"rental_uris":{"android":"levelo://app?vid=d38f6867-ce92-49e1-8651-a8777df1969f","ios":"levelo://app?vid=d38f6867-ce92-49e1-8651-a8777df1969f"},"vehicle_type_id":"4","last_reported":1722528613,"current_range_meters":16000,"station_id":"ce4bha92rcd13ifvqeg0","pricing_plan_id":"cebpf4jnsgd1na2vs0mg"},{"bike_id":"9a2425b4-4670-4484-bb5f-1355cf0c5537","system_id":"levelo_inurba_marseille","lat":43.290631,"lon":5.359244,"is_reserved":false,"is_disabled":false,"rental_uris":{"android":"levelo://app?vid=9a2425b4-4670-4484-bb5f-1355cf0c5537","ios":"levelo://app?vid=9a2425b4-4670-4484-bb5f-1355cf0c5537"},"vehicle_type_id":"4","last_reported":1722528613,"current_range_meters":22800,"station_id":"ce4bha92rcd13ifvqeg0","pricing_plan_id":"cebpf4jnsgd1na2vs0mg"},{"bike_id":"4970f76d-67a5-49dd-8870-28b7a67f3d2d","system_id":"levelo_inurba_marseille","lat":43.289184,"lon":5.366408,"is_reserved":false,"is_disabled":false,"rental_uris":{"android":"levelo://app?vid=4970f76d-67a5-49dd-8870-28b7a67f3d2d","ios":"levelo://app?vid=4970f76d-67a5-49dd-8870-28b7a67f3d2d"},"vehicle_type_id":"4","last_reported":1722528613,"current_range_meters":20800,"station_id":"ce4bhap2rcd13ifvqek0","pricing_plan_id":"cebpf4jnsgd1na2vs0mg"},{"bike_id":"4c036cea-61b7-4d45-a56e-13aa602105b5","system_id":"levelo_inurba_marseille","lat":43.294162,"lon":5.386292,"is_reserved":false,"is_disabled":false,"rental_uris":{"android":"levelo://app?vid=4c036cea-61b7-4d45-a56e-13aa602105b5","ios":"levelo://app?vid=4c036cea-61b7-4d45-a56e-13aa602105b5"},"vehicle_type_id":"4","last_reported":1722528613,"current_range_meters":16000,"station_id":"ce4bh2h2rcd13ifvqdh0","pricing_plan_id":"cebpf4jnsgd1na2vs0mg"},{"bike_id":"54ae8450-fb3a-47d1-880b-7b1aa51095c3","system_id":"levelo_inurba_marseille","lat":43.289184,"lon":5.366408,"is_reserved":false,"is_disabled":false,"rental_uris":{"android":"levelo://app?vid=54ae8450-fb3a-47d1-880b-7b1aa51095c3","ios":"levelo://app?vid=54ae8450-fb3a-47d1-880b-7b1aa51095c3"},"vehicle_type_id":"4","last_reported":1722528613,"current_range_meters":0,"station_id":"ce4bhap2rcd13ifvqek0","pricing_plan_id":"cebpf4jnsgd1na2vs0mg"},{"bike_id":"2ed9f71d-9031-4018-a535-0d5331ff861f","system_id":"levelo_inurba_marseille","lat":43.289468,"lon":5.363719,"is_reserved":false,"is_disabled":false,"rental_uris":{"android":"levelo://app?vid=2ed9f71d-9031-4018-a535-0d5331ff861f","ios":"levelo://app?vid=2ed9f71d-9031-4018-a535-0d5331ff861f"},"vehicle_type_id":"4","last_reported":1722528613,"current_range_meters":10800,"station_id":"ce4bhc92rcd13ifvqetg","pricing_plan_id":"cebpf4jnsgd1na2vs0mg"},{"bike_id":"73bd9371-9f18-4d38-8238-a3ed879d3b3f","system_id":"levelo_inurba_marseille","lat":43.297774,"lon":5.370875,"is_reserved":false,"is_disabled":false,"rental_uris":{"android":"levelo://app?vid=73bd9371-9f18-4d38-8238-a3ed879d3b3f","ios":"levelo://app?vid=73bd9371-9f18-4d38-8238-a3ed879d3b3f"},"vehicle_type_id":"4","last_reported":1722528613,"current_range_meters":9200,"station_id":"ce4bgop2rcd13ifvqc1g","pricing_plan_id":"cebpf4jnsgd1na2vs0mg"},{"bike_id":"7c77648e-9de7-4cef-b813-f1a4088174f2","system_id":"levelo_inurba_marseille","lat":43.304261,"lon":5.397374,"is_reserved":false,"is_disabled":false,"rental_uris":{"android":"levelo://app?vid=7c77648e-9de7-4cef-b813-f1a4088174f2","ios":"levelo://app?vid=7c77648e-9de7-4cef-b813-f1a4088174f2"},"vehicle_type_id":"4","last_reported":1722528613,"current_range_meters":18800,"station_id":"ce4bh092rcd13ifvqd20","pricing_plan_id":"cebpf4jnsgd1na2vs0mg"},{"bike_id":"5ec35b69-bd2b-4463-96c0-84b713010d95","system_id":"levelo_inurba_marseille","lat":43.292642,"lon":5.384254,"is_reserved":false,"is_disabled":false,"rental_uris":{"android":"levelo://app?vid=5ec35b69-bd2b-4463-96c0-84b713010d95","ios":"levelo://app?vid=5ec35b69-bd2b-4463-96c0-84b713010d95"},"vehicle_type_id":"4","last_reported":1722528613,"current_range_meters":18400,"station_id":"ce4bh692rcd13ifvqea0","pricing_plan_id":"cebpf4jnsgd1na2vs0mg"},{"bike_id":"90de6a38-8010-40fe-93de-4df48316971a","system_id":"levelo_inurba_marseille","lat":43.292644,"lon":5.384257,"is_reserved":false,"is_disabled":false,"rental_uris":{"android":"levelo://app?vid=90de6a38-8010-40fe-93de-4df48316971a","ios":"levelo://app?vid=90de6a38-8010-40fe-93de-4df48316971a"},"vehicle_type_id":"4","last_reported":1722528613,"current_range_meters":8400,"station_id":"ce4bh692rcd13ifvqea0","pricing_plan_id":"cebpf4jnsgd1na2vs0mg"},{"bike_id":"41f1b10b-7ee7-4207-8b7d-4842e3ac61c6","system_id":"levelo_inurba_marseille","lat":43.292642,"lon":5.384254,"is_reserved":false,"is_disabled":false,"rental_uris":{"android":"levelo://app?vid=41f1b10b-7ee7-4207-8b7d-4842e3ac61c6","ios":"levelo://app?vid=41f1b10b-7ee7-4207-8b7d-4842e3ac61c6"},"vehicle_type_id":"4","last_reported":1722528613,"current_range_meters":22400,"station_id":"ce4bh692rcd13ifvqea0","pricing_plan_id":"cebpf4jnsgd1na2vs0mg"},{"bike_id":"25af431d-dd08-47c2-943f-2d43f6af622a","system_id":"levelo_inurba_marseille","lat":43.29266,"lon":5.38458,"is_reserved":false,"is_disabled":false,"rental_uris":{"android":"levelo://app?vid=25af431d-dd08-47c2-943f-2d43f6af622a","ios":"levelo://app?vid=25af431d-dd08-47c2-943f-2d43f6af622a"},"vehicle_type_id":"4","last_reported":1722528613,"current_range_meters":0,"station_id":"ce4bh692rcd13ifvqea0","pricing_plan_id":"cebpf4jnsgd1na2vs0mg"},{"bike_id":"8738b129-48f2-466a-af36-60bc4b212b7f","system_id":"levelo_inurba_marseille","lat":43.29009,"lon":5.3561,"is_reserved":false,"is_disabled":false,"rental_uris":{"android":"levelo://app?vid=8738b129-48f2-466a-af36-60bc4b212b7f","ios":"levelo://app?vid=8738b129-48f2-466a-af36-60bc4b212b7f"},"vehicle_type_id":"4","last_reported":1722528613,"current_range_meters":21600,"station_id":"ce4bhb92rcd13ifvqen0","pricing_plan_id":"cebpf4jnsgd1na2vs0mg"},{"bike_id":"24ae66f5-3e6f-42f1-8c18-8b7e6005cb94","system_id":"levelo_inurba_marseille","lat":43.290104,"lon":5.356111,"is_reserved":false,"is_disabled":false,"rental_uris":{"android":"levelo://app?vid=24ae66f5-3e6f-42f1-8c18-8b7e6005cb94","ios":"levelo://app?vid=24ae66f5-3e6f-42f1-8c18-8b7e6005cb94"},"vehicle_type_id":"4","last_reported":1722528613,"current_range_meters":4400,"station_id":"ce4bhb92rcd13ifvqen0","pricing_plan_id":"cebpf4jnsgd1na2vs0mg"},{"bike_id":"608f85ce-381c-46ed-9f0f-a9c0e6e3ca1d","system_id":"levelo_inurba_marseille","lat":43.29009,"lon":5.35605,"is_reserved":false,"is_disabled":false,"rental_uris":{"android":"levelo://app?vid=608f85ce-381c-46ed-9f0f-a9c0e6e3ca1d","ios":"levelo://app?vid=608f85ce-381c-46ed-9f0f-a9c0e6e3ca1d"},"vehicle_type_id":"4","last_reported":1722528613,"current_range_meters":0,"station_id":"ce4bhb92rcd13ifvqen0","pricing_plan_id":"cebpf4jnsgd1na2vs0mg"},{"bike_id":"1b1e9b1e-c832-4add-ac06-dff7a77b36f1","system_id":"levelo_inurba_marseille","lat":43.29006,"lon":5.35614,"is_reserved":false,"is_disabled":false,"rental_uris":{"android":"levelo://app?vid=1b1e9b1e-c832-4add-ac06-dff7a77b36f1","ios":"levelo://app?vid=1b1e9b1e-c832-4add-ac06-dff7a77b36f1"},"vehicle_type_id":"4","last_reported":1722528613,"current_range_meters":0,"station_id":"ce4bhb92rcd13ifvqen0","pricing_plan_id":"cebpf4jnsgd1na2vs0mg"},{"bike_id":"1bf4fb17-9225-49b8-a2f9-29bf6a56666e","system_id":"levelo_inurba_marseille","lat":43.290104,"lon":5.356111,"is_reserved":false,"is_disabled":false,"rental_uris":{"android":"levelo://app?vid=1bf4fb17-9225-49b8-a2f9-29bf6a56666e","ios":"levelo://app?vid=1bf4fb17-9225-49b8-a2f9-29bf6a56666e"},"vehicle_type_id":"4","last_reported":1722528613,"current_range_meters":20800,"station_id":"ce4bhb92rcd13ifvqen0","pricing_plan_id":"cebpf4jnsgd1na2vs0mg"},{"bike_id":"83b60b3e-a388-4a1a-b146-d22ffffe7f6a","system_id":"levelo_inurba_marseille","lat":43.29004,"lon":5.35618,"is_reserved":false,"is_disabled":false,"rental_uris":{"android":"levelo://app?vid=83b60b3e-a388-4a1a-b146-d22ffffe7f6a","ios":"levelo://app?vid=83b60b3e-a388-4a1a-b146-d22ffffe7f6a"},"vehicle_type_id":"4","last_reported":1722528613,"current_range_meters":0,"station_id":"ce4bhb92rcd13ifvqen0","pricing_plan_id":"cebpf4jnsgd1na2vs0mg"},{"bike_id":"167f4811-fcdb-4956-af12-c6256d1ac4f6","system_id":"levelo_inurba_marseille","lat":43.290104,"lon":5.356111,"is_reserved":false,"is_disabled":false,"rental_uris":{"android":"levelo://app?vid=167f4811-fcdb-4956-af12-c6256d1ac4f6","ios":"levelo://app?vid=167f4811-fcdb-4956-af12-c6256d1ac4f6"},"vehicle_type_id":"4","last_reported":1722528613,"current_range_meters":24000,"station_id":"ce4bhb92rcd13ifvqen0","pricing_plan_id":"cebpf4jnsgd1na2vs0mg"},{"bike_id":"fec131b9-6546-4cf4-a144-2496946b0f53","system_id":"levelo_inurba_marseille","lat":43.290104,"lon":5.356111,"is_reserved":false,"is_disabled":false,"rental_uris":{"android":"levelo://app?vid=fec131b9-6546-4cf4-a144-2496946b0f53","ios":"levelo://app?vid=fec131b9-6546-4cf4-a144-2496946b0f53"},"vehicle_type_id":"4","last_reported":1722528613,"current_range_meters":5600,"station_id":"ce4bhb92rcd13ifvqen0","pricing_plan_id":"cebpf4jnsgd1na2vs0mg"},{"bike_id":"1fa78acc-32f1-4f6f-a72c-1f9b0016249b","system_id":"levelo_inurba_marseille","lat":43.290995,"lon":5.381361,"is_reserved":false,"is_disabled":false,"rental_uris":{"android":"levelo://app?vid=1fa78acc-32f1-4f6f-a72c-1f9b0016249b","ios":"levelo://app?vid=1fa78acc-32f1-4f6f-a72c-1f9b0016249b"},"vehicle_type_id":"4","last_reported":1722528613,"current_range_meters":0,"station_id":"ce4bh512rcd13ifvqe2g","pricing_plan_id":"cebpf4jnsgd1na2vs0mg"},{"bike_id":"a532b103-c5d6-454c-a6fc-c0fe04e0cb82","system_id":"levelo_inurba_marseille","lat":43.297807,"lon":5.393533,"is_reserved":false,"is_disabled":false,"rental_uris":{"android":"levelo://app?vid=a532b103-c5d6-454c-a6fc-c0fe04e0cb82","ios":"levelo://app?vid=a532b103-c5d6-454c-a6fc-c0fe04e0cb82"},"vehicle_type_id":"4","last_reported":1722528613,"current_range_meters":6800,"station_id":"chh1huq6cuj3fo74tm60","pricing_plan_id":"cebpf4jnsgd1na2vs0mg"},{"bike_id":"0b754ee8-96f5-4d65-9090-6967c1bd86aa","system_id":"levelo_inurba_marseille","lat":43.330442,"lon":5.389148,"is_reserved":false,"is_disabled":false,"rental_uris":{"android":"levelo://app?vid=0b754ee8-96f5-4d65-9090-6967c1bd86aa","ios":"levelo://app?vid=0b754ee8-96f5-4d65-9090-6967c1bd86aa"},"vehicle_type_id":"4","last_reported":1722528613,"current_range_meters":30800,"station_id":"ce4bhr92rcd13ifvqhrg","pricing_plan_id":"cebpf4jnsgd1na2vs0mg"},{"bike_id":"b9cfd4de-b188-40b5-b9ca-9f1a692d22ac","system_id":"levelo_inurba_marseille","lat":43.295169,"lon":5.390426,"is_reserved":false,"is_disabled":false,"rental_uris":{"android":"levelo://app?vid=b9cfd4de-b188-40b5-b9ca-9f1a692d22ac","ios":"levelo://app?vid=b9cfd4de-b188-40b5-b9ca-9f1a692d22ac"},"vehicle_type_id":"4","last_reported":1722528613,"current_range_meters":22000,"station_id":"ce4bh3p2rcd13ifvqdp0","pricing_plan_id":"cebpf4jnsgd1na2vs0mg"},{"bike_id":"7b561c5f-4b23-4e7e-b05d-971bd4a509cd","system_id":"levelo_inurba_marseille","lat":43.28856,"lon":5.358371,"is_reserved":false,"is_disabled":false,"rental_uris":{"android":"levelo://app?vid=7b561c5f-4b23-4e7e-b05d-971bd4a509cd","ios":"levelo://app?vid=7b561c5f-4b23-4e7e-b05d-971bd4a509cd"},"vehicle_type_id":"4","last_reported":1722528613,"current_range_meters":0,"station_id":"ce4bhb12rcd13ifvqem0","pricing_plan_id":"cebpf4jnsgd1na2vs0mg"},{"bike_id":"f4cdf6f8-59cc-4926-bbd3-bf830cd7e7b6","system_id":"levelo_inurba_marseille","lat":43.2901,"lon":5.381269,"is_reserved":false,"is_disabled":false,"rental_uris":{"android":"levelo://app?vid=f4cdf6f8-59cc-4926-bbd3-bf830cd7e7b6","ios":"levelo://app?vid=f4cdf6f8-59cc-4926-bbd3-bf830cd7e7b6"},"vehicle_type_id":"4","last_reported":1722528613,"current_range_meters":28800,"station_id":"ce4bh4p2rcd13ifvqe1g","pricing_plan_id":"cebpf4jnsgd1na2vs0mg"},{"bike_id":"ea714bdf-2099-4879-ab40-573b37edf020","system_id":"levelo_inurba_marseille","lat":43.28856,"lon":5.358371,"is_reserved":false,"is_disabled":false,"rental_uris":{"android":"levelo://app?vid=ea714bdf-2099-4879-ab40-573b37edf020","ios":"levelo://app?vid=ea714bdf-2099-4879-ab40-573b37edf020"},"vehicle_type_id":"4","last_reported":1722528613,"current_range_meters":6400,"station_id":"ce4bhb12rcd13ifvqem0","pricing_plan_id":"cebpf4jnsgd1na2vs0mg"},{"bike_id":"7db1a9df-f0f1-4d91-b7d8-cf9554ecd3bb","system_id":"levelo_inurba_marseille","lat":43.28856,"lon":5.358371,"is_reserved":false,"is_disabled":false,"rental_uris":{"android":"levelo://app?vid=7db1a9df-f0f1-4d91-b7d8-cf9554ecd3bb","ios":"levelo://app?vid=7db1a9df-f0f1-4d91-b7d8-cf9554ecd3bb"},"vehicle_type_id":"4","last_reported":1722528613,"current_range_meters":24000,"station_id":"ce4bhb12rcd13ifvqem0","pricing_plan_id":"cebpf4jnsgd1na2vs0mg"},{"bike_id":"c848d2d3-0519-40a0-9f21-3d7591b2631a","system_id":"levelo_inurba_marseille","lat":43.28856,"lon":5.358371,"is_reserved":false,"is_disabled":false,"rental_uris":{"android":"levelo://app?vid=c848d2d3-0519-40a0-9f21-3d7591b2631a","ios":"levelo://app?vid=c848d2d3-0519-40a0-9f21-3d7591b2631a"},"vehicle_type_id":"4","last_reported":1722528613,"current_range_meters":24400,"station_id":"ce4bhb12rcd13ifvqem0","pricing_plan_id":"cebpf4jnsgd1na2vs0mg"},{"bike_id":"12fd5c02-cfde-4437-98d4-e8a10ac88200","system_id":"levelo_inurba_marseille","lat":43.28856,"lon":5.358371,"is_reserved":false,"is_disabled":false,"rental_uris":{"android":"levelo://app?vid=12fd5c02-cfde-4437-98d4-e8a10ac88200","ios":"levelo://app?vid=12fd5c02-cfde-4437-98d4-e8a10ac88200"},"vehicle_type_id":"4","last_reported":1722528613,"current_range_meters":5600,"station_id":"ce4bhb12rcd13ifvqem0","pricing_plan_id":"cebpf4jnsgd1na2vs0mg"},{"bike_id":"507e04f0-bba3-4c21-803e-f46ef69dc5bc","system_id":"levelo_inurba_marseille","lat":43.28856,"lon":5.358371,"is_reserved":false,"is_disabled":false,"rental_uris":{"android":"levelo://app?vid=507e04f0-bba3-4c21-803e-f46ef69dc5bc","ios":"levelo://app?vid=507e04f0-bba3-4c21-803e-f46ef69dc5bc"},"vehicle_type_id":"4","last_reported":1722528613,"current_range_meters":6000,"station_id":"ce4bhb12rcd13ifvqem0","pricing_plan_id":"cebpf4jnsgd1na2vs0mg"},{"bike_id":"78783eea-b7ff-4729-9fbb-c64f80e5d4ed","system_id":"levelo_inurba_marseille","lat":43.28856,"lon":5.358371,"is_reserved":false,"is_disabled":false,"rental_uris":{"android":"levelo://app?vid=78783eea-b7ff-4729-9fbb-c64f80e5d4ed","ios":"levelo://app?vid=78783eea-b7ff-4729-9fbb-c64f80e5d4ed"},"vehicle_type_id":"4","last_reported":1722528613,"current_range_meters":22400,"station_id":"ce4bhb12rcd13ifvqem0","pricing_plan_id":"cebpf4jnsgd1na2vs0mg"},{"bike_id":"9a4bb96f-c866-4b0f-808e-97490c132010","system_id":"levelo_inurba_marseille","lat":43.28856,"lon":5.358371,"is_reserved":false,"is_disabled":false,"rental_uris":{"android":"levelo://app?vid=9a4bb96f-c866-4b0f-808e-97490c132010","ios":"levelo://app?vid=9a4bb96f-c866-4b0f-808e-97490c132010"},"vehicle_type_id":"4","last_reported":1722528613,"current_range_meters":4000,"station_id":"ce4bhb12rcd13ifvqem0","pricing_plan_id":"cebpf4jnsgd1na2vs0mg"},{"bike_id":"d6039223-e551-4f11-967e-0745f165f373","system_id":"levelo_inurba_marseille","lat":43.28856,"lon":5.358371,"is_reserved":false,"is_disabled":false,"rental_uris":{"android":"levelo://app?vid=d6039223-e551-4f11-967e-0745f165f373","ios":"levelo://app?vid=d6039223-e551-4f11-967e-0745f165f373"},"vehicle_type_id":"4","last_reported":1722528613,"current_range_meters":26400,"station_id":"ce4bhb12rcd13ifvqem0","pricing_plan_id":"cebpf4jnsgd1na2vs0mg"},{"bike_id":"27217dab-9c6d-41c8-aff7-e1a656250135","system_id":"levelo_inurba_marseille","lat":43.28856,"lon":5.358371,"is_reserved":false,"is_disabled":false,"rental_uris":{"android":"levelo://app?vid=27217dab-9c6d-41c8-aff7-e1a656250135","ios":"levelo://app?vid=27217dab-9c6d-41c8-aff7-e1a656250135"},"vehicle_type_id":"4","last_reported":1722528613,"current_range_meters":20800,"station_id":"ce4bhb12rcd13ifvqem0","pricing_plan_id":"cebpf4jnsgd1na2vs0mg"},{"bike_id":"532b092c-68bb-42ab-a8fe-b104536e8664","system_id":"levelo_inurba_marseille","lat":43.28856,"lon":5.358371,"is_reserved":false,"is_disabled":false,"rental_uris":{"android":"levelo://app?vid=532b092c-68bb-42ab-a8fe-b104536e8664","ios":"levelo://app?vid=532b092c-68bb-42ab-a8fe-b104536e8664"},"vehicle_type_id":"4","last_reported":1722528613,"current_range_meters":25600,"station_id":"ce4bhb12rcd13ifvqem0","pricing_plan_id":"cebpf4jnsgd1na2vs0mg"},{"bike_id":"e879102e-88bf-4f6c-997b-280a15dbfe60","system_id":"levelo_inurba_marseille","lat":43.31059,"lon":5.40131,"is_reserved":false,"is_disabled":false,"rental_uris":{"android":"levelo://app?vid=e879102e-88bf-4f6c-997b-280a15dbfe60","ios":"levelo://app?vid=e879102e-88bf-4f6c-997b-280a15dbfe60"},"vehicle_type_id":"4","last_reported":1722528613,"current_range_meters":27200,"station_id":"","pricing_plan_id":"cebpf4jnsgd1na2vs0mg"},{"bike_id":"34ccb782-46d2-4fca-bce5-eeb5dd79c710","system_id":"levelo_inurba_marseille","lat":43.312609,"lon":5.401662,"is_reserved":false,"is_disabled":false,"rental_uris":{"android":"levelo://app?vid=34ccb782-46d2-4fca-bce5-eeb5dd79c710","ios":"levelo://app?vid=34ccb782-46d2-4fca-bce5-eeb5dd79c710"},"vehicle_type_id":"4","last_reported":1722528613,"current_range_meters":2400,"station_id":"ce4bh092rcd13ifvqd30","pricing_plan_id":"cebpf4jnsgd1na2vs0mg"},{"bike_id":"6f044633-3688-4e83-af67-cf3db97c1cc7","system_id":"levelo_inurba_marseille","lat":43.337444,"lon":5.374475,"is_reserved":false,"is_disabled":false,"rental_uris":{"android":"levelo://app?vid=6f044633-3688-4e83-af67-cf3db97c1cc7","ios":"levelo://app?vid=6f044633-3688-4e83-af67-cf3db97c1cc7"},"vehicle_type_id":"3","last_reported":1722528613,"current_range_meters":24800,"station_id":"","pricing_plan_id":"cebpf4jnsgd1na2vs0mg"},{"bike_id":"eb08c884-1146-40fd-a9cb-e8498f7cd7be","system_id":"levelo_inurba_marseille","lat":43.337541,"lon":5.374495,"is_reserved":false,"is_disabled":false,"rental_uris":{"android":"levelo://app?vid=eb08c884-1146-40fd-a9cb-e8498f7cd7be","ios":"levelo://app?vid=eb08c884-1146-40fd-a9cb-e8498f7cd7be"},"vehicle_type_id":"4","last_reported":1722528613,"current_range_meters":25200,"station_id":"","pricing_plan_id":"cebpf4jnsgd1na2vs0mg"},{"bike_id":"96f699a1-152d-4d70-8cd4-93a651c37047","system_id":"levelo_inurba_marseille","lat":43.337563,"lon":5.374574,"is_reserved":false,"is_disabled":false,"rental_uris":{"android":"levelo://app?vid=96f699a1-152d-4d70-8cd4-93a651c37047","ios":"levelo://app?vid=96f699a1-152d-4d70-8cd4-93a651c37047"},"vehicle_type_id":"4","last_reported":1722528613,"current_range_meters":2000,"station_id":"","pricing_plan_id":"cebpf4jnsgd1na2vs0mg"},{"bike_id":"9b5bf927-a769-4abd-b94d-dbac715f6072","system_id":"levelo_inurba_marseille","lat":43.33763,"lon":5.37445,"is_reserved":false,"is_disabled":false,"rental_uris":{"android":"levelo://app?vid=9b5bf927-a769-4abd-b94d-dbac715f6072","ios":"levelo://app?vid=9b5bf927-a769-4abd-b94d-dbac715f6072"},"vehicle_type_id":"4","last_reported":1722528613,"current_range_meters":23600,"station_id":"","pricing_plan_id":"cebpf4jnsgd1na2vs0mg"},{"bike_id":"67cf95b1-257d-4861-a9a1-eeac7cfb40c4","system_id":"levelo_inurba_marseille","lat":43.30642,"lon":5.401031,"is_reserved":false,"is_disabled":false,"rental_uris":{"android":"levelo://app?vid=67cf95b1-257d-4861-a9a1-eeac7cfb40c4","ios":"levelo://app?vid=67cf95b1-257d-4861-a9a1-eeac7cfb40c4"},"vehicle_type_id":"4","last_reported":1722528613,"current_range_meters":0,"station_id":"ce4bh112rcd13ifvqda0","pricing_plan_id":"cebpf4jnsgd1na2vs0mg"},{"bike_id":"680ae34c-6be9-4cc8-981f-ffbefb54031a","system_id":"levelo_inurba_marseille","lat":43.30642,"lon":5.401031,"is_reserved":false,"is_disabled":false,"rental_uris":{"android":"levelo://app?vid=680ae34c-6be9-4cc8-981f-ffbefb54031a","ios":"levelo://app?vid=680ae34c-6be9-4cc8-981f-ffbefb54031a"},"vehicle_type_id":"4","last_reported":1722528613,"current_range_meters":21200,"station_id":"ce4bh112rcd13ifvqda0","pricing_plan_id":"cebpf4jnsgd1na2vs0mg"},{"bike_id":"7eaad5e1-d2f0-4578-9c03-0b6629bc56f8","system_id":"levelo_inurba_marseille","lat":43.30952,"lon":5.40195,"is_reserved":false,"is_disabled":false,"rental_uris":{"android":"levelo://app?vid=7eaad5e1-d2f0-4578-9c03-0b6629bc56f8","ios":"levelo://app?vid=7eaad5e1-d2f0-4578-9c03-0b6629bc56f8"},"vehicle_type_id":"4","last_reported":1722528613,"current_range_meters":1600,"station_id":"ce4bgvp2rcd13ifvqct0","pricing_plan_id":"cebpf4jnsgd1na2vs0mg"},{"bike_id":"a4ff4e35-d6d9-4855-82ba-f16a7daf4176","system_id":"levelo_inurba_marseille","lat":43.30137,"lon":5.39864,"is_reserved":false,"is_disabled":false,"rental_uris":{"android":"levelo://app?vid=a4ff4e35-d6d9-4855-82ba-f16a7daf4176","ios":"levelo://app?vid=a4ff4e35-d6d9-4855-82ba-f16a7daf4176"},"vehicle_type_id":"4","last_reported":1722528613,"current_range_meters":0,"station_id":"ce4bh0h2rcd13ifvqd40","pricing_plan_id":"cebpf4jnsgd1na2vs0mg"},{"bike_id":"594a0a95-eab3-4eaa-9dba-0b68fcd18b4e","system_id":"levelo_inurba_marseille","lat":43.30138,"lon":5.39868,"is_reserved":false,"is_disabled":false,"rental_uris":{"android":"levelo://app?vid=594a0a95-eab3-4eaa-9dba-0b68fcd18b4e","ios":"levelo://app?vid=594a0a95-eab3-4eaa-9dba-0b68fcd18b4e"},"vehicle_type_id":"4","last_reported":1722528613,"current_range_meters":0,"station_id":"ce4bh0h2rcd13ifvqd40","pricing_plan_id":"cebpf4jnsgd1na2vs0mg"},{"bike_id":"241a70e1-6a4c-419e-9c6c-70e99a8508af","system_id":"levelo_inurba_marseille","lat":43.28727,"lon":5.36078,"is_reserved":false,"is_disabled":false,"rental_uris":{"android":"levelo://app?vid=241a70e1-6a4c-419e-9c6c-70e99a8508af","ios":"levelo://app?vid=241a70e1-6a4c-419e-9c6c-70e99a8508af"},"vehicle_type_id":"4","last_reported":1722528613,"current_range_meters":16000,"station_id":"cki0cbj6b192h4jlfktg","pricing_plan_id":"cebpf4jnsgd1na2vs0mg"},{"bike_id":"0e87f4c3-2284-4e97-8450-e755e47527fe","system_id":"levelo_inurba_marseille","lat":43.30123,"lon":5.39878,"is_reserved":false,"is_disabled":false,"rental_uris":{"android":"levelo://app?vid=0e87f4c3-2284-4e97-8450-e755e47527fe","ios":"levelo://app?vid=0e87f4c3-2284-4e97-8450-e755e47527fe"},"vehicle_type_id":"4","last_reported":1722528613,"current_range_meters":10800,"station_id":"ce4bh0h2rcd13ifvqd40","pricing_plan_id":"cebpf4jnsgd1na2vs0mg"},{"bike_id":"3502425d-7e0c-4d9f-9753-0f7ccebd67a2","system_id":"levelo_inurba_marseille","lat":43.28727,"lon":5.36078,"is_reserved":false,"is_disabled":false,"rental_uris":{"android":"levelo://app?vid=3502425d-7e0c-4d9f-9753-0f7ccebd67a2","ios":"levelo://app?vid=3502425d-7e0c-4d9f-9753-0f7ccebd67a2"},"vehicle_type_id":"4","last_reported":1722528613,"current_range_meters":14800,"station_id":"cki0cbj6b192h4jlfktg","pricing_plan_id":"cebpf4jnsgd1na2vs0mg"},{"bike_id":"2944d4ab-0ef6-486e-838f-b86a721b6362","system_id":"levelo_inurba_marseille","lat":43.286961,"lon":5.373785,"is_reserved":false,"is_disabled":false,"rental_uris":{"android":"levelo://app?vid=2944d4ab-0ef6-486e-838f-b86a721b6362","ios":"levelo://app?vid=2944d4ab-0ef6-486e-838f-b86a721b6362"},"vehicle_type_id":"4","last_reported":1722528613,"current_range_meters":28800,"station_id":"ce4bh3p2rcd13ifvqdq0","pricing_plan_id":"cebpf4jnsgd1na2vs0mg"},{"bike_id":"03e34bd9-5a35-4561-b265-5a2db995fe7a","system_id":"levelo_inurba_marseille","lat":43.286961,"lon":5.373785,"is_reserved":false,"is_disabled":false,"rental_uris":{"android":"levelo://app?vid=03e34bd9-5a35-4561-b265-5a2db995fe7a","ios":"levelo://app?vid=03e34bd9-5a35-4561-b265-5a2db995fe7a"},"vehicle_type_id":"4","last_reported":1722528613,"current_range_meters":6000,"station_id":"ce4bh3p2rcd13ifvqdq0","pricing_plan_id":"cebpf4jnsgd1na2vs0mg"},{"bike_id":"3ea0a744-b7b6-4647-b770-9e6a1dbdfd27","system_id":"levelo_inurba_marseille","lat":43.286591,"lon":5.363346,"is_reserved":false,"is_disabled":false,"rental_uris":{"android":"levelo://app?vid=3ea0a744-b7b6-4647-b770-9e6a1dbdfd27","ios":"levelo://app?vid=3ea0a744-b7b6-4647-b770-9e6a1dbdfd27"},"vehicle_type_id":"4","last_reported":1722528613,"current_range_meters":8000,"station_id":"ce4bhah2rcd13ifvqej0","pricing_plan_id":"cebpf4jnsgd1na2vs0mg"},{"bike_id":"37687ff1-92fc-46ab-b513-c7f5e24788ef","system_id":"levelo_inurba_marseille","lat":43.286961,"lon":5.373785,"is_reserved":false,"is_disabled":false,"rental_uris":{"android":"levelo://app?vid=37687ff1-92fc-46ab-b513-c7f5e24788ef","ios":"levelo://app?vid=37687ff1-92fc-46ab-b513-c7f5e24788ef"},"vehicle_type_id":"4","last_reported":1722528613,"current_range_meters":8000,"station_id":"ce4bh3p2rcd13ifvqdq0","pricing_plan_id":"cebpf4jnsgd1na2vs0mg"},{"bike_id":"262e6c1c-e04f-46f9-90fb-896b67a242db","system_id":"levelo_inurba_marseille","lat":43.28663,"lon":5.36345,"is_reserved":false,"is_disabled":false,"rental_uris":{"android":"levelo://app?vid=262e6c1c-e04f-46f9-90fb-896b67a242db","ios":"levelo://app?vid=262e6c1c-e04f-46f9-90fb-896b67a242db"},"vehicle_type_id":"4","last_reported":1722528613,"current_range_meters":3200,"station_id":"ce4bhah2rcd13ifvqej0","pricing_plan_id":"cebpf4jnsgd1na2vs0mg"},{"bike_id":"849f3643-56c6-46b0-a652-9916f04a591c","system_id":"levelo_inurba_marseille","lat":43.286593,"lon":5.363346,"is_reserved":false,"is_disabled":false,"rental_uris":{"android":"levelo://app?vid=849f3643-56c6-46b0-a652-9916f04a591c","ios":"levelo://app?vid=849f3643-56c6-46b0-a652-9916f04a591c"},"vehicle_type_id":"4","last_reported":1722528613,"current_range_meters":23600,"station_id":"ce4bhah2rcd13ifvqej0","pricing_plan_id":"cebpf4jnsgd1na2vs0mg"},{"bike_id":"7f53046f-a2a3-45e0-8ac2-1dbe0509fb27","system_id":"levelo_inurba_marseille","lat":43.286593,"lon":5.363346,"is_reserved":false,"is_disabled":false,"rental_uris":{"android":"levelo://app?vid=7f53046f-a2a3-45e0-8ac2-1dbe0509fb27","ios":"levelo://app?vid=7f53046f-a2a3-45e0-8ac2-1dbe0509fb27"},"vehicle_type_id":"4","last_reported":1722528613,"current_range_meters":2400,"station_id":"ce4bhah2rcd13ifvqej0","pricing_plan_id":"cebpf4jnsgd1na2vs0mg"},{"bike_id":"c8370a12-3698-46a7-ba81-dd07a207e30f","system_id":"levelo_inurba_marseille","lat":43.286593,"lon":5.363346,"is_reserved":false,"is_disabled":false,"rental_uris":{"android":"levelo://app?vid=c8370a12-3698-46a7-ba81-dd07a207e30f","ios":"levelo://app?vid=c8370a12-3698-46a7-ba81-dd07a207e30f"},"vehicle_type_id":"4","last_reported":1722528613,"current_range_meters":18000,"station_id":"ce4bhah2rcd13ifvqej0","pricing_plan_id":"cebpf4jnsgd1na2vs0mg"},{"bike_id":"fe236b3c-46f9-45d4-befc-f5d8581ad5da","system_id":"levelo_inurba_marseille","lat":43.286593,"lon":5.363346,"is_reserved":false,"is_disabled":false,"rental_uris":{"android":"levelo://app?vid=fe236b3c-46f9-45d4-befc-f5d8581ad5da","ios":"levelo://app?vid=fe236b3c-46f9-45d4-befc-f5d8581ad5da"},"vehicle_type_id":"4","last_reported":1722528613,"current_range_meters":17600,"station_id":"ce4bhah2rcd13ifvqej0","pricing_plan_id":"cebpf4jnsgd1na2vs0mg"},{"bike_id":"7d64da25-bddf-4139-b893-f1ff0de6dedc","system_id":"levelo_inurba_marseille","lat":43.286593,"lon":5.363346,"is_reserved":false,"is_disabled":false,"rental_uris":{"android":"levelo://app?vid=7d64da25-bddf-4139-b893-f1ff0de6dedc","ios":"levelo://app?vid=7d64da25-bddf-4139-b893-f1ff0de6dedc"},"vehicle_type_id":"4","last_reported":1722528613,"current_range_meters":26000,"station_id":"ce4bhah2rcd13ifvqej0","pricing_plan_id":"cebpf4jnsgd1na2vs0mg"},{"bike_id":"1a91a567-c0ab-4516-b639-88192e360457","system_id":"levelo_inurba_marseille","lat":43.289307,"lon":5.38406,"is_reserved":false,"is_disabled":false,"rental_uris":{"android":"levelo://app?vid=1a91a567-c0ab-4516-b639-88192e360457","ios":"levelo://app?vid=1a91a567-c0ab-4516-b639-88192e360457"},"vehicle_type_id":"4","last_reported":1722528613,"current_range_meters":31200,"station_id":"ce4bh612rcd13ifvqe6g","pricing_plan_id":"cebpf4jnsgd1na2vs0mg"},{"bike_id":"27ebd1ac-bcb7-48a8-a0f8-ece6d46d0830","system_id":"levelo_inurba_marseille","lat":43.29024,"lon":5.38631,"is_reserved":false,"is_disabled":false,"rental_uris":{"android":"levelo://app?vid=27ebd1ac-bcb7-48a8-a0f8-ece6d46d0830","ios":"levelo://app?vid=27ebd1ac-bcb7-48a8-a0f8-ece6d46d0830"},"vehicle_type_id":"4","last_reported":1722528613,"current_range_meters":0,"station_id":"ce4bh4p2rcd13ifvqe0g","pricing_plan_id":"cebpf4jnsgd1na2vs0mg"},{"bike_id":"a0ff8f18-95b4-44c0-9dca-af9cfbf110c2","system_id":"levelo_inurba_marseille","lat":43.29029,"lon":5.38647,"is_reserved":false,"is_disabled":false,"rental_uris":{"android":"levelo://app?vid=a0ff8f18-95b4-44c0-9dca-af9cfbf110c2","ios":"levelo://app?vid=a0ff8f18-95b4-44c0-9dca-af9cfbf110c2"},"vehicle_type_id":"4","last_reported":1722528613,"current_range_meters":0,"station_id":"ce4bh4p2rcd13ifvqe0g","pricing_plan_id":"cebpf4jnsgd1na2vs0mg"},{"bike_id":"a14faf84-cfb3-493d-aec9-390bc93ab1b7","system_id":"levelo_inurba_marseille","lat":43.290345,"lon":5.38646,"is_reserved":false,"is_disabled":false,"rental_uris":{"android":"levelo://app?vid=a14faf84-cfb3-493d-aec9-390bc93ab1b7","ios":"levelo://app?vid=a14faf84-cfb3-493d-aec9-390bc93ab1b7"},"vehicle_type_id":"4","last_reported":1722528613,"current_range_meters":12400,"station_id":"ce4bh4p2rcd13ifvqe0g","pricing_plan_id":"cebpf4jnsgd1na2vs0mg"},{"bike_id":"f92c9a14-8376-4aa1-80e7-603c92039375","system_id":"levelo_inurba_marseille","lat":43.302759,"lon":5.400793,"is_reserved":false,"is_disabled":false,"rental_uris":{"android":"levelo://app?vid=f92c9a14-8376-4aa1-80e7-603c92039375","ios":"levelo://app?vid=f92c9a14-8376-4aa1-80e7-603c92039375"},"vehicle_type_id":"4","last_reported":1722528613,"current_range_meters":0,"station_id":"ce4bgvh2rcd13ifvqcs0","pricing_plan_id":"cebpf4jnsgd1na2vs0mg"},{"bike_id":"39049198-111e-45c5-9879-f7690c27cbe5","system_id":"levelo_inurba_marseille","lat":43.302759,"lon":5.400793,"is_reserved":false,"is_disabled":false,"rental_uris":{"android":"levelo://app?vid=39049198-111e-45c5-9879-f7690c27cbe5","ios":"levelo://app?vid=39049198-111e-45c5-9879-f7690c27cbe5"},"vehicle_type_id":"4","last_reported":1722528613,"current_range_meters":0,"station_id":"ce4bgvh2rcd13ifvqcs0","pricing_plan_id":"cebpf4jnsgd1na2vs0mg"},{"bike_id":"a9ef2573-344d-4068-a287-c3e212d27f96","system_id":"levelo_inurba_marseille","lat":43.287184,"lon":5.37937,"is_reserved":false,"is_disabled":false,"rental_uris":{"android":"levelo://app?vid=a9ef2573-344d-4068-a287-c3e212d27f96","ios":"levelo://app?vid=a9ef2573-344d-4068-a287-c3e212d27f96"},"vehicle_type_id":"4","last_reported":1722528613,"current_range_meters":1600,"station_id":"ce4bh9p2rcd13ifvqec0","pricing_plan_id":"cebpf4jnsgd1na2vs0mg"},{"bike_id":"a1d2c56d-4074-401a-aa2f-60795552aeb1","system_id":"levelo_inurba_marseille","lat":43.316828,"lon":5.404723,"is_reserved":false,"is_disabled":false,"rental_uris":{"android":"levelo://app?vid=a1d2c56d-4074-401a-aa2f-60795552aeb1","ios":"levelo://app?vid=a1d2c56d-4074-401a-aa2f-60795552aeb1"},"vehicle_type_id":"4","last_reported":1722528613,"current_range_meters":18000,"station_id":"ce4bh012rcd13ifvqd00","pricing_plan_id":"cebpf4jnsgd1na2vs0mg"},{"bike_id":"41cb3bfd-bbab-4e00-bc46-44be3bd4009d","system_id":"levelo_inurba_marseille","lat":43.291994,"lon":5.392907,"is_reserved":false,"is_disabled":false,"rental_uris":{"android":"levelo://app?vid=41cb3bfd-bbab-4e00-bc46-44be3bd4009d","ios":"levelo://app?vid=41cb3bfd-bbab-4e00-bc46-44be3bd4009d"},"vehicle_type_id":"4","last_reported":1722528613,"current_range_meters":23200,"station_id":"ce4bh192rcd13ifvqdd0","pricing_plan_id":"cebpf4jnsgd1na2vs0mg"},{"bike_id":"51a91165-969b-44f2-a089-540efb00798f","system_id":"levelo_inurba_marseille","lat":43.291994,"lon":5.392907,"is_reserved":false,"is_disabled":false,"rental_uris":{"android":"levelo://app?vid=51a91165-969b-44f2-a089-540efb00798f","ios":"levelo://app?vid=51a91165-969b-44f2-a089-540efb00798f"},"vehicle_type_id":"4","last_reported":1722528613,"current_range_meters":0,"station_id":"ce4bh192rcd13ifvqdd0","pricing_plan_id":"cebpf4jnsgd1na2vs0mg"},{"bike_id":"e97bf643-3ea8-4ec0-a93e-294c80207fb5","system_id":"levelo_inurba_marseille","lat":43.291994,"lon":5.392907,"is_reserved":false,"is_disabled":false,"rental_uris":{"android":"levelo://app?vid=e97bf643-3ea8-4ec0-a93e-294c80207fb5","ios":"levelo://app?vid=e97bf643-3ea8-4ec0-a93e-294c80207fb5"},"vehicle_type_id":"4","last_reported":1722528613,"current_range_meters":23600,"station_id":"ce4bh192rcd13ifvqdd0","pricing_plan_id":"cebpf4jnsgd1na2vs0mg"},{"bike_id":"389799be-bccf-44a4-ab4d-a2d60cfb68c7","system_id":"levelo_inurba_marseille","lat":43.284538,"lon":5.358657,"is_reserved":false,"is_disabled":false,"rental_uris":{"android":"levelo://app?vid=389799be-bccf-44a4-ab4d-a2d60cfb68c7","ios":"levelo://app?vid=389799be-bccf-44a4-ab4d-a2d60cfb68c7"},"vehicle_type_id":"4","last_reported":1722528613,"current_range_meters":3600,"station_id":"ce4bhah2rcd13ifvqei0","pricing_plan_id":"cebpf4jnsgd1na2vs0mg"},{"bike_id":"39b5150c-f595-4b74-b815-6fa24ecadbf3","system_id":"levelo_inurba_marseille","lat":43.28464,"lon":5.35876,"is_reserved":false,"is_disabled":false,"rental_uris":{"android":"levelo://app?vid=39b5150c-f595-4b74-b815-6fa24ecadbf3","ios":"levelo://app?vid=39b5150c-f595-4b74-b815-6fa24ecadbf3"},"vehicle_type_id":"4","last_reported":1722528613,"current_range_meters":1600,"station_id":"ce4bhah2rcd13ifvqei0","pricing_plan_id":"cebpf4jnsgd1na2vs0mg"},{"bike_id":"e0f1eb82-0685-4664-9763-ce7544cd062a","system_id":"levelo_inurba_marseille","lat":43.284534,"lon":5.358662,"is_reserved":false,"is_disabled":false,"rental_uris":{"android":"levelo://app?vid=e0f1eb82-0685-4664-9763-ce7544cd062a","ios":"levelo://app?vid=e0f1eb82-0685-4664-9763-ce7544cd062a"},"vehicle_type_id":"4","last_reported":1722528613,"current_range_meters":4800,"station_id":"ce4bhah2rcd13ifvqei0","pricing_plan_id":"cebpf4jnsgd1na2vs0mg"},{"bike_id":"4741d5f3-d1fd-46c2-a820-9cabe21ef7d0","system_id":"levelo_inurba_marseille","lat":43.284538,"lon":5.358657,"is_reserved":false,"is_disabled":false,"rental_uris":{"android":"levelo://app?vid=4741d5f3-d1fd-46c2-a820-9cabe21ef7d0","ios":"levelo://app?vid=4741d5f3-d1fd-46c2-a820-9cabe21ef7d0"},"vehicle_type_id":"4","last_reported":1722528613,"current_range_meters":18800,"station_id":"ce4bhah2rcd13ifvqei0","pricing_plan_id":"cebpf4jnsgd1na2vs0mg"},{"bike_id":"9e9a3423-889f-4235-a72b-eba007f6b9d4","system_id":"levelo_inurba_marseille","lat":43.284534,"lon":5.358662,"is_reserved":false,"is_disabled":false,"rental_uris":{"android":"levelo://app?vid=9e9a3423-889f-4235-a72b-eba007f6b9d4","ios":"levelo://app?vid=9e9a3423-889f-4235-a72b-eba007f6b9d4"},"vehicle_type_id":"4","last_reported":1722528613,"current_range_meters":20000,"station_id":"ce4bhah2rcd13ifvqei0","pricing_plan_id":"cebpf4jnsgd1na2vs0mg"},{"bike_id":"0e265fee-4d1d-4c6d-ba43-8d5f75fc2a83","system_id":"levelo_inurba_marseille","lat":43.284534,"lon":5.358662,"is_reserved":false,"is_disabled":false,"rental_uris":{"android":"levelo://app?vid=0e265fee-4d1d-4c6d-ba43-8d5f75fc2a83","ios":"levelo://app?vid=0e265fee-4d1d-4c6d-ba43-8d5f75fc2a83"},"vehicle_type_id":"4","last_reported":1722528613,"current_range_meters":14800,"station_id":"ce4bhah2rcd13ifvqei0","pricing_plan_id":"cebpf4jnsgd1na2vs0mg"},{"bike_id":"e0ac0c0c-07a2-46e0-b987-fd6eb5f0eb6a","system_id":"levelo_inurba_marseille","lat":43.284534,"lon":5.358662,"is_reserved":false,"is_disabled":false,"rental_uris":{"android":"levelo://app?vid=e0ac0c0c-07a2-46e0-b987-fd6eb5f0eb6a","ios":"levelo://app?vid=e0ac0c0c-07a2-46e0-b987-fd6eb5f0eb6a"},"vehicle_type_id":"4","last_reported":1722528613,"current_range_meters":0,"station_id":"ce4bhah2rcd13ifvqei0","pricing_plan_id":"cebpf4jnsgd1na2vs0mg"},{"bike_id":"9816afbc-70a3-4a48-84ef-60e4849563a4","system_id":"levelo_inurba_marseille","lat":43.28617,"lon":5.35107,"is_reserved":false,"is_disabled":false,"rental_uris":{"android":"levelo://app?vid=9816afbc-70a3-4a48-84ef-60e4849563a4","ios":"levelo://app?vid=9816afbc-70a3-4a48-84ef-60e4849563a4"},"vehicle_type_id":"4","last_reported":1722528613,"current_range_meters":0,"station_id":"ce4bhch2rcd13ifvqeug","pricing_plan_id":"cebpf4jnsgd1na2vs0mg"},{"bike_id":"bbc7c539-96f7-4aed-b34b-0d99f4dc3258","system_id":"levelo_inurba_marseille","lat":43.28616,"lon":5.3511,"is_reserved":false,"is_disabled":false,"rental_uris":{"android":"levelo://app?vid=bbc7c539-96f7-4aed-b34b-0d99f4dc3258","ios":"levelo://app?vid=bbc7c539-96f7-4aed-b34b-0d99f4dc3258"},"vehicle_type_id":"4","last_reported":1722528613,"current_range_meters":0,"station_id":"ce4bhch2rcd13ifvqeug","pricing_plan_id":"cebpf4jnsgd1na2vs0mg"},{"bike_id":"2854681d-8586-4da5-93d7-221f01b786d0","system_id":"levelo_inurba_marseille","lat":43.28617,"lon":5.35106,"is_reserved":false,"is_disabled":false,"rental_uris":{"android":"levelo://app?vid=2854681d-8586-4da5-93d7-221f01b786d0","ios":"levelo://app?vid=2854681d-8586-4da5-93d7-221f01b786d0"},"vehicle_type_id":"4","last_reported":1722528613,"current_range_meters":800,"station_id":"ce4bhch2rcd13ifvqeug","pricing_plan_id":"cebpf4jnsgd1na2vs0mg"},{"bike_id":"86db2a92-97b3-406d-b5f3-72367a1e62df","system_id":"levelo_inurba_marseille","lat":43.28617,"lon":5.35105,"is_reserved":false,"is_disabled":false,"rental_uris":{"android":"levelo://app?vid=86db2a92-97b3-406d-b5f3-72367a1e62df","ios":"levelo://app?vid=86db2a92-97b3-406d-b5f3-72367a1e62df"},"vehicle_type_id":"4","last_reported":1722528613,"current_range_meters":20400,"station_id":"ce4bhch2rcd13ifvqeug","pricing_plan_id":"cebpf4jnsgd1na2vs0mg"},{"bike_id":"9d6808ec-9b37-4c82-a2ae-bca1d0cf76d8","system_id":"levelo_inurba_marseille","lat":43.28617,"lon":5.35105,"is_reserved":false,"is_disabled":false,"rental_uris":{"android":"levelo://app?vid=9d6808ec-9b37-4c82-a2ae-bca1d0cf76d8","ios":"levelo://app?vid=9d6808ec-9b37-4c82-a2ae-bca1d0cf76d8"},"vehicle_type_id":"4","last_reported":1722528613,"current_range_meters":13200,"station_id":"ce4bhch2rcd13ifvqeug","pricing_plan_id":"cebpf4jnsgd1na2vs0mg"},{"bike_id":"e665d964-f071-4b3e-a14e-e03c03644b3b","system_id":"levelo_inurba_marseille","lat":43.28617,"lon":5.35104,"is_reserved":false,"is_disabled":false,"rental_uris":{"android":"levelo://app?vid=e665d964-f071-4b3e-a14e-e03c03644b3b","ios":"levelo://app?vid=e665d964-f071-4b3e-a14e-e03c03644b3b"},"vehicle_type_id":"4","last_reported":1722528613,"current_range_meters":7200,"station_id":"ce4bhch2rcd13ifvqeug","pricing_plan_id":"cebpf4jnsgd1na2vs0mg"},{"bike_id":"1ce4a145-7615-49ca-b55a-e812c6d36144","system_id":"levelo_inurba_marseille","lat":43.294314,"lon":5.397498,"is_reserved":false,"is_disabled":false,"rental_uris":{"android":"levelo://app?vid=1ce4a145-7615-49ca-b55a-e812c6d36144","ios":"levelo://app?vid=1ce4a145-7615-49ca-b55a-e812c6d36144"},"vehicle_type_id":"4","last_reported":1722528613,"current_range_meters":3600,"station_id":"ce4bh3h2rcd13ifvqdo0","pricing_plan_id":"cebpf4jnsgd1na2vs0mg"},{"bike_id":"50cac838-20e8-4524-8ad8-2ad681a51125","system_id":"levelo_inurba_marseille","lat":43.285856,"lon":5.350771,"is_reserved":false,"is_disabled":false,"rental_uris":{"android":"levelo://app?vid=50cac838-20e8-4524-8ad8-2ad681a51125","ios":"levelo://app?vid=50cac838-20e8-4524-8ad8-2ad681a51125"},"vehicle_type_id":"4","last_reported":1722528613,"current_range_meters":6000,"station_id":"ce4bhch2rcd13ifvqeug","pricing_plan_id":"cebpf4jnsgd1na2vs0mg"},{"bike_id":"95512cdc-34ef-4355-ba87-4d0a6437a3a6","system_id":"levelo_inurba_marseille","lat":43.28615,"lon":5.35106,"is_reserved":false,"is_disabled":false,"rental_uris":{"android":"levelo://app?vid=95512cdc-34ef-4355-ba87-4d0a6437a3a6","ios":"levelo://app?vid=95512cdc-34ef-4355-ba87-4d0a6437a3a6"},"vehicle_type_id":"4","last_reported":1722528613,"current_range_meters":18800,"station_id":"ce4bhch2rcd13ifvqeug","pricing_plan_id":"cebpf4jnsgd1na2vs0mg"},{"bike_id":"209278a6-1a89-4429-91c8-98f5bf3b9b18","system_id":"levelo_inurba_marseille","lat":43.28614,"lon":5.35106,"is_reserved":false,"is_disabled":false,"rental_uris":{"android":"levelo://app?vid=209278a6-1a89-4429-91c8-98f5bf3b9b18","ios":"levelo://app?vid=209278a6-1a89-4429-91c8-98f5bf3b9b18"},"vehicle_type_id":"4","last_reported":1722528613,"current_range_meters":4800,"station_id":"ce4bhch2rcd13ifvqeug","pricing_plan_id":"cebpf4jnsgd1na2vs0mg"},{"bike_id":"07ad3019-3eb4-42d4-8f71-a6e7e06a3e26","system_id":"levelo_inurba_marseille","lat":43.28612,"lon":5.35107,"is_reserved":false,"is_disabled":false,"rental_uris":{"android":"levelo://app?vid=07ad3019-3eb4-42d4-8f71-a6e7e06a3e26","ios":"levelo://app?vid=07ad3019-3eb4-42d4-8f71-a6e7e06a3e26"},"vehicle_type_id":"4","last_reported":1722528613,"current_range_meters":4000,"station_id":"ce4bhch2rcd13ifvqeug","pricing_plan_id":"cebpf4jnsgd1na2vs0mg"},{"bike_id":"871deb38-1b7c-4b7c-a546-190d97e2485a","system_id":"levelo_inurba_marseille","lat":43.28612,"lon":5.35106,"is_reserved":false,"is_disabled":false,"rental_uris":{"android":"levelo://app?vid=871deb38-1b7c-4b7c-a546-190d97e2485a","ios":"levelo://app?vid=871deb38-1b7c-4b7c-a546-190d97e2485a"},"vehicle_type_id":"4","last_reported":1722528613,"current_range_meters":0,"station_id":"ce4bhch2rcd13ifvqeug","pricing_plan_id":"cebpf4jnsgd1na2vs0mg"},{"bike_id":"a3a4cf50-b210-4e54-abb2-96b76932e601","system_id":"levelo_inurba_marseille","lat":43.28614,"lon":5.35098,"is_reserved":false,"is_disabled":false,"rental_uris":{"android":"levelo://app?vid=a3a4cf50-b210-4e54-abb2-96b76932e601","ios":"levelo://app?vid=a3a4cf50-b210-4e54-abb2-96b76932e601"},"vehicle_type_id":"4","last_reported":1722528613,"current_range_meters":31200,"station_id":"ce4bhch2rcd13ifvqeug","pricing_plan_id":"cebpf4jnsgd1na2vs0mg"},{"bike_id":"ab956fcd-9de7-406e-b549-cb4df0bf3265","system_id":"levelo_inurba_marseille","lat":43.28614,"lon":5.35098,"is_reserved":false,"is_disabled":false,"rental_uris":{"android":"levelo://app?vid=ab956fcd-9de7-406e-b549-cb4df0bf3265","ios":"levelo://app?vid=ab956fcd-9de7-406e-b549-cb4df0bf3265"},"vehicle_type_id":"4","last_reported":1722528613,"current_range_meters":25600,"station_id":"ce4bhch2rcd13ifvqeug","pricing_plan_id":"cebpf4jnsgd1na2vs0mg"},{"bike_id":"d8936898-b759-46c4-804e-db4b93d49094","system_id":"levelo_inurba_marseille","lat":43.28612,"lon":5.35104,"is_reserved":false,"is_disabled":false,"rental_uris":{"android":"levelo://app?vid=d8936898-b759-46c4-804e-db4b93d49094","ios":"levelo://app?vid=d8936898-b759-46c4-804e-db4b93d49094"},"vehicle_type_id":"4","last_reported":1722528613,"current_range_meters":16000,"station_id":"ce4bhch2rcd13ifvqeug","pricing_plan_id":"cebpf4jnsgd1na2vs0mg"},{"bike_id":"61762571-adb4-4870-9c70-9c48f99c95fb","system_id":"levelo_inurba_marseille","lat":43.28612,"lon":5.35099,"is_reserved":false,"is_disabled":false,"rental_uris":{"android":"levelo://app?vid=61762571-adb4-4870-9c70-9c48f99c95fb","ios":"levelo://app?vid=61762571-adb4-4870-9c70-9c48f99c95fb"},"vehicle_type_id":"4","last_reported":1722528613,"current_range_meters":31200,"station_id":"ce4bhch2rcd13ifvqeug","pricing_plan_id":"cebpf4jnsgd1na2vs0mg"},{"bike_id":"05ad9fb7-ca7f-44db-bf6b-26f25732ff19","system_id":"levelo_inurba_marseille","lat":43.2861,"lon":5.35105,"is_reserved":false,"is_disabled":false,"rental_uris":{"android":"levelo://app?vid=05ad9fb7-ca7f-44db-bf6b-26f25732ff19","ios":"levelo://app?vid=05ad9fb7-ca7f-44db-bf6b-26f25732ff19"},"vehicle_type_id":"4","last_reported":1722528613,"current_range_meters":23600,"station_id":"ce4bhch2rcd13ifvqeug","pricing_plan_id":"cebpf4jnsgd1na2vs0mg"},{"bike_id":"040c5016-a9f8-44b5-a349-ea13e0cdd9a4","system_id":"levelo_inurba_marseille","lat":43.28609,"lon":5.35103,"is_reserved":false,"is_disabled":false,"rental_uris":{"android":"levelo://app?vid=040c5016-a9f8-44b5-a349-ea13e0cdd9a4","ios":"levelo://app?vid=040c5016-a9f8-44b5-a349-ea13e0cdd9a4"},"vehicle_type_id":"4","last_reported":1722528613,"current_range_meters":20400,"station_id":"ce4bhch2rcd13ifvqeug","pricing_plan_id":"cebpf4jnsgd1na2vs0mg"},{"bike_id":"09fd7836-4dd9-4f19-9d8c-88cf0b6459ff","system_id":"levelo_inurba_marseille","lat":43.28605,"lon":5.35106,"is_reserved":false,"is_disabled":false,"rental_uris":{"android":"levelo://app?vid=09fd7836-4dd9-4f19-9d8c-88cf0b6459ff","ios":"levelo://app?vid=09fd7836-4dd9-4f19-9d8c-88cf0b6459ff"},"vehicle_type_id":"4","last_reported":1722528613,"current_range_meters":25600,"station_id":"ce4bhch2rcd13ifvqeug","pricing_plan_id":"cebpf4jnsgd1na2vs0mg"},{"bike_id":"895997e7-5d92-4335-a839-dec4ce1c525c","system_id":"levelo_inurba_marseille","lat":43.28607,"lon":5.35099,"is_reserved":false,"is_disabled":false,"rental_uris":{"android":"levelo://app?vid=895997e7-5d92-4335-a839-dec4ce1c525c","ios":"levelo://app?vid=895997e7-5d92-4335-a839-dec4ce1c525c"},"vehicle_type_id":"4","last_reported":1722528613,"current_range_meters":26000,"station_id":"ce4bhch2rcd13ifvqeug","pricing_plan_id":"cebpf4jnsgd1na2vs0mg"},{"bike_id":"d962f549-5346-4486-b4c4-874ae72bb6b4","system_id":"levelo_inurba_marseille","lat":43.29567,"lon":5.39965,"is_reserved":false,"is_disabled":false,"rental_uris":{"android":"levelo://app?vid=d962f549-5346-4486-b4c4-874ae72bb6b4","ios":"levelo://app?vid=d962f549-5346-4486-b4c4-874ae72bb6b4"},"vehicle_type_id":"4","last_reported":1722528613,"current_range_meters":0,"station_id":"ce4bh312rcd13ifvqdj0","pricing_plan_id":"cebpf4jnsgd1na2vs0mg"},{"bike_id":"1c60c865-cee5-49dd-89ac-8c97d6cabc6c","system_id":"levelo_inurba_marseille","lat":43.286595,"lon":5.386795,"is_reserved":false,"is_disabled":false,"rental_uris":{"android":"levelo://app?vid=1c60c865-cee5-49dd-89ac-8c97d6cabc6c","ios":"levelo://app?vid=1c60c865-cee5-49dd-89ac-8c97d6cabc6c"},"vehicle_type_id":"4","last_reported":1722528613,"current_range_meters":1600,"station_id":"ce4bh492rcd13ifvqdug","pricing_plan_id":"cebpf4jnsgd1na2vs0mg"},{"bike_id":"ec51314a-d9a2-4d7d-8a23-731ea3a0eaad","system_id":"levelo_inurba_marseille","lat":43.319179,"lon":5.407725,"is_reserved":false,"is_disabled":false,"rental_uris":{"android":"levelo://app?vid=ec51314a-d9a2-4d7d-8a23-731ea3a0eaad","ios":"levelo://app?vid=ec51314a-d9a2-4d7d-8a23-731ea3a0eaad"},"vehicle_type_id":"4","last_reported":1722528613,"current_range_meters":10400,"station_id":"ce4bhq12rcd13ifvqhig","pricing_plan_id":"cebpf4jnsgd1na2vs0mg"},{"bike_id":"df744311-7ceb-4fc7-a693-ed947e2e16f9","system_id":"levelo_inurba_marseille","lat":43.319179,"lon":5.407725,"is_reserved":false,"is_disabled":false,"rental_uris":{"android":"levelo://app?vid=df744311-7ceb-4fc7-a693-ed947e2e16f9","ios":"levelo://app?vid=df744311-7ceb-4fc7-a693-ed947e2e16f9"},"vehicle_type_id":"4","last_reported":1722528613,"current_range_meters":12400,"station_id":"ce4bhq12rcd13ifvqhig","pricing_plan_id":"cebpf4jnsgd1na2vs0mg"},{"bike_id":"cd16ca1a-9fde-42af-b544-a50431fdae95","system_id":"levelo_inurba_marseille","lat":43.33714,"lon":5.39196,"is_reserved":false,"is_disabled":false,"rental_uris":{"android":"levelo://app?vid=cd16ca1a-9fde-42af-b544-a50431fdae95","ios":"levelo://app?vid=cd16ca1a-9fde-42af-b544-a50431fdae95"},"vehicle_type_id":"4","last_reported":1722528613,"current_range_meters":18000,"station_id":"ce4bhr92rcd13ifvqhsg","pricing_plan_id":"cebpf4jnsgd1na2vs0mg"},{"bike_id":"7b524826-3a85-4c52-a2ad-ddaa1b43c65f","system_id":"levelo_inurba_marseille","lat":43.33723,"lon":5.39183,"is_reserved":false,"is_disabled":false,"rental_uris":{"android":"levelo://app?vid=7b524826-3a85-4c52-a2ad-ddaa1b43c65f","ios":"levelo://app?vid=7b524826-3a85-4c52-a2ad-ddaa1b43c65f"},"vehicle_type_id":"4","last_reported":1722528613,"current_range_meters":2000,"station_id":"ce4bhr92rcd13ifvqhsg","pricing_plan_id":"cebpf4jnsgd1na2vs0mg"},{"bike_id":"c8d02ba8-fa9f-4dfa-a191-4ccb949d1ad3","system_id":"levelo_inurba_marseille","lat":43.33722,"lon":5.391896,"is_reserved":false,"is_disabled":false,"rental_uris":{"android":"levelo://app?vid=c8d02ba8-fa9f-4dfa-a191-4ccb949d1ad3","ios":"levelo://app?vid=c8d02ba8-fa9f-4dfa-a191-4ccb949d1ad3"},"vehicle_type_id":"4","last_reported":1722528613,"current_range_meters":26800,"station_id":"ce4bhr92rcd13ifvqhsg","pricing_plan_id":"cebpf4jnsgd1na2vs0mg"},{"bike_id":"d15ea8fd-992f-4e7b-bc42-d8f242cac250","system_id":"levelo_inurba_marseille","lat":43.288497,"lon":5.393089,"is_reserved":false,"is_disabled":false,"rental_uris":{"android":"levelo://app?vid=d15ea8fd-992f-4e7b-bc42-d8f242cac250","ios":"levelo://app?vid=d15ea8fd-992f-4e7b-bc42-d8f242cac250"},"vehicle_type_id":"4","last_reported":1722528613,"current_range_meters":0,"station_id":"ce4bh2p2rcd13ifvqdi0","pricing_plan_id":"cebpf4jnsgd1na2vs0mg"},{"bike_id":"f48df30d-e282-4cb3-8979-e577d2bb2ca4","system_id":"levelo_inurba_marseille","lat":43.33726,"lon":5.39189,"is_reserved":false,"is_disabled":false,"rental_uris":{"android":"levelo://app?vid=f48df30d-e282-4cb3-8979-e577d2bb2ca4","ios":"levelo://app?vid=f48df30d-e282-4cb3-8979-e577d2bb2ca4"},"vehicle_type_id":"4","last_reported":1722528613,"current_range_meters":21600,"station_id":"ce4bhr92rcd13ifvqhsg","pricing_plan_id":"cebpf4jnsgd1na2vs0mg"},{"bike_id":"275e002b-2107-4c97-b270-6785ce11b97a","system_id":"levelo_inurba_marseille","lat":43.284793,"lon":5.384119,"is_reserved":false,"is_disabled":false,"rental_uris":{"android":"levelo://app?vid=275e002b-2107-4c97-b270-6785ce11b97a","ios":"levelo://app?vid=275e002b-2107-4c97-b270-6785ce11b97a"},"vehicle_type_id":"4","last_reported":1722528613,"current_range_meters":6800,"station_id":"ce4bh512rcd13ifvqe3g","pricing_plan_id":"cebpf4jnsgd1na2vs0mg"},{"bike_id":"983db3a4-958b-4af7-92e6-e5ecb71135d2","system_id":"levelo_inurba_marseille","lat":43.288497,"lon":5.393089,"is_reserved":false,"is_disabled":false,"rental_uris":{"android":"levelo://app?vid=983db3a4-958b-4af7-92e6-e5ecb71135d2","ios":"levelo://app?vid=983db3a4-958b-4af7-92e6-e5ecb71135d2"},"vehicle_type_id":"4","last_reported":1722528613,"current_range_meters":1200,"station_id":"ce4bh2p2rcd13ifvqdi0","pricing_plan_id":"cebpf4jnsgd1na2vs0mg"},{"bike_id":"c1d463ba-62dd-42ff-a363-0dabebc80f7e","system_id":"levelo_inurba_marseille","lat":43.29795,"lon":5.404086,"is_reserved":false,"is_disabled":false,"rental_uris":{"android":"levelo://app?vid=c1d463ba-62dd-42ff-a363-0dabebc80f7e","ios":"levelo://app?vid=c1d463ba-62dd-42ff-a363-0dabebc80f7e"},"vehicle_type_id":"4","last_reported":1722528613,"current_range_meters":24000,"station_id":"ce4bh112rcd13ifvqd90","pricing_plan_id":"cebpf4jnsgd1na2vs0mg"},{"bike_id":"89e6f781-a5f9-477b-abd7-48cc7c56eb72","system_id":"levelo_inurba_marseille","lat":43.288501,"lon":5.393087,"is_reserved":false,"is_disabled":false,"rental_uris":{"android":"levelo://app?vid=89e6f781-a5f9-477b-abd7-48cc7c56eb72","ios":"levelo://app?vid=89e6f781-a5f9-477b-abd7-48cc7c56eb72"},"vehicle_type_id":"4","last_reported":1722528613,"current_range_meters":23600,"station_id":"ce4bh2p2rcd13ifvqdi0","pricing_plan_id":"cebpf4jnsgd1na2vs0mg"},{"bike_id":"c1c4ef26-e48e-4511-96f2-85df0d42bccd","system_id":"levelo_inurba_marseille","lat":43.290104,"lon":5.356111,"is_reserved":false,"is_disabled":false,"rental_uris":{"android":"levelo://app?vid=c1c4ef26-e48e-4511-96f2-85df0d42bccd","ios":"levelo://app?vid=c1c4ef26-e48e-4511-96f2-85df0d42bccd"},"vehicle_type_id":"4","last_reported":1722528613,"current_range_meters":19600,"station_id":"ce4bhb92rcd13ifvqen0","pricing_plan_id":"cebpf4jnsgd1na2vs0mg"},{"bike_id":"83fd4df0-989a-4564-8c7d-360b351084d9","system_id":"levelo_inurba_marseille","lat":43.284793,"lon":5.384119,"is_reserved":false,"is_disabled":false,"rental_uris":{"android":"levelo://app?vid=83fd4df0-989a-4564-8c7d-360b351084d9","ios":"levelo://app?vid=83fd4df0-989a-4564-8c7d-360b351084d9"},"vehicle_type_id":"4","last_reported":1722528613,"current_range_meters":0,"station_id":"ce4bh512rcd13ifvqe3g","pricing_plan_id":"cebpf4jnsgd1na2vs0mg"},{"bike_id":"b5d97a82-8a26-4d9a-aaf9-7132e334fdc6","system_id":"levelo_inurba_marseille","lat":43.283498,"lon":5.380948,"is_reserved":false,"is_disabled":false,"rental_uris":{"android":"levelo://app?vid=b5d97a82-8a26-4d9a-aaf9-7132e334fdc6","ios":"levelo://app?vid=b5d97a82-8a26-4d9a-aaf9-7132e334fdc6"},"vehicle_type_id":"4","last_reported":1722528613,"current_range_meters":0,"station_id":"ce4bh412rcd13ifvqdr0","pricing_plan_id":"cebpf4jnsgd1na2vs0mg"},{"bike_id":"f51f9ec0-5512-4e74-be10-1925f4a07c6c","system_id":"levelo_inurba_marseille","lat":43.284776,"lon":5.385603,"is_reserved":false,"is_disabled":false,"rental_uris":{"android":"levelo://app?vid=f51f9ec0-5512-4e74-be10-1925f4a07c6c","ios":"levelo://app?vid=f51f9ec0-5512-4e74-be10-1925f4a07c6c"},"vehicle_type_id":"4","last_reported":1722528613,"current_range_meters":0,"station_id":"ce4bh8p2rcd13ifvqeb0","pricing_plan_id":"cebpf4jnsgd1na2vs0mg"},{"bike_id":"3e00ed6d-7be5-42bf-a0ef-c7a7c3bc118a","system_id":"levelo_inurba_marseille","lat":43.28428,"lon":5.34997,"is_reserved":false,"is_disabled":false,"rental_uris":{"android":"levelo://app?vid=3e00ed6d-7be5-42bf-a0ef-c7a7c3bc118a","ios":"levelo://app?vid=3e00ed6d-7be5-42bf-a0ef-c7a7c3bc118a"},"vehicle_type_id":"4","last_reported":1722528613,"current_range_meters":31200,"station_id":"ce4bhbh2rcd13ifvqepg","pricing_plan_id":"cebpf4jnsgd1na2vs0mg"},{"bike_id":"623d4830-7b01-4a56-8b13-d6094ed2edf7","system_id":"levelo_inurba_marseille","lat":43.284283,"lon":5.34988,"is_reserved":false,"is_disabled":false,"rental_uris":{"android":"levelo://app?vid=623d4830-7b01-4a56-8b13-d6094ed2edf7","ios":"levelo://app?vid=623d4830-7b01-4a56-8b13-d6094ed2edf7"},"vehicle_type_id":"4","last_reported":1722528613,"current_range_meters":2000,"station_id":"ce4bhbh2rcd13ifvqepg","pricing_plan_id":"cebpf4jnsgd1na2vs0mg"},{"bike_id":"3bbf5746-04af-4527-bbcd-70659faa1237","system_id":"levelo_inurba_marseille","lat":43.284219,"lon":5.3497,"is_reserved":false,"is_disabled":false,"rental_uris":{"android":"levelo://app?vid=3bbf5746-04af-4527-bbcd-70659faa1237","ios":"levelo://app?vid=3bbf5746-04af-4527-bbcd-70659faa1237"},"vehicle_type_id":"4","last_reported":1722528613,"current_range_meters":22400,"station_id":"ce4bhbh2rcd13ifvqepg","pricing_plan_id":"cebpf4jnsgd1na2vs0mg"},{"bike_id":"25b858f6-3090-4d69-a22b-16dac2d162ae","system_id":"levelo_inurba_marseille","lat":43.284228,"lon":5.349943,"is_reserved":false,"is_disabled":false,"rental_uris":{"android":"levelo://app?vid=25b858f6-3090-4d69-a22b-16dac2d162ae","ios":"levelo://app?vid=25b858f6-3090-4d69-a22b-16dac2d162ae"},"vehicle_type_id":"4","last_reported":1722528613,"current_range_meters":31200,"station_id":"ce4bhbh2rcd13ifvqepg","pricing_plan_id":"cebpf4jnsgd1na2vs0mg"},{"bike_id":"c25f2e3a-f059-4cf4-b127-5a827c42b635","system_id":"levelo_inurba_marseille","lat":43.28421,"lon":5.34996,"is_reserved":false,"is_disabled":false,"rental_uris":{"android":"levelo://app?vid=c25f2e3a-f059-4cf4-b127-5a827c42b635","ios":"levelo://app?vid=c25f2e3a-f059-4cf4-b127-5a827c42b635"},"vehicle_type_id":"4","last_reported":1722528613,"current_range_meters":10800,"station_id":"ce4bhbh2rcd13ifvqepg","pricing_plan_id":"cebpf4jnsgd1na2vs0mg"},{"bike_id":"4d35ebdd-8200-41f3-8cc7-241118d9ad06","system_id":"levelo_inurba_marseille","lat":43.28425,"lon":5.34983,"is_reserved":false,"is_disabled":false,"rental_uris":{"android":"levelo://app?vid=4d35ebdd-8200-41f3-8cc7-241118d9ad06","ios":"levelo://app?vid=4d35ebdd-8200-41f3-8cc7-241118d9ad06"},"vehicle_type_id":"4","last_reported":1722528613,"current_range_meters":4400,"station_id":"ce4bhbh2rcd13ifvqepg","pricing_plan_id":"cebpf4jnsgd1na2vs0mg"},{"bike_id":"5b9d3333-e497-4156-b9db-86eb325bc86b","system_id":"levelo_inurba_marseille","lat":43.28424,"lon":5.34986,"is_reserved":false,"is_disabled":false,"rental_uris":{"android":"levelo://app?vid=5b9d3333-e497-4156-b9db-86eb325bc86b","ios":"levelo://app?vid=5b9d3333-e497-4156-b9db-86eb325bc86b"},"vehicle_type_id":"4","last_reported":1722528613,"current_range_meters":29200,"station_id":"ce4bhbh2rcd13ifvqepg","pricing_plan_id":"cebpf4jnsgd1na2vs0mg"},{"bike_id":"4302d223-9d65-41db-86dc-a84821fb92ad","system_id":"levelo_inurba_marseille","lat":43.28422,"lon":5.34992,"is_reserved":false,"is_disabled":false,"rental_uris":{"android":"levelo://app?vid=4302d223-9d65-41db-86dc-a84821fb92ad","ios":"levelo://app?vid=4302d223-9d65-41db-86dc-a84821fb92ad"},"vehicle_type_id":"4","last_reported":1722528613,"current_range_meters":22800,"station_id":"ce4bhbh2rcd13ifvqepg","pricing_plan_id":"cebpf4jnsgd1na2vs0mg"},{"bike_id":"3afbe470-5177-4dc7-a0c6-6f4b1d2f647f","system_id":"levelo_inurba_marseille","lat":43.284219,"lon":5.3497,"is_reserved":false,"is_disabled":false,"rental_uris":{"android":"levelo://app?vid=3afbe470-5177-4dc7-a0c6-6f4b1d2f647f","ios":"levelo://app?vid=3afbe470-5177-4dc7-a0c6-6f4b1d2f647f"},"vehicle_type_id":"4","last_reported":1722528613,"current_range_meters":31600,"station_id":"ce4bhbh2rcd13ifvqepg","pricing_plan_id":"cebpf4jnsgd1na2vs0mg"},{"bike_id":"ab966d79-a627-405b-9249-32d52bc30232","system_id":"levelo_inurba_marseille","lat":43.2842,"lon":5.34995,"is_reserved":false,"is_disabled":false,"rental_uris":{"android":"levelo://app?vid=ab966d79-a627-405b-9249-32d52bc30232","ios":"levelo://app?vid=ab966d79-a627-405b-9249-32d52bc30232"},"vehicle_type_id":"4","last_reported":1722528613,"current_range_meters":4400,"station_id":"ce4bhbh2rcd13ifvqepg","pricing_plan_id":"cebpf4jnsgd1na2vs0mg"},{"bike_id":"e8ec2434-762c-441d-9908-12141a7a6c4b","system_id":"levelo_inurba_marseille","lat":43.284776,"lon":5.385603,"is_reserved":false,"is_disabled":false,"rental_uris":{"android":"levelo://app?vid=e8ec2434-762c-441d-9908-12141a7a6c4b","ios":"levelo://app?vid=e8ec2434-762c-441d-9908-12141a7a6c4b"},"vehicle_type_id":"4","last_reported":1722528613,"current_range_meters":21200,"station_id":"ce4bh8p2rcd13ifvqeb0","pricing_plan_id":"cebpf4jnsgd1na2vs0mg"},{"bike_id":"91e8d9ba-d039-4a96-b756-5e463f984246","system_id":"levelo_inurba_marseille","lat":43.28419,"lon":5.34996,"is_reserved":false,"is_disabled":false,"rental_uris":{"android":"levelo://app?vid=91e8d9ba-d039-4a96-b756-5e463f984246","ios":"levelo://app?vid=91e8d9ba-d039-4a96-b756-5e463f984246"},"vehicle_type_id":"4","last_reported":1722528613,"current_range_meters":400,"station_id":"ce4bhbh2rcd13ifvqepg","pricing_plan_id":"cebpf4jnsgd1na2vs0mg"},{"bike_id":"4a8cd877-3ccf-4900-95cc-839c641497ce","system_id":"levelo_inurba_marseille","lat":43.284219,"lon":5.3497,"is_reserved":false,"is_disabled":false,"rental_uris":{"android":"levelo://app?vid=4a8cd877-3ccf-4900-95cc-839c641497ce","ios":"levelo://app?vid=4a8cd877-3ccf-4900-95cc-839c641497ce"},"vehicle_type_id":"4","last_reported":1722528613,"current_range_meters":27600,"station_id":"ce4bhbh2rcd13ifvqepg","pricing_plan_id":"cebpf4jnsgd1na2vs0mg"},{"bike_id":"99562493-762a-480e-9e0a-1aa1160f91d6","system_id":"levelo_inurba_marseille","lat":43.284217,"lon":5.349697,"is_reserved":false,"is_disabled":false,"rental_uris":{"android":"levelo://app?vid=99562493-762a-480e-9e0a-1aa1160f91d6","ios":"levelo://app?vid=99562493-762a-480e-9e0a-1aa1160f91d6"},"vehicle_type_id":"4","last_reported":1722528613,"current_range_meters":18800,"station_id":"ce4bhbh2rcd13ifvqepg","pricing_plan_id":"cebpf4jnsgd1na2vs0mg"},{"bike_id":"14996675-10df-448f-ba49-222685e28758","system_id":"levelo_inurba_marseille","lat":43.284217,"lon":5.349697,"is_reserved":false,"is_disabled":false,"rental_uris":{"android":"levelo://app?vid=14996675-10df-448f-ba49-222685e28758","ios":"levelo://app?vid=14996675-10df-448f-ba49-222685e28758"},"vehicle_type_id":"4","last_reported":1722528613,"current_range_meters":400,"station_id":"ce4bhbh2rcd13ifvqepg","pricing_plan_id":"cebpf4jnsgd1na2vs0mg"},{"bike_id":"20bd845d-459d-46f4-ba89-e5346d3dfee4","system_id":"levelo_inurba_marseille","lat":43.284214,"lon":5.349706,"is_reserved":false,"is_disabled":false,"rental_uris":{"android":"levelo://app?vid=20bd845d-459d-46f4-ba89-e5346d3dfee4","ios":"levelo://app?vid=20bd845d-459d-46f4-ba89-e5346d3dfee4"},"vehicle_type_id":"4","last_reported":1722528613,"current_range_meters":23200,"station_id":"ce4bhbh2rcd13ifvqepg","pricing_plan_id":"cebpf4jnsgd1na2vs0mg"},