{"last_updated":1706807181,"ttl":30,"version":"2.2","data":{"bikes":[{"bike_id":"aa2081ff-9cef-4ef7-b1e2-feb5d80225c4","system_id":"levelo_inurba_marseille","lat":43.313391,"lon":5.36706,"is_reserved":false,"is_disabled":false,"rental_uris":{"android":"levelo://app?vid=aa2081ff-9cef-4ef7-b1e2-feb5d80225c4","ios":"levelo://app?vid=aa2081ff-9cef-4ef7-b1e2-feb5d80225c4"},"vehicle_type_id":"4","last_reported":1706807181,"current_range_meters":16000,"station_id":"ce4bgr92rcd13ifvqc6g","pricing_plan_id":"free"},{"bike_id":"681ca101-d429-4f2f-9fb9-07f73d1d2685","system_id":"levelo_inurba_marseille","lat":43.31341,"lon":5.367098,"is_reserved":false,"is_disabled":false,"rental_uris":{"android":"levelo://app?vid=681ca101-d429-4f2f-9fb9-07f73d1d2685","ios":"levelo://app?vid=681ca101-d429-4f2f-9fb9-07f73d1d2685"},"vehicle_type_id":"4","last_reported":1706807181,"current_range_meters":26800,"station_id":"ce4bgr92rcd13ifvqc6g","pricing_plan_id":"free"},{"bike_id":"121ef14b-863e-417c-a9aa-09f43100c570","system_id":"levelo_inurba_marseille","lat":43.31341,"lon":5.367098,"is_reserved":false,"is_disabled":false,"rental_uris":{"android":"levelo://app?vid=121ef14b-863e-417c-a9aa-09f43100c570","ios":"levelo://app?vid=121ef14b-863e-417c-a9aa-09f43100c570"},"vehicle_type_id":"4","last_reported":1706807181,"current_range_meters":17600,"station_id":"ce4bgr92rcd13ifvqc6g","pricing_plan_id":"free"},{"bike_id":"ccfbba6a-874f-4ec9-8d6f-3e5d80f1b4fc","system_id":"levelo_inurba_marseille","lat":43.31341,"lon":5.367098,"is_reserved":false,"is_disabled":false,"rental_uris":{"android":"levelo://app?vid=ccfbba6a-874f-4ec9-8d6f-3e5d80f1b4fc","ios":"levelo://app?vid=ccfbba6a-874f-4ec9-8d6f-3e5d80f1b4fc"},"vehicle_type_id":"4","last_reported":1706807181,"current_range_meters":12400,"station_id":"ce4bgr92rcd13ifvqc6g","pricing_plan_id":"free"},{"bike_id":"12839033-64b3-4e18-be95-3a0e9596abab","system_id":"levelo_inurba_marseille","lat":43.31341,"lon":5.367098,"is_reserved":false,"is_disabled":false,"rental_uris":{"android":"levelo://app?vid=12839033-64b3-4e18-be95-3a0e9596abab","ios":"levelo://app?vid=12839033-64b3-4e18-be95-3a0e9596abab"},"vehicle_type_id":"4","last_reported":1706807181,"current_range_meters":29600,"station_id":"ce4bgr92rcd13ifvqc6g","pricing_plan_id":"free"},{"bike_id":"5a7aaf1c-adad-473e-b4d0-d2e79848bf83","system_id":"levelo_inurba_marseille","lat":43.312239,"lon":5.368562,"is_reserved":false,"is_disabled":false,"rental_uris":{"android":"levelo://app?vid=5a7aaf1c-adad-473e-b4d0-d2e79848bf83","ios":"levelo://app?vid=5a7aaf1c-adad-473e-b4d0-d2e79848bf83"},"vehicle_type_id":"4","last_reported":1706807181,"current_range_meters":17600,"station_id":"ce4bgl92rcd13ifvqbq0","pricing_plan_id":"free"},{"bike_id":"e17591b4-58c8-4394-b7ae-4abbf110e7e5","system_id":"levelo_inurba_marseille","lat":43.312239,"lon":5.368562,"is_reserved":false,"is_disabled":false,"rental_uris":{"android":"levelo://app?vid=e17591b4-58c8-4394-b7ae-4abbf110e7e5","ios":"levelo://app?vid=e17591b4-58c8-4394-b7ae-4abbf110e7e5"},"vehicle_type_id":"4","last_reported":1706807181,"current_range_meters":24400,"station_id":"ce4bgl92rcd13ifvqbq0","pricing_plan_id":"free"},{"bike_id":"8a1e2c85-3497-4570-bbf9-2e929dbcdb7f","system_id":"levelo_inurba_marseille","lat":43.312239,"lon":5.368562,"is_reserved":false,"is_disabled":false,"rental_uris":{"android":"levelo://app?vid=8a1e2c85-3497-4570-bbf9-2e929dbcdb7f","ios":"levelo://app?vid=8a1e2c85-3497-4570-bbf9-2e929dbcdb7f"},"vehicle_type_id":"4","last_reported":1706807181,"current_range_meters":30000,"station_id":"ce4bgl92rcd13ifvqbq0","pricing_plan_id":"free"},{"bike_id":"025da868-6a6b-46da-83b0-6849eb65318f","system_id":"levelo_inurba_marseille","lat":43.312239,"lon":5.368562,"is_reserved":false,"is_disabled":false,"rental_uris":{"android":"levelo://app?vid=025da868-6a6b-46da-83b0-6849eb65318f","ios":"levelo://app?vid=025da868-6a6b-46da-83b0-6849eb65318f"},"vehicle_type_id":"4","last_reported":1706807181,"current_range_meters":31200,"station_id":"ce4bgl92rcd13ifvqbq0","pricing_plan_id":"free"},{"bike_id":"827c049c-3d36-471e-96b0-db3f7698292e","system_id":"levelo_inurba_marseille","lat":43.312239,"lon":5.368562,"is_reserved":false,"is_disabled":false,"rental_uris":{"android":"levelo://app?vid=827c049c-3d36-471e-96b0-db3f7698292e","ios":"levelo://app?vid=827c049c-3d36-471e-96b0-db3f7698292e"},"vehicle_type_id":"4","last_reported":1706807181,"current_range_meters":7200,"station_id":"ce4bgl92rcd13ifvqbq0","pricing_plan_id":"free"},{"bike_id":"cccbd0b8-5a17-4f9c-8b57-c0b93c47c1c0","system_id":"levelo_inurba_marseille","lat":43.312239,"lon":5.368562,"is_reserved":false,"is_disabled":false,"rental_uris":{"android":"levelo://app?vid=cccbd0b8-5a17-4f9c-8b57-c0b93c47c1c0","ios":"levelo://app?vid=cccbd0b8-5a17-4f9c-8b57-c0b93c47c1c0"},"vehicle_type_id":"4","last_reported":1706807181,"current_range_meters":31200,"station_id":"ce4bgl92rcd13ifvqbq0","pricing_plan_id":"free"},{"bike_id":"f7522efa-9f2e-4cbb-b019-69cf8c484f05","system_id":"levelo_inurba_marseille","lat":43.312257,"lon":5.368588,"is_reserved":false,"is_disabled":false,"rental_uris":{"android":"levelo://app?vid=f7522efa-9f2e-4cbb-b019-69cf8c484f05","ios":"levelo://app?vid=f7522efa-9f2e-4cbb-b019-69cf8c484f05"},"vehicle_type_id":"4","last_reported":1706807181,"current_range_meters":17200,"station_id":"ce4bgl92rcd13ifvqbq0","pricing_plan_id":"free"},{"bike_id":"f2bf0e4c-c9b7-4dd6-8596-09760692412a","system_id":"levelo_inurba_marseille","lat":43.312239,"lon":5.368562,"is_reserved":false,"is_disabled":false,"rental_uris":{"android":"levelo://app?vid=f2bf0e4c-c9b7-4dd6-8596-09760692412a","ios":"levelo://app?vid=f2bf0e4c-c9b7-4dd6-8596-09760692412a"},"vehicle_type_id":"4","last_reported":1706807181,"current_range_meters":28800,"station_id":"ce4bgl92rcd13ifvqbq0","pricing_plan_id":"free"},{"bike_id":"c7ebf351-25a9-4d3f-866a-f6ec46b6a8aa","system_id":"levelo_inurba_marseille","lat":43.312239,"lon":5.368562,"is_reserved":false,"is_disabled":false,"rental_uris":{"android":"levelo://app?vid=c7ebf351-25a9-4d3f-866a-f6ec46b6a8aa","ios":"levelo://app?vid=c7ebf351-25a9-4d3f-866a-f6ec46b6a8aa"},"vehicle_type_id":"4","last_reported":1706807181,"current_range_meters":5200,"station_id":"ce4bgl92rcd13ifvqbq0","pricing_plan_id":"free"},{"bike_id":"aceeef1f-fe64-4b81-95d3-a9074b21a98a","system_id":"levelo_inurba_marseille","lat":43.312239,"lon":5.368562,"is_reserved":false,"is_disabled":false,"rental_uris":{"android":"levelo://app?vid=aceeef1f-fe64-4b81-95d3-a9074b21a98a","ios":"levelo://app?vid=aceeef1f-fe64-4b81-95d3-a9074b21a98a"},"vehicle_type_id":"4","last_reported":1706807181,"current_range_meters":31200,"station_id":"ce4bgl92rcd13ifvqbq0","pricing_plan_id":"free"},{"bike_id":"0a9a1f97-3e3e-4248-bef9-fc205919fe53","system_id":"levelo_inurba_marseille","lat":43.312239,"lon":5.368562,"is_reserved":false,"is_disabled":false,"rental_uris":{"android":"levelo://app?vid=0a9a1f97-3e3e-4248-bef9-fc205919fe53","ios":"levelo://app?vid=0a9a1f97-3e3e-4248-bef9-fc205919fe53"},"vehicle_type_id":"4","last_reported":1706807181,"current_range_meters":28400,"station_id":"ce4bgl92rcd13ifvqbq0","pricing_plan_id":"free"},{"bike_id":"ad9b01a9-6baa-451d-92ce-f60858b4e855","system_id":"levelo_inurba_marseille","lat":43.31234,"lon":5.36873,"is_reserved":false,"is_disabled":false,"rental_uris":{"android":"levelo://app?vid=ad9b01a9-6baa-451d-92ce-f60858b4e855","ios":"levelo://app?vid=ad9b01a9-6baa-451d-92ce-f60858b4e855"},"vehicle_type_id":"4","last_reported":1706807181,"current_range_meters":31200,"station_id":"ce4bgl92rcd13ifvqbq0","pricing_plan_id":"free"},{"bike_id":"3a7f311c-a7ef-4019-b708-5ba935abfbfc","system_id":"levelo_inurba_marseille","lat":43.31306,"lon":5.37258,"is_reserved":false,"is_disabled":false,"rental_uris":{"android":"levelo://app?vid=3a7f311c-a7ef-4019-b708-5ba935abfbfc","ios":"levelo://app?vid=3a7f311c-a7ef-4019-b708-5ba935abfbfc"},"vehicle_type_id":"4","last_reported":1706807181,"current_range_meters":20000,"station_id":"","pricing_plan_id":"free"},{"bike_id":"1c16901d-858a-449e-ab72-37797c027f84","system_id":"levelo_inurba_marseille","lat":43.31494,"lon":5.37301,"is_reserved":false,"is_disabled":false,"rental_uris":{"android":"levelo://app?vid=1c16901d-858a-449e-ab72-37797c027f84","ios":"levelo://app?vid=1c16901d-858a-449e-ab72-37797c027f84"},"vehicle_type_id":"4","last_reported":1706807181,"current_range_meters":0,"station_id":"ce4bgt12rcd13ifvqcd0","pricing_plan_id":"free"},{"bike_id":"a2378fb3-fad8-4881-80ef-d16b89d35676","system_id":"levelo_inurba_marseille","lat":43.314811,"lon":5.373103,"is_reserved":false,"is_disabled":false,"rental_uris":{"android":"levelo://app?vid=a2378fb3-fad8-4881-80ef-d16b89d35676","ios":"levelo://app?vid=a2378fb3-fad8-4881-80ef-d16b89d35676"},"vehicle_type_id":"4","last_reported":1706807181,"current_range_meters":31200,"station_id":"ce4bgt12rcd13ifvqcd0","pricing_plan_id":"free"},{"bike_id":"761f52cb-747e-4022-8038-2a784543c02c","system_id":"levelo_inurba_marseille","lat":43.309039,"lon":5.371797,"is_reserved":false,"is_disabled":false,"rental_uris":{"android":"levelo://app?vid=761f52cb-747e-4022-8038-2a784543c02c","ios":"levelo://app?vid=761f52cb-747e-4022-8038-2a784543c02c"},"vehicle_type_id":"4","last_reported":1706807181,"current_range_meters":3600,"station_id":"ce4bguh2rcd13ifvqckg","pricing_plan_id":"free"},{"bike_id":"77cbebc8-a4dd-4e96-86d5-1a3993c6fa5b","system_id":"levelo_inurba_marseille","lat":43.308868,"lon":5.37192,"is_reserved":false,"is_disabled":false,"rental_uris":{"android":"levelo://app?vid=77cbebc8-a4dd-4e96-86d5-1a3993c6fa5b","ios":"levelo://app?vid=77cbebc8-a4dd-4e96-86d5-1a3993c6fa5b"},"vehicle_type_id":"4","last_reported":1706807181,"current_range_meters":8000,"station_id":"ce4bguh2rcd13ifvqckg","pricing_plan_id":"free"},{"bike_id":"415525b4-76fe-4f47-a34d-731d474f8ff0","system_id":"levelo_inurba_marseille","lat":43.308884,"lon":5.372029,"is_reserved":false,"is_disabled":false,"rental_uris":{"android":"levelo://app?vid=415525b4-76fe-4f47-a34d-731d474f8ff0","ios":"levelo://app?vid=415525b4-76fe-4f47-a34d-731d474f8ff0"},"vehicle_type_id":"4","last_reported":1706807181,"current_range_meters":20400,"station_id":"","pricing_plan_id":"free"},{"bike_id":"7dd5132d-cf70-4a0d-8bb6-be68809a2ef1","system_id":"levelo_inurba_marseille","lat":43.30557,"lon":5.36531,"is_reserved":false,"is_disabled":false,"rental_uris":{"android":"levelo://app?vid=7dd5132d-cf70-4a0d-8bb6-be68809a2ef1","ios":"levelo://app?vid=7dd5132d-cf70-4a0d-8bb6-be68809a2ef1"},"vehicle_type_id":"4","last_reported":1706807181,"current_range_meters":0,"station_id":"ce4bgs12rcd13ifvqcag","pricing_plan_id":"free"},{"bike_id":"d4b817f1-7ce3-4025-9d95-fa6bb528a44a","system_id":"levelo_inurba_marseille","lat":43.305706,"lon":5.365654,"is_reserved":false,"is_disabled":false,"rental_uris":{"android":"levelo://app?vid=d4b817f1-7ce3-4025-9d95-fa6bb528a44a","ios":"levelo://app?vid=d4b817f1-7ce3-4025-9d95-fa6bb528a44a"},"vehicle_type_id":"4","last_reported":1706807181,"current_range_meters":16000,"station_id":"ce4bgs12rcd13ifvqcag","pricing_plan_id":"free"},{"bike_id":"d1c6d5e5-4c38-4f86-a4f4-dde84d0ec262","system_id":"levelo_inurba_marseille","lat":43.305989,"lon":5.37225,"is_reserved":false,"is_disabled":false,"rental_uris":{"android":"levelo://app?vid=d1c6d5e5-4c38-4f86-a4f4-dde84d0ec262","ios":"levelo://app?vid=d1c6d5e5-4c38-4f86-a4f4-dde84d0ec262"},"vehicle_type_id":"4","last_reported":1706807181,"current_range_meters":30400,"station_id":"ce4bgqh2rcd13ifvqc4g","pricing_plan_id":"free"},{"bike_id":"fc095f73-44ef-4e78-8d6a-52da57bd128d","system_id":"levelo_inurba_marseille","lat":43.311125,"lon":5.377624,"is_reserved":false,"is_disabled":false,"rental_uris":{"android":"levelo://app?vid=fc095f73-44ef-4e78-8d6a-52da57bd128d","ios":"levelo://app?vid=fc095f73-44ef-4e78-8d6a-52da57bd128d"},"vehicle_type_id":"4","last_reported":1706807181,"current_range_meters":5200,"station_id":"ce4bgt92rcd13ifvqcg0","pricing_plan_id":"free"},{"bike_id":"20741242-cae3-4574-bf3f-96337465201d","system_id":"levelo_inurba_marseille","lat":43.31115,"lon":5.37768,"is_reserved":false,"is_disabled":false,"rental_uris":{"android":"levelo://app?vid=20741242-cae3-4574-bf3f-96337465201d","ios":"levelo://app?vid=20741242-cae3-4574-bf3f-96337465201d"},"vehicle_type_id":"4","last_reported":1706807181,"current_range_meters":14400,"station_id":"ce4bgt92rcd13ifvqcg0","pricing_plan_id":"free"},{"bike_id":"bd089f11-02b2-47a9-93ab-9d15b566f41b","system_id":"levelo_inurba_marseille","lat":43.311131,"lon":5.377651,"is_reserved":false,"is_disabled":false,"rental_uris":{"android":"levelo://app?vid=bd089f11-02b2-47a9-93ab-9d15b566f41b","ios":"levelo://app?vid=bd089f11-02b2-47a9-93ab-9d15b566f41b"},"vehicle_type_id":"4","last_reported":1706807181,"current_range_meters":0,"station_id":"ce4bgt92rcd13ifvqcg0","pricing_plan_id":"free"},{"bike_id":"91972009-a1f2-4cad-9eb8-15f0d2658aac","system_id":"levelo_inurba_marseille","lat":43.31112,"lon":5.377745,"is_reserved":false,"is_disabled":false,"rental_uris":{"android":"levelo://app?vid=91972009-a1f2-4cad-9eb8-15f0d2658aac","ios":"levelo://app?vid=91972009-a1f2-4cad-9eb8-15f0d2658aac"},"vehicle_type_id":"4","last_reported":1706807181,"current_range_meters":0,"station_id":"ce4bgt92rcd13ifvqcg0","pricing_plan_id":"free"},{"bike_id":"adf96923-d86e-4958-83c6-ed76d4b22862","system_id":"levelo_inurba_marseille","lat":43.307945,"lon":5.376487,"is_reserved":false,"is_disabled":false,"rental_uris":{"android":"levelo://app?vid=adf96923-d86e-4958-83c6-ed76d4b22862","ios":"levelo://app?vid=adf96923-d86e-4958-83c6-ed76d4b22862"},"vehicle_type_id":"4","last_reported":1706807181,"current_range_meters":12000,"station_id":"ce4bgv92rcd13ifvqcq0","pricing_plan_id":"free"},{"bike_id":"06c49960-226b-4992-8f29-0c9d35a73d83","system_id":"levelo_inurba_marseille","lat":43.307945,"lon":5.376487,"is_reserved":false,"is_disabled":false,"rental_uris":{"android":"levelo://app?vid=06c49960-226b-4992-8f29-0c9d35a73d83","ios":"levelo://app?vid=06c49960-226b-4992-8f29-0c9d35a73d83"},"vehicle_type_id":"4","last_reported":1706807181,"current_range_meters":30800,"station_id":"ce4bgv92rcd13ifvqcq0","pricing_plan_id":"free"},{"bike_id":"4fa5405c-4d3e-4782-a56d-becbf8ca22b8","system_id":"levelo_inurba_marseille","lat":43.315293,"lon":5.380349,"is_reserved":false,"is_disabled":false,"rental_uris":{"android":"levelo://app?vid=4fa5405c-4d3e-4782-a56d-becbf8ca22b8","ios":"levelo://app?vid=4fa5405c-4d3e-4782-a56d-becbf8ca22b8"},"vehicle_type_id":"4","last_reported":1706807181,"current_range_meters":31200,"station_id":"ce4bhsp2rcd13ifvqi50","pricing_plan_id":"free"},{"bike_id":"fc3c1539-28c3-4dd0-b015-753980613546","system_id":"levelo_inurba_marseille","lat":43.301939,"lon":5.366286,"is_reserved":false,"is_disabled":false,"rental_uris":{"android":"levelo://app?vid=fc3c1539-28c3-4dd0-b015-753980613546","ios":"levelo://app?vid=fc3c1539-28c3-4dd0-b015-753980613546"},"vehicle_type_id":"4","last_reported":1706807181,"current_range_meters":800,"station_id":"ce4bgrh2rcd13ifvqc8g","pricing_plan_id":"free"},{"bike_id":"b43645aa-f2e5-486d-a2fa-bf46e0a03dc2","system_id":"levelo_inurba_marseille","lat":43.322872,"lon":5.382756,"is_reserved":false,"is_disabled":false,"rental_uris":{"android":"levelo://app?vid=b43645aa-f2e5-486d-a2fa-bf46e0a03dc2","ios":"levelo://app?vid=b43645aa-f2e5-486d-a2fa-bf46e0a03dc2"},"vehicle_type_id":"4","last_reported":1706807181,"current_range_meters":14400,"station_id":"ce4bhr12rcd13ifvqhqg","pricing_plan_id":"free"},{"bike_id":"b314986a-463f-426e-b76e-9ae3c2d97881","system_id":"levelo_inurba_marseille","lat":43.304685,"lon":5.37914,"is_reserved":false,"is_disabled":false,"rental_uris":{"android":"levelo://app?vid=b314986a-463f-426e-b76e-9ae3c2d97881","ios":"levelo://app?vid=b314986a-463f-426e-b76e-9ae3c2d97881"},"vehicle_type_id":"4","last_reported":1706807181,"current_range_meters":29200,"station_id":"ce4bgup2rcd13ifvqcn0","pricing_plan_id":"free"},{"bike_id":"26a2256d-b5f3-47f2-8f88-fd49bb301d72","system_id":"levelo_inurba_marseille","lat":43.30457,"lon":5.37903,"is_reserved":false,"is_disabled":false,"rental_uris":{"android":"levelo://app?vid=26a2256d-b5f3-47f2-8f88-fd49bb301d72","ios":"levelo://app?vid=26a2256d-b5f3-47f2-8f88-fd49bb301d72"},"vehicle_type_id":"4","last_reported":1706807181,"current_range_meters":0,"station_id":"ce4bgup2rcd13ifvqcn0","pricing_plan_id":"free"},{"bike_id":"913b59fd-c2f1-4722-8693-c3993314d595","system_id":"levelo_inurba_marseille","lat":43.31341,"lon":5.367098,"is_reserved":false,"is_disabled":false,"rental_uris":{"android":"levelo://app?vid=913b59fd-c2f1-4722-8693-c3993314d595","ios":"levelo://app?vid=913b59fd-c2f1-4722-8693-c3993314d595"},"vehicle_type_id":"4","last_reported":1706807181,"current_range_meters":24800,"station_id":"ce4bgr92rcd13ifvqc6g","pricing_plan_id":"free"},{"bike_id":"18d4061a-a7aa-4516-9991-c470db0480ae","system_id":"levelo_inurba_marseille","lat":43.304606,"lon":5.379026,"is_reserved":false,"is_disabled":false,"rental_uris":{"android":"levelo://app?vid=18d4061a-a7aa-4516-9991-c470db0480ae","ios":"levelo://app?vid=18d4061a-a7aa-4516-9991-c470db0480ae"},"vehicle_type_id":"4","last_reported":1706807181,"current_range_meters":2800,"station_id":"ce4bgup2rcd13ifvqcn0","pricing_plan_id":"free"},{"bike_id":"2aef7ccb-4488-4ebe-891e-6ccb0599976b","system_id":"levelo_inurba_marseille","lat":43.324771,"lon":5.36557,"is_reserved":false,"is_disabled":false,"rental_uris":{"android":"levelo://app?vid=2aef7ccb-4488-4ebe-891e-6ccb0599976b","ios":"levelo://app?vid=2aef7ccb-4488-4ebe-891e-6ccb0599976b"},"vehicle_type_id":"4","last_reported":1706807181,"current_range_meters":13200,"station_id":"ce4bhs12rcd13ifvqhvg","pricing_plan_id":"free"},{"bike_id":"3f36f429-d5c8-4897-97ff-d92c11e2e938","system_id":"levelo_inurba_marseille","lat":43.310804,"lon":5.38359,"is_reserved":false,"is_disabled":false,"rental_uris":{"android":"levelo://app?vid=3f36f429-d5c8-4897-97ff-d92c11e2e938","ios":"levelo://app?vid=3f36f429-d5c8-4897-97ff-d92c11e2e938"},"vehicle_type_id":"4","last_reported":1706807181,"current_range_meters":9600,"station_id":"ce4bgv92rcd13ifvqcr0","pricing_plan_id":"free"},{"bike_id":"42c78ed3-f99b-4aad-9f1b-b0c86de2f5e5","system_id":"levelo_inurba_marseille","lat":43.310804,"lon":5.38359,"is_reserved":false,"is_disabled":false,"rental_uris":{"android":"levelo://app?vid=42c78ed3-f99b-4aad-9f1b-b0c86de2f5e5","ios":"levelo://app?vid=42c78ed3-f99b-4aad-9f1b-b0c86de2f5e5"},"vehicle_type_id":"4","last_reported":1706807181,"current_range_meters":1600,"station_id":"ce4bgv92rcd13ifvqcr0","pricing_plan_id":"free"},{"bike_id":"de35bf8a-c093-4111-835c-209a4b7365ad","system_id":"levelo_inurba_marseille","lat":43.301429,"lon":5.37413,"is_reserved":false,"is_disabled":false,"rental_uris":{"android":"levelo://app?vid=de35bf8a-c093-4111-835c-209a4b7365ad","ios":"levelo://app?vid=de35bf8a-c093-4111-835c-209a4b7365ad"},"vehicle_type_id":"4","last_reported":1706807181,"current_range_meters":11200,"station_id":"ce4bgs92rcd13ifvqcc0","pricing_plan_id":"free"},{"bike_id":"64d78273-fffd-4887-a48e-68932349843e","system_id":"levelo_inurba_marseille","lat":43.319912,"lon":5.381379,"is_reserved":false,"is_disabled":false,"rental_uris":{"android":"levelo://app?vid=64d78273-fffd-4887-a48e-68932349843e","ios":"levelo://app?vid=64d78273-fffd-4887-a48e-68932349843e"},"vehicle_type_id":"4","last_reported":1706807181,"current_range_meters":26400,"station_id":"","pricing_plan_id":"free"},{"bike_id":"750ede20-1a92-4656-b5f3-684b58e12ed0","system_id":"levelo_inurba_marseille","lat":43.319935,"lon":5.381699,"is_reserved":false,"is_disabled":false,"rental_uris":{"android":"levelo://app?vid=750ede20-1a92-4656-b5f3-684b58e12ed0","ios":"levelo://app?vid=750ede20-1a92-4656-b5f3-684b58e12ed0"},"vehicle_type_id":"4","last_reported":1706807181,"current_range_meters":2000,"station_id":"ce4bhr12rcd13ifvqhpg","pricing_plan_id":"free"},{"bike_id":"33aa6591-fee3-4190-8337-a93734a2451e","system_id":"levelo_inurba_marseille","lat":43.319935,"lon":5.381699,"is_reserved":false,"is_disabled":false,"rental_uris":{"android":"levelo://app?vid=33aa6591-fee3-4190-8337-a93734a2451e","ios":"levelo://app?vid=33aa6591-fee3-4190-8337-a93734a2451e"},"vehicle_type_id":"4","last_reported":1706807181,"current_range_meters":26800,"station_id":"ce4bhr12rcd13ifvqhpg","pricing_plan_id":"free"},{"bike_id":"c51206eb-17ca-46d7-ac47-df11e2479637","system_id":"levelo_inurba_marseille","lat":43.319935,"lon":5.381699,"is_reserved":false,"is_disabled":false,"rental_uris":{"android":"levelo://app?vid=c51206eb-17ca-46d7-ac47-df11e2479637","ios":"levelo://app?vid=c51206eb-17ca-46d7-ac47-df11e2479637"},"vehicle_type_id":"4","last_reported":1706807181,"current_range_meters":10400,"station_id":"ce4bhr12rcd13ifvqhpg","pricing_plan_id":"free"},{"bike_id":"3e9050a9-1683-4e20-9076-9f75f48fff65","system_id":"levelo_inurba_marseille","lat":43.319935,"lon":5.381699,"is_reserved":false,"is_disabled":false,"rental_uris":{"android":"levelo://app?vid=3e9050a9-1683-4e20-9076-9f75f48fff65","ios":"levelo://app?vid=3e9050a9-1683-4e20-9076-9f75f48fff65"},"vehicle_type_id":"4","last_reported":1706807181,"current_range_meters":9600,"station_id":"ce4bhr12rcd13ifvqhpg","pricing_plan_id":"free"},{"bike_id":"894b44a7-54f7-41b4-bb98-30de2e4f98db","system_id":"levelo_inurba_marseille","lat":43.31365,"lon":5.38478,"is_reserved":false,"is_disabled":false,"rental_uris":{"android":"levelo://app?vid=894b44a7-54f7-41b4-bb98-30de2e4f98db","ios":"levelo://app?vid=894b44a7-54f7-41b4-bb98-30de2e4f98db"},"vehicle_type_id":"4","last_reported":1706807181,"current_range_meters":18400,"station_id":"ce4bgt92rcd13ifvqcf0","pricing_plan_id":"free"},{"bike_id":"49d155bc-d2be-4137-b0b5-0b3bfacf8bee","system_id":"levelo_inurba_marseille","lat":43.313571,"lon":5.384829,"is_reserved":false,"is_disabled":false,"rental_uris":{"android":"levelo://app?vid=49d155bc-d2be-4137-b0b5-0b3bfacf8bee","ios":"levelo://app?vid=49d155bc-d2be-4137-b0b5-0b3bfacf8bee"},"vehicle_type_id":"4","last_reported":1706807181,"current_range_meters":12000,"station_id":"ce4bgt92rcd13ifvqcf0","pricing_plan_id":"free"},{"bike_id":"05686c6c-7f06-4286-9db5-929d3661ccdc","system_id":"levelo_inurba_marseille","lat":43.313674,"lon":5.384914,"is_reserved":false,"is_disabled":false,"rental_uris":{"android":"levelo://app?vid=05686c6c-7f06-4286-9db5-929d3661ccdc","ios":"levelo://app?vid=05686c6c-7f06-4286-9db5-929d3661ccdc"},"vehicle_type_id":"4","last_reported":1706807181,"current_range_meters":10800,"station_id":"ce4bgt92rcd13ifvqcf0","pricing_plan_id":"free"},{"bike_id":"d1b1c11b-4675-4f31-a75e-3f668701c09b","system_id":"levelo_inurba_marseille","lat":43.31371,"lon":5.38494,"is_reserved":false,"is_disabled":false,"rental_uris":{"android":"levelo://app?vid=d1b1c11b-4675-4f31-a75e-3f668701c09b","ios":"levelo://app?vid=d1b1c11b-4675-4f31-a75e-3f668701c09b"},"vehicle_type_id":"4","last_reported":1706807181,"current_range_meters":30000,"station_id":"ce4bgt92rcd13ifvqcf0","pricing_plan_id":"free"},{"bike_id":"77e05e1c-0506-4896-a702-cc596b4115b0","system_id":"levelo_inurba_marseille","lat":43.299222,"lon":5.365554,"is_reserved":false,"is_disabled":false,"rental_uris":{"android":"levelo://app?vid=77e05e1c-0506-4896-a702-cc596b4115b0","ios":"levelo://app?vid=77e05e1c-0506-4896-a702-cc596b4115b0"},"vehicle_type_id":"4","last_reported":1706807181,"current_range_meters":17200,"station_id":"ce4bgm92rcd13ifvqbr0","pricing_plan_id":"free"},{"bike_id":"57169314-ff87-4841-afd6-b61cb14eb6a0","system_id":"levelo_inurba_marseille","lat":43.298433,"lon":5.362774,"is_reserved":false,"is_disabled":false,"rental_uris":{"android":"levelo://app?vid=57169314-ff87-4841-afd6-b61cb14eb6a0","ios":"levelo://app?vid=57169314-ff87-4841-afd6-b61cb14eb6a0"},"vehicle_type_id":"4","last_reported":1706807181,"current_range_meters":24400,"station_id":"ce4bgpp2rcd13ifvqc3g","pricing_plan_id":"free"},{"bike_id":"4a9cf175-bb6c-4c68-9dab-7aec1fa25fa9","system_id":"levelo_inurba_marseille","lat":43.305364,"lon":5.384119,"is_reserved":false,"is_disabled":false,"rental_uris":{"android":"levelo://app?vid=4a9cf175-bb6c-4c68-9dab-7aec1fa25fa9","ios":"levelo://app?vid=4a9cf175-bb6c-4c68-9dab-7aec1fa25fa9"},"vehicle_type_id":"4","last_reported":1706807181,"current_range_meters":6800,"station_id":"ce4bgg92rcd13ifvqb30","pricing_plan_id":"free"},{"bike_id":"c7eb1361-5709-44ee-9556-fce568b0bdd5","system_id":"levelo_inurba_marseille","lat":43.305364,"lon":5.384119,"is_reserved":false,"is_disabled":false,"rental_uris":{"android":"levelo://app?vid=c7eb1361-5709-44ee-9556-fce568b0bdd5","ios":"levelo://app?vid=c7eb1361-5709-44ee-9556-fce568b0bdd5"},"vehicle_type_id":"4","last_reported":1706807181,"current_range_meters":0,"station_id":"ce4bgg92rcd13ifvqb30","pricing_plan_id":"free"},{"bike_id":"4d75bc94-6255-4d9c-b7ae-1392a7f98406","system_id":"levelo_inurba_marseille","lat":43.31173,"lon":5.38713,"is_reserved":false,"is_disabled":false,"rental_uris":{"android":"levelo://app?vid=4d75bc94-6255-4d9c-b7ae-1392a7f98406","ios":"levelo://app?vid=4d75bc94-6255-4d9c-b7ae-1392a7f98406"},"vehicle_type_id":"4","last_reported":1706807181,"current_range_meters":29200,"station_id":"ce4bgv12rcd13ifvqcp0","pricing_plan_id":"free"},{"bike_id":"8a564b7b-9a79-46bc-9cb0-c45556c46c67","system_id":"levelo_inurba_marseille","lat":43.311722,"lon":5.387247,"is_reserved":false,"is_disabled":false,"rental_uris":{"android":"levelo://app?vid=8a564b7b-9a79-46bc-9cb0-c45556c46c67","ios":"levelo://app?vid=8a564b7b-9a79-46bc-9cb0-c45556c46c67"},"vehicle_type_id":"4","last_reported":1706807181,"current_range_meters":20800,"station_id":"ce4bgv12rcd13ifvqcp0","pricing_plan_id":"free"},{"bike_id":"8280a765-8d22-4e07-9ef0-8c7219f6676f","system_id":"levelo_inurba_marseille","lat":43.31168,"lon":5.387158,"is_reserved":false,"is_disabled":false,"rental_uris":{"android":"levelo://app?vid=8280a765-8d22-4e07-9ef0-8c7219f6676f","ios":"levelo://app?vid=8280a765-8d22-4e07-9ef0-8c7219f6676f"},"vehicle_type_id":"4","last_reported":1706807181,"current_range_meters":7200,"station_id":"ce4bgv12rcd13ifvqcp0","pricing_plan_id":"free"},{"bike_id":"6be74787-08af-409f-8057-468e29a056aa","system_id":"levelo_inurba_marseille","lat":43.311722,"lon":5.387247,"is_reserved":false,"is_disabled":false,"rental_uris":{"android":"levelo://app?vid=6be74787-08af-409f-8057-468e29a056aa","ios":"levelo://app?vid=6be74787-08af-409f-8057-468e29a056aa"},"vehicle_type_id":"4","last_reported":1706807181,"current_range_meters":27200,"station_id":"ce4bgv12rcd13ifvqcp0","pricing_plan_id":"free"},{"bike_id":"b3bad2f1-3844-4d7f-8f15-70a945b73941","system_id":"levelo_inurba_marseille","lat":43.31172,"lon":5.38719,"is_reserved":false,"is_disabled":false,"rental_uris":{"android":"levelo://app?vid=b3bad2f1-3844-4d7f-8f15-70a945b73941","ios":"levelo://app?vid=b3bad2f1-3844-4d7f-8f15-70a945b73941"},"vehicle_type_id":"4","last_reported":1706807181,"current_range_meters":14000,"station_id":"ce4bgv12rcd13ifvqcp0","pricing_plan_id":"free"},{"bike_id":"1d50f226-9294-43b4-b91b-39d16e02f048","system_id":"levelo_inurba_marseille","lat":43.297794,"lon":5.370888,"is_reserved":false,"is_disabled":false,"rental_uris":{"android":"levelo://app?vid=1d50f226-9294-43b4-b91b-39d16e02f048","ios":"levelo://app?vid=1d50f226-9294-43b4-b91b-39d16e02f048"},"vehicle_type_id":"4","last_reported":1706807181,"current_range_meters":22800,"station_id":"ce4bgop2rcd13ifvqc1g","pricing_plan_id":"free"},{"bike_id":"c5d0d7d5-9b16-4eb0-a7f6-5fa1faf28471","system_id":"levelo_inurba_marseille","lat":43.322872,"lon":5.382756,"is_reserved":false,"is_disabled":false,"rental_uris":{"android":"levelo://app?vid=c5d0d7d5-9b16-4eb0-a7f6-5fa1faf28471","ios":"levelo://app?vid=c5d0d7d5-9b16-4eb0-a7f6-5fa1faf28471"},"vehicle_type_id":"4","last_reported":1706807181,"current_range_meters":6800,"station_id":"ce4bhr12rcd13ifvqhqg","pricing_plan_id":"free"},{"bike_id":"442dc944-abd2-4dc4-9d34-16c5acb5fea9","system_id":"levelo_inurba_marseille","lat":43.297794,"lon":5.370888,"is_reserved":false,"is_disabled":false,"rental_uris":{"android":"levelo://app?vid=442dc944-abd2-4dc4-9d34-16c5acb5fea9","ios":"levelo://app?vid=442dc944-abd2-4dc4-9d34-16c5acb5fea9"},"vehicle_type_id":"4","last_reported":1706807181,"current_range_meters":6400,"station_id":"ce4bgop2rcd13ifvqc1g","pricing_plan_id":"free"},{"bike_id":"9e622039-a567-48e7-9e86-b7eaedceeb06","system_id":"levelo_inurba_marseille","lat":43.297163,"lon":5.365866,"is_reserved":false,"is_disabled":false,"rental_uris":{"android":"levelo://app?vid=9e622039-a567-48e7-9e86-b7eaedceeb06","ios":"levelo://app?vid=9e622039-a567-48e7-9e86-b7eaedceeb06"},"vehicle_type_id":"4","last_reported":1706807181,"current_range_meters":20800,"station_id":"ce4bgn12rcd13ifvqbt0","pricing_plan_id":"free"},{"bike_id":"5666e841-21b0-461f-b928-4ced455b98e9","system_id":"levelo_inurba_marseille","lat":43.297794,"lon":5.370888,"is_reserved":false,"is_disabled":false,"rental_uris":{"android":"levelo://app?vid=5666e841-21b0-461f-b928-4ced455b98e9","ios":"levelo://app?vid=5666e841-21b0-461f-b928-4ced455b98e9"},"vehicle_type_id":"4","last_reported":1706807181,"current_range_meters":23200,"station_id":"ce4bgop2rcd13ifvqc1g","pricing_plan_id":"free"},{"bike_id":"b069e964-d710-4a2f-993a-1ab0b01ca06a","system_id":"levelo_inurba_marseille","lat":43.322872,"lon":5.382756,"is_reserved":false,"is_disabled":false,"rental_uris":{"android":"levelo://app?vid=b069e964-d710-4a2f-993a-1ab0b01ca06a","ios":"levelo://app?vid=b069e964-d710-4a2f-993a-1ab0b01ca06a"},"vehicle_type_id":"4","last_reported":1706807181,"current_range_meters":3600,"station_id":"ce4bhr12rcd13ifvqhqg","pricing_plan_id":"free"},{"bike_id":"6268e9ea-d457-41cb-b090-f7f91ef35cfb","system_id":"levelo_inurba_marseille","lat":43.322872,"lon":5.382756,"is_reserved":false,"is_disabled":false,"rental_uris":{"android":"levelo://app?vid=6268e9ea-d457-41cb-b090-f7f91ef35cfb","ios":"levelo://app?vid=6268e9ea-d457-41cb-b090-f7f91ef35cfb"},"vehicle_type_id":"4","last_reported":1706807181,"current_range_meters":31200,"station_id":"ce4bhr12rcd13ifvqhqg","pricing_plan_id":"free"},{"bike_id":"04133053-7e22-49fe-9a8e-cfae27a54d05","system_id":"levelo_inurba_marseille","lat":43.322872,"lon":5.382756,"is_reserved":false,"is_disabled":false,"rental_uris":{"android":"levelo://app?vid=04133053-7e22-49fe-9a8e-cfae27a54d05","ios":"levelo://app?vid=04133053-7e22-49fe-9a8e-cfae27a54d05"},"vehicle_type_id":"4","last_reported":1706807181,"current_range_meters":11200,"station_id":"ce4bhr12rcd13ifvqhqg","pricing_plan_id":"free"},{"bike_id":"9781ebb3-155f-4467-bcb9-a79d2aadab6e","system_id":"levelo_inurba_marseille","lat":43.322872,"lon":5.382756,"is_reserved":false,"is_disabled":false,"rental_uris":{"android":"levelo://app?vid=9781ebb3-155f-4467-bcb9-a79d2aadab6e","ios":"levelo://app?vid=9781ebb3-155f-4467-bcb9-a79d2aadab6e"},"vehicle_type_id":"4","last_reported":1706807181,"current_range_meters":4400,"station_id":"ce4bhr12rcd13ifvqhqg","pricing_plan_id":"free"},{"bike_id":"2f814de7-ab89-4e81-bd56-ab00af80498f","system_id":"levelo_inurba_marseille","lat":43.322872,"lon":5.382756,"is_reserved":false,"is_disabled":false,"rental_uris":{"android":"levelo://app?vid=2f814de7-ab89-4e81-bd56-ab00af80498f","ios":"levelo://app?vid=2f814de7-ab89-4e81-bd56-ab00af80498f"},"vehicle_type_id":"4","last_reported":1706807181,"current_range_meters":18800,"station_id":"ce4bhr12rcd13ifvqhqg","pricing_plan_id":"free"},{"bike_id":"54d2e451-9cd4-400a-bfa8-eb46cefbc970","system_id":"levelo_inurba_marseille","lat":43.328371,"lon":5.366909,"is_reserved":false,"is_disabled":false,"rental_uris":{"android":"levelo://app?vid=54d2e451-9cd4-400a-bfa8-eb46cefbc970","ios":"levelo://app?vid=54d2e451-9cd4-400a-bfa8-eb46cefbc970"},"vehicle_type_id":"4","last_reported":1706807181,"current_range_meters":0,"station_id":"ce4bhs92rcd13ifvqi0g","pricing_plan_id":"free"},{"bike_id":"cad31dd1-c005-411a-ae84-8160061fa2cf","system_id":"levelo_inurba_marseille","lat":43.297163,"lon":5.365866,"is_reserved":false,"is_disabled":false,"rental_uris":{"android":"levelo://app?vid=cad31dd1-c005-411a-ae84-8160061fa2cf","ios":"levelo://app?vid=cad31dd1-c005-411a-ae84-8160061fa2cf"},"vehicle_type_id":"4","last_reported":1706807181,"current_range_meters":24000,"station_id":"ce4bgn12rcd13ifvqbt0","pricing_plan_id":"free"},{"bike_id":"c9532b94-de17-472c-9517-0e7f44fcca60","system_id":"levelo_inurba_marseille","lat":43.297163,"lon":5.365866,"is_reserved":false,"is_disabled":false,"rental_uris":{"android":"levelo://app?vid=c9532b94-de17-472c-9517-0e7f44fcca60","ios":"levelo://app?vid=c9532b94-de17-472c-9517-0e7f44fcca60"},"vehicle_type_id":"4","last_reported":1706807181,"current_range_meters":22400,"station_id":"ce4bgn12rcd13ifvqbt0","pricing_plan_id":"free"},{"bike_id":"9f123490-797c-48bf-b0fe-6381975956a5","system_id":"levelo_inurba_marseille","lat":43.31751,"lon":5.38907,"is_reserved":false,"is_disabled":false,"rental_uris":{"android":"levelo://app?vid=9f123490-797c-48bf-b0fe-6381975956a5","ios":"levelo://app?vid=9f123490-797c-48bf-b0fe-6381975956a5"},"vehicle_type_id":"4","last_reported":1706807181,"current_range_meters":23200,"station_id":"","pricing_plan_id":"free"},{"bike_id":"62f24234-b45c-456f-a110-352edadb4879","system_id":"levelo_inurba_marseille","lat":43.2959,"lon":5.36739,"is_reserved":false,"is_disabled":false,"rental_uris":{"android":"levelo://app?vid=62f24234-b45c-456f-a110-352edadb4879","ios":"levelo://app?vid=62f24234-b45c-456f-a110-352edadb4879"},"vehicle_type_id":"4","last_reported":1706807181,"current_range_meters":25200,"station_id":"ce4bgph2rcd13ifvqc2g","pricing_plan_id":"free"},{"bike_id":"5d938b0e-19e4-4f64-b3df-c6f722a9bd83","system_id":"levelo_inurba_marseille","lat":43.296131,"lon":5.370773,"is_reserved":false,"is_disabled":false,"rental_uris":{"android":"levelo://app?vid=5d938b0e-19e4-4f64-b3df-c6f722a9bd83","ios":"levelo://app?vid=5d938b0e-19e4-4f64-b3df-c6f722a9bd83"},"vehicle_type_id":"4","last_reported":1706807181,"current_range_meters":6400,"station_id":"ce4bgnh2rcd13ifvqc0g","pricing_plan_id":"free"},{"bike_id":"5b46968d-d1ed-4159-91fe-1f7e078c653f","system_id":"levelo_inurba_marseille","lat":43.29573,"lon":5.367355,"is_reserved":false,"is_disabled":false,"rental_uris":{"android":"levelo://app?vid=5b46968d-d1ed-4159-91fe-1f7e078c653f","ios":"levelo://app?vid=5b46968d-d1ed-4159-91fe-1f7e078c653f"},"vehicle_type_id":"4","last_reported":1706807181,"current_range_meters":29600,"station_id":"ce4bgph2rcd13ifvqc2g","pricing_plan_id":"free"},{"bike_id":"8e8d5e09-fbcd-42ba-971e-4812e2d543b1","system_id":"levelo_inurba_marseille","lat":43.29582,"lon":5.36739,"is_reserved":false,"is_disabled":false,"rental_uris":{"android":"levelo://app?vid=8e8d5e09-fbcd-42ba-971e-4812e2d543b1","ios":"levelo://app?vid=8e8d5e09-fbcd-42ba-971e-4812e2d543b1"},"vehicle_type_id":"4","last_reported":1706807181,"current_range_meters":21200,"station_id":"ce4bgph2rcd13ifvqc2g","pricing_plan_id":"free"},{"bike_id":"1081948a-aca7-4a45-bb87-7d33f10d1fef","system_id":"levelo_inurba_marseille","lat":43.29573,"lon":5.367355,"is_reserved":false,"is_disabled":false,"rental_uris":{"android":"levelo://app?vid=1081948a-aca7-4a45-bb87-7d33f10d1fef","ios":"levelo://app?vid=1081948a-aca7-4a45-bb87-7d33f10d1fef"},"vehicle_type_id":"4","last_reported":1706807181,"current_range_meters":12800,"station_id":"ce4bgph2rcd13ifvqc2g","pricing_plan_id":"free"},{"bike_id":"05ebd974-138f-4123-bd17-ccb592b0c3c9","system_id":"levelo_inurba_marseille","lat":43.29573,"lon":5.367355,"is_reserved":false,"is_disabled":false,"rental_uris":{"android":"levelo://app?vid=05ebd974-138f-4123-bd17-ccb592b0c3c9","ios":"levelo://app?vid=05ebd974-138f-4123-bd17-ccb592b0c3c9"},"vehicle_type_id":"4","last_reported":1706807181,"current_range_meters":25200,"station_id":"ce4bgph2rcd13ifvqc2g","pricing_plan_id":"free"},{"bike_id":"42f67cbc-c496-433f-b93b-18add868d5a7","system_id":"levelo_inurba_marseille","lat":43.309589,"lon":5.390258,"is_reserved":false,"is_disabled":false,"rental_uris":{"android":"levelo://app?vid=42f67cbc-c496-433f-b93b-18add868d5a7","ios":"levelo://app?vid=42f67cbc-c496-433f-b93b-18add868d5a7"},"vehicle_type_id":"4","last_reported":1706807181,"current_range_meters":14800,"station_id":"ce4bgup2rcd13ifvqco0","pricing_plan_id":"free"},{"bike_id":"b4b16144-62c4-466d-a1bc-60ceadfcc9a6","system_id":"levelo_inurba_marseille","lat":43.31758,"lon":5.39012,"is_reserved":false,"is_disabled":false,"rental_uris":{"android":"levelo://app?vid=b4b16144-62c4-466d-a1bc-60ceadfcc9a6","ios":"levelo://app?vid=b4b16144-62c4-466d-a1bc-60ceadfcc9a6"},"vehicle_type_id":"4","last_reported":1706807181,"current_range_meters":11600,"station_id":"ce4bhqp2rcd13ifvqhng","pricing_plan_id":"free"},{"bike_id":"d668860e-8226-4a8b-a34b-259bd06b0961","system_id":"levelo_inurba_marseille","lat":43.317557,"lon":5.390173,"is_reserved":false,"is_disabled":false,"rental_uris":{"android":"levelo://app?vid=d668860e-8226-4a8b-a34b-259bd06b0961","ios":"levelo://app?vid=d668860e-8226-4a8b-a34b-259bd06b0961"},"vehicle_type_id":"4","last_reported":1706807181,"current_range_meters":8400,"station_id":"ce4bhqp2rcd13ifvqhng","pricing_plan_id":"free"},{"bike_id":"0a9bdc0c-b4f5-4572-96b0-e9b5b23142de","system_id":"levelo_inurba_marseille","lat":43.304274,"lon":5.388873,"is_reserved":false,"is_disabled":false,"rental_uris":{"android":"levelo://app?vid=0a9bdc0c-b4f5-4572-96b0-e9b5b23142de","ios":"levelo://app?vid=0a9bdc0c-b4f5-4572-96b0-e9b5b23142de"},"vehicle_type_id":"4","last_reported":1706807181,"current_range_meters":2400,"station_id":"ce4bgk12rcd13ifvqbi0","pricing_plan_id":"free"},{"bike_id":"7aa894ea-12b9-4e2f-a1c6-bddcc3c32126","system_id":"levelo_inurba_marseille","lat":43.29576,"lon":5.37506,"is_reserved":false,"is_disabled":false,"rental_uris":{"android":"levelo://app?vid=7aa894ea-12b9-4e2f-a1c6-bddcc3c32126","ios":"levelo://app?vid=7aa894ea-12b9-4e2f-a1c6-bddcc3c32126"},"vehicle_type_id":"4","last_reported":1706807181,"current_range_meters":14000,"station_id":"ce4bgh92rcd13ifvqb50","pricing_plan_id":"free"},{"bike_id":"8057e144-ed75-42ca-bd27-fd0357601bcb","system_id":"levelo_inurba_marseille","lat":43.30435,"lon":5.388888,"is_reserved":false,"is_disabled":false,"rental_uris":{"android":"levelo://app?vid=8057e144-ed75-42ca-bd27-fd0357601bcb","ios":"levelo://app?vid=8057e144-ed75-42ca-bd27-fd0357601bcb"},"vehicle_type_id":"4","last_reported":1706807181,"current_range_meters":3600,"station_id":"ce4bgk12rcd13ifvqbi0","pricing_plan_id":"free"},{"bike_id":"22b8467a-10ec-4829-855b-d8920b4fe42a","system_id":"levelo_inurba_marseille","lat":43.295748,"lon":5.37522,"is_reserved":false,"is_disabled":false,"rental_uris":{"android":"levelo://app?vid=22b8467a-10ec-4829-855b-d8920b4fe42a","ios":"levelo://app?vid=22b8467a-10ec-4829-855b-d8920b4fe42a"},"vehicle_type_id":"4","last_reported":1706807181,"current_range_meters":6000,"station_id":"ce4bgh92rcd13ifvqb50","pricing_plan_id":"free"},{"bike_id":"018f60c9-d416-46c4-aa26-a77d7ccde8ff","system_id":"levelo_inurba_marseille","lat":43.30436,"lon":5.38893,"is_reserved":false,"is_disabled":false,"rental_uris":{"android":"levelo://app?vid=018f60c9-d416-46c4-aa26-a77d7ccde8ff","ios":"levelo://app?vid=018f60c9-d416-46c4-aa26-a77d7ccde8ff"},"vehicle_type_id":"4","last_reported":1706807181,"current_range_meters":2800,"station_id":"ce4bgk12rcd13ifvqbi0","pricing_plan_id":"free"},{"bike_id":"a15c307b-8d53-42a2-971c-8da0187900c3","system_id":"levelo_inurba_marseille","lat":43.3044,"lon":5.38897,"is_reserved":false,"is_disabled":false,"rental_uris":{"android":"levelo://app?vid=a15c307b-8d53-42a2-971c-8da0187900c3","ios":"levelo://app?vid=a15c307b-8d53-42a2-971c-8da0187900c3"},"vehicle_type_id":"4","last_reported":1706807181,"current_range_meters":400,"station_id":"ce4bgk12rcd13ifvqbi0","pricing_plan_id":"free"},{"bike_id":"6650a9b9-6df2-4673-8a29-6441201f3a66","system_id":"levelo_inurba_marseille","lat":43.295748,"lon":5.37522,"is_reserved":false,"is_disabled":false,"rental_uris":{"android":"levelo://app?vid=6650a9b9-6df2-4673-8a29-6441201f3a66","ios":"levelo://app?vid=6650a9b9-6df2-4673-8a29-6441201f3a66"},"vehicle_type_id":"4","last_reported":1706807181,"current_range_meters":0,"station_id":"ce4bgh92rcd13ifvqb50","pricing_plan_id":"free"},{"bike_id":"bed7e751-ad26-4573-8e18-0e225c7292bc","system_id":"levelo_inurba_marseille","lat":43.296277,"lon":5.377108,"is_reserved":false,"is_disabled":false,"rental_uris":{"android":"levelo://app?vid=bed7e751-ad26-4573-8e18-0e225c7292bc","ios":"levelo://app?vid=bed7e751-ad26-4573-8e18-0e225c7292bc"},"vehicle_type_id":"4","last_reported":1706807181,"current_range_meters":6800,"station_id":"ce4bgi92rcd13ifvqb90","pricing_plan_id":"free"},{"bike_id":"4954b3ce-8568-4631-9dd9-bd9a219e8bb4","system_id":"levelo_inurba_marseille","lat":43.304274,"lon":5.388873,"is_reserved":false,"is_disabled":false,"rental_uris":{"android":"levelo://app?vid=4954b3ce-8568-4631-9dd9-bd9a219e8bb4","ios":"levelo://app?vid=4954b3ce-8568-4631-9dd9-bd9a219e8bb4"},"vehicle_type_id":"4","last_reported":1706807181,"current_range_meters":6400,"station_id":"ce4bgk12rcd13ifvqbi0","pricing_plan_id":"free"},{"bike_id":"7a74c030-cae7-46ce-9925-3c034fa51af1","system_id":"levelo_inurba_marseille","lat":43.304274,"lon":5.388873,"is_reserved":false,"is_disabled":false,"rental_uris":{"android":"levelo://app?vid=7a74c030-cae7-46ce-9925-3c034fa51af1","ios":"levelo://app?vid=7a74c030-cae7-46ce-9925-3c034fa51af1"},"vehicle_type_id":"4","last_reported":1706807181,"current_range_meters":15200,"station_id":"ce4bgk12rcd13ifvqbi0","pricing_plan_id":"free"},{"bike_id":"17492169-054e-4fb8-a918-0544253fe003","system_id":"levelo_inurba_marseille","lat":43.304278,"lon":5.388868,"is_reserved":false,"is_disabled":false,"rental_uris":{"android":"levelo://app?vid=17492169-054e-4fb8-a918-0544253fe003","ios":"levelo://app?vid=17492169-054e-4fb8-a918-0544253fe003"},"vehicle_type_id":"4","last_reported":1706807181,"current_range_meters":28400,"station_id":"ce4bgk12rcd13ifvqbi0","pricing_plan_id":"free"},{"bike_id":"94885c29-5126-414f-90c6-2d8cadaa6ea0","system_id":"levelo_inurba_marseille","lat":43.296263,"lon":5.377094,"is_reserved":false,"is_disabled":false,"rental_uris":{"android":"levelo://app?vid=94885c29-5126-414f-90c6-2d8cadaa6ea0","ios":"levelo://app?vid=94885c29-5126-414f-90c6-2d8cadaa6ea0"},"vehicle_type_id":"4","last_reported":1706807181,"current_range_meters":28800,"station_id":"ce4bgi92rcd13ifvqb90","pricing_plan_id":"free"},{"bike_id":"90aed28c-936e-4e8d-aa09-c4a04b9cb4c2","system_id":"levelo_inurba_marseille","lat":43.29977,"lon":5.38494,"is_reserved":false,"is_disabled":false,"rental_uris":{"android":"levelo://app?vid=90aed28c-936e-4e8d-aa09-c4a04b9cb4c2","ios":"levelo://app?vid=90aed28c-936e-4e8d-aa09-c4a04b9cb4c2"},"vehicle_type_id":"4","last_reported":1706807181,"current_range_meters":0,"station_id":"ce4bgj92rcd13ifvqbd0","pricing_plan_id":"free"},{"bike_id":"6a230e3e-b5be-411b-9aa2-e2dba140bb31","system_id":"levelo_inurba_marseille","lat":43.299717,"lon":5.384845,"is_reserved":false,"is_disabled":false,"rental_uris":{"android":"levelo://app?vid=6a230e3e-b5be-411b-9aa2-e2dba140bb31","ios":"levelo://app?vid=6a230e3e-b5be-411b-9aa2-e2dba140bb31"},"vehicle_type_id":"4","last_reported":1706807181,"current_range_meters":16000,"station_id":"ce4bgj92rcd13ifvqbd0","pricing_plan_id":"free"},{"bike_id":"b94d60d5-edee-4eb1-8625-8ce7bd75ef3c","system_id":"levelo_inurba_marseille","lat":43.299717,"lon":5.384845,"is_reserved":false,"is_disabled":false,"rental_uris":{"android":"levelo://app?vid=b94d60d5-edee-4eb1-8625-8ce7bd75ef3c","ios":"levelo://app?vid=b94d60d5-edee-4eb1-8625-8ce7bd75ef3c"},"vehicle_type_id":"4","last_reported":1706807181,"current_range_meters":6800,"station_id":"ce4bgj92rcd13ifvqbd0","pricing_plan_id":"free"},{"bike_id":"864644c4-dbeb-4af7-bd0f-2a9126b2c3f1","system_id":"levelo_inurba_marseille","lat":43.299717,"lon":5.384845,"is_reserved":false,"is_disabled":false,"rental_uris":{"android":"levelo://app?vid=864644c4-dbeb-4af7-bd0f-2a9126b2c3f1","ios":"levelo://app?vid=864644c4-dbeb-4af7-bd0f-2a9126b2c3f1"},"vehicle_type_id":"4","last_reported":1706807181,"current_range_meters":16800,"station_id":"ce4bgj92rcd13ifvqbd0","pricing_plan_id":"free"},{"bike_id":"d07cfa7c-b3f3-41a4-8454-2b2fe9e17d4a","system_id":"levelo_inurba_marseille","lat":43.295279,"lon":5.375048,"is_reserved":false,"is_disabled":false,"rental_uris":{"android":"levelo://app?vid=d07cfa7c-b3f3-41a4-8454-2b2fe9e17d4a","ios":"levelo://app?vid=d07cfa7c-b3f3-41a4-8454-2b2fe9e17d4a"},"vehicle_type_id":"4","last_reported":1706807181,"current_range_meters":21600,"station_id":"ce4bgkp2rcd13ifvqbmg","pricing_plan_id":"free"},{"bike_id":"d92775b3-cfb5-48d6-8d7e-9bfde61b330b","system_id":"levelo_inurba_marseille","lat":43.32367,"lon":5.388836,"is_reserved":false,"is_disabled":false,"rental_uris":{"android":"levelo://app?vid=d92775b3-cfb5-48d6-8d7e-9bfde61b330b","ios":"levelo://app?vid=d92775b3-cfb5-48d6-8d7e-9bfde61b330b"},"vehicle_type_id":"4","last_reported":1706807181,"current_range_meters":14800,"station_id":"ce4bhqp2rcd13ifvqhog","pricing_plan_id":"free"},{"bike_id":"202df9dd-3b20-4310-9dde-7a88eca4db2d","system_id":"levelo_inurba_marseille","lat":43.3237,"lon":5.38874,"is_reserved":false,"is_disabled":false,"rental_uris":{"android":"levelo://app?vid=202df9dd-3b20-4310-9dde-7a88eca4db2d","ios":"levelo://app?vid=202df9dd-3b20-4310-9dde-7a88eca4db2d"},"vehicle_type_id":"4","last_reported":1706807181,"current_range_meters":4000,"station_id":"ce4bhqp2rcd13ifvqhog","pricing_plan_id":"free"},{"bike_id":"d009c173-18e7-4c88-8314-cb6a2d390b71","system_id":"levelo_inurba_marseille","lat":43.32367,"lon":5.388836,"is_reserved":false,"is_disabled":false,"rental_uris":{"android":"levelo://app?vid=d009c173-18e7-4c88-8314-cb6a2d390b71","ios":"levelo://app?vid=d009c173-18e7-4c88-8314-cb6a2d390b71"},"vehicle_type_id":"4","last_reported":1706807181,"current_range_meters":20800,"station_id":"ce4bhqp2rcd13ifvqhog","pricing_plan_id":"free"},{"bike_id":"7ab581a0-3933-4376-b965-8072a9b2dd64","system_id":"levelo_inurba_marseille","lat":43.32367,"lon":5.388836,"is_reserved":false,"is_disabled":false,"rental_uris":{"android":"levelo://app?vid=7ab581a0-3933-4376-b965-8072a9b2dd64","ios":"levelo://app?vid=7ab581a0-3933-4376-b965-8072a9b2dd64"},"vehicle_type_id":"4","last_reported":1706807181,"current_range_meters":4400,"station_id":"ce4bhqp2rcd13ifvqhog","pricing_plan_id":"free"},{"bike_id":"5118de90-c727-4c12-bf98-99f5b63d7830","system_id":"levelo_inurba_marseille","lat":43.32367,"lon":5.388836,"is_reserved":false,"is_disabled":false,"rental_uris":{"android":"levelo://app?vid=5118de90-c727-4c12-bf98-99f5b63d7830","ios":"levelo://app?vid=5118de90-c727-4c12-bf98-99f5b63d7830"},"vehicle_type_id":"4","last_reported":1706807181,"current_range_meters":5600,"station_id":"ce4bhqp2rcd13ifvqhog","pricing_plan_id":"free"},{"bike_id":"ba6df169-e42e-41e1-9099-8133b958ca2c","system_id":"levelo_inurba_marseille","lat":43.32367,"lon":5.388836,"is_reserved":false,"is_disabled":false,"rental_uris":{"android":"levelo://app?vid=ba6df169-e42e-41e1-9099-8133b958ca2c","ios":"levelo://app?vid=ba6df169-e42e-41e1-9099-8133b958ca2c"},"vehicle_type_id":"4","last_reported":1706807181,"current_range_meters":5600,"station_id":"ce4bhqp2rcd13ifvqhog","pricing_plan_id":"free"},{"bike_id":"efa6bd51-c94f-4107-9e97-437d3697b8cb","system_id":"levelo_inurba_marseille","lat":43.32367,"lon":5.388836,"is_reserved":false,"is_disabled":false,"rental_uris":{"android":"levelo://app?vid=efa6bd51-c94f-4107-9e97-437d3697b8cb","ios":"levelo://app?vid=efa6bd51-c94f-4107-9e97-437d3697b8cb"},"vehicle_type_id":"4","last_reported":1706807181,"current_range_meters":6000,"station_id":"ce4bhqp2rcd13ifvqhog","pricing_plan_id":"free"},{"bike_id":"8a95fa2d-22e9-49e9-b83e-c425ecfb1916","system_id":"levelo_inurba_marseille","lat":43.32372,"lon":5.3889,"is_reserved":false,"is_disabled":false,"rental_uris":{"android":"levelo://app?vid=8a95fa2d-22e9-49e9-b83e-c425ecfb1916","ios":"levelo://app?vid=8a95fa2d-22e9-49e9-b83e-c425ecfb1916"},"vehicle_type_id":"4","last_reported":1706807181,"current_range_meters":26800,"station_id":"ce4bhqp2rcd13ifvqhog","pricing_plan_id":"free"},{"bike_id":"78e54708-26d6-4641-ba3a-56fab91b7e0e","system_id":"levelo_inurba_marseille","lat":43.29598,"lon":5.38093,"is_reserved":false,"is_disabled":false,"rental_uris":{"android":"levelo://app?vid=78e54708-26d6-4641-ba3a-56fab91b7e0e","ios":"levelo://app?vid=78e54708-26d6-4641-ba3a-56fab91b7e0e"},"vehicle_type_id":"4","last_reported":1706807181,"current_range_meters":0,"station_id":"ce4bgl12rcd13ifvqbo0","pricing_plan_id":"free"},{"bike_id":"177ea09b-9673-4707-9f68-5a88ef4d732b","system_id":"levelo_inurba_marseille","lat":43.29602,"lon":5.381084,"is_reserved":false,"is_disabled":false,"rental_uris":{"android":"levelo://app?vid=177ea09b-9673-4707-9f68-5a88ef4d732b","ios":"levelo://app?vid=177ea09b-9673-4707-9f68-5a88ef4d732b"},"vehicle_type_id":"4","last_reported":1706807181,"current_range_meters":18800,"station_id":"ce4bgl12rcd13ifvqbo0","pricing_plan_id":"free"},{"bike_id":"c59504d5-cf32-4f81-bc83-b935aa09587c","system_id":"levelo_inurba_marseille","lat":43.292749,"lon":5.368402,"is_reserved":false,"is_disabled":false,"rental_uris":{"android":"levelo://app?vid=c59504d5-cf32-4f81-bc83-b935aa09587c","ios":"levelo://app?vid=c59504d5-cf32-4f81-bc83-b935aa09587c"},"vehicle_type_id":"4","last_reported":1706807181,"current_range_meters":20800,"station_id":"ce4bhbp2rcd13ifvqesg","pricing_plan_id":"free"},{"bike_id":"1cf7baf7-2ba9-4370-9fdf-38b0b26be618","system_id":"levelo_inurba_marseille","lat":43.293259,"lon":5.371586,"is_reserved":false,"is_disabled":false,"rental_uris":{"android":"levelo://app?vid=1cf7baf7-2ba9-4370-9fdf-38b0b26be618","ios":"levelo://app?vid=1cf7baf7-2ba9-4370-9fdf-38b0b26be618"},"vehicle_type_id":"4","last_reported":1706807181,"current_range_meters":3600,"station_id":"ce4bgh92rcd13ifvqb40","pricing_plan_id":"free"},{"bike_id":"16673377-dbac-4c67-ad0c-c893195d6aa2","system_id":"levelo_inurba_marseille","lat":43.293009,"lon":5.374584,"is_reserved":false,"is_disabled":false,"rental_uris":{"android":"levelo://app?vid=16673377-dbac-4c67-ad0c-c893195d6aa2","ios":"levelo://app?vid=16673377-dbac-4c67-ad0c-c893195d6aa2"},"vehicle_type_id":"4","last_reported":1706807181,"current_range_meters":26000,"station_id":"ce4bgi12rcd13ifvqb70","pricing_plan_id":"free"},{"bike_id":"08c486ca-efbc-4fce-97cb-f05bcb5f613a","system_id":"levelo_inurba_marseille","lat":43.293009,"lon":5.374584,"is_reserved":false,"is_disabled":false,"rental_uris":{"android":"levelo://app?vid=08c486ca-efbc-4fce-97cb-f05bcb5f613a","ios":"levelo://app?vid=08c486ca-efbc-4fce-97cb-f05bcb5f613a"},"vehicle_type_id":"4","last_reported":1706807181,"current_range_meters":4000,"station_id":"ce4bgi12rcd13ifvqb70","pricing_plan_id":"free"},{"bike_id":"fe3a4d7d-f8e6-4517-a960-ec4b15c196c0","system_id":"levelo_inurba_marseille","lat":43.305994,"lon":5.393687,"is_reserved":false,"is_disabled":false,"rental_uris":{"android":"levelo://app?vid=fe3a4d7d-f8e6-4517-a960-ec4b15c196c0","ios":"levelo://app?vid=fe3a4d7d-f8e6-4517-a960-ec4b15c196c0"},"vehicle_type_id":"4","last_reported":1706807181,"current_range_meters":23200,"station_id":"ce4bh0p2rcd13ifvqd80","pricing_plan_id":"free"},{"bike_id":"55a53d7e-5a53-4361-8a4f-a829958fdb93","system_id":"levelo_inurba_marseille","lat":43.302992,"lon":5.392136,"is_reserved":false,"is_disabled":false,"rental_uris":{"android":"levelo://app?vid=55a53d7e-5a53-4361-8a4f-a829958fdb93","ios":"levelo://app?vid=55a53d7e-5a53-4361-8a4f-a829958fdb93"},"vehicle_type_id":"4","last_reported":1706807181,"current_range_meters":5600,"station_id":"ce4bgkh2rcd13ifvqbk0","pricing_plan_id":"free"},{"bike_id":"b6120583-d72b-478d-98c4-af37a3e8040e","system_id":"levelo_inurba_marseille","lat":43.303002,"lon":5.392142,"is_reserved":false,"is_disabled":false,"rental_uris":{"android":"levelo://app?vid=b6120583-d72b-478d-98c4-af37a3e8040e","ios":"levelo://app?vid=b6120583-d72b-478d-98c4-af37a3e8040e"},"vehicle_type_id":"4","last_reported":1706807181,"current_range_meters":10400,"station_id":"ce4bgkh2rcd13ifvqbk0","pricing_plan_id":"free"},{"bike_id":"3237cf3a-9b76-4e67-ba28-c869218881fa","system_id":"levelo_inurba_marseille","lat":43.303002,"lon":5.392142,"is_reserved":false,"is_disabled":false,"rental_uris":{"android":"levelo://app?vid=3237cf3a-9b76-4e67-ba28-c869218881fa","ios":"levelo://app?vid=3237cf3a-9b76-4e67-ba28-c869218881fa"},"vehicle_type_id":"4","last_reported":1706807181,"current_range_meters":6400,"station_id":"ce4bgkh2rcd13ifvqbk0","pricing_plan_id":"free"},{"bike_id":"a8575942-db5e-4ea1-abef-1b546ab2c846","system_id":"levelo_inurba_marseille","lat":43.302992,"lon":5.392136,"is_reserved":false,"is_disabled":false,"rental_uris":{"android":"levelo://app?vid=a8575942-db5e-4ea1-abef-1b546ab2c846","ios":"levelo://app?vid=a8575942-db5e-4ea1-abef-1b546ab2c846"},"vehicle_type_id":"4","last_reported":1706807181,"current_range_meters":0,"station_id":"ce4bgkh2rcd13ifvqbk0","pricing_plan_id":"free"},{"bike_id":"6f6c6f15-436a-4cbd-b2e0-a28b15f09fe6","system_id":"levelo_inurba_marseille","lat":43.302992,"lon":5.392136,"is_reserved":false,"is_disabled":false,"rental_uris":{"android":"levelo://app?vid=6f6c6f15-436a-4cbd-b2e0-a28b15f09fe6","ios":"levelo://app?vid=6f6c6f15-436a-4cbd-b2e0-a28b15f09fe6"},"vehicle_type_id":"4","last_reported":1706807181,"current_range_meters":1200,"station_id":"ce4bgkh2rcd13ifvqbk0","pricing_plan_id":"free"},{"bike_id":"dbb7c1d2-caaa-4f75-ab7a-b1e2119ee4f1","system_id":"levelo_inurba_marseille","lat":43.2936,"lon":5.37835,"is_reserved":false,"is_disabled":false,"rental_uris":{"android":"levelo://app?vid=dbb7c1d2-caaa-4f75-ab7a-b1e2119ee4f1","ios":"levelo://app?vid=dbb7c1d2-caaa-4f75-ab7a-b1e2119ee4f1"},"vehicle_type_id":"4","last_reported":1706807181,"current_range_meters":0,"station_id":"ce4bgjh2rcd13ifvqbf0","pricing_plan_id":"free"},{"bike_id":"5acc1e13-ae98-40bb-afaa-1a82c962844e","system_id":"levelo_inurba_marseille","lat":43.292311,"lon":5.360731,"is_reserved":false,"is_disabled":false,"rental_uris":{"android":"levelo://app?vid=5acc1e13-ae98-40bb-afaa-1a82c962844e","ios":"levelo://app?vid=5acc1e13-ae98-40bb-afaa-1a82c962844e"},"vehicle_type_id":"4","last_reported":1706807181,"current_range_meters":19600,"station_id":"ce4bhbh2rcd13ifvqeqg","pricing_plan_id":"free"},{"bike_id":"c3d58110-431a-4697-9dda-2de5bdb2af30","system_id":"levelo_inurba_marseille","lat":43.30085,"lon":5.390856,"is_reserved":false,"is_disabled":false,"rental_uris":{"android":"levelo://app?vid=c3d58110-431a-4697-9dda-2de5bdb2af30","ios":"levelo://app?vid=c3d58110-431a-4697-9dda-2de5bdb2af30"},"vehicle_type_id":"4","last_reported":1706807181,"current_range_meters":31600,"station_id":"ce4bh192rcd13ifvqdb0","pricing_plan_id":"free"},{"bike_id":"1d708b4c-9f11-480d-81fc-a0f3e3aa6ca6","system_id":"levelo_inurba_marseille","lat":43.300852,"lon":5.390859,"is_reserved":false,"is_disabled":false,"rental_uris":{"android":"levelo://app?vid=1d708b4c-9f11-480d-81fc-a0f3e3aa6ca6","ios":"levelo://app?vid=1d708b4c-9f11-480d-81fc-a0f3e3aa6ca6"},"vehicle_type_id":"4","last_reported":1706807181,"current_range_meters":24000,"station_id":"ce4bh192rcd13ifvqdb0","pricing_plan_id":"free"},{"bike_id":"15d3a5cd-882c-4762-812f-2a779e3d6854","system_id":"levelo_inurba_marseille","lat":43.298764,"lon":5.388973,"is_reserved":false,"is_disabled":false,"rental_uris":{"android":"levelo://app?vid=15d3a5cd-882c-4762-812f-2a779e3d6854","ios":"levelo://app?vid=15d3a5cd-882c-4762-812f-2a779e3d6854"},"vehicle_type_id":"4","last_reported":1706807181,"current_range_meters":12800,"station_id":"ce4bh392rcd13ifvqdl0","pricing_plan_id":"free"},{"bike_id":"be266a5a-ab6e-47e3-ab84-992c1824493f","system_id":"levelo_inurba_marseille","lat":43.30085,"lon":5.390856,"is_reserved":false,"is_disabled":false,"rental_uris":{"android":"levelo://app?vid=be266a5a-ab6e-47e3-ab84-992c1824493f","ios":"levelo://app?vid=be266a5a-ab6e-47e3-ab84-992c1824493f"},"vehicle_type_id":"4","last_reported":1706807181,"current_range_meters":0,"station_id":"ce4bh192rcd13ifvqdb0","pricing_plan_id":"free"},{"bike_id":"fa7fd1a9-6603-449c-bb22-ec84c42f79c8","system_id":"levelo_inurba_marseille","lat":43.291675,"lon":5.371583,"is_reserved":false,"is_disabled":false,"rental_uris":{"android":"levelo://app?vid=fa7fd1a9-6603-449c-bb22-ec84c42f79c8","ios":"levelo://app?vid=fa7fd1a9-6603-449c-bb22-ec84c42f79c8"},"vehicle_type_id":"4","last_reported":1706807181,"current_range_meters":0,"station_id":"ce4bha92rcd13ifvqeh0","pricing_plan_id":"free"},{"bike_id":"4d956b21-c85b-4c4f-a53e-2b9a53a2846e","system_id":"levelo_inurba_marseille","lat":43.313291,"lon":5.396838,"is_reserved":false,"is_disabled":false,"rental_uris":{"android":"levelo://app?vid=4d956b21-c85b-4c4f-a53e-2b9a53a2846e","ios":"levelo://app?vid=4d956b21-c85b-4c4f-a53e-2b9a53a2846e"},"vehicle_type_id":"4","last_reported":1706807181,"current_range_meters":29600,"station_id":"ce4bgvp2rcd13ifvqcu0","pricing_plan_id":"free"},{"bike_id":"db277d39-6f15-4058-a9ab-7c8e1186c82d","system_id":"levelo_inurba_marseille","lat":43.291994,"lon":5.357886,"is_reserved":false,"is_disabled":false,"rental_uris":{"android":"levelo://app?vid=db277d39-6f15-4058-a9ab-7c8e1186c82d","ios":"levelo://app?vid=db277d39-6f15-4058-a9ab-7c8e1186c82d"},"vehicle_type_id":"4","last_reported":1706807181,"current_range_meters":0,"station_id":"ce4bhb12rcd13ifvqel0","pricing_plan_id":"free"},{"bike_id":"b1d1bead-6587-4367-ac12-ad3e8f4328a5","system_id":"levelo_inurba_marseille","lat":43.313291,"lon":5.396838,"is_reserved":false,"is_disabled":false,"rental_uris":{"android":"levelo://app?vid=b1d1bead-6587-4367-ac12-ad3e8f4328a5","ios":"levelo://app?vid=b1d1bead-6587-4367-ac12-ad3e8f4328a5"},"vehicle_type_id":"4","last_reported":1706807181,"current_range_meters":26800,"station_id":"ce4bgvp2rcd13ifvqcu0","pricing_plan_id":"free"},{"bike_id":"8b088d24-fdee-4ae3-8cae-0632cd87ee4a","system_id":"levelo_inurba_marseille","lat":43.313291,"lon":5.396838,"is_reserved":false,"is_disabled":false,"rental_uris":{"android":"levelo://app?vid=8b088d24-fdee-4ae3-8cae-0632cd87ee4a","ios":"levelo://app?vid=8b088d24-fdee-4ae3-8cae-0632cd87ee4a"},"vehicle_type_id":"4","last_reported":1706807181,"current_range_meters":5200,"station_id":"ce4bgvp2rcd13ifvqcu0","pricing_plan_id":"free"},{"bike_id":"67272d4c-5d0c-4edf-a12e-1790b8a03d98","system_id":"levelo_inurba_marseille","lat":43.31324,"lon":5.39693,"is_reserved":false,"is_disabled":false,"rental_uris":{"android":"levelo://app?vid=67272d4c-5d0c-4edf-a12e-1790b8a03d98","ios":"levelo://app?vid=67272d4c-5d0c-4edf-a12e-1790b8a03d98"},"vehicle_type_id":"4","last_reported":1706807181,"current_range_meters":16400,"station_id":"ce4bgvp2rcd13ifvqcu0","pricing_plan_id":"free"},{"bike_id":"e2498424-feb3-4de1-9f77-b8acbe73e942","system_id":"levelo_inurba_marseille","lat":43.313291,"lon":5.396838,"is_reserved":false,"is_disabled":false,"rental_uris":{"android":"levelo://app?vid=e2498424-feb3-4de1-9f77-b8acbe73e942","ios":"levelo://app?vid=e2498424-feb3-4de1-9f77-b8acbe73e942"},"vehicle_type_id":"4","last_reported":1706807181,"current_range_meters":22000,"station_id":"ce4bgvp2rcd13ifvqcu0","pricing_plan_id":"free"},{"bike_id":"c0bef592-dcef-4465-b4ae-1bcdcf794e02","system_id":"levelo_inurba_marseille","lat":43.309038,"lon":5.396546,"is_reserved":false,"is_disabled":false,"rental_uris":{"android":"levelo://app?vid=c0bef592-dcef-4465-b4ae-1bcdcf794e02","ios":"levelo://app?vid=c0bef592-dcef-4465-b4ae-1bcdcf794e02"},"vehicle_type_id":"4","last_reported":1706807181,"current_range_meters":2800,"station_id":"ce4bh012rcd13ifvqcv0","pricing_plan_id":"free"},{"bike_id":"728bcd1d-af57-4ef4-a1cc-79d85fd42b4b","system_id":"levelo_inurba_marseille","lat":43.309038,"lon":5.396546,"is_reserved":false,"is_disabled":false,"rental_uris":{"android":"levelo://app?vid=728bcd1d-af57-4ef4-a1cc-79d85fd42b4b","ios":"levelo://app?vid=728bcd1d-af57-4ef4-a1cc-79d85fd42b4b"},"vehicle_type_id":"4","last_reported":1706807181,"current_range_meters":11600,"station_id":"ce4bh012rcd13ifvqcv0","pricing_plan_id":"free"},{"bike_id":"568735f1-423c-4814-bfd4-8c22b997d5fd","system_id":"levelo_inurba_marseille","lat":43.29529,"lon":5.385581,"is_reserved":false,"is_disabled":false,"rental_uris":{"android":"levelo://app?vid=568735f1-423c-4814-bfd4-8c22b997d5fd","ios":"levelo://app?vid=568735f1-423c-4814-bfd4-8c22b997d5fd"},"vehicle_type_id":"4","last_reported":1706807181,"current_range_meters":18800,"station_id":"ce4bgih2rcd13ifvqba0","pricing_plan_id":"free"},{"bike_id":"2cb11c11-25b0-4848-9c24-d65f2f9b120f","system_id":"levelo_inurba_marseille","lat":43.29529,"lon":5.385581,"is_reserved":false,"is_disabled":false,"rental_uris":{"android":"levelo://app?vid=2cb11c11-25b0-4848-9c24-d65f2f9b120f","ios":"levelo://app?vid=2cb11c11-25b0-4848-9c24-d65f2f9b120f"},"vehicle_type_id":"4","last_reported":1706807181,"current_range_meters":14800,"station_id":"ce4bgih2rcd13ifvqba0","pricing_plan_id":"free"},{"bike_id":"89a547bb-7e7f-40fa-b2bf-78cf90e7768f","system_id":"levelo_inurba_marseille","lat":43.290779,"lon":5.371482,"is_reserved":false,"is_disabled":false,"rental_uris":{"android":"levelo://app?vid=89a547bb-7e7f-40fa-b2bf-78cf90e7768f","ios":"levelo://app?vid=89a547bb-7e7f-40fa-b2bf-78cf90e7768f"},"vehicle_type_id":"4","last_reported":1706807181,"current_range_meters":6400,"station_id":"ce4bh5p2rcd13ifvqe4g","pricing_plan_id":"free"},{"bike_id":"b9c1a853-f94a-4991-b9a1-4d11d7553bdc","system_id":"levelo_inurba_marseille","lat":43.290779,"lon":5.371482,"is_reserved":false,"is_disabled":false,"rental_uris":{"android":"levelo://app?vid=b9c1a853-f94a-4991-b9a1-4d11d7553bdc","ios":"levelo://app?vid=b9c1a853-f94a-4991-b9a1-4d11d7553bdc"},"vehicle_type_id":"4","last_reported":1706807181,"current_range_meters":14800,"station_id":"ce4bh5p2rcd13ifvqe4g","pricing_plan_id":"free"},{"bike_id":"4bf645b4-1ba3-4e4d-9230-90908ac39a0c","system_id":"levelo_inurba_marseille","lat":43.290631,"lon":5.359244,"is_reserved":false,"is_disabled":false,"rental_uris":{"android":"levelo://app?vid=4bf645b4-1ba3-4e4d-9230-90908ac39a0c","ios":"levelo://app?vid=4bf645b4-1ba3-4e4d-9230-90908ac39a0c"},"vehicle_type_id":"4","last_reported":1706807181,"current_range_meters":23200,"station_id":"ce4bha92rcd13ifvqeg0","pricing_plan_id":"free"},{"bike_id":"372211f7-386c-431c-be12-cfe5bb5fa164","system_id":"levelo_inurba_marseille","lat":43.302008,"lon":5.394694,"is_reserved":false,"is_disabled":false,"rental_uris":{"android":"levelo://app?vid=372211f7-386c-431c-be12-cfe5bb5fa164","ios":"levelo://app?vid=372211f7-386c-431c-be12-cfe5bb5fa164"},"vehicle_type_id":"4","last_reported":1706807181,"current_range_meters":2000,"station_id":"ce4bh0p2rcd13ifvqd70","pricing_plan_id":"free"},{"bike_id":"2c1e47ad-3478-424c-8c66-23a600b1f0dc","system_id":"levelo_inurba_marseille","lat":43.290441,"lon":5.359123,"is_reserved":false,"is_disabled":false,"rental_uris":{"android":"levelo://app?vid=2c1e47ad-3478-424c-8c66-23a600b1f0dc","ios":"levelo://app?vid=2c1e47ad-3478-424c-8c66-23a600b1f0dc"},"vehicle_type_id":"4","last_reported":1706807181,"current_range_meters":9600,"station_id":"","pricing_plan_id":"free"},{"bike_id":"60232c4c-ce09-484e-b893-8fd705611521","system_id":"levelo_inurba_marseille","lat":43.294153,"lon":5.386305,"is_reserved":false,"is_disabled":false,"rental_uris":{"android":"levelo://app?vid=60232c4c-ce09-484e-b893-8fd705611521","ios":"levelo://app?vid=60232c4c-ce09-484e-b893-8fd705611521"},"vehicle_type_id":"4","last_reported":1706807181,"current_range_meters":14000,"station_id":"ce4bh2h2rcd13ifvqdh0","pricing_plan_id":"free"},{"bike_id":"75bd7b30-5d78-429b-9f55-77078a8dd56a","system_id":"levelo_inurba_marseille","lat":43.28934,"lon":5.36633,"is_reserved":false,"is_disabled":false,"rental_uris":{"android":"levelo://app?vid=75bd7b30-5d78-429b-9f55-77078a8dd56a","ios":"levelo://app?vid=75bd7b30-5d78-429b-9f55-77078a8dd56a"},"vehicle_type_id":"4","last_reported":1706807181,"current_range_meters":0,"station_id":"ce4bhap2rcd13ifvqek0","pricing_plan_id":"free"},{"bike_id":"76ecb656-6624-4dc6-9b9d-415cae5acb39","system_id":"levelo_inurba_marseille","lat":43.292642,"lon":5.384254,"is_reserved":false,"is_disabled":false,"rental_uris":{"android":"levelo://app?vid=76ecb656-6624-4dc6-9b9d-415cae5acb39","ios":"levelo://app?vid=76ecb656-6624-4dc6-9b9d-415cae5acb39"},"vehicle_type_id":"4","last_reported":1706807181,"current_range_meters":19600,"station_id":"ce4bh692rcd13ifvqea0","pricing_plan_id":"free"},{"bike_id":"2f12ef4e-92f0-45c3-8d3f-38161ca29894","system_id":"levelo_inurba_marseille","lat":43.289405,"lon":5.363873,"is_reserved":false,"is_disabled":false,"rental_uris":{"android":"levelo://app?vid=2f12ef4e-92f0-45c3-8d3f-38161ca29894","ios":"levelo://app?vid=2f12ef4e-92f0-45c3-8d3f-38161ca29894"},"vehicle_type_id":"4","last_reported":1706807181,"current_range_meters":9600,"station_id":"ce4bhc92rcd13ifvqetg","pricing_plan_id":"free"},{"bike_id":"a90d8c3b-b633-458c-b602-78acabbbee05","system_id":"levelo_inurba_marseille","lat":43.2893,"lon":5.36634,"is_reserved":false,"is_disabled":false,"rental_uris":{"android":"levelo://app?vid=a90d8c3b-b633-458c-b602-78acabbbee05","ios":"levelo://app?vid=a90d8c3b-b633-458c-b602-78acabbbee05"},"vehicle_type_id":"4","last_reported":1706807181,"current_range_meters":0,"station_id":"ce4bhap2rcd13ifvqek0","pricing_plan_id":"free"},{"bike_id":"47ec84ee-3567-4fee-a876-0651a60bb1c0","system_id":"levelo_inurba_marseille","lat":43.289184,"lon":5.366408,"is_reserved":false,"is_disabled":false,"rental_uris":{"android":"levelo://app?vid=47ec84ee-3567-4fee-a876-0651a60bb1c0","ios":"levelo://app?vid=47ec84ee-3567-4fee-a876-0651a60bb1c0"},"vehicle_type_id":"4","last_reported":1706807181,"current_range_meters":5600,"station_id":"ce4bhap2rcd13ifvqek0","pricing_plan_id":"free"},{"bike_id":"5ead91d7-a895-4d25-8c42-4ad26fd30c94","system_id":"levelo_inurba_marseille","lat":43.304296,"lon":5.397513,"is_reserved":false,"is_disabled":false,"rental_uris":{"android":"levelo://app?vid=5ead91d7-a895-4d25-8c42-4ad26fd30c94","ios":"levelo://app?vid=5ead91d7-a895-4d25-8c42-4ad26fd30c94"},"vehicle_type_id":"4","last_reported":1706807181,"current_range_meters":15600,"station_id":"ce4bh092rcd13ifvqd20","pricing_plan_id":"free"},{"bike_id":"de6a7911-6761-4ef2-a1b8-62413831b9a7","system_id":"levelo_inurba_marseille","lat":43.292642,"lon":5.384254,"is_reserved":false,"is_disabled":false,"rental_uris":{"android":"levelo://app?vid=de6a7911-6761-4ef2-a1b8-62413831b9a7","ios":"levelo://app?vid=de6a7911-6761-4ef2-a1b8-62413831b9a7"},"vehicle_type_id":"4","last_reported":1706807181,"current_range_meters":15600,"station_id":"ce4bh692rcd13ifvqea0","pricing_plan_id":"free"},{"bike_id":"b3aa138d-e894-4b29-a745-be34e64185d5","system_id":"levelo_inurba_marseille","lat":43.292644,"lon":5.384257,"is_reserved":false,"is_disabled":false,"rental_uris":{"android":"levelo://app?vid=b3aa138d-e894-4b29-a745-be34e64185d5","ios":"levelo://app?vid=b3aa138d-e894-4b29-a745-be34e64185d5"},"vehicle_type_id":"4","last_reported":1706807181,"current_range_meters":13600,"station_id":"ce4bh692rcd13ifvqea0","pricing_plan_id":"free"},{"bike_id":"bd7f9ebf-f92f-44f9-8646-ee0175754984","system_id":"levelo_inurba_marseille","lat":43.290103,"lon":5.356114,"is_reserved":false,"is_disabled":false,"rental_uris":{"android":"levelo://app?vid=bd7f9ebf-f92f-44f9-8646-ee0175754984","ios":"levelo://app?vid=bd7f9ebf-f92f-44f9-8646-ee0175754984"},"vehicle_type_id":"4","last_reported":1706807181,"current_range_meters":26400,"station_id":"ce4bhb92rcd13ifvqen0","pricing_plan_id":"free"},{"bike_id":"02ff3efc-7288-47e9-800f-ec9dbfd393dd","system_id":"levelo_inurba_marseille","lat":43.290103,"lon":5.356114,"is_reserved":false,"is_disabled":false,"rental_uris":{"android":"levelo://app?vid=02ff3efc-7288-47e9-800f-ec9dbfd393dd","ios":"levelo://app?vid=02ff3efc-7288-47e9-800f-ec9dbfd393dd"},"vehicle_type_id":"4","last_reported":1706807181,"current_range_meters":18000,"station_id":"ce4bhb92rcd13ifvqen0","pricing_plan_id":"free"},{"bike_id":"86c5cfe6-4959-443d-8120-6d293728b00c","system_id":"levelo_inurba_marseille","lat":43.29003,"lon":5.35612,"is_reserved":false,"is_disabled":false,"rental_uris":{"android":"levelo://app?vid=86c5cfe6-4959-443d-8120-6d293728b00c","ios":"levelo://app?vid=86c5cfe6-4959-443d-8120-6d293728b00c"},"vehicle_type_id":"4","last_reported":1706807181,"current_range_meters":26000,"station_id":"ce4bhb92rcd13ifvqen0","pricing_plan_id":"free"},{"bike_id":"d6945950-455d-43fa-8e92-28059b11b975","system_id":"levelo_inurba_marseille","lat":43.290103,"lon":5.356114,"is_reserved":false,"is_disabled":false,"rental_uris":{"android":"levelo://app?vid=d6945950-455d-43fa-8e92-28059b11b975","ios":"levelo://app?vid=d6945950-455d-43fa-8e92-28059b11b975"},"vehicle_type_id":"4","last_reported":1706807181,"current_range_meters":7600,"station_id":"ce4bhb92rcd13ifvqen0","pricing_plan_id":"free"},{"bike_id":"35bc7e3f-e30e-4877-a99a-2be6fa4e83b2","system_id":"levelo_inurba_marseille","lat":43.290995,"lon":5.381361,"is_reserved":false,"is_disabled":false,"rental_uris":{"android":"levelo://app?vid=35bc7e3f-e30e-4877-a99a-2be6fa4e83b2","ios":"levelo://app?vid=35bc7e3f-e30e-4877-a99a-2be6fa4e83b2"},"vehicle_type_id":"4","last_reported":1706807181,"current_range_meters":19200,"station_id":"ce4bh512rcd13ifvqe2g","pricing_plan_id":"free"},{"bike_id":"430ccf15-d488-42f3-ad90-37dc2cbc1710","system_id":"levelo_inurba_marseille","lat":43.290995,"lon":5.381361,"is_reserved":false,"is_disabled":false,"rental_uris":{"android":"levelo://app?vid=430ccf15-d488-42f3-ad90-37dc2cbc1710","ios":"levelo://app?vid=430ccf15-d488-42f3-ad90-37dc2cbc1710"},"vehicle_type_id":"4","last_reported":1706807181,"current_range_meters":17200,"station_id":"ce4bh512rcd13ifvqe2g","pricing_plan_id":"free"},{"bike_id":"065a0ffb-701e-4a93-91cb-9513b18496c0","system_id":"levelo_inurba_marseille","lat":43.290995,"lon":5.381361,"is_reserved":false,"is_disabled":false,"rental_uris":{"android":"levelo://app?vid=065a0ffb-701e-4a93-91cb-9513b18496c0","ios":"levelo://app?vid=065a0ffb-701e-4a93-91cb-9513b18496c0"},"vehicle_type_id":"4","last_reported":1706807181,"current_range_meters":16000,"station_id":"ce4bh512rcd13ifvqe2g","pricing_plan_id":"free"},{"bike_id":"87cedd0e-bfa8-420d-873e-b4beb1c0ff10","system_id":"levelo_inurba_marseille","lat":43.297815,"lon":5.393548,"is_reserved":false,"is_disabled":false,"rental_uris":{"android":"levelo://app?vid=87cedd0e-bfa8-420d-873e-b4beb1c0ff10","ios":"levelo://app?vid=87cedd0e-bfa8-420d-873e-b4beb1c0ff10"},"vehicle_type_id":"4","last_reported":1706807181,"current_range_meters":21600,"station_id":"chh1huq6cuj3fo74tm60","pricing_plan_id":"free"},{"bike_id":"5ef6c031-a2da-411e-ac46-bc5c9a72bb40","system_id":"levelo_inurba_marseille","lat":43.29534,"lon":5.39038,"is_reserved":false,"is_disabled":false,"rental_uris":{"android":"levelo://app?vid=5ef6c031-a2da-411e-ac46-bc5c9a72bb40","ios":"levelo://app?vid=5ef6c031-a2da-411e-ac46-bc5c9a72bb40"},"vehicle_type_id":"4","last_reported":1706807181,"current_range_meters":0,"station_id":"ce4bh3p2rcd13ifvqdp0","pricing_plan_id":"free"},{"bike_id":"7bc8336a-2720-489e-bc1b-3b582df23d29","system_id":"levelo_inurba_marseille","lat":43.297815,"lon":5.393548,"is_reserved":false,"is_disabled":false,"rental_uris":{"android":"levelo://app?vid=7bc8336a-2720-489e-bc1b-3b582df23d29","ios":"levelo://app?vid=7bc8336a-2720-489e-bc1b-3b582df23d29"},"vehicle_type_id":"4","last_reported":1706807181,"current_range_meters":17600,"station_id":"chh1huq6cuj3fo74tm60","pricing_plan_id":"free"},{"bike_id":"1b26e9c4-7fc6-49aa-9499-cf686af3f3aa","system_id":"levelo_inurba_marseille","lat":43.330442,"lon":5.389148,"is_reserved":false,"is_disabled":false,"rental_uris":{"android":"levelo://app?vid=1b26e9c4-7fc6-49aa-9499-cf686af3f3aa","ios":"levelo://app?vid=1b26e9c4-7fc6-49aa-9499-cf686af3f3aa"},"vehicle_type_id":"4","last_reported":1706807181,"current_range_meters":14000,"station_id":"ce4bhr92rcd13ifvqhrg","pricing_plan_id":"free"},{"bike_id":"2f0af02b-765e-4e24-995b-d4ba9b17ceaf","system_id":"levelo_inurba_marseille","lat":43.33024,"lon":5.390426,"is_reserved":false,"is_disabled":false,"rental_uris":{"android":"levelo://app?vid=2f0af02b-765e-4e24-995b-d4ba9b17ceaf","ios":"levelo://app?vid=2f0af02b-765e-4e24-995b-d4ba9b17ceaf"},"vehicle_type_id":"4","last_reported":1706807181,"current_range_meters":0,"station_id":"ce4bhr92rcd13ifvqhrg","pricing_plan_id":"free"},{"bike_id":"8c7430f3-4aa9-4d10-97e0-c39bb9f18ebd","system_id":"levelo_inurba_marseille","lat":43.295169,"lon":5.390426,"is_reserved":false,"is_disabled":false,"rental_uris":{"android":"levelo://app?vid=8c7430f3-4aa9-4d10-97e0-c39bb9f18ebd","ios":"levelo://app?vid=8c7430f3-4aa9-4d10-97e0-c39bb9f18ebd"},"vehicle_type_id":"4","last_reported":1706807181,"current_range_meters":28000,"station_id":"ce4bh3p2rcd13ifvqdp0","pricing_plan_id":"free"},{"bike_id":"47315adb-94f2-482a-8437-1c049b57e935","system_id":"levelo_inurba_marseille","lat":43.290103,"lon":5.356114,"is_reserved":false,"is_disabled":false,"rental_uris":{"android":"levelo://app?vid=47315adb-94f2-482a-8437-1c049b57e935","ios":"levelo://app?vid=47315adb-94f2-482a-8437-1c049b57e935"},"vehicle_type_id":"4","last_reported":1706807181,"current_range_meters":24800,"station_id":"ce4bhb92rcd13ifvqen0","pricing_plan_id":"free"},{"bike_id":"312e7de7-2290-414b-9fdc-0c047d6e92eb","system_id":"levelo_inurba_marseille","lat":43.290094,"lon":5.381264,"is_reserved":false,"is_disabled":false,"rental_uris":{"android":"levelo://app?vid=312e7de7-2290-414b-9fdc-0c047d6e92eb","ios":"levelo://app?vid=312e7de7-2290-414b-9fdc-0c047d6e92eb"},"vehicle_type_id":"4","last_reported":1706807181,"current_range_meters":11600,"station_id":"ce4bh4p2rcd13ifvqe1g","pricing_plan_id":"free"},{"bike_id":"d7bf4a1f-2036-43f7-b1b1-aa8237fa2617","system_id":"levelo_inurba_marseille","lat":43.2901,"lon":5.381269,"is_reserved":false,"is_disabled":false,"rental_uris":{"android":"levelo://app?vid=d7bf4a1f-2036-43f7-b1b1-aa8237fa2617","ios":"levelo://app?vid=d7bf4a1f-2036-43f7-b1b1-aa8237fa2617"},"vehicle_type_id":"4","last_reported":1706807181,"current_range_meters":26400,"station_id":"ce4bh4p2rcd13ifvqe1g","pricing_plan_id":"free"},{"bike_id":"dd17fe22-6ec0-40e6-9127-ce90b49e4ec3","system_id":"levelo_inurba_marseille","lat":43.290094,"lon":5.381264,"is_reserved":false,"is_disabled":false,"rental_uris":{"android":"levelo://app?vid=dd17fe22-6ec0-40e6-9127-ce90b49e4ec3","ios":"levelo://app?vid=dd17fe22-6ec0-40e6-9127-ce90b49e4ec3"},"vehicle_type_id":"4","last_reported":1706807181,"current_range_meters":25600,"station_id":"ce4bh4p2rcd13ifvqe1g","pricing_plan_id":"free"},{"bike_id":"14d976c6-091e-44fb-863d-3d2af6692bd9","system_id":"levelo_inurba_marseille","lat":43.290094,"lon":5.381264,"is_reserved":false,"is_disabled":false,"rental_uris":{"android":"levelo://app?vid=14d976c6-091e-44fb-863d-3d2af6692bd9","ios":"levelo://app?vid=14d976c6-091e-44fb-863d-3d2af6692bd9"},"vehicle_type_id":"4","last_reported":1706807181,"current_range_meters":13200,"station_id":"ce4bh4p2rcd13ifvqe1g","pricing_plan_id":"free"},{"bike_id":"435dd466-f8db-4253-81ef-d69dc4cdbcce","system_id":"levelo_inurba_marseille","lat":43.28856,"lon":5.358371,"is_reserved":false,"is_disabled":false,"rental_uris":{"android":"levelo://app?vid=435dd466-f8db-4253-81ef-d69dc4cdbcce","ios":"levelo://app?vid=435dd466-f8db-4253-81ef-d69dc4cdbcce"},"vehicle_type_id":"4","last_reported":1706807181,"current_range_meters":18800,"station_id":"ce4bhb12rcd13ifvqem0","pricing_plan_id":"free"},{"bike_id":"4dea2505-7482-4166-a6c1-d47027e35e33","system_id":"levelo_inurba_marseille","lat":43.28856,"lon":5.358371,"is_reserved":false,"is_disabled":false,"rental_uris":{"android":"levelo://app?vid=4dea2505-7482-4166-a6c1-d47027e35e33","ios":"levelo://app?vid=4dea2505-7482-4166-a6c1-d47027e35e33"},"vehicle_type_id":"4","last_reported":1706807181,"current_range_meters":8400,"station_id":"ce4bhb12rcd13ifvqem0","pricing_plan_id":"free"},{"bike_id":"722fda1d-1e67-4f7a-9f23-691f54699f10","system_id":"levelo_inurba_marseille","lat":43.28856,"lon":5.358371,"is_reserved":false,"is_disabled":false,"rental_uris":{"android":"levelo://app?vid=722fda1d-1e67-4f7a-9f23-691f54699f10","ios":"levelo://app?vid=722fda1d-1e67-4f7a-9f23-691f54699f10"},"vehicle_type_id":"4","last_reported":1706807181,"current_range_meters":20000,"station_id":"ce4bhb12rcd13ifvqem0","pricing_plan_id":"free"},{"bike_id":"7a1b413f-69ad-42d8-b859-a87b3362e77e","system_id":"levelo_inurba_marseille","lat":43.28856,"lon":5.358371,"is_reserved":false,"is_disabled":false,"rental_uris":{"android":"levelo://app?vid=7a1b413f-69ad-42d8-b859-a87b3362e77e","ios":"levelo://app?vid=7a1b413f-69ad-42d8-b859-a87b3362e77e"},"vehicle_type_id":"4","last_reported":1706807181,"current_range_meters":24000,"station_id":"ce4bhb12rcd13ifvqem0","pricing_plan_id":"free"},{"bike_id":"e4f2c50c-f9e6-475c-bbe6-9e65f08648df","system_id":"levelo_inurba_marseille","lat":43.309371,"lon":5.401449,"is_reserved":false,"is_disabled":false,"rental_uris":{"android":"levelo://app?vid=e4f2c50c-f9e6-475c-bbe6-9e65f08648df","ios":"levelo://app?vid=e4f2c50c-f9e6-475c-bbe6-9e65f08648df"},"vehicle_type_id":"4","last_reported":1706807181,"current_range_meters":16400,"station_id":"ce4bgvp2rcd13ifvqct0","pricing_plan_id":"free"},{"bike_id":"df49dca8-eff4-4fb6-b5ec-7abf9e25044f","system_id":"levelo_inurba_marseille","lat":43.33764,"lon":5.37396,"is_reserved":false,"is_disabled":false,"rental_uris":{"android":"levelo://app?vid=df49dca8-eff4-4fb6-b5ec-7abf9e25044f","ios":"levelo://app?vid=df49dca8-eff4-4fb6-b5ec-7abf9e25044f"},"vehicle_type_id":"4","last_reported":1706807181,"current_range_meters":27600,"station_id":"","pricing_plan_id":"free"},{"bike_id":"1acba039-024d-44a4-997f-0f7d847580ea","system_id":"levelo_inurba_marseille","lat":43.312609,"lon":5.401662,"is_reserved":false,"is_disabled":false,"rental_uris":{"android":"levelo://app?vid=1acba039-024d-44a4-997f-0f7d847580ea","ios":"levelo://app?vid=1acba039-024d-44a4-997f-0f7d847580ea"},"vehicle_type_id":"4","last_reported":1706807181,"current_range_meters":2400,"station_id":"ce4bh092rcd13ifvqd30","pricing_plan_id":"free"},{"bike_id":"a92fecb2-cce1-45fa-a6c6-174b16ca62fa","system_id":"levelo_inurba_marseille","lat":43.337834,"lon":5.374506,"is_reserved":false,"is_disabled":false,"rental_uris":{"android":"levelo://app?vid=a92fecb2-cce1-45fa-a6c6-174b16ca62fa","ios":"levelo://app?vid=a92fecb2-cce1-45fa-a6c6-174b16ca62fa"},"vehicle_type_id":"4","last_reported":1706807181,"current_range_meters":29200,"station_id":"","pricing_plan_id":"free"},{"bike_id":"31d4a72a-69d1-402c-af5e-f2eabde4fdc9","system_id":"levelo_inurba_marseille","lat":43.286961,"lon":5.373785,"is_reserved":false,"is_disabled":false,"rental_uris":{"android":"levelo://app?vid=31d4a72a-69d1-402c-af5e-f2eabde4fdc9","ios":"levelo://app?vid=31d4a72a-69d1-402c-af5e-f2eabde4fdc9"},"vehicle_type_id":"4","last_reported":1706807181,"current_range_meters":7600,"station_id":"ce4bh3p2rcd13ifvqdq0","pricing_plan_id":"free"},{"bike_id":"8d59fc0c-dcc0-4979-972f-10e253389a56","system_id":"levelo_inurba_marseille","lat":43.301117,"lon":5.398795,"is_reserved":false,"is_disabled":false,"rental_uris":{"android":"levelo://app?vid=8d59fc0c-dcc0-4979-972f-10e253389a56","ios":"levelo://app?vid=8d59fc0c-dcc0-4979-972f-10e253389a56"},"vehicle_type_id":"4","last_reported":1706807181,"current_range_meters":11200,"station_id":"ce4bh0h2rcd13ifvqd40","pricing_plan_id":"free"},{"bike_id":"d4ec35a5-c6d5-4fac-909f-dc26170db58a","system_id":"levelo_inurba_marseille","lat":43.301117,"lon":5.398795,"is_reserved":false,"is_disabled":false,"rental_uris":{"android":"levelo://app?vid=d4ec35a5-c6d5-4fac-909f-dc26170db58a","ios":"levelo://app?vid=d4ec35a5-c6d5-4fac-909f-dc26170db58a"},"vehicle_type_id":"4","last_reported":1706807181,"current_range_meters":22800,"station_id":"ce4bh0h2rcd13ifvqd40","pricing_plan_id":"free"},{"bike_id":"b664ef4d-4d0e-40d0-92a0-ecf760b3dc95","system_id":"levelo_inurba_marseille","lat":43.30456,"lon":5.40059,"is_reserved":false,"is_disabled":false,"rental_uris":{"android":"levelo://app?vid=b664ef4d-4d0e-40d0-92a0-ecf760b3dc95","ios":"levelo://app?vid=b664ef4d-4d0e-40d0-92a0-ecf760b3dc95"},"vehicle_type_id":"4","last_reported":1706807181,"current_range_meters":22400,"station_id":"","pricing_plan_id":"free"},{"bike_id":"96a2d8d3-6d6c-40d6-b7a4-52141688f919","system_id":"levelo_inurba_marseille","lat":43.28727,"lon":5.36078,"is_reserved":false,"is_disabled":false,"rental_uris":{"android":"levelo://app?vid=96a2d8d3-6d6c-40d6-b7a4-52141688f919","ios":"levelo://app?vid=96a2d8d3-6d6c-40d6-b7a4-52141688f919"},"vehicle_type_id":"4","last_reported":1706807181,"current_range_meters":11200,"station_id":"cki0cbj6b192h4jlfktg","pricing_plan_id":"free"},{"bike_id":"fb685709-beb3-4a12-89c7-b4d94572eddb","system_id":"levelo_inurba_marseille","lat":43.301117,"lon":5.398795,"is_reserved":false,"is_disabled":false,"rental_uris":{"android":"levelo://app?vid=fb685709-beb3-4a12-89c7-b4d94572eddb","ios":"levelo://app?vid=fb685709-beb3-4a12-89c7-b4d94572eddb"},"vehicle_type_id":"4","last_reported":1706807181,"current_range_meters":18000,"station_id":"ce4bh0h2rcd13ifvqd40","pricing_plan_id":"free"},{"bike_id":"63175c26-c156-466f-be5b-794cec8c153f","system_id":"levelo_inurba_marseille","lat":43.28727,"lon":5.36078,"is_reserved":false,"is_disabled":false,"rental_uris":{"android":"levelo://app?vid=63175c26-c156-466f-be5b-794cec8c153f","ios":"levelo://app?vid=63175c26-c156-466f-be5b-794cec8c153f"},"vehicle_type_id":"4","last_reported":1706807181,"current_range_meters":14000,"station_id":"cki0cbj6b192h4jlfktg","pricing_plan_id":"free"},{"bike_id":"5affe1f1-9e19-42ba-9a72-aed00cff0746","system_id":"levelo_inurba_marseille","lat":43.28727,"lon":5.36078,"is_reserved":false,"is_disabled":false,"rental_uris":{"android":"levelo://app?vid=5affe1f1-9e19-42ba-9a72-aed00cff0746","ios":"levelo://app?vid=5affe1f1-9e19-42ba-9a72-aed00cff0746"},"vehicle_type_id":"4","last_reported":1706807181,"current_range_meters":18000,"station_id":"cki0cbj6b192h4jlfktg","pricing_plan_id":"free"},{"bike_id":"61f14dcf-ce51-4487-862a-65788a92487a","system_id":"levelo_inurba_marseille","lat":43.28722,"lon":5.36083,"is_reserved":false,"is_disabled":false,"rental_uris":{"android":"levelo://app?vid=61f14dcf-ce51-4487-862a-65788a92487a","ios":"levelo://app?vid=61f14dcf-ce51-4487-862a-65788a92487a"},"vehicle_type_id":"4","last_reported":1706807181,"current_range_meters":2000,"station_id":"cki0cbj6b192h4jlfktg","pricing_plan_id":"free"},{"bike_id":"311e2d3f-7a08-4bed-8651-a14390782f2f","system_id":"levelo_inurba_marseille","lat":43.29884,"lon":5.39733,"is_reserved":false,"is_disabled":false,"rental_uris":{"android":"levelo://app?vid=311e2d3f-7a08-4bed-8651-a14390782f2f","ios":"levelo://app?vid=311e2d3f-7a08-4bed-8651-a14390782f2f"},"vehicle_type_id":"4","last_reported":1706807181,"current_range_meters":3600,"station_id":"","pricing_plan_id":"free"},{"bike_id":"28844811-06df-4526-94b8-9d17cd21bd6e","system_id":"levelo_inurba_marseille","lat":43.298681,"lon":5.397225,"is_reserved":false,"is_disabled":false,"rental_uris":{"android":"levelo://app?vid=28844811-06df-4526-94b8-9d17cd21bd6e","ios":"levelo://app?vid=28844811-06df-4526-94b8-9d17cd21bd6e"},"vehicle_type_id":"4","last_reported":1706807181,"current_range_meters":16800,"station_id":"ce4bh0h2rcd13ifvqd50","pricing_plan_id":"free"},{"bike_id":"1af5bd8b-36b9-41d3-a83a-f723450c528e","system_id":"levelo_inurba_marseille","lat":43.295196,"lon":5.39397,"is_reserved":false,"is_disabled":false,"rental_uris":{"android":"levelo://app?vid=1af5bd8b-36b9-41d3-a83a-f723450c528e","ios":"levelo://app?vid=1af5bd8b-36b9-41d3-a83a-f723450c528e"},"vehicle_type_id":"4","last_reported":1706807181,"current_range_meters":8000,"station_id":"ce4bh292rcd13ifvqdf0","pricing_plan_id":"free"},{"bike_id":"4e535d5e-e493-41a6-8091-57293b04924c","system_id":"levelo_inurba_marseille","lat":43.286591,"lon":5.363346,"is_reserved":false,"is_disabled":false,"rental_uris":{"android":"levelo://app?vid=4e535d5e-e493-41a6-8091-57293b04924c","ios":"levelo://app?vid=4e535d5e-e493-41a6-8091-57293b04924c"},"vehicle_type_id":"4","last_reported":1706807181,"current_range_meters":6800,"station_id":"ce4bhah2rcd13ifvqej0","pricing_plan_id":"free"},{"bike_id":"5cbcff91-c9c9-4015-b37f-368797acb577","system_id":"levelo_inurba_marseille","lat":43.286961,"lon":5.373785,"is_reserved":false,"is_disabled":false,"rental_uris":{"android":"levelo://app?vid=5cbcff91-c9c9-4015-b37f-368797acb577","ios":"levelo://app?vid=5cbcff91-c9c9-4015-b37f-368797acb577"},"vehicle_type_id":"4","last_reported":1706807181,"current_range_meters":11600,"station_id":"ce4bh3p2rcd13ifvqdq0","pricing_plan_id":"free"},{"bike_id":"63f80ce5-99c8-4806-b400-bfb2a956cd13","system_id":"levelo_inurba_marseille","lat":43.298681,"lon":5.397225,"is_reserved":false,"is_disabled":false,"rental_uris":{"android":"levelo://app?vid=63f80ce5-99c8-4806-b400-bfb2a956cd13","ios":"levelo://app?vid=63f80ce5-99c8-4806-b400-bfb2a956cd13"},"vehicle_type_id":"4","last_reported":1706807181,"current_range_meters":17600,"station_id":"ce4bh0h2rcd13ifvqd50","pricing_plan_id":"free"},{"bike_id":"454a5189-b7a4-4905-8c24-0ed6e94a6049","system_id":"levelo_inurba_marseille","lat":43.286961,"lon":5.373785,"is_reserved":false,"is_disabled":false,"rental_uris":{"android":"levelo://app?vid=454a5189-b7a4-4905-8c24-0ed6e94a6049","ios":"levelo://app?vid=454a5189-b7a4-4905-8c24-0ed6e94a6049"},"vehicle_type_id":"4","last_reported":1706807181,"current_range_meters":6400,"station_id":"ce4bh3p2rcd13ifvqdq0","pricing_plan_id":"free"},{"bike_id":"3d5d9c92-5210-4233-93b0-26aa66a2402b","system_id":"levelo_inurba_marseille","lat":43.295194,"lon":5.39397,"is_reserved":false,"is_disabled":false,"rental_uris":{"android":"levelo://app?vid=3d5d9c92-5210-4233-93b0-26aa66a2402b","ios":"levelo://app?vid=3d5d9c92-5210-4233-93b0-26aa66a2402b"},"vehicle_type_id":"4","last_reported":1706807181,"current_range_meters":4000,"station_id":"ce4bh292rcd13ifvqdf0","pricing_plan_id":"free"},{"bike_id":"e930097b-f3d9-4c3c-ac5d-b4dff65a01fa","system_id":"levelo_inurba_marseille","lat":43.286955,"lon":5.374007,"is_reserved":false,"is_disabled":false,"rental_uris":{"android":"levelo://app?vid=e930097b-f3d9-4c3c-ac5d-b4dff65a01fa","ios":"levelo://app?vid=e930097b-f3d9-4c3c-ac5d-b4dff65a01fa"},"vehicle_type_id":"4","last_reported":1706807181,"current_range_meters":1200,"station_id":"ce4bh3p2rcd13ifvqdq0","pricing_plan_id":"free"},{"bike_id":"5dc44121-893e-4cea-98d8-2cc96bb7d32d","system_id":"levelo_inurba_marseille","lat":43.286961,"lon":5.373785,"is_reserved":false,"is_disabled":false,"rental_uris":{"android":"levelo://app?vid=5dc44121-893e-4cea-98d8-2cc96bb7d32d","ios":"levelo://app?vid=5dc44121-893e-4cea-98d8-2cc96bb7d32d"},"vehicle_type_id":"4","last_reported":1706807181,"current_range_meters":4800,"station_id":"ce4bh3p2rcd13ifvqdq0","pricing_plan_id":"free"},{"bike_id":"b1c99fdb-636f-48b8-967a-6ad117767132","system_id":"levelo_inurba_marseille","lat":43.28653,"lon":5.36344,"is_reserved":false,"is_disabled":false,"rental_uris":{"android":"levelo://app?vid=b1c99fdb-636f-48b8-967a-6ad117767132","ios":"levelo://app?vid=b1c99fdb-636f-48b8-967a-6ad117767132"},"vehicle_type_id":"4","last_reported":1706807181,"current_range_meters":4000,"station_id":"ce4bhah2rcd13ifvqej0","pricing_plan_id":"free"},{"bike_id":"83d71447-98d5-4779-b290-3962dd9da360","system_id":"levelo_inurba_marseille","lat":43.295194,"lon":5.39397,"is_reserved":false,"is_disabled":false,"rental_uris":{"android":"levelo://app?vid=83d71447-98d5-4779-b290-3962dd9da360","ios":"levelo://app?vid=83d71447-98d5-4779-b290-3962dd9da360"},"vehicle_type_id":"4","last_reported":1706807181,"current_range_meters":0,"station_id":"ce4bh292rcd13ifvqdf0","pricing_plan_id":"free"},{"bike_id":"af42a882-c16c-4cf3-aaca-73c71ffe6f98","system_id":"levelo_inurba_marseille","lat":43.290345,"lon":5.38646,"is_reserved":false,"is_disabled":false,"rental_uris":{"android":"levelo://app?vid=af42a882-c16c-4cf3-aaca-73c71ffe6f98","ios":"levelo://app?vid=af42a882-c16c-4cf3-aaca-73c71ffe6f98"},"vehicle_type_id":"4","last_reported":1706807181,"current_range_meters":6800,"station_id":"ce4bh4p2rcd13ifvqe0g","pricing_plan_id":"free"},{"bike_id":"b1e280d0-6163-45de-a1ac-a9184b37c991","system_id":"levelo_inurba_marseille","lat":43.290345,"lon":5.38646,"is_reserved":false,"is_disabled":false,"rental_uris":{"android":"levelo://app?vid=b1e280d0-6163-45de-a1ac-a9184b37c991","ios":"levelo://app?vid=b1e280d0-6163-45de-a1ac-a9184b37c991"},"vehicle_type_id":"4","last_reported":1706807181,"current_range_meters":10400,"station_id":"ce4bh4p2rcd13ifvqe0g","pricing_plan_id":"free"},{"bike_id":"e5ec86cd-c793-451b-ae73-f0e7144772c3","system_id":"levelo_inurba_marseille","lat":43.289307,"lon":5.38406,"is_reserved":false,"is_disabled":false,"rental_uris":{"android":"levelo://app?vid=e5ec86cd-c793-451b-ae73-f0e7144772c3","ios":"levelo://app?vid=e5ec86cd-c793-451b-ae73-f0e7144772c3"},"vehicle_type_id":"4","last_reported":1706807181,"current_range_meters":10400,"station_id":"ce4bh612rcd13ifvqe6g","pricing_plan_id":"free"},{"bike_id":"36220196-1cb5-4564-8d4c-911392ae3c03","system_id":"levelo_inurba_marseille","lat":43.290345,"lon":5.38646,"is_reserved":false,"is_disabled":false,"rental_uris":{"android":"levelo://app?vid=36220196-1cb5-4564-8d4c-911392ae3c03","ios":"levelo://app?vid=36220196-1cb5-4564-8d4c-911392ae3c03"},"vehicle_type_id":"4","last_reported":1706807181,"current_range_meters":26000,"station_id":"ce4bh4p2rcd13ifvqe0g","pricing_plan_id":"free"},{"bike_id":"32521574-4ea0-4314-bb2f-81c06c64e629","system_id":"levelo_inurba_marseille","lat":43.290345,"lon":5.38646,"is_reserved":false,"is_disabled":false,"rental_uris":{"android":"levelo://app?vid=32521574-4ea0-4314-bb2f-81c06c64e629","ios":"levelo://app?vid=32521574-4ea0-4314-bb2f-81c06c64e629"},"vehicle_type_id":"4","last_reported":1706807181,"current_range_meters":5200,"station_id":"ce4bh4p2rcd13ifvqe0g","pricing_plan_id":"free"},{"bike_id":"fb49ac7e-f3b9-4537-b102-4cc5762b33c9","system_id":"levelo_inurba_marseille","lat":43.290336,"lon":5.386425,"is_reserved":false,"is_disabled":false,"rental_uris":{"android":"levelo://app?vid=fb49ac7e-f3b9-4537-b102-4cc5762b33c9","ios":"levelo://app?vid=fb49ac7e-f3b9-4537-b102-4cc5762b33c9"},"vehicle_type_id":"4","last_reported":1706807181,"current_range_meters":5200,"station_id":"ce4bh4p2rcd13ifvqe0g","pricing_plan_id":"free"},{"bike_id":"f0350bb6-383c-4f22-958e-ff413896c382","system_id":"levelo_inurba_marseille","lat":43.286039,"lon":5.370679,"is_reserved":false,"is_disabled":false,"rental_uris":{"android":"levelo://app?vid=f0350bb6-383c-4f22-958e-ff413896c382","ios":"levelo://app?vid=f0350bb6-383c-4f22-958e-ff413896c382"},"vehicle_type_id":"4","last_reported":1706807181,"current_range_meters":30400,"station_id":"ce4bht12rcd13ifvqi60","pricing_plan_id":"free"},{"bike_id":"54d34a8a-4286-4222-8fd6-05098b07e7d1","system_id":"levelo_inurba_marseille","lat":43.286039,"lon":5.370679,"is_reserved":false,"is_disabled":false,"rental_uris":{"android":"levelo://app?vid=54d34a8a-4286-4222-8fd6-05098b07e7d1","ios":"levelo://app?vid=54d34a8a-4286-4222-8fd6-05098b07e7d1"},"vehicle_type_id":"4","last_reported":1706807181,"current_range_meters":16400,"station_id":"ce4bht12rcd13ifvqi60","pricing_plan_id":"free"},{"bike_id":"7aca912d-1267-43c7-b278-e25f3e404434","system_id":"levelo_inurba_marseille","lat":43.28599,"lon":5.37078,"is_reserved":false,"is_disabled":false,"rental_uris":{"android":"levelo://app?vid=7aca912d-1267-43c7-b278-e25f3e404434","ios":"levelo://app?vid=7aca912d-1267-43c7-b278-e25f3e404434"},"vehicle_type_id":"4","last_reported":1706807181,"current_range_meters":22400,"station_id":"ce4bht12rcd13ifvqi60","pricing_plan_id":"free"},{"bike_id":"68f779c2-7c9b-42c0-8fb7-fd116a20e481","system_id":"levelo_inurba_marseille","lat":43.287185,"lon":5.379373,"is_reserved":false,"is_disabled":false,"rental_uris":{"android":"levelo://app?vid=68f779c2-7c9b-42c0-8fb7-fd116a20e481","ios":"levelo://app?vid=68f779c2-7c9b-42c0-8fb7-fd116a20e481"},"vehicle_type_id":"4","last_reported":1706807181,"current_range_meters":23200,"station_id":"ce4bh9p2rcd13ifvqec0","pricing_plan_id":"free"},{"bike_id":"44836a78-709b-4e2d-96ed-e258e30b9285","system_id":"levelo_inurba_marseille","lat":43.287184,"lon":5.37937,"is_reserved":false,"is_disabled":false,"rental_uris":{"android":"levelo://app?vid=44836a78-709b-4e2d-96ed-e258e30b9285","ios":"levelo://app?vid=44836a78-709b-4e2d-96ed-e258e30b9285"},"vehicle_type_id":"4","last_reported":1706807181,"current_range_meters":5600,"station_id":"ce4bh9p2rcd13ifvqec0","pricing_plan_id":"free"},{"bike_id":"92b6e3a6-b492-4e45-b210-083577093148","system_id":"levelo_inurba_marseille","lat":43.28464,"lon":5.358838,"is_reserved":false,"is_disabled":false,"rental_uris":{"android":"levelo://app?vid=92b6e3a6-b492-4e45-b210-083577093148","ios":"levelo://app?vid=92b6e3a6-b492-4e45-b210-083577093148"},"vehicle_type_id":"4","last_reported":1706807181,"current_range_meters":0,"station_id":"ce4bhah2rcd13ifvqei0","pricing_plan_id":"free"},{"bike_id":"a7ae098c-a828-42ba-b75e-e480fb8280db","system_id":"levelo_inurba_marseille","lat":43.284538,"lon":5.358657,"is_reserved":false,"is_disabled":false,"rental_uris":{"android":"levelo://app?vid=a7ae098c-a828-42ba-b75e-e480fb8280db","ios":"levelo://app?vid=a7ae098c-a828-42ba-b75e-e480fb8280db"},"vehicle_type_id":"4","last_reported":1706807181,"current_range_meters":27200,"station_id":"ce4bhah2rcd13ifvqei0","pricing_plan_id":"free"},{"bike_id":"2440d444-7896-4e63-942c-f02a6e2a6e73","system_id":"levelo_inurba_marseille","lat":43.28462,"lon":5.358874,"is_reserved":false,"is_disabled":false,"rental_uris":{"android":"levelo://app?vid=2440d444-7896-4e63-942c-f02a6e2a6e73","ios":"levelo://app?vid=2440d444-7896-4e63-942c-f02a6e2a6e73"},"vehicle_type_id":"4","last_reported":1706807181,"current_range_meters":19600,"station_id":"ce4bhah2rcd13ifvqei0","pricing_plan_id":"free"},{"bike_id":"0818eca2-b6d0-443e-bcca-0744275bb03f","system_id":"levelo_inurba_marseille","lat":43.28461,"lon":5.35886,"is_reserved":false,"is_disabled":false,"rental_uris":{"android":"levelo://app?vid=0818eca2-b6d0-443e-bcca-0744275bb03f","ios":"levelo://app?vid=0818eca2-b6d0-443e-bcca-0744275bb03f"},"vehicle_type_id":"4","last_reported":1706807181,"current_range_meters":6800,"station_id":"ce4bhah2rcd13ifvqei0","pricing_plan_id":"free"},{"bike_id":"433f8d8a-3a0d-4572-953f-874000837d7e","system_id":"levelo_inurba_marseille","lat":43.284602,"lon":5.358819,"is_reserved":false,"is_disabled":false,"rental_uris":{"android":"levelo://app?vid=433f8d8a-3a0d-4572-953f-874000837d7e","ios":"levelo://app?vid=433f8d8a-3a0d-4572-953f-874000837d7e"},"vehicle_type_id":"4","last_reported":1706807181,"current_range_meters":12400,"station_id":"ce4bhah2rcd13ifvqei0","pricing_plan_id":"free"},{"bike_id":"613daa42-e47b-4869-a87b-0909da8d4a18","system_id":"levelo_inurba_marseille","lat":43.284589,"lon":5.358901,"is_reserved":false,"is_disabled":false,"rental_uris":{"android":"levelo://app?vid=613daa42-e47b-4869-a87b-0909da8d4a18","ios":"levelo://app?vid=613daa42-e47b-4869-a87b-0909da8d4a18"},"vehicle_type_id":"4","last_reported":1706807181,"current_range_meters":14000,"station_id":"ce4bhah2rcd13ifvqei0","pricing_plan_id":"free"},{"bike_id":"b7ed7f8b-3e88-4f17-adb4-d784ec9f9b23","system_id":"levelo_inurba_marseille","lat":43.294314,"lon":5.397498,"is_reserved":false,"is_disabled":false,"rental_uris":{"android":"levelo://app?vid=b7ed7f8b-3e88-4f17-adb4-d784ec9f9b23","ios":"levelo://app?vid=b7ed7f8b-3e88-4f17-adb4-d784ec9f9b23"},"vehicle_type_id":"4","last_reported":1706807181,"current_range_meters":6400,"station_id":"ce4bh3h2rcd13ifvqdo0","pricing_plan_id":"free"},{"bike_id":"fc801b0e-f447-45a0-961a-a5e0c20ce504","system_id":"levelo_inurba_marseille","lat":43.294314,"lon":5.397498,"is_reserved":false,"is_disabled":false,"rental_uris":{"android":"levelo://app?vid=fc801b0e-f447-45a0-961a-a5e0c20ce504","ios":"levelo://app?vid=fc801b0e-f447-45a0-961a-a5e0c20ce504"},"vehicle_type_id":"4","last_reported":1706807181,"current_range_meters":24400,"station_id":"ce4bh3h2rcd13ifvqdo0","pricing_plan_id":"free"},{"bike_id":"c825aa48-58be-44a7-9914-f05cafde4d5f","system_id":"levelo_inurba_marseille","lat":43.294314,"lon":5.397498,"is_reserved":false,"is_disabled":false,"rental_uris":{"android":"levelo://app?vid=c825aa48-58be-44a7-9914-f05cafde4d5f","ios":"levelo://app?vid=c825aa48-58be-44a7-9914-f05cafde4d5f"},"vehicle_type_id":"4","last_reported":1706807181,"current_range_meters":12400,"station_id":"ce4bh3h2rcd13ifvqdo0","pricing_plan_id":"free"},{"bike_id":"152dfa46-c5ce-4ba8-b555-15d2feb904b2","system_id":"levelo_inurba_marseille","lat":43.294314,"lon":5.397498,"is_reserved":false,"is_disabled":false,"rental_uris":{"android":"levelo://app?vid=152dfa46-c5ce-4ba8-b555-15d2feb904b2","ios":"levelo://app?vid=152dfa46-c5ce-4ba8-b555-15d2feb904b2"},"vehicle_type_id":"4","last_reported":1706807181,"current_range_meters":6000,"station_id":"ce4bh3h2rcd13ifvqdo0","pricing_plan_id":"free"},{"bike_id":"ad8bc850-ad65-4d58-ae6c-4844594df50d","system_id":"levelo_inurba_marseille","lat":43.294314,"lon":5.397498,"is_reserved":false,"is_disabled":false,"rental_uris":{"android":"levelo://app?vid=ad8bc850-ad65-4d58-ae6c-4844594df50d","ios":"levelo://app?vid=ad8bc850-ad65-4d58-ae6c-4844594df50d"},"vehicle_type_id":"4","last_reported":1706807181,"current_range_meters":6800,"station_id":"ce4bh3h2rcd13ifvqdo0","pricing_plan_id":"free"},{"bike_id":"460a02c6-3785-4b58-b68b-c33e26deafd7","system_id":"levelo_inurba_marseille","lat":43.286208,"lon":5.351076,"is_reserved":false,"is_disabled":false,"rental_uris":{"android":"levelo://app?vid=460a02c6-3785-4b58-b68b-c33e26deafd7","ios":"levelo://app?vid=460a02c6-3785-4b58-b68b-c33e26deafd7"},"vehicle_type_id":"4","last_reported":1706807181,"current_range_meters":24800,"station_id":"ce4bhch2rcd13ifvqeug","pricing_plan_id":"free"},{"bike_id":"280a19a3-c9fc-4bcf-85d2-bfa6beade3b1","system_id":"levelo_inurba_marseille","lat":43.2862,"lon":5.35105,"is_reserved":false,"is_disabled":false,"rental_uris":{"android":"levelo://app?vid=280a19a3-c9fc-4bcf-85d2-bfa6beade3b1","ios":"levelo://app?vid=280a19a3-c9fc-4bcf-85d2-bfa6beade3b1"},"vehicle_type_id":"4","last_reported":1706807181,"current_range_meters":400,"station_id":"ce4bhch2rcd13ifvqeug","pricing_plan_id":"free"},{"bike_id":"8385f9b2-0d4f-4308-8da1-2b0ec475bf1c","system_id":"levelo_inurba_marseille","lat":43.285848,"lon":5.350787,"is_reserved":false,"is_disabled":false,"rental_uris":{"android":"levelo://app?vid=8385f9b2-0d4f-4308-8da1-2b0ec475bf1c","ios":"levelo://app?vid=8385f9b2-0d4f-4308-8da1-2b0ec475bf1c"},"vehicle_type_id":"4","last_reported":1706807181,"current_range_meters":18800,"station_id":"ce4bhch2rcd13ifvqeug","pricing_plan_id":"free"},{"bike_id":"0cfba16c-fe19-45c4-93bb-8e679b237451","system_id":"levelo_inurba_marseille","lat":43.28616,"lon":5.35111,"is_reserved":false,"is_disabled":false,"rental_uris":{"android":"levelo://app?vid=0cfba16c-fe19-45c4-93bb-8e679b237451","ios":"levelo://app?vid=0cfba16c-fe19-45c4-93bb-8e679b237451"},"vehicle_type_id":"4","last_reported":1706807181,"current_range_meters":18800,"station_id":"","pricing_plan_id":"free"},{"bike_id":"e18797b3-7b81-4bfe-a043-3c885210c828","system_id":"levelo_inurba_marseille","lat":43.285848,"lon":5.350787,"is_reserved":false,"is_disabled":false,"rental_uris":{"android":"levelo://app?vid=e18797b3-7b81-4bfe-a043-3c885210c828","ios":"levelo://app?vid=e18797b3-7b81-4bfe-a043-3c885210c828"},"vehicle_type_id":"4","last_reported":1706807181,"current_range_meters":16400,"station_id":"ce4bhch2rcd13ifvqeug","pricing_plan_id":"free"},{"bike_id":"a500304c-6665-407d-80a9-fafb64dc60b7","system_id":"levelo_inurba_marseille","lat":43.28616,"lon":5.35105,"is_reserved":false,"is_disabled":false,"rental_uris":{"android":"levelo://app?vid=a500304c-6665-407d-80a9-fafb64dc60b7","ios":"levelo://app?vid=a500304c-6665-407d-80a9-fafb64dc60b7"},