{"last_updated":1725808103,"ttl":30,"version":"2.2","data":{"bikes":[{"bike_id":"f5b46ba5-a56e-4c98-b318-0dfa1e175bb0","system_id":"levelo_inurba_marseille","lat":43.313391,"lon":5.36706,"is_reserved":false,"is_disabled":false,"rental_uris":{"android":"levelo://app?vid=f5b46ba5-a56e-4c98-b318-0dfa1e175bb0","ios":"levelo://app?vid=f5b46ba5-a56e-4c98-b318-0dfa1e175bb0"},"vehicle_type_id":"4","last_reported":1725808104,"current_range_meters":23600,"station_id":"ce4bgr92rcd13ifvqc6g","pricing_plan_id":"cebpf4jnsgd1na2vs0mg"},{"bike_id":"7ad8e728-ab31-4b88-b505-d69ba0e4dfc1","system_id":"levelo_inurba_marseille","lat":43.313391,"lon":5.36706,"is_reserved":false,"is_disabled":false,"rental_uris":{"android":"levelo://app?vid=7ad8e728-ab31-4b88-b505-d69ba0e4dfc1","ios":"levelo://app?vid=7ad8e728-ab31-4b88-b505-d69ba0e4dfc1"},"vehicle_type_id":"4","last_reported":1725808104,"current_range_meters":27200,"station_id":"ce4bgr92rcd13ifvqc6g","pricing_plan_id":"cebpf4jnsgd1na2vs0mg"},{"bike_id":"60112c5c-789f-4bf2-8442-59cbb4b5eb20","system_id":"levelo_inurba_marseille","lat":43.313391,"lon":5.36706,"is_reserved":false,"is_disabled":false,"rental_uris":{"android":"levelo://app?vid=60112c5c-789f-4bf2-8442-59cbb4b5eb20","ios":"levelo://app?vid=60112c5c-789f-4bf2-8442-59cbb4b5eb20"},"vehicle_type_id":"4","last_reported":1725808104,"current_range_meters":31200,"station_id":"ce4bgr92rcd13ifvqc6g","pricing_plan_id":"cebpf4jnsgd1na2vs0mg"},{"bike_id":"42fd1a5e-06c2-45a8-995c-5e4eff8fe16c","system_id":"levelo_inurba_marseille","lat":43.313391,"lon":5.36706,"is_reserved":false,"is_disabled":false,"rental_uris":{"android":"levelo://app?vid=42fd1a5e-06c2-45a8-995c-5e4eff8fe16c","ios":"levelo://app?vid=42fd1a5e-06c2-45a8-995c-5e4eff8fe16c"},"vehicle_type_id":"4","last_reported":1725808104,"current_range_meters":24400,"station_id":"ce4bgr92rcd13ifvqc6g","pricing_plan_id":"cebpf4jnsgd1na2vs0mg"},{"bike_id":"02df3d47-2f31-4b23-9d90-3b1f37faa2f1","system_id":"levelo_inurba_marseille","lat":43.31341,"lon":5.367098,"is_reserved":false,"is_disabled":false,"rental_uris":{"android":"levelo://app?vid=02df3d47-2f31-4b23-9d90-3b1f37faa2f1","ios":"levelo://app?vid=02df3d47-2f31-4b23-9d90-3b1f37faa2f1"},"vehicle_type_id":"4","last_reported":1725808104,"current_range_meters":31200,"station_id":"ce4bgr92rcd13ifvqc6g","pricing_plan_id":"cebpf4jnsgd1na2vs0mg"},{"bike_id":"ccc6918a-ed87-4a07-84a7-0e426e1f262f","system_id":"levelo_inurba_marseille","lat":43.312239,"lon":5.368562,"is_reserved":false,"is_disabled":false,"rental_uris":{"android":"levelo://app?vid=ccc6918a-ed87-4a07-84a7-0e426e1f262f","ios":"levelo://app?vid=ccc6918a-ed87-4a07-84a7-0e426e1f262f"},"vehicle_type_id":"4","last_reported":1725808104,"current_range_meters":30000,"station_id":"ce4bgl92rcd13ifvqbq0","pricing_plan_id":"cebpf4jnsgd1na2vs0mg"},{"bike_id":"38eb6c33-36d5-41a7-a870-7afcbe5bc102","system_id":"levelo_inurba_marseille","lat":43.312239,"lon":5.368562,"is_reserved":false,"is_disabled":false,"rental_uris":{"android":"levelo://app?vid=38eb6c33-36d5-41a7-a870-7afcbe5bc102","ios":"levelo://app?vid=38eb6c33-36d5-41a7-a870-7afcbe5bc102"},"vehicle_type_id":"4","last_reported":1725808104,"current_range_meters":31200,"station_id":"ce4bgl92rcd13ifvqbq0","pricing_plan_id":"cebpf4jnsgd1na2vs0mg"},{"bike_id":"e70e23da-ab20-463a-8203-8791fb671e66","system_id":"levelo_inurba_marseille","lat":43.312239,"lon":5.368562,"is_reserved":false,"is_disabled":false,"rental_uris":{"android":"levelo://app?vid=e70e23da-ab20-463a-8203-8791fb671e66","ios":"levelo://app?vid=e70e23da-ab20-463a-8203-8791fb671e66"},"vehicle_type_id":"4","last_reported":1725808104,"current_range_meters":31200,"station_id":"ce4bgl92rcd13ifvqbq0","pricing_plan_id":"cebpf4jnsgd1na2vs0mg"},{"bike_id":"6afd00be-a1d8-4e34-9773-b251e15b321f","system_id":"levelo_inurba_marseille","lat":43.312239,"lon":5.368562,"is_reserved":false,"is_disabled":false,"rental_uris":{"android":"levelo://app?vid=6afd00be-a1d8-4e34-9773-b251e15b321f","ios":"levelo://app?vid=6afd00be-a1d8-4e34-9773-b251e15b321f"},"vehicle_type_id":"4","last_reported":1725808104,"current_range_meters":18800,"station_id":"ce4bgl92rcd13ifvqbq0","pricing_plan_id":"cebpf4jnsgd1na2vs0mg"},{"bike_id":"2b8500b9-5052-4ee6-83e8-6f444884bf17","system_id":"levelo_inurba_marseille","lat":43.312239,"lon":5.368562,"is_reserved":false,"is_disabled":false,"rental_uris":{"android":"levelo://app?vid=2b8500b9-5052-4ee6-83e8-6f444884bf17","ios":"levelo://app?vid=2b8500b9-5052-4ee6-83e8-6f444884bf17"},"vehicle_type_id":"4","last_reported":1725808104,"current_range_meters":10400,"station_id":"ce4bgl92rcd13ifvqbq0","pricing_plan_id":"cebpf4jnsgd1na2vs0mg"},{"bike_id":"6a2478c9-0c39-4768-a1c5-bb88bfee8cd2","system_id":"levelo_inurba_marseille","lat":43.312239,"lon":5.368562,"is_reserved":false,"is_disabled":false,"rental_uris":{"android":"levelo://app?vid=6a2478c9-0c39-4768-a1c5-bb88bfee8cd2","ios":"levelo://app?vid=6a2478c9-0c39-4768-a1c5-bb88bfee8cd2"},"vehicle_type_id":"4","last_reported":1725808104,"current_range_meters":4400,"station_id":"ce4bgl92rcd13ifvqbq0","pricing_plan_id":"cebpf4jnsgd1na2vs0mg"},{"bike_id":"44eea740-1b0e-4c30-907f-8a55885923f6","system_id":"levelo_inurba_marseille","lat":43.309076,"lon":5.368465,"is_reserved":false,"is_disabled":false,"rental_uris":{"android":"levelo://app?vid=44eea740-1b0e-4c30-907f-8a55885923f6","ios":"levelo://app?vid=44eea740-1b0e-4c30-907f-8a55885923f6"},"vehicle_type_id":"4","last_reported":1725808104,"current_range_meters":26800,"station_id":"ce4bgn92rcd13ifvqbvg","pricing_plan_id":"cebpf4jnsgd1na2vs0mg"},{"bike_id":"b8d47815-963d-4574-a876-1b7857ef0554","system_id":"levelo_inurba_marseille","lat":43.309076,"lon":5.368465,"is_reserved":false,"is_disabled":false,"rental_uris":{"android":"levelo://app?vid=b8d47815-963d-4574-a876-1b7857ef0554","ios":"levelo://app?vid=b8d47815-963d-4574-a876-1b7857ef0554"},"vehicle_type_id":"4","last_reported":1725808104,"current_range_meters":9600,"station_id":"ce4bgn92rcd13ifvqbvg","pricing_plan_id":"cebpf4jnsgd1na2vs0mg"},{"bike_id":"e5628688-2352-47b5-998f-fe03643c12f6","system_id":"levelo_inurba_marseille","lat":43.31495,"lon":5.37302,"is_reserved":false,"is_disabled":false,"rental_uris":{"android":"levelo://app?vid=e5628688-2352-47b5-998f-fe03643c12f6","ios":"levelo://app?vid=e5628688-2352-47b5-998f-fe03643c12f6"},"vehicle_type_id":"4","last_reported":1725808104,"current_range_meters":0,"station_id":"ce4bgt12rcd13ifvqcd0","pricing_plan_id":"cebpf4jnsgd1na2vs0mg"},{"bike_id":"76930846-dbb6-408f-8b42-237e3d133289","system_id":"levelo_inurba_marseille","lat":43.308824,"lon":5.371933,"is_reserved":false,"is_disabled":false,"rental_uris":{"android":"levelo://app?vid=76930846-dbb6-408f-8b42-237e3d133289","ios":"levelo://app?vid=76930846-dbb6-408f-8b42-237e3d133289"},"vehicle_type_id":"4","last_reported":1725808104,"current_range_meters":25200,"station_id":"ce4bguh2rcd13ifvqckg","pricing_plan_id":"cebpf4jnsgd1na2vs0mg"},{"bike_id":"224f8581-53a3-4b9f-a85a-7b39d5fa861a","system_id":"levelo_inurba_marseille","lat":43.305712,"lon":5.365641,"is_reserved":false,"is_disabled":false,"rental_uris":{"android":"levelo://app?vid=224f8581-53a3-4b9f-a85a-7b39d5fa861a","ios":"levelo://app?vid=224f8581-53a3-4b9f-a85a-7b39d5fa861a"},"vehicle_type_id":"4","last_reported":1725808104,"current_range_meters":30400,"station_id":"ce4bgs12rcd13ifvqcag","pricing_plan_id":"cebpf4jnsgd1na2vs0mg"},{"bike_id":"f08c3e91-9d4a-4398-964c-b1a186d57906","system_id":"levelo_inurba_marseille","lat":43.30537,"lon":5.367345,"is_reserved":false,"is_disabled":false,"rental_uris":{"android":"levelo://app?vid=f08c3e91-9d4a-4398-964c-b1a186d57906","ios":"levelo://app?vid=f08c3e91-9d4a-4398-964c-b1a186d57906"},"vehicle_type_id":"4","last_reported":1725808104,"current_range_meters":21200,"station_id":"ce4bgrp2rcd13ifvqc9g","pricing_plan_id":"cebpf4jnsgd1na2vs0mg"},{"bike_id":"2ab57921-cbbc-4443-b8e9-54c6b6af075a","system_id":"levelo_inurba_marseille","lat":43.3055,"lon":5.367123,"is_reserved":false,"is_disabled":false,"rental_uris":{"android":"levelo://app?vid=2ab57921-cbbc-4443-b8e9-54c6b6af075a","ios":"levelo://app?vid=2ab57921-cbbc-4443-b8e9-54c6b6af075a"},"vehicle_type_id":"4","last_reported":1725808104,"current_range_meters":0,"station_id":"ce4bgrp2rcd13ifvqc9g","pricing_plan_id":"cebpf4jnsgd1na2vs0mg"},{"bike_id":"f7e26bcc-688b-46c2-b18b-d76e4e0d2c0e","system_id":"levelo_inurba_marseille","lat":43.305712,"lon":5.365641,"is_reserved":false,"is_disabled":false,"rental_uris":{"android":"levelo://app?vid=f7e26bcc-688b-46c2-b18b-d76e4e0d2c0e","ios":"levelo://app?vid=f7e26bcc-688b-46c2-b18b-d76e4e0d2c0e"},"vehicle_type_id":"4","last_reported":1725808104,"current_range_meters":18800,"station_id":"ce4bgs12rcd13ifvqcag","pricing_plan_id":"cebpf4jnsgd1na2vs0mg"},{"bike_id":"c7cd34e9-7734-4514-b509-d28fa202cf76","system_id":"levelo_inurba_marseille","lat":43.305368,"lon":5.367343,"is_reserved":false,"is_disabled":false,"rental_uris":{"android":"levelo://app?vid=c7cd34e9-7734-4514-b509-d28fa202cf76","ios":"levelo://app?vid=c7cd34e9-7734-4514-b509-d28fa202cf76"},"vehicle_type_id":"4","last_reported":1725808104,"current_range_meters":16400,"station_id":"ce4bgrp2rcd13ifvqc9g","pricing_plan_id":"cebpf4jnsgd1na2vs0mg"},{"bike_id":"9e19c449-dd98-4638-ab55-b7f1c317396e","system_id":"levelo_inurba_marseille","lat":43.30537,"lon":5.367345,"is_reserved":false,"is_disabled":false,"rental_uris":{"android":"levelo://app?vid=9e19c449-dd98-4638-ab55-b7f1c317396e","ios":"levelo://app?vid=9e19c449-dd98-4638-ab55-b7f1c317396e"},"vehicle_type_id":"4","last_reported":1725808104,"current_range_meters":24800,"station_id":"ce4bgrp2rcd13ifvqc9g","pricing_plan_id":"cebpf4jnsgd1na2vs0mg"},{"bike_id":"9de147e6-bdb2-4be3-8ecc-1b4ca1c8138f","system_id":"levelo_inurba_marseille","lat":43.30537,"lon":5.367345,"is_reserved":false,"is_disabled":false,"rental_uris":{"android":"levelo://app?vid=9de147e6-bdb2-4be3-8ecc-1b4ca1c8138f","ios":"levelo://app?vid=9de147e6-bdb2-4be3-8ecc-1b4ca1c8138f"},"vehicle_type_id":"4","last_reported":1725808104,"current_range_meters":27600,"station_id":"ce4bgrp2rcd13ifvqc9g","pricing_plan_id":"cebpf4jnsgd1na2vs0mg"},{"bike_id":"85c7f5bd-9d69-4e48-873a-3a0535133d1d","system_id":"levelo_inurba_marseille","lat":43.305706,"lon":5.365654,"is_reserved":false,"is_disabled":false,"rental_uris":{"android":"levelo://app?vid=85c7f5bd-9d69-4e48-873a-3a0535133d1d","ios":"levelo://app?vid=85c7f5bd-9d69-4e48-873a-3a0535133d1d"},"vehicle_type_id":"4","last_reported":1725808104,"current_range_meters":26000,"station_id":"ce4bgs12rcd13ifvqcag","pricing_plan_id":"cebpf4jnsgd1na2vs0mg"},{"bike_id":"9ccae7d9-b1cf-4ac1-8609-88df86e89002","system_id":"levelo_inurba_marseille","lat":43.305706,"lon":5.365654,"is_reserved":false,"is_disabled":false,"rental_uris":{"android":"levelo://app?vid=9ccae7d9-b1cf-4ac1-8609-88df86e89002","ios":"levelo://app?vid=9ccae7d9-b1cf-4ac1-8609-88df86e89002"},"vehicle_type_id":"4","last_reported":1725808104,"current_range_meters":29600,"station_id":"ce4bgs12rcd13ifvqcag","pricing_plan_id":"cebpf4jnsgd1na2vs0mg"},{"bike_id":"7ed62d24-2497-4976-ab67-8af9cf4daf62","system_id":"levelo_inurba_marseille","lat":43.30549,"lon":5.36526,"is_reserved":false,"is_disabled":false,"rental_uris":{"android":"levelo://app?vid=7ed62d24-2497-4976-ab67-8af9cf4daf62","ios":"levelo://app?vid=7ed62d24-2497-4976-ab67-8af9cf4daf62"},"vehicle_type_id":"4","last_reported":1725808104,"current_range_meters":0,"station_id":"ce4bgs12rcd13ifvqcag","pricing_plan_id":"cebpf4jnsgd1na2vs0mg"},{"bike_id":"52fad19d-751b-4100-9cca-3d1cea124562","system_id":"levelo_inurba_marseille","lat":43.305706,"lon":5.365654,"is_reserved":false,"is_disabled":false,"rental_uris":{"android":"levelo://app?vid=52fad19d-751b-4100-9cca-3d1cea124562","ios":"levelo://app?vid=52fad19d-751b-4100-9cca-3d1cea124562"},"vehicle_type_id":"4","last_reported":1725808104,"current_range_meters":14000,"station_id":"ce4bgs12rcd13ifvqcag","pricing_plan_id":"cebpf4jnsgd1na2vs0mg"},{"bike_id":"59055de8-652a-4c97-a188-d5dc83d53b92","system_id":"levelo_inurba_marseille","lat":43.305706,"lon":5.365654,"is_reserved":false,"is_disabled":false,"rental_uris":{"android":"levelo://app?vid=59055de8-652a-4c97-a188-d5dc83d53b92","ios":"levelo://app?vid=59055de8-652a-4c97-a188-d5dc83d53b92"},"vehicle_type_id":"4","last_reported":1725808104,"current_range_meters":28400,"station_id":"ce4bgs12rcd13ifvqcag","pricing_plan_id":"cebpf4jnsgd1na2vs0mg"},{"bike_id":"019f2a8c-a529-4877-8ec2-4310b89e0685","system_id":"levelo_inurba_marseille","lat":43.305368,"lon":5.367343,"is_reserved":false,"is_disabled":false,"rental_uris":{"android":"levelo://app?vid=019f2a8c-a529-4877-8ec2-4310b89e0685","ios":"levelo://app?vid=019f2a8c-a529-4877-8ec2-4310b89e0685"},"vehicle_type_id":"4","last_reported":1725808104,"current_range_meters":0,"station_id":"ce4bgrp2rcd13ifvqc9g","pricing_plan_id":"cebpf4jnsgd1na2vs0mg"},{"bike_id":"d2bf0ad1-7367-4491-8c9e-b495bf29ea67","system_id":"levelo_inurba_marseille","lat":43.305706,"lon":5.365654,"is_reserved":false,"is_disabled":false,"rental_uris":{"android":"levelo://app?vid=d2bf0ad1-7367-4491-8c9e-b495bf29ea67","ios":"levelo://app?vid=d2bf0ad1-7367-4491-8c9e-b495bf29ea67"},"vehicle_type_id":"4","last_reported":1725808104,"current_range_meters":26400,"station_id":"ce4bgs12rcd13ifvqcag","pricing_plan_id":"cebpf4jnsgd1na2vs0mg"},{"bike_id":"b3421e26-7d0a-45c7-93a6-e642c1caead7","system_id":"levelo_inurba_marseille","lat":43.305706,"lon":5.365654,"is_reserved":false,"is_disabled":false,"rental_uris":{"android":"levelo://app?vid=b3421e26-7d0a-45c7-93a6-e642c1caead7","ios":"levelo://app?vid=b3421e26-7d0a-45c7-93a6-e642c1caead7"},"vehicle_type_id":"4","last_reported":1725808104,"current_range_meters":9200,"station_id":"ce4bgs12rcd13ifvqcag","pricing_plan_id":"cebpf4jnsgd1na2vs0mg"},{"bike_id":"efd4445d-ac41-44c6-94a9-bd5580197188","system_id":"levelo_inurba_marseille","lat":43.305706,"lon":5.365654,"is_reserved":false,"is_disabled":false,"rental_uris":{"android":"levelo://app?vid=efd4445d-ac41-44c6-94a9-bd5580197188","ios":"levelo://app?vid=efd4445d-ac41-44c6-94a9-bd5580197188"},"vehicle_type_id":"4","last_reported":1725808104,"current_range_meters":24400,"station_id":"ce4bgs12rcd13ifvqcag","pricing_plan_id":"cebpf4jnsgd1na2vs0mg"},{"bike_id":"f5d5e72e-36d4-4004-b54a-6badbad09940","system_id":"levelo_inurba_marseille","lat":43.305706,"lon":5.365654,"is_reserved":false,"is_disabled":false,"rental_uris":{"android":"levelo://app?vid=f5d5e72e-36d4-4004-b54a-6badbad09940","ios":"levelo://app?vid=f5d5e72e-36d4-4004-b54a-6badbad09940"},"vehicle_type_id":"4","last_reported":1725808104,"current_range_meters":17600,"station_id":"ce4bgs12rcd13ifvqcag","pricing_plan_id":"cebpf4jnsgd1na2vs0mg"},{"bike_id":"566f4a7b-b3fc-49ad-96f3-4e25030fe87e","system_id":"levelo_inurba_marseille","lat":43.305368,"lon":5.367343,"is_reserved":false,"is_disabled":false,"rental_uris":{"android":"levelo://app?vid=566f4a7b-b3fc-49ad-96f3-4e25030fe87e","ios":"levelo://app?vid=566f4a7b-b3fc-49ad-96f3-4e25030fe87e"},"vehicle_type_id":"4","last_reported":1725808104,"current_range_meters":24400,"station_id":"ce4bgrp2rcd13ifvqc9g","pricing_plan_id":"cebpf4jnsgd1na2vs0mg"},{"bike_id":"f5d04f82-8b61-4c84-8aa8-7b9949db8422","system_id":"levelo_inurba_marseille","lat":43.305706,"lon":5.365654,"is_reserved":false,"is_disabled":false,"rental_uris":{"android":"levelo://app?vid=f5d04f82-8b61-4c84-8aa8-7b9949db8422","ios":"levelo://app?vid=f5d04f82-8b61-4c84-8aa8-7b9949db8422"},"vehicle_type_id":"4","last_reported":1725808104,"current_range_meters":17600,"station_id":"ce4bgs12rcd13ifvqcag","pricing_plan_id":"cebpf4jnsgd1na2vs0mg"},{"bike_id":"e1a5014a-3fd8-452b-9ecf-b604056dff1a","system_id":"levelo_inurba_marseille","lat":43.305706,"lon":5.365654,"is_reserved":false,"is_disabled":false,"rental_uris":{"android":"levelo://app?vid=e1a5014a-3fd8-452b-9ecf-b604056dff1a","ios":"levelo://app?vid=e1a5014a-3fd8-452b-9ecf-b604056dff1a"},"vehicle_type_id":"4","last_reported":1725808104,"current_range_meters":20000,"station_id":"ce4bgs12rcd13ifvqcag","pricing_plan_id":"cebpf4jnsgd1na2vs0mg"},{"bike_id":"5e92ef9b-6c4c-438d-a6a4-bcb64a006082","system_id":"levelo_inurba_marseille","lat":43.305706,"lon":5.365654,"is_reserved":false,"is_disabled":false,"rental_uris":{"android":"levelo://app?vid=5e92ef9b-6c4c-438d-a6a4-bcb64a006082","ios":"levelo://app?vid=5e92ef9b-6c4c-438d-a6a4-bcb64a006082"},"vehicle_type_id":"4","last_reported":1725808104,"current_range_meters":6000,"station_id":"ce4bgs12rcd13ifvqcag","pricing_plan_id":"cebpf4jnsgd1na2vs0mg"},{"bike_id":"10791081-9b28-4954-96ab-1d945b99544f","system_id":"levelo_inurba_marseille","lat":43.305706,"lon":5.365654,"is_reserved":false,"is_disabled":false,"rental_uris":{"android":"levelo://app?vid=10791081-9b28-4954-96ab-1d945b99544f","ios":"levelo://app?vid=10791081-9b28-4954-96ab-1d945b99544f"},"vehicle_type_id":"4","last_reported":1725808104,"current_range_meters":13200,"station_id":"ce4bgs12rcd13ifvqcag","pricing_plan_id":"cebpf4jnsgd1na2vs0mg"},{"bike_id":"88405fcc-ea05-4ab7-9f4b-a80235a29c59","system_id":"levelo_inurba_marseille","lat":43.305706,"lon":5.365654,"is_reserved":false,"is_disabled":false,"rental_uris":{"android":"levelo://app?vid=88405fcc-ea05-4ab7-9f4b-a80235a29c59","ios":"levelo://app?vid=88405fcc-ea05-4ab7-9f4b-a80235a29c59"},"vehicle_type_id":"4","last_reported":1725808104,"current_range_meters":0,"station_id":"ce4bgs12rcd13ifvqcag","pricing_plan_id":"cebpf4jnsgd1na2vs0mg"},{"bike_id":"e202ce4f-915f-4831-8383-273248161f10","system_id":"levelo_inurba_marseille","lat":43.305706,"lon":5.365654,"is_reserved":false,"is_disabled":false,"rental_uris":{"android":"levelo://app?vid=e202ce4f-915f-4831-8383-273248161f10","ios":"levelo://app?vid=e202ce4f-915f-4831-8383-273248161f10"},"vehicle_type_id":"4","last_reported":1725808104,"current_range_meters":24800,"station_id":"ce4bgs12rcd13ifvqcag","pricing_plan_id":"cebpf4jnsgd1na2vs0mg"},{"bike_id":"03aafd1f-260e-4b01-9b0f-3e785cc3f93f","system_id":"levelo_inurba_marseille","lat":43.305706,"lon":5.365654,"is_reserved":false,"is_disabled":false,"rental_uris":{"android":"levelo://app?vid=03aafd1f-260e-4b01-9b0f-3e785cc3f93f","ios":"levelo://app?vid=03aafd1f-260e-4b01-9b0f-3e785cc3f93f"},"vehicle_type_id":"4","last_reported":1725808104,"current_range_meters":16000,"station_id":"ce4bgs12rcd13ifvqcag","pricing_plan_id":"cebpf4jnsgd1na2vs0mg"},{"bike_id":"cc4c2026-101a-4cec-b7b0-cb678377118c","system_id":"levelo_inurba_marseille","lat":43.305706,"lon":5.365654,"is_reserved":false,"is_disabled":false,"rental_uris":{"android":"levelo://app?vid=cc4c2026-101a-4cec-b7b0-cb678377118c","ios":"levelo://app?vid=cc4c2026-101a-4cec-b7b0-cb678377118c"},"vehicle_type_id":"4","last_reported":1725808104,"current_range_meters":2400,"station_id":"ce4bgs12rcd13ifvqcag","pricing_plan_id":"cebpf4jnsgd1na2vs0mg"},{"bike_id":"f4e7b952-0868-43bb-ba09-3692982f2389","system_id":"levelo_inurba_marseille","lat":43.305989,"lon":5.37225,"is_reserved":false,"is_disabled":false,"rental_uris":{"android":"levelo://app?vid=f4e7b952-0868-43bb-ba09-3692982f2389","ios":"levelo://app?vid=f4e7b952-0868-43bb-ba09-3692982f2389"},"vehicle_type_id":"4","last_reported":1725808104,"current_range_meters":28400,"station_id":"ce4bgqh2rcd13ifvqc4g","pricing_plan_id":"cebpf4jnsgd1na2vs0mg"},{"bike_id":"e8286f6f-a23f-402d-9a95-b6b15c46ce50","system_id":"levelo_inurba_marseille","lat":43.305989,"lon":5.37225,"is_reserved":false,"is_disabled":false,"rental_uris":{"android":"levelo://app?vid=e8286f6f-a23f-402d-9a95-b6b15c46ce50","ios":"levelo://app?vid=e8286f6f-a23f-402d-9a95-b6b15c46ce50"},"vehicle_type_id":"4","last_reported":1725808104,"current_range_meters":800,"station_id":"ce4bgqh2rcd13ifvqc4g","pricing_plan_id":"cebpf4jnsgd1na2vs0mg"},{"bike_id":"7c439e31-fb48-4dc2-945b-01dd9e9bbc1e","system_id":"levelo_inurba_marseille","lat":43.30607,"lon":5.37226,"is_reserved":false,"is_disabled":false,"rental_uris":{"android":"levelo://app?vid=7c439e31-fb48-4dc2-945b-01dd9e9bbc1e","ios":"levelo://app?vid=7c439e31-fb48-4dc2-945b-01dd9e9bbc1e"},"vehicle_type_id":"4","last_reported":1725808104,"current_range_meters":20000,"station_id":"ce4bgqh2rcd13ifvqc4g","pricing_plan_id":"cebpf4jnsgd1na2vs0mg"},{"bike_id":"a337eed5-3319-44ed-bf59-62c86c435ca8","system_id":"levelo_inurba_marseille","lat":43.305989,"lon":5.37225,"is_reserved":false,"is_disabled":false,"rental_uris":{"android":"levelo://app?vid=a337eed5-3319-44ed-bf59-62c86c435ca8","ios":"levelo://app?vid=a337eed5-3319-44ed-bf59-62c86c435ca8"},"vehicle_type_id":"4","last_reported":1725808104,"current_range_meters":3200,"station_id":"ce4bgqh2rcd13ifvqc4g","pricing_plan_id":"cebpf4jnsgd1na2vs0mg"},{"bike_id":"8a10f8b0-b88c-4da8-a2f8-7deda4e24433","system_id":"levelo_inurba_marseille","lat":43.307945,"lon":5.376487,"is_reserved":false,"is_disabled":false,"rental_uris":{"android":"levelo://app?vid=8a10f8b0-b88c-4da8-a2f8-7deda4e24433","ios":"levelo://app?vid=8a10f8b0-b88c-4da8-a2f8-7deda4e24433"},"vehicle_type_id":"4","last_reported":1725808104,"current_range_meters":17600,"station_id":"ce4bgv92rcd13ifvqcq0","pricing_plan_id":"cebpf4jnsgd1na2vs0mg"},{"bike_id":"c6eb3fb3-4852-4ea4-b91c-5fccc1d81734","system_id":"levelo_inurba_marseille","lat":43.307945,"lon":5.376487,"is_reserved":false,"is_disabled":false,"rental_uris":{"android":"levelo://app?vid=c6eb3fb3-4852-4ea4-b91c-5fccc1d81734","ios":"levelo://app?vid=c6eb3fb3-4852-4ea4-b91c-5fccc1d81734"},"vehicle_type_id":"4","last_reported":1725808104,"current_range_meters":20800,"station_id":"ce4bgv92rcd13ifvqcq0","pricing_plan_id":"cebpf4jnsgd1na2vs0mg"},{"bike_id":"c0c6ab8c-0ae1-4db0-ae2e-cd26384765da","system_id":"levelo_inurba_marseille","lat":43.307945,"lon":5.376487,"is_reserved":false,"is_disabled":false,"rental_uris":{"android":"levelo://app?vid=c0c6ab8c-0ae1-4db0-ae2e-cd26384765da","ios":"levelo://app?vid=c0c6ab8c-0ae1-4db0-ae2e-cd26384765da"},"vehicle_type_id":"4","last_reported":1725808104,"current_range_meters":31200,"station_id":"ce4bgv92rcd13ifvqcq0","pricing_plan_id":"cebpf4jnsgd1na2vs0mg"},{"bike_id":"cb72cf2b-2fb8-4dd8-8034-84ff0b97ee9d","system_id":"levelo_inurba_marseille","lat":43.307945,"lon":5.376487,"is_reserved":false,"is_disabled":false,"rental_uris":{"android":"levelo://app?vid=cb72cf2b-2fb8-4dd8-8034-84ff0b97ee9d","ios":"levelo://app?vid=cb72cf2b-2fb8-4dd8-8034-84ff0b97ee9d"},"vehicle_type_id":"4","last_reported":1725808104,"current_range_meters":31600,"station_id":"ce4bgv92rcd13ifvqcq0","pricing_plan_id":"cebpf4jnsgd1na2vs0mg"},{"bike_id":"f94766f9-e62d-485d-9c46-c95e702474ab","system_id":"levelo_inurba_marseille","lat":43.317075,"lon":5.377367,"is_reserved":false,"is_disabled":false,"rental_uris":{"android":"levelo://app?vid=f94766f9-e62d-485d-9c46-c95e702474ab","ios":"levelo://app?vid=f94766f9-e62d-485d-9c46-c95e702474ab"},"vehicle_type_id":"4","last_reported":1725808104,"current_range_meters":18800,"station_id":"ce4bgth2rcd13ifvqch0","pricing_plan_id":"cebpf4jnsgd1na2vs0mg"},{"bike_id":"a4adebcc-2100-4f8f-a7df-69b3cc0bca7c","system_id":"levelo_inurba_marseille","lat":43.317075,"lon":5.377367,"is_reserved":false,"is_disabled":false,"rental_uris":{"android":"levelo://app?vid=a4adebcc-2100-4f8f-a7df-69b3cc0bca7c","ios":"levelo://app?vid=a4adebcc-2100-4f8f-a7df-69b3cc0bca7c"},"vehicle_type_id":"4","last_reported":1725808104,"current_range_meters":31200,"station_id":"ce4bgth2rcd13ifvqch0","pricing_plan_id":"cebpf4jnsgd1na2vs0mg"},{"bike_id":"e3e1dd25-8ed5-472d-9db9-97e1faaa25ea","system_id":"levelo_inurba_marseille","lat":43.317075,"lon":5.377367,"is_reserved":false,"is_disabled":false,"rental_uris":{"android":"levelo://app?vid=e3e1dd25-8ed5-472d-9db9-97e1faaa25ea","ios":"levelo://app?vid=e3e1dd25-8ed5-472d-9db9-97e1faaa25ea"},"vehicle_type_id":"4","last_reported":1725808104,"current_range_meters":30800,"station_id":"ce4bgth2rcd13ifvqch0","pricing_plan_id":"cebpf4jnsgd1na2vs0mg"},{"bike_id":"da566e56-6622-4890-bf66-87df86965ede","system_id":"levelo_inurba_marseille","lat":43.31714,"lon":5.37761,"is_reserved":false,"is_disabled":false,"rental_uris":{"android":"levelo://app?vid=da566e56-6622-4890-bf66-87df86965ede","ios":"levelo://app?vid=da566e56-6622-4890-bf66-87df86965ede"},"vehicle_type_id":"4","last_reported":1725808104,"current_range_meters":31200,"station_id":"ce4bgth2rcd13ifvqch0","pricing_plan_id":"cebpf4jnsgd1na2vs0mg"},{"bike_id":"e6240958-5766-4e43-be3c-5414d3e93fa9","system_id":"levelo_inurba_marseille","lat":43.31354,"lon":5.37918,"is_reserved":false,"is_disabled":false,"rental_uris":{"android":"levelo://app?vid=e6240958-5766-4e43-be3c-5414d3e93fa9","ios":"levelo://app?vid=e6240958-5766-4e43-be3c-5414d3e93fa9"},"vehicle_type_id":"4","last_reported":1725808104,"current_range_meters":18800,"station_id":"","pricing_plan_id":"cebpf4jnsgd1na2vs0mg"},{"bike_id":"0aff4386-9eaf-466e-a82c-07c34622b214","system_id":"levelo_inurba_marseille","lat":43.303046,"lon":5.368981,"is_reserved":false,"is_disabled":false,"rental_uris":{"android":"levelo://app?vid=0aff4386-9eaf-466e-a82c-07c34622b214","ios":"levelo://app?vid=0aff4386-9eaf-466e-a82c-07c34622b214"},"vehicle_type_id":"4","last_reported":1725808104,"current_range_meters":13600,"station_id":"ce4bgqh2rcd13ifvqc5g","pricing_plan_id":"cebpf4jnsgd1na2vs0mg"},{"bike_id":"160454de-5064-4328-81b5-dcb81f88ea3d","system_id":"levelo_inurba_marseille","lat":43.301939,"lon":5.366286,"is_reserved":false,"is_disabled":false,"rental_uris":{"android":"levelo://app?vid=160454de-5064-4328-81b5-dcb81f88ea3d","ios":"levelo://app?vid=160454de-5064-4328-81b5-dcb81f88ea3d"},"vehicle_type_id":"4","last_reported":1725808104,"current_range_meters":12800,"station_id":"ce4bgrh2rcd13ifvqc8g","pricing_plan_id":"cebpf4jnsgd1na2vs0mg"},{"bike_id":"1f5d2ad2-859e-4383-81c9-f7b3587f3d46","system_id":"levelo_inurba_marseille","lat":43.308012,"lon":5.381511,"is_reserved":false,"is_disabled":false,"rental_uris":{"android":"levelo://app?vid=1f5d2ad2-859e-4383-81c9-f7b3587f3d46","ios":"levelo://app?vid=1f5d2ad2-859e-4383-81c9-f7b3587f3d46"},"vehicle_type_id":"4","last_reported":1725808104,"current_range_meters":28000,"station_id":"ce4bgt12rcd13ifvqce0","pricing_plan_id":"cebpf4jnsgd1na2vs0mg"},{"bike_id":"e7853135-64bb-4e22-bcf2-0c89c449a958","system_id":"levelo_inurba_marseille","lat":43.308012,"lon":5.381511,"is_reserved":false,"is_disabled":false,"rental_uris":{"android":"levelo://app?vid=e7853135-64bb-4e22-bcf2-0c89c449a958","ios":"levelo://app?vid=e7853135-64bb-4e22-bcf2-0c89c449a958"},"vehicle_type_id":"4","last_reported":1725808104,"current_range_meters":26800,"station_id":"ce4bgt12rcd13ifvqce0","pricing_plan_id":"cebpf4jnsgd1na2vs0mg"},{"bike_id":"8fbc4527-4b78-4a1b-aa7c-5bed902250df","system_id":"levelo_inurba_marseille","lat":43.324771,"lon":5.36557,"is_reserved":false,"is_disabled":false,"rental_uris":{"android":"levelo://app?vid=8fbc4527-4b78-4a1b-aa7c-5bed902250df","ios":"levelo://app?vid=8fbc4527-4b78-4a1b-aa7c-5bed902250df"},"vehicle_type_id":"4","last_reported":1725808104,"current_range_meters":30400,"station_id":"ce4bhs12rcd13ifvqhvg","pricing_plan_id":"cebpf4jnsgd1na2vs0mg"},{"bike_id":"ee9cf53e-0ccb-4ef0-9851-a6bb456f20db","system_id":"levelo_inurba_marseille","lat":43.324812,"lon":5.365688,"is_reserved":false,"is_disabled":false,"rental_uris":{"android":"levelo://app?vid=ee9cf53e-0ccb-4ef0-9851-a6bb456f20db","ios":"levelo://app?vid=ee9cf53e-0ccb-4ef0-9851-a6bb456f20db"},"vehicle_type_id":"4","last_reported":1725808104,"current_range_meters":30400,"station_id":"ce4bhs12rcd13ifvqhvg","pricing_plan_id":"cebpf4jnsgd1na2vs0mg"},{"bike_id":"6c61bdbd-6e35-4fea-aaaf-94a58b260f5d","system_id":"levelo_inurba_marseille","lat":43.32484,"lon":5.36569,"is_reserved":false,"is_disabled":false,"rental_uris":{"android":"levelo://app?vid=6c61bdbd-6e35-4fea-aaaf-94a58b260f5d","ios":"levelo://app?vid=6c61bdbd-6e35-4fea-aaaf-94a58b260f5d"},"vehicle_type_id":"4","last_reported":1725808104,"current_range_meters":30400,"station_id":"ce4bhs12rcd13ifvqhvg","pricing_plan_id":"cebpf4jnsgd1na2vs0mg"},{"bike_id":"021a88da-6eb7-45f6-b343-81e66cc5e7a9","system_id":"levelo_inurba_marseille","lat":43.324771,"lon":5.36557,"is_reserved":false,"is_disabled":false,"rental_uris":{"android":"levelo://app?vid=021a88da-6eb7-45f6-b343-81e66cc5e7a9","ios":"levelo://app?vid=021a88da-6eb7-45f6-b343-81e66cc5e7a9"},"vehicle_type_id":"4","last_reported":1725808104,"current_range_meters":27600,"station_id":"ce4bhs12rcd13ifvqhvg","pricing_plan_id":"cebpf4jnsgd1na2vs0mg"},{"bike_id":"301c765f-68a9-4233-8b43-f6cd633c74db","system_id":"levelo_inurba_marseille","lat":43.32486,"lon":5.36558,"is_reserved":false,"is_disabled":false,"rental_uris":{"android":"levelo://app?vid=301c765f-68a9-4233-8b43-f6cd633c74db","ios":"levelo://app?vid=301c765f-68a9-4233-8b43-f6cd633c74db"},"vehicle_type_id":"4","last_reported":1725808104,"current_range_meters":30400,"station_id":"ce4bhs12rcd13ifvqhvg","pricing_plan_id":"cebpf4jnsgd1na2vs0mg"},{"bike_id":"a9f5029c-9b9d-4188-8343-c91f49dc1947","system_id":"levelo_inurba_marseille","lat":43.324771,"lon":5.36557,"is_reserved":false,"is_disabled":false,"rental_uris":{"android":"levelo://app?vid=a9f5029c-9b9d-4188-8343-c91f49dc1947","ios":"levelo://app?vid=a9f5029c-9b9d-4188-8343-c91f49dc1947"},"vehicle_type_id":"4","last_reported":1725808104,"current_range_meters":15200,"station_id":"ce4bhs12rcd13ifvqhvg","pricing_plan_id":"cebpf4jnsgd1na2vs0mg"},{"bike_id":"8111d373-d8ce-46c3-8612-d016e1f13fb5","system_id":"levelo_inurba_marseille","lat":43.324771,"lon":5.36557,"is_reserved":false,"is_disabled":false,"rental_uris":{"android":"levelo://app?vid=8111d373-d8ce-46c3-8612-d016e1f13fb5","ios":"levelo://app?vid=8111d373-d8ce-46c3-8612-d016e1f13fb5"},"vehicle_type_id":"4","last_reported":1725808104,"current_range_meters":28400,"station_id":"ce4bhs12rcd13ifvqhvg","pricing_plan_id":"cebpf4jnsgd1na2vs0mg"},{"bike_id":"f84f12cd-5346-4963-83c4-494a3ab22284","system_id":"levelo_inurba_marseille","lat":43.324771,"lon":5.36557,"is_reserved":false,"is_disabled":false,"rental_uris":{"android":"levelo://app?vid=f84f12cd-5346-4963-83c4-494a3ab22284","ios":"levelo://app?vid=f84f12cd-5346-4963-83c4-494a3ab22284"},"vehicle_type_id":"4","last_reported":1725808104,"current_range_meters":29600,"station_id":"ce4bhs12rcd13ifvqhvg","pricing_plan_id":"cebpf4jnsgd1na2vs0mg"},{"bike_id":"f4cf2b14-0787-453d-b183-96238c9a5283","system_id":"levelo_inurba_marseille","lat":43.324771,"lon":5.36557,"is_reserved":false,"is_disabled":false,"rental_uris":{"android":"levelo://app?vid=f4cf2b14-0787-453d-b183-96238c9a5283","ios":"levelo://app?vid=f4cf2b14-0787-453d-b183-96238c9a5283"},"vehicle_type_id":"4","last_reported":1725808104,"current_range_meters":31200,"station_id":"ce4bhs12rcd13ifvqhvg","pricing_plan_id":"cebpf4jnsgd1na2vs0mg"},{"bike_id":"1ebee506-a41b-42e5-882e-37dfe4752dd7","system_id":"levelo_inurba_marseille","lat":43.324771,"lon":5.36557,"is_reserved":false,"is_disabled":false,"rental_uris":{"android":"levelo://app?vid=1ebee506-a41b-42e5-882e-37dfe4752dd7","ios":"levelo://app?vid=1ebee506-a41b-42e5-882e-37dfe4752dd7"},"vehicle_type_id":"4","last_reported":1725808104,"current_range_meters":30400,"station_id":"ce4bhs12rcd13ifvqhvg","pricing_plan_id":"cebpf4jnsgd1na2vs0mg"},{"bike_id":"3e30c3b5-34e5-46b9-8398-dc2a237afbd4","system_id":"levelo_inurba_marseille","lat":43.310804,"lon":5.38359,"is_reserved":false,"is_disabled":false,"rental_uris":{"android":"levelo://app?vid=3e30c3b5-34e5-46b9-8398-dc2a237afbd4","ios":"levelo://app?vid=3e30c3b5-34e5-46b9-8398-dc2a237afbd4"},"vehicle_type_id":"4","last_reported":1725808104,"current_range_meters":0,"station_id":"ce4bgv92rcd13ifvqcr0","pricing_plan_id":"cebpf4jnsgd1na2vs0mg"},{"bike_id":"c8d26775-a517-45d9-b059-5ca48944d0ea","system_id":"levelo_inurba_marseille","lat":43.31086,"lon":5.38354,"is_reserved":false,"is_disabled":false,"rental_uris":{"android":"levelo://app?vid=c8d26775-a517-45d9-b059-5ca48944d0ea","ios":"levelo://app?vid=c8d26775-a517-45d9-b059-5ca48944d0ea"},"vehicle_type_id":"4","last_reported":1725808104,"current_range_meters":20800,"station_id":"ce4bgv92rcd13ifvqcr0","pricing_plan_id":"cebpf4jnsgd1na2vs0mg"},{"bike_id":"1dae9919-e183-421b-b0a9-ff7b4f184a0c","system_id":"levelo_inurba_marseille","lat":43.310804,"lon":5.38359,"is_reserved":false,"is_disabled":false,"rental_uris":{"android":"levelo://app?vid=1dae9919-e183-421b-b0a9-ff7b4f184a0c","ios":"levelo://app?vid=1dae9919-e183-421b-b0a9-ff7b4f184a0c"},"vehicle_type_id":"4","last_reported":1725808104,"current_range_meters":5200,"station_id":"ce4bgv92rcd13ifvqcr0","pricing_plan_id":"cebpf4jnsgd1na2vs0mg"},{"bike_id":"41d64ae3-1a02-46b5-8ebd-ebb6146098a0","system_id":"levelo_inurba_marseille","lat":43.310804,"lon":5.38359,"is_reserved":false,"is_disabled":false,"rental_uris":{"android":"levelo://app?vid=41d64ae3-1a02-46b5-8ebd-ebb6146098a0","ios":"levelo://app?vid=41d64ae3-1a02-46b5-8ebd-ebb6146098a0"},"vehicle_type_id":"4","last_reported":1725808104,"current_range_meters":20400,"station_id":"ce4bgv92rcd13ifvqcr0","pricing_plan_id":"cebpf4jnsgd1na2vs0mg"},{"bike_id":"d660289a-0e29-4576-b411-857f3bfef14e","system_id":"levelo_inurba_marseille","lat":43.301939,"lon":5.366286,"is_reserved":false,"is_disabled":false,"rental_uris":{"android":"levelo://app?vid=d660289a-0e29-4576-b411-857f3bfef14e","ios":"levelo://app?vid=d660289a-0e29-4576-b411-857f3bfef14e"},"vehicle_type_id":"4","last_reported":1725808104,"current_range_meters":2400,"station_id":"ce4bgrh2rcd13ifvqc8g","pricing_plan_id":"cebpf4jnsgd1na2vs0mg"},{"bike_id":"7665fcd7-b533-4608-bb4b-42423b5bafaa","system_id":"levelo_inurba_marseille","lat":43.302784,"lon":5.377158,"is_reserved":false,"is_disabled":false,"rental_uris":{"android":"levelo://app?vid=7665fcd7-b533-4608-bb4b-42423b5bafaa","ios":"levelo://app?vid=7665fcd7-b533-4608-bb4b-42423b5bafaa"},"vehicle_type_id":"4","last_reported":1725808104,"current_range_meters":24000,"station_id":"ce4bguh2rcd13ifvqcj0","pricing_plan_id":"cebpf4jnsgd1na2vs0mg"},{"bike_id":"9bedd1b0-f1c9-4873-a67a-567df600af9b","system_id":"levelo_inurba_marseille","lat":43.301429,"lon":5.37413,"is_reserved":false,"is_disabled":false,"rental_uris":{"android":"levelo://app?vid=9bedd1b0-f1c9-4873-a67a-567df600af9b","ios":"levelo://app?vid=9bedd1b0-f1c9-4873-a67a-567df600af9b"},"vehicle_type_id":"4","last_reported":1725808104,"current_range_meters":26800,"station_id":"ce4bgs92rcd13ifvqcc0","pricing_plan_id":"cebpf4jnsgd1na2vs0mg"},{"bike_id":"37d69635-6ec1-4f9e-a2ef-d2bad032f3d8","system_id":"levelo_inurba_marseille","lat":43.30265,"lon":5.37712,"is_reserved":false,"is_disabled":false,"rental_uris":{"android":"levelo://app?vid=37d69635-6ec1-4f9e-a2ef-d2bad032f3d8","ios":"levelo://app?vid=37d69635-6ec1-4f9e-a2ef-d2bad032f3d8"},"vehicle_type_id":"4","last_reported":1725808104,"current_range_meters":1600,"station_id":"ce4bguh2rcd13ifvqcj0","pricing_plan_id":"cebpf4jnsgd1na2vs0mg"},{"bike_id":"65a2a57c-3174-4573-b411-2d52b0825544","system_id":"levelo_inurba_marseille","lat":43.313571,"lon":5.384829,"is_reserved":false,"is_disabled":false,"rental_uris":{"android":"levelo://app?vid=65a2a57c-3174-4573-b411-2d52b0825544","ios":"levelo://app?vid=65a2a57c-3174-4573-b411-2d52b0825544"},"vehicle_type_id":"4","last_reported":1725808104,"current_range_meters":23600,"station_id":"ce4bgt92rcd13ifvqcf0","pricing_plan_id":"cebpf4jnsgd1na2vs0mg"},{"bike_id":"f3f667d4-b471-4a30-b708-c6886127953f","system_id":"levelo_inurba_marseille","lat":43.313571,"lon":5.384829,"is_reserved":false,"is_disabled":false,"rental_uris":{"android":"levelo://app?vid=f3f667d4-b471-4a30-b708-c6886127953f","ios":"levelo://app?vid=f3f667d4-b471-4a30-b708-c6886127953f"},"vehicle_type_id":"4","last_reported":1725808104,"current_range_meters":18800,"station_id":"ce4bgt92rcd13ifvqcf0","pricing_plan_id":"cebpf4jnsgd1na2vs0mg"},{"bike_id":"d4664e93-c408-44a6-9155-80d61691c8bf","system_id":"levelo_inurba_marseille","lat":43.299222,"lon":5.365554,"is_reserved":false,"is_disabled":false,"rental_uris":{"android":"levelo://app?vid=d4664e93-c408-44a6-9155-80d61691c8bf","ios":"levelo://app?vid=d4664e93-c408-44a6-9155-80d61691c8bf"},"vehicle_type_id":"4","last_reported":1725808104,"current_range_meters":20400,"station_id":"ce4bgm92rcd13ifvqbr0","pricing_plan_id":"cebpf4jnsgd1na2vs0mg"},{"bike_id":"d9bb1907-2e6c-4d68-b14b-13fdc2656523","system_id":"levelo_inurba_marseille","lat":43.299222,"lon":5.365554,"is_reserved":false,"is_disabled":false,"rental_uris":{"android":"levelo://app?vid=d9bb1907-2e6c-4d68-b14b-13fdc2656523","ios":"levelo://app?vid=d9bb1907-2e6c-4d68-b14b-13fdc2656523"},"vehicle_type_id":"4","last_reported":1725808104,"current_range_meters":9600,"station_id":"ce4bgm92rcd13ifvqbr0","pricing_plan_id":"cebpf4jnsgd1na2vs0mg"},{"bike_id":"910e02fa-983a-4e68-bb01-bb78a22257bf","system_id":"levelo_inurba_marseille","lat":43.299416,"lon":5.365596,"is_reserved":false,"is_disabled":false,"rental_uris":{"android":"levelo://app?vid=910e02fa-983a-4e68-bb01-bb78a22257bf","ios":"levelo://app?vid=910e02fa-983a-4e68-bb01-bb78a22257bf"},"vehicle_type_id":"4","last_reported":1725808104,"current_range_meters":28400,"station_id":"","pricing_plan_id":"cebpf4jnsgd1na2vs0mg"},{"bike_id":"c3dd71de-0552-4372-a0c9-44cd25e46254","system_id":"levelo_inurba_marseille","lat":43.299846,"lon":5.371733,"is_reserved":false,"is_disabled":false,"rental_uris":{"android":"levelo://app?vid=c3dd71de-0552-4372-a0c9-44cd25e46254","ios":"levelo://app?vid=c3dd71de-0552-4372-a0c9-44cd25e46254"},"vehicle_type_id":"4","last_reported":1725808104,"current_range_meters":28000,"station_id":"ce4bgr92rcd13ifvqc7g","pricing_plan_id":"cebpf4jnsgd1na2vs0mg"},{"bike_id":"3839c3e3-5819-419d-b5c2-08af559b0d89","system_id":"levelo_inurba_marseille","lat":43.29942,"lon":5.36543,"is_reserved":false,"is_disabled":false,"rental_uris":{"android":"levelo://app?vid=3839c3e3-5819-419d-b5c2-08af559b0d89","ios":"levelo://app?vid=3839c3e3-5819-419d-b5c2-08af559b0d89"},"vehicle_type_id":"4","last_reported":1725808104,"current_range_meters":30400,"station_id":"ce4bgm92rcd13ifvqbr0","pricing_plan_id":"cebpf4jnsgd1na2vs0mg"},{"bike_id":"fdcc6f45-440b-46a5-89f6-0de20f00796a","system_id":"levelo_inurba_marseille","lat":43.299724,"lon":5.371829,"is_reserved":false,"is_disabled":false,"rental_uris":{"android":"levelo://app?vid=fdcc6f45-440b-46a5-89f6-0de20f00796a","ios":"levelo://app?vid=fdcc6f45-440b-46a5-89f6-0de20f00796a"},"vehicle_type_id":"4","last_reported":1725808104,"current_range_meters":31200,"station_id":"ce4bgr92rcd13ifvqc7g","pricing_plan_id":"cebpf4jnsgd1na2vs0mg"},{"bike_id":"aa5741b7-e774-4e29-8d22-e78a5db81ce1","system_id":"levelo_inurba_marseille","lat":43.299222,"lon":5.365554,"is_reserved":false,"is_disabled":false,"rental_uris":{"android":"levelo://app?vid=aa5741b7-e774-4e29-8d22-e78a5db81ce1","ios":"levelo://app?vid=aa5741b7-e774-4e29-8d22-e78a5db81ce1"},"vehicle_type_id":"4","last_reported":1725808104,"current_range_meters":3600,"station_id":"ce4bgm92rcd13ifvqbr0","pricing_plan_id":"cebpf4jnsgd1na2vs0mg"},{"bike_id":"2d672306-3364-4f07-b630-017f3b9325c3","system_id":"levelo_inurba_marseille","lat":43.299209,"lon":5.365547,"is_reserved":false,"is_disabled":false,"rental_uris":{"android":"levelo://app?vid=2d672306-3364-4f07-b630-017f3b9325c3","ios":"levelo://app?vid=2d672306-3364-4f07-b630-017f3b9325c3"},"vehicle_type_id":"4","last_reported":1725808104,"current_range_meters":26000,"station_id":"ce4bgm92rcd13ifvqbr0","pricing_plan_id":"cebpf4jnsgd1na2vs0mg"},{"bike_id":"7549e26c-e14d-4c94-985b-2dd76aa7aceb","system_id":"levelo_inurba_marseille","lat":43.29974,"lon":5.37183,"is_reserved":false,"is_disabled":false,"rental_uris":{"android":"levelo://app?vid=7549e26c-e14d-4c94-985b-2dd76aa7aceb","ios":"levelo://app?vid=7549e26c-e14d-4c94-985b-2dd76aa7aceb"},"vehicle_type_id":"4","last_reported":1725808104,"current_range_meters":26800,"station_id":"ce4bgr92rcd13ifvqc7g","pricing_plan_id":"cebpf4jnsgd1na2vs0mg"},{"bike_id":"05aca169-f400-4163-b1e6-25d374c1612b","system_id":"levelo_inurba_marseille","lat":43.298433,"lon":5.362774,"is_reserved":false,"is_disabled":false,"rental_uris":{"android":"levelo://app?vid=05aca169-f400-4163-b1e6-25d374c1612b","ios":"levelo://app?vid=05aca169-f400-4163-b1e6-25d374c1612b"},"vehicle_type_id":"4","last_reported":1725808104,"current_range_meters":31200,"station_id":"ce4bgpp2rcd13ifvqc3g","pricing_plan_id":"cebpf4jnsgd1na2vs0mg"},{"bike_id":"4decfd2b-50df-4642-a3d7-36f8b101b8ac","system_id":"levelo_inurba_marseille","lat":43.305364,"lon":5.384119,"is_reserved":false,"is_disabled":false,"rental_uris":{"android":"levelo://app?vid=4decfd2b-50df-4642-a3d7-36f8b101b8ac","ios":"levelo://app?vid=4decfd2b-50df-4642-a3d7-36f8b101b8ac"},"vehicle_type_id":"4","last_reported":1725808104,"current_range_meters":11600,"station_id":"ce4bgg92rcd13ifvqb30","pricing_plan_id":"cebpf4jnsgd1na2vs0mg"},{"bike_id":"848960eb-3683-4226-9757-ce9b2ef053c9","system_id":"levelo_inurba_marseille","lat":43.29854,"lon":5.36285,"is_reserved":false,"is_disabled":false,"rental_uris":{"android":"levelo://app?vid=848960eb-3683-4226-9757-ce9b2ef053c9","ios":"levelo://app?vid=848960eb-3683-4226-9757-ce9b2ef053c9"},"vehicle_type_id":"4","last_reported":1725808104,"current_range_meters":0,"station_id":"ce4bgpp2rcd13ifvqc3g","pricing_plan_id":"cebpf4jnsgd1na2vs0mg"},{"bike_id":"cf191c3c-1826-4e7d-81e8-e214a52e0e60","system_id":"levelo_inurba_marseille","lat":43.298433,"lon":5.362774,"is_reserved":false,"is_disabled":false,"rental_uris":{"android":"levelo://app?vid=cf191c3c-1826-4e7d-81e8-e214a52e0e60","ios":"levelo://app?vid=cf191c3c-1826-4e7d-81e8-e214a52e0e60"},"vehicle_type_id":"4","last_reported":1725808104,"current_range_meters":31200,"station_id":"ce4bgpp2rcd13ifvqc3g","pricing_plan_id":"cebpf4jnsgd1na2vs0mg"},{"bike_id":"e20798ab-bc9a-4a69-b145-bae50e6b6a30","system_id":"levelo_inurba_marseille","lat":43.298433,"lon":5.362774,"is_reserved":false,"is_disabled":false,"rental_uris":{"android":"levelo://app?vid=e20798ab-bc9a-4a69-b145-bae50e6b6a30","ios":"levelo://app?vid=e20798ab-bc9a-4a69-b145-bae50e6b6a30"},"vehicle_type_id":"4","last_reported":1725808104,"current_range_meters":24000,"station_id":"ce4bgpp2rcd13ifvqc3g","pricing_plan_id":"cebpf4jnsgd1na2vs0mg"},{"bike_id":"938c49be-b5cb-4d23-bf54-133538246bd3","system_id":"levelo_inurba_marseille","lat":43.298433,"lon":5.362774,"is_reserved":false,"is_disabled":false,"rental_uris":{"android":"levelo://app?vid=938c49be-b5cb-4d23-bf54-133538246bd3","ios":"levelo://app?vid=938c49be-b5cb-4d23-bf54-133538246bd3"},"vehicle_type_id":"4","last_reported":1725808104,"current_range_meters":12000,"station_id":"ce4bgpp2rcd13ifvqc3g","pricing_plan_id":"cebpf4jnsgd1na2vs0mg"},{"bike_id":"c42750ed-4a34-493b-8a28-c73036ca477e","system_id":"levelo_inurba_marseille","lat":43.298433,"lon":5.362774,"is_reserved":false,"is_disabled":false,"rental_uris":{"android":"levelo://app?vid=c42750ed-4a34-493b-8a28-c73036ca477e","ios":"levelo://app?vid=c42750ed-4a34-493b-8a28-c73036ca477e"},"vehicle_type_id":"4","last_reported":1725808104,"current_range_meters":28400,"station_id":"ce4bgpp2rcd13ifvqc3g","pricing_plan_id":"cebpf4jnsgd1na2vs0mg"},{"bike_id":"2add7d66-bbdc-4e39-883f-55d510c0c32f","system_id":"levelo_inurba_marseille","lat":43.298433,"lon":5.362774,"is_reserved":false,"is_disabled":false,"rental_uris":{"android":"levelo://app?vid=2add7d66-bbdc-4e39-883f-55d510c0c32f","ios":"levelo://app?vid=2add7d66-bbdc-4e39-883f-55d510c0c32f"},"vehicle_type_id":"4","last_reported":1725808104,"current_range_meters":22400,"station_id":"ce4bgpp2rcd13ifvqc3g","pricing_plan_id":"cebpf4jnsgd1na2vs0mg"},{"bike_id":"bb7ada77-dc49-49f6-9ee8-9605778964e2","system_id":"levelo_inurba_marseille","lat":43.298433,"lon":5.362774,"is_reserved":false,"is_disabled":false,"rental_uris":{"android":"levelo://app?vid=bb7ada77-dc49-49f6-9ee8-9605778964e2","ios":"levelo://app?vid=bb7ada77-dc49-49f6-9ee8-9605778964e2"},"vehicle_type_id":"4","last_reported":1725808104,"current_range_meters":24000,"station_id":"ce4bgpp2rcd13ifvqc3g","pricing_plan_id":"cebpf4jnsgd1na2vs0mg"},{"bike_id":"b1e008aa-b2a0-4bc4-b5bd-657dd1de437e","system_id":"levelo_inurba_marseille","lat":43.298433,"lon":5.362774,"is_reserved":false,"is_disabled":false,"rental_uris":{"android":"levelo://app?vid=b1e008aa-b2a0-4bc4-b5bd-657dd1de437e","ios":"levelo://app?vid=b1e008aa-b2a0-4bc4-b5bd-657dd1de437e"},"vehicle_type_id":"4","last_reported":1725808104,"current_range_meters":27600,"station_id":"ce4bgpp2rcd13ifvqc3g","pricing_plan_id":"cebpf4jnsgd1na2vs0mg"},{"bike_id":"12205af0-af8d-4ebd-b9a5-560527db42cd","system_id":"levelo_inurba_marseille","lat":43.29846,"lon":5.3627,"is_reserved":false,"is_disabled":false,"rental_uris":{"android":"levelo://app?vid=12205af0-af8d-4ebd-b9a5-560527db42cd","ios":"levelo://app?vid=12205af0-af8d-4ebd-b9a5-560527db42cd"},"vehicle_type_id":"4","last_reported":1725808104,"current_range_meters":31200,"station_id":"ce4bgpp2rcd13ifvqc3g","pricing_plan_id":"cebpf4jnsgd1na2vs0mg"},{"bike_id":"77c62d63-455f-40eb-be21-04dc90a12dd1","system_id":"levelo_inurba_marseille","lat":43.298433,"lon":5.362774,"is_reserved":false,"is_disabled":false,"rental_uris":{"android":"levelo://app?vid=77c62d63-455f-40eb-be21-04dc90a12dd1","ios":"levelo://app?vid=77c62d63-455f-40eb-be21-04dc90a12dd1"},"vehicle_type_id":"4","last_reported":1725808104,"current_range_meters":27200,"station_id":"ce4bgpp2rcd13ifvqc3g","pricing_plan_id":"cebpf4jnsgd1na2vs0mg"},{"bike_id":"f842539c-bd16-44ca-84cf-379da0e61d1e","system_id":"levelo_inurba_marseille","lat":43.298433,"lon":5.362774,"is_reserved":false,"is_disabled":false,"rental_uris":{"android":"levelo://app?vid=f842539c-bd16-44ca-84cf-379da0e61d1e","ios":"levelo://app?vid=f842539c-bd16-44ca-84cf-379da0e61d1e"},"vehicle_type_id":"4","last_reported":1725808104,"current_range_meters":22800,"station_id":"ce4bgpp2rcd13ifvqc3g","pricing_plan_id":"cebpf4jnsgd1na2vs0mg"},{"bike_id":"479838c4-0521-4c15-8891-754be6cea2c7","system_id":"levelo_inurba_marseille","lat":43.29845,"lon":5.36264,"is_reserved":false,"is_disabled":false,"rental_uris":{"android":"levelo://app?vid=479838c4-0521-4c15-8891-754be6cea2c7","ios":"levelo://app?vid=479838c4-0521-4c15-8891-754be6cea2c7"},"vehicle_type_id":"4","last_reported":1725808104,"current_range_meters":11600,"station_id":"ce4bgpp2rcd13ifvqc3g","pricing_plan_id":"cebpf4jnsgd1na2vs0mg"},{"bike_id":"c93a6454-2fa2-453a-b7d1-3db08deef0a8","system_id":"levelo_inurba_marseille","lat":43.29844,"lon":5.36268,"is_reserved":false,"is_disabled":false,"rental_uris":{"android":"levelo://app?vid=c93a6454-2fa2-453a-b7d1-3db08deef0a8","ios":"levelo://app?vid=c93a6454-2fa2-453a-b7d1-3db08deef0a8"},"vehicle_type_id":"4","last_reported":1725808104,"current_range_meters":18000,"station_id":"ce4bgpp2rcd13ifvqc3g","pricing_plan_id":"cebpf4jnsgd1na2vs0mg"},{"bike_id":"be7ff239-2c46-4682-b673-7f68c5715e57","system_id":"levelo_inurba_marseille","lat":43.29844,"lon":5.36266,"is_reserved":false,"is_disabled":false,"rental_uris":{"android":"levelo://app?vid=be7ff239-2c46-4682-b673-7f68c5715e57","ios":"levelo://app?vid=be7ff239-2c46-4682-b673-7f68c5715e57"},"vehicle_type_id":"4","last_reported":1725808104,"current_range_meters":6800,"station_id":"ce4bgpp2rcd13ifvqc3g","pricing_plan_id":"cebpf4jnsgd1na2vs0mg"},{"bike_id":"0da7c128-10bd-49ce-8336-0bf6b6f4d6ce","system_id":"levelo_inurba_marseille","lat":43.298433,"lon":5.362774,"is_reserved":false,"is_disabled":false,"rental_uris":{"android":"levelo://app?vid=0da7c128-10bd-49ce-8336-0bf6b6f4d6ce","ios":"levelo://app?vid=0da7c128-10bd-49ce-8336-0bf6b6f4d6ce"},"vehicle_type_id":"4","last_reported":1725808104,"current_range_meters":31200,"station_id":"ce4bgpp2rcd13ifvqc3g","pricing_plan_id":"cebpf4jnsgd1na2vs0mg"},{"bike_id":"27a9e582-c1f1-4751-8274-407e189a9532","system_id":"levelo_inurba_marseille","lat":43.29842,"lon":5.36266,"is_reserved":false,"is_disabled":false,"rental_uris":{"android":"levelo://app?vid=27a9e582-c1f1-4751-8274-407e189a9532","ios":"levelo://app?vid=27a9e582-c1f1-4751-8274-407e189a9532"},"vehicle_type_id":"4","last_reported":1725808104,"current_range_meters":31200,"station_id":"ce4bgpp2rcd13ifvqc3g","pricing_plan_id":"cebpf4jnsgd1na2vs0mg"},{"bike_id":"b3794042-81b7-4c58-821d-1078d2c995b4","system_id":"levelo_inurba_marseille","lat":43.29841,"lon":5.36267,"is_reserved":false,"is_disabled":false,"rental_uris":{"android":"levelo://app?vid=b3794042-81b7-4c58-821d-1078d2c995b4","ios":"levelo://app?vid=b3794042-81b7-4c58-821d-1078d2c995b4"},"vehicle_type_id":"4","last_reported":1725808104,"current_range_meters":19200,"station_id":"ce4bgpp2rcd13ifvqc3g","pricing_plan_id":"cebpf4jnsgd1na2vs0mg"},{"bike_id":"5c556bf6-fd3e-4a63-be7f-a8d25072b47a","system_id":"levelo_inurba_marseille","lat":43.298433,"lon":5.362774,"is_reserved":false,"is_disabled":false,"rental_uris":{"android":"levelo://app?vid=5c556bf6-fd3e-4a63-be7f-a8d25072b47a","ios":"levelo://app?vid=5c556bf6-fd3e-4a63-be7f-a8d25072b47a"},"vehicle_type_id":"4","last_reported":1725808104,"current_range_meters":31200,"station_id":"ce4bgpp2rcd13ifvqc3g","pricing_plan_id":"cebpf4jnsgd1na2vs0mg"},{"bike_id":"f0e9bd7f-41cf-44fb-bba1-476bde90fbc4","system_id":"levelo_inurba_marseille","lat":43.29839,"lon":5.36267,"is_reserved":false,"is_disabled":false,"rental_uris":{"android":"levelo://app?vid=f0e9bd7f-41cf-44fb-bba1-476bde90fbc4","ios":"levelo://app?vid=f0e9bd7f-41cf-44fb-bba1-476bde90fbc4"},"vehicle_type_id":"4","last_reported":1725808104,"current_range_meters":31200,"station_id":"ce4bgpp2rcd13ifvqc3g","pricing_plan_id":"cebpf4jnsgd1na2vs0mg"},{"bike_id":"800121d8-54e0-4f0a-9264-cb9550761254","system_id":"levelo_inurba_marseille","lat":43.31176,"lon":5.38706,"is_reserved":false,"is_disabled":false,"rental_uris":{"android":"levelo://app?vid=800121d8-54e0-4f0a-9264-cb9550761254","ios":"levelo://app?vid=800121d8-54e0-4f0a-9264-cb9550761254"},"vehicle_type_id":"4","last_reported":1725808104,"current_range_meters":27200,"station_id":"ce4bgv12rcd13ifvqcp0","pricing_plan_id":"cebpf4jnsgd1na2vs0mg"},{"bike_id":"bea37a09-6935-4f43-abcf-382e69af5c8d","system_id":"levelo_inurba_marseille","lat":43.299243,"lon":5.37481,"is_reserved":false,"is_disabled":false,"rental_uris":{"android":"levelo://app?vid=bea37a09-6935-4f43-abcf-382e69af5c8d","ios":"levelo://app?vid=bea37a09-6935-4f43-abcf-382e69af5c8d"},"vehicle_type_id":"4","last_reported":1725808104,"current_range_meters":28400,"station_id":"ce4bgjh2rcd13ifvqbg0","pricing_plan_id":"cebpf4jnsgd1na2vs0mg"},{"bike_id":"ededc385-8e6f-4bc4-bcaf-12e7c1c38d5b","system_id":"levelo_inurba_marseille","lat":43.31175,"lon":5.38711,"is_reserved":false,"is_disabled":false,"rental_uris":{"android":"levelo://app?vid=ededc385-8e6f-4bc4-bcaf-12e7c1c38d5b","ios":"levelo://app?vid=ededc385-8e6f-4bc4-bcaf-12e7c1c38d5b"},"vehicle_type_id":"4","last_reported":1725808104,"current_range_meters":30000,"station_id":"ce4bgv12rcd13ifvqcp0","pricing_plan_id":"cebpf4jnsgd1na2vs0mg"},{"bike_id":"10c522ef-0e1e-4b14-a5b0-71a03df9bee9","system_id":"levelo_inurba_marseille","lat":43.31168,"lon":5.38711,"is_reserved":false,"is_disabled":false,"rental_uris":{"android":"levelo://app?vid=10c522ef-0e1e-4b14-a5b0-71a03df9bee9","ios":"levelo://app?vid=10c522ef-0e1e-4b14-a5b0-71a03df9bee9"},"vehicle_type_id":"4","last_reported":1725808104,"current_range_meters":15600,"station_id":"ce4bgv12rcd13ifvqcp0","pricing_plan_id":"cebpf4jnsgd1na2vs0mg"},{"bike_id":"8e7caa8c-3f76-443e-8fe1-f8e4f7809f52","system_id":"levelo_inurba_marseille","lat":43.31172,"lon":5.38712,"is_reserved":false,"is_disabled":false,"rental_uris":{"android":"levelo://app?vid=8e7caa8c-3f76-443e-8fe1-f8e4f7809f52","ios":"levelo://app?vid=8e7caa8c-3f76-443e-8fe1-f8e4f7809f52"},"vehicle_type_id":"4","last_reported":1725808104,"current_range_meters":16400,"station_id":"ce4bgv12rcd13ifvqcp0","pricing_plan_id":"cebpf4jnsgd1na2vs0mg"},{"bike_id":"066914fc-f303-4daa-82d7-72b55e606d74","system_id":"levelo_inurba_marseille","lat":43.31174,"lon":5.38716,"is_reserved":false,"is_disabled":false,"rental_uris":{"android":"levelo://app?vid=066914fc-f303-4daa-82d7-72b55e606d74","ios":"levelo://app?vid=066914fc-f303-4daa-82d7-72b55e606d74"},"vehicle_type_id":"4","last_reported":1725808104,"current_range_meters":30400,"station_id":"ce4bgv12rcd13ifvqcp0","pricing_plan_id":"cebpf4jnsgd1na2vs0mg"},{"bike_id":"f1667bb5-cec1-4e0e-80e5-82528eed0b0d","system_id":"levelo_inurba_marseille","lat":43.299243,"lon":5.374807,"is_reserved":false,"is_disabled":false,"rental_uris":{"android":"levelo://app?vid=f1667bb5-cec1-4e0e-80e5-82528eed0b0d","ios":"levelo://app?vid=f1667bb5-cec1-4e0e-80e5-82528eed0b0d"},"vehicle_type_id":"4","last_reported":1725808104,"current_range_meters":28800,"station_id":"ce4bgjh2rcd13ifvqbg0","pricing_plan_id":"cebpf4jnsgd1na2vs0mg"},{"bike_id":"f7571495-1e44-4287-86ec-eb398fd233f5","system_id":"levelo_inurba_marseille","lat":43.3015,"lon":5.38072,"is_reserved":false,"is_disabled":false,"rental_uris":{"android":"levelo://app?vid=f7571495-1e44-4287-86ec-eb398fd233f5","ios":"levelo://app?vid=f7571495-1e44-4287-86ec-eb398fd233f5"},"vehicle_type_id":"4","last_reported":1725808104,"current_range_meters":0,"station_id":"ce4bgjp2rcd13ifvqbh0","pricing_plan_id":"cebpf4jnsgd1na2vs0mg"},{"bike_id":"1526a583-05cf-47b6-a8d5-51f1041c1fbe","system_id":"levelo_inurba_marseille","lat":43.301417,"lon":5.3809,"is_reserved":false,"is_disabled":false,"rental_uris":{"android":"levelo://app?vid=1526a583-05cf-47b6-a8d5-51f1041c1fbe","ios":"levelo://app?vid=1526a583-05cf-47b6-a8d5-51f1041c1fbe"},"vehicle_type_id":"4","last_reported":1725808104,"current_range_meters":0,"station_id":"ce4bgjp2rcd13ifvqbh0","pricing_plan_id":"cebpf4jnsgd1na2vs0mg"},{"bike_id":"62953769-bad5-49c0-81ed-44b4d9f5698f","system_id":"levelo_inurba_marseille","lat":43.297851,"lon":5.371115,"is_reserved":false,"is_disabled":false,"rental_uris":{"android":"levelo://app?vid=62953769-bad5-49c0-81ed-44b4d9f5698f","ios":"levelo://app?vid=62953769-bad5-49c0-81ed-44b4d9f5698f"},"vehicle_type_id":"4","last_reported":1725808104,"current_range_meters":25200,"station_id":"ce4bgop2rcd13ifvqc1g","pricing_plan_id":"cebpf4jnsgd1na2vs0mg"},{"bike_id":"9d4d4ad3-9fa4-4394-8995-8a5887e80cc8","system_id":"levelo_inurba_marseille","lat":43.32283,"lon":5.38261,"is_reserved":false,"is_disabled":false,"rental_uris":{"android":"levelo://app?vid=9d4d4ad3-9fa4-4394-8995-8a5887e80cc8","ios":"levelo://app?vid=9d4d4ad3-9fa4-4394-8995-8a5887e80cc8"},"vehicle_type_id":"4","last_reported":1725808104,"current_range_meters":6000,"station_id":"ce4bhr12rcd13ifvqhqg","pricing_plan_id":"cebpf4jnsgd1na2vs0mg"},{"bike_id":"1a5f8300-291b-493d-ad5b-ec07f0eaf598","system_id":"levelo_inurba_marseille","lat":43.322872,"lon":5.382756,"is_reserved":false,"is_disabled":false,"rental_uris":{"android":"levelo://app?vid=1a5f8300-291b-493d-ad5b-ec07f0eaf598","ios":"levelo://app?vid=1a5f8300-291b-493d-ad5b-ec07f0eaf598"},"vehicle_type_id":"4","last_reported":1725808104,"current_range_meters":16000,"station_id":"ce4bhr12rcd13ifvqhqg","pricing_plan_id":"cebpf4jnsgd1na2vs0mg"},{"bike_id":"c44588a4-f0c3-4e47-9551-12f24c76e247","system_id":"levelo_inurba_marseille","lat":43.322872,"lon":5.382756,"is_reserved":false,"is_disabled":false,"rental_uris":{"android":"levelo://app?vid=c44588a4-f0c3-4e47-9551-12f24c76e247","ios":"levelo://app?vid=c44588a4-f0c3-4e47-9551-12f24c76e247"},"vehicle_type_id":"4","last_reported":1725808104,"current_range_meters":27200,"station_id":"ce4bhr12rcd13ifvqhqg","pricing_plan_id":"cebpf4jnsgd1na2vs0mg"},{"bike_id":"7259779c-2a89-422a-94da-98da707fabe5","system_id":"levelo_inurba_marseille","lat":43.297774,"lon":5.370875,"is_reserved":false,"is_disabled":false,"rental_uris":{"android":"levelo://app?vid=7259779c-2a89-422a-94da-98da707fabe5","ios":"levelo://app?vid=7259779c-2a89-422a-94da-98da707fabe5"},"vehicle_type_id":"4","last_reported":1725808104,"current_range_meters":28400,"station_id":"ce4bgop2rcd13ifvqc1g","pricing_plan_id":"cebpf4jnsgd1na2vs0mg"},{"bike_id":"9f3c2805-cca9-4d7f-85a1-34eb3d61c76a","system_id":"levelo_inurba_marseille","lat":43.32285,"lon":5.38276,"is_reserved":false,"is_disabled":false,"rental_uris":{"android":"levelo://app?vid=9f3c2805-cca9-4d7f-85a1-34eb3d61c76a","ios":"levelo://app?vid=9f3c2805-cca9-4d7f-85a1-34eb3d61c76a"},"vehicle_type_id":"4","last_reported":1725808104,"current_range_meters":13200,"station_id":"ce4bhr12rcd13ifvqhqg","pricing_plan_id":"cebpf4jnsgd1na2vs0mg"},{"bike_id":"b383897e-21d1-4117-b063-37e079e619a6","system_id":"levelo_inurba_marseille","lat":43.3229,"lon":5.3827,"is_reserved":false,"is_disabled":false,"rental_uris":{"android":"levelo://app?vid=b383897e-21d1-4117-b063-37e079e619a6","ios":"levelo://app?vid=b383897e-21d1-4117-b063-37e079e619a6"},"vehicle_type_id":"4","last_reported":1725808104,"current_range_meters":11200,"station_id":"ce4bhr12rcd13ifvqhqg","pricing_plan_id":"cebpf4jnsgd1na2vs0mg"},{"bike_id":"2e865a37-4525-4154-bfa5-2e253b800524","system_id":"levelo_inurba_marseille","lat":43.322872,"lon":5.382756,"is_reserved":false,"is_disabled":false,"rental_uris":{"android":"levelo://app?vid=2e865a37-4525-4154-bfa5-2e253b800524","ios":"levelo://app?vid=2e865a37-4525-4154-bfa5-2e253b800524"},"vehicle_type_id":"4","last_reported":1725808104,"current_range_meters":29600,"station_id":"ce4bhr12rcd13ifvqhqg","pricing_plan_id":"cebpf4jnsgd1na2vs0mg"},{"bike_id":"9eaf78ea-975f-446c-bb37-4949d6f5be54","system_id":"levelo_inurba_marseille","lat":43.298703,"lon":5.375623,"is_reserved":false,"is_disabled":false,"rental_uris":{"android":"levelo://app?vid=9eaf78ea-975f-446c-bb37-4949d6f5be54","ios":"levelo://app?vid=9eaf78ea-975f-446c-bb37-4949d6f5be54"},"vehicle_type_id":"4","last_reported":1725808104,"current_range_meters":30800,"station_id":"","pricing_plan_id":"cebpf4jnsgd1na2vs0mg"},{"bike_id":"dbfea09c-bbc0-4932-a650-df0b641de855","system_id":"levelo_inurba_marseille","lat":43.297163,"lon":5.365866,"is_reserved":false,"is_disabled":false,"rental_uris":{"android":"levelo://app?vid=dbfea09c-bbc0-4932-a650-df0b641de855","ios":"levelo://app?vid=dbfea09c-bbc0-4932-a650-df0b641de855"},"vehicle_type_id":"4","last_reported":1725808104,"current_range_meters":18000,"station_id":"ce4bgn12rcd13ifvqbt0","pricing_plan_id":"cebpf4jnsgd1na2vs0mg"},{"bike_id":"105bc4e8-c71e-4b5d-b34c-269838fe1e0e","system_id":"levelo_inurba_marseille","lat":43.31586,"lon":5.3887,"is_reserved":false,"is_disabled":false,"rental_uris":{"android":"levelo://app?vid=105bc4e8-c71e-4b5d-b34c-269838fe1e0e","ios":"levelo://app?vid=105bc4e8-c71e-4b5d-b34c-269838fe1e0e"},"vehicle_type_id":"4","last_reported":1725808104,"current_range_meters":10400,"station_id":"","pricing_plan_id":"cebpf4jnsgd1na2vs0mg"},{"bike_id":"1bef5fa3-8c5f-47b2-b437-481c95bc689d","system_id":"levelo_inurba_marseille","lat":43.323646,"lon":5.38343,"is_reserved":false,"is_disabled":false,"rental_uris":{"android":"levelo://app?vid=1bef5fa3-8c5f-47b2-b437-481c95bc689d","ios":"levelo://app?vid=1bef5fa3-8c5f-47b2-b437-481c95bc689d"},"vehicle_type_id":"4","last_reported":1725808104,"current_range_meters":24400,"station_id":"","pricing_plan_id":"cebpf4jnsgd1na2vs0mg"},{"bike_id":"8a8887de-5c7d-4b1c-91b2-78e9c920b48d","system_id":"levelo_inurba_marseille","lat":43.2968,"lon":5.37291,"is_reserved":false,"is_disabled":false,"rental_uris":{"android":"levelo://app?vid=8a8887de-5c7d-4b1c-91b2-78e9c920b48d","ios":"levelo://app?vid=8a8887de-5c7d-4b1c-91b2-78e9c920b48d"},"vehicle_type_id":"4","last_reported":1725808104,"current_range_meters":29200,"station_id":"ce4bgk12rcd13ifvqbj0","pricing_plan_id":"cebpf4jnsgd1na2vs0mg"},{"bike_id":"8755e161-383d-4894-968d-791207c7d48c","system_id":"levelo_inurba_marseille","lat":43.29573,"lon":5.367355,"is_reserved":false,"is_disabled":false,"rental_uris":{"android":"levelo://app?vid=8755e161-383d-4894-968d-791207c7d48c","ios":"levelo://app?vid=8755e161-383d-4894-968d-791207c7d48c"},"vehicle_type_id":"4","last_reported":1725808104,"current_range_meters":15200,"station_id":"ce4bgph2rcd13ifvqc2g","pricing_plan_id":"cebpf4jnsgd1na2vs0mg"},{"bike_id":"dba11a48-933a-4545-a228-3523978f4f29","system_id":"levelo_inurba_marseille","lat":43.290103,"lon":5.356114,"is_reserved":false,"is_disabled":false,"rental_uris":{"android":"levelo://app?vid=dba11a48-933a-4545-a228-3523978f4f29","ios":"levelo://app?vid=dba11a48-933a-4545-a228-3523978f4f29"},"vehicle_type_id":"4","last_reported":1725808104,"current_range_meters":23600,"station_id":"ce4bhb92rcd13ifvqen0","pricing_plan_id":"cebpf4jnsgd1na2vs0mg"},{"bike_id":"5c602568-e913-4010-b141-bc8ce706b8c7","system_id":"levelo_inurba_marseille","lat":43.296921,"lon":5.376579,"is_reserved":false,"is_disabled":false,"rental_uris":{"android":"levelo://app?vid=5c602568-e913-4010-b141-bc8ce706b8c7","ios":"levelo://app?vid=5c602568-e913-4010-b141-bc8ce706b8c7"},"vehicle_type_id":"4","last_reported":1725808104,"current_range_meters":16000,"station_id":"ce4bgkh2rcd13ifvqbl0","pricing_plan_id":"cebpf4jnsgd1na2vs0mg"},{"bike_id":"38fe78e2-e1a5-40fb-a8ec-581aef55d8c9","system_id":"levelo_inurba_marseille","lat":43.309589,"lon":5.390258,"is_reserved":false,"is_disabled":false,"rental_uris":{"android":"levelo://app?vid=38fe78e2-e1a5-40fb-a8ec-581aef55d8c9","ios":"levelo://app?vid=38fe78e2-e1a5-40fb-a8ec-581aef55d8c9"},"vehicle_type_id":"4","last_reported":1725808104,"current_range_meters":14000,"station_id":"ce4bgup2rcd13ifvqco0","pricing_plan_id":"cebpf4jnsgd1na2vs0mg"},{"bike_id":"e50bcea7-2e6f-42c1-b98c-049b3b251584","system_id":"levelo_inurba_marseille","lat":43.309589,"lon":5.390258,"is_reserved":false,"is_disabled":false,"rental_uris":{"android":"levelo://app?vid=e50bcea7-2e6f-42c1-b98c-049b3b251584","ios":"levelo://app?vid=e50bcea7-2e6f-42c1-b98c-049b3b251584"},"vehicle_type_id":"4","last_reported":1725808104,"current_range_meters":27600,"station_id":"ce4bgup2rcd13ifvqco0","pricing_plan_id":"cebpf4jnsgd1na2vs0mg"},{"bike_id":"9d7a3c09-637e-4ecf-8425-f884475065ff","system_id":"levelo_inurba_marseille","lat":43.309573,"lon":5.390273,"is_reserved":false,"is_disabled":false,"rental_uris":{"android":"levelo://app?vid=9d7a3c09-637e-4ecf-8425-f884475065ff","ios":"levelo://app?vid=9d7a3c09-637e-4ecf-8425-f884475065ff"},"vehicle_type_id":"4","last_reported":1725808104,"current_range_meters":29200,"station_id":"ce4bgup2rcd13ifvqco0","pricing_plan_id":"cebpf4jnsgd1na2vs0mg"},{"bike_id":"1563b6ef-082c-4128-8e87-c9809604e6bd","system_id":"levelo_inurba_marseille","lat":43.30962,"lon":5.39034,"is_reserved":false,"is_disabled":false,"rental_uris":{"android":"levelo://app?vid=1563b6ef-082c-4128-8e87-c9809604e6bd","ios":"levelo://app?vid=1563b6ef-082c-4128-8e87-c9809604e6bd"},"vehicle_type_id":"4","last_reported":1725808104,"current_range_meters":24400,"station_id":"ce4bgup2rcd13ifvqco0","pricing_plan_id":"cebpf4jnsgd1na2vs0mg"},{"bike_id":"a72d345d-6ef5-4a8b-995f-54823381fb33","system_id":"levelo_inurba_marseille","lat":43.309614,"lon":5.390341,"is_reserved":false,"is_disabled":false,"rental_uris":{"android":"levelo://app?vid=a72d345d-6ef5-4a8b-995f-54823381fb33","ios":"levelo://app?vid=a72d345d-6ef5-4a8b-995f-54823381fb33"},"vehicle_type_id":"4","last_reported":1725808104,"current_range_meters":31200,"station_id":"ce4bgup2rcd13ifvqco0","pricing_plan_id":"cebpf4jnsgd1na2vs0mg"},{"bike_id":"1780098d-4ab1-4aca-a350-3f87d61323e1","system_id":"levelo_inurba_marseille","lat":43.309577,"lon":5.39037,"is_reserved":false,"is_disabled":false,"rental_uris":{"android":"levelo://app?vid=1780098d-4ab1-4aca-a350-3f87d61323e1","ios":"levelo://app?vid=1780098d-4ab1-4aca-a350-3f87d61323e1"},"vehicle_type_id":"4","last_reported":1725808104,"current_range_meters":30000,"station_id":"ce4bgup2rcd13ifvqco0","pricing_plan_id":"cebpf4jnsgd1na2vs0mg"},{"bike_id":"db7abdc0-f9b8-47dd-9422-2897b2b07c5f","system_id":"levelo_inurba_marseille","lat":43.317557,"lon":5.390173,"is_reserved":false,"is_disabled":false,"rental_uris":{"android":"levelo://app?vid=db7abdc0-f9b8-47dd-9422-2897b2b07c5f","ios":"levelo://app?vid=db7abdc0-f9b8-47dd-9422-2897b2b07c5f"},"vehicle_type_id":"4","last_reported":1725808104,"current_range_meters":8000,"station_id":"ce4bhqp2rcd13ifvqhng","pricing_plan_id":"cebpf4jnsgd1na2vs0mg"},{"bike_id":"f491d580-28de-40d6-beb5-0fa77e4981dc","system_id":"levelo_inurba_marseille","lat":43.317557,"lon":5.390173,"is_reserved":false,"is_disabled":false,"rental_uris":{"android":"levelo://app?vid=f491d580-28de-40d6-beb5-0fa77e4981dc","ios":"levelo://app?vid=f491d580-28de-40d6-beb5-0fa77e4981dc"},"vehicle_type_id":"4","last_reported":1725808104,"current_range_meters":20000,"station_id":"ce4bhqp2rcd13ifvqhng","pricing_plan_id":"cebpf4jnsgd1na2vs0mg"},{"bike_id":"10f69fe8-7773-460f-8cbc-84d5043d302b","system_id":"levelo_inurba_marseille","lat":43.32253,"lon":5.387034,"is_reserved":false,"is_disabled":false,"rental_uris":{"android":"levelo://app?vid=10f69fe8-7773-460f-8cbc-84d5043d302b","ios":"levelo://app?vid=10f69fe8-7773-460f-8cbc-84d5043d302b"},"vehicle_type_id":"4","last_reported":1725808104,"current_range_meters":18800,"station_id":"","pricing_plan_id":"cebpf4jnsgd1na2vs0mg"},{"bike_id":"a3f141dc-412a-4c7c-abd5-0f2c24f26d75","system_id":"levelo_inurba_marseille","lat":43.29577,"lon":5.37503,"is_reserved":false,"is_disabled":false,"rental_uris":{"android":"levelo://app?vid=a3f141dc-412a-4c7c-abd5-0f2c24f26d75","ios":"levelo://app?vid=a3f141dc-412a-4c7c-abd5-0f2c24f26d75"},"vehicle_type_id":"4","last_reported":1725808104,"current_range_meters":16400,"station_id":"ce4bgh92rcd13ifvqb50","pricing_plan_id":"cebpf4jnsgd1na2vs0mg"},{"bike_id":"6cbee184-4efe-4724-a81d-bcf84582a8ee","system_id":"levelo_inurba_marseille","lat":43.304274,"lon":5.388873,"is_reserved":false,"is_disabled":false,"rental_uris":{"android":"levelo://app?vid=6cbee184-4efe-4724-a81d-bcf84582a8ee","ios":"levelo://app?vid=6cbee184-4efe-4724-a81d-bcf84582a8ee"},"vehicle_type_id":"4","last_reported":1725808104,"current_range_meters":23200,"station_id":"ce4bgk12rcd13ifvqbi0","pricing_plan_id":"cebpf4jnsgd1na2vs0mg"},{"bike_id":"a7e512d4-42c3-4fd2-a140-dec3f58b3466","system_id":"levelo_inurba_marseille","lat":43.299707,"lon":5.384859,"is_reserved":false,"is_disabled":false,"rental_uris":{"android":"levelo://app?vid=a7e512d4-42c3-4fd2-a140-dec3f58b3466","ios":"levelo://app?vid=a7e512d4-42c3-4fd2-a140-dec3f58b3466"},"vehicle_type_id":"4","last_reported":1725808104,"current_range_meters":0,"station_id":"ce4bgj92rcd13ifvqbd0","pricing_plan_id":"cebpf4jnsgd1na2vs0mg"},{"bike_id":"46c3ada9-a526-4b30-90db-9436a6fa30f4","system_id":"levelo_inurba_marseille","lat":43.299707,"lon":5.384859,"is_reserved":false,"is_disabled":false,"rental_uris":{"android":"levelo://app?vid=46c3ada9-a526-4b30-90db-9436a6fa30f4","ios":"levelo://app?vid=46c3ada9-a526-4b30-90db-9436a6fa30f4"},"vehicle_type_id":"4","last_reported":1725808104,"current_range_meters":24000,"station_id":"ce4bgj92rcd13ifvqbd0","pricing_plan_id":"cebpf4jnsgd1na2vs0mg"},{"bike_id":"1d9b56c9-792c-40d3-bade-5a9c19111764","system_id":"levelo_inurba_marseille","lat":43.301396,"lon":5.387812,"is_reserved":false,"is_disabled":false,"rental_uris":{"android":"levelo://app?vid=1d9b56c9-792c-40d3-bade-5a9c19111764","ios":"levelo://app?vid=1d9b56c9-792c-40d3-bade-5a9c19111764"},"vehicle_type_id":"4","last_reported":1725808104,"current_range_meters":0,"station_id":"ce4bghh2rcd13ifvqb60","pricing_plan_id":"cebpf4jnsgd1na2vs0mg"},{"bike_id":"211446e5-eec8-460b-aabf-1fa79f7e1176","system_id":"levelo_inurba_marseille","lat":43.301396,"lon":5.387812,"is_reserved":false,"is_disabled":false,"rental_uris":{"android":"levelo://app?vid=211446e5-eec8-460b-aabf-1fa79f7e1176","ios":"levelo://app?vid=211446e5-eec8-460b-aabf-1fa79f7e1176"},"vehicle_type_id":"4","last_reported":1725808104,"current_range_meters":13600,"station_id":"ce4bghh2rcd13ifvqb60","pricing_plan_id":"cebpf4jnsgd1na2vs0mg"},{"bike_id":"70d97f91-ffb7-4d6f-a85b-c83f759c02aa","system_id":"levelo_inurba_marseille","lat":43.3237,"lon":5.38879,"is_reserved":false,"is_disabled":false,"rental_uris":{"android":"levelo://app?vid=70d97f91-ffb7-4d6f-a85b-c83f759c02aa","ios":"levelo://app?vid=70d97f91-ffb7-4d6f-a85b-c83f759c02aa"},"vehicle_type_id":"4","last_reported":1725808104,"current_range_meters":31200,"station_id":"ce4bhqp2rcd13ifvqhog","pricing_plan_id":"cebpf4jnsgd1na2vs0mg"},{"bike_id":"5658eeec-093d-4e3e-acb2-85af2411fae2","system_id":"levelo_inurba_marseille","lat":43.32367,"lon":5.388836,"is_reserved":false,"is_disabled":false,"rental_uris":{"android":"levelo://app?vid=5658eeec-093d-4e3e-acb2-85af2411fae2","ios":"levelo://app?vid=5658eeec-093d-4e3e-acb2-85af2411fae2"},"vehicle_type_id":"4","last_reported":1725808104,"current_range_meters":15600,"station_id":"ce4bhqp2rcd13ifvqhog","pricing_plan_id":"cebpf4jnsgd1na2vs0mg"},{"bike_id":"be6f8e98-bf18-461f-8bcb-d319a8c2e18a","system_id":"levelo_inurba_marseille","lat":43.32367,"lon":5.388836,"is_reserved":false,"is_disabled":false,"rental_uris":{"android":"levelo://app?vid=be6f8e98-bf18-461f-8bcb-d319a8c2e18a","ios":"levelo://app?vid=be6f8e98-bf18-461f-8bcb-d319a8c2e18a"},"vehicle_type_id":"4","last_reported":1725808104,"current_range_meters":3200,"station_id":"ce4bhqp2rcd13ifvqhog","pricing_plan_id":"cebpf4jnsgd1na2vs0mg"},{"bike_id":"bcaa10f7-fd9e-4ad0-b0c8-b8b15c428fe5","system_id":"levelo_inurba_marseille","lat":43.32369,"lon":5.38884,"is_reserved":false,"is_disabled":false,"rental_uris":{"android":"levelo://app?vid=bcaa10f7-fd9e-4ad0-b0c8-b8b15c428fe5","ios":"levelo://app?vid=bcaa10f7-fd9e-4ad0-b0c8-b8b15c428fe5"},"vehicle_type_id":"4","last_reported":1725808104,"current_range_meters":18800,"station_id":"ce4bhqp2rcd13ifvqhog","pricing_plan_id":"cebpf4jnsgd1na2vs0mg"},{"bike_id":"1389f4a0-fe8c-45a8-89e1-761602337135","system_id":"levelo_inurba_marseille","lat":43.32367,"lon":5.38925,"is_reserved":false,"is_disabled":false,"rental_uris":{"android":"levelo://app?vid=1389f4a0-fe8c-45a8-89e1-761602337135","ios":"levelo://app?vid=1389f4a0-fe8c-45a8-89e1-761602337135"},"vehicle_type_id":"4","last_reported":1725808104,"current_range_meters":16000,"station_id":"ce4bhqp2rcd13ifvqhog","pricing_plan_id":"cebpf4jnsgd1na2vs0mg"},{"bike_id":"41704600-e9e6-4869-aefd-a4a12996605b","system_id":"levelo_inurba_marseille","lat":43.3237,"lon":5.38926,"is_reserved":false,"is_disabled":false,"rental_uris":{"android":"levelo://app?vid=41704600-e9e6-4869-aefd-a4a12996605b","ios":"levelo://app?vid=41704600-e9e6-4869-aefd-a4a12996605b"},"vehicle_type_id":"4","last_reported":1725808104,"current_range_meters":8800,"station_id":"ce4bhqp2rcd13ifvqhog","pricing_plan_id":"cebpf4jnsgd1na2vs0mg"},{"bike_id":"74c59e3d-56c9-4373-9efe-a345696f9a5c","system_id":"levelo_inurba_marseille","lat":43.3237,"lon":5.38926,"is_reserved":false,"is_disabled":false,"rental_uris":{"android":"levelo://app?vid=74c59e3d-56c9-4373-9efe-a345696f9a5c","ios":"levelo://app?vid=74c59e3d-56c9-4373-9efe-a345696f9a5c"},"vehicle_type_id":"4","last_reported":1725808104,"current_range_meters":21200,"station_id":"","pricing_plan_id":"cebpf4jnsgd1na2vs0mg"},{"bike_id":"c3242f03-b856-4db4-be77-dcc85d6c784e","system_id":"levelo_inurba_marseille","lat":43.29602,"lon":5.381084,"is_reserved":false,"is_disabled":false,"rental_uris":{"android":"levelo://app?vid=c3242f03-b856-4db4-be77-dcc85d6c784e","ios":"levelo://app?vid=c3242f03-b856-4db4-be77-dcc85d6c784e"},"vehicle_type_id":"4","last_reported":1725808104,"current_range_meters":6800,"station_id":"ce4bgl12rcd13ifvqbo0","pricing_plan_id":"cebpf4jnsgd1na2vs0mg"},{"bike_id":"347ca50e-bb17-4717-8655-cec1633cde9d","system_id":"levelo_inurba_marseille","lat":43.29602,"lon":5.381084,"is_reserved":false,"is_disabled":false,"rental_uris":{"android":"levelo://app?vid=347ca50e-bb17-4717-8655-cec1633cde9d","ios":"levelo://app?vid=347ca50e-bb17-4717-8655-cec1633cde9d"},"vehicle_type_id":"4","last_reported":1725808104,"current_range_meters":14800,"station_id":"ce4bgl12rcd13ifvqbo0","pricing_plan_id":"cebpf4jnsgd1na2vs0mg"},{"bike_id":"6f37c59d-cd45-4a97-aadb-ecec4a0a2f6a","system_id":"levelo_inurba_marseille","lat":43.29327,"lon":5.37076,"is_reserved":false,"is_disabled":false,"rental_uris":{"android":"levelo://app?vid=6f37c59d-cd45-4a97-aadb-ecec4a0a2f6a","ios":"levelo://app?vid=6f37c59d-cd45-4a97-aadb-ecec4a0a2f6a"},"vehicle_type_id":"4","last_reported":1725808104,"current_range_meters":23600,"station_id":"","pricing_plan_id":"cebpf4jnsgd1na2vs0mg"},{"bike_id":"bb561e0e-cd28-4c48-8a9d-dc1959282d96","system_id":"levelo_inurba_marseille","lat":43.293009,"lon":5.374584,"is_reserved":false,"is_disabled":false,"rental_uris":{"android":"levelo://app?vid=bb561e0e-cd28-4c48-8a9d-dc1959282d96","ios":"levelo://app?vid=bb561e0e-cd28-4c48-8a9d-dc1959282d96"},"vehicle_type_id":"4","last_reported":1725808104,"current_range_meters":25200,"station_id":"ce4bgi12rcd13ifvqb70","pricing_plan_id":"cebpf4jnsgd1na2vs0mg"},{"bike_id":"c0099bd3-82bb-4074-ac60-3e7549d04344","system_id":"levelo_inurba_marseille","lat":43.293009,"lon":5.374584,"is_reserved":false,"is_disabled":false,"rental_uris":{"android":"levelo://app?vid=c0099bd3-82bb-4074-ac60-3e7549d04344","ios":"levelo://app?vid=c0099bd3-82bb-4074-ac60-3e7549d04344"},"vehicle_type_id":"4","last_reported":1725808104,"current_range_meters":20800,"station_id":"ce4bgi12rcd13ifvqb70","pricing_plan_id":"cebpf4jnsgd1na2vs0mg"},{"bike_id":"a4fe3e72-5303-41c5-bf1f-0bf9329bfe42","system_id":"levelo_inurba_marseille","lat":43.293009,"lon":5.374584,"is_reserved":false,"is_disabled":false,"rental_uris":{"android":"levelo://app?vid=a4fe3e72-5303-41c5-bf1f-0bf9329bfe42","ios":"levelo://app?vid=a4fe3e72-5303-41c5-bf1f-0bf9329bfe42"},"vehicle_type_id":"4","last_reported":1725808104,"current_range_meters":13600,"station_id":"ce4bgi12rcd13ifvqb70","pricing_plan_id":"cebpf4jnsgd1na2vs0mg"},{"bike_id":"97fff3e6-ffc9-4634-8c49-13e0b9ecf0e4","system_id":"levelo_inurba_marseille","lat":43.293009,"lon":5.374584,"is_reserved":false,"is_disabled":false,"rental_uris":{"android":"levelo://app?vid=97fff3e6-ffc9-4634-8c49-13e0b9ecf0e4","ios":"levelo://app?vid=97fff3e6-ffc9-4634-8c49-13e0b9ecf0e4"},"vehicle_type_id":"4","last_reported":1725808104,"current_range_meters":29200,"station_id":"ce4bgi12rcd13ifvqb70","pricing_plan_id":"cebpf4jnsgd1na2vs0mg"},{"bike_id":"a2eebac4-4465-4321-9adc-9d58ebcdad83","system_id":"levelo_inurba_marseille","lat":43.293009,"lon":5.374584,"is_reserved":false,"is_disabled":false,"rental_uris":{"android":"levelo://app?vid=a2eebac4-4465-4321-9adc-9d58ebcdad83","ios":"levelo://app?vid=a2eebac4-4465-4321-9adc-9d58ebcdad83"},"vehicle_type_id":"4","last_reported":1725808104,"current_range_meters":20000,"station_id":"ce4bgi12rcd13ifvqb70","pricing_plan_id":"cebpf4jnsgd1na2vs0mg"},{"bike_id":"37beb4e1-4f7f-4138-afc9-c903b07a28af","system_id":"levelo_inurba_marseille","lat":43.2936,"lon":5.37835,"is_reserved":false,"is_disabled":false,"rental_uris":{"android":"levelo://app?vid=37beb4e1-4f7f-4138-afc9-c903b07a28af","ios":"levelo://app?vid=37beb4e1-4f7f-4138-afc9-c903b07a28af"},"vehicle_type_id":"4","last_reported":1725808104,"current_range_meters":16800,"station_id":"ce4bgjh2rcd13ifvqbf0","pricing_plan_id":"cebpf4jnsgd1na2vs0mg"},{"bike_id":"c94db00e-41ab-4013-af86-a91073fa962d","system_id":"levelo_inurba_marseille","lat":43.292311,"lon":5.360731,"is_reserved":false,"is_disabled":false,"rental_uris":{"android":"levelo://app?vid=c94db00e-41ab-4013-af86-a91073fa962d","ios":"levelo://app?vid=c94db00e-41ab-4013-af86-a91073fa962d"},"vehicle_type_id":"4","last_reported":1725808104,"current_range_meters":24800,"station_id":"ce4bhbh2rcd13ifvqeqg","pricing_plan_id":"cebpf4jnsgd1na2vs0mg"},{"bike_id":"6e800a89-c0a8-4bd3-8027-d0f843ab50a0","system_id":"levelo_inurba_marseille","lat":43.291671,"lon":5.371575,"is_reserved":false,"is_disabled":false,"rental_uris":{"android":"levelo://app?vid=6e800a89-c0a8-4bd3-8027-d0f843ab50a0","ios":"levelo://app?vid=6e800a89-c0a8-4bd3-8027-d0f843ab50a0"},"vehicle_type_id":"4","last_reported":1725808104,"current_range_meters":22800,"station_id":"ce4bha92rcd13ifvqeh0","pricing_plan_id":"cebpf4jnsgd1na2vs0mg"},{"bike_id":"f6a66643-141a-4189-8336-c85969e88166","system_id":"levelo_inurba_marseille","lat":43.30886,"lon":5.39628,"is_reserved":false,"is_disabled":false,"rental_uris":{"android":"levelo://app?vid=f6a66643-141a-4189-8336-c85969e88166","ios":"levelo://app?vid=f6a66643-141a-4189-8336-c85969e88166"},"vehicle_type_id":"4","last_reported":1725808104,"current_range_meters":10800,"station_id":"ce4bh012rcd13ifvqcv0","pricing_plan_id":"cebpf4jnsgd1na2vs0mg"},{"bike_id":"47a8ac77-064e-4c15-9e44-9bd0c9f3aa16","system_id":"levelo_inurba_marseille","lat":43.313291,"lon":5.396838,"is_reserved":false,"is_disabled":false,"rental_uris":{"android":"levelo://app?vid=47a8ac77-064e-4c15-9e44-9bd0c9f3aa16","ios":"levelo://app?vid=47a8ac77-064e-4c15-9e44-9bd0c9f3aa16"},"vehicle_type_id":"4","last_reported":1725808104,"current_range_meters":5200,"station_id":"ce4bgvp2rcd13ifvqcu0","pricing_plan_id":"cebpf4jnsgd1na2vs0mg"},{"bike_id":"4aba60fe-f499-4aad-9c65-c2ce141f239d","system_id":"levelo_inurba_marseille","lat":43.313291,"lon":5.396838,"is_reserved":false,"is_disabled":false,"rental_uris":{"android":"levelo://app?vid=4aba60fe-f499-4aad-9c65-c2ce141f239d","ios":"levelo://app?vid=4aba60fe-f499-4aad-9c65-c2ce141f239d"},"vehicle_type_id":"4","last_reported":1725808104,"current_range_meters":26400,"station_id":"ce4bgvp2rcd13ifvqcu0","pricing_plan_id":"cebpf4jnsgd1na2vs0mg"},{"bike_id":"725e3487-bb70-4ecd-8389-9fd29f597e79","system_id":"levelo_inurba_marseille","lat":43.313291,"lon":5.396838,"is_reserved":false,"is_disabled":false,"rental_uris":{"android":"levelo://app?vid=725e3487-bb70-4ecd-8389-9fd29f597e79","ios":"levelo://app?vid=725e3487-bb70-4ecd-8389-9fd29f597e79"},"vehicle_type_id":"4","last_reported":1725808104,"current_range_meters":28000,"station_id":"ce4bgvp2rcd13ifvqcu0","pricing_plan_id":"cebpf4jnsgd1na2vs0mg"},{"bike_id":"c50e12c0-6aab-4aa4-b756-9f930a61e1cf","system_id":"levelo_inurba_marseille","lat":43.313291,"lon":5.396838,"is_reserved":false,"is_disabled":false,"rental_uris":{"android":"levelo://app?vid=c50e12c0-6aab-4aa4-b756-9f930a61e1cf","ios":"levelo://app?vid=c50e12c0-6aab-4aa4-b756-9f930a61e1cf"},"vehicle_type_id":"4","last_reported":1725808104,"current_range_meters":29600,"station_id":"ce4bgvp2rcd13ifvqcu0","pricing_plan_id":"cebpf4jnsgd1na2vs0mg"},{"bike_id":"dc679e3c-d50c-43a6-b63d-7915ca7d7847","system_id":"levelo_inurba_marseille","lat":43.313291,"lon":5.396838,"is_reserved":false,"is_disabled":false,"rental_uris":{"android":"levelo://app?vid=dc679e3c-d50c-43a6-b63d-7915ca7d7847","ios":"levelo://app?vid=dc679e3c-d50c-43a6-b63d-7915ca7d7847"},"vehicle_type_id":"4","last_reported":1725808104,"current_range_meters":14000,"station_id":"ce4bgvp2rcd13ifvqcu0","pricing_plan_id":"cebpf4jnsgd1na2vs0mg"},{"bike_id":"17b65360-2dde-4983-8fd5-637f6dd66467","system_id":"levelo_inurba_marseille","lat":43.313291,"lon":5.396838,"is_reserved":false,"is_disabled":false,"rental_uris":{"android":"levelo://app?vid=17b65360-2dde-4983-8fd5-637f6dd66467","ios":"levelo://app?vid=17b65360-2dde-4983-8fd5-637f6dd66467"},"vehicle_type_id":"4","last_reported":1725808104,"current_range_meters":30800,"station_id":"ce4bgvp2rcd13ifvqcu0","pricing_plan_id":"cebpf4jnsgd1na2vs0mg"},{"bike_id":"32e16e04-c183-4b25-b5eb-b32f76c1cbd4","system_id":"levelo_inurba_marseille","lat":43.313291,"lon":5.396838,"is_reserved":false,"is_disabled":false,"rental_uris":{"android":"levelo://app?vid=32e16e04-c183-4b25-b5eb-b32f76c1cbd4","ios":"levelo://app?vid=32e16e04-c183-4b25-b5eb-b32f76c1cbd4"},"vehicle_type_id":"4","last_reported":1725808104,"current_range_meters":31200,"station_id":"ce4bgvp2rcd13ifvqcu0","pricing_plan_id":"cebpf4jnsgd1na2vs0mg"},{"bike_id":"279cd6c4-a554-42a0-9cfd-b0be5eedf939","system_id":"levelo_inurba_marseille","lat":43.313291,"lon":5.396838,"is_reserved":false,"is_disabled":false,"rental_uris":{"android":"levelo://app?vid=279cd6c4-a554-42a0-9cfd-b0be5eedf939","ios":"levelo://app?vid=279cd6c4-a554-42a0-9cfd-b0be5eedf939"},"vehicle_type_id":"4","last_reported":1725808104,"current_range_meters":31600,"station_id":"ce4bgvp2rcd13ifvqcu0","pricing_plan_id":"cebpf4jnsgd1na2vs0mg"},{"bike_id":"e2763115-a507-43c7-a651-28cdaea40986","system_id":"levelo_inurba_marseille","lat":43.29529,"lon":5.385581,"is_reserved":false,"is_disabled":false,"rental_uris":{"android":"levelo://app?vid=e2763115-a507-43c7-a651-28cdaea40986","ios":"levelo://app?vid=e2763115-a507-43c7-a651-28cdaea40986"},"vehicle_type_id":"4","last_reported":1725808104,"current_range_meters":26000,"station_id":"ce4bgih2rcd13ifvqba0","pricing_plan_id":"cebpf4jnsgd1na2vs0mg"},{"bike_id":"62d1c76f-b6fd-4e3e-9389-91921817e42e","system_id":"levelo_inurba_marseille","lat":43.290779,"lon":5.371482,"is_reserved":false,"is_disabled":false,"rental_uris":{"android":"levelo://app?vid=62d1c76f-b6fd-4e3e-9389-91921817e42e","ios":"levelo://app?vid=62d1c76f-b6fd-4e3e-9389-91921817e42e"},"vehicle_type_id":"4","last_reported":1725808104,"current_range_meters":30800,"station_id":"ce4bh5p2rcd13ifvqe4g","pricing_plan_id":"cebpf4jnsgd1na2vs0mg"},{"bike_id":"f928a6ba-123a-4cd5-b692-4b0c1ab835be","system_id":"levelo_inurba_marseille","lat":43.290779,"lon":5.371482,"is_reserved":false,"is_disabled":false,"rental_uris":{"android":"levelo://app?vid=f928a6ba-123a-4cd5-b692-4b0c1ab835be","ios":"levelo://app?vid=f928a6ba-123a-4cd5-b692-4b0c1ab835be"},"vehicle_type_id":"4","last_reported":1725808104,"current_range_meters":31200,"station_id":"ce4bh5p2rcd13ifvqe4g","pricing_plan_id":"cebpf4jnsgd1na2vs0mg"},{"bike_id":"b76e5b88-99dc-41ce-966d-60de831bcece","system_id":"levelo_inurba_marseille","lat":43.302008,"lon":5.394694,"is_reserved":false,"is_disabled":false,"rental_uris":{"android":"levelo://app?vid=b76e5b88-99dc-41ce-966d-60de831bcece","ios":"levelo://app?vid=b76e5b88-99dc-41ce-966d-60de831bcece"},"vehicle_type_id":"4","last_reported":1725808104,"current_range_meters":25200,"station_id":"ce4bh0p2rcd13ifvqd70","pricing_plan_id":"cebpf4jnsgd1na2vs0mg"},{"bike_id":"65608d79-8cd8-4dc5-8908-5960e2fa0aa5","system_id":"levelo_inurba_marseille","lat":43.290631,"lon":5.359244,"is_reserved":false,"is_disabled":false,"rental_uris":{"android":"levelo://app?vid=65608d79-8cd8-4dc5-8908-5960e2fa0aa5","ios":"levelo://app?vid=65608d79-8cd8-4dc5-8908-5960e2fa0aa5"},"vehicle_type_id":"4","last_reported":1725808104,"current_range_meters":13600,"station_id":"ce4bha92rcd13ifvqeg0","pricing_plan_id":"cebpf4jnsgd1na2vs0mg"},{"bike_id":"b91ffe12-5a5b-4bc4-8e17-c59bd6eb2758","system_id":"levelo_inurba_marseille","lat":43.29266,"lon":5.38426,"is_reserved":false,"is_disabled":false,"rental_uris":{"android":"levelo://app?vid=b91ffe12-5a5b-4bc4-8e17-c59bd6eb2758","ios":"levelo://app?vid=b91ffe12-5a5b-4bc4-8e17-c59bd6eb2758"},"vehicle_type_id":"4","last_reported":1725808104,"current_range_meters":5200,"station_id":"ce4bh692rcd13ifvqea0","pricing_plan_id":"cebpf4jnsgd1na2vs0mg"},{"bike_id":"74e46307-bcef-4a58-a175-86cf99e4bb95","system_id":"levelo_inurba_marseille","lat":43.292342,"lon":5.383568,"is_reserved":false,"is_disabled":false,"rental_uris":{"android":"levelo://app?vid=74e46307-bcef-4a58-a175-86cf99e4bb95","ios":"levelo://app?vid=74e46307-bcef-4a58-a175-86cf99e4bb95"},"vehicle_type_id":"4","last_reported":1725808104,"current_range_meters":19200,"station_id":"","pricing_plan_id":"cebpf4jnsgd1na2vs0mg"},{"bike_id":"ac10502b-a929-43b9-bbe1-9345401cbfa6","system_id":"levelo_inurba_marseille","lat":43.29263,"lon":5.38422,"is_reserved":false,"is_disabled":false,"rental_uris":{"android":"levelo://app?vid=ac10502b-a929-43b9-bbe1-9345401cbfa6","ios":"levelo://app?vid=ac10502b-a929-43b9-bbe1-9345401cbfa6"},"vehicle_type_id":"4","last_reported":1725808104,"current_range_meters":23200,"station_id":"ce4bh692rcd13ifvqea0","pricing_plan_id":"cebpf4jnsgd1na2vs0mg"},{"bike_id":"20da1de8-755e-4654-803d-fca6ec0b95d8","system_id":"levelo_inurba_marseille","lat":43.29264,"lon":5.38426,"is_reserved":false,"is_disabled":false,"rental_uris":{"android":"levelo://app?vid=20da1de8-755e-4654-803d-fca6ec0b95d8","ios":"levelo://app?vid=20da1de8-755e-4654-803d-fca6ec0b95d8"},"vehicle_type_id":"4","last_reported":1725808104,"current_range_meters":20400,"station_id":"ce4bh692rcd13ifvqea0","pricing_plan_id":"cebpf4jnsgd1na2vs0mg"},{"bike_id":"71e4bbe5-2a90-4d44-8f44-aaa95fa4ab71","system_id":"levelo_inurba_marseille","lat":43.29267,"lon":5.38434,"is_reserved":false,"is_disabled":false,"rental_uris":{"android":"levelo://app?vid=71e4bbe5-2a90-4d44-8f44-aaa95fa4ab71","ios":"levelo://app?vid=71e4bbe5-2a90-4d44-8f44-aaa95fa4ab71"},"vehicle_type_id":"4","last_reported":1725808104,"current_range_meters":28400,"station_id":"ce4bh692rcd13ifvqea0","pricing_plan_id":"cebpf4jnsgd1na2vs0mg"},{"bike_id":"4496c91f-4998-4a23-a8eb-6c7084d77956","system_id":"levelo_inurba_marseille","lat":43.292644,"lon":5.384257,"is_reserved":false,"is_disabled":false,"rental_uris":{"android":"levelo://app?vid=4496c91f-4998-4a23-a8eb-6c7084d77956","ios":"levelo://app?vid=4496c91f-4998-4a23-a8eb-6c7084d77956"},"vehicle_type_id":"4","last_reported":1725808104,"current_range_meters":20400,"station_id":"ce4bh692rcd13ifvqea0","pricing_plan_id":"cebpf4jnsgd1na2vs0mg"},{"bike_id":"2d751232-aa3f-458d-8175-8d449a18e7da","system_id":"levelo_inurba_marseille","lat":43.29264,"lon":5.38432,"is_reserved":false,"is_disabled":false,"rental_uris":{"android":"levelo://app?vid=2d751232-aa3f-458d-8175-8d449a18e7da","ios":"levelo://app?vid=2d751232-aa3f-458d-8175-8d449a18e7da"},"vehicle_type_id":"4","last_reported":1725808104,"current_range_meters":12000,"station_id":"ce4bh692rcd13ifvqea0","pricing_plan_id":"cebpf4jnsgd1na2vs0mg"},{"bike_id":"c89a81f2-bd5f-4f52-8ac5-c3dcfa99d148","system_id":"levelo_inurba_marseille","lat":43.292644,"lon":5.384257,"is_reserved":false,"is_disabled":false,"rental_uris":{"android":"levelo://app?vid=c89a81f2-bd5f-4f52-8ac5-c3dcfa99d148","ios":"levelo://app?vid=c89a81f2-bd5f-4f52-8ac5-c3dcfa99d148"},"vehicle_type_id":"4","last_reported":1725808104,"current_range_meters":18800,"station_id":"ce4bh692rcd13ifvqea0","pricing_plan_id":"cebpf4jnsgd1na2vs0mg"},{"bike_id":"284f9280-bb60-4175-9369-20513f20350c","system_id":"levelo_inurba_marseille","lat":43.304274,"lon":5.397513,"is_reserved":false,"is_disabled":false,"rental_uris":{"android":"levelo://app?vid=284f9280-bb60-4175-9369-20513f20350c","ios":"levelo://app?vid=284f9280-bb60-4175-9369-20513f20350c"},"vehicle_type_id":"4","last_reported":1725808104,"current_range_meters":31200,"station_id":"ce4bh092rcd13ifvqd20","pricing_plan_id":"cebpf4jnsgd1na2vs0mg"},{"bike_id":"15b29a73-6caa-4d17-abe5-084202d0847d","system_id":"levelo_inurba_marseille","lat":43.290553,"lon":5.379557,"is_reserved":false,"is_disabled":false,"rental_uris":{"android":"levelo://app?vid=15b29a73-6caa-4d17-abe5-084202d0847d","ios":"levelo://app?vid=15b29a73-6caa-4d17-abe5-084202d0847d"},"vehicle_type_id":"4","last_reported":1725808104,"current_range_meters":14400,"station_id":"","pricing_plan_id":"cebpf4jnsgd1na2vs0mg"},{"bike_id":"15f63583-11e9-4af8-8f9e-32ca8e007ed8","system_id":"levelo_inurba_marseille","lat":43.290104,"lon":5.356111,"is_reserved":false,"is_disabled":false,"rental_uris":{"android":"levelo://app?vid=15f63583-11e9-4af8-8f9e-32ca8e007ed8","ios":"levelo://app?vid=15f63583-11e9-4af8-8f9e-32ca8e007ed8"},"vehicle_type_id":"4","last_reported":1725808104,"current_range_meters":24000,"station_id":"ce4bhb92rcd13ifvqen0","pricing_plan_id":"cebpf4jnsgd1na2vs0mg"},{"bike_id":"9bf1759b-fdfb-400a-9c4f-e310a0a3cab9","system_id":"levelo_inurba_marseille","lat":43.290595,"lon":5.380311,"is_reserved":false,"is_disabled":false,"rental_uris":{"android":"levelo://app?vid=9bf1759b-fdfb-400a-9c4f-e310a0a3cab9","ios":"levelo://app?vid=9bf1759b-fdfb-400a-9c4f-e310a0a3cab9"},"vehicle_type_id":"4","last_reported":1725808104,"current_range_meters":11200,"station_id":"","pricing_plan_id":"cebpf4jnsgd1na2vs0mg"},{"bike_id":"f96e5aaf-c35d-4a3f-8c81-0795d625db8c","system_id":"levelo_inurba_marseille","lat":43.295169,"lon":5.390426,"is_reserved":false,"is_disabled":false,"rental_uris":{"android":"levelo://app?vid=f96e5aaf-c35d-4a3f-8c81-0795d625db8c","ios":"levelo://app?vid=f96e5aaf-c35d-4a3f-8c81-0795d625db8c"},"vehicle_type_id":"4","last_reported":1725808104,"current_range_meters":25600,"station_id":"ce4bh3p2rcd13ifvqdp0","pricing_plan_id":"cebpf4jnsgd1na2vs0mg"},{"bike_id":"7057c2ae-e265-4bdb-b37f-ad4f3369c8a6","system_id":"levelo_inurba_marseille","lat":43.330442,"lon":5.389148,"is_reserved":false,"is_disabled":false,"rental_uris":{"android":"levelo://app?vid=7057c2ae-e265-4bdb-b37f-ad4f3369c8a6","ios":"levelo://app?vid=7057c2ae-e265-4bdb-b37f-ad4f3369c8a6"},"vehicle_type_id":"4","last_reported":1725808104,"current_range_meters":31200,"station_id":"ce4bhr92rcd13ifvqhrg","pricing_plan_id":"cebpf4jnsgd1na2vs0mg"},{"bike_id":"a5b44d15-977f-4846-be7c-1ca78f8373fa","system_id":"levelo_inurba_marseille","lat":43.295169,"lon":5.390426,"is_reserved":false,"is_disabled":false,"rental_uris":{"android":"levelo://app?vid=a5b44d15-977f-4846-be7c-1ca78f8373fa","ios":"levelo://app?vid=a5b44d15-977f-4846-be7c-1ca78f8373fa"},"vehicle_type_id":"4","last_reported":1725808104,"current_range_meters":28000,"station_id":"ce4bh3p2rcd13ifvqdp0","pricing_plan_id":"cebpf4jnsgd1na2vs0mg"},{"bike_id":"e04954cb-e149-461c-aa1e-7db843ac8cb5","system_id":"levelo_inurba_marseille","lat":43.295169,"lon":5.390426,"is_reserved":false,"is_disabled":false,"rental_uris":{"android":"levelo://app?vid=e04954cb-e149-461c-aa1e-7db843ac8cb5","ios":"levelo://app?vid=e04954cb-e149-461c-aa1e-7db843ac8cb5"},"vehicle_type_id":"4","last_reported":1725808104,"current_range_meters":0,"station_id":"ce4bh3p2rcd13ifvqdp0","pricing_plan_id":"cebpf4jnsgd1na2vs0mg"},{"bike_id":"a7494805-fe85-4135-9395-37ee23bc12a9","system_id":"levelo_inurba_marseille","lat":43.295169,"lon":5.390426,"is_reserved":false,"is_disabled":false,"rental_uris":{"android":"levelo://app?vid=a7494805-fe85-4135-9395-37ee23bc12a9","ios":"levelo://app?vid=a7494805-fe85-4135-9395-37ee23bc12a9"},"vehicle_type_id":"4","last_reported":1725808104,"current_range_meters":29600,"station_id":"ce4bh3p2rcd13ifvqdp0","pricing_plan_id":"cebpf4jnsgd1na2vs0mg"},{"bike_id":"bc4f0de5-2af2-43fa-9aa4-e82cfc611e45","system_id":"levelo_inurba_marseille","lat":43.330442,"lon":5.389148,"is_reserved":false,"is_disabled":false,"rental_uris":{"android":"levelo://app?vid=bc4f0de5-2af2-43fa-9aa4-e82cfc611e45","ios":"levelo://app?vid=bc4f0de5-2af2-43fa-9aa4-e82cfc611e45"},"vehicle_type_id":"4","last_reported":1725808104,"current_range_meters":29200,"station_id":"ce4bhr92rcd13ifvqhrg","pricing_plan_id":"cebpf4jnsgd1na2vs0mg"},{"bike_id":"796c518e-a25c-409d-9c1b-08c9e0185ef2","system_id":"levelo_inurba_marseille","lat":43.330442,"lon":5.389148,"is_reserved":false,"is_disabled":false,"rental_uris":{"android":"levelo://app?vid=796c518e-a25c-409d-9c1b-08c9e0185ef2","ios":"levelo://app?vid=796c518e-a25c-409d-9c1b-08c9e0185ef2"},"vehicle_type_id":"4","last_reported":1725808104,"current_range_meters":31200,"station_id":"ce4bhr92rcd13ifvqhrg","pricing_plan_id":"cebpf4jnsgd1na2vs0mg"},{"bike_id":"5e981a0f-5933-44b0-8d80-fb4f1c8b0881","system_id":"levelo_inurba_marseille","lat":43.330442,"lon":5.389148,"is_reserved":false,"is_disabled":false,"rental_uris":{"android":"levelo://app?vid=5e981a0f-5933-44b0-8d80-fb4f1c8b0881","ios":"levelo://app?vid=5e981a0f-5933-44b0-8d80-fb4f1c8b0881"},"vehicle_type_id":"4","last_reported":1725808104,"current_range_meters":19600,"station_id":"ce4bhr92rcd13ifvqhrg","pricing_plan_id":"cebpf4jnsgd1na2vs0mg"},{"bike_id":"d5002507-5874-4ad4-aba2-5b666644f290","system_id":"levelo_inurba_marseille","lat":43.295169,"lon":5.390426,"is_reserved":false,"is_disabled":false,"rental_uris":{"android":"levelo://app?vid=d5002507-5874-4ad4-aba2-5b666644f290","ios":"levelo://app?vid=d5002507-5874-4ad4-aba2-5b666644f290"},"vehicle_type_id":"4","last_reported":1725808104,"current_range_meters":0,"station_id":"ce4bh3p2rcd13ifvqdp0","pricing_plan_id":"cebpf4jnsgd1na2vs0mg"},{"bike_id":"ed566c35-a845-426c-ae52-2bb50a0abd6b","system_id":"levelo_inurba_marseille","lat":43.330442,"lon":5.389148,"is_reserved":false,"is_disabled":false,"rental_uris":{"android":"levelo://app?vid=ed566c35-a845-426c-ae52-2bb50a0abd6b","ios":"levelo://app?vid=ed566c35-a845-426c-ae52-2bb50a0abd6b"},"vehicle_type_id":"4","last_reported":1725808104,"current_range_meters":31200,"station_id":"ce4bhr92rcd13ifvqhrg","pricing_plan_id":"cebpf4jnsgd1na2vs0mg"},{"bike_id":"374f7d16-6ee0-4f04-b640-ec54d5ce29bc","system_id":"levelo_inurba_marseille","lat":43.330442,"lon":5.389148,"is_reserved":false,"is_disabled":false,"rental_uris":{"android":"levelo://app?vid=374f7d16-6ee0-4f04-b640-ec54d5ce29bc","ios":"levelo://app?vid=374f7d16-6ee0-4f04-b640-ec54d5ce29bc"},"vehicle_type_id":"4","last_reported":1725808104,"current_range_meters":31200,"station_id":"ce4bhr92rcd13ifvqhrg","pricing_plan_id":"cebpf4jnsgd1na2vs0mg"},{"bike_id":"d12fb110-b3af-4807-93b8-3a1108d1804c","system_id":"levelo_inurba_marseille","lat":43.295169,"lon":5.390426,"is_reserved":false,"is_disabled":false,"rental_uris":{"android":"levelo://app?vid=d12fb110-b3af-4807-93b8-3a1108d1804c","ios":"levelo://app?vid=d12fb110-b3af-4807-93b8-3a1108d1804c"},"vehicle_type_id":"4","last_reported":1725808104,"current_range_meters":27200,"station_id":"ce4bh3p2rcd13ifvqdp0","pricing_plan_id":"cebpf4jnsgd1na2vs0mg"},{"bike_id":"a4e1f23b-0617-40f6-a9cd-936d021734c0","system_id":"levelo_inurba_marseille","lat":43.330442,"lon":5.389148,"is_reserved":false,"is_disabled":false,"rental_uris":{"android":"levelo://app?vid=a4e1f23b-0617-40f6-a9cd-936d021734c0","ios":"levelo://app?vid=a4e1f23b-0617-40f6-a9cd-936d021734c0"},"vehicle_type_id":"4","last_reported":1725808104,"current_range_meters":25600,"station_id":"ce4bhr92rcd13ifvqhrg","pricing_plan_id":"cebpf4jnsgd1na2vs0mg"},{"bike_id":"b5679bef-3f92-449d-876f-76820b24a6d9","system_id":"levelo_inurba_marseille","lat":43.330442,"lon":5.389148,"is_reserved":false,"is_disabled":false,"rental_uris":{"android":"levelo://app?vid=b5679bef-3f92-449d-876f-76820b24a6d9","ios":"levelo://app?vid=b5679bef-3f92-449d-876f-76820b24a6d9"},"vehicle_type_id":"4","last_reported":1725808104,"current_range_meters":30000,"station_id":"ce4bhr92rcd13ifvqhrg","pricing_plan_id":"cebpf4jnsgd1na2vs0mg"},{"bike_id":"ba86cff6-b165-4edc-b015-071b4d68cf7e","system_id":"levelo_inurba_marseille","lat":43.295169,"lon":5.390426,"is_reserved":false,"is_disabled":false,"rental_uris":{"android":"levelo://app?vid=ba86cff6-b165-4edc-b015-071b4d68cf7e","ios":"levelo://app?vid=ba86cff6-b165-4edc-b015-071b4d68cf7e"},"vehicle_type_id":"4","last_reported":1725808104,"current_range_meters":5600,"station_id":"ce4bh3p2rcd13ifvqdp0","pricing_plan_id":"cebpf4jnsgd1na2vs0mg"},{"bike_id":"d8c7b767-daae-4b75-84be-f4ad5e520968","system_id":"levelo_inurba_marseille","lat":43.330442,"lon":5.389148,"is_reserved":false,"is_disabled":false,"rental_uris":{"android":"levelo://app?vid=d8c7b767-daae-4b75-84be-f4ad5e520968","ios":"levelo://app?vid=d8c7b767-daae-4b75-84be-f4ad5e520968"},"vehicle_type_id":"4","last_reported":1725808104,"current_range_meters":31200,"station_id":"ce4bhr92rcd13ifvqhrg","pricing_plan_id":"cebpf4jnsgd1na2vs0mg"},{"bike_id":"2597f954-ba88-468f-8f7d-fc586d937f72","system_id":"levelo_inurba_marseille","lat":43.289741,"lon":5.378306,"is_reserved":false,"is_disabled":false,"rental_uris":{"android":"levelo://app?vid=2597f954-ba88-468f-8f7d-fc586d937f72","ios":"levelo://app?vid=2597f954-ba88-468f-8f7d-fc586d937f72"},"vehicle_type_id":"4","last_reported":1725808104,"current_range_meters":3600,"station_id":"ce4bh9p2rcd13ifvqed0","pricing_plan_id":"cebpf4jnsgd1na2vs0mg"},{"bike_id":"b5c88cb3-bb88-45da-a538-65d522f8e634","system_id":"levelo_inurba_marseille","lat":43.330442,"lon":5.389148,"is_reserved":false,"is_disabled":false,"rental_uris":{"android":"levelo://app?vid=b5c88cb3-bb88-45da-a538-65d522f8e634","ios":"levelo://app?vid=b5c88cb3-bb88-45da-a538-65d522f8e634"},"vehicle_type_id":"4","last_reported":1725808104,"current_range_meters":31200,"station_id":"ce4bhr92rcd13ifvqhrg","pricing_plan_id":"cebpf4jnsgd1na2vs0mg"},{"bike_id":"aed0fb01-0dd9-4416-8ff1-12b6446c7576","system_id":"levelo_inurba_marseille","lat":43.290094,"lon":5.381264,"is_reserved":false,"is_disabled":false,"rental_uris":{"android":"levelo://app?vid=aed0fb01-0dd9-4416-8ff1-12b6446c7576","ios":"levelo://app?vid=aed0fb01-0dd9-4416-8ff1-12b6446c7576"},"vehicle_type_id":"4","last_reported":1725808104,"current_range_meters":6000,"station_id":"ce4bh4p2rcd13ifvqe1g","pricing_plan_id":"cebpf4jnsgd1na2vs0mg"},{"bike_id":"b28cfad3-168c-4e8e-ab53-e5bce72dea30","system_id":"levelo_inurba_marseille","lat":43.290094,"lon":5.381264,"is_reserved":false,"is_disabled":false,"rental_uris":{"android":"levelo://app?vid=b28cfad3-168c-4e8e-ab53-e5bce72dea30","ios":"levelo://app?vid=b28cfad3-168c-4e8e-ab53-e5bce72dea30"},"vehicle_type_id":"4","last_reported":1725808104,"current_range_meters":17600,"station_id":"ce4bh4p2rcd13ifvqe1g","pricing_plan_id":"cebpf4jnsgd1na2vs0mg"},{"bike_id":"6d1dd5f4-c1f0-492d-bfed-93dd85618ab9","system_id":"levelo_inurba_marseille","lat":43.28856,"lon":5.358371,"is_reserved":false,"is_disabled":false,"rental_uris":{"android":"levelo://app?vid=6d1dd5f4-c1f0-492d-bfed-93dd85618ab9","ios":"levelo://app?vid=6d1dd5f4-c1f0-492d-bfed-93dd85618ab9"},"vehicle_type_id":"4","last_reported":1725808104,"current_range_meters":19200,"station_id":"ce4bhb12rcd13ifvqem0","pricing_plan_id":"cebpf4jnsgd1na2vs0mg"},{"bike_id":"734e5eac-d021-4571-b108-767e56ed7d53","system_id":"levelo_inurba_marseille","lat":43.290094,"lon":5.381264,"is_reserved":false,"is_disabled":false,"rental_uris":{"android":"levelo://app?vid=734e5eac-d021-4571-b108-767e56ed7d53","ios":"levelo://app?vid=734e5eac-d021-4571-b108-767e56ed7d53"},"vehicle_type_id":"4","last_reported":1725808104,"current_range_meters":20800,"station_id":"ce4bh4p2rcd13ifvqe1g","pricing_plan_id":"cebpf4jnsgd1na2vs0mg"},{"bike_id":"374e9351-cba7-469c-8246-298487bc9a18","system_id":"levelo_inurba_marseille","lat":43.28856,"lon":5.358371,"is_reserved":false,"is_disabled":false,"rental_uris":{"android":"levelo://app?vid=374e9351-cba7-469c-8246-298487bc9a18","ios":"levelo://app?vid=374e9351-cba7-469c-8246-298487bc9a18"},"vehicle_type_id":"4","last_reported":1725808104,"current_range_meters":19200,"station_id":"ce4bhb12rcd13ifvqem0","pricing_plan_id":"cebpf4jnsgd1na2vs0mg"},{"bike_id":"c9e4dcf4-eaba-4757-83d0-cf8871b42a53","system_id":"levelo_inurba_marseille","lat":43.309238,"lon":5.40128,"is_reserved":false,"is_disabled":false,"rental_uris":{"android":"levelo://app?vid=c9e4dcf4-eaba-4757-83d0-cf8871b42a53","ios":"levelo://app?vid=c9e4dcf4-eaba-4757-83d0-cf8871b42a53"},"vehicle_type_id":"4","last_reported":1725808104,"current_range_meters":26400,"station_id":"ce4bgvp2rcd13ifvqct0","pricing_plan_id":"cebpf4jnsgd1na2vs0mg"},{"bike_id":"fb3e035b-3fcc-4988-84c9-d2e4549adb27","system_id":"levelo_inurba_marseille","lat":43.312609,"lon":5.401662,"is_reserved":false,"is_disabled":false,"rental_uris":{"android":"levelo://app?vid=fb3e035b-3fcc-4988-84c9-d2e4549adb27","ios":"levelo://app?vid=fb3e035b-3fcc-4988-84c9-d2e4549adb27"},"vehicle_type_id":"4","last_reported":1725808104,"current_range_meters":25600,"station_id":"ce4bh092rcd13ifvqd30","pricing_plan_id":"cebpf4jnsgd1na2vs0mg"},{"bike_id":"24726297-3d7a-4389-a9b6-64e08e0c3995","system_id":"levelo_inurba_marseille","lat":43.30931,"lon":5.401363,"is_reserved":false,"is_disabled":false,"rental_uris":{"android":"levelo://app?vid=24726297-3d7a-4389-a9b6-64e08e0c3995","ios":"levelo://app?vid=24726297-3d7a-4389-a9b6-64e08e0c3995"},"vehicle_type_id":"4","last_reported":1725808104,"current_range_meters":29600,"station_id":"ce4bgvp2rcd13ifvqct0","pricing_plan_id":"cebpf4jnsgd1na2vs0mg"},{"bike_id":"a199c878-68e6-4029-b47c-03e19b73a190","system_id":"levelo_inurba_marseille","lat":43.30931,"lon":5.4014,"is_reserved":false,"is_disabled":false,"rental_uris":{"android":"levelo://app?vid=a199c878-68e6-4029-b47c-03e19b73a190","ios":"levelo://app?vid=a199c878-68e6-4029-b47c-03e19b73a190"},