{"last_updated":1693605966,"ttl":30,"version":"2.2","data":{"bikes":[{"bike_id":"efb2f7e1-e455-4d95-a9f3-e0c2ac33b603","system_id":"levelo_inurba_marseille","lat":43.312239,"lon":5.368562,"is_reserved":false,"is_disabled":false,"rental_uris":{"android":"levelo://app?vid=efb2f7e1-e455-4d95-a9f3-e0c2ac33b603","ios":"levelo://app?vid=efb2f7e1-e455-4d95-a9f3-e0c2ac33b603"},"vehicle_type_id":"4","last_reported":1693605966,"current_range_meters":28400,"station_id":"ce4bgl92rcd13ifvqbq0","pricing_plan_id":"free"},{"bike_id":"29ad9d27-2586-471f-a708-8b9903046d7e","system_id":"levelo_inurba_marseille","lat":43.312239,"lon":5.368562,"is_reserved":false,"is_disabled":false,"rental_uris":{"android":"levelo://app?vid=29ad9d27-2586-471f-a708-8b9903046d7e","ios":"levelo://app?vid=29ad9d27-2586-471f-a708-8b9903046d7e"},"vehicle_type_id":"4","last_reported":1693605966,"current_range_meters":26800,"station_id":"ce4bgl92rcd13ifvqbq0","pricing_plan_id":"free"},{"bike_id":"ee0efea8-f4c0-4c39-a113-d655a9afbb31","system_id":"levelo_inurba_marseille","lat":43.312239,"lon":5.368562,"is_reserved":false,"is_disabled":false,"rental_uris":{"android":"levelo://app?vid=ee0efea8-f4c0-4c39-a113-d655a9afbb31","ios":"levelo://app?vid=ee0efea8-f4c0-4c39-a113-d655a9afbb31"},"vehicle_type_id":"4","last_reported":1693605966,"current_range_meters":16400,"station_id":"ce4bgl92rcd13ifvqbq0","pricing_plan_id":"free"},{"bike_id":"424d63f2-0f4c-4261-a35a-4bf995090ed7","system_id":"levelo_inurba_marseille","lat":43.312239,"lon":5.368562,"is_reserved":false,"is_disabled":false,"rental_uris":{"android":"levelo://app?vid=424d63f2-0f4c-4261-a35a-4bf995090ed7","ios":"levelo://app?vid=424d63f2-0f4c-4261-a35a-4bf995090ed7"},"vehicle_type_id":"4","last_reported":1693605966,"current_range_meters":9200,"station_id":"ce4bgl92rcd13ifvqbq0","pricing_plan_id":"free"},{"bike_id":"b34cadce-ad97-4d87-8b7b-2a17fc12c954","system_id":"levelo_inurba_marseille","lat":43.312239,"lon":5.368562,"is_reserved":false,"is_disabled":false,"rental_uris":{"android":"levelo://app?vid=b34cadce-ad97-4d87-8b7b-2a17fc12c954","ios":"levelo://app?vid=b34cadce-ad97-4d87-8b7b-2a17fc12c954"},"vehicle_type_id":"4","last_reported":1693605966,"current_range_meters":22400,"station_id":"ce4bgl92rcd13ifvqbq0","pricing_plan_id":"free"},{"bike_id":"db2b350c-b305-464e-ba87-101df816e87b","system_id":"levelo_inurba_marseille","lat":43.312239,"lon":5.368562,"is_reserved":false,"is_disabled":false,"rental_uris":{"android":"levelo://app?vid=db2b350c-b305-464e-ba87-101df816e87b","ios":"levelo://app?vid=db2b350c-b305-464e-ba87-101df816e87b"},"vehicle_type_id":"4","last_reported":1693605966,"current_range_meters":18000,"station_id":"ce4bgl92rcd13ifvqbq0","pricing_plan_id":"free"},{"bike_id":"4083e906-288c-4450-9b1c-cca2a3ef2004","system_id":"levelo_inurba_marseille","lat":43.309076,"lon":5.368465,"is_reserved":false,"is_disabled":false,"rental_uris":{"android":"levelo://app?vid=4083e906-288c-4450-9b1c-cca2a3ef2004","ios":"levelo://app?vid=4083e906-288c-4450-9b1c-cca2a3ef2004"},"vehicle_type_id":"4","last_reported":1693605966,"current_range_meters":0,"station_id":"ce4bgn92rcd13ifvqbvg","pricing_plan_id":"free"},{"bike_id":"f82fe368-d5ba-454d-997a-a663eb0fa748","system_id":"levelo_inurba_marseille","lat":43.314811,"lon":5.373103,"is_reserved":false,"is_disabled":false,"rental_uris":{"android":"levelo://app?vid=f82fe368-d5ba-454d-997a-a663eb0fa748","ios":"levelo://app?vid=f82fe368-d5ba-454d-997a-a663eb0fa748"},"vehicle_type_id":"4","last_reported":1693605966,"current_range_meters":30400,"station_id":"ce4bgt12rcd13ifvqcd0","pricing_plan_id":"free"},{"bike_id":"83c5d839-29a5-413b-89a2-ceb189cd9614","system_id":"levelo_inurba_marseille","lat":43.314811,"lon":5.373103,"is_reserved":false,"is_disabled":false,"rental_uris":{"android":"levelo://app?vid=83c5d839-29a5-413b-89a2-ceb189cd9614","ios":"levelo://app?vid=83c5d839-29a5-413b-89a2-ceb189cd9614"},"vehicle_type_id":"4","last_reported":1693605966,"current_range_meters":1200,"station_id":"ce4bgt12rcd13ifvqcd0","pricing_plan_id":"free"},{"bike_id":"d2be997d-44d2-40a5-bb20-02aeaaf65fa5","system_id":"levelo_inurba_marseille","lat":43.314811,"lon":5.373104,"is_reserved":false,"is_disabled":false,"rental_uris":{"android":"levelo://app?vid=d2be997d-44d2-40a5-bb20-02aeaaf65fa5","ios":"levelo://app?vid=d2be997d-44d2-40a5-bb20-02aeaaf65fa5"},"vehicle_type_id":"4","last_reported":1693605966,"current_range_meters":30400,"station_id":"ce4bgt12rcd13ifvqcd0","pricing_plan_id":"free"},{"bike_id":"dbdfb9f1-27ea-41a9-8aaa-8528b50c591b","system_id":"levelo_inurba_marseille","lat":43.30897,"lon":5.37205,"is_reserved":false,"is_disabled":false,"rental_uris":{"android":"levelo://app?vid=dbdfb9f1-27ea-41a9-8aaa-8528b50c591b","ios":"levelo://app?vid=dbdfb9f1-27ea-41a9-8aaa-8528b50c591b"},"vehicle_type_id":"4","last_reported":1693605966,"current_range_meters":23200,"station_id":"ce4bguh2rcd13ifvqckg","pricing_plan_id":"free"},{"bike_id":"a3820f37-d923-4f0d-9fd4-bdcf93175d31","system_id":"levelo_inurba_marseille","lat":43.3089,"lon":5.37196,"is_reserved":false,"is_disabled":false,"rental_uris":{"android":"levelo://app?vid=a3820f37-d923-4f0d-9fd4-bdcf93175d31","ios":"levelo://app?vid=a3820f37-d923-4f0d-9fd4-bdcf93175d31"},"vehicle_type_id":"4","last_reported":1693605966,"current_range_meters":19200,"station_id":"ce4bguh2rcd13ifvqckg","pricing_plan_id":"free"},{"bike_id":"f4f95edd-ba03-4a02-8113-ec7b316ada36","system_id":"levelo_inurba_marseille","lat":43.30883,"lon":5.37187,"is_reserved":false,"is_disabled":false,"rental_uris":{"android":"levelo://app?vid=f4f95edd-ba03-4a02-8113-ec7b316ada36","ios":"levelo://app?vid=f4f95edd-ba03-4a02-8113-ec7b316ada36"},"vehicle_type_id":"4","last_reported":1693605966,"current_range_meters":28800,"station_id":"ce4bguh2rcd13ifvqckg","pricing_plan_id":"free"},{"bike_id":"ae9b310c-066c-444d-b8fe-04eb79f5ab0d","system_id":"levelo_inurba_marseille","lat":43.30883,"lon":5.372019,"is_reserved":false,"is_disabled":false,"rental_uris":{"android":"levelo://app?vid=ae9b310c-066c-444d-b8fe-04eb79f5ab0d","ios":"levelo://app?vid=ae9b310c-066c-444d-b8fe-04eb79f5ab0d"},"vehicle_type_id":"4","last_reported":1693605966,"current_range_meters":16400,"station_id":"","pricing_plan_id":"free"},{"bike_id":"002d5d6c-3540-48e8-beff-857157ac335f","system_id":"levelo_inurba_marseille","lat":43.305706,"lon":5.365654,"is_reserved":false,"is_disabled":false,"rental_uris":{"android":"levelo://app?vid=002d5d6c-3540-48e8-beff-857157ac335f","ios":"levelo://app?vid=002d5d6c-3540-48e8-beff-857157ac335f"},"vehicle_type_id":"4","last_reported":1693605966,"current_range_meters":0,"station_id":"ce4bgs12rcd13ifvqcag","pricing_plan_id":"free"},{"bike_id":"c5398b74-fda2-4c71-9885-32d594c5eeed","system_id":"levelo_inurba_marseille","lat":43.30528,"lon":5.36534,"is_reserved":false,"is_disabled":false,"rental_uris":{"android":"levelo://app?vid=c5398b74-fda2-4c71-9885-32d594c5eeed","ios":"levelo://app?vid=c5398b74-fda2-4c71-9885-32d594c5eeed"},"vehicle_type_id":"4","last_reported":1693605966,"current_range_meters":16800,"station_id":"ce4bgs12rcd13ifvqcag","pricing_plan_id":"free"},{"bike_id":"31b553b9-b42d-44af-821d-a5dd50cd9848","system_id":"levelo_inurba_marseille","lat":43.305989,"lon":5.37225,"is_reserved":false,"is_disabled":false,"rental_uris":{"android":"levelo://app?vid=31b553b9-b42d-44af-821d-a5dd50cd9848","ios":"levelo://app?vid=31b553b9-b42d-44af-821d-a5dd50cd9848"},"vehicle_type_id":"4","last_reported":1693605966,"current_range_meters":15600,"station_id":"ce4bgqh2rcd13ifvqc4g","pricing_plan_id":"free"},{"bike_id":"0fe14439-f5fb-4611-be00-cccecea170c2","system_id":"levelo_inurba_marseille","lat":43.305989,"lon":5.37225,"is_reserved":false,"is_disabled":false,"rental_uris":{"android":"levelo://app?vid=0fe14439-f5fb-4611-be00-cccecea170c2","ios":"levelo://app?vid=0fe14439-f5fb-4611-be00-cccecea170c2"},"vehicle_type_id":"4","last_reported":1693605966,"current_range_meters":28400,"station_id":"ce4bgqh2rcd13ifvqc4g","pricing_plan_id":"free"},{"bike_id":"80f10142-36c3-4a22-aa89-ef659e7679b7","system_id":"levelo_inurba_marseille","lat":43.305989,"lon":5.37225,"is_reserved":false,"is_disabled":false,"rental_uris":{"android":"levelo://app?vid=80f10142-36c3-4a22-aa89-ef659e7679b7","ios":"levelo://app?vid=80f10142-36c3-4a22-aa89-ef659e7679b7"},"vehicle_type_id":"4","last_reported":1693605966,"current_range_meters":24000,"station_id":"ce4bgqh2rcd13ifvqc4g","pricing_plan_id":"free"},{"bike_id":"b7798b79-8937-434f-8695-480d1f48e7ad","system_id":"levelo_inurba_marseille","lat":43.305989,"lon":5.37225,"is_reserved":false,"is_disabled":false,"rental_uris":{"android":"levelo://app?vid=b7798b79-8937-434f-8695-480d1f48e7ad","ios":"levelo://app?vid=b7798b79-8937-434f-8695-480d1f48e7ad"},"vehicle_type_id":"4","last_reported":1693605966,"current_range_meters":30000,"station_id":"ce4bgqh2rcd13ifvqc4g","pricing_plan_id":"free"},{"bike_id":"b2bb8ee1-953c-4e20-825c-2a8290b24960","system_id":"levelo_inurba_marseille","lat":43.311125,"lon":5.377624,"is_reserved":false,"is_disabled":false,"rental_uris":{"android":"levelo://app?vid=b2bb8ee1-953c-4e20-825c-2a8290b24960","ios":"levelo://app?vid=b2bb8ee1-953c-4e20-825c-2a8290b24960"},"vehicle_type_id":"4","last_reported":1693605966,"current_range_meters":800,"station_id":"ce4bgt92rcd13ifvqcg0","pricing_plan_id":"free"},{"bike_id":"1bc24091-5590-4bd2-a736-68f1fcdb711d","system_id":"levelo_inurba_marseille","lat":43.311125,"lon":5.377624,"is_reserved":false,"is_disabled":false,"rental_uris":{"android":"levelo://app?vid=1bc24091-5590-4bd2-a736-68f1fcdb711d","ios":"levelo://app?vid=1bc24091-5590-4bd2-a736-68f1fcdb711d"},"vehicle_type_id":"4","last_reported":1693605966,"current_range_meters":2000,"station_id":"ce4bgt92rcd13ifvqcg0","pricing_plan_id":"free"},{"bike_id":"0a8bc6ea-896e-45e9-8f79-184bc706b2c8","system_id":"levelo_inurba_marseille","lat":43.311131,"lon":5.377651,"is_reserved":false,"is_disabled":false,"rental_uris":{"android":"levelo://app?vid=0a8bc6ea-896e-45e9-8f79-184bc706b2c8","ios":"levelo://app?vid=0a8bc6ea-896e-45e9-8f79-184bc706b2c8"},"vehicle_type_id":"4","last_reported":1693605966,"current_range_meters":31200,"station_id":"ce4bgt92rcd13ifvqcg0","pricing_plan_id":"free"},{"bike_id":"98bf92d7-d38f-4a5b-afc7-d43abdbdd918","system_id":"levelo_inurba_marseille","lat":43.311125,"lon":5.377624,"is_reserved":false,"is_disabled":false,"rental_uris":{"android":"levelo://app?vid=98bf92d7-d38f-4a5b-afc7-d43abdbdd918","ios":"levelo://app?vid=98bf92d7-d38f-4a5b-afc7-d43abdbdd918"},"vehicle_type_id":"4","last_reported":1693605966,"current_range_meters":27200,"station_id":"ce4bgt92rcd13ifvqcg0","pricing_plan_id":"free"},{"bike_id":"96cf4c32-db00-4cb8-b0a3-d6c84e6d7046","system_id":"levelo_inurba_marseille","lat":43.311131,"lon":5.377651,"is_reserved":false,"is_disabled":false,"rental_uris":{"android":"levelo://app?vid=96cf4c32-db00-4cb8-b0a3-d6c84e6d7046","ios":"levelo://app?vid=96cf4c32-db00-4cb8-b0a3-d6c84e6d7046"},"vehicle_type_id":"4","last_reported":1693605966,"current_range_meters":16400,"station_id":"ce4bgt92rcd13ifvqcg0","pricing_plan_id":"free"},{"bike_id":"31beb8d7-386e-48bf-85f4-3a6d5ca6b4ae","system_id":"levelo_inurba_marseille","lat":43.311125,"lon":5.377624,"is_reserved":false,"is_disabled":false,"rental_uris":{"android":"levelo://app?vid=31beb8d7-386e-48bf-85f4-3a6d5ca6b4ae","ios":"levelo://app?vid=31beb8d7-386e-48bf-85f4-3a6d5ca6b4ae"},"vehicle_type_id":"4","last_reported":1693605966,"current_range_meters":26000,"station_id":"ce4bgt92rcd13ifvqcg0","pricing_plan_id":"free"},{"bike_id":"5b553c2a-459c-4234-b727-e9408200025a","system_id":"levelo_inurba_marseille","lat":43.311131,"lon":5.377651,"is_reserved":false,"is_disabled":false,"rental_uris":{"android":"levelo://app?vid=5b553c2a-459c-4234-b727-e9408200025a","ios":"levelo://app?vid=5b553c2a-459c-4234-b727-e9408200025a"},"vehicle_type_id":"4","last_reported":1693605966,"current_range_meters":19600,"station_id":"ce4bgt92rcd13ifvqcg0","pricing_plan_id":"free"},{"bike_id":"ebac6756-0d90-49e0-95b1-9e1472ed027c","system_id":"levelo_inurba_marseille","lat":43.311125,"lon":5.377624,"is_reserved":false,"is_disabled":false,"rental_uris":{"android":"levelo://app?vid=ebac6756-0d90-49e0-95b1-9e1472ed027c","ios":"levelo://app?vid=ebac6756-0d90-49e0-95b1-9e1472ed027c"},"vehicle_type_id":"4","last_reported":1693605966,"current_range_meters":15600,"station_id":"ce4bgt92rcd13ifvqcg0","pricing_plan_id":"free"},{"bike_id":"0686e196-36f8-4c1d-abf0-25a7021c0deb","system_id":"levelo_inurba_marseille","lat":43.311131,"lon":5.377651,"is_reserved":false,"is_disabled":false,"rental_uris":{"android":"levelo://app?vid=0686e196-36f8-4c1d-abf0-25a7021c0deb","ios":"levelo://app?vid=0686e196-36f8-4c1d-abf0-25a7021c0deb"},"vehicle_type_id":"4","last_reported":1693605966,"current_range_meters":2800,"station_id":"ce4bgt92rcd13ifvqcg0","pricing_plan_id":"free"},{"bike_id":"fc01a58f-a2e8-41e3-acb2-ae25c865b87a","system_id":"levelo_inurba_marseille","lat":43.311125,"lon":5.377624,"is_reserved":false,"is_disabled":false,"rental_uris":{"android":"levelo://app?vid=fc01a58f-a2e8-41e3-acb2-ae25c865b87a","ios":"levelo://app?vid=fc01a58f-a2e8-41e3-acb2-ae25c865b87a"},"vehicle_type_id":"4","last_reported":1693605966,"current_range_meters":1200,"station_id":"ce4bgt92rcd13ifvqcg0","pricing_plan_id":"free"},{"bike_id":"478e5943-5bdf-46ce-b102-8c9dcf2b43b7","system_id":"levelo_inurba_marseille","lat":43.32027,"lon":5.37119,"is_reserved":false,"is_disabled":false,"rental_uris":{"android":"levelo://app?vid=478e5943-5bdf-46ce-b102-8c9dcf2b43b7","ios":"levelo://app?vid=478e5943-5bdf-46ce-b102-8c9dcf2b43b7"},"vehicle_type_id":"4","last_reported":1693605966,"current_range_meters":10400,"station_id":"","pricing_plan_id":"free"},{"bike_id":"d4f6e01b-ef0c-47ae-b736-e50485906c06","system_id":"levelo_inurba_marseille","lat":43.307945,"lon":5.376487,"is_reserved":false,"is_disabled":false,"rental_uris":{"android":"levelo://app?vid=d4f6e01b-ef0c-47ae-b736-e50485906c06","ios":"levelo://app?vid=d4f6e01b-ef0c-47ae-b736-e50485906c06"},"vehicle_type_id":"4","last_reported":1693605966,"current_range_meters":7600,"station_id":"ce4bgv92rcd13ifvqcq0","pricing_plan_id":"free"},{"bike_id":"f73fbf29-89bf-4cb1-ac26-dd527ccfccd3","system_id":"levelo_inurba_marseille","lat":43.307945,"lon":5.376487,"is_reserved":false,"is_disabled":false,"rental_uris":{"android":"levelo://app?vid=f73fbf29-89bf-4cb1-ac26-dd527ccfccd3","ios":"levelo://app?vid=f73fbf29-89bf-4cb1-ac26-dd527ccfccd3"},"vehicle_type_id":"4","last_reported":1693605966,"current_range_meters":3600,"station_id":"ce4bgv92rcd13ifvqcq0","pricing_plan_id":"free"},{"bike_id":"b2c82aac-d7cf-4310-907c-1d6219c23cc6","system_id":"levelo_inurba_marseille","lat":43.317075,"lon":5.377367,"is_reserved":false,"is_disabled":false,"rental_uris":{"android":"levelo://app?vid=b2c82aac-d7cf-4310-907c-1d6219c23cc6","ios":"levelo://app?vid=b2c82aac-d7cf-4310-907c-1d6219c23cc6"},"vehicle_type_id":"4","last_reported":1693605966,"current_range_meters":18000,"station_id":"ce4bgth2rcd13ifvqch0","pricing_plan_id":"free"},{"bike_id":"cd2430b5-d827-457f-a12a-f29afa394529","system_id":"levelo_inurba_marseille","lat":43.317075,"lon":5.377367,"is_reserved":false,"is_disabled":false,"rental_uris":{"android":"levelo://app?vid=cd2430b5-d827-457f-a12a-f29afa394529","ios":"levelo://app?vid=cd2430b5-d827-457f-a12a-f29afa394529"},"vehicle_type_id":"4","last_reported":1693605966,"current_range_meters":21200,"station_id":"ce4bgth2rcd13ifvqch0","pricing_plan_id":"free"},{"bike_id":"9dbfb0b2-a7cf-4105-b5e7-5cc01e87f170","system_id":"levelo_inurba_marseille","lat":43.31534,"lon":5.38041,"is_reserved":false,"is_disabled":false,"rental_uris":{"android":"levelo://app?vid=9dbfb0b2-a7cf-4105-b5e7-5cc01e87f170","ios":"levelo://app?vid=9dbfb0b2-a7cf-4105-b5e7-5cc01e87f170"},"vehicle_type_id":"4","last_reported":1693605966,"current_range_meters":29200,"station_id":"ce4bhsp2rcd13ifvqi50","pricing_plan_id":"free"},{"bike_id":"dbe186c0-2b0a-43af-a686-e0ab7ff5cdff","system_id":"levelo_inurba_marseille","lat":43.301939,"lon":5.366286,"is_reserved":false,"is_disabled":false,"rental_uris":{"android":"levelo://app?vid=dbe186c0-2b0a-43af-a686-e0ab7ff5cdff","ios":"levelo://app?vid=dbe186c0-2b0a-43af-a686-e0ab7ff5cdff"},"vehicle_type_id":"4","last_reported":1693605966,"current_range_meters":400,"station_id":"ce4bgrh2rcd13ifvqc8g","pricing_plan_id":"free"},{"bike_id":"82e10271-08c4-471e-848f-eed4cbd63ad5","system_id":"levelo_inurba_marseille","lat":43.30122,"lon":5.3655,"is_reserved":false,"is_disabled":false,"rental_uris":{"android":"levelo://app?vid=82e10271-08c4-471e-848f-eed4cbd63ad5","ios":"levelo://app?vid=82e10271-08c4-471e-848f-eed4cbd63ad5"},"vehicle_type_id":"4","last_reported":1693605966,"current_range_meters":3200,"station_id":"","pricing_plan_id":"free"},{"bike_id":"156da691-fbe1-4c2f-a502-c0ab6344790e","system_id":"levelo_inurba_marseille","lat":43.308012,"lon":5.381511,"is_reserved":false,"is_disabled":false,"rental_uris":{"android":"levelo://app?vid=156da691-fbe1-4c2f-a502-c0ab6344790e","ios":"levelo://app?vid=156da691-fbe1-4c2f-a502-c0ab6344790e"},"vehicle_type_id":"4","last_reported":1693605966,"current_range_meters":8000,"station_id":"ce4bgt12rcd13ifvqce0","pricing_plan_id":"free"},{"bike_id":"81c1ad5e-88b7-496b-b0a9-730546888aad","system_id":"levelo_inurba_marseille","lat":43.30798,"lon":5.38151,"is_reserved":false,"is_disabled":false,"rental_uris":{"android":"levelo://app?vid=81c1ad5e-88b7-496b-b0a9-730546888aad","ios":"levelo://app?vid=81c1ad5e-88b7-496b-b0a9-730546888aad"},"vehicle_type_id":"4","last_reported":1693605966,"current_range_meters":24800,"station_id":"ce4bgt12rcd13ifvqce0","pricing_plan_id":"free"},{"bike_id":"daa2cf7b-38e6-479e-ba67-20aab4e20d01","system_id":"levelo_inurba_marseille","lat":43.30799,"lon":5.38154,"is_reserved":false,"is_disabled":false,"rental_uris":{"android":"levelo://app?vid=daa2cf7b-38e6-479e-ba67-20aab4e20d01","ios":"levelo://app?vid=daa2cf7b-38e6-479e-ba67-20aab4e20d01"},"vehicle_type_id":"4","last_reported":1693605966,"current_range_meters":14000,"station_id":"ce4bgt12rcd13ifvqce0","pricing_plan_id":"free"},{"bike_id":"da7d3176-a6b5-4827-87a4-3c2763ad3a12","system_id":"levelo_inurba_marseille","lat":43.308012,"lon":5.381511,"is_reserved":false,"is_disabled":false,"rental_uris":{"android":"levelo://app?vid=da7d3176-a6b5-4827-87a4-3c2763ad3a12","ios":"levelo://app?vid=da7d3176-a6b5-4827-87a4-3c2763ad3a12"},"vehicle_type_id":"4","last_reported":1693605966,"current_range_meters":2000,"station_id":"ce4bgt12rcd13ifvqce0","pricing_plan_id":"free"},{"bike_id":"4e2d8344-5c61-407d-a7b0-253463b83e13","system_id":"levelo_inurba_marseille","lat":43.308012,"lon":5.381511,"is_reserved":false,"is_disabled":false,"rental_uris":{"android":"levelo://app?vid=4e2d8344-5c61-407d-a7b0-253463b83e13","ios":"levelo://app?vid=4e2d8344-5c61-407d-a7b0-253463b83e13"},"vehicle_type_id":"4","last_reported":1693605966,"current_range_meters":0,"station_id":"ce4bgt12rcd13ifvqce0","pricing_plan_id":"free"},{"bike_id":"46c7a749-3fff-43ce-a8fb-3227dd7fd00a","system_id":"levelo_inurba_marseille","lat":43.30964,"lon":5.38261,"is_reserved":false,"is_disabled":false,"rental_uris":{"android":"levelo://app?vid=46c7a749-3fff-43ce-a8fb-3227dd7fd00a","ios":"levelo://app?vid=46c7a749-3fff-43ce-a8fb-3227dd7fd00a"},"vehicle_type_id":"4","last_reported":1693605966,"current_range_meters":7600,"station_id":"","pricing_plan_id":"free"},{"bike_id":"9bea51f9-ea43-4b31-8db7-dddbb2670e77","system_id":"levelo_inurba_marseille","lat":43.304606,"lon":5.379026,"is_reserved":false,"is_disabled":false,"rental_uris":{"android":"levelo://app?vid=9bea51f9-ea43-4b31-8db7-dddbb2670e77","ios":"levelo://app?vid=9bea51f9-ea43-4b31-8db7-dddbb2670e77"},"vehicle_type_id":"4","last_reported":1693605966,"current_range_meters":30800,"station_id":"ce4bgup2rcd13ifvqcn0","pricing_plan_id":"free"},{"bike_id":"39fa0815-86c2-451b-82f8-da29d33de900","system_id":"levelo_inurba_marseille","lat":43.304606,"lon":5.379026,"is_reserved":false,"is_disabled":false,"rental_uris":{"android":"levelo://app?vid=39fa0815-86c2-451b-82f8-da29d33de900","ios":"levelo://app?vid=39fa0815-86c2-451b-82f8-da29d33de900"},"vehicle_type_id":"4","last_reported":1693605966,"current_range_meters":9600,"station_id":"ce4bgup2rcd13ifvqcn0","pricing_plan_id":"free"},{"bike_id":"637d11f8-cb0d-4f63-9d62-4faec7c96e76","system_id":"levelo_inurba_marseille","lat":43.304606,"lon":5.379026,"is_reserved":false,"is_disabled":false,"rental_uris":{"android":"levelo://app?vid=637d11f8-cb0d-4f63-9d62-4faec7c96e76","ios":"levelo://app?vid=637d11f8-cb0d-4f63-9d62-4faec7c96e76"},"vehicle_type_id":"4","last_reported":1693605966,"current_range_meters":7200,"station_id":"ce4bgup2rcd13ifvqcn0","pricing_plan_id":"free"},{"bike_id":"c7b61fa8-e94a-4967-ba62-388a95da59be","system_id":"levelo_inurba_marseille","lat":43.304606,"lon":5.379026,"is_reserved":false,"is_disabled":false,"rental_uris":{"android":"levelo://app?vid=c7b61fa8-e94a-4967-ba62-388a95da59be","ios":"levelo://app?vid=c7b61fa8-e94a-4967-ba62-388a95da59be"},"vehicle_type_id":"4","last_reported":1693605966,"current_range_meters":8400,"station_id":"ce4bgup2rcd13ifvqcn0","pricing_plan_id":"free"},{"bike_id":"193af192-d7db-4603-be77-df51e851950e","system_id":"levelo_inurba_marseille","lat":43.304606,"lon":5.379026,"is_reserved":false,"is_disabled":false,"rental_uris":{"android":"levelo://app?vid=193af192-d7db-4603-be77-df51e851950e","ios":"levelo://app?vid=193af192-d7db-4603-be77-df51e851950e"},"vehicle_type_id":"4","last_reported":1693605966,"current_range_meters":28400,"station_id":"ce4bgup2rcd13ifvqcn0","pricing_plan_id":"free"},{"bike_id":"cc28612f-b913-4e07-81a1-e8a4df49747b","system_id":"levelo_inurba_marseille","lat":43.31992,"lon":5.38146,"is_reserved":false,"is_disabled":false,"rental_uris":{"android":"levelo://app?vid=cc28612f-b913-4e07-81a1-e8a4df49747b","ios":"levelo://app?vid=cc28612f-b913-4e07-81a1-e8a4df49747b"},"vehicle_type_id":"4","last_reported":1693605966,"current_range_meters":16400,"station_id":"ce4bhr12rcd13ifvqhpg","pricing_plan_id":"free"},{"bike_id":"1e0f211e-028a-46cb-9a0d-9899ac904750","system_id":"levelo_inurba_marseille","lat":43.319935,"lon":5.381699,"is_reserved":false,"is_disabled":false,"rental_uris":{"android":"levelo://app?vid=1e0f211e-028a-46cb-9a0d-9899ac904750","ios":"levelo://app?vid=1e0f211e-028a-46cb-9a0d-9899ac904750"},"vehicle_type_id":"4","last_reported":1693605966,"current_range_meters":28400,"station_id":"ce4bhr12rcd13ifvqhpg","pricing_plan_id":"free"},{"bike_id":"d13e2fc0-5196-41d3-8d49-bf9314309b08","system_id":"levelo_inurba_marseille","lat":43.319935,"lon":5.381699,"is_reserved":false,"is_disabled":false,"rental_uris":{"android":"levelo://app?vid=d13e2fc0-5196-41d3-8d49-bf9314309b08","ios":"levelo://app?vid=d13e2fc0-5196-41d3-8d49-bf9314309b08"},"vehicle_type_id":"4","last_reported":1693605966,"current_range_meters":31200,"station_id":"ce4bhr12rcd13ifvqhpg","pricing_plan_id":"free"},{"bike_id":"77cc4a87-903a-4ac8-836f-05d771ccc1e4","system_id":"levelo_inurba_marseille","lat":43.31996,"lon":5.38149,"is_reserved":false,"is_disabled":false,"rental_uris":{"android":"levelo://app?vid=77cc4a87-903a-4ac8-836f-05d771ccc1e4","ios":"levelo://app?vid=77cc4a87-903a-4ac8-836f-05d771ccc1e4"},"vehicle_type_id":"4","last_reported":1693605966,"current_range_meters":26400,"station_id":"ce4bhr12rcd13ifvqhpg","pricing_plan_id":"free"},{"bike_id":"3ce12e8d-2187-433e-90ea-725012bee47a","system_id":"levelo_inurba_marseille","lat":43.319935,"lon":5.381699,"is_reserved":false,"is_disabled":false,"rental_uris":{"android":"levelo://app?vid=3ce12e8d-2187-433e-90ea-725012bee47a","ios":"levelo://app?vid=3ce12e8d-2187-433e-90ea-725012bee47a"},"vehicle_type_id":"4","last_reported":1693605966,"current_range_meters":25600,"station_id":"ce4bhr12rcd13ifvqhpg","pricing_plan_id":"free"},{"bike_id":"c0aa06d4-ea1c-42f1-82e3-b4b98c641344","system_id":"levelo_inurba_marseille","lat":43.319935,"lon":5.381699,"is_reserved":false,"is_disabled":false,"rental_uris":{"android":"levelo://app?vid=c0aa06d4-ea1c-42f1-82e3-b4b98c641344","ios":"levelo://app?vid=c0aa06d4-ea1c-42f1-82e3-b4b98c641344"},"vehicle_type_id":"4","last_reported":1693605966,"current_range_meters":22800,"station_id":"ce4bhr12rcd13ifvqhpg","pricing_plan_id":"free"},{"bike_id":"b6abff1c-f097-4297-b7f5-e905b62cd8ab","system_id":"levelo_inurba_marseille","lat":43.31999,"lon":5.38151,"is_reserved":false,"is_disabled":false,"rental_uris":{"android":"levelo://app?vid=b6abff1c-f097-4297-b7f5-e905b62cd8ab","ios":"levelo://app?vid=b6abff1c-f097-4297-b7f5-e905b62cd8ab"},"vehicle_type_id":"4","last_reported":1693605966,"current_range_meters":18400,"station_id":"ce4bhr12rcd13ifvqhpg","pricing_plan_id":"free"},{"bike_id":"00edcf87-6a10-4e8c-a610-8fd14ac44513","system_id":"levelo_inurba_marseille","lat":43.31995,"lon":5.38157,"is_reserved":false,"is_disabled":false,"rental_uris":{"android":"levelo://app?vid=00edcf87-6a10-4e8c-a610-8fd14ac44513","ios":"levelo://app?vid=00edcf87-6a10-4e8c-a610-8fd14ac44513"},"vehicle_type_id":"4","last_reported":1693605966,"current_range_meters":18400,"station_id":"ce4bhr12rcd13ifvqhpg","pricing_plan_id":"free"},{"bike_id":"a577b291-6531-4092-8be8-e9419d4bb724","system_id":"levelo_inurba_marseille","lat":43.31995,"lon":5.38163,"is_reserved":false,"is_disabled":false,"rental_uris":{"android":"levelo://app?vid=a577b291-6531-4092-8be8-e9419d4bb724","ios":"levelo://app?vid=a577b291-6531-4092-8be8-e9419d4bb724"},"vehicle_type_id":"4","last_reported":1693605966,"current_range_meters":12400,"station_id":"ce4bhr12rcd13ifvqhpg","pricing_plan_id":"free"},{"bike_id":"b7a6ba0d-a629-40c3-b9b3-d6f58817fb5e","system_id":"levelo_inurba_marseille","lat":43.313571,"lon":5.384829,"is_reserved":false,"is_disabled":false,"rental_uris":{"android":"levelo://app?vid=b7a6ba0d-a629-40c3-b9b3-d6f58817fb5e","ios":"levelo://app?vid=b7a6ba0d-a629-40c3-b9b3-d6f58817fb5e"},"vehicle_type_id":"4","last_reported":1693605966,"current_range_meters":29200,"station_id":"ce4bgt92rcd13ifvqcf0","pricing_plan_id":"free"},{"bike_id":"414ddebc-50ee-4b72-8933-b9fb6243d3af","system_id":"levelo_inurba_marseille","lat":43.313571,"lon":5.384829,"is_reserved":false,"is_disabled":false,"rental_uris":{"android":"levelo://app?vid=414ddebc-50ee-4b72-8933-b9fb6243d3af","ios":"levelo://app?vid=414ddebc-50ee-4b72-8933-b9fb6243d3af"},"vehicle_type_id":"4","last_reported":1693605966,"current_range_meters":27200,"station_id":"ce4bgt92rcd13ifvqcf0","pricing_plan_id":"free"},{"bike_id":"aabf482f-639b-4373-ae81-1f4686d7996d","system_id":"levelo_inurba_marseille","lat":43.313571,"lon":5.384829,"is_reserved":false,"is_disabled":false,"rental_uris":{"android":"levelo://app?vid=aabf482f-639b-4373-ae81-1f4686d7996d","ios":"levelo://app?vid=aabf482f-639b-4373-ae81-1f4686d7996d"},"vehicle_type_id":"4","last_reported":1693605966,"current_range_meters":21600,"station_id":"ce4bgt92rcd13ifvqcf0","pricing_plan_id":"free"},{"bike_id":"4ae58d25-f777-459d-8748-105368245b55","system_id":"levelo_inurba_marseille","lat":43.313571,"lon":5.384829,"is_reserved":false,"is_disabled":false,"rental_uris":{"android":"levelo://app?vid=4ae58d25-f777-459d-8748-105368245b55","ios":"levelo://app?vid=4ae58d25-f777-459d-8748-105368245b55"},"vehicle_type_id":"4","last_reported":1693605966,"current_range_meters":30400,"station_id":"ce4bgt92rcd13ifvqcf0","pricing_plan_id":"free"},{"bike_id":"b13965ef-5b94-464b-afb6-0ea27cda4810","system_id":"levelo_inurba_marseille","lat":43.313571,"lon":5.384829,"is_reserved":false,"is_disabled":false,"rental_uris":{"android":"levelo://app?vid=b13965ef-5b94-464b-afb6-0ea27cda4810","ios":"levelo://app?vid=b13965ef-5b94-464b-afb6-0ea27cda4810"},"vehicle_type_id":"4","last_reported":1693605966,"current_range_meters":3600,"station_id":"ce4bgt92rcd13ifvqcf0","pricing_plan_id":"free"},{"bike_id":"b59c2856-d4a7-49d2-a368-7053e4e9c98c","system_id":"levelo_inurba_marseille","lat":43.313571,"lon":5.384829,"is_reserved":false,"is_disabled":false,"rental_uris":{"android":"levelo://app?vid=b59c2856-d4a7-49d2-a368-7053e4e9c98c","ios":"levelo://app?vid=b59c2856-d4a7-49d2-a368-7053e4e9c98c"},"vehicle_type_id":"4","last_reported":1693605966,"current_range_meters":2800,"station_id":"ce4bgt92rcd13ifvqcf0","pricing_plan_id":"free"},{"bike_id":"7bef8696-7638-41d1-8d83-28c3fdb9a8ba","system_id":"levelo_inurba_marseille","lat":43.2997,"lon":5.37178,"is_reserved":false,"is_disabled":false,"rental_uris":{"android":"levelo://app?vid=7bef8696-7638-41d1-8d83-28c3fdb9a8ba","ios":"levelo://app?vid=7bef8696-7638-41d1-8d83-28c3fdb9a8ba"},"vehicle_type_id":"4","last_reported":1693605966,"current_range_meters":4000,"station_id":"ce4bgr92rcd13ifvqc7g","pricing_plan_id":"free"},{"bike_id":"141c613c-fe4a-4906-ae8e-33eebf98cfef","system_id":"levelo_inurba_marseille","lat":43.29968,"lon":5.37174,"is_reserved":false,"is_disabled":false,"rental_uris":{"android":"levelo://app?vid=141c613c-fe4a-4906-ae8e-33eebf98cfef","ios":"levelo://app?vid=141c613c-fe4a-4906-ae8e-33eebf98cfef"},"vehicle_type_id":"4","last_reported":1693605966,"current_range_meters":8400,"station_id":"ce4bgr92rcd13ifvqc7g","pricing_plan_id":"free"},{"bike_id":"2f9e2def-2173-4eb4-a460-9a385f59debe","system_id":"levelo_inurba_marseille","lat":43.299243,"lon":5.37481,"is_reserved":false,"is_disabled":false,"rental_uris":{"android":"levelo://app?vid=2f9e2def-2173-4eb4-a460-9a385f59debe","ios":"levelo://app?vid=2f9e2def-2173-4eb4-a460-9a385f59debe"},"vehicle_type_id":"4","last_reported":1693605966,"current_range_meters":31200,"station_id":"ce4bgjh2rcd13ifvqbg0","pricing_plan_id":"free"},{"bike_id":"e6902759-1d62-4325-9bd0-762f62bbd7e0","system_id":"levelo_inurba_marseille","lat":43.311722,"lon":5.387247,"is_reserved":false,"is_disabled":false,"rental_uris":{"android":"levelo://app?vid=e6902759-1d62-4325-9bd0-762f62bbd7e0","ios":"levelo://app?vid=e6902759-1d62-4325-9bd0-762f62bbd7e0"},"vehicle_type_id":"4","last_reported":1693605966,"current_range_meters":23600,"station_id":"ce4bgv12rcd13ifvqcp0","pricing_plan_id":"free"},{"bike_id":"439f3b29-9e63-467d-889f-49cc11c6c626","system_id":"levelo_inurba_marseille","lat":43.311722,"lon":5.387247,"is_reserved":false,"is_disabled":false,"rental_uris":{"android":"levelo://app?vid=439f3b29-9e63-467d-889f-49cc11c6c626","ios":"levelo://app?vid=439f3b29-9e63-467d-889f-49cc11c6c626"},"vehicle_type_id":"4","last_reported":1693605966,"current_range_meters":27600,"station_id":"ce4bgv12rcd13ifvqcp0","pricing_plan_id":"free"},{"bike_id":"816a484a-2a3b-4788-b467-a74634c8ebd2","system_id":"levelo_inurba_marseille","lat":43.31169,"lon":5.38728,"is_reserved":false,"is_disabled":false,"rental_uris":{"android":"levelo://app?vid=816a484a-2a3b-4788-b467-a74634c8ebd2","ios":"levelo://app?vid=816a484a-2a3b-4788-b467-a74634c8ebd2"},"vehicle_type_id":"4","last_reported":1693605966,"current_range_meters":0,"station_id":"ce4bgv12rcd13ifvqcp0","pricing_plan_id":"free"},{"bike_id":"924d6452-f7f7-4baa-af9a-49926af70474","system_id":"levelo_inurba_marseille","lat":43.297794,"lon":5.370888,"is_reserved":false,"is_disabled":false,"rental_uris":{"android":"levelo://app?vid=924d6452-f7f7-4baa-af9a-49926af70474","ios":"levelo://app?vid=924d6452-f7f7-4baa-af9a-49926af70474"},"vehicle_type_id":"4","last_reported":1693605966,"current_range_meters":28400,"station_id":"ce4bgop2rcd13ifvqc1g","pricing_plan_id":"free"},{"bike_id":"8143ebd5-c5c5-467f-a353-1c0066f90341","system_id":"levelo_inurba_marseille","lat":43.29783,"lon":5.37095,"is_reserved":false,"is_disabled":false,"rental_uris":{"android":"levelo://app?vid=8143ebd5-c5c5-467f-a353-1c0066f90341","ios":"levelo://app?vid=8143ebd5-c5c5-467f-a353-1c0066f90341"},"vehicle_type_id":"4","last_reported":1693605966,"current_range_meters":31200,"station_id":"ce4bgop2rcd13ifvqc1g","pricing_plan_id":"free"},{"bike_id":"88c4a93e-f84a-4492-9ca8-7095f26ad20a","system_id":"levelo_inurba_marseille","lat":43.32289,"lon":5.38266,"is_reserved":false,"is_disabled":false,"rental_uris":{"android":"levelo://app?vid=88c4a93e-f84a-4492-9ca8-7095f26ad20a","ios":"levelo://app?vid=88c4a93e-f84a-4492-9ca8-7095f26ad20a"},"vehicle_type_id":"4","last_reported":1693605966,"current_range_meters":13600,"station_id":"ce4bhr12rcd13ifvqhqg","pricing_plan_id":"free"},{"bike_id":"bc8f34a2-0447-439b-8108-9a4250aef71a","system_id":"levelo_inurba_marseille","lat":43.322872,"lon":5.382756,"is_reserved":false,"is_disabled":false,"rental_uris":{"android":"levelo://app?vid=bc8f34a2-0447-439b-8108-9a4250aef71a","ios":"levelo://app?vid=bc8f34a2-0447-439b-8108-9a4250aef71a"},"vehicle_type_id":"4","last_reported":1693605966,"current_range_meters":29600,"station_id":"ce4bhr12rcd13ifvqhqg","pricing_plan_id":"free"},{"bike_id":"c5eee610-be09-4243-9cee-abef8479a037","system_id":"levelo_inurba_marseille","lat":43.32286,"lon":5.38278,"is_reserved":false,"is_disabled":false,"rental_uris":{"android":"levelo://app?vid=c5eee610-be09-4243-9cee-abef8479a037","ios":"levelo://app?vid=c5eee610-be09-4243-9cee-abef8479a037"},"vehicle_type_id":"4","last_reported":1693605966,"current_range_meters":14400,"station_id":"ce4bhr12rcd13ifvqhqg","pricing_plan_id":"free"},{"bike_id":"61aecc97-3e80-4a49-8c3e-0135b524d154","system_id":"levelo_inurba_marseille","lat":43.322872,"lon":5.382756,"is_reserved":false,"is_disabled":false,"rental_uris":{"android":"levelo://app?vid=61aecc97-3e80-4a49-8c3e-0135b524d154","ios":"levelo://app?vid=61aecc97-3e80-4a49-8c3e-0135b524d154"},"vehicle_type_id":"4","last_reported":1693605966,"current_range_meters":21600,"station_id":"ce4bhr12rcd13ifvqhqg","pricing_plan_id":"free"},{"bike_id":"a93da7ea-65df-4ffe-95b2-c693b710eaaf","system_id":"levelo_inurba_marseille","lat":43.297774,"lon":5.370875,"is_reserved":false,"is_disabled":false,"rental_uris":{"android":"levelo://app?vid=a93da7ea-65df-4ffe-95b2-c693b710eaaf","ios":"levelo://app?vid=a93da7ea-65df-4ffe-95b2-c693b710eaaf"},"vehicle_type_id":"4","last_reported":1693605966,"current_range_meters":0,"station_id":"ce4bgop2rcd13ifvqc1g","pricing_plan_id":"free"},{"bike_id":"3d2a691c-74eb-4958-aebd-9ebc95f3d8a8","system_id":"levelo_inurba_marseille","lat":43.322872,"lon":5.382756,"is_reserved":false,"is_disabled":false,"rental_uris":{"android":"levelo://app?vid=3d2a691c-74eb-4958-aebd-9ebc95f3d8a8","ios":"levelo://app?vid=3d2a691c-74eb-4958-aebd-9ebc95f3d8a8"},"vehicle_type_id":"4","last_reported":1693605966,"current_range_meters":14400,"station_id":"ce4bhr12rcd13ifvqhqg","pricing_plan_id":"free"},{"bike_id":"c29114e8-dc25-4be3-832f-1611beb9061c","system_id":"levelo_inurba_marseille","lat":43.32291,"lon":5.38282,"is_reserved":false,"is_disabled":false,"rental_uris":{"android":"levelo://app?vid=c29114e8-dc25-4be3-832f-1611beb9061c","ios":"levelo://app?vid=c29114e8-dc25-4be3-832f-1611beb9061c"},"vehicle_type_id":"4","last_reported":1693605966,"current_range_meters":25600,"station_id":"ce4bhr12rcd13ifvqhqg","pricing_plan_id":"free"},{"bike_id":"c60d4868-4096-4de5-aded-d4c06007e703","system_id":"levelo_inurba_marseille","lat":43.32827,"lon":5.36682,"is_reserved":false,"is_disabled":false,"rental_uris":{"android":"levelo://app?vid=c60d4868-4096-4de5-aded-d4c06007e703","ios":"levelo://app?vid=c60d4868-4096-4de5-aded-d4c06007e703"},"vehicle_type_id":"4","last_reported":1693605966,"current_range_meters":2400,"station_id":"ce4bhs92rcd13ifvqi0g","pricing_plan_id":"free"},{"bike_id":"d78719fb-ca35-41f0-90b4-3603dcbb3ed4","system_id":"levelo_inurba_marseille","lat":43.32828,"lon":5.36683,"is_reserved":false,"is_disabled":false,"rental_uris":{"android":"levelo://app?vid=d78719fb-ca35-41f0-90b4-3603dcbb3ed4","ios":"levelo://app?vid=d78719fb-ca35-41f0-90b4-3603dcbb3ed4"},"vehicle_type_id":"4","last_reported":1693605966,"current_range_meters":22000,"station_id":"ce4bhs92rcd13ifvqi0g","pricing_plan_id":"free"},{"bike_id":"3dbd29e3-656f-4591-9768-b2ad20e6e577","system_id":"levelo_inurba_marseille","lat":43.328371,"lon":5.366909,"is_reserved":false,"is_disabled":false,"rental_uris":{"android":"levelo://app?vid=3dbd29e3-656f-4591-9768-b2ad20e6e577","ios":"levelo://app?vid=3dbd29e3-656f-4591-9768-b2ad20e6e577"},"vehicle_type_id":"4","last_reported":1693605966,"current_range_meters":2400,"station_id":"ce4bhs92rcd13ifvqi0g","pricing_plan_id":"free"},{"bike_id":"bd0bd295-6ecc-40c4-a4d0-89f645593756","system_id":"levelo_inurba_marseille","lat":43.297163,"lon":5.365866,"is_reserved":false,"is_disabled":false,"rental_uris":{"android":"levelo://app?vid=bd0bd295-6ecc-40c4-a4d0-89f645593756","ios":"levelo://app?vid=bd0bd295-6ecc-40c4-a4d0-89f645593756"},"vehicle_type_id":"4","last_reported":1693605966,"current_range_meters":21200,"station_id":"ce4bgn12rcd13ifvqbt0","pricing_plan_id":"free"},{"bike_id":"dd789220-e7b5-42c1-b9dc-dc4243148021","system_id":"levelo_inurba_marseille","lat":43.297163,"lon":5.365866,"is_reserved":false,"is_disabled":false,"rental_uris":{"android":"levelo://app?vid=dd789220-e7b5-42c1-b9dc-dc4243148021","ios":"levelo://app?vid=dd789220-e7b5-42c1-b9dc-dc4243148021"},"vehicle_type_id":"4","last_reported":1693605966,"current_range_meters":31200,"station_id":"ce4bgn12rcd13ifvqbt0","pricing_plan_id":"free"},{"bike_id":"d3139180-8ba9-4c91-b6e4-8baae3c22113","system_id":"levelo_inurba_marseille","lat":43.296131,"lon":5.370773,"is_reserved":false,"is_disabled":false,"rental_uris":{"android":"levelo://app?vid=d3139180-8ba9-4c91-b6e4-8baae3c22113","ios":"levelo://app?vid=d3139180-8ba9-4c91-b6e4-8baae3c22113"},"vehicle_type_id":"4","last_reported":1693605966,"current_range_meters":31600,"station_id":"ce4bgnh2rcd13ifvqc0g","pricing_plan_id":"free"},{"bike_id":"65d934c8-ea94-404c-b991-a012f59c0b64","system_id":"levelo_inurba_marseille","lat":43.296129,"lon":5.370777,"is_reserved":false,"is_disabled":false,"rental_uris":{"android":"levelo://app?vid=65d934c8-ea94-404c-b991-a012f59c0b64","ios":"levelo://app?vid=65d934c8-ea94-404c-b991-a012f59c0b64"},"vehicle_type_id":"4","last_reported":1693605966,"current_range_meters":25600,"station_id":"ce4bgnh2rcd13ifvqc0g","pricing_plan_id":"free"},{"bike_id":"64b8ed47-67c5-47a8-9aa6-7639b91dd6bf","system_id":"levelo_inurba_marseille","lat":43.296921,"lon":5.376579,"is_reserved":false,"is_disabled":false,"rental_uris":{"android":"levelo://app?vid=64b8ed47-67c5-47a8-9aa6-7639b91dd6bf","ios":"levelo://app?vid=64b8ed47-67c5-47a8-9aa6-7639b91dd6bf"},"vehicle_type_id":"4","last_reported":1693605966,"current_range_meters":23200,"station_id":"ce4bgkh2rcd13ifvqbl0","pricing_plan_id":"free"},{"bike_id":"f1c88d79-a897-4b89-9a06-215452962959","system_id":"levelo_inurba_marseille","lat":43.29641,"lon":5.37489,"is_reserved":false,"is_disabled":false,"rental_uris":{"android":"levelo://app?vid=f1c88d79-a897-4b89-9a06-215452962959","ios":"levelo://app?vid=f1c88d79-a897-4b89-9a06-215452962959"},"vehicle_type_id":"4","last_reported":1693605966,"current_range_meters":31200,"station_id":"","pricing_plan_id":"free"},{"bike_id":"74603b1d-5a06-445b-bae1-cbfb427aa90e","system_id":"levelo_inurba_marseille","lat":43.309589,"lon":5.390258,"is_reserved":false,"is_disabled":false,"rental_uris":{"android":"levelo://app?vid=74603b1d-5a06-445b-bae1-cbfb427aa90e","ios":"levelo://app?vid=74603b1d-5a06-445b-bae1-cbfb427aa90e"},"vehicle_type_id":"4","last_reported":1693605966,"current_range_meters":31200,"station_id":"ce4bgup2rcd13ifvqco0","pricing_plan_id":"free"},{"bike_id":"2c93ce6f-c5e1-4ec9-9941-ebb7469bb8f2","system_id":"levelo_inurba_marseille","lat":43.31763,"lon":5.39005,"is_reserved":false,"is_disabled":false,"rental_uris":{"android":"levelo://app?vid=2c93ce6f-c5e1-4ec9-9941-ebb7469bb8f2","ios":"levelo://app?vid=2c93ce6f-c5e1-4ec9-9941-ebb7469bb8f2"},"vehicle_type_id":"4","last_reported":1693605966,"current_range_meters":18800,"station_id":"ce4bhqp2rcd13ifvqhng","pricing_plan_id":"free"},{"bike_id":"60c26bea-b6ea-44c2-8838-59b00d1bf8b2","system_id":"levelo_inurba_marseille","lat":43.317557,"lon":5.390173,"is_reserved":false,"is_disabled":false,"rental_uris":{"android":"levelo://app?vid=60c26bea-b6ea-44c2-8838-59b00d1bf8b2","ios":"levelo://app?vid=60c26bea-b6ea-44c2-8838-59b00d1bf8b2"},"vehicle_type_id":"4","last_reported":1693605966,"current_range_meters":31200,"station_id":"ce4bhqp2rcd13ifvqhng","pricing_plan_id":"free"},{"bike_id":"1b5b4211-83a3-483e-9cdf-2b196fba5adb","system_id":"levelo_inurba_marseille","lat":43.317557,"lon":5.390173,"is_reserved":false,"is_disabled":false,"rental_uris":{"android":"levelo://app?vid=1b5b4211-83a3-483e-9cdf-2b196fba5adb","ios":"levelo://app?vid=1b5b4211-83a3-483e-9cdf-2b196fba5adb"},"vehicle_type_id":"4","last_reported":1693605966,"current_range_meters":30400,"station_id":"ce4bhqp2rcd13ifvqhng","pricing_plan_id":"free"},{"bike_id":"88d9d596-f438-4684-ae9f-d2d3fa8d2d69","system_id":"levelo_inurba_marseille","lat":43.317557,"lon":5.390173,"is_reserved":false,"is_disabled":false,"rental_uris":{"android":"levelo://app?vid=88d9d596-f438-4684-ae9f-d2d3fa8d2d69","ios":"levelo://app?vid=88d9d596-f438-4684-ae9f-d2d3fa8d2d69"},"vehicle_type_id":"4","last_reported":1693605966,"current_range_meters":28800,"station_id":"ce4bhqp2rcd13ifvqhng","pricing_plan_id":"free"},{"bike_id":"93a3695c-51b1-411c-a1c4-cdb271a31bf2","system_id":"levelo_inurba_marseille","lat":43.3175,"lon":5.39024,"is_reserved":false,"is_disabled":false,"rental_uris":{"android":"levelo://app?vid=93a3695c-51b1-411c-a1c4-cdb271a31bf2","ios":"levelo://app?vid=93a3695c-51b1-411c-a1c4-cdb271a31bf2"},"vehicle_type_id":"4","last_reported":1693605966,"current_range_meters":7200,"station_id":"ce4bhqp2rcd13ifvqhng","pricing_plan_id":"free"},{"bike_id":"86d37462-6f2c-4ee1-b5e1-16f3e9285866","system_id":"levelo_inurba_marseille","lat":43.31755,"lon":5.39023,"is_reserved":false,"is_disabled":false,"rental_uris":{"android":"levelo://app?vid=86d37462-6f2c-4ee1-b5e1-16f3e9285866","ios":"levelo://app?vid=86d37462-6f2c-4ee1-b5e1-16f3e9285866"},"vehicle_type_id":"4","last_reported":1693605966,"current_range_meters":18800,"station_id":"ce4bhqp2rcd13ifvqhng","pricing_plan_id":"free"},{"bike_id":"c2d3fcc1-12e7-4988-ad35-0180af81b3c7","system_id":"levelo_inurba_marseille","lat":43.317557,"lon":5.390173,"is_reserved":false,"is_disabled":false,"rental_uris":{"android":"levelo://app?vid=c2d3fcc1-12e7-4988-ad35-0180af81b3c7","ios":"levelo://app?vid=c2d3fcc1-12e7-4988-ad35-0180af81b3c7"},"vehicle_type_id":"4","last_reported":1693605966,"current_range_meters":30400,"station_id":"ce4bhqp2rcd13ifvqhng","pricing_plan_id":"free"},{"bike_id":"2d38d843-9501-4a8b-8d1e-e53e054245cc","system_id":"levelo_inurba_marseille","lat":43.29702,"lon":5.37811,"is_reserved":false,"is_disabled":false,"rental_uris":{"android":"levelo://app?vid=2d38d843-9501-4a8b-8d1e-e53e054245cc","ios":"levelo://app?vid=2d38d843-9501-4a8b-8d1e-e53e054245cc"},"vehicle_type_id":"4","last_reported":1693605966,"current_range_meters":30800,"station_id":"","pricing_plan_id":"free"},{"bike_id":"463191a4-a04b-4fab-9d15-d695290cc7d3","system_id":"levelo_inurba_marseille","lat":43.298037,"lon":5.381066,"is_reserved":false,"is_disabled":false,"rental_uris":{"android":"levelo://app?vid=463191a4-a04b-4fab-9d15-d695290cc7d3","ios":"levelo://app?vid=463191a4-a04b-4fab-9d15-d695290cc7d3"},"vehicle_type_id":"4","last_reported":1693605966,"current_range_meters":5200,"station_id":"ce4bgip2rcd13ifvqbb0","pricing_plan_id":"free"},{"bike_id":"74c18cd9-560f-448e-8f85-cb11e2d00306","system_id":"levelo_inurba_marseille","lat":43.304274,"lon":5.388873,"is_reserved":false,"is_disabled":false,"rental_uris":{"android":"levelo://app?vid=74c18cd9-560f-448e-8f85-cb11e2d00306","ios":"levelo://app?vid=74c18cd9-560f-448e-8f85-cb11e2d00306"},"vehicle_type_id":"4","last_reported":1693605966,"current_range_meters":2000,"station_id":"ce4bgk12rcd13ifvqbi0","pricing_plan_id":"free"},{"bike_id":"75895f86-02b8-4f67-9e17-6afcb69a812b","system_id":"levelo_inurba_marseille","lat":43.304308,"lon":5.388893,"is_reserved":false,"is_disabled":false,"rental_uris":{"android":"levelo://app?vid=75895f86-02b8-4f67-9e17-6afcb69a812b","ios":"levelo://app?vid=75895f86-02b8-4f67-9e17-6afcb69a812b"},"vehicle_type_id":"4","last_reported":1693605966,"current_range_meters":0,"station_id":"ce4bgk12rcd13ifvqbi0","pricing_plan_id":"free"},{"bike_id":"2920115c-0b13-4141-8ce9-71e904a74b3d","system_id":"levelo_inurba_marseille","lat":43.294314,"lon":5.397498,"is_reserved":false,"is_disabled":false,"rental_uris":{"android":"levelo://app?vid=2920115c-0b13-4141-8ce9-71e904a74b3d","ios":"levelo://app?vid=2920115c-0b13-4141-8ce9-71e904a74b3d"},"vehicle_type_id":"4","last_reported":1693605966,"current_range_meters":14800,"station_id":"ce4bh3h2rcd13ifvqdo0","pricing_plan_id":"free"},{"bike_id":"285926a8-6a46-4472-b664-3b17bea46df3","system_id":"levelo_inurba_marseille","lat":43.299724,"lon":5.384848,"is_reserved":false,"is_disabled":false,"rental_uris":{"android":"levelo://app?vid=285926a8-6a46-4472-b664-3b17bea46df3","ios":"levelo://app?vid=285926a8-6a46-4472-b664-3b17bea46df3"},"vehicle_type_id":"4","last_reported":1693605966,"current_range_meters":19600,"station_id":"ce4bgj92rcd13ifvqbd0","pricing_plan_id":"free"},{"bike_id":"5ff5b118-31e8-437c-9a56-315e03bca45c","system_id":"levelo_inurba_marseille","lat":43.295279,"lon":5.375048,"is_reserved":false,"is_disabled":false,"rental_uris":{"android":"levelo://app?vid=5ff5b118-31e8-437c-9a56-315e03bca45c","ios":"levelo://app?vid=5ff5b118-31e8-437c-9a56-315e03bca45c"},"vehicle_type_id":"4","last_reported":1693605966,"current_range_meters":14000,"station_id":"ce4bgkp2rcd13ifvqbmg","pricing_plan_id":"free"},{"bike_id":"86220f3f-2dd3-49a2-b3d8-88b5cc592ef6","system_id":"levelo_inurba_marseille","lat":43.298764,"lon":5.388973,"is_reserved":false,"is_disabled":false,"rental_uris":{"android":"levelo://app?vid=86220f3f-2dd3-49a2-b3d8-88b5cc592ef6","ios":"levelo://app?vid=86220f3f-2dd3-49a2-b3d8-88b5cc592ef6"},"vehicle_type_id":"4","last_reported":1693605966,"current_range_meters":1200,"station_id":"ce4bh392rcd13ifvqdl0","pricing_plan_id":"free"},{"bike_id":"9180c84f-0f25-4355-8dec-d34711128242","system_id":"levelo_inurba_marseille","lat":43.32364,"lon":5.38878,"is_reserved":false,"is_disabled":false,"rental_uris":{"android":"levelo://app?vid=9180c84f-0f25-4355-8dec-d34711128242","ios":"levelo://app?vid=9180c84f-0f25-4355-8dec-d34711128242"},"vehicle_type_id":"4","last_reported":1693605966,"current_range_meters":23600,"station_id":"ce4bhqp2rcd13ifvqhog","pricing_plan_id":"free"},{"bike_id":"8181e861-4f28-43e6-b352-b668aa565979","system_id":"levelo_inurba_marseille","lat":43.32366,"lon":5.38878,"is_reserved":false,"is_disabled":false,"rental_uris":{"android":"levelo://app?vid=8181e861-4f28-43e6-b352-b668aa565979","ios":"levelo://app?vid=8181e861-4f28-43e6-b352-b668aa565979"},"vehicle_type_id":"4","last_reported":1693605966,"current_range_meters":29600,"station_id":"ce4bhqp2rcd13ifvqhog","pricing_plan_id":"free"},{"bike_id":"df89e0ad-9ac5-4d8c-9181-83c1d4b49783","system_id":"levelo_inurba_marseille","lat":43.32362,"lon":5.38882,"is_reserved":false,"is_disabled":false,"rental_uris":{"android":"levelo://app?vid=df89e0ad-9ac5-4d8c-9181-83c1d4b49783","ios":"levelo://app?vid=df89e0ad-9ac5-4d8c-9181-83c1d4b49783"},"vehicle_type_id":"4","last_reported":1693605966,"current_range_meters":17600,"station_id":"ce4bhqp2rcd13ifvqhog","pricing_plan_id":"free"},{"bike_id":"04bd86b5-0561-4cf7-b54e-88dfd8a933b3","system_id":"levelo_inurba_marseille","lat":43.32364,"lon":5.38882,"is_reserved":false,"is_disabled":false,"rental_uris":{"android":"levelo://app?vid=04bd86b5-0561-4cf7-b54e-88dfd8a933b3","ios":"levelo://app?vid=04bd86b5-0561-4cf7-b54e-88dfd8a933b3"},"vehicle_type_id":"4","last_reported":1693605966,"current_range_meters":29600,"station_id":"ce4bhqp2rcd13ifvqhog","pricing_plan_id":"free"},{"bike_id":"75dd2d9b-e11c-4209-90bf-8c81a9698c47","system_id":"levelo_inurba_marseille","lat":43.32365,"lon":5.38882,"is_reserved":false,"is_disabled":false,"rental_uris":{"android":"levelo://app?vid=75dd2d9b-e11c-4209-90bf-8c81a9698c47","ios":"levelo://app?vid=75dd2d9b-e11c-4209-90bf-8c81a9698c47"},"vehicle_type_id":"4","last_reported":1693605966,"current_range_meters":29600,"station_id":"ce4bhqp2rcd13ifvqhog","pricing_plan_id":"free"},{"bike_id":"982e8d03-ab6f-4922-8981-759d28ba6ba2","system_id":"levelo_inurba_marseille","lat":43.32363,"lon":5.38884,"is_reserved":false,"is_disabled":false,"rental_uris":{"android":"levelo://app?vid=982e8d03-ab6f-4922-8981-759d28ba6ba2","ios":"levelo://app?vid=982e8d03-ab6f-4922-8981-759d28ba6ba2"},"vehicle_type_id":"4","last_reported":1693605966,"current_range_meters":2400,"station_id":"ce4bhqp2rcd13ifvqhog","pricing_plan_id":"free"},{"bike_id":"66f9b899-9afc-428f-834e-64755a969a1b","system_id":"levelo_inurba_marseille","lat":43.32367,"lon":5.388836,"is_reserved":false,"is_disabled":false,"rental_uris":{"android":"levelo://app?vid=66f9b899-9afc-428f-834e-64755a969a1b","ios":"levelo://app?vid=66f9b899-9afc-428f-834e-64755a969a1b"},"vehicle_type_id":"4","last_reported":1693605966,"current_range_meters":23200,"station_id":"ce4bhqp2rcd13ifvqhog","pricing_plan_id":"free"},{"bike_id":"22daa6e2-7720-4eb1-9db4-5859513e9261","system_id":"levelo_inurba_marseille","lat":43.32364,"lon":5.38886,"is_reserved":false,"is_disabled":false,"rental_uris":{"android":"levelo://app?vid=22daa6e2-7720-4eb1-9db4-5859513e9261","ios":"levelo://app?vid=22daa6e2-7720-4eb1-9db4-5859513e9261"},"vehicle_type_id":"4","last_reported":1693605966,"current_range_meters":7200,"station_id":"ce4bhqp2rcd13ifvqhog","pricing_plan_id":"free"},{"bike_id":"899db4cf-53c9-490f-9588-c2dabe0e6d13","system_id":"levelo_inurba_marseille","lat":43.3237,"lon":5.38888,"is_reserved":false,"is_disabled":false,"rental_uris":{"android":"levelo://app?vid=899db4cf-53c9-490f-9588-c2dabe0e6d13","ios":"levelo://app?vid=899db4cf-53c9-490f-9588-c2dabe0e6d13"},"vehicle_type_id":"4","last_reported":1693605966,"current_range_meters":5200,"station_id":"ce4bhqp2rcd13ifvqhog","pricing_plan_id":"free"},{"bike_id":"ff25b2c0-9288-4710-aefe-153e38ec535b","system_id":"levelo_inurba_marseille","lat":43.32372,"lon":5.38887,"is_reserved":false,"is_disabled":false,"rental_uris":{"android":"levelo://app?vid=ff25b2c0-9288-4710-aefe-153e38ec535b","ios":"levelo://app?vid=ff25b2c0-9288-4710-aefe-153e38ec535b"},"vehicle_type_id":"4","last_reported":1693605966,"current_range_meters":20800,"station_id":"ce4bhqp2rcd13ifvqhog","pricing_plan_id":"free"},{"bike_id":"bc666785-051c-49d1-ad1c-1e4a98fb5998","system_id":"levelo_inurba_marseille","lat":43.29279,"lon":5.36838,"is_reserved":false,"is_disabled":false,"rental_uris":{"android":"levelo://app?vid=bc666785-051c-49d1-ad1c-1e4a98fb5998","ios":"levelo://app?vid=bc666785-051c-49d1-ad1c-1e4a98fb5998"},"vehicle_type_id":"4","last_reported":1693605966,"current_range_meters":31200,"station_id":"ce4bhbp2rcd13ifvqesg","pricing_plan_id":"free"},{"bike_id":"1cf6f386-92f1-4445-92cd-c923875493fd","system_id":"levelo_inurba_marseille","lat":43.292757,"lon":5.368468,"is_reserved":false,"is_disabled":false,"rental_uris":{"android":"levelo://app?vid=1cf6f386-92f1-4445-92cd-c923875493fd","ios":"levelo://app?vid=1cf6f386-92f1-4445-92cd-c923875493fd"},"vehicle_type_id":"4","last_reported":1693605966,"current_range_meters":31200,"station_id":"ce4bhbp2rcd13ifvqesg","pricing_plan_id":"free"},{"bike_id":"d89e6db7-e946-4ba1-93e1-ecf0ad1b7297","system_id":"levelo_inurba_marseille","lat":43.29275,"lon":5.36842,"is_reserved":false,"is_disabled":false,"rental_uris":{"android":"levelo://app?vid=d89e6db7-e946-4ba1-93e1-ecf0ad1b7297","ios":"levelo://app?vid=d89e6db7-e946-4ba1-93e1-ecf0ad1b7297"},"vehicle_type_id":"4","last_reported":1693605966,"current_range_meters":19200,"station_id":"ce4bhbp2rcd13ifvqesg","pricing_plan_id":"free"},{"bike_id":"af378848-4ab5-4a0c-a75c-c290cd6c3483","system_id":"levelo_inurba_marseille","lat":43.32459,"lon":5.38946,"is_reserved":false,"is_disabled":false,"rental_uris":{"android":"levelo://app?vid=af378848-4ab5-4a0c-a75c-c290cd6c3483","ios":"levelo://app?vid=af378848-4ab5-4a0c-a75c-c290cd6c3483"},"vehicle_type_id":"4","last_reported":1693605966,"current_range_meters":2000,"station_id":"","pricing_plan_id":"free"},{"bike_id":"d4a2ca93-da04-4a24-977d-396ff29e538c","system_id":"levelo_inurba_marseille","lat":43.293009,"lon":5.374584,"is_reserved":false,"is_disabled":false,"rental_uris":{"android":"levelo://app?vid=d4a2ca93-da04-4a24-977d-396ff29e538c","ios":"levelo://app?vid=d4a2ca93-da04-4a24-977d-396ff29e538c"},"vehicle_type_id":"4","last_reported":1693605966,"current_range_meters":22400,"station_id":"ce4bgi12rcd13ifvqb70","pricing_plan_id":"free"},{"bike_id":"fbd176f8-297b-4b72-86dc-cc01f65c1fab","system_id":"levelo_inurba_marseille","lat":43.293009,"lon":5.374584,"is_reserved":false,"is_disabled":false,"rental_uris":{"android":"levelo://app?vid=fbd176f8-297b-4b72-86dc-cc01f65c1fab","ios":"levelo://app?vid=fbd176f8-297b-4b72-86dc-cc01f65c1fab"},"vehicle_type_id":"4","last_reported":1693605966,"current_range_meters":16000,"station_id":"ce4bgi12rcd13ifvqb70","pricing_plan_id":"free"},{"bike_id":"38fef587-7cc5-4800-b069-87b8f296a10a","system_id":"levelo_inurba_marseille","lat":43.30295,"lon":5.39213,"is_reserved":false,"is_disabled":false,"rental_uris":{"android":"levelo://app?vid=38fef587-7cc5-4800-b069-87b8f296a10a","ios":"levelo://app?vid=38fef587-7cc5-4800-b069-87b8f296a10a"},"vehicle_type_id":"4","last_reported":1693605966,"current_range_meters":22800,"station_id":"ce4bgkh2rcd13ifvqbk0","pricing_plan_id":"free"},{"bike_id":"59d4a7cc-c4d8-47e1-a63f-2e26b5d209c3","system_id":"levelo_inurba_marseille","lat":43.2936,"lon":5.37835,"is_reserved":false,"is_disabled":false,"rental_uris":{"android":"levelo://app?vid=59d4a7cc-c4d8-47e1-a63f-2e26b5d209c3","ios":"levelo://app?vid=59d4a7cc-c4d8-47e1-a63f-2e26b5d209c3"},"vehicle_type_id":"4","last_reported":1693605966,"current_range_meters":30800,"station_id":"ce4bgjh2rcd13ifvqbf0","pricing_plan_id":"free"},{"bike_id":"0724f352-a262-45b7-9b71-9a09ff17d945","system_id":"levelo_inurba_marseille","lat":43.30297,"lon":5.39224,"is_reserved":false,"is_disabled":false,"rental_uris":{"android":"levelo://app?vid=0724f352-a262-45b7-9b71-9a09ff17d945","ios":"levelo://app?vid=0724f352-a262-45b7-9b71-9a09ff17d945"},"vehicle_type_id":"4","last_reported":1693605966,"current_range_meters":25600,"station_id":"ce4bgkh2rcd13ifvqbk0","pricing_plan_id":"free"},{"bike_id":"670b0952-2962-4643-a6bf-add918fcf4ec","system_id":"levelo_inurba_marseille","lat":43.29229,"lon":5.36044,"is_reserved":false,"is_disabled":false,"rental_uris":{"android":"levelo://app?vid=670b0952-2962-4643-a6bf-add918fcf4ec","ios":"levelo://app?vid=670b0952-2962-4643-a6bf-add918fcf4ec"},"vehicle_type_id":"4","last_reported":1693605966,"current_range_meters":31200,"station_id":"ce4bhbh2rcd13ifvqeqg","pricing_plan_id":"free"},{"bike_id":"beb5b778-7d4b-4926-9fad-3033a5f172ed","system_id":"levelo_inurba_marseille","lat":43.29227,"lon":5.36047,"is_reserved":false,"is_disabled":false,"rental_uris":{"android":"levelo://app?vid=beb5b778-7d4b-4926-9fad-3033a5f172ed","ios":"levelo://app?vid=beb5b778-7d4b-4926-9fad-3033a5f172ed"},"vehicle_type_id":"4","last_reported":1693605966,"current_range_meters":10400,"station_id":"ce4bhbh2rcd13ifvqeqg","pricing_plan_id":"free"},{"bike_id":"19dcbab7-6744-4026-90c3-ddd65a4b3ab8","system_id":"levelo_inurba_marseille","lat":43.292247,"lon":5.36049,"is_reserved":false,"is_disabled":false,"rental_uris":{"android":"levelo://app?vid=19dcbab7-6744-4026-90c3-ddd65a4b3ab8","ios":"levelo://app?vid=19dcbab7-6744-4026-90c3-ddd65a4b3ab8"},"vehicle_type_id":"4","last_reported":1693605966,"current_range_meters":31200,"station_id":"ce4bhbh2rcd13ifvqeqg","pricing_plan_id":"free"},{"bike_id":"7695772d-27b7-44ed-b844-643ec381ab7b","system_id":"levelo_inurba_marseille","lat":43.292311,"lon":5.360731,"is_reserved":false,"is_disabled":false,"rental_uris":{"android":"levelo://app?vid=7695772d-27b7-44ed-b844-643ec381ab7b","ios":"levelo://app?vid=7695772d-27b7-44ed-b844-643ec381ab7b"},"vehicle_type_id":"4","last_reported":1693605966,"current_range_meters":30400,"station_id":"ce4bhbh2rcd13ifvqeqg","pricing_plan_id":"free"},{"bike_id":"b35b9067-b157-425f-a653-2cc5358fa204","system_id":"levelo_inurba_marseille","lat":43.292311,"lon":5.360731,"is_reserved":false,"is_disabled":false,"rental_uris":{"android":"levelo://app?vid=b35b9067-b157-425f-a653-2cc5358fa204","ios":"levelo://app?vid=b35b9067-b157-425f-a653-2cc5358fa204"},"vehicle_type_id":"4","last_reported":1693605966,"current_range_meters":30000,"station_id":"ce4bhbh2rcd13ifvqeqg","pricing_plan_id":"free"},{"bike_id":"33174dac-8223-4866-9e61-6ae75805d73e","system_id":"levelo_inurba_marseille","lat":43.298764,"lon":5.388973,"is_reserved":false,"is_disabled":false,"rental_uris":{"android":"levelo://app?vid=33174dac-8223-4866-9e61-6ae75805d73e","ios":"levelo://app?vid=33174dac-8223-4866-9e61-6ae75805d73e"},"vehicle_type_id":"4","last_reported":1693605966,"current_range_meters":10000,"station_id":"ce4bh392rcd13ifvqdl0","pricing_plan_id":"free"},{"bike_id":"b127cb02-a67f-4944-955b-2653cb69db42","system_id":"levelo_inurba_marseille","lat":43.29142,"lon":5.36689,"is_reserved":false,"is_disabled":false,"rental_uris":{"android":"levelo://app?vid=b127cb02-a67f-4944-955b-2653cb69db42","ios":"levelo://app?vid=b127cb02-a67f-4944-955b-2653cb69db42"},"vehicle_type_id":"4","last_reported":1693605966,"current_range_meters":24400,"station_id":"ce4bhc92rcd13ifvqetg","pricing_plan_id":"free"},{"bike_id":"b298c4e9-55c3-40d8-9d04-6f058e13790f","system_id":"levelo_inurba_marseille","lat":43.298764,"lon":5.388973,"is_reserved":false,"is_disabled":false,"rental_uris":{"android":"levelo://app?vid=b298c4e9-55c3-40d8-9d04-6f058e13790f","ios":"levelo://app?vid=b298c4e9-55c3-40d8-9d04-6f058e13790f"},"vehicle_type_id":"4","last_reported":1693605966,"current_range_meters":7200,"station_id":"ce4bh392rcd13ifvqdl0","pricing_plan_id":"free"},{"bike_id":"a84d01ad-95dd-49f7-b3d3-6b7ce7705c1c","system_id":"levelo_inurba_marseille","lat":43.298764,"lon":5.388973,"is_reserved":false,"is_disabled":false,"rental_uris":{"android":"levelo://app?vid=a84d01ad-95dd-49f7-b3d3-6b7ce7705c1c","ios":"levelo://app?vid=a84d01ad-95dd-49f7-b3d3-6b7ce7705c1c"},"vehicle_type_id":"4","last_reported":1693605966,"current_range_meters":31200,"station_id":"ce4bh392rcd13ifvqdl0","pricing_plan_id":"free"},{"bike_id":"43dde3a8-fde9-48a2-8baf-85e806dd0549","system_id":"levelo_inurba_marseille","lat":43.30881,"lon":5.39641,"is_reserved":false,"is_disabled":false,"rental_uris":{"android":"levelo://app?vid=43dde3a8-fde9-48a2-8baf-85e806dd0549","ios":"levelo://app?vid=43dde3a8-fde9-48a2-8baf-85e806dd0549"},"vehicle_type_id":"4","last_reported":1693605966,"current_range_meters":29600,"station_id":"ce4bh012rcd13ifvqcv0","pricing_plan_id":"free"},{"bike_id":"7dc3c7c8-4c97-4aa6-8fd6-a95546fd211e","system_id":"levelo_inurba_marseille","lat":43.313291,"lon":5.396838,"is_reserved":false,"is_disabled":false,"rental_uris":{"android":"levelo://app?vid=7dc3c7c8-4c97-4aa6-8fd6-a95546fd211e","ios":"levelo://app?vid=7dc3c7c8-4c97-4aa6-8fd6-a95546fd211e"},"vehicle_type_id":"4","last_reported":1693605966,"current_range_meters":6800,"station_id":"ce4bgvp2rcd13ifvqcu0","pricing_plan_id":"free"},{"bike_id":"0b9ab18d-0c68-4ba1-a05f-00f9b6998d17","system_id":"levelo_inurba_marseille","lat":43.31329,"lon":5.39691,"is_reserved":false,"is_disabled":false,"rental_uris":{"android":"levelo://app?vid=0b9ab18d-0c68-4ba1-a05f-00f9b6998d17","ios":"levelo://app?vid=0b9ab18d-0c68-4ba1-a05f-00f9b6998d17"},"vehicle_type_id":"4","last_reported":1693605966,"current_range_meters":4000,"station_id":"ce4bgvp2rcd13ifvqcu0","pricing_plan_id":"free"},{"bike_id":"a7b6d4f3-14ee-4959-9675-731ca84d0477","system_id":"levelo_inurba_marseille","lat":43.313291,"lon":5.396838,"is_reserved":false,"is_disabled":false,"rental_uris":{"android":"levelo://app?vid=a7b6d4f3-14ee-4959-9675-731ca84d0477","ios":"levelo://app?vid=a7b6d4f3-14ee-4959-9675-731ca84d0477"},"vehicle_type_id":"4","last_reported":1693605966,"current_range_meters":1200,"station_id":"ce4bgvp2rcd13ifvqcu0","pricing_plan_id":"free"},{"bike_id":"73c2e0c0-a939-4bc3-943a-e52094180bff","system_id":"levelo_inurba_marseille","lat":43.291994,"lon":5.357886,"is_reserved":false,"is_disabled":false,"rental_uris":{"android":"levelo://app?vid=73c2e0c0-a939-4bc3-943a-e52094180bff","ios":"levelo://app?vid=73c2e0c0-a939-4bc3-943a-e52094180bff"},"vehicle_type_id":"4","last_reported":1693605966,"current_range_meters":21600,"station_id":"ce4bhb12rcd13ifvqel0","pricing_plan_id":"free"},{"bike_id":"13bba3a5-dac3-4fef-859e-b97ae5d39778","system_id":"levelo_inurba_marseille","lat":43.30886,"lon":5.39649,"is_reserved":false,"is_disabled":false,"rental_uris":{"android":"levelo://app?vid=13bba3a5-dac3-4fef-859e-b97ae5d39778","ios":"levelo://app?vid=13bba3a5-dac3-4fef-859e-b97ae5d39778"},"vehicle_type_id":"4","last_reported":1693605966,"current_range_meters":20400,"station_id":"ce4bh012rcd13ifvqcv0","pricing_plan_id":"free"},{"bike_id":"ad522f3f-f69f-4040-8a03-17106bd91a4b","system_id":"levelo_inurba_marseille","lat":43.30881,"lon":5.39648,"is_reserved":false,"is_disabled":false,"rental_uris":{"android":"levelo://app?vid=ad522f3f-f69f-4040-8a03-17106bd91a4b","ios":"levelo://app?vid=ad522f3f-f69f-4040-8a03-17106bd91a4b"},"vehicle_type_id":"4","last_reported":1693605966,"current_range_meters":22400,"station_id":"ce4bh012rcd13ifvqcv0","pricing_plan_id":"free"},{"bike_id":"d123f442-78ff-4b1f-98ca-3060346114d6","system_id":"levelo_inurba_marseille","lat":43.30885,"lon":5.3965,"is_reserved":false,"is_disabled":false,"rental_uris":{"android":"levelo://app?vid=d123f442-78ff-4b1f-98ca-3060346114d6","ios":"levelo://app?vid=d123f442-78ff-4b1f-98ca-3060346114d6"},"vehicle_type_id":"4","last_reported":1693605966,"current_range_meters":10800,"station_id":"ce4bh012rcd13ifvqcv0","pricing_plan_id":"free"},{"bike_id":"ee7b75ff-b1b7-4965-a139-7fd200d2a06e","system_id":"levelo_inurba_marseille","lat":43.31327,"lon":5.397,"is_reserved":false,"is_disabled":false,"rental_uris":{"android":"levelo://app?vid=ee7b75ff-b1b7-4965-a139-7fd200d2a06e","ios":"levelo://app?vid=ee7b75ff-b1b7-4965-a139-7fd200d2a06e"},"vehicle_type_id":"4","last_reported":1693605966,"current_range_meters":31200,"station_id":"ce4bgvp2rcd13ifvqcu0","pricing_plan_id":"free"},{"bike_id":"220a77a9-939d-443c-b6da-a943306dee53","system_id":"levelo_inurba_marseille","lat":43.29186,"lon":5.35788,"is_reserved":false,"is_disabled":false,"rental_uris":{"android":"levelo://app?vid=220a77a9-939d-443c-b6da-a943306dee53","ios":"levelo://app?vid=220a77a9-939d-443c-b6da-a943306dee53"},"vehicle_type_id":"4","last_reported":1693605966,"current_range_meters":16800,"station_id":"ce4bhb12rcd13ifvqel0","pricing_plan_id":"free"},{"bike_id":"5f5b6e57-9b31-427a-8010-b4a8f9d8385d","system_id":"levelo_inurba_marseille","lat":43.309038,"lon":5.396546,"is_reserved":false,"is_disabled":false,"rental_uris":{"android":"levelo://app?vid=5f5b6e57-9b31-427a-8010-b4a8f9d8385d","ios":"levelo://app?vid=5f5b6e57-9b31-427a-8010-b4a8f9d8385d"},"vehicle_type_id":"4","last_reported":1693605966,"current_range_meters":28400,"station_id":"ce4bh012rcd13ifvqcv0","pricing_plan_id":"free"},{"bike_id":"ee9fda39-82ef-49cb-b68e-dc585b441c62","system_id":"levelo_inurba_marseille","lat":43.31322,"lon":5.39705,"is_reserved":false,"is_disabled":false,"rental_uris":{"android":"levelo://app?vid=ee9fda39-82ef-49cb-b68e-dc585b441c62","ios":"levelo://app?vid=ee9fda39-82ef-49cb-b68e-dc585b441c62"},"vehicle_type_id":"4","last_reported":1693605966,"current_range_meters":31200,"station_id":"ce4bgvp2rcd13ifvqcu0","pricing_plan_id":"free"},{"bike_id":"c98e6cf3-4da9-4da0-985b-b6ab484bd879","system_id":"levelo_inurba_marseille","lat":43.3088,"lon":5.39658,"is_reserved":false,"is_disabled":false,"rental_uris":{"android":"levelo://app?vid=c98e6cf3-4da9-4da0-985b-b6ab484bd879","ios":"levelo://app?vid=c98e6cf3-4da9-4da0-985b-b6ab484bd879"},"vehicle_type_id":"4","last_reported":1693605966,"current_range_meters":28400,"station_id":"ce4bh012rcd13ifvqcv0","pricing_plan_id":"free"},{"bike_id":"01d36517-518a-4ba1-a2c5-d891b4a0fa27","system_id":"levelo_inurba_marseille","lat":43.30876,"lon":5.39657,"is_reserved":false,"is_disabled":false,"rental_uris":{"android":"levelo://app?vid=01d36517-518a-4ba1-a2c5-d891b4a0fa27","ios":"levelo://app?vid=01d36517-518a-4ba1-a2c5-d891b4a0fa27"},"vehicle_type_id":"4","last_reported":1693605966,"current_range_meters":6800,"station_id":"ce4bh012rcd13ifvqcv0","pricing_plan_id":"free"},{"bike_id":"f218c1d7-f2a7-481f-b5a3-cdc506481c18","system_id":"levelo_inurba_marseille","lat":43.30881,"lon":5.39662,"is_reserved":false,"is_disabled":false,"rental_uris":{"android":"levelo://app?vid=f218c1d7-f2a7-481f-b5a3-cdc506481c18","ios":"levelo://app?vid=f218c1d7-f2a7-481f-b5a3-cdc506481c18"},"vehicle_type_id":"4","last_reported":1693605966,"current_range_meters":0,"station_id":"ce4bh012rcd13ifvqcv0","pricing_plan_id":"free"},{"bike_id":"59039588-674d-4233-a46f-b9fae01a9697","system_id":"levelo_inurba_marseille","lat":43.29531,"lon":5.38544,"is_reserved":false,"is_disabled":false,"rental_uris":{"android":"levelo://app?vid=59039588-674d-4233-a46f-b9fae01a9697","ios":"levelo://app?vid=59039588-674d-4233-a46f-b9fae01a9697"},"vehicle_type_id":"4","last_reported":1693605966,"current_range_meters":26800,"station_id":"ce4bgih2rcd13ifvqba0","pricing_plan_id":"free"},{"bike_id":"0d962e12-b732-4464-bc89-f40845207671","system_id":"levelo_inurba_marseille","lat":43.33221,"lon":5.38114,"is_reserved":false,"is_disabled":false,"rental_uris":{"android":"levelo://app?vid=0d962e12-b732-4464-bc89-f40845207671","ios":"levelo://app?vid=0d962e12-b732-4464-bc89-f40845207671"},"vehicle_type_id":"4","last_reported":1693605966,"current_range_meters":9600,"station_id":"","pricing_plan_id":"free"},{"bike_id":"97fa4800-3c2a-4ab7-9b62-18dbf81a251a","system_id":"levelo_inurba_marseille","lat":43.29529,"lon":5.385581,"is_reserved":false,"is_disabled":false,"rental_uris":{"android":"levelo://app?vid=97fa4800-3c2a-4ab7-9b62-18dbf81a251a","ios":"levelo://app?vid=97fa4800-3c2a-4ab7-9b62-18dbf81a251a"},"vehicle_type_id":"4","last_reported":1693605966,"current_range_meters":30000,"station_id":"ce4bgih2rcd13ifvqba0","pricing_plan_id":"free"},{"bike_id":"d041b3bc-15a4-480e-a392-05277974c432","system_id":"levelo_inurba_marseille","lat":43.29526,"lon":5.38541,"is_reserved":false,"is_disabled":false,"rental_uris":{"android":"levelo://app?vid=d041b3bc-15a4-480e-a392-05277974c432","ios":"levelo://app?vid=d041b3bc-15a4-480e-a392-05277974c432"},"vehicle_type_id":"4","last_reported":1693605966,"current_range_meters":1600,"station_id":"ce4bgih2rcd13ifvqba0","pricing_plan_id":"free"},{"bike_id":"2b744922-8534-473c-ae63-2cbecedd753d","system_id":"levelo_inurba_marseille","lat":43.29527,"lon":5.38544,"is_reserved":false,"is_disabled":false,"rental_uris":{"android":"levelo://app?vid=2b744922-8534-473c-ae63-2cbecedd753d","ios":"levelo://app?vid=2b744922-8534-473c-ae63-2cbecedd753d"},"vehicle_type_id":"4","last_reported":1693605966,"current_range_meters":30800,"station_id":"ce4bgih2rcd13ifvqba0","pricing_plan_id":"free"},{"bike_id":"909fdf6c-5e62-4343-a1aa-1ee12fbeb75b","system_id":"levelo_inurba_marseille","lat":43.29518,"lon":5.38546,"is_reserved":false,"is_disabled":false,"rental_uris":{"android":"levelo://app?vid=909fdf6c-5e62-4343-a1aa-1ee12fbeb75b","ios":"levelo://app?vid=909fdf6c-5e62-4343-a1aa-1ee12fbeb75b"},"vehicle_type_id":"4","last_reported":1693605966,"current_range_meters":22800,"station_id":"ce4bgih2rcd13ifvqba0","pricing_plan_id":"free"},{"bike_id":"a4098895-f733-40d0-b74d-82a6a0eccb68","system_id":"levelo_inurba_marseille","lat":43.302008,"lon":5.394694,"is_reserved":false,"is_disabled":false,"rental_uris":{"android":"levelo://app?vid=a4098895-f733-40d0-b74d-82a6a0eccb68","ios":"levelo://app?vid=a4098895-f733-40d0-b74d-82a6a0eccb68"},"vehicle_type_id":"4","last_reported":1693605966,"current_range_meters":30800,"station_id":"ce4bh0p2rcd13ifvqd70","pricing_plan_id":"free"},{"bike_id":"af281fe5-3909-4d61-8598-4f9fed73d281","system_id":"levelo_inurba_marseille","lat":43.290631,"lon":5.359244,"is_reserved":false,"is_disabled":false,"rental_uris":{"android":"levelo://app?vid=af281fe5-3909-4d61-8598-4f9fed73d281","ios":"levelo://app?vid=af281fe5-3909-4d61-8598-4f9fed73d281"},"vehicle_type_id":"4","last_reported":1693605966,"current_range_meters":28400,"station_id":"ce4bha92rcd13ifvqeg0","pricing_plan_id":"free"},{"bike_id":"91d500b5-2104-4f8a-a8e6-44c3f6048c69","system_id":"levelo_inurba_marseille","lat":43.290624,"lon":5.359245,"is_reserved":false,"is_disabled":false,"rental_uris":{"android":"levelo://app?vid=91d500b5-2104-4f8a-a8e6-44c3f6048c69","ios":"levelo://app?vid=91d500b5-2104-4f8a-a8e6-44c3f6048c69"},"vehicle_type_id":"4","last_reported":1693605966,"current_range_meters":28000,"station_id":"ce4bha92rcd13ifvqeg0","pricing_plan_id":"free"},{"bike_id":"fbdcef13-a6ef-46f4-a174-bcd534d8b2a8","system_id":"levelo_inurba_marseille","lat":43.290631,"lon":5.359244,"is_reserved":false,"is_disabled":false,"rental_uris":{"android":"levelo://app?vid=fbdcef13-a6ef-46f4-a174-bcd534d8b2a8","ios":"levelo://app?vid=fbdcef13-a6ef-46f4-a174-bcd534d8b2a8"},"vehicle_type_id":"4","last_reported":1693605966,"current_range_meters":20800,"station_id":"ce4bha92rcd13ifvqeg0","pricing_plan_id":"free"},{"bike_id":"ea5224ec-c8cd-4aa8-b7ce-783837074d24","system_id":"levelo_inurba_marseille","lat":43.29417,"lon":5.38627,"is_reserved":false,"is_disabled":false,"rental_uris":{"android":"levelo://app?vid=ea5224ec-c8cd-4aa8-b7ce-783837074d24","ios":"levelo://app?vid=ea5224ec-c8cd-4aa8-b7ce-783837074d24"},"vehicle_type_id":"4","last_reported":1693605966,"current_range_meters":6800,"station_id":"ce4bh2h2rcd13ifvqdh0","pricing_plan_id":"free"},{"bike_id":"9808d48e-0eaa-4bbb-90f0-99dc3a06d391","system_id":"levelo_inurba_marseille","lat":43.294162,"lon":5.386292,"is_reserved":false,"is_disabled":false,"rental_uris":{"android":"levelo://app?vid=9808d48e-0eaa-4bbb-90f0-99dc3a06d391","ios":"levelo://app?vid=9808d48e-0eaa-4bbb-90f0-99dc3a06d391"},"vehicle_type_id":"4","last_reported":1693605966,"current_range_meters":19600,"station_id":"ce4bh2h2rcd13ifvqdh0","pricing_plan_id":"free"},{"bike_id":"3e0e72a8-1f80-4ba0-998d-885f0d759e55","system_id":"levelo_inurba_marseille","lat":43.294153,"lon":5.386305,"is_reserved":false,"is_disabled":false,"rental_uris":{"android":"levelo://app?vid=3e0e72a8-1f80-4ba0-998d-885f0d759e55","ios":"levelo://app?vid=3e0e72a8-1f80-4ba0-998d-885f0d759e55"},"vehicle_type_id":"4","last_reported":1693605966,"current_range_meters":24000,"station_id":"ce4bh2h2rcd13ifvqdh0","pricing_plan_id":"free"},{"bike_id":"a9b45e37-ca8c-4a53-9a91-e40a48b82189","system_id":"levelo_inurba_marseille","lat":43.29416,"lon":5.38627,"is_reserved":false,"is_disabled":false,"rental_uris":{"android":"levelo://app?vid=a9b45e37-ca8c-4a53-9a91-e40a48b82189","ios":"levelo://app?vid=a9b45e37-ca8c-4a53-9a91-e40a48b82189"},"vehicle_type_id":"4","last_reported":1693605966,"current_range_meters":31200,"station_id":"ce4bh2h2rcd13ifvqdh0","pricing_plan_id":"free"},{"bike_id":"75d15da7-345c-43a4-8bca-280228e18910","system_id":"levelo_inurba_marseille","lat":43.29417,"lon":5.38631,"is_reserved":false,"is_disabled":false,"rental_uris":{"android":"levelo://app?vid=75d15da7-345c-43a4-8bca-280228e18910","ios":"levelo://app?vid=75d15da7-345c-43a4-8bca-280228e18910"},"vehicle_type_id":"4","last_reported":1693605966,"current_range_meters":31200,"station_id":"ce4bh2h2rcd13ifvqdh0","pricing_plan_id":"free"},{"bike_id":"2f93318d-a393-4e93-88c9-60d3ec241b0e","system_id":"levelo_inurba_marseille","lat":43.289184,"lon":5.366408,"is_reserved":false,"is_disabled":false,"rental_uris":{"android":"levelo://app?vid=2f93318d-a393-4e93-88c9-60d3ec241b0e","ios":"levelo://app?vid=2f93318d-a393-4e93-88c9-60d3ec241b0e"},"vehicle_type_id":"4","last_reported":1693605966,"current_range_meters":31200,"station_id":"ce4bhap2rcd13ifvqek0","pricing_plan_id":"free"},{"bike_id":"e780eb2b-879d-45f5-9c88-3f4791f1d2b8","system_id":"levelo_inurba_marseille","lat":43.289468,"lon":5.363719,"is_reserved":false,"is_disabled":false,"rental_uris":{"android":"levelo://app?vid=e780eb2b-879d-45f5-9c88-3f4791f1d2b8","ios":"levelo://app?vid=e780eb2b-879d-45f5-9c88-3f4791f1d2b8"},"vehicle_type_id":"4","last_reported":1693605966,"current_range_meters":2800,"station_id":"ce4bhc92rcd13ifvqetg","pricing_plan_id":"free"},{"bike_id":"c1b0850d-0a53-4da0-9f6b-a9a94f67666e","system_id":"levelo_inurba_marseille","lat":43.33045,"lon":5.38909,"is_reserved":false,"is_disabled":false,"rental_uris":{"android":"levelo://app?vid=c1b0850d-0a53-4da0-9f6b-a9a94f67666e","ios":"levelo://app?vid=c1b0850d-0a53-4da0-9f6b-a9a94f67666e"},"vehicle_type_id":"4","last_reported":1693605966,"current_range_meters":24000,"station_id":"ce4bhr92rcd13ifvqhrg","pricing_plan_id":"free"},{"bike_id":"de59a76a-42a0-4ab4-b120-08406509a5a3","system_id":"levelo_inurba_marseille","lat":43.33042,"lon":5.38916,"is_reserved":false,"is_disabled":false,"rental_uris":{"android":"levelo://app?vid=de59a76a-42a0-4ab4-b120-08406509a5a3","ios":"levelo://app?vid=de59a76a-42a0-4ab4-b120-08406509a5a3"},"vehicle_type_id":"4","last_reported":1693605966,"current_range_meters":0,"station_id":"ce4bhr92rcd13ifvqhrg","pricing_plan_id":"free"},{"bike_id":"978b0ff4-c9df-43ed-a4e7-ec9b1854c595","system_id":"levelo_inurba_marseille","lat":43.33041,"lon":5.38919,"is_reserved":false,"is_disabled":false,"rental_uris":{"android":"levelo://app?vid=978b0ff4-c9df-43ed-a4e7-ec9b1854c595","ios":"levelo://app?vid=978b0ff4-c9df-43ed-a4e7-ec9b1854c595"},"vehicle_type_id":"4","last_reported":1693605966,"current_range_meters":19600,"station_id":"ce4bhr92rcd13ifvqhrg","pricing_plan_id":"free"},{"bike_id":"90f1fc97-49d0-4df8-9f32-3dfcd4a32851","system_id":"levelo_inurba_marseille","lat":43.33043,"lon":5.38916,"is_reserved":false,"is_disabled":false,"rental_uris":{"android":"levelo://app?vid=90f1fc97-49d0-4df8-9f32-3dfcd4a32851","ios":"levelo://app?vid=90f1fc97-49d0-4df8-9f32-3dfcd4a32851"},"vehicle_type_id":"4","last_reported":1693605966,"current_range_meters":17200,"station_id":"ce4bhr92rcd13ifvqhrg","pricing_plan_id":"free"},{"bike_id":"d346ead7-ea15-4af0-898b-f25c067a214a","system_id":"levelo_inurba_marseille","lat":43.33039,"lon":5.38922,"is_reserved":false,"is_disabled":false,"rental_uris":{"android":"levelo://app?vid=d346ead7-ea15-4af0-898b-f25c067a214a","ios":"levelo://app?vid=d346ead7-ea15-4af0-898b-f25c067a214a"},"vehicle_type_id":"4","last_reported":1693605966,"current_range_meters":18800,"station_id":"ce4bhr92rcd13ifvqhrg","pricing_plan_id":"free"},{"bike_id":"97bd55a4-42e4-4fe4-b814-e15741181f07","system_id":"levelo_inurba_marseille","lat":43.33045,"lon":5.38914,"is_reserved":false,"is_disabled":false,"rental_uris":{"android":"levelo://app?vid=97bd55a4-42e4-4fe4-b814-e15741181f07","ios":"levelo://app?vid=97bd55a4-42e4-4fe4-b814-e15741181f07"},"vehicle_type_id":"4","last_reported":1693605966,"current_range_meters":4800,"station_id":"ce4bhr92rcd13ifvqhrg","pricing_plan_id":"free"},{"bike_id":"3e0449ec-e32f-417c-946f-951095c26cc1","system_id":"levelo_inurba_marseille","lat":43.33041,"lon":5.38921,"is_reserved":false,"is_disabled":false,"rental_uris":{"android":"levelo://app?vid=3e0449ec-e32f-417c-946f-951095c26cc1","ios":"levelo://app?vid=3e0449ec-e32f-417c-946f-951095c26cc1"},"vehicle_type_id":"4","last_reported":1693605966,"current_range_meters":29600,"station_id":"ce4bhr92rcd13ifvqhrg","pricing_plan_id":"free"},{"bike_id":"e7c8cfe2-9bdf-4363-a136-3e02a3639875","system_id":"levelo_inurba_marseille","lat":43.33042,"lon":5.3892,"is_reserved":false,"is_disabled":false,"rental_uris":{"android":"levelo://app?vid=e7c8cfe2-9bdf-4363-a136-3e02a3639875","ios":"levelo://app?vid=e7c8cfe2-9bdf-4363-a136-3e02a3639875"},"vehicle_type_id":"4","last_reported":1693605966,"current_range_meters":12400,"station_id":"ce4bhr92rcd13ifvqhrg","pricing_plan_id":"free"},{"bike_id":"276df892-9a2a-40a9-929d-29c6fe2dac65","system_id":"levelo_inurba_marseille","lat":43.33042,"lon":5.38921,"is_reserved":false,"is_disabled":false,"rental_uris":{"android":"levelo://app?vid=276df892-9a2a-40a9-929d-29c6fe2dac65","ios":"levelo://app?vid=276df892-9a2a-40a9-929d-29c6fe2dac65"},"vehicle_type_id":"4","last_reported":1693605966,"current_range_meters":25600,"station_id":"ce4bhr92rcd13ifvqhrg","pricing_plan_id":"free"},{"bike_id":"d9b7cf73-e139-46ed-8d02-84759924fdf4","system_id":"levelo_inurba_marseille","lat":43.33044,"lon":5.38918,"is_reserved":false,"is_disabled":false,"rental_uris":{"android":"levelo://app?vid=d9b7cf73-e139-46ed-8d02-84759924fdf4","ios":"levelo://app?vid=d9b7cf73-e139-46ed-8d02-84759924fdf4"},"vehicle_type_id":"4","last_reported":1693605966,"current_range_meters":9600,"station_id":"ce4bhr92rcd13ifvqhrg","pricing_plan_id":"free"},{"bike_id":"2cdba739-ebc5-413a-8a24-35edd08d69ea","system_id":"levelo_inurba_marseille","lat":43.33048,"lon":5.38913,"is_reserved":false,"is_disabled":false,"rental_uris":{"android":"levelo://app?vid=2cdba739-ebc5-413a-8a24-35edd08d69ea","ios":"levelo://app?vid=2cdba739-ebc5-413a-8a24-35edd08d69ea"},"vehicle_type_id":"4","last_reported":1693605966,"current_range_meters":19600,"station_id":"ce4bhr92rcd13ifvqhrg","pricing_plan_id":"free"},{"bike_id":"8077604d-b9d4-4aae-b42f-6a79c8cc4721","system_id":"levelo_inurba_marseille","lat":43.33041,"lon":5.38924,"is_reserved":false,"is_disabled":false,"rental_uris":{"android":"levelo://app?vid=8077604d-b9d4-4aae-b42f-6a79c8cc4721","ios":"levelo://app?vid=8077604d-b9d4-4aae-b42f-6a79c8cc4721"},"vehicle_type_id":"4","last_reported":1693605966,"current_range_meters":27200,"station_id":"ce4bhr92rcd13ifvqhrg","pricing_plan_id":"free"},{"bike_id":"1895038e-acdb-4d35-aa35-e1291f23a30a","system_id":"levelo_inurba_marseille","lat":43.29001,"lon":5.35614,"is_reserved":false,"is_disabled":false,"rental_uris":{"android":"levelo://app?vid=1895038e-acdb-4d35-aa35-e1291f23a30a","ios":"levelo://app?vid=1895038e-acdb-4d35-aa35-e1291f23a30a"},"vehicle_type_id":"4","last_reported":1693605966,"current_range_meters":31200,"station_id":"ce4bhb92rcd13ifvqen0","pricing_plan_id":"free"},{"bike_id":"028b16b4-c861-455c-93e2-214442c48086","system_id":"levelo_inurba_marseille","lat":43.290103,"lon":5.356114,"is_reserved":false,"is_disabled":false,"rental_uris":{"android":"levelo://app?vid=028b16b4-c861-455c-93e2-214442c48086","ios":"levelo://app?vid=028b16b4-c861-455c-93e2-214442c48086"},"vehicle_type_id":"4","last_reported":1693605966,"current_range_meters":30800,"station_id":"ce4bhb92rcd13ifvqen0","pricing_plan_id":"free"},{"bike_id":"10a8b87c-9464-45fb-affc-beff0fff9410","system_id":"levelo_inurba_marseille","lat":43.33047,"lon":5.38926,"is_reserved":false,"is_disabled":false,"rental_uris":{"android":"levelo://app?vid=10a8b87c-9464-45fb-affc-beff0fff9410","ios":"levelo://app?vid=10a8b87c-9464-45fb-affc-beff0fff9410"},"vehicle_type_id":"4","last_reported":1693605966,"current_range_meters":3200,"station_id":"ce4bhr92rcd13ifvqhrg","pricing_plan_id":"free"},{"bike_id":"8ee3fb99-0d38-4a59-a715-7e71f0573c33","system_id":"levelo_inurba_marseille","lat":43.29099,"lon":5.38128,"is_reserved":false,"is_disabled":false,"rental_uris":{"android":"levelo://app?vid=8ee3fb99-0d38-4a59-a715-7e71f0573c33","ios":"levelo://app?vid=8ee3fb99-0d38-4a59-a715-7e71f0573c33"},"vehicle_type_id":"4","last_reported":1693605966,"current_range_meters":7200,"station_id":"ce4bh512rcd13ifvqe2g","pricing_plan_id":"free"},{"bike_id":"7c0bb9f9-6df6-4ad1-91ba-5a9348769e96","system_id":"levelo_inurba_marseille","lat":43.290995,"lon":5.381361,"is_reserved":false,"is_disabled":false,"rental_uris":{"android":"levelo://app?vid=7c0bb9f9-6df6-4ad1-91ba-5a9348769e96","ios":"levelo://app?vid=7c0bb9f9-6df6-4ad1-91ba-5a9348769e96"},"vehicle_type_id":"4","last_reported":1693605966,"current_range_meters":22800,"station_id":"ce4bh512rcd13ifvqe2g","pricing_plan_id":"free"},{"bike_id":"8358500a-8e43-4ba5-89a9-33de8a39e234","system_id":"levelo_inurba_marseille","lat":43.297815,"lon":5.393548,"is_reserved":false,"is_disabled":false,"rental_uris":{"android":"levelo://app?vid=8358500a-8e43-4ba5-89a9-33de8a39e234","ios":"levelo://app?vid=8358500a-8e43-4ba5-89a9-33de8a39e234"},"vehicle_type_id":"4","last_reported":1693605966,"current_range_meters":0,"station_id":"chh1huq6cuj3fo74tm60","pricing_plan_id":"free"},{"bike_id":"2999e1c1-fbf0-43b0-8f0d-69bb64f6187e","system_id":"levelo_inurba_marseille","lat":43.28991,"lon":5.37837,"is_reserved":false,"is_disabled":false,"rental_uris":{"android":"levelo://app?vid=2999e1c1-fbf0-43b0-8f0d-69bb64f6187e","ios":"levelo://app?vid=2999e1c1-fbf0-43b0-8f0d-69bb64f6187e"},"vehicle_type_id":"4","last_reported":1693605966,"current_range_meters":7200,"station_id":"ce4bh9p2rcd13ifvqed0","pricing_plan_id":"free"},{"bike_id":"2d8fa12d-0e5e-4cc8-859b-b13918252f27","system_id":"levelo_inurba_marseille","lat":43.29526,"lon":5.39044,"is_reserved":false,"is_disabled":false,"rental_uris":{"android":"levelo://app?vid=2d8fa12d-0e5e-4cc8-859b-b13918252f27","ios":"levelo://app?vid=2d8fa12d-0e5e-4cc8-859b-b13918252f27"},"vehicle_type_id":"4","last_reported":1693605966,"current_range_meters":22400,"station_id":"","pricing_plan_id":"free"},{"bike_id":"50b2623e-f55b-4862-9872-b6681f0910da","system_id":"levelo_inurba_marseille","lat":43.289662,"lon":5.378577,"is_reserved":false,"is_disabled":false,"rental_uris":{"android":"levelo://app?vid=50b2623e-f55b-4862-9872-b6681f0910da","ios":"levelo://app?vid=50b2623e-f55b-4862-9872-b6681f0910da"},"vehicle_type_id":"4","last_reported":1693605966,"current_range_meters":31200,"station_id":"ce4bh9p2rcd13ifvqed0","pricing_plan_id":"free"},{"bike_id":"152ef956-5ab3-4a0e-9c5e-24488e919b98","system_id":"levelo_inurba_marseille","lat":43.2903,"lon":5.3815,"is_reserved":false,"is_disabled":false,"rental_uris":{"android":"levelo://app?vid=152ef956-5ab3-4a0e-9c5e-24488e919b98","ios":"levelo://app?vid=152ef956-5ab3-4a0e-9c5e-24488e919b98"},"vehicle_type_id":"4","last_reported":1693605966,"current_range_meters":25200,"station_id":"ce4bh4p2rcd13ifvqe1g","pricing_plan_id":"free"},{"bike_id":"a307749f-705e-43d5-8b68-1962c07dec93","system_id":"levelo_inurba_marseille","lat":43.28856,"lon":5.358371,"is_reserved":false,"is_disabled":false,"rental_uris":{"android":"levelo://app?vid=a307749f-705e-43d5-8b68-1962c07dec93","ios":"levelo://app?vid=a307749f-705e-43d5-8b68-1962c07dec93"},"vehicle_type_id":"4","last_reported":1693605966,"current_range_meters":31200,"station_id":"ce4bhb12rcd13ifvqem0","pricing_plan_id":"free"},{"bike_id":"6494cff1-4ad2-44fb-95bc-efafb37238d1","system_id":"levelo_inurba_marseille","lat":43.28856,"lon":5.358371,"is_reserved":false,"is_disabled":false,"rental_uris":{"android":"levelo://app?vid=6494cff1-4ad2-44fb-95bc-efafb37238d1","ios":"levelo://app?vid=6494cff1-4ad2-44fb-95bc-efafb37238d1"},"vehicle_type_id":"4","last_reported":1693605966,"current_range_meters":29600,"station_id":"ce4bhb12rcd13ifvqem0","pricing_plan_id":"free"},{"bike_id":"ad063659-1ea3-48b6-a42f-c7bc1a6acae7","system_id":"levelo_inurba_marseille","lat":43.28856,"lon":5.358371,"is_reserved":false,"is_disabled":false,"rental_uris":{"android":"levelo://app?vid=ad063659-1ea3-48b6-a42f-c7bc1a6acae7","ios":"levelo://app?vid=ad063659-1ea3-48b6-a42f-c7bc1a6acae7"},"vehicle_type_id":"4","last_reported":1693605966,"current_range_meters":9600,"station_id":"ce4bhb12rcd13ifvqem0","pricing_plan_id":"free"},{"bike_id":"a7de9765-17af-4b67-9ec0-12b74d3ba79f","system_id":"levelo_inurba_marseille","lat":43.28856,"lon":5.358371,"is_reserved":false,"is_disabled":false,"rental_uris":{"android":"levelo://app?vid=a7de9765-17af-4b67-9ec0-12b74d3ba79f","ios":"levelo://app?vid=a7de9765-17af-4b67-9ec0-12b74d3ba79f"},"vehicle_type_id":"4","last_reported":1693605966,"current_range_meters":10400,"station_id":"ce4bhb12rcd13ifvqem0","pricing_plan_id":"free"},{"bike_id":"42f4d939-0782-4b44-97d7-65bcbb79fac3","system_id":"levelo_inurba_marseille","lat":43.28856,"lon":5.358371,"is_reserved":false,"is_disabled":false,"rental_uris":{"android":"levelo://app?vid=42f4d939-0782-4b44-97d7-65bcbb79fac3","ios":"levelo://app?vid=42f4d939-0782-4b44-97d7-65bcbb79fac3"},"vehicle_type_id":"4","last_reported":1693605966,"current_range_meters":6400,"station_id":"ce4bhb12rcd13ifvqem0","pricing_plan_id":"free"},{"bike_id":"187b3c5c-eacc-4ab0-b06c-90686874c76e","system_id":"levelo_inurba_marseille","lat":43.309371,"lon":5.401449,"is_reserved":false,"is_disabled":false,"rental_uris":{"android":"levelo://app?vid=187b3c5c-eacc-4ab0-b06c-90686874c76e","ios":"levelo://app?vid=187b3c5c-eacc-4ab0-b06c-90686874c76e"},"vehicle_type_id":"4","last_reported":1693605966,"current_range_meters":6800,"station_id":"ce4bgvp2rcd13ifvqct0","pricing_plan_id":"free"},{"bike_id":"312c84a7-7ace-4b6c-9bac-64a1313be538","system_id":"levelo_inurba_marseille","lat":43.33748,"lon":5.37454,"is_reserved":false,"is_disabled":false,"rental_uris":{"android":"levelo://app?vid=312c84a7-7ace-4b6c-9bac-64a1313be538","ios":"levelo://app?vid=312c84a7-7ace-4b6c-9bac-64a1313be538"},"vehicle_type_id":"4","last_reported":1693605966,"current_range_meters":27600,"station_id":"","pricing_plan_id":"free"},{"bike_id":"5e0b65a3-4830-4efe-8df2-f90e6871cc74","system_id":"levelo_inurba_marseille","lat":43.30642,"lon":5.401031,"is_reserved":false,"is_disabled":false,"rental_uris":{"android":"levelo://app?vid=5e0b65a3-4830-4efe-8df2-f90e6871cc74","ios":"levelo://app?vid=5e0b65a3-4830-4efe-8df2-f90e6871cc74"},"vehicle_type_id":"4","last_reported":1693605966,"current_range_meters":28400,"station_id":"ce4bh112rcd13ifvqda0","pricing_plan_id":"free"},{"bike_id":"5b0ba006-6752-48dc-bd9e-43e25b1c1e12","system_id":"levelo_inurba_marseille","lat":43.295196,"lon":5.39397,"is_reserved":false,"is_disabled":false,"rental_uris":{"android":"levelo://app?vid=5b0ba006-6752-48dc-bd9e-43e25b1c1e12","ios":"levelo://app?vid=5b0ba006-6752-48dc-bd9e-43e25b1c1e12"},"vehicle_type_id":"4","last_reported":1693605966,"current_range_meters":25200,"station_id":"ce4bh292rcd13ifvqdf0","pricing_plan_id":"free"},{"bike_id":"849912e6-be8a-440f-88cc-94b63081a3a7","system_id":"levelo_inurba_marseille","lat":43.301117,"lon":5.398795,"is_reserved":false,"is_disabled":false,"rental_uris":{"android":"levelo://app?vid=849912e6-be8a-440f-88cc-94b63081a3a7","ios":"levelo://app?vid=849912e6-be8a-440f-88cc-94b63081a3a7"},"vehicle_type_id":"4","last_reported":1693605966,"current_range_meters":24000,"station_id":"ce4bh0h2rcd13ifvqd40","pricing_plan_id":"free"},{"bike_id":"ba04a041-f465-4f8f-99f1-5ca98c600c39","system_id":"levelo_inurba_marseille","lat":43.301117,"lon":5.398795,"is_reserved":false,"is_disabled":false,"rental_uris":{"android":"levelo://app?vid=ba04a041-f465-4f8f-99f1-5ca98c600c39","ios":"levelo://app?vid=ba04a041-f465-4f8f-99f1-5ca98c600c39"},"vehicle_type_id":"4","last_reported":1693605966,"current_range_meters":20400,"station_id":"ce4bh0h2rcd13ifvqd40","pricing_plan_id":"free"},{"bike_id":"fb4f4639-af80-44c8-b4c1-e3f37a0b0a00","system_id":"levelo_inurba_marseille","lat":43.301117,"lon":5.398795,"is_reserved":false,"is_disabled":false,"rental_uris":{"android":"levelo://app?vid=fb4f4639-af80-44c8-b4c1-e3f37a0b0a00","ios":"levelo://app?vid=fb4f4639-af80-44c8-b4c1-e3f37a0b0a00"},"vehicle_type_id":"4","last_reported":1693605966,"current_range_meters":30000,"station_id":"ce4bh0h2rcd13ifvqd40","pricing_plan_id":"free"},{"bike_id":"3fdaa363-dd29-4c03-9396-570ad437d4d4","system_id":"levelo_inurba_marseille","lat":43.301117,"lon":5.398795,"is_reserved":false,"is_disabled":false,"rental_uris":{"android":"levelo://app?vid=3fdaa363-dd29-4c03-9396-570ad437d4d4","ios":"levelo://app?vid=3fdaa363-dd29-4c03-9396-570ad437d4d4"},"vehicle_type_id":"4","last_reported":1693605966,"current_range_meters":9200,"station_id":"ce4bh0h2rcd13ifvqd40","pricing_plan_id":"free"},{"bike_id":"3fd0f370-3ed3-49a1-b5a8-b204763b261f","system_id":"levelo_inurba_marseille","lat":43.301117,"lon":5.398795,"is_reserved":false,"is_disabled":false,"rental_uris":{"android":"levelo://app?vid=3fd0f370-3ed3-49a1-b5a8-b204763b261f","ios":"levelo://app?vid=3fd0f370-3ed3-49a1-b5a8-b204763b261f"},"vehicle_type_id":"4","last_reported":1693605966,"current_range_meters":18800,"station_id":"ce4bh0h2rcd13ifvqd40","pricing_plan_id":"free"},{"bike_id":"a0788dce-3b91-40aa-9a0f-4f5858b7f157","system_id":"levelo_inurba_marseille","lat":43.301117,"lon":5.398795,"is_reserved":false,"is_disabled":false,"rental_uris":{"android":"levelo://app?vid=a0788dce-3b91-40aa-9a0f-4f5858b7f157","ios":"levelo://app?vid=a0788dce-3b91-40aa-9a0f-4f5858b7f157"},"vehicle_type_id":"4","last_reported":1693605966,"current_range_meters":8800,"station_id":"ce4bh0h2rcd13ifvqd40","pricing_plan_id":"free"},{"bike_id":"0ecf422b-0be1-42d7-8531-78a6551ff0d8","system_id":"levelo_inurba_marseille","lat":43.301117,"lon":5.398795,"is_reserved":false,"is_disabled":false,"rental_uris":{"android":"levelo://app?vid=0ecf422b-0be1-42d7-8531-78a6551ff0d8","ios":"levelo://app?vid=0ecf422b-0be1-42d7-8531-78a6551ff0d8"},"vehicle_type_id":"4","last_reported":1693605966,"current_range_meters":22400,"station_id":"ce4bh0h2rcd13ifvqd40","pricing_plan_id":"free"},{"bike_id":"46b2f47a-ebec-4908-a94c-d57a4125ca3b","system_id":"levelo_inurba_marseille","lat":43.30129,"lon":5.39886,"is_reserved":false,"is_disabled":false,"rental_uris":{"android":"levelo://app?vid=46b2f47a-ebec-4908-a94c-d57a4125ca3b","ios":"levelo://app?vid=46b2f47a-ebec-4908-a94c-d57a4125ca3b"},"vehicle_type_id":"4","last_reported":1693605966,"current_range_meters":0,"station_id":"ce4bh0h2rcd13ifvqd40","pricing_plan_id":"free"},{"bike_id":"5d725f4f-ca9a-477d-bfed-80f50f7b3e5b","system_id":"levelo_inurba_marseille","lat":43.2878,"lon":5.37688,"is_reserved":false,"is_disabled":false,"rental_uris":{"android":"levelo://app?vid=5d725f4f-ca9a-477d-bfed-80f50f7b3e5b","ios":"levelo://app?vid=5d725f4f-ca9a-477d-bfed-80f50f7b3e5b"},"vehicle_type_id":"4","last_reported":1693605966,"current_range_meters":22800,"station_id":"","pricing_plan_id":"free"},{"bike_id":"5247e6d9-a984-499f-9691-c8b22712cc0f","system_id":"levelo_inurba_marseille","lat":43.286961,"lon":5.373785,"is_reserved":false,"is_disabled":false,"rental_uris":{"android":"levelo://app?vid=5247e6d9-a984-499f-9691-c8b22712cc0f","ios":"levelo://app?vid=5247e6d9-a984-499f-9691-c8b22712cc0f"},"vehicle_type_id":"4","last_reported":1693605966,"current_range_meters":18000,"station_id":"ce4bh3p2rcd13ifvqdq0","pricing_plan_id":"free"},{"bike_id":"87b95706-e9e0-41b6-a84a-2c5790651291","system_id":"levelo_inurba_marseille","lat":43.298681,"lon":5.397225,"is_reserved":false,"is_disabled":false,"rental_uris":{"android":"levelo://app?vid=87b95706-e9e0-41b6-a84a-2c5790651291","ios":"levelo://app?vid=87b95706-e9e0-41b6-a84a-2c5790651291"},"vehicle_type_id":"4","last_reported":1693605966,"current_range_meters":28000,"station_id":"ce4bh0h2rcd13ifvqd50","pricing_plan_id":"free"},{"bike_id":"bf927f1b-41ae-4374-90f8-f893446d0e4a","system_id":"levelo_inurba_marseille","lat":43.28665,"lon":5.36361,"is_reserved":false,"is_disabled":false,"rental_uris":{"android":"levelo://app?vid=bf927f1b-41ae-4374-90f8-f893446d0e4a","ios":"levelo://app?vid=bf927f1b-41ae-4374-90f8-f893446d0e4a"},"vehicle_type_id":"4","last_reported":1693605966,"current_range_meters":28000,"station_id":"ce4bhah2rcd13ifvqej0","pricing_plan_id":"free"},{"bike_id":"75199276-b705-4ad7-b6a9-49aeaa84628a","system_id":"levelo_inurba_marseille","lat":43.286591,"lon":5.363346,"is_reserved":false,"is_disabled":false,"rental_uris":{"android":"levelo://app?vid=75199276-b705-4ad7-b6a9-49aeaa84628a","ios":"levelo://app?vid=75199276-b705-4ad7-b6a9-49aeaa84628a"},"vehicle_type_id":"4","last_reported":1693605966,"current_range_meters":29600,"station_id":"ce4bhah2rcd13ifvqej0","pricing_plan_id":"free"},{"bike_id":"c54fe3ed-cce7-4f35-8c68-bf84c44dc5b1","system_id":"levelo_inurba_marseille","lat":43.286591,"lon":5.363346,"is_reserved":false,"is_disabled":false,"rental_uris":{"android":"levelo://app?vid=c54fe3ed-cce7-4f35-8c68-bf84c44dc5b1","ios":"levelo://app?vid=c54fe3ed-cce7-4f35-8c68-bf84c44dc5b1"},"vehicle_type_id":"4","last_reported":1693605966,"current_range_meters":8000,"station_id":"ce4bhah2rcd13ifvqej0","pricing_plan_id":"free"},{"bike_id":"6bb4e1bd-f0d5-4aa5-a22d-353dc25fa716","system_id":"levelo_inurba_marseille","lat":43.286961,"lon":5.373785,"is_reserved":false,"is_disabled":false,"rental_uris":{"android":"levelo://app?vid=6bb4e1bd-f0d5-4aa5-a22d-353dc25fa716","ios":"levelo://app?vid=6bb4e1bd-f0d5-4aa5-a22d-353dc25fa716"},"vehicle_type_id":"4","last_reported":1693605966,"current_range_meters":19200,"station_id":"ce4bh3p2rcd13ifvqdq0","pricing_plan_id":"free"},{"bike_id":"2365150f-73ab-4507-aea4-76016e6109c8","system_id":"levelo_inurba_marseille","lat":43.28662,"lon":5.36348,"is_reserved":false,"is_disabled":false,"rental_uris":{"android":"levelo://app?vid=2365150f-73ab-4507-aea4-76016e6109c8","ios":"levelo://app?vid=2365150f-73ab-4507-aea4-76016e6109c8"},"vehicle_type_id":"4","last_reported":1693605966,"current_range_meters":28800,"station_id":"ce4bhah2rcd13ifvqej0","pricing_plan_id":"free"},{"bike_id":"3206e170-fbb3-4d28-99ca-6c0d99881108","system_id":"levelo_inurba_marseille","lat":43.298681,"lon":5.397225,"is_reserved":false,"is_disabled":false,"rental_uris":{"android":"levelo://app?vid=3206e170-fbb3-4d28-99ca-6c0d99881108","ios":"levelo://app?vid=3206e170-fbb3-4d28-99ca-6c0d99881108"},"vehicle_type_id":"4","last_reported":1693605966,"current_range_meters":9200,"station_id":"ce4bh0h2rcd13ifvqd50","pricing_plan_id":"free"},{"bike_id":"27dda481-f6fa-460e-b8e1-321ada06fec3","system_id":"levelo_inurba_marseille","lat":43.28699,"lon":5.37396,"is_reserved":false,"is_disabled":false,"rental_uris":{"android":"levelo://app?vid=27dda481-f6fa-460e-b8e1-321ada06fec3","ios":"levelo://app?vid=27dda481-f6fa-460e-b8e1-321ada06fec3"},"vehicle_type_id":"4","last_reported":1693605966,"current_range_meters":31200,"station_id":"ce4bh3p2rcd13ifvqdq0","pricing_plan_id":"free"},{"bike_id":"3ed721d2-91ab-468e-912e-cbdd762e8d8e","system_id":"levelo_inurba_marseille","lat":43.295196,"lon":5.39397,"is_reserved":false,"is_disabled":false,"rental_uris":{"android":"levelo://app?vid=3ed721d2-91ab-468e-912e-cbdd762e8d8e","ios":"levelo://app?vid=3ed721d2-91ab-468e-912e-cbdd762e8d8e"},"vehicle_type_id":"4","last_reported":1693605966,"current_range_meters":1200,"station_id":"ce4bh292rcd13ifvqdf0","pricing_plan_id":"free"},{"bike_id":"f4853780-50e0-4c8d-af85-f7351e863ef3","system_id":"levelo_inurba_marseille","lat":43.295196,"lon":5.39397,"is_reserved":false,"is_disabled":false,"rental_uris":{"android":"levelo://app?vid=f4853780-50e0-4c8d-af85-f7351e863ef3","ios":"levelo://app?vid=f4853780-50e0-4c8d-af85-f7351e863ef3"},"vehicle_type_id":"4","last_reported":1693605966,"current_range_meters":12000,"station_id":"ce4bh292rcd13ifvqdf0","pricing_plan_id":"free"},{"bike_id":"41567a0d-e648-4784-a08b-b50a73b3c588","system_id":"levelo_inurba_marseille","lat":43.295194,"lon":5.39397,"is_reserved":false,"is_disabled":false,"rental_uris":{"android":"levelo://app?vid=41567a0d-e648-4784-a08b-b50a73b3c588","ios":"levelo://app?vid=41567a0d-e648-4784-a08b-b50a73b3c588"},"vehicle_type_id":"4","last_reported":1693605966,"current_range_meters":10400,"station_id":"ce4bh292rcd13ifvqdf0","pricing_plan_id":"free"},{"bike_id":"8acd5de4-36af-48cb-8a75-8063f4d3efa9","system_id":"levelo_inurba_marseille","lat":43.2903,"lon":5.38641,"is_reserved":false,"is_disabled":false,"rental_uris":{"android":"levelo://app?vid=8acd5de4-36af-48cb-8a75-8063f4d3efa9","ios":"levelo://app?vid=8acd5de4-36af-48cb-8a75-8063f4d3efa9"},"vehicle_type_id":"4","last_reported":1693605966,"current_range_meters":8800,"station_id":"ce4bh4p2rcd13ifvqe0g","pricing_plan_id":"free"},{"bike_id":"66f6faa8-3a61-4982-8f71-d0f40b6785bd","system_id":"levelo_inurba_marseille","lat":43.302759,"lon":5.400793,"is_reserved":false,"is_disabled":false,"rental_uris":{"android":"levelo://app?vid=66f6faa8-3a61-4982-8f71-d0f40b6785bd","ios":"levelo://app?vid=66f6faa8-3a61-4982-8f71-d0f40b6785bd"},"vehicle_type_id":"4","last_reported":1693605966,"current_range_meters":23600,"station_id":"ce4bgvh2rcd13ifvqcs0","pricing_plan_id":"free"},{"bike_id":"2aead8d7-3896-43ac-a36b-d29e21cf8ada","system_id":"levelo_inurba_marseille","lat":43.302759,"lon":5.400793,"is_reserved":false,"is_disabled":false,"rental_uris":{"android":"levelo://app?vid=2aead8d7-3896-43ac-a36b-d29e21cf8ada","ios":"levelo://app?vid=2aead8d7-3896-43ac-a36b-d29e21cf8ada"},"vehicle_type_id":"4","last_reported":1693605966,"current_range_meters":6400,"station_id":"ce4bgvh2rcd13ifvqcs0","pricing_plan_id":"free"},{"bike_id":"7d6b4b38-32ac-479c-91fb-fb2c322c3951","system_id":"levelo_inurba_marseille","lat":43.30253,"lon":5.40072,"is_reserved":false,"is_disabled":false,"rental_uris":{"android":"levelo://app?vid=7d6b4b38-32ac-479c-91fb-fb2c322c3951","ios":"levelo://app?vid=7d6b4b38-32ac-479c-91fb-fb2c322c3951"},"vehicle_type_id":"4","last_reported":1693605966,"current_range_meters":0,"station_id":"ce4bgvh2rcd13ifvqcs0","pricing_plan_id":"free"},{"bike_id":"5d985ec1-800e-435c-b4fd-e92ef6c17976","system_id":"levelo_inurba_marseille","lat":43.302759,"lon":5.400793,"is_reserved":false,"is_disabled":false,"rental_uris":{"android":"levelo://app?vid=5d985ec1-800e-435c-b4fd-e92ef6c17976","ios":"levelo://app?vid=5d985ec1-800e-435c-b4fd-e92ef6c17976"},"vehicle_type_id":"4","last_reported":1693605966,"current_range_meters":27600,"station_id":"ce4bgvh2rcd13ifvqcs0","pricing_plan_id":"free"},{"bike_id":"3f22d8f9-cce3-4d57-b4f6-37a5645158c5","system_id":"levelo_inurba_marseille","lat":43.302759,"lon":5.400793,"is_reserved":false,"is_disabled":false,"rental_uris":{"android":"levelo://app?vid=3f22d8f9-cce3-4d57-b4f6-37a5645158c5","ios":"levelo://app?vid=3f22d8f9-cce3-4d57-b4f6-37a5645158c5"},"vehicle_type_id":"4","last_reported":1693605966,"current_range_meters":2000,"station_id":"ce4bgvh2rcd13ifvqcs0","pricing_plan_id":"free"},{"bike_id":"5f3b112d-214d-4925-af8e-98bd7681060b","system_id":"levelo_inurba_marseille","lat":43.302759,"lon":5.400793,"is_reserved":false,"is_disabled":false,"rental_uris":{"android":"levelo://app?vid=5f3b112d-214d-4925-af8e-98bd7681060b","ios":"levelo://app?vid=5f3b112d-214d-4925-af8e-98bd7681060b"},"vehicle_type_id":"4","last_reported":1693605966,"current_range_meters":18400,"station_id":"ce4bgvh2rcd13ifvqcs0","pricing_plan_id":"free"},{"bike_id":"4165adc8-7423-42be-8aa3-1d81a5d72f77","system_id":"levelo_inurba_marseille","lat":43.302759,"lon":5.400793,"is_reserved":false,"is_disabled":false,"rental_uris":{"android":"levelo://app?vid=4165adc8-7423-42be-8aa3-1d81a5d72f77","ios":"levelo://app?vid=4165adc8-7423-42be-8aa3-1d81a5d72f77"},"vehicle_type_id":"4","last_reported":1693605966,"current_range_meters":0,"station_id":"ce4bgvh2rcd13ifvqcs0","pricing_plan_id":"free"},{"bike_id":"e94a6d43-32aa-48c3-a6cb-33dec63367b4","system_id":"levelo_inurba_marseille","lat":43.302759,"lon":5.400793,"is_reserved":false,"is_disabled":false,"rental_uris":{"android":"levelo://app?vid=e94a6d43-32aa-48c3-a6cb-33dec63367b4","ios":"levelo://app?vid=e94a6d43-32aa-48c3-a6cb-33dec63367b4"},"vehicle_type_id":"4","last_reported":1693605966,"current_range_meters":18000,"station_id":"ce4bgvh2rcd13ifvqcs0","pricing_plan_id":"free"},{"bike_id":"14c6a638-7a84-4a7c-ac47-577965d136ef","system_id":"levelo_inurba_marseille","lat":43.286039,"lon":5.370679,"is_reserved":false,"is_disabled":false,"rental_uris":{"android":"levelo://app?vid=14c6a638-7a84-4a7c-ac47-577965d136ef","ios":"levelo://app?vid=14c6a638-7a84-4a7c-ac47-577965d136ef"},"vehicle_type_id":"4","last_reported":1693605966,"current_range_meters":19600,"station_id":"ce4bht12rcd13ifvqi60","pricing_plan_id":"free"},{"bike_id":"2a501205-1ee4-483e-92c9-2e36b48d6aa1","system_id":"levelo_inurba_marseille","lat":43.287184,"lon":5.37937,"is_reserved":false,"is_disabled":false,"rental_uris":{"android":"levelo://app?vid=2a501205-1ee4-483e-92c9-2e36b48d6aa1","ios":"levelo://app?vid=2a501205-1ee4-483e-92c9-2e36b48d6aa1"},