{"last_updated":1752243106,"ttl":60,"version":"2.2","data":{"bikes":[{"bike_id":"b8630e21-d6fa-4620-9d17-c54d1d9d8b1c","system_id":"levelo_inurba_marseille","lat":43.30161,"lon":5.38102,"is_reserved":false,"is_disabled":false,"rental_uris":{"android":"levelo://app?vid=b8630e21-d6fa-4620-9d17-c54d1d9d8b1c","ios":"levelo://app?vid=b8630e21-d6fa-4620-9d17-c54d1d9d8b1c"},"vehicle_type_id":"4","last_reported":1752243106,"current_range_meters":2800,"station_id":"ce4bgjp2rcd13ifvqbh0","pricing_plan_id":"cebpf4jnsgd1na2vs0mg"},{"bike_id":"ec10864b-b651-4335-980b-f0cb9a2dd2f3","system_id":"levelo_inurba_marseille","lat":43.32478,"lon":5.36567,"is_reserved":false,"is_disabled":false,"rental_uris":{"android":"levelo://app?vid=ec10864b-b651-4335-980b-f0cb9a2dd2f3","ios":"levelo://app?vid=ec10864b-b651-4335-980b-f0cb9a2dd2f3"},"vehicle_type_id":"4","last_reported":1752243106,"current_range_meters":2800,"station_id":"ce4bhs12rcd13ifvqhvg","pricing_plan_id":"cebpf4jnsgd1na2vs0mg"},{"bike_id":"b8d6bf6b-ecbb-4c40-8ce7-0169ef070b49","system_id":"levelo_inurba_marseille","lat":43.29578,"lon":5.37404,"is_reserved":false,"is_disabled":false,"rental_uris":{"android":"levelo://app?vid=b8d6bf6b-ecbb-4c40-8ce7-0169ef070b49","ios":"levelo://app?vid=b8d6bf6b-ecbb-4c40-8ce7-0169ef070b49"},"vehicle_type_id":"4","last_reported":1752243106,"current_range_meters":3600,"station_id":"","pricing_plan_id":"cebpf4jnsgd1na2vs0mg"},{"bike_id":"d6c149de-6965-4ed0-99a7-97db109c6dea","system_id":"levelo_inurba_marseille","lat":43.27072,"lon":5.4228,"is_reserved":false,"is_disabled":false,"rental_uris":{"android":"levelo://app?vid=d6c149de-6965-4ed0-99a7-97db109c6dea","ios":"levelo://app?vid=d6c149de-6965-4ed0-99a7-97db109c6dea"},"vehicle_type_id":"4","last_reported":1752243106,"current_range_meters":3600,"station_id":"ce4bhk92rcd13ifvqgb0","pricing_plan_id":"cebpf4jnsgd1na2vs0mg"},{"bike_id":"4c908e0f-6adc-49bc-97a1-8b80db41b42c","system_id":"levelo_inurba_marseille","lat":43.293075,"lon":5.374701,"is_reserved":false,"is_disabled":false,"rental_uris":{"android":"levelo://app?vid=4c908e0f-6adc-49bc-97a1-8b80db41b42c","ios":"levelo://app?vid=4c908e0f-6adc-49bc-97a1-8b80db41b42c"},"vehicle_type_id":"4","last_reported":1752243106,"current_range_meters":3600,"station_id":"ce4bgi12rcd13ifvqb70","pricing_plan_id":"cebpf4jnsgd1na2vs0mg"},{"bike_id":"388a73de-deee-414f-8910-9034cb8d7257","system_id":"levelo_inurba_marseille","lat":43.24399,"lon":5.37056,"is_reserved":false,"is_disabled":false,"rental_uris":{"android":"levelo://app?vid=388a73de-deee-414f-8910-9034cb8d7257","ios":"levelo://app?vid=388a73de-deee-414f-8910-9034cb8d7257"},"vehicle_type_id":"4","last_reported":1752243106,"current_range_meters":3600,"station_id":"ce4bhhh2rcd13ifvqfk0","pricing_plan_id":"cebpf4jnsgd1na2vs0mg"},{"bike_id":"76037c37-ea48-4396-b4f6-1ac1fd116802","system_id":"levelo_inurba_marseille","lat":43.28273,"lon":5.35058,"is_reserved":false,"is_disabled":false,"rental_uris":{"android":"levelo://app?vid=76037c37-ea48-4396-b4f6-1ac1fd116802","ios":"levelo://app?vid=76037c37-ea48-4396-b4f6-1ac1fd116802"},"vehicle_type_id":"4","last_reported":1752243106,"current_range_meters":4000,"station_id":"ce4bhbp2rcd13ifvqerg","pricing_plan_id":"cebpf4jnsgd1na2vs0mg"},{"bike_id":"7c1d133b-b30b-4916-a189-c8f259f48b89","system_id":"levelo_inurba_marseille","lat":43.21747,"lon":5.34606,"is_reserved":false,"is_disabled":false,"rental_uris":{"android":"levelo://app?vid=7c1d133b-b30b-4916-a189-c8f259f48b89","ios":"levelo://app?vid=7c1d133b-b30b-4916-a189-c8f259f48b89"},"vehicle_type_id":"4","last_reported":1752243106,"current_range_meters":4400,"station_id":"st_cvj6r9ubvosntc0bgbag","pricing_plan_id":"cebpf4jnsgd1na2vs0mg"},{"bike_id":"c9ec8264-b1f7-41db-a127-5dfa02fc980f","system_id":"levelo_inurba_marseille","lat":43.31564,"lon":5.40164,"is_reserved":false,"is_disabled":false,"rental_uris":{"android":"levelo://app?vid=c9ec8264-b1f7-41db-a127-5dfa02fc980f","ios":"levelo://app?vid=c9ec8264-b1f7-41db-a127-5dfa02fc980f"},"vehicle_type_id":"4","last_reported":1752243106,"current_range_meters":4400,"station_id":"","pricing_plan_id":"cebpf4jnsgd1na2vs0mg"},{"bike_id":"a4e71c09-d013-4906-bd5c-aaf1012438e0","system_id":"levelo_inurba_marseille","lat":43.30927,"lon":5.40155,"is_reserved":false,"is_disabled":true,"rental_uris":{"android":"levelo://app?vid=a4e71c09-d013-4906-bd5c-aaf1012438e0","ios":"levelo://app?vid=a4e71c09-d013-4906-bd5c-aaf1012438e0"},"vehicle_type_id":"4","last_reported":1752243106,"current_range_meters":4400,"station_id":"ce4bgvp2rcd13ifvqct0","pricing_plan_id":"cebpf4jnsgd1na2vs0mg"},{"bike_id":"f736d54d-2c2d-4f34-9952-b66fb3382169","system_id":"levelo_inurba_marseille","lat":43.28285,"lon":5.35069,"is_reserved":false,"is_disabled":false,"rental_uris":{"android":"levelo://app?vid=f736d54d-2c2d-4f34-9952-b66fb3382169","ios":"levelo://app?vid=f736d54d-2c2d-4f34-9952-b66fb3382169"},"vehicle_type_id":"4","last_reported":1752243106,"current_range_meters":4400,"station_id":"ce4bhbp2rcd13ifvqerg","pricing_plan_id":"cebpf4jnsgd1na2vs0mg"},{"bike_id":"b632788b-1b6b-4ba0-a302-b2c9d0bbf340","system_id":"levelo_inurba_marseille","lat":43.30152,"lon":5.3808,"is_reserved":false,"is_disabled":false,"rental_uris":{"android":"levelo://app?vid=b632788b-1b6b-4ba0-a302-b2c9d0bbf340","ios":"levelo://app?vid=b632788b-1b6b-4ba0-a302-b2c9d0bbf340"},"vehicle_type_id":"4","last_reported":1752243106,"current_range_meters":5600,"station_id":"ce4bgjp2rcd13ifvqbh0","pricing_plan_id":"cebpf4jnsgd1na2vs0mg"},{"bike_id":"3108e78c-759c-4d11-b361-5abb833e983c","system_id":"levelo_inurba_marseille","lat":43.2885,"lon":5.39392,"is_reserved":false,"is_disabled":false,"rental_uris":{"android":"levelo://app?vid=3108e78c-759c-4d11-b361-5abb833e983c","ios":"levelo://app?vid=3108e78c-759c-4d11-b361-5abb833e983c"},"vehicle_type_id":"4","last_reported":1752243106,"current_range_meters":5600,"station_id":"","pricing_plan_id":"cebpf4jnsgd1na2vs0mg"},{"bike_id":"e10fab9d-e35d-4af9-8b77-4fe4af71dcae","system_id":"levelo_inurba_marseille","lat":43.30652,"lon":5.40082,"is_reserved":false,"is_disabled":false,"rental_uris":{"android":"levelo://app?vid=e10fab9d-e35d-4af9-8b77-4fe4af71dcae","ios":"levelo://app?vid=e10fab9d-e35d-4af9-8b77-4fe4af71dcae"},"vehicle_type_id":"4","last_reported":1752243106,"current_range_meters":5600,"station_id":"ce4bh112rcd13ifvqda0","pricing_plan_id":"cebpf4jnsgd1na2vs0mg"},{"bike_id":"df712ea8-fa0e-4dc0-9487-73c43f88a2a0","system_id":"levelo_inurba_marseille","lat":43.30777,"lon":5.37655,"is_reserved":false,"is_disabled":false,"rental_uris":{"android":"levelo://app?vid=df712ea8-fa0e-4dc0-9487-73c43f88a2a0","ios":"levelo://app?vid=df712ea8-fa0e-4dc0-9487-73c43f88a2a0"},"vehicle_type_id":"4","last_reported":1752243106,"current_range_meters":5600,"station_id":"ce4bgv92rcd13ifvqcq0","pricing_plan_id":"cebpf4jnsgd1na2vs0mg"},{"bike_id":"20763534-4b4f-4a23-86b4-3e729e1b3926","system_id":"levelo_inurba_marseille","lat":43.337444,"lon":5.374475,"is_reserved":false,"is_disabled":false,"rental_uris":{"android":"levelo://app?vid=20763534-4b4f-4a23-86b4-3e729e1b3926","ios":"levelo://app?vid=20763534-4b4f-4a23-86b4-3e729e1b3926"},"vehicle_type_id":"4","last_reported":1752243106,"current_range_meters":5600,"station_id":"","pricing_plan_id":"cebpf4jnsgd1na2vs0mg"},{"bike_id":"7c95df85-7ed8-40bb-aceb-6b2013d5f37f","system_id":"levelo_inurba_marseille","lat":43.31694,"lon":5.40481,"is_reserved":false,"is_disabled":false,"rental_uris":{"android":"levelo://app?vid=7c95df85-7ed8-40bb-aceb-6b2013d5f37f","ios":"levelo://app?vid=7c95df85-7ed8-40bb-aceb-6b2013d5f37f"},"vehicle_type_id":"4","last_reported":1752243106,"current_range_meters":6000,"station_id":"ce4bh012rcd13ifvqd00","pricing_plan_id":"cebpf4jnsgd1na2vs0mg"},{"bike_id":"d97f3a2e-02a8-4532-8ff0-10158de64d89","system_id":"levelo_inurba_marseille","lat":43.25595,"lon":5.38242,"is_reserved":false,"is_disabled":false,"rental_uris":{"android":"levelo://app?vid=d97f3a2e-02a8-4532-8ff0-10158de64d89","ios":"levelo://app?vid=d97f3a2e-02a8-4532-8ff0-10158de64d89"},"vehicle_type_id":"4","last_reported":1752243106,"current_range_meters":6000,"station_id":"ce4bhih2rcd13ifvqfs0","pricing_plan_id":"cebpf4jnsgd1na2vs0mg"},{"bike_id":"76541355-7b5f-4723-b6f4-4b5f1a20c103","system_id":"levelo_inurba_marseille","lat":43.28934,"lon":5.39637,"is_reserved":false,"is_disabled":false,"rental_uris":{"android":"levelo://app?vid=76541355-7b5f-4723-b6f4-4b5f1a20c103","ios":"levelo://app?vid=76541355-7b5f-4723-b6f4-4b5f1a20c103"},"vehicle_type_id":"4","last_reported":1752243106,"current_range_meters":5600,"station_id":"ce4bh3h2rcd13ifvqdn0","pricing_plan_id":"cebpf4jnsgd1na2vs0mg"},{"bike_id":"159fe00e-1605-4a3a-a906-ef8dcd52b1db","system_id":"levelo_inurba_marseille","lat":43.30854,"lon":5.37335,"is_reserved":false,"is_disabled":false,"rental_uris":{"android":"levelo://app?vid=159fe00e-1605-4a3a-a906-ef8dcd52b1db","ios":"levelo://app?vid=159fe00e-1605-4a3a-a906-ef8dcd52b1db"},"vehicle_type_id":"4","last_reported":1752243106,"current_range_meters":6000,"station_id":"","pricing_plan_id":"cebpf4jnsgd1na2vs0mg"},{"bike_id":"344f5c21-5c7d-461d-8dc4-1c1b10443425","system_id":"levelo_inurba_marseille","lat":43.27138,"lon":5.42259,"is_reserved":false,"is_disabled":false,"rental_uris":{"android":"levelo://app?vid=344f5c21-5c7d-461d-8dc4-1c1b10443425","ios":"levelo://app?vid=344f5c21-5c7d-461d-8dc4-1c1b10443425"},"vehicle_type_id":"4","last_reported":1752243106,"current_range_meters":6000,"station_id":"ce4bhk92rcd13ifvqgb0","pricing_plan_id":"cebpf4jnsgd1na2vs0mg"},{"bike_id":"9b7546ae-13b5-4587-96d6-7199873e3959","system_id":"levelo_inurba_marseille","lat":43.2738,"lon":5.36255,"is_reserved":false,"is_disabled":false,"rental_uris":{"android":"levelo://app?vid=9b7546ae-13b5-4587-96d6-7199873e3959","ios":"levelo://app?vid=9b7546ae-13b5-4587-96d6-7199873e3959"},"vehicle_type_id":"4","last_reported":1752243106,"current_range_meters":6400,"station_id":"ce4bhbh2rcd13ifvqeo0","pricing_plan_id":"cebpf4jnsgd1na2vs0mg"},{"bike_id":"b757ffbb-2b71-4330-9f60-5f8a9d46d16e","system_id":"levelo_inurba_marseille","lat":43.296587,"lon":5.371146,"is_reserved":false,"is_disabled":false,"rental_uris":{"android":"levelo://app?vid=b757ffbb-2b71-4330-9f60-5f8a9d46d16e","ios":"levelo://app?vid=b757ffbb-2b71-4330-9f60-5f8a9d46d16e"},"vehicle_type_id":"4","last_reported":1752243106,"current_range_meters":6800,"station_id":"","pricing_plan_id":"cebpf4jnsgd1na2vs0mg"},{"bike_id":"a5ea3fd5-701b-46f4-85b4-6d490071014a","system_id":"levelo_inurba_marseille","lat":43.28268,"lon":5.35062,"is_reserved":false,"is_disabled":false,"rental_uris":{"android":"levelo://app?vid=a5ea3fd5-701b-46f4-85b4-6d490071014a","ios":"levelo://app?vid=a5ea3fd5-701b-46f4-85b4-6d490071014a"},"vehicle_type_id":"4","last_reported":1752243106,"current_range_meters":6800,"station_id":"ce4bhbp2rcd13ifvqerg","pricing_plan_id":"cebpf4jnsgd1na2vs0mg"},{"bike_id":"78d6e7c8-8477-436d-96d8-0d0ab485a2b5","system_id":"levelo_inurba_marseille","lat":43.21772,"lon":5.346136,"is_reserved":false,"is_disabled":false,"rental_uris":{"android":"levelo://app?vid=78d6e7c8-8477-436d-96d8-0d0ab485a2b5","ios":"levelo://app?vid=78d6e7c8-8477-436d-96d8-0d0ab485a2b5"},"vehicle_type_id":"4","last_reported":1752243106,"current_range_meters":6800,"station_id":"st_cvj6r9ubvosntc0bgbag","pricing_plan_id":"cebpf4jnsgd1na2vs0mg"},{"bike_id":"c807fecd-1697-4552-ab40-b184b8e56a8d","system_id":"levelo_inurba_marseille","lat":43.31545,"lon":5.38031,"is_reserved":false,"is_disabled":false,"rental_uris":{"android":"levelo://app?vid=c807fecd-1697-4552-ab40-b184b8e56a8d","ios":"levelo://app?vid=c807fecd-1697-4552-ab40-b184b8e56a8d"},"vehicle_type_id":"4","last_reported":1752243106,"current_range_meters":7200,"station_id":"ce4bhsp2rcd13ifvqi50","pricing_plan_id":"cebpf4jnsgd1na2vs0mg"},{"bike_id":"4efc2025-c2d7-4205-a81b-af8ae7bba118","system_id":"levelo_inurba_marseille","lat":43.25827,"lon":5.39437,"is_reserved":false,"is_disabled":false,"rental_uris":{"android":"levelo://app?vid=4efc2025-c2d7-4205-a81b-af8ae7bba118","ios":"levelo://app?vid=4efc2025-c2d7-4205-a81b-af8ae7bba118"},"vehicle_type_id":"4","last_reported":1752243106,"current_range_meters":7200,"station_id":"ce4bhip2rcd13ifvqft0","pricing_plan_id":"cebpf4jnsgd1na2vs0mg"},{"bike_id":"21ae54b9-7375-4101-b8a7-bff9d6e1fa32","system_id":"levelo_inurba_marseille","lat":43.29999,"lon":5.37586,"is_reserved":false,"is_disabled":false,"rental_uris":{"android":"levelo://app?vid=21ae54b9-7375-4101-b8a7-bff9d6e1fa32","ios":"levelo://app?vid=21ae54b9-7375-4101-b8a7-bff9d6e1fa32"},"vehicle_type_id":"4","last_reported":1752243106,"current_range_meters":7200,"station_id":"","pricing_plan_id":"cebpf4jnsgd1na2vs0mg"},{"bike_id":"d75270eb-d5c9-40d8-9b15-32e7f60e101a","system_id":"levelo_inurba_marseille","lat":43.28728,"lon":5.38494,"is_reserved":false,"is_disabled":false,"rental_uris":{"android":"levelo://app?vid=d75270eb-d5c9-40d8-9b15-32e7f60e101a","ios":"levelo://app?vid=d75270eb-d5c9-40d8-9b15-32e7f60e101a"},"vehicle_type_id":"4","last_reported":1752243106,"current_range_meters":7200,"station_id":"ce4bgih2rcd13ifvqba0","pricing_plan_id":"cebpf4jnsgd1na2vs0mg"},{"bike_id":"d0c3b540-2721-45c6-bf89-83f7b8540fbb","system_id":"levelo_inurba_marseille","lat":43.31539,"lon":5.38026,"is_reserved":false,"is_disabled":false,"rental_uris":{"android":"levelo://app?vid=d0c3b540-2721-45c6-bf89-83f7b8540fbb","ios":"levelo://app?vid=d0c3b540-2721-45c6-bf89-83f7b8540fbb"},"vehicle_type_id":"4","last_reported":1752243106,"current_range_meters":6800,"station_id":"ce4bhsp2rcd13ifvqi50","pricing_plan_id":"cebpf4jnsgd1na2vs0mg"},{"bike_id":"de5387e1-f9de-4dbe-b478-a4824997ec89","system_id":"levelo_inurba_marseille","lat":43.28273,"lon":5.3507,"is_reserved":false,"is_disabled":false,"rental_uris":{"android":"levelo://app?vid=de5387e1-f9de-4dbe-b478-a4824997ec89","ios":"levelo://app?vid=de5387e1-f9de-4dbe-b478-a4824997ec89"},"vehicle_type_id":"4","last_reported":1752243106,"current_range_meters":8000,"station_id":"ce4bhbp2rcd13ifvqerg","pricing_plan_id":"cebpf4jnsgd1na2vs0mg"},{"bike_id":"80778b69-e378-4576-a615-711c510ff883","system_id":"levelo_inurba_marseille","lat":43.30608,"lon":5.37258,"is_reserved":false,"is_disabled":false,"rental_uris":{"android":"levelo://app?vid=80778b69-e378-4576-a615-711c510ff883","ios":"levelo://app?vid=80778b69-e378-4576-a615-711c510ff883"},"vehicle_type_id":"4","last_reported":1752243106,"current_range_meters":8400,"station_id":"ce4bgqh2rcd13ifvqc4g","pricing_plan_id":"cebpf4jnsgd1na2vs0mg"},{"bike_id":"aea08ef2-91a0-4f88-affe-be9d38a064bd","system_id":"levelo_inurba_marseille","lat":43.27068,"lon":5.40235,"is_reserved":false,"is_disabled":false,"rental_uris":{"android":"levelo://app?vid=aea08ef2-91a0-4f88-affe-be9d38a064bd","ios":"levelo://app?vid=aea08ef2-91a0-4f88-affe-be9d38a064bd"},"vehicle_type_id":"4","last_reported":1752243106,"current_range_meters":8400,"station_id":"ce4bhk92rcd13ifvqgc0","pricing_plan_id":"cebpf4jnsgd1na2vs0mg"},{"bike_id":"3c38866f-d5f7-4414-becc-4adce16c1f56","system_id":"levelo_inurba_marseille","lat":43.28075,"lon":5.39655,"is_reserved":false,"is_disabled":false,"rental_uris":{"android":"levelo://app?vid=3c38866f-d5f7-4414-becc-4adce16c1f56","ios":"levelo://app?vid=3c38866f-d5f7-4414-becc-4adce16c1f56"},"vehicle_type_id":"4","last_reported":1752243106,"current_range_meters":8000,"station_id":"ce4bho12rcd13ifvqh2g","pricing_plan_id":"cebpf4jnsgd1na2vs0mg"},{"bike_id":"8f3521e0-f357-4803-a39d-a3304854e4d8","system_id":"levelo_inurba_marseille","lat":43.30308,"lon":5.36887,"is_reserved":false,"is_disabled":false,"rental_uris":{"android":"levelo://app?vid=8f3521e0-f357-4803-a39d-a3304854e4d8","ios":"levelo://app?vid=8f3521e0-f357-4803-a39d-a3304854e4d8"},"vehicle_type_id":"4","last_reported":1752243106,"current_range_meters":8400,"station_id":"ce4bgqh2rcd13ifvqc5g","pricing_plan_id":"cebpf4jnsgd1na2vs0mg"},{"bike_id":"833f97ec-e704-4051-ab3b-2e9eb58f71d0","system_id":"levelo_inurba_marseille","lat":43.30277,"lon":5.37538,"is_reserved":false,"is_disabled":false,"rental_uris":{"android":"levelo://app?vid=833f97ec-e704-4051-ab3b-2e9eb58f71d0","ios":"levelo://app?vid=833f97ec-e704-4051-ab3b-2e9eb58f71d0"},"vehicle_type_id":"4","last_reported":1752243106,"current_range_meters":8400,"station_id":"","pricing_plan_id":"cebpf4jnsgd1na2vs0mg"},{"bike_id":"8d3a1a02-95f1-4511-8a68-4a40ee3a4c95","system_id":"levelo_inurba_marseille","lat":43.31122,"lon":5.37762,"is_reserved":false,"is_disabled":false,"rental_uris":{"android":"levelo://app?vid=8d3a1a02-95f1-4511-8a68-4a40ee3a4c95","ios":"levelo://app?vid=8d3a1a02-95f1-4511-8a68-4a40ee3a4c95"},"vehicle_type_id":"4","last_reported":1752243106,"current_range_meters":8400,"station_id":"ce4bgt92rcd13ifvqcg0","pricing_plan_id":"cebpf4jnsgd1na2vs0mg"},{"bike_id":"e204274b-73ad-4c6f-862d-8af730ce2e2b","system_id":"levelo_inurba_marseille","lat":43.29558,"lon":5.42297,"is_reserved":false,"is_disabled":false,"rental_uris":{"android":"levelo://app?vid=e204274b-73ad-4c6f-862d-8af730ce2e2b","ios":"levelo://app?vid=e204274b-73ad-4c6f-862d-8af730ce2e2b"},"vehicle_type_id":"4","last_reported":1752243106,"current_range_meters":8800,"station_id":"ce4bhph2rcd13ifvqhdg","pricing_plan_id":"cebpf4jnsgd1na2vs0mg"},{"bike_id":"4d7ce28e-13ef-4ace-964e-4f417ea6e4a1","system_id":"levelo_inurba_marseille","lat":43.30642,"lon":5.401,"is_reserved":false,"is_disabled":false,"rental_uris":{"android":"levelo://app?vid=4d7ce28e-13ef-4ace-964e-4f417ea6e4a1","ios":"levelo://app?vid=4d7ce28e-13ef-4ace-964e-4f417ea6e4a1"},"vehicle_type_id":"4","last_reported":1752243106,"current_range_meters":9200,"station_id":"ce4bh112rcd13ifvqda0","pricing_plan_id":"cebpf4jnsgd1na2vs0mg"},{"bike_id":"ecbdbab1-2c27-4039-973b-984b01b0fbc5","system_id":"levelo_inurba_marseille","lat":43.2903,"lon":5.38649,"is_reserved":false,"is_disabled":false,"rental_uris":{"android":"levelo://app?vid=ecbdbab1-2c27-4039-973b-984b01b0fbc5","ios":"levelo://app?vid=ecbdbab1-2c27-4039-973b-984b01b0fbc5"},"vehicle_type_id":"4","last_reported":1752243106,"current_range_meters":8800,"station_id":"ce4bh4p2rcd13ifvqe0g","pricing_plan_id":"cebpf4jnsgd1na2vs0mg"},{"bike_id":"ea7f713a-f8eb-4f16-8168-36d2161084e8","system_id":"levelo_inurba_marseille","lat":43.27863,"lon":5.39465,"is_reserved":false,"is_disabled":false,"rental_uris":{"android":"levelo://app?vid=ea7f713a-f8eb-4f16-8168-36d2161084e8","ios":"levelo://app?vid=ea7f713a-f8eb-4f16-8168-36d2161084e8"},"vehicle_type_id":"4","last_reported":1752243106,"current_range_meters":9600,"station_id":"","pricing_plan_id":"cebpf4jnsgd1na2vs0mg"},{"bike_id":"478ae662-9572-45af-8ef7-7787ef6a7342","system_id":"levelo_inurba_marseille","lat":43.30305,"lon":5.39216,"is_reserved":false,"is_disabled":false,"rental_uris":{"android":"levelo://app?vid=478ae662-9572-45af-8ef7-7787ef6a7342","ios":"levelo://app?vid=478ae662-9572-45af-8ef7-7787ef6a7342"},"vehicle_type_id":"4","last_reported":1752243106,"current_range_meters":9600,"station_id":"ce4bgkh2rcd13ifvqbk0","pricing_plan_id":"cebpf4jnsgd1na2vs0mg"},{"bike_id":"9b71203b-d9db-4c40-8c66-21b55018789c","system_id":"levelo_inurba_marseille","lat":43.28416,"lon":5.34987,"is_reserved":false,"is_disabled":false,"rental_uris":{"android":"levelo://app?vid=9b71203b-d9db-4c40-8c66-21b55018789c","ios":"levelo://app?vid=9b71203b-d9db-4c40-8c66-21b55018789c"},"vehicle_type_id":"4","last_reported":1752243106,"current_range_meters":9600,"station_id":"ce4bhbh2rcd13ifvqepg","pricing_plan_id":"cebpf4jnsgd1na2vs0mg"},{"bike_id":"52cadec5-3774-483c-a86b-aaa54bf44e04","system_id":"levelo_inurba_marseille","lat":43.28451,"lon":5.35898,"is_reserved":false,"is_disabled":false,"rental_uris":{"android":"levelo://app?vid=52cadec5-3774-483c-a86b-aaa54bf44e04","ios":"levelo://app?vid=52cadec5-3774-483c-a86b-aaa54bf44e04"},"vehicle_type_id":"4","last_reported":1752243106,"current_range_meters":6400,"station_id":"ce4bhah2rcd13ifvqei0","pricing_plan_id":"cebpf4jnsgd1na2vs0mg"},{"bike_id":"df9d904e-a43c-40dc-b9f5-07088bb564c7","system_id":"levelo_inurba_marseille","lat":43.28392,"lon":5.37537,"is_reserved":false,"is_disabled":false,"rental_uris":{"android":"levelo://app?vid=df9d904e-a43c-40dc-b9f5-07088bb564c7","ios":"levelo://app?vid=df9d904e-a43c-40dc-b9f5-07088bb564c7"},"vehicle_type_id":"4","last_reported":1752243106,"current_range_meters":10000,"station_id":"ce4bh412rcd13ifvqds0","pricing_plan_id":"cebpf4jnsgd1na2vs0mg"},{"bike_id":"7c2d071d-3793-47df-b931-9d1ad060c48c","system_id":"levelo_inurba_marseille","lat":43.29535,"lon":5.42298,"is_reserved":false,"is_disabled":false,"rental_uris":{"android":"levelo://app?vid=7c2d071d-3793-47df-b931-9d1ad060c48c","ios":"levelo://app?vid=7c2d071d-3793-47df-b931-9d1ad060c48c"},"vehicle_type_id":"4","last_reported":1752243106,"current_range_meters":10000,"station_id":"ce4bhph2rcd13ifvqhdg","pricing_plan_id":"cebpf4jnsgd1na2vs0mg"},{"bike_id":"81346845-e563-4a54-9cf3-0e2793adb323","system_id":"levelo_inurba_marseille","lat":43.33763,"lon":5.37452,"is_reserved":false,"is_disabled":false,"rental_uris":{"android":"levelo://app?vid=81346845-e563-4a54-9cf3-0e2793adb323","ios":"levelo://app?vid=81346845-e563-4a54-9cf3-0e2793adb323"},"vehicle_type_id":"4","last_reported":1752243106,"current_range_meters":10800,"station_id":"","pricing_plan_id":"cebpf4jnsgd1na2vs0mg"},{"bike_id":"73fe94e8-74f9-41f0-85e9-7d8c52adf2fc","system_id":"levelo_inurba_marseille","lat":43.21255,"lon":5.35281,"is_reserved":false,"is_disabled":false,"rental_uris":{"android":"levelo://app?vid=73fe94e8-74f9-41f0-85e9-7d8c52adf2fc","ios":"levelo://app?vid=73fe94e8-74f9-41f0-85e9-7d8c52adf2fc"},"vehicle_type_id":"4","last_reported":1752243106,"current_range_meters":10800,"station_id":"","pricing_plan_id":"cebpf4jnsgd1na2vs0mg"},{"bike_id":"bbc6f8aa-7e84-4cb1-a7e8-802e8ea838fa","system_id":"levelo_inurba_marseille","lat":43.29538,"lon":5.38544,"is_reserved":false,"is_disabled":false,"rental_uris":{"android":"levelo://app?vid=bbc6f8aa-7e84-4cb1-a7e8-802e8ea838fa","ios":"levelo://app?vid=bbc6f8aa-7e84-4cb1-a7e8-802e8ea838fa"},"vehicle_type_id":"4","last_reported":1752243106,"current_range_meters":10800,"station_id":"ce4bgih2rcd13ifvqba0","pricing_plan_id":"cebpf4jnsgd1na2vs0mg"},{"bike_id":"0cb02260-069c-45f0-84a7-38357e358141","system_id":"levelo_inurba_marseille","lat":43.27373,"lon":5.36258,"is_reserved":false,"is_disabled":false,"rental_uris":{"android":"levelo://app?vid=0cb02260-069c-45f0-84a7-38357e358141","ios":"levelo://app?vid=0cb02260-069c-45f0-84a7-38357e358141"},"vehicle_type_id":"4","last_reported":1752243106,"current_range_meters":10800,"station_id":"ce4bhbh2rcd13ifvqeo0","pricing_plan_id":"cebpf4jnsgd1na2vs0mg"},{"bike_id":"4e209b0c-855f-4b51-8120-2faef8673853","system_id":"levelo_inurba_marseille","lat":43.30615,"lon":5.36887,"is_reserved":false,"is_disabled":false,"rental_uris":{"android":"levelo://app?vid=4e209b0c-855f-4b51-8120-2faef8673853","ios":"levelo://app?vid=4e209b0c-855f-4b51-8120-2faef8673853"},"vehicle_type_id":"4","last_reported":1752243106,"current_range_meters":10800,"station_id":"","pricing_plan_id":"cebpf4jnsgd1na2vs0mg"},{"bike_id":"27d7e74f-9167-4898-ba15-d2703791efb9","system_id":"levelo_inurba_marseille","lat":43.28942,"lon":5.38401,"is_reserved":false,"is_disabled":false,"rental_uris":{"android":"levelo://app?vid=27d7e74f-9167-4898-ba15-d2703791efb9","ios":"levelo://app?vid=27d7e74f-9167-4898-ba15-d2703791efb9"},"vehicle_type_id":"4","last_reported":1752243106,"current_range_meters":11200,"station_id":"ce4bh612rcd13ifvqe6g","pricing_plan_id":"cebpf4jnsgd1na2vs0mg"},{"bike_id":"4da9cfbd-3f4e-416f-9bb6-4f55bfda5955","system_id":"levelo_inurba_marseille","lat":43.29533,"lon":5.38548,"is_reserved":false,"is_disabled":false,"rental_uris":{"android":"levelo://app?vid=4da9cfbd-3f4e-416f-9bb6-4f55bfda5955","ios":"levelo://app?vid=4da9cfbd-3f4e-416f-9bb6-4f55bfda5955"},"vehicle_type_id":"4","last_reported":1752243106,"current_range_meters":11200,"station_id":"ce4bgih2rcd13ifvqba0","pricing_plan_id":"cebpf4jnsgd1na2vs0mg"},{"bike_id":"2c17d96f-4770-4ebd-bbd8-160cb7ecf197","system_id":"levelo_inurba_marseille","lat":43.30895,"lon":5.36862,"is_reserved":false,"is_disabled":false,"rental_uris":{"android":"levelo://app?vid=2c17d96f-4770-4ebd-bbd8-160cb7ecf197","ios":"levelo://app?vid=2c17d96f-4770-4ebd-bbd8-160cb7ecf197"},"vehicle_type_id":"4","last_reported":1752243106,"current_range_meters":11600,"station_id":"ce4bgn92rcd13ifvqbvg","pricing_plan_id":"cebpf4jnsgd1na2vs0mg"},{"bike_id":"5a7b57ef-a00d-4d19-853c-d49c119db95f","system_id":"levelo_inurba_marseille","lat":43.24566,"lon":5.3734,"is_reserved":false,"is_disabled":false,"rental_uris":{"android":"levelo://app?vid=5a7b57ef-a00d-4d19-853c-d49c119db95f","ios":"levelo://app?vid=5a7b57ef-a00d-4d19-853c-d49c119db95f"},"vehicle_type_id":"4","last_reported":1752243106,"current_range_meters":11600,"station_id":"","pricing_plan_id":"cebpf4jnsgd1na2vs0mg"},{"bike_id":"6692ac6f-551f-4444-9de5-f0e3c3b11ad7","system_id":"levelo_inurba_marseille","lat":43.22934,"lon":5.35375,"is_reserved":false,"is_disabled":false,"rental_uris":{"android":"levelo://app?vid=6692ac6f-551f-4444-9de5-f0e3c3b11ad7","ios":"levelo://app?vid=6692ac6f-551f-4444-9de5-f0e3c3b11ad7"},"vehicle_type_id":"4","last_reported":1752243106,"current_range_meters":11600,"station_id":"cpo3532slgdg3j2ikp40","pricing_plan_id":"cebpf4jnsgd1na2vs0mg"},{"bike_id":"8330a68f-2f6e-4337-9657-35d7d87c04ca","system_id":"levelo_inurba_marseille","lat":43.25451,"lon":5.37946,"is_reserved":false,"is_disabled":false,"rental_uris":{"android":"levelo://app?vid=8330a68f-2f6e-4337-9657-35d7d87c04ca","ios":"levelo://app?vid=8330a68f-2f6e-4337-9657-35d7d87c04ca"},"vehicle_type_id":"4","last_reported":1752243106,"current_range_meters":11600,"station_id":"","pricing_plan_id":"cebpf4jnsgd1na2vs0mg"},{"bike_id":"c9b05f4e-65a0-48d0-9260-438a47004be9","system_id":"levelo_inurba_marseille","lat":43.3266,"lon":5.40995,"is_reserved":false,"is_disabled":false,"rental_uris":{"android":"levelo://app?vid=c9b05f4e-65a0-48d0-9260-438a47004be9","ios":"levelo://app?vid=c9b05f4e-65a0-48d0-9260-438a47004be9"},"vehicle_type_id":"4","last_reported":1752243106,"current_range_meters":11600,"station_id":"ce4bhpp2rcd13ifvqhgg","pricing_plan_id":"cebpf4jnsgd1na2vs0mg"},{"bike_id":"a8c511c8-2d6b-4439-8c14-2a9abb049c04","system_id":"levelo_inurba_marseille","lat":43.31086,"lon":5.38345,"is_reserved":false,"is_disabled":false,"rental_uris":{"android":"levelo://app?vid=a8c511c8-2d6b-4439-8c14-2a9abb049c04","ios":"levelo://app?vid=a8c511c8-2d6b-4439-8c14-2a9abb049c04"},"vehicle_type_id":"4","last_reported":1752243106,"current_range_meters":12000,"station_id":"ce4bgv92rcd13ifvqcr0","pricing_plan_id":"cebpf4jnsgd1na2vs0mg"},{"bike_id":"f78449e2-7d44-4571-9947-41ae79d4b3c6","system_id":"levelo_inurba_marseille","lat":43.28642,"lon":5.35095,"is_reserved":false,"is_disabled":false,"rental_uris":{"android":"levelo://app?vid=f78449e2-7d44-4571-9947-41ae79d4b3c6","ios":"levelo://app?vid=f78449e2-7d44-4571-9947-41ae79d4b3c6"},"vehicle_type_id":"4","last_reported":1752243106,"current_range_meters":12000,"station_id":"ce4bhch2rcd13ifvqeug","pricing_plan_id":"cebpf4jnsgd1na2vs0mg"},{"bike_id":"815e27c5-951e-45f8-a0dd-764d99208be7","system_id":"levelo_inurba_marseille","lat":43.26198,"lon":5.37448,"is_reserved":false,"is_disabled":false,"rental_uris":{"android":"levelo://app?vid=815e27c5-951e-45f8-a0dd-764d99208be7","ios":"levelo://app?vid=815e27c5-951e-45f8-a0dd-764d99208be7"},"vehicle_type_id":"4","last_reported":1752243106,"current_range_meters":12400,"station_id":"ce4bhgp2rcd13ifvqfc0","pricing_plan_id":"cebpf4jnsgd1na2vs0mg"},{"bike_id":"365313e2-dd4d-4fbf-95bf-2c27179b3f7d","system_id":"levelo_inurba_marseille","lat":43.273475,"lon":5.39062,"is_reserved":false,"is_disabled":false,"rental_uris":{"android":"levelo://app?vid=365313e2-dd4d-4fbf-95bf-2c27179b3f7d","ios":"levelo://app?vid=365313e2-dd4d-4fbf-95bf-2c27179b3f7d"},"vehicle_type_id":"4","last_reported":1752243106,"current_range_meters":12000,"station_id":"ce4bhi12rcd13ifvqfo0","pricing_plan_id":"cebpf4jnsgd1na2vs0mg"},{"bike_id":"8f89e4f3-495a-4317-bd6d-37a19186d65b","system_id":"levelo_inurba_marseille","lat":43.33749,"lon":5.39191,"is_reserved":false,"is_disabled":false,"rental_uris":{"android":"levelo://app?vid=8f89e4f3-495a-4317-bd6d-37a19186d65b","ios":"levelo://app?vid=8f89e4f3-495a-4317-bd6d-37a19186d65b"},"vehicle_type_id":"4","last_reported":1752243106,"current_range_meters":12400,"station_id":"ce4bhr92rcd13ifvqhsg","pricing_plan_id":"cebpf4jnsgd1na2vs0mg"},{"bike_id":"a2f087e4-2174-4792-b543-bc2fc14fed30","system_id":"levelo_inurba_marseille","lat":43.2841,"lon":5.3499,"is_reserved":false,"is_disabled":false,"rental_uris":{"android":"levelo://app?vid=a2f087e4-2174-4792-b543-bc2fc14fed30","ios":"levelo://app?vid=a2f087e4-2174-4792-b543-bc2fc14fed30"},"vehicle_type_id":"4","last_reported":1752243106,"current_range_meters":12400,"station_id":"ce4bhbh2rcd13ifvqepg","pricing_plan_id":"cebpf4jnsgd1na2vs0mg"},{"bike_id":"21cc4a87-2424-44a2-8db3-1f99d6545494","system_id":"levelo_inurba_marseille","lat":43.21746,"lon":5.34602,"is_reserved":false,"is_disabled":false,"rental_uris":{"android":"levelo://app?vid=21cc4a87-2424-44a2-8db3-1f99d6545494","ios":"levelo://app?vid=21cc4a87-2424-44a2-8db3-1f99d6545494"},"vehicle_type_id":"4","last_reported":1752243106,"current_range_meters":12400,"station_id":"st_cvj6r9ubvosntc0bgbag","pricing_plan_id":"cebpf4jnsgd1na2vs0mg"},{"bike_id":"c3c5b26c-e834-4db6-994b-52abb31f20f1","system_id":"levelo_inurba_marseille","lat":43.24085,"lon":5.37775,"is_reserved":false,"is_disabled":false,"rental_uris":{"android":"levelo://app?vid=c3c5b26c-e834-4db6-994b-52abb31f20f1","ios":"levelo://app?vid=c3c5b26c-e834-4db6-994b-52abb31f20f1"},"vehicle_type_id":"4","last_reported":1752243106,"current_range_meters":12800,"station_id":"ce4bhnp2rcd13ifvqgvg","pricing_plan_id":"cebpf4jnsgd1na2vs0mg"},{"bike_id":"2c702aa4-2ac5-4550-b697-5b3cdcd314b3","system_id":"levelo_inurba_marseille","lat":43.32061,"lon":5.41599,"is_reserved":false,"is_disabled":false,"rental_uris":{"android":"levelo://app?vid=2c702aa4-2ac5-4550-b697-5b3cdcd314b3","ios":"levelo://app?vid=2c702aa4-2ac5-4550-b697-5b3cdcd314b3"},"vehicle_type_id":"4","last_reported":1752243106,"current_range_meters":12800,"station_id":"ce4bhq92rcd13ifvqhkg","pricing_plan_id":"cebpf4jnsgd1na2vs0mg"},{"bike_id":"7ba2ba0c-38e9-47e7-b93f-11e0e30c9c7a","system_id":"levelo_inurba_marseille","lat":43.30154,"lon":5.38088,"is_reserved":false,"is_disabled":false,"rental_uris":{"android":"levelo://app?vid=7ba2ba0c-38e9-47e7-b93f-11e0e30c9c7a","ios":"levelo://app?vid=7ba2ba0c-38e9-47e7-b93f-11e0e30c9c7a"},"vehicle_type_id":"4","last_reported":1752243106,"current_range_meters":12800,"station_id":"ce4bgjp2rcd13ifvqbh0","pricing_plan_id":"cebpf4jnsgd1na2vs0mg"},{"bike_id":"d849a247-c2c0-4619-bac8-f5a6994e0014","system_id":"levelo_inurba_marseille","lat":43.320384,"lon":5.415672,"is_reserved":false,"is_disabled":true,"rental_uris":{"android":"levelo://app?vid=d849a247-c2c0-4619-bac8-f5a6994e0014","ios":"levelo://app?vid=d849a247-c2c0-4619-bac8-f5a6994e0014"},"vehicle_type_id":"4","last_reported":1752243106,"current_range_meters":12800,"station_id":"ce4bhq92rcd13ifvqhkg","pricing_plan_id":"cebpf4jnsgd1na2vs0mg"},{"bike_id":"c74b27ee-3cfc-4e11-b4c4-f418cd2e9569","system_id":"levelo_inurba_marseille","lat":43.24171,"lon":5.36407,"is_reserved":false,"is_disabled":false,"rental_uris":{"android":"levelo://app?vid=c74b27ee-3cfc-4e11-b4c4-f418cd2e9569","ios":"levelo://app?vid=c74b27ee-3cfc-4e11-b4c4-f418cd2e9569"},"vehicle_type_id":"4","last_reported":1752243106,"current_range_meters":12800,"station_id":"cpo36qri1sfpv3e86is0","pricing_plan_id":"cebpf4jnsgd1na2vs0mg"},{"bike_id":"413291cd-c6e4-485e-bee8-59bdfae9ad4c","system_id":"levelo_inurba_marseille","lat":43.29369,"lon":5.37853,"is_reserved":false,"is_disabled":false,"rental_uris":{"android":"levelo://app?vid=413291cd-c6e4-485e-bee8-59bdfae9ad4c","ios":"levelo://app?vid=413291cd-c6e4-485e-bee8-59bdfae9ad4c"},"vehicle_type_id":"4","last_reported":1752243106,"current_range_meters":12800,"station_id":"ce4bgjh2rcd13ifvqbf0","pricing_plan_id":"cebpf4jnsgd1na2vs0mg"},{"bike_id":"b6ed2786-52dc-464f-baf8-e05ea2eb6d24","system_id":"levelo_inurba_marseille","lat":43.33025,"lon":5.39034,"is_reserved":false,"is_disabled":false,"rental_uris":{"android":"levelo://app?vid=b6ed2786-52dc-464f-baf8-e05ea2eb6d24","ios":"levelo://app?vid=b6ed2786-52dc-464f-baf8-e05ea2eb6d24"},"vehicle_type_id":"4","last_reported":1752243106,"current_range_meters":12800,"station_id":"ce4bhr92rcd13ifvqhrg","pricing_plan_id":"cebpf4jnsgd1na2vs0mg"},{"bike_id":"04f71c00-6a94-4b31-ab0a-70edb9f20557","system_id":"levelo_inurba_marseille","lat":43.30263,"lon":5.39847,"is_reserved":false,"is_disabled":false,"rental_uris":{"android":"levelo://app?vid=04f71c00-6a94-4b31-ab0a-70edb9f20557","ios":"levelo://app?vid=04f71c00-6a94-4b31-ab0a-70edb9f20557"},"vehicle_type_id":"4","last_reported":1752243106,"current_range_meters":13600,"station_id":"","pricing_plan_id":"cebpf4jnsgd1na2vs0mg"},{"bike_id":"823ef37f-20a8-4c39-8134-3e6a506b1235","system_id":"levelo_inurba_marseille","lat":43.23192,"lon":5.35556,"is_reserved":false,"is_disabled":false,"rental_uris":{"android":"levelo://app?vid=823ef37f-20a8-4c39-8134-3e6a506b1235","ios":"levelo://app?vid=823ef37f-20a8-4c39-8134-3e6a506b1235"},"vehicle_type_id":"4","last_reported":1752243106,"current_range_meters":13600,"station_id":"ce4bhu92rcd13ifvqi70","pricing_plan_id":"cebpf4jnsgd1na2vs0mg"},{"bike_id":"4464c91a-b8cf-48b1-82b6-b9f3398a5c02","system_id":"levelo_inurba_marseille","lat":43.28403,"lon":5.34998,"is_reserved":false,"is_disabled":false,"rental_uris":{"android":"levelo://app?vid=4464c91a-b8cf-48b1-82b6-b9f3398a5c02","ios":"levelo://app?vid=4464c91a-b8cf-48b1-82b6-b9f3398a5c02"},"vehicle_type_id":"4","last_reported":1752243106,"current_range_meters":13600,"station_id":"ce4bhbh2rcd13ifvqepg","pricing_plan_id":"cebpf4jnsgd1na2vs0mg"},{"bike_id":"4d4b9e28-a4f6-4d45-ac6b-64a63a768bd8","system_id":"levelo_inurba_marseille","lat":43.31518,"lon":5.37405,"is_reserved":false,"is_disabled":false,"rental_uris":{"android":"levelo://app?vid=4d4b9e28-a4f6-4d45-ac6b-64a63a768bd8","ios":"levelo://app?vid=4d4b9e28-a4f6-4d45-ac6b-64a63a768bd8"},"vehicle_type_id":"4","last_reported":1752243106,"current_range_meters":14000,"station_id":"","pricing_plan_id":"cebpf4jnsgd1na2vs0mg"},{"bike_id":"dcc5af8d-152f-4f47-9491-dd69e3f36aa1","system_id":"levelo_inurba_marseille","lat":43.25495,"lon":5.37644,"is_reserved":false,"is_disabled":false,"rental_uris":{"android":"levelo://app?vid=dcc5af8d-152f-4f47-9491-dd69e3f36aa1","ios":"levelo://app?vid=dcc5af8d-152f-4f47-9491-dd69e3f36aa1"},"vehicle_type_id":"4","last_reported":1752243106,"current_range_meters":14000,"station_id":"ce4bhh12rcd13ifvqff0","pricing_plan_id":"cebpf4jnsgd1na2vs0mg"},{"bike_id":"6e44525d-ed45-445a-a877-081b94eb5813","system_id":"levelo_inurba_marseille","lat":43.303539,"lon":5.41887,"is_reserved":false,"is_disabled":true,"rental_uris":{"android":"levelo://app?vid=6e44525d-ed45-445a-a877-081b94eb5813","ios":"levelo://app?vid=6e44525d-ed45-445a-a877-081b94eb5813"},"vehicle_type_id":"4","last_reported":1752243106,"current_range_meters":14000,"station_id":"ce4bhop2rcd13ifvqh7g","pricing_plan_id":"cebpf4jnsgd1na2vs0mg"},{"bike_id":"0d5d7a35-c1e1-4d7f-8cc0-1151e6ed7261","system_id":"levelo_inurba_marseille","lat":43.27065,"lon":5.40248,"is_reserved":false,"is_disabled":false,"rental_uris":{"android":"levelo://app?vid=0d5d7a35-c1e1-4d7f-8cc0-1151e6ed7261","ios":"levelo://app?vid=0d5d7a35-c1e1-4d7f-8cc0-1151e6ed7261"},"vehicle_type_id":"4","last_reported":1752243106,"current_range_meters":14000,"station_id":"ce4bhk92rcd13ifvqgc0","pricing_plan_id":"cebpf4jnsgd1na2vs0mg"},{"bike_id":"e496fdfa-8d3f-4139-8473-105bc2dd9739","system_id":"levelo_inurba_marseille","lat":43.30283,"lon":5.37705,"is_reserved":false,"is_disabled":false,"rental_uris":{"android":"levelo://app?vid=e496fdfa-8d3f-4139-8473-105bc2dd9739","ios":"levelo://app?vid=e496fdfa-8d3f-4139-8473-105bc2dd9739"},"vehicle_type_id":"4","last_reported":1752243106,"current_range_meters":14000,"station_id":"ce4bguh2rcd13ifvqcj0","pricing_plan_id":"cebpf4jnsgd1na2vs0mg"},{"bike_id":"d263de9c-115f-417f-977b-8d0ef8cd06ed","system_id":"levelo_inurba_marseille","lat":43.30539,"lon":5.36702,"is_reserved":false,"is_disabled":false,"rental_uris":{"android":"levelo://app?vid=d263de9c-115f-417f-977b-8d0ef8cd06ed","ios":"levelo://app?vid=d263de9c-115f-417f-977b-8d0ef8cd06ed"},"vehicle_type_id":"4","last_reported":1752243106,"current_range_meters":14400,"station_id":"ce4bh312rcd13ifvqdj0","pricing_plan_id":"cebpf4jnsgd1na2vs0mg"},{"bike_id":"595e9351-a7ce-45de-8995-771f7d9fe86e","system_id":"levelo_inurba_marseille","lat":43.309243,"lon":5.378088,"is_reserved":false,"is_disabled":false,"rental_uris":{"android":"levelo://app?vid=595e9351-a7ce-45de-8995-771f7d9fe86e","ios":"levelo://app?vid=595e9351-a7ce-45de-8995-771f7d9fe86e"},"vehicle_type_id":"4","last_reported":1752243106,"current_range_meters":14400,"station_id":"","pricing_plan_id":"cebpf4jnsgd1na2vs0mg"},{"bike_id":"5d1b0625-7a0c-46e7-b490-227a5127e928","system_id":"levelo_inurba_marseille","lat":43.27381,"lon":5.36263,"is_reserved":false,"is_disabled":false,"rental_uris":{"android":"levelo://app?vid=5d1b0625-7a0c-46e7-b490-227a5127e928","ios":"levelo://app?vid=5d1b0625-7a0c-46e7-b490-227a5127e928"},"vehicle_type_id":"4","last_reported":1752243106,"current_range_meters":14400,"station_id":"ce4bhbh2rcd13ifvqeo0","pricing_plan_id":"cebpf4jnsgd1na2vs0mg"},{"bike_id":"e3a75ee9-c614-467b-8cc2-f813bcef2ab1","system_id":"levelo_inurba_marseille","lat":43.33743,"lon":5.3919,"is_reserved":false,"is_disabled":false,"rental_uris":{"android":"levelo://app?vid=e3a75ee9-c614-467b-8cc2-f813bcef2ab1","ios":"levelo://app?vid=e3a75ee9-c614-467b-8cc2-f813bcef2ab1"},"vehicle_type_id":"4","last_reported":1752243106,"current_range_meters":14400,"station_id":"ce4bhr92rcd13ifvqhsg","pricing_plan_id":"cebpf4jnsgd1na2vs0mg"},{"bike_id":"dc745791-e4b0-4e9a-bf26-a83de36e49d9","system_id":"levelo_inurba_marseille","lat":43.28614,"lon":5.35095,"is_reserved":false,"is_disabled":false,"rental_uris":{"android":"levelo://app?vid=dc745791-e4b0-4e9a-bf26-a83de36e49d9","ios":"levelo://app?vid=dc745791-e4b0-4e9a-bf26-a83de36e49d9"},"vehicle_type_id":"4","last_reported":1752243106,"current_range_meters":14400,"station_id":"ce4bhch2rcd13ifvqeug","pricing_plan_id":"cebpf4jnsgd1na2vs0mg"},{"bike_id":"244c957b-2609-41a3-a1c7-85aa6f905e1b","system_id":"levelo_inurba_marseille","lat":43.24663,"lon":5.38169,"is_reserved":false,"is_disabled":false,"rental_uris":{"android":"levelo://app?vid=244c957b-2609-41a3-a1c7-85aa6f905e1b","ios":"levelo://app?vid=244c957b-2609-41a3-a1c7-85aa6f905e1b"},"vehicle_type_id":"4","last_reported":1752243106,"current_range_meters":14400,"station_id":"ce4bhih2rcd13ifvqfr0","pricing_plan_id":"cebpf4jnsgd1na2vs0mg"},{"bike_id":"4cbd8612-f2cb-4960-bc03-42cf783b6414","system_id":"levelo_inurba_marseille","lat":43.28465,"lon":5.35885,"is_reserved":false,"is_disabled":false,"rental_uris":{"android":"levelo://app?vid=4cbd8612-f2cb-4960-bc03-42cf783b6414","ios":"levelo://app?vid=4cbd8612-f2cb-4960-bc03-42cf783b6414"},"vehicle_type_id":"4","last_reported":1752243106,"current_range_meters":14400,"station_id":"ce4bhah2rcd13ifvqei0","pricing_plan_id":"cebpf4jnsgd1na2vs0mg"},{"bike_id":"ae1eb4f4-9820-4a58-84cd-ac8ab6ae674d","system_id":"levelo_inurba_marseille","lat":43.2408,"lon":5.37749,"is_reserved":false,"is_disabled":false,"rental_uris":{"android":"levelo://app?vid=ae1eb4f4-9820-4a58-84cd-ac8ab6ae674d","ios":"levelo://app?vid=ae1eb4f4-9820-4a58-84cd-ac8ab6ae674d"},"vehicle_type_id":"4","last_reported":1752243106,"current_range_meters":14800,"station_id":"ce4bhnp2rcd13ifvqgvg","pricing_plan_id":"cebpf4jnsgd1na2vs0mg"},{"bike_id":"fad14886-ef7b-4dae-bfe1-14bebdf9dcfc","system_id":"levelo_inurba_marseille","lat":43.31722,"lon":5.42392,"is_reserved":false,"is_disabled":false,"rental_uris":{"android":"levelo://app?vid=fad14886-ef7b-4dae-bfe1-14bebdf9dcfc","ios":"levelo://app?vid=fad14886-ef7b-4dae-bfe1-14bebdf9dcfc"},"vehicle_type_id":"4","last_reported":1752243106,"current_range_meters":14800,"station_id":"ce4bhp92rcd13ifvqhbg","pricing_plan_id":"cebpf4jnsgd1na2vs0mg"},{"bike_id":"5423e7d5-07f9-4264-9d42-219884898d7f","system_id":"levelo_inurba_marseille","lat":43.24171,"lon":5.36396,"is_reserved":false,"is_disabled":false,"rental_uris":{"android":"levelo://app?vid=5423e7d5-07f9-4264-9d42-219884898d7f","ios":"levelo://app?vid=5423e7d5-07f9-4264-9d42-219884898d7f"},"vehicle_type_id":"4","last_reported":1752243106,"current_range_meters":14800,"station_id":"cpo36qri1sfpv3e86is0","pricing_plan_id":"cebpf4jnsgd1na2vs0mg"},{"bike_id":"5cad2ec5-7ed5-4389-ac32-99120399fa7b","system_id":"levelo_inurba_marseille","lat":43.29575,"lon":5.37514,"is_reserved":false,"is_disabled":false,"rental_uris":{"android":"levelo://app?vid=5cad2ec5-7ed5-4389-ac32-99120399fa7b","ios":"levelo://app?vid=5cad2ec5-7ed5-4389-ac32-99120399fa7b"},"vehicle_type_id":"4","last_reported":1752243106,"current_range_meters":14800,"station_id":"ce4bgh92rcd13ifvqb50","pricing_plan_id":"cebpf4jnsgd1na2vs0mg"},{"bike_id":"3883a5dc-b796-4dc5-9ea2-668aa81bbb7b","system_id":"levelo_inurba_marseille","lat":43.2972,"lon":5.36608,"is_reserved":false,"is_disabled":false,"rental_uris":{"android":"levelo://app?vid=3883a5dc-b796-4dc5-9ea2-668aa81bbb7b","ios":"levelo://app?vid=3883a5dc-b796-4dc5-9ea2-668aa81bbb7b"},"vehicle_type_id":"4","last_reported":1752243106,"current_range_meters":14800,"station_id":"ce4bgn12rcd13ifvqbt0","pricing_plan_id":"cebpf4jnsgd1na2vs0mg"},{"bike_id":"7cd666c0-4b35-4ff6-aae1-142a6e84e34a","system_id":"levelo_inurba_marseille","lat":43.26946,"lon":5.38635,"is_reserved":false,"is_disabled":false,"rental_uris":{"android":"levelo://app?vid=7cd666c0-4b35-4ff6-aae1-142a6e84e34a","ios":"levelo://app?vid=7cd666c0-4b35-4ff6-aae1-142a6e84e34a"},"vehicle_type_id":"4","last_reported":1752243106,"current_range_meters":15200,"station_id":"ce4bhh92rcd13ifvqfh0","pricing_plan_id":"cebpf4jnsgd1na2vs0mg"},{"bike_id":"fd9f5c27-5d58-42e5-badc-a12a0344229e","system_id":"levelo_inurba_marseille","lat":43.28921,"lon":5.36072,"is_reserved":false,"is_disabled":false,"rental_uris":{"android":"levelo://app?vid=fd9f5c27-5d58-42e5-badc-a12a0344229e","ios":"levelo://app?vid=fd9f5c27-5d58-42e5-badc-a12a0344229e"},"vehicle_type_id":"4","last_reported":1752243106,"current_range_meters":15200,"station_id":"","pricing_plan_id":"cebpf4jnsgd1na2vs0mg"},{"bike_id":"530fdaa0-3dcf-48bd-ae6d-18f67ca1c283","system_id":"levelo_inurba_marseille","lat":43.297111,"lon":5.366155,"is_reserved":false,"is_disabled":false,"rental_uris":{"android":"levelo://app?vid=530fdaa0-3dcf-48bd-ae6d-18f67ca1c283","ios":"levelo://app?vid=530fdaa0-3dcf-48bd-ae6d-18f67ca1c283"},"vehicle_type_id":"4","last_reported":1752243106,"current_range_meters":15200,"station_id":"","pricing_plan_id":"cebpf4jnsgd1na2vs0mg"},{"bike_id":"647a1903-1834-4730-b34e-6397917620f0","system_id":"levelo_inurba_marseille","lat":43.31667,"lon":5.37024,"is_reserved":false,"is_disabled":false,"rental_uris":{"android":"levelo://app?vid=647a1903-1834-4730-b34e-6397917620f0","ios":"levelo://app?vid=647a1903-1834-4730-b34e-6397917620f0"},"vehicle_type_id":"4","last_reported":1752243106,"current_range_meters":15200,"station_id":"","pricing_plan_id":"cebpf4jnsgd1na2vs0mg"},{"bike_id":"f4ebd1b3-708e-4727-afed-095e5c08156c","system_id":"levelo_inurba_marseille","lat":43.30543,"lon":5.36715,"is_reserved":false,"is_disabled":false,"rental_uris":{"android":"levelo://app?vid=f4ebd1b3-708e-4727-afed-095e5c08156c","ios":"levelo://app?vid=f4ebd1b3-708e-4727-afed-095e5c08156c"},"vehicle_type_id":"4","last_reported":1752243106,"current_range_meters":15200,"station_id":"ce4bgrp2rcd13ifvqc9g","pricing_plan_id":"cebpf4jnsgd1na2vs0mg"},{"bike_id":"f993caa3-ade3-4fe5-9ef4-5c02d19b5b3b","system_id":"levelo_inurba_marseille","lat":43.2842,"lon":5.35001,"is_reserved":false,"is_disabled":false,"rental_uris":{"android":"levelo://app?vid=f993caa3-ade3-4fe5-9ef4-5c02d19b5b3b","ios":"levelo://app?vid=f993caa3-ade3-4fe5-9ef4-5c02d19b5b3b"},"vehicle_type_id":"4","last_reported":1752243106,"current_range_meters":15200,"station_id":"ce4bhbh2rcd13ifvqepg","pricing_plan_id":"cebpf4jnsgd1na2vs0mg"},{"bike_id":"c1d4fa30-fa11-4c1d-8b18-ad6d5767504c","system_id":"levelo_inurba_marseille","lat":43.28425,"lon":5.3499,"is_reserved":false,"is_disabled":false,"rental_uris":{"android":"levelo://app?vid=c1d4fa30-fa11-4c1d-8b18-ad6d5767504c","ios":"levelo://app?vid=c1d4fa30-fa11-4c1d-8b18-ad6d5767504c"},"vehicle_type_id":"4","last_reported":1752243106,"current_range_meters":15200,"station_id":"ce4bhbh2rcd13ifvqepg","pricing_plan_id":"cebpf4jnsgd1na2vs0mg"},{"bike_id":"09086e52-b0ae-441c-bfa9-ae69c2fd0d1c","system_id":"levelo_inurba_marseille","lat":43.21746,"lon":5.34607,"is_reserved":false,"is_disabled":false,"rental_uris":{"android":"levelo://app?vid=09086e52-b0ae-441c-bfa9-ae69c2fd0d1c","ios":"levelo://app?vid=09086e52-b0ae-441c-bfa9-ae69c2fd0d1c"},"vehicle_type_id":"4","last_reported":1752243106,"current_range_meters":15200,"station_id":"st_cvj6r9ubvosntc0bgbag","pricing_plan_id":"cebpf4jnsgd1na2vs0mg"},{"bike_id":"544ec108-796d-413d-8a7c-7e4ffa805fe3","system_id":"levelo_inurba_marseille","lat":43.27359,"lon":5.39265,"is_reserved":false,"is_disabled":false,"rental_uris":{"android":"levelo://app?vid=544ec108-796d-413d-8a7c-7e4ffa805fe3","ios":"levelo://app?vid=544ec108-796d-413d-8a7c-7e4ffa805fe3"},"vehicle_type_id":"4","last_reported":1752243106,"current_range_meters":15200,"station_id":"","pricing_plan_id":"cebpf4jnsgd1na2vs0mg"},{"bike_id":"2f8a5f2d-3e40-49a3-af7d-3f339ed1b4f8","system_id":"levelo_inurba_marseille","lat":43.31703,"lon":5.37768,"is_reserved":false,"is_disabled":false,"rental_uris":{"android":"levelo://app?vid=2f8a5f2d-3e40-49a3-af7d-3f339ed1b4f8","ios":"levelo://app?vid=2f8a5f2d-3e40-49a3-af7d-3f339ed1b4f8"},"vehicle_type_id":"4","last_reported":1752243106,"current_range_meters":15200,"station_id":"ce4bgth2rcd13ifvqch0","pricing_plan_id":"cebpf4jnsgd1na2vs0mg"},{"bike_id":"563a2f36-0300-4e0c-b6a3-0777a20e590c","system_id":"levelo_inurba_marseille","lat":43.21191,"lon":5.35073,"is_reserved":false,"is_disabled":false,"rental_uris":{"android":"levelo://app?vid=563a2f36-0300-4e0c-b6a3-0777a20e590c","ios":"levelo://app?vid=563a2f36-0300-4e0c-b6a3-0777a20e590c"},"vehicle_type_id":"4","last_reported":1752243106,"current_range_meters":15200,"station_id":"st_cvj6sg6p6f1abm77japg","pricing_plan_id":"cebpf4jnsgd1na2vs0mg"},{"bike_id":"e8e03632-b9d1-480f-a4da-da482a543464","system_id":"levelo_inurba_marseille","lat":43.290483,"lon":5.375647,"is_reserved":false,"is_disabled":true,"rental_uris":{"android":"levelo://app?vid=e8e03632-b9d1-480f-a4da-da482a543464","ios":"levelo://app?vid=e8e03632-b9d1-480f-a4da-da482a543464"},"vehicle_type_id":"4","last_reported":1752243106,"current_range_meters":16000,"station_id":"ce4bh692rcd13ifvqe90","pricing_plan_id":"cebpf4jnsgd1na2vs0mg"},{"bike_id":"af1819b1-8372-4d28-8a44-2c765994d260","system_id":"levelo_inurba_marseille","lat":43.32363,"lon":5.38875,"is_reserved":false,"is_disabled":false,"rental_uris":{"android":"levelo://app?vid=af1819b1-8372-4d28-8a44-2c765994d260","ios":"levelo://app?vid=af1819b1-8372-4d28-8a44-2c765994d260"},"vehicle_type_id":"4","last_reported":1752243106,"current_range_meters":16000,"station_id":"ce4bhqp2rcd13ifvqhog","pricing_plan_id":"cebpf4jnsgd1na2vs0mg"},{"bike_id":"a9001741-1745-49c0-afeb-e7f128011c9f","system_id":"levelo_inurba_marseille","lat":43.28409,"lon":5.34978,"is_reserved":false,"is_disabled":false,"rental_uris":{"android":"levelo://app?vid=a9001741-1745-49c0-afeb-e7f128011c9f","ios":"levelo://app?vid=a9001741-1745-49c0-afeb-e7f128011c9f"},"vehicle_type_id":"4","last_reported":1752243106,"current_range_meters":16000,"station_id":"ce4bhbh2rcd13ifvqepg","pricing_plan_id":"cebpf4jnsgd1na2vs0mg"},{"bike_id":"85758837-e8e8-429b-9b62-411361adebf1","system_id":"levelo_inurba_marseille","lat":43.31756,"lon":5.39019,"is_reserved":false,"is_disabled":true,"rental_uris":{"android":"levelo://app?vid=85758837-e8e8-429b-9b62-411361adebf1","ios":"levelo://app?vid=85758837-e8e8-429b-9b62-411361adebf1"},"vehicle_type_id":"4","last_reported":1752243106,"current_range_meters":16000,"station_id":"ce4bhqp2rcd13ifvqhng","pricing_plan_id":"cebpf4jnsgd1na2vs0mg"},{"bike_id":"dafa5a87-b26d-4379-9a6b-1f02133b78a6","system_id":"levelo_inurba_marseille","lat":43.21182,"lon":5.35066,"is_reserved":false,"is_disabled":false,"rental_uris":{"android":"levelo://app?vid=dafa5a87-b26d-4379-9a6b-1f02133b78a6","ios":"levelo://app?vid=dafa5a87-b26d-4379-9a6b-1f02133b78a6"},"vehicle_type_id":"4","last_reported":1752243106,"current_range_meters":16000,"station_id":"st_cvj6sg6p6f1abm77japg","pricing_plan_id":"cebpf4jnsgd1na2vs0mg"},{"bike_id":"eda0ea69-6404-43e6-9ede-2655d170d444","system_id":"levelo_inurba_marseille","lat":43.28911,"lon":5.35794,"is_reserved":false,"is_disabled":false,"rental_uris":{"android":"levelo://app?vid=eda0ea69-6404-43e6-9ede-2655d170d444","ios":"levelo://app?vid=eda0ea69-6404-43e6-9ede-2655d170d444"},"vehicle_type_id":"4","last_reported":1752243106,"current_range_meters":16000,"station_id":"ce4bhb12rcd13ifvqem0","pricing_plan_id":"cebpf4jnsgd1na2vs0mg"},{"bike_id":"ed357826-d1c2-4ba2-87ca-9977c07889f0","system_id":"levelo_inurba_marseille","lat":43.30801,"lon":5.38139,"is_reserved":false,"is_disabled":false,"rental_uris":{"android":"levelo://app?vid=ed357826-d1c2-4ba2-87ca-9977c07889f0","ios":"levelo://app?vid=ed357826-d1c2-4ba2-87ca-9977c07889f0"},"vehicle_type_id":"4","last_reported":1752243106,"current_range_meters":16000,"station_id":"ce4bgt12rcd13ifvqce0","pricing_plan_id":"cebpf4jnsgd1na2vs0mg"},{"bike_id":"0de00d79-2cba-4966-93fd-542c98181f93","system_id":"levelo_inurba_marseille","lat":43.28617,"lon":5.35103,"is_reserved":false,"is_disabled":false,"rental_uris":{"android":"levelo://app?vid=0de00d79-2cba-4966-93fd-542c98181f93","ios":"levelo://app?vid=0de00d79-2cba-4966-93fd-542c98181f93"},"vehicle_type_id":"4","last_reported":1752243106,"current_range_meters":16400,"station_id":"ce4bhch2rcd13ifvqeug","pricing_plan_id":"cebpf4jnsgd1na2vs0mg"},{"bike_id":"6b465ee5-e09a-471f-adcd-4c6d7399b408","system_id":"levelo_inurba_marseille","lat":43.29197,"lon":5.35813,"is_reserved":false,"is_disabled":false,"rental_uris":{"android":"levelo://app?vid=6b465ee5-e09a-471f-adcd-4c6d7399b408","ios":"levelo://app?vid=6b465ee5-e09a-471f-adcd-4c6d7399b408"},"vehicle_type_id":"4","last_reported":1752243106,"current_range_meters":16400,"station_id":"ce4bhb12rcd13ifvqel0","pricing_plan_id":"cebpf4jnsgd1na2vs0mg"},{"bike_id":"8929c1bf-fd4d-44e4-aa66-b3eb6538c998","system_id":"levelo_inurba_marseille","lat":43.28575,"lon":5.42967,"is_reserved":false,"is_disabled":false,"rental_uris":{"android":"levelo://app?vid=8929c1bf-fd4d-44e4-aa66-b3eb6538c998","ios":"levelo://app?vid=8929c1bf-fd4d-44e4-aa66-b3eb6538c998"},"vehicle_type_id":"4","last_reported":1752243106,"current_range_meters":16400,"station_id":"","pricing_plan_id":"cebpf4jnsgd1na2vs0mg"},{"bike_id":"e9fd0cf8-573b-4177-88a6-f1faf33e8aca","system_id":"levelo_inurba_marseille","lat":43.29039,"lon":5.35625,"is_reserved":false,"is_disabled":true,"rental_uris":{"android":"levelo://app?vid=e9fd0cf8-573b-4177-88a6-f1faf33e8aca","ios":"levelo://app?vid=e9fd0cf8-573b-4177-88a6-f1faf33e8aca"},"vehicle_type_id":"4","last_reported":1752243106,"current_range_meters":16400,"station_id":"ce4bhb92rcd13ifvqen0","pricing_plan_id":"cebpf4jnsgd1na2vs0mg"},{"bike_id":"43b90c82-97e0-4fa7-8b67-2448f07d529e","system_id":"levelo_inurba_marseille","lat":43.21193,"lon":5.35066,"is_reserved":false,"is_disabled":false,"rental_uris":{"android":"levelo://app?vid=43b90c82-97e0-4fa7-8b67-2448f07d529e","ios":"levelo://app?vid=43b90c82-97e0-4fa7-8b67-2448f07d529e"},"vehicle_type_id":"4","last_reported":1752243106,"current_range_meters":16400,"station_id":"","pricing_plan_id":"cebpf4jnsgd1na2vs0mg"},{"bike_id":"610a0ba6-a235-4072-b81d-7ac5157e0390","system_id":"levelo_inurba_marseille","lat":43.26214,"lon":5.37442,"is_reserved":false,"is_disabled":false,"rental_uris":{"android":"levelo://app?vid=610a0ba6-a235-4072-b81d-7ac5157e0390","ios":"levelo://app?vid=610a0ba6-a235-4072-b81d-7ac5157e0390"},"vehicle_type_id":"4","last_reported":1752243106,"current_range_meters":16400,"station_id":"ce4bhgp2rcd13ifvqfc0","pricing_plan_id":"cebpf4jnsgd1na2vs0mg"},{"bike_id":"45bf7bb2-07d1-4864-86fe-8e74a893ff6b","system_id":"levelo_inurba_marseille","lat":43.28415,"lon":5.34999,"is_reserved":false,"is_disabled":false,"rental_uris":{"android":"levelo://app?vid=45bf7bb2-07d1-4864-86fe-8e74a893ff6b","ios":"levelo://app?vid=45bf7bb2-07d1-4864-86fe-8e74a893ff6b"},"vehicle_type_id":"4","last_reported":1752243106,"current_range_meters":16400,"station_id":"ce4bhbh2rcd13ifvqepg","pricing_plan_id":"cebpf4jnsgd1na2vs0mg"},{"bike_id":"d05e987d-6766-4c70-b7d6-4c4ecf5a7258","system_id":"levelo_inurba_marseille","lat":43.284105,"lon":5.349832,"is_reserved":false,"is_disabled":false,"rental_uris":{"android":"levelo://app?vid=d05e987d-6766-4c70-b7d6-4c4ecf5a7258","ios":"levelo://app?vid=d05e987d-6766-4c70-b7d6-4c4ecf5a7258"},"vehicle_type_id":"4","last_reported":1752243106,"current_range_meters":16400,"station_id":"ce4bhbh2rcd13ifvqepg","pricing_plan_id":"cebpf4jnsgd1na2vs0mg"},{"bike_id":"609d5099-9f7c-41ee-a7cb-7024254a72d9","system_id":"levelo_inurba_marseille","lat":43.27377,"lon":5.36258,"is_reserved":false,"is_disabled":false,"rental_uris":{"android":"levelo://app?vid=609d5099-9f7c-41ee-a7cb-7024254a72d9","ios":"levelo://app?vid=609d5099-9f7c-41ee-a7cb-7024254a72d9"},"vehicle_type_id":"4","last_reported":1752243106,"current_range_meters":16400,"station_id":"ce4bhbh2rcd13ifvqeo0","pricing_plan_id":"cebpf4jnsgd1na2vs0mg"},{"bike_id":"1bf36ecd-a9d1-40cf-8c8b-89fa3acf5601","system_id":"levelo_inurba_marseille","lat":43.2736,"lon":5.36251,"is_reserved":false,"is_disabled":false,"rental_uris":{"android":"levelo://app?vid=1bf36ecd-a9d1-40cf-8c8b-89fa3acf5601","ios":"levelo://app?vid=1bf36ecd-a9d1-40cf-8c8b-89fa3acf5601"},"vehicle_type_id":"4","last_reported":1752243106,"current_range_meters":16400,"station_id":"ce4bhbh2rcd13ifvqeo0","pricing_plan_id":"cebpf4jnsgd1na2vs0mg"},{"bike_id":"7b5cd6ce-df57-4328-854d-cb2d1407ab18","system_id":"levelo_inurba_marseille","lat":43.33099,"lon":5.39026,"is_reserved":false,"is_disabled":false,"rental_uris":{"android":"levelo://app?vid=7b5cd6ce-df57-4328-854d-cb2d1407ab18","ios":"levelo://app?vid=7b5cd6ce-df57-4328-854d-cb2d1407ab18"},"vehicle_type_id":"4","last_reported":1752243106,"current_range_meters":16400,"station_id":"","pricing_plan_id":"cebpf4jnsgd1na2vs0mg"},{"bike_id":"05615dde-ce6b-4b57-84a9-3d14f0a2bba0","system_id":"levelo_inurba_marseille","lat":43.29785,"lon":5.37101,"is_reserved":false,"is_disabled":false,"rental_uris":{"android":"levelo://app?vid=05615dde-ce6b-4b57-84a9-3d14f0a2bba0","ios":"levelo://app?vid=05615dde-ce6b-4b57-84a9-3d14f0a2bba0"},"vehicle_type_id":"4","last_reported":1752243106,"current_range_meters":16400,"station_id":"ce4bgop2rcd13ifvqc1g","pricing_plan_id":"cebpf4jnsgd1na2vs0mg"},{"bike_id":"05662ace-c268-4e48-916a-515b0a949424","system_id":"levelo_inurba_marseille","lat":43.29196,"lon":5.35795,"is_reserved":false,"is_disabled":false,"rental_uris":{"android":"levelo://app?vid=05662ace-c268-4e48-916a-515b0a949424","ios":"levelo://app?vid=05662ace-c268-4e48-916a-515b0a949424"},"vehicle_type_id":"4","last_reported":1752243106,"current_range_meters":16800,"station_id":"ce4bhb12rcd13ifvqel0","pricing_plan_id":"cebpf4jnsgd1na2vs0mg"},{"bike_id":"e070b844-db3c-4fc1-9e24-a1ebff6a822b","system_id":"levelo_inurba_marseille","lat":43.2873,"lon":5.36083,"is_reserved":false,"is_disabled":false,"rental_uris":{"android":"levelo://app?vid=e070b844-db3c-4fc1-9e24-a1ebff6a822b","ios":"levelo://app?vid=e070b844-db3c-4fc1-9e24-a1ebff6a822b"},"vehicle_type_id":"4","last_reported":1752243106,"current_range_meters":16400,"station_id":"cki0cbj6b192h4jlfktg","pricing_plan_id":"cebpf4jnsgd1na2vs0mg"},{"bike_id":"b07d43c2-34fc-44c4-8eb3-0be6cd118534","system_id":"levelo_inurba_marseille","lat":43.24389,"lon":5.37068,"is_reserved":false,"is_disabled":false,"rental_uris":{"android":"levelo://app?vid=b07d43c2-34fc-44c4-8eb3-0be6cd118534","ios":"levelo://app?vid=b07d43c2-34fc-44c4-8eb3-0be6cd118534"},"vehicle_type_id":"4","last_reported":1752243106,"current_range_meters":16800,"station_id":"ce4bhhh2rcd13ifvqfk0","pricing_plan_id":"cebpf4jnsgd1na2vs0mg"},{"bike_id":"0e42b9fd-9b87-4718-9857-40efd0759df4","system_id":"levelo_inurba_marseille","lat":43.21191,"lon":5.35072,"is_reserved":false,"is_disabled":false,"rental_uris":{"android":"levelo://app?vid=0e42b9fd-9b87-4718-9857-40efd0759df4","ios":"levelo://app?vid=0e42b9fd-9b87-4718-9857-40efd0759df4"},"vehicle_type_id":"4","last_reported":1752243106,"current_range_meters":16800,"station_id":"st_cvj6sg6p6f1abm77japg","pricing_plan_id":"cebpf4jnsgd1na2vs0mg"},{"bike_id":"37b84a38-055a-4a6e-a56a-8ff3d0c1b2ec","system_id":"levelo_inurba_marseille","lat":43.21193,"lon":5.35074,"is_reserved":false,"is_disabled":false,"rental_uris":{"android":"levelo://app?vid=37b84a38-055a-4a6e-a56a-8ff3d0c1b2ec","ios":"levelo://app?vid=37b84a38-055a-4a6e-a56a-8ff3d0c1b2ec"},"vehicle_type_id":"4","last_reported":1752243106,"current_range_meters":16800,"station_id":"st_cvj6sg6p6f1abm77japg","pricing_plan_id":"cebpf4jnsgd1na2vs0mg"},{"bike_id":"60da8230-7552-4766-95b6-a204d159fe83","system_id":"levelo_inurba_marseille","lat":43.2417,"lon":5.36398,"is_reserved":false,"is_disabled":false,"rental_uris":{"android":"levelo://app?vid=60da8230-7552-4766-95b6-a204d159fe83","ios":"levelo://app?vid=60da8230-7552-4766-95b6-a204d159fe83"},"vehicle_type_id":"4","last_reported":1752243106,"current_range_meters":16800,"station_id":"cpo36qri1sfpv3e86is0","pricing_plan_id":"cebpf4jnsgd1na2vs0mg"},{"bike_id":"dbba3321-20c7-4989-a7b5-ea9ab2c4b3e8","system_id":"levelo_inurba_marseille","lat":43.261935,"lon":5.374477,"is_reserved":false,"is_disabled":false,"rental_uris":{"android":"levelo://app?vid=dbba3321-20c7-4989-a7b5-ea9ab2c4b3e8","ios":"levelo://app?vid=dbba3321-20c7-4989-a7b5-ea9ab2c4b3e8"},"vehicle_type_id":"4","last_reported":1752243106,"current_range_meters":16800,"station_id":"ce4bhgp2rcd13ifvqfc0","pricing_plan_id":"cebpf4jnsgd1na2vs0mg"},{"bike_id":"3e80bd6f-44c8-4b0f-a2da-77ee6c540715","system_id":"levelo_inurba_marseille","lat":43.29871,"lon":5.43612,"is_reserved":false,"is_disabled":false,"rental_uris":{"android":"levelo://app?vid=3e80bd6f-44c8-4b0f-a2da-77ee6c540715","ios":"levelo://app?vid=3e80bd6f-44c8-4b0f-a2da-77ee6c540715"},"vehicle_type_id":"4","last_reported":1752243106,"current_range_meters":17200,"station_id":"ce4bhpp2rcd13ifvqhfg","pricing_plan_id":"cebpf4jnsgd1na2vs0mg"},{"bike_id":"660d0764-cec1-45dd-918a-285577c3b881","system_id":"levelo_inurba_marseille","lat":43.29515,"lon":5.394,"is_reserved":false,"is_disabled":false,"rental_uris":{"android":"levelo://app?vid=660d0764-cec1-45dd-918a-285577c3b881","ios":"levelo://app?vid=660d0764-cec1-45dd-918a-285577c3b881"},"vehicle_type_id":"4","last_reported":1752243106,"current_range_meters":17200,"station_id":"ce4bh292rcd13ifvqdf0","pricing_plan_id":"cebpf4jnsgd1na2vs0mg"},{"bike_id":"8fccf46e-4269-459a-bd9a-cdd93f6b32bc","system_id":"levelo_inurba_marseille","lat":43.30362,"lon":5.41867,"is_reserved":false,"is_disabled":true,"rental_uris":{"android":"levelo://app?vid=8fccf46e-4269-459a-bd9a-cdd93f6b32bc","ios":"levelo://app?vid=8fccf46e-4269-459a-bd9a-cdd93f6b32bc"},"vehicle_type_id":"4","last_reported":1752243106,"current_range_meters":17200,"station_id":"ce4bhop2rcd13ifvqh7g","pricing_plan_id":"cebpf4jnsgd1na2vs0mg"},{"bike_id":"4ff4766f-13dc-49b2-bced-7f909eef25ac","system_id":"levelo_inurba_marseille","lat":43.2738,"lon":5.36254,"is_reserved":false,"is_disabled":false,"rental_uris":{"android":"levelo://app?vid=4ff4766f-13dc-49b2-bced-7f909eef25ac","ios":"levelo://app?vid=4ff4766f-13dc-49b2-bced-7f909eef25ac"},"vehicle_type_id":"4","last_reported":1752243106,"current_range_meters":17200,"station_id":"ce4bhbh2rcd13ifvqeo0","pricing_plan_id":"cebpf4jnsgd1na2vs0mg"},{"bike_id":"5f9facdb-d1e1-40e1-8ceb-766e4b9ac193","system_id":"levelo_inurba_marseille","lat":43.21754,"lon":5.345992,"is_reserved":false,"is_disabled":false,"rental_uris":{"android":"levelo://app?vid=5f9facdb-d1e1-40e1-8ceb-766e4b9ac193","ios":"levelo://app?vid=5f9facdb-d1e1-40e1-8ceb-766e4b9ac193"},"vehicle_type_id":"4","last_reported":1752243106,"current_range_meters":17200,"station_id":"","pricing_plan_id":"cebpf4jnsgd1na2vs0mg"},{"bike_id":"eb6a2290-40e2-4780-bdeb-a149c699215d","system_id":"levelo_inurba_marseille","lat":43.27964,"lon":5.41042,"is_reserved":false,"is_disabled":false,"rental_uris":{"android":"levelo://app?vid=eb6a2290-40e2-4780-bdeb-a149c699215d","ios":"levelo://app?vid=eb6a2290-40e2-4780-bdeb-a149c699215d"},"vehicle_type_id":"4","last_reported":1752243106,"current_range_meters":17200,"station_id":"ce4bhnp2rcd13ifvqh0g","pricing_plan_id":"cebpf4jnsgd1na2vs0mg"},{"bike_id":"e86ba8c9-208d-482c-a826-4c100938472a","system_id":"levelo_inurba_marseille","lat":43.21203,"lon":5.35067,"is_reserved":false,"is_disabled":false,"rental_uris":{"android":"levelo://app?vid=e86ba8c9-208d-482c-a826-4c100938472a","ios":"levelo://app?vid=e86ba8c9-208d-482c-a826-4c100938472a"},"vehicle_type_id":"4","last_reported":1752243106,"current_range_meters":17200,"station_id":"st_cvj6sg6p6f1abm77japg","pricing_plan_id":"cebpf4jnsgd1na2vs0mg"},{"bike_id":"8a04fd21-64fa-4c30-ac91-c054cd0ee197","system_id":"levelo_inurba_marseille","lat":43.30141,"lon":5.38101,"is_reserved":false,"is_disabled":false,"rental_uris":{"android":"levelo://app?vid=8a04fd21-64fa-4c30-ac91-c054cd0ee197","ios":"levelo://app?vid=8a04fd21-64fa-4c30-ac91-c054cd0ee197"},"vehicle_type_id":"4","last_reported":1752243106,"current_range_meters":17600,"station_id":"ce4bgjp2rcd13ifvqbh0","pricing_plan_id":"cebpf4jnsgd1na2vs0mg"},{"bike_id":"074836c5-99ee-45cd-a84e-40f6d73844d9","system_id":"levelo_inurba_marseille","lat":43.28412,"lon":5.34989,"is_reserved":false,"is_disabled":false,"rental_uris":{"android":"levelo://app?vid=074836c5-99ee-45cd-a84e-40f6d73844d9","ios":"levelo://app?vid=074836c5-99ee-45cd-a84e-40f6d73844d9"},"vehicle_type_id":"4","last_reported":1752243106,"current_range_meters":17600,"station_id":"ce4bhbh2rcd13ifvqepg","pricing_plan_id":"cebpf4jnsgd1na2vs0mg"},{"bike_id":"5d169770-ab33-4f11-a6ec-09665efde15c","system_id":"levelo_inurba_marseille","lat":43.30543,"lon":5.36692,"is_reserved":false,"is_disabled":false,"rental_uris":{"android":"levelo://app?vid=5d169770-ab33-4f11-a6ec-09665efde15c","ios":"levelo://app?vid=5d169770-ab33-4f11-a6ec-09665efde15c"},"vehicle_type_id":"4","last_reported":1752243106,"current_range_meters":17600,"station_id":"ce4bgrp2rcd13ifvqc9g","pricing_plan_id":"cebpf4jnsgd1na2vs0mg"},{"bike_id":"452e8211-4f44-45d0-814a-3e9e25b8c44e","system_id":"levelo_inurba_marseille","lat":43.21193,"lon":5.35073,"is_reserved":false,"is_disabled":false,"rental_uris":{"android":"levelo://app?vid=452e8211-4f44-45d0-814a-3e9e25b8c44e","ios":"levelo://app?vid=452e8211-4f44-45d0-814a-3e9e25b8c44e"},"vehicle_type_id":"4","last_reported":1752243106,"current_range_meters":17600,"station_id":"st_cvj6sg6p6f1abm77japg","pricing_plan_id":"cebpf4jnsgd1na2vs0mg"},{"bike_id":"7a028d80-1ac8-4947-9cc7-6b7c6f6351e4","system_id":"levelo_inurba_marseille","lat":43.3043,"lon":5.38888,"is_reserved":false,"is_disabled":false,"rental_uris":{"android":"levelo://app?vid=7a028d80-1ac8-4947-9cc7-6b7c6f6351e4","ios":"levelo://app?vid=7a028d80-1ac8-4947-9cc7-6b7c6f6351e4"},"vehicle_type_id":"4","last_reported":1752243106,"current_range_meters":17600,"station_id":"ce4bgk12rcd13ifvqbi0","pricing_plan_id":"cebpf4jnsgd1na2vs0mg"},{"bike_id":"a81ede20-43a9-47cd-942d-8fb15c54f5f7","system_id":"levelo_inurba_marseille","lat":43.300686,"lon":5.451635,"is_reserved":false,"is_disabled":false,"rental_uris":{"android":"levelo://app?vid=a81ede20-43a9-47cd-942d-8fb15c54f5f7","ios":"levelo://app?vid=a81ede20-43a9-47cd-942d-8fb15c54f5f7"},"vehicle_type_id":"4","last_reported":1752243106,"current_range_meters":18000,"station_id":"","pricing_plan_id":"cebpf4jnsgd1na2vs0mg"},{"bike_id":"b3e6c6a5-fb76-401d-a2ef-691bd6cf7125","system_id":"levelo_inurba_marseille","lat":43.30086,"lon":5.39076,"is_reserved":false,"is_disabled":false,"rental_uris":{"android":"levelo://app?vid=b3e6c6a5-fb76-401d-a2ef-691bd6cf7125","ios":"levelo://app?vid=b3e6c6a5-fb76-401d-a2ef-691bd6cf7125"},"vehicle_type_id":"4","last_reported":1752243106,"current_range_meters":17600,"station_id":"ce4bh192rcd13ifvqdb0","pricing_plan_id":"cebpf4jnsgd1na2vs0mg"},{"bike_id":"e61fb501-7453-436c-ab77-834960c81efd","system_id":"levelo_inurba_marseille","lat":43.30255,"lon":5.40075,"is_reserved":false,"is_disabled":false,"rental_uris":{"android":"levelo://app?vid=e61fb501-7453-436c-ab77-834960c81efd","ios":"levelo://app?vid=e61fb501-7453-436c-ab77-834960c81efd"},"vehicle_type_id":"4","last_reported":1752243106,"current_range_meters":17600,"station_id":"ce4bgvh2rcd13ifvqcs0","pricing_plan_id":"cebpf4jnsgd1na2vs0mg"},{"bike_id":"902cbc5b-3f0d-4bf0-9879-3dcdb78445aa","system_id":"levelo_inurba_marseille","lat":43.24669,"lon":5.38143,"is_reserved":false,"is_disabled":false,"rental_uris":{"android":"levelo://app?vid=902cbc5b-3f0d-4bf0-9879-3dcdb78445aa","ios":"levelo://app?vid=902cbc5b-3f0d-4bf0-9879-3dcdb78445aa"},"vehicle_type_id":"4","last_reported":1752243106,"current_range_meters":18000,"station_id":"ce4bhih2rcd13ifvqfr0","pricing_plan_id":"cebpf4jnsgd1na2vs0mg"},{"bike_id":"a581eef9-f0fb-4e5d-8be0-84b96bfd2d41","system_id":"levelo_inurba_marseille","lat":43.2937,"lon":5.37852,"is_reserved":false,"is_disabled":true,"rental_uris":{"android":"levelo://app?vid=a581eef9-f0fb-4e5d-8be0-84b96bfd2d41","ios":"levelo://app?vid=a581eef9-f0fb-4e5d-8be0-84b96bfd2d41"},"vehicle_type_id":"4","last_reported":1752243106,"current_range_meters":18000,"station_id":"ce4bgjh2rcd13ifvqbf0","pricing_plan_id":"cebpf4jnsgd1na2vs0mg"},{"bike_id":"61198919-e72c-4fce-bc96-126627987dc0","system_id":"levelo_inurba_marseille","lat":43.29589,"lon":5.37878,"is_reserved":false,"is_disabled":false,"rental_uris":{"android":"levelo://app?vid=61198919-e72c-4fce-bc96-126627987dc0","ios":"levelo://app?vid=61198919-e72c-4fce-bc96-126627987dc0"},"vehicle_type_id":"4","last_reported":1752243106,"current_range_meters":18000,"station_id":"","pricing_plan_id":"cebpf4jnsgd1na2vs0mg"},{"bike_id":"ef666adf-4b9f-47ff-85e8-1c31eb0db337","system_id":"levelo_inurba_marseille","lat":43.29195,"lon":5.35797,"is_reserved":false,"is_disabled":false,"rental_uris":{"android":"levelo://app?vid=ef666adf-4b9f-47ff-85e8-1c31eb0db337","ios":"levelo://app?vid=ef666adf-4b9f-47ff-85e8-1c31eb0db337"},"vehicle_type_id":"4","last_reported":1752243106,"current_range_meters":18000,"station_id":"ce4bhb12rcd13ifvqel0","pricing_plan_id":"cebpf4jnsgd1na2vs0mg"},{"bike_id":"2aa723b1-9ea1-4ac2-80c7-216a9d74c0a8","system_id":"levelo_inurba_marseille","lat":43.21759,"lon":5.34589,"is_reserved":false,"is_disabled":false,"rental_uris":{"android":"levelo://app?vid=2aa723b1-9ea1-4ac2-80c7-216a9d74c0a8","ios":"levelo://app?vid=2aa723b1-9ea1-4ac2-80c7-216a9d74c0a8"},"vehicle_type_id":"4","last_reported":1752243106,"current_range_meters":18000,"station_id":"st_cvj6r9ubvosntc0bgbag","pricing_plan_id":"cebpf4jnsgd1na2vs0mg"},{"bike_id":"16fe5a08-6de8-49dd-8a04-d449558d31f8","system_id":"levelo_inurba_marseille","lat":43.21192,"lon":5.35073,"is_reserved":false,"is_disabled":false,"rental_uris":{"android":"levelo://app?vid=16fe5a08-6de8-49dd-8a04-d449558d31f8","ios":"levelo://app?vid=16fe5a08-6de8-49dd-8a04-d449558d31f8"},"vehicle_type_id":"4","last_reported":1752243106,"current_range_meters":18800,"station_id":"st_cvj6sg6p6f1abm77japg","pricing_plan_id":"cebpf4jnsgd1na2vs0mg"},{"bike_id":"e62040a3-1a56-4866-ac66-66b4dc0b63ed","system_id":"levelo_inurba_marseille","lat":43.2921,"lon":5.35819,"is_reserved":false,"is_disabled":false,"rental_uris":{"android":"levelo://app?vid=e62040a3-1a56-4866-ac66-66b4dc0b63ed","ios":"levelo://app?vid=e62040a3-1a56-4866-ac66-66b4dc0b63ed"},"vehicle_type_id":"4","last_reported":1752243106,"current_range_meters":18000,"station_id":"ce4bhb12rcd13ifvqel0","pricing_plan_id":"cebpf4jnsgd1na2vs0mg"},{"bike_id":"f1d5621b-cd20-43c8-b2c3-ac208a56e5d3","system_id":"levelo_inurba_marseille","lat":43.24982,"lon":5.39639,"is_reserved":false,"is_disabled":false,"rental_uris":{"android":"levelo://app?vid=f1d5621b-cd20-43c8-b2c3-ac208a56e5d3","ios":"levelo://app?vid=f1d5621b-cd20-43c8-b2c3-ac208a56e5d3"},"vehicle_type_id":"4","last_reported":1752243106,"current_range_meters":18800,"station_id":"ce4bhm12rcd13ifvqgkg","pricing_plan_id":"cebpf4jnsgd1na2vs0mg"},{"bike_id":"d986ab92-05dd-4f8a-9fa1-a9294bba3783","system_id":"levelo_inurba_marseille","lat":43.2862,"lon":5.35076,"is_reserved":false,"is_disabled":false,"rental_uris":{"android":"levelo://app?vid=d986ab92-05dd-4f8a-9fa1-a9294bba3783","ios":"levelo://app?vid=d986ab92-05dd-4f8a-9fa1-a9294bba3783"},"vehicle_type_id":"4","last_reported":1752243106,"current_range_meters":18800,"station_id":"ce4bhch2rcd13ifvqeug","pricing_plan_id":"cebpf4jnsgd1na2vs0mg"},{"bike_id":"f272420d-ba4a-4b11-a790-579b5df77b6a","system_id":"levelo_inurba_marseille","lat":43.28603,"lon":5.35111,"is_reserved":false,"is_disabled":false,"rental_uris":{"android":"levelo://app?vid=f272420d-ba4a-4b11-a790-579b5df77b6a","ios":"levelo://app?vid=f272420d-ba4a-4b11-a790-579b5df77b6a"},"vehicle_type_id":"4","last_reported":1752243106,"current_range_meters":18800,"station_id":"ce4bhch2rcd13ifvqeug","pricing_plan_id":"cebpf4jnsgd1na2vs0mg"},{"bike_id":"e72cfbf3-f00e-4474-a978-8976cecd3110","system_id":"levelo_inurba_marseille","lat":43.30152,"lon":5.38102,"is_reserved":false,"is_disabled":false,"rental_uris":{"android":"levelo://app?vid=e72cfbf3-f00e-4474-a978-8976cecd3110","ios":"levelo://app?vid=e72cfbf3-f00e-4474-a978-8976cecd3110"},"vehicle_type_id":"4","last_reported":1752243106,"current_range_meters":18800,"station_id":"ce4bgjp2rcd13ifvqbh0","pricing_plan_id":"cebpf4jnsgd1na2vs0mg"},{"bike_id":"9a0cb1a3-2bfe-4644-ba31-8f50fab06156","system_id":"levelo_inurba_marseille","lat":43.27374,"lon":5.36251,"is_reserved":false,"is_disabled":false,"rental_uris":{"android":"levelo://app?vid=9a0cb1a3-2bfe-4644-ba31-8f50fab06156","ios":"levelo://app?vid=9a0cb1a3-2bfe-4644-ba31-8f50fab06156"},"vehicle_type_id":"4","last_reported":1752243106,"current_range_meters":18800,"station_id":"ce4bhbh2rcd13ifvqeo0","pricing_plan_id":"cebpf4jnsgd1na2vs0mg"},{"bike_id":"d912eff3-87db-4caa-93e1-57ec05077a56","system_id":"levelo_inurba_marseille","lat":43.28736,"lon":5.36052,"is_reserved":false,"is_disabled":false,"rental_uris":{"android":"levelo://app?vid=d912eff3-87db-4caa-93e1-57ec05077a56","ios":"levelo://app?vid=d912eff3-87db-4caa-93e1-57ec05077a56"},"vehicle_type_id":"4","last_reported":1752243106,"current_range_meters":19200,"station_id":"cki0cbj6b192h4jlfktg","pricing_plan_id":"cebpf4jnsgd1na2vs0mg"},{"bike_id":"709c9beb-13f1-45e2-bbd1-0f71d60cf8b2","system_id":"levelo_inurba_marseille","lat":43.30935,"lon":5.40127,"is_reserved":false,"is_disabled":true,"rental_uris":{"android":"levelo://app?vid=709c9beb-13f1-45e2-bbd1-0f71d60cf8b2","ios":"levelo://app?vid=709c9beb-13f1-45e2-bbd1-0f71d60cf8b2"},"vehicle_type_id":"4","last_reported":1752243106,"current_range_meters":19200,"station_id":"ce4bgvp2rcd13ifvqct0","pricing_plan_id":"cebpf4jnsgd1na2vs0mg"},{"bike_id":"3e4edfee-1e8f-445b-a244-1a6051affcc2","system_id":"levelo_inurba_marseille","lat":43.297819,"lon":5.370966,"is_reserved":false,"is_disabled":false,"rental_uris":{"android":"levelo://app?vid=3e4edfee-1e8f-445b-a244-1a6051affcc2","ios":"levelo://app?vid=3e4edfee-1e8f-445b-a244-1a6051affcc2"},"vehicle_type_id":"4","last_reported":1752243106,"current_range_meters":19200,"station_id":"ce4bhbp2rcd13ifvqerg","pricing_plan_id":"cebpf4jnsgd1na2vs0mg"},{"bike_id":"622e8029-19fd-41c4-bfc0-7d297e50e368","system_id":"levelo_inurba_marseille","lat":43.27373,"lon":5.36259,"is_reserved":false,"is_disabled":false,"rental_uris":{"android":"levelo://app?vid=622e8029-19fd-41c4-bfc0-7d297e50e368","ios":"levelo://app?vid=622e8029-19fd-41c4-bfc0-7d297e50e368"},"vehicle_type_id":"4","last_reported":1752243106,"current_range_meters":19200,"station_id":"ce4bhbh2rcd13ifvqeo0","pricing_plan_id":"cebpf4jnsgd1na2vs0mg"},{"bike_id":"ad023729-3d33-44a6-99ca-a047715b7f88","system_id":"levelo_inurba_marseille","lat":43.21201,"lon":5.35077,"is_reserved":false,"is_disabled":false,"rental_uris":{"android":"levelo://app?vid=ad023729-3d33-44a6-99ca-a047715b7f88","ios":"levelo://app?vid=ad023729-3d33-44a6-99ca-a047715b7f88"},"vehicle_type_id":"4","last_reported":1752243106,"current_range_meters":19200,"station_id":"st_cvj6sg6p6f1abm77japg","pricing_plan_id":"cebpf4jnsgd1na2vs0mg"},{"bike_id":"8cecf976-15ed-47ad-897e-bcd1488cebda","system_id":"levelo_inurba_marseille","lat":43.29717,"lon":5.3661,"is_reserved":false,"is_disabled":false,"rental_uris":{"android":"levelo://app?vid=8cecf976-15ed-47ad-897e-bcd1488cebda","ios":"levelo://app?vid=8cecf976-15ed-47ad-897e-bcd1488cebda"},"vehicle_type_id":"4","last_reported":1752243106,"current_range_meters":19200,"station_id":"ce4bgn12rcd13ifvqbt0","pricing_plan_id":"cebpf4jnsgd1na2vs0mg"},{"bike_id":"2b71ec28-807c-4fad-a3f5-49490bd68ad3","system_id":"levelo_inurba_marseille","lat":43.28274,"lon":5.35069,"is_reserved":false,"is_disabled":false,"rental_uris":{"android":"levelo://app?vid=2b71ec28-807c-4fad-a3f5-49490bd68ad3","ios":"levelo://app?vid=2b71ec28-807c-4fad-a3f5-49490bd68ad3"},"vehicle_type_id":"4","last_reported":1752243106,"current_range_meters":19200,"station_id":"ce4bhbp2rcd13ifvqerg","pricing_plan_id":"cebpf4jnsgd1na2vs0mg"},{"bike_id":"db2690f4-eb5c-4bb7-a073-68e2f29c4ad8","system_id":"levelo_inurba_marseille","lat":43.24805,"lon":5.37452,"is_reserved":false,"is_disabled":false,"rental_uris":{"android":"levelo://app?vid=db2690f4-eb5c-4bb7-a073-68e2f29c4ad8","ios":"levelo://app?vid=db2690f4-eb5c-4bb7-a073-68e2f29c4ad8"},"vehicle_type_id":"4","last_reported":1752243106,"current_range_meters":19600,"station_id":"ce4bhgh2rcd13ifvqfb0","pricing_plan_id":"cebpf4jnsgd1na2vs0mg"},{"bike_id":"66b5a7bc-d7bd-4f38-9071-0cdee8e17da9","system_id":"levelo_inurba_marseille","lat":43.28469,"lon":5.38422,"is_reserved":false,"is_disabled":false,"rental_uris":{"android":"levelo://app?vid=66b5a7bc-d7bd-4f38-9071-0cdee8e17da9","ios":"levelo://app?vid=66b5a7bc-d7bd-4f38-9071-0cdee8e17da9"},"vehicle_type_id":"4","last_reported":1752243106,"current_range_meters":19600,"station_id":"ce4bh512rcd13ifvqe3g","pricing_plan_id":"cebpf4jnsgd1na2vs0mg"},{"bike_id":"c5a4a32b-a311-4bd1-b07c-5e6e22b7262d","system_id":"levelo_inurba_marseille","lat":43.29316,"lon":5.37173,"is_reserved":false,"is_disabled":false,"rental_uris":{"android":"levelo://app?vid=c5a4a32b-a311-4bd1-b07c-5e6e22b7262d","ios":"levelo://app?vid=c5a4a32b-a311-4bd1-b07c-5e6e22b7262d"},"vehicle_type_id":"4","last_reported":1752243106,"current_range_meters":19600,"station_id":"ce4bgh92rcd13ifvqb40","pricing_plan_id":"cebpf4jnsgd1na2vs0mg"},{"bike_id":"3e7ec850-b571-461c-9c3e-7c16ccce9d27","system_id":"levelo_inurba_marseille","lat":43.27371,"lon":5.36243,"is_reserved":false,"is_disabled":false,"rental_uris":{"android":"levelo://app?vid=3e7ec850-b571-461c-9c3e-7c16ccce9d27","ios":"levelo://app?vid=3e7ec850-b571-461c-9c3e-7c16ccce9d27"},"vehicle_type_id":"4","last_reported":1752243106,"current_range_meters":19600,"station_id":"ce4bhbh2rcd13ifvqeo0","pricing_plan_id":"cebpf4jnsgd1na2vs0mg"},{"bike_id":"790c377f-77f7-4730-a831-b0f708a46319","system_id":"levelo_inurba_marseille","lat":43.336141,"lon":5.410149,"is_reserved":false,"is_disabled":false,"rental_uris":{"android":"levelo://app?vid=790c377f-77f7-4730-a831-b0f708a46319","ios":"levelo://app?vid=790c377f-77f7-4730-a831-b0f708a46319"},"vehicle_type_id":"4","last_reported":1752243106,"current_range_meters":19600,"station_id":"ce4bhqh2rcd13ifvqhmg","pricing_plan_id":"cebpf4jnsgd1na2vs0mg"},{"bike_id":"49a25542-5ccc-437e-a925-aba2deda045d","system_id":"levelo_inurba_marseille","lat":43.28421,"lon":5.35002,"is_reserved":false,"is_disabled":false,"rental_uris":{"android":"levelo://app?vid=49a25542-5ccc-437e-a925-aba2deda045d","ios":"levelo://app?vid=49a25542-5ccc-437e-a925-aba2deda045d"},"vehicle_type_id":"4","last_reported":1752243106,"current_range_meters":19600,"station_id":"ce4bhbh2rcd13ifvqepg","pricing_plan_id":"cebpf4jnsgd1na2vs0mg"},{"bike_id":"40330dcb-29a5-4ad3-8d22-d51ce4593d26","system_id":"levelo_inurba_marseille","lat":43.27382,"lon":5.36258,"is_reserved":false,"is_disabled":false,"rental_uris":{"android":"levelo://app?vid=40330dcb-29a5-4ad3-8d22-d51ce4593d26","ios":"levelo://app?vid=40330dcb-29a5-4ad3-8d22-d51ce4593d26"},"vehicle_type_id":"4","last_reported":1752243106,"current_range_meters":20000,"station_id":"ce4bhbh2rcd13ifvqeo0","pricing_plan_id":"cebpf4jnsgd1na2vs0mg"},{"bike_id":"00bc0b3b-e317-4a17-a011-a3a9a29d816a","system_id":"levelo_inurba_marseille","lat":43.21219,"lon":5.3506,"is_reserved":false,"is_disabled":false,"rental_uris":{"android":"levelo://app?vid=00bc0b3b-e317-4a17-a011-a3a9a29d816a","ios":"levelo://app?vid=00bc0b3b-e317-4a17-a011-a3a9a29d816a"},"vehicle_type_id":"4","last_reported":1752243106,"current_range_meters":20000,"station_id":"st_cvj6sg6p6f1abm77japg","pricing_plan_id":"cebpf4jnsgd1na2vs0mg"},{"bike_id":"5ed8effa-6539-4a17-9b0b-88a1e88bb81f","system_id":"levelo_inurba_marseille","lat":43.30524,"lon":5.36695,"is_reserved":false,"is_disabled":false,"rental_uris":{"android":"levelo://app?vid=5ed8effa-6539-4a17-9b0b-88a1e88bb81f","ios":"levelo://app?vid=5ed8effa-6539-4a17-9b0b-88a1e88bb81f"},"vehicle_type_id":"4","last_reported":1752243106,"current_range_meters":20000,"station_id":"ce4bgrp2rcd13ifvqc9g","pricing_plan_id":"cebpf4jnsgd1na2vs0mg"},{"bike_id":"a3b7ae67-d861-4d68-9004-ec6833e323ad","system_id":"levelo_inurba_marseille","lat":43.28935,"lon":5.36643,"is_reserved":false,"is_disabled":false,"rental_uris":{"android":"levelo://app?vid=a3b7ae67-d861-4d68-9004-ec6833e323ad","ios":"levelo://app?vid=a3b7ae67-d861-4d68-9004-ec6833e323ad"},"vehicle_type_id":"4","last_reported":1752243106,"current_range_meters":20000,"station_id":"ce4bhap2rcd13ifvqek0","pricing_plan_id":"cebpf4jnsgd1na2vs0mg"},{"bike_id":"5d7bb59a-a870-4dcc-8a23-c0c45abc55e6","system_id":"levelo_inurba_marseille","lat":43.24808,"lon":5.37457,"is_reserved":false,"is_disabled":false,"rental_uris":{"android":"levelo://app?vid=5d7bb59a-a870-4dcc-8a23-c0c45abc55e6","ios":"levelo://app?vid=5d7bb59a-a870-4dcc-8a23-c0c45abc55e6"},"vehicle_type_id":"4","last_reported":1752243106,"current_range_meters":20000,"station_id":"ce4bhgh2rcd13ifvqfb0","pricing_plan_id":"cebpf4jnsgd1na2vs0mg"},{"bike_id":"8f36ed24-46ce-476e-abea-128d934b1052","system_id":"levelo_inurba_marseille","lat":43.259284,"lon":5.409007,"is_reserved":false,"is_disabled":false,"rental_uris":{"android":"levelo://app?vid=8f36ed24-46ce-476e-abea-128d934b1052","ios":"levelo://app?vid=8f36ed24-46ce-476e-abea-128d934b1052"},"vehicle_type_id":"4","last_reported":1752243106,"current_range_meters":20000,"station_id":"ce4bhm92rcd13ifvqglg","pricing_plan_id":"cebpf4jnsgd1na2vs0mg"},{"bike_id":"85d2aee3-4fe4-4c9f-9f31-cc4fe835c04e","system_id":"levelo_inurba_marseille","lat":43.21191,"lon":5.35068,"is_reserved":false,"is_disabled":false,"rental_uris":{"android":"levelo://app?vid=85d2aee3-4fe4-4c9f-9f31-cc4fe835c04e","ios":"levelo://app?vid=85d2aee3-4fe4-4c9f-9f31-cc4fe835c04e"},"vehicle_type_id":"4","last_reported":1752243106,"current_range_meters":20000,"station_id":"st_cvj6sg6p6f1abm77japg","pricing_plan_id":"cebpf4jnsgd1na2vs0mg"},{"bike_id":"2093d507-9815-48d8-8feb-cb32ba87d199","system_id":"levelo_inurba_marseille","lat":43.32101,"lon":5.36772,"is_reserved":false,"is_disabled":false,"rental_uris":{"android":"levelo://app?vid=2093d507-9815-48d8-8feb-cb32ba87d199","ios":"levelo://app?vid=2093d507-9815-48d8-8feb-cb32ba87d199"},"vehicle_type_id":"4","last_reported":1752243106,"current_range_meters":20000,"station_id":"ce4bhrh2rcd13ifvqhug","pricing_plan_id":"cebpf4jnsgd1na2vs0mg"},{"bike_id":"63b49137-2a71-4be8-b23b-fa6d763dfc84","system_id":"levelo_inurba_marseille","lat":43.29559,"lon":5.42262,"is_reserved":false,"is_disabled":false,"rental_uris":{"android":"levelo://app?vid=63b49137-2a71-4be8-b23b-fa6d763dfc84","ios":"levelo://app?vid=63b49137-2a71-4be8-b23b-fa6d763dfc84"},"vehicle_type_id":"4","last_reported":1752243106,"current_range_meters":20400,"station_id":"ce4bhph2rcd13ifvqhdg","pricing_plan_id":"cebpf4jnsgd1na2vs0mg"},{"bike_id":"1866d9be-19ae-4627-a56e-8573ffc404b6","system_id":"levelo_inurba_marseille","lat":43.29207,"lon":5.39321,"is_reserved":false,"is_disabled":false,"rental_uris":{"android":"levelo://app?vid=1866d9be-19ae-4627-a56e-8573ffc404b6","ios":"levelo://app?vid=1866d9be-19ae-4627-a56e-8573ffc404b6"},"vehicle_type_id":"4","last_reported":1752243106,"current_range_meters":20400,"station_id":"ce4bh192rcd13ifvqdd0","pricing_plan_id":"cebpf4jnsgd1na2vs0mg"},{"bike_id":"61311c34-8ad3-46f2-97a6-24b285751e2f","system_id":"levelo_inurba_marseille","lat":43.32338,"lon":5.40623,"is_reserved":false,"is_disabled":false,"rental_uris":{"android":"levelo://app?vid=61311c34-8ad3-46f2-97a6-24b285751e2f","ios":"levelo://app?vid=61311c34-8ad3-46f2-97a6-24b285751e2f"},"vehicle_type_id":"4","last_reported":1752243106,"current_range_meters":20400,"station_id":"ce4bhq92rcd13ifvqhjg","pricing_plan_id":"cebpf4jnsgd1na2vs0mg"},{"bike_id":"f707ff24-fc4a-410a-b7e2-03d6aa717a52","system_id":"levelo_inurba_marseille","lat":43.24649,"lon":5.38894,"is_reserved":false,"is_disabled":false,"rental_uris":{"android":"levelo://app?vid=f707ff24-fc4a-410a-b7e2-03d6aa717a52","ios":"levelo://app?vid=f707ff24-fc4a-410a-b7e2-03d6aa717a52"},"vehicle_type_id":"4","last_reported":1752243106,"current_range_meters":20400,"station_id":"ce4bhg12rcd13ifvqf60","pricing_plan_id":"cebpf4jnsgd1na2vs0mg"},{"bike_id":"ec83dd27-a7ed-4385-94cf-428e30949399","system_id":"levelo_inurba_marseille","lat":43.270698,"lon":5.422931,"is_reserved":false,"is_disabled":false,"rental_uris":{"android":"levelo://app?vid=ec83dd27-a7ed-4385-94cf-428e30949399","ios":"levelo://app?vid=ec83dd27-a7ed-4385-94cf-428e30949399"},"vehicle_type_id":"4","last_reported":1752243106,"current_range_meters":20400,"station_id":"ce4bhk92rcd13ifvqgb0","pricing_plan_id":"cebpf4jnsgd1na2vs0mg"},{"bike_id":"51890362-46b0-4ee7-9f02-afbf036d064e","system_id":"levelo_inurba_marseille","lat":43.21208,"lon":5.3507,"is_reserved":false,"is_disabled":false,"rental_uris":{"android":"levelo://app?vid=51890362-46b0-4ee7-9f02-afbf036d064e","ios":"levelo://app?vid=51890362-46b0-4ee7-9f02-afbf036d064e"},"vehicle_type_id":"4","last_reported":1752243106,"current_range_meters":20400,"station_id":"st_cvj6sg6p6f1abm77japg","pricing_plan_id":"cebpf4jnsgd1na2vs0mg"},{"bike_id":"92997389-4fd9-49e4-a80f-1c41357a245f","system_id":"levelo_inurba_marseille","lat":43.29924,"lon":5.37469,"is_reserved":false,"is_disabled":false,"rental_uris":{"android":"levelo://app?vid=92997389-4fd9-49e4-a80f-1c41357a245f","ios":"levelo://app?vid=92997389-4fd9-49e4-a80f-1c41357a245f"},"vehicle_type_id":"4","last_reported":1752243106,"current_range_meters":20400,"station_id":"ce4bgjh2rcd13ifvqbg0","pricing_plan_id":"cebpf4jnsgd1na2vs0mg"},{"bike_id":"ea4c1489-416d-4afb-b985-a1893dbe4ea0","system_id":"levelo_inurba_marseille","lat":43.3061,"lon":5.37228,"is_reserved":false,"is_disabled":false,"rental_uris":{"android":"levelo://app?vid=ea4c1489-416d-4afb-b985-a1893dbe4ea0","ios":"levelo://app?vid=ea4c1489-416d-4afb-b985-a1893dbe4ea0"},"vehicle_type_id":"4","last_reported":1752243106,"current_range_meters":20000,"station_id":"ce4bgqh2rcd13ifvqc4g","pricing_plan_id":"cebpf4jnsgd1na2vs0mg"},{"bike_id":"58fd885c-cbab-42e2-b29b-a9bd59a07733","system_id":"levelo_inurba_marseille","lat":43.28464,"lon":5.35883,"is_reserved":false,"is_disabled":false,"rental_uris":{"android":"levelo://app?vid=58fd885c-cbab-42e2-b29b-a9bd59a07733","ios":"levelo://app?vid=58fd885c-cbab-42e2-b29b-a9bd59a07733"},"vehicle_type_id":"4","last_reported":1752243106,"current_range_meters":15200,"station_id":"ce4bhah2rcd13ifvqei0","pricing_plan_id":"cebpf4jnsgd1na2vs0mg"},{"bike_id":"182be23f-6afd-4c89-ac2e-3aac5dbb2992","system_id":"levelo_inurba_marseille","lat":43.30969,"lon":5.39039,"is_reserved":false,"is_disabled":false,"rental_uris":{"android":"levelo://app?vid=182be23f-6afd-4c89-ac2e-3aac5dbb2992","ios":"levelo://app?vid=182be23f-6afd-4c89-ac2e-3aac5dbb2992"},"vehicle_type_id":"4","last_reported":1752243106,"current_range_meters":20400,"station_id":"ce4bgup2rcd13ifvqco0","pricing_plan_id":"cebpf4jnsgd1na2vs0mg"},{"bike_id":"e73c8b25-d4f0-4858-a556-2538c44d800b","system_id":"levelo_inurba_marseille","lat":43.30775,"lon":5.37651,"is_reserved":false,"is_disabled":false,"rental_uris":{"android":"levelo://app?vid=e73c8b25-d4f0-4858-a556-2538c44d800b","ios":"levelo://app?vid=e73c8b25-d4f0-4858-a556-2538c44d800b"},"vehicle_type_id":"4","last_reported":1752243106,"current_range_meters":20800,"station_id":"ce4bgv92rcd13ifvqcq0","pricing_plan_id":"cebpf4jnsgd1na2vs0mg"},{"bike_id":"b323cbc6-f556-486e-87e6-b2329bc924dd","system_id":"levelo_inurba_marseille","lat":43.30165,"lon":5.38075,"is_reserved":false,"is_disabled":false,"rental_uris":{"android":"levelo://app?vid=b323cbc6-f556-486e-87e6-b2329bc924dd","ios":"levelo://app?vid=b323cbc6-f556-486e-87e6-b2329bc924dd"},"vehicle_type_id":"4","last_reported":1752243106,"current_range_meters":20800,"station_id":"ce4bgjp2rcd13ifvqbh0","pricing_plan_id":"cebpf4jnsgd1na2vs0mg"},{"bike_id":"42d30907-5f35-4bf2-9bc4-5809d8ca872e","system_id":"levelo_inurba_marseille","lat":43.30269,"lon":5.38671,"is_reserved":false,"is_disabled":false,"rental_uris":{"android":"levelo://app?vid=42d30907-5f35-4bf2-9bc4-5809d8ca872e","ios":"levelo://app?vid=42d30907-5f35-4bf2-9bc4-5809d8ca872e"},"vehicle_type_id":"4","last_reported":1752243106,"current_range_meters":20800,"station_id":"ce4bgg92rcd13ifvqb30","pricing_plan_id":"cebpf4jnsgd1na2vs0mg"},{"bike_id":"9c306d2c-4c4a-458b-8440-eb87e2f8e252","system_id":"levelo_inurba_marseille","lat":43.29845,"lon":5.36261,"is_reserved":false,"is_disabled":false,"rental_uris":{"android":"levelo://app?vid=9c306d2c-4c4a-458b-8440-eb87e2f8e252","ios":"levelo://app?vid=9c306d2c-4c4a-458b-8440-eb87e2f8e252"},"vehicle_type_id":"4","last_reported":1752243106,"current_range_meters":20800,"station_id":"ce4bgpp2rcd13ifvqc3g","pricing_plan_id":"cebpf4jnsgd1na2vs0mg"},{"bike_id":"00bb04d2-087b-4ba0-958b-5c83f2321f0a","system_id":"levelo_inurba_marseille","lat":43.2955,"lon":5.42286,"is_reserved":false,"is_disabled":false,"rental_uris":{"android":"levelo://app?vid=00bb04d2-087b-4ba0-958b-5c83f2321f0a","ios":"levelo://app?vid=00bb04d2-087b-4ba0-958b-5c83f2321f0a"},"vehicle_type_id":"4","last_reported":1752243106,"current_range_meters":20800,"station_id":"ce4bhph2rcd13ifvqhdg","pricing_plan_id":"cebpf4jnsgd1na2vs0mg"},{"bike_id":"73f5ba04-f0c3-4c17-8b1d-03cf11291855","system_id":"levelo_inurba_marseille","lat":43.26684,"lon":5.38271,"is_reserved":false,"is_disabled":false,"rental_uris":{"android":"levelo://app?vid=73f5ba04-f0c3-4c17-8b1d-03cf11291855","ios":"levelo://app?vid=73f5ba04-f0c3-4c17-8b1d-03cf11291855"},"vehicle_type_id":"4","last_reported":1752243106,"current_range_meters":20800,"station_id":"ce4bhg92rcd13ifvqf90","pricing_plan_id":"cebpf4jnsgd1na2vs0mg"},{"bike_id":"fa4432c0-8509-418c-bbfb-c7d29fffe62b","system_id":"levelo_inurba_marseille","lat":43.297883,"lon":5.393407,"is_reserved":false,"is_disabled":false,"rental_uris":{"android":"levelo://app?vid=fa4432c0-8509-418c-bbfb-c7d29fffe62b","ios":"levelo://app?vid=fa4432c0-8509-418c-bbfb-c7d29fffe62b"},"vehicle_type_id":"4","last_reported":1752243106,"current_range_meters":20800,"station_id":"","pricing_plan_id":"cebpf4jnsgd1na2vs0mg"},{"bike_id":"cb435b23-77ff-461e-8fdc-02bc965bcb7b","system_id":"levelo_inurba_marseille","lat":43.28432,"lon":5.34993,"is_reserved":false,"is_disabled":false,"rental_uris":{"android":"levelo://app?vid=cb435b23-77ff-461e-8fdc-02bc965bcb7b","ios":"levelo://app?vid=cb435b23-77ff-461e-8fdc-02bc965bcb7b"},"vehicle_type_id":"4","last_reported":1752243106,"current_range_meters":20800,"station_id":"ce4bhbh2rcd13ifvqepg","pricing_plan_id":"cebpf4jnsgd1na2vs0mg"},{"bike_id":"1550d62c-ac23-4182-a92a-927896c39981","system_id":"levelo_inurba_marseille","lat":43.33051,"lon":5.3806,"is_reserved":false,"is_disabled":false,"rental_uris":{"android":"levelo://app?vid=1550d62c-ac23-4182-a92a-927896c39981","ios":"levelo://app?vid=1550d62c-ac23-4182-a92a-927896c39981"},"vehicle_type_id":"4","last_reported":1752243106,"current_range_meters":20800,"station_id":"","pricing_plan_id":"cebpf4jnsgd1na2vs0mg"},{"bike_id":"d799b321-3a7d-4201-b46e-ffe2ad124f19","system_id":"levelo_inurba_marseille","lat":43.32884,"lon":5.3839,"is_reserved":false,"is_disabled":false,"rental_uris":{"android":"levelo://app?vid=d799b321-3a7d-4201-b46e-ffe2ad124f19","ios":"levelo://app?vid=d799b321-3a7d-4201-b46e-ffe2ad124f19"},"vehicle_type_id":"4","last_reported":1752243106,"current_range_meters":20800,"station_id":"","pricing_plan_id":"cebpf4jnsgd1na2vs0mg"},{"bike_id":"03eea793-0480-4a49-ab5e-35410fec1ade","system_id":"levelo_inurba_marseille","lat":43.24808,"lon":5.37453,"is_reserved":false,"is_disabled":false,"rental_uris":{"android":"levelo://app?vid=03eea793-0480-4a49-ab5e-35410fec1ade","ios":"levelo://app?vid=03eea793-0480-4a49-ab5e-35410fec1ade"},"vehicle_type_id":"4","last_reported":1752243106,"current_range_meters":20800,"station_id":"ce4bhgh2rcd13ifvqfb0","pricing_plan_id":"cebpf4jnsgd1na2vs0mg"},{"bike_id":"a0137104-c9f4-434a-a5e3-80725cd5a2b4","system_id":"levelo_inurba_marseille","lat":43.21189,"lon":5.35065,"is_reserved":false,"is_disabled":false,"rental_uris":{"android":"levelo://app?vid=a0137104-c9f4-434a-a5e3-80725cd5a2b4","ios":"levelo://app?vid=a0137104-c9f4-434a-a5e3-80725cd5a2b4"},"vehicle_type_id":"4","last_reported":1752243106,"current_range_meters":20800,"station_id":"st_cvj6sg6p6f1abm77japg","pricing_plan_id":"cebpf4jnsgd1na2vs0mg"},{"bike_id":"0db5bb16-f213-4a36-bc12-5124685746db","system_id":"levelo_inurba_marseille","lat":43.33726,"lon":5.39185,"is_reserved":false,"is_disabled":false,"rental_uris":{"android":"levelo://app?vid=0db5bb16-f213-4a36-bc12-5124685746db","ios":"levelo://app?vid=0db5bb16-f213-4a36-bc12-5124685746db"},"vehicle_type_id":"4","last_reported":1752243106,"current_range_meters":21600,"station_id":"ce4bhr92rcd13ifvqhsg","pricing_plan_id":"cebpf4jnsgd1na2vs0mg"},{"bike_id":"ed019ecd-f4ca-470f-953e-821f34892065","system_id":"levelo_inurba_marseille","lat":43.30553,"lon":5.36713,"is_reserved":false,"is_disabled":true,"rental_uris":{"android":"levelo://app?vid=ed019ecd-f4ca-470f-953e-821f34892065","ios":"levelo://app?vid=ed019ecd-f4ca-470f-953e-821f34892065"},"vehicle_type_id":"4","last_reported":1752243106,"current_range_meters":21600,"station_id":"","pricing_plan_id":"cebpf4jnsgd1na2vs0mg"},{"bike_id":"68ccdc1f-30ae-4208-bb28-06e7e2e6298c","system_id":"levelo_inurba_marseille","lat":43.28619,"lon":5.35102,"is_reserved":false,"is_disabled":false,"rental_uris":{"android":"levelo://app?vid=68ccdc1f-30ae-4208-bb28-06e7e2e6298c","ios":"levelo://app?vid=68ccdc1f-30ae-4208-bb28-06e7e2e6298c"},"vehicle_type_id":"4","last_reported":1752243106,"current_range_meters":21600,"station_id":"ce4bhch2rcd13ifvqeug","pricing_plan_id":"cebpf4jnsgd1na2vs0mg"},{"bike_id":"028c8301-8e99-4f6b-983c-d8b1eaa0aa1d","system_id":"levelo_inurba_marseille","lat":43.30008,"lon":5.38602,"is_reserved":false,"is_disabled":false,"rental_uris":{"android":"levelo://app?vid=028c8301-8e99-4f6b-983c-d8b1eaa0aa1d","ios":"levelo://app?vid=028c8301-8e99-4f6b-983c-d8b1eaa0aa1d"},"vehicle_type_id":"4","last_reported":1752243106,"current_range_meters":21600,"station_id":"","pricing_plan_id":"cebpf4jnsgd1na2vs0mg"},{"bike_id":"ee5338dd-18a1-4b48-a5b0-f8c72f7b1319","system_id":"levelo_inurba_marseille","lat":43.31779,"lon":5.36845,"is_reserved":false,"is_disabled":false,"rental_uris":{"android":"levelo://app?vid=ee5338dd-18a1-4b48-a5b0-f8c72f7b1319","ios":"levelo://app?vid=ee5338dd-18a1-4b48-a5b0-f8c72f7b1319"},"vehicle_type_id":"4","last_reported":1752243106,"current_range_meters":21600,"station_id":"","pricing_plan_id":"cebpf4jnsgd1na2vs0mg"},{"bike_id":"0b5568ad-5cb1-43dd-96ea-ac921d768809","system_id":"levelo_inurba_marseille","lat":43.30459,"lon":5.37911,"is_reserved":false,"is_disabled":false,"rental_uris":{"android":"levelo://app?vid=0b5568ad-5cb1-43dd-96ea-ac921d768809","ios":"levelo://app?vid=0b5568ad-5cb1-43dd-96ea-ac921d768809"},"vehicle_type_id":"4","last_reported":1752243106,"current_range_meters":21600,"station_id":"ce4bgup2rcd13ifvqcn0","pricing_plan_id":"cebpf4jnsgd1na2vs0mg"},{"bike_id":"ba2c3a9c-d0e2-421a-aade-5237ad9151ca","system_id":"levelo_inurba_marseille","lat":43.282705,"lon":5.350622,"is_reserved":false,"is_disabled":false,"rental_uris":{"android":"levelo://app?vid=ba2c3a9c-d0e2-421a-aade-5237ad9151ca","ios":"levelo://app?vid=ba2c3a9c-d0e2-421a-aade-5237ad9151ca"},"vehicle_type_id":"4","last_reported":1752243106,"current_range_meters":21600,"station_id":"ce4bhbp2rcd13ifvqerg","pricing_plan_id":"cebpf4jnsgd1na2vs0mg"},{"bike_id":"8b37f03f-f226-4bbc-8648-b109da7ba145","system_id":"levelo_inurba_marseille","lat":43.30536,"lon":5.366999,"is_reserved":false,"is_disabled":false,"rental_uris":{"android":"levelo://app?vid=8b37f03f-f226-4bbc-8648-b109da7ba145","ios":"levelo://app?vid=8b37f03f-f226-4bbc-8648-b109da7ba145"},"vehicle_type_id":"4","last_reported":1752243106,"current_range_meters":21600,"station_id":"","pricing_plan_id":"cebpf4jnsgd1na2vs0mg"},{"bike_id":"18610a3b-f103-4de3-aaea-36a53df03c01","system_id":"levelo_inurba_marseille","lat":43.288574,"lon":5.358601,"is_reserved":false,"is_disabled":false,"rental_uris":{"android":"levelo://app?vid=18610a3b-f103-4de3-aaea-36a53df03c01","ios":"levelo://app?vid=18610a3b-f103-4de3-aaea-36a53df03c01"},"vehicle_type_id":"4","last_reported":1752243106,"current_range_meters":21600,"station_id":"ce4bhb12rcd13ifvqem0","pricing_plan_id":"cebpf4jnsgd1na2vs0mg"},{"bike_id":"9d0d85e3-ee19-452d-93c5-fbfc98a09acf","system_id":"levelo_inurba_marseille","lat":43.29506,"lon":5.43849,"is_reserved":false,"is_disabled":false,"rental_uris":{"android":"levelo://app?vid=9d0d85e3-ee19-452d-93c5-fbfc98a09acf","ios":"levelo://app?vid=9d0d85e3-ee19-452d-93c5-fbfc98a09acf"},"vehicle_type_id":"4","last_reported":1752243106,"current_range_meters":21600,"station_id":"","pricing_plan_id":"cebpf4jnsgd1na2vs0mg"},{"bike_id":"e50cceef-b124-49b6-ac49-3f696714d587","system_id":"levelo_inurba_marseille","lat":43.26797,"lon":5.39414,"is_reserved":false,"is_disabled":false,"rental_uris":{"android":"levelo://app?vid=e50cceef-b124-49b6-ac49-3f696714d587","ios":"levelo://app?vid=e50cceef-b124-49b6-ac49-3f696714d587"},"vehicle_type_id":"4","last_reported":1752243106,"current_range_meters":20800,"station_id":"ce4bhh12rcd13ifvqfg0","pricing_plan_id":"cebpf4jnsgd1na2vs0mg"},{"bike_id":"08043f12-d7cb-4e12-8a10-78bfaa79a447","system_id":"levelo_inurba_marseille","lat":43.28267,"lon":5.35063,"is_reserved":false,"is_disabled":false,"rental_uris":{"android":"levelo://app?vid=08043f12-d7cb-4e12-8a10-78bfaa79a447","ios":"levelo://app?vid=08043f12-d7cb-4e12-8a10-78bfaa79a447"},"vehicle_type_id":"4","last_reported":1752243106,"current_range_meters":21600,"station_id":"ce4bhbp2rcd13ifvqerg","pricing_plan_id":"cebpf4jnsgd1na2vs0mg"},{"bike_id":"72b39aad-c91e-4545-8fe5-aa395b7d62ba","system_id":"levelo_inurba_marseille","lat":43.319378,"lon":5.376175,"is_reserved":false,"is_disabled":false,"rental_uris":{"android":"levelo://app?vid=72b39aad-c91e-4545-8fe5-aa395b7d62ba","ios":"levelo://app?vid=72b39aad-c91e-4545-8fe5-aa395b7d62ba"},"vehicle_type_id":"4","last_reported":1752243106,"current_range_meters":22000,"station_id":"","pricing_plan_id":"cebpf4jnsgd1na2vs0mg"},{"bike_id":"861eca56-9a0a-46db-a978-60ceef97c338","system_id":"levelo_inurba_marseille","lat":43.31073,"lon":5.38356,"is_reserved":false,"is_disabled":false,"rental_uris":{"android":"levelo://app?vid=861eca56-9a0a-46db-a978-60ceef97c338","ios":"levelo://app?vid=861eca56-9a0a-46db-a978-60ceef97c338"},"vehicle_type_id":"4","last_reported":1752243106,"current_range_meters":22000,"station_id":"ce4bgv92rcd13ifvqcr0","pricing_plan_id":"cebpf4jnsgd1na2vs0mg"},{"bike_id":"08da4550-f5d0-43da-b8c3-efb395cb8031","system_id":"levelo_inurba_marseille","lat":43.2738,"lon":5.36257,"is_reserved":false,"is_disabled":false,"rental_uris":{"android":"levelo://app?vid=08da4550-f5d0-43da-b8c3-efb395cb8031","ios":"levelo://app?vid=08da4550-f5d0-43da-b8c3-efb395cb8031"},"vehicle_type_id":"4","last_reported":1752243106,"current_range_meters":22000,"station_id":"ce4bhbh2rcd13ifvqeo0","pricing_plan_id":"cebpf4jnsgd1na2vs0mg"},{"bike_id":"64b5aef6-e300-41a9-a308-e78c5106a024","system_id":"levelo_inurba_marseille","lat":43.314453,"lon":5.380012,"is_reserved":false,"is_disabled":false,"rental_uris":{"android":"levelo://app?vid=64b5aef6-e300-41a9-a308-e78c5106a024","ios":"levelo://app?vid=64b5aef6-e300-41a9-a308-e78c5106a024"},"vehicle_type_id":"4","last_reported":1752243106,"current_range_meters":22000,"station_id":"ce4bhsp2rcd13ifvqi50","pricing_plan_id":"cebpf4jnsgd1na2vs0mg"},{"bike_id":"72aa790a-3c3a-4fe6-b23d-b51d9d868027","system_id":"levelo_inurba_marseille","lat":43.28615,"lon":5.35118,"is_reserved":false,"is_disabled":false,"rental_uris":{"android":"levelo://app?vid=72aa790a-3c3a-4fe6-b23d-b51d9d868027","ios":"levelo://app?vid=72aa790a-3c3a-4fe6-b23d-b51d9d868027"},"vehicle_type_id":"4","last_reported":1752243106,"current_range_meters":22000,"station_id":"ce4bhch2rcd13ifvqeug","pricing_plan_id":"cebpf4jnsgd1na2vs0mg"},{"bike_id":"fca7f33a-4f3d-44ac-bf6b-be967adaabdb","system_id":"levelo_inurba_marseille","lat":43.24073,"lon":5.37754,"is_reserved":false,"is_disabled":false,"rental_uris":{"android":"levelo://app?vid=fca7f33a-4f3d-44ac-bf6b-be967adaabdb","ios":"levelo://app?vid=fca7f33a-4f3d-44ac-bf6b-be967adaabdb"},"vehicle_type_id":"4","last_reported":1752243106,"current_range_meters":22000,"station_id":"ce4bhnp2rcd13ifvqgvg","pricing_plan_id":"cebpf4jnsgd1na2vs0mg"},{"bike_id":"e83a43aa-7c6d-46df-8957-fdc2468d7195","system_id":"levelo_inurba_marseille","lat":43.30437,"lon":5.3889,"is_reserved":false,"is_disabled":false,"rental_uris":{"android":"levelo://app?vid=e83a43aa-7c6d-46df-8957-fdc2468d7195","ios":"levelo://app?vid=e83a43aa-7c6d-46df-8957-fdc2468d7195"},"vehicle_type_id":"4","last_reported":1752243106,"current_range_meters":22000,"station_id":"ce4bgk12rcd13ifvqbi0","pricing_plan_id":"cebpf4jnsgd1na2vs0mg"},{"bike_id":"6e63e94c-a7ab-4ae2-a1a1-7f009bca9e79","system_id":"levelo_inurba_marseille","lat":43.29026,"lon":5.38651,"is_reserved":false,"is_disabled":false,"rental_uris":{"android":"levelo://app?vid=6e63e94c-a7ab-4ae2-a1a1-7f009bca9e79","ios":"levelo://app?vid=6e63e94c-a7ab-4ae2-a1a1-7f009bca9e79"},"vehicle_type_id":"4","last_reported":1752243106,"current_range_meters":22000,"station_id":"ce4bh4p2rcd13ifvqe0g","pricing_plan_id":"cebpf4jnsgd1na2vs0mg"},{"bike_id":"3b01ca06-dddd-4fb8-9a58-9c5783c1e24c","system_id":"levelo_inurba_marseille","lat":43.26245,"lon":5.37443,"is_reserved":false,"is_disabled":false,"rental_uris":{"android":"levelo://app?vid=3b01ca06-dddd-4fb8-9a58-9c5783c1e24c","ios":"levelo://app?vid=3b01ca06-dddd-4fb8-9a58-9c5783c1e24c"},"vehicle_type_id":"4","last_reported":1752243106,"current_range_meters":22400,"station_id":"","pricing_plan_id":"cebpf4jnsgd1na2vs0mg"},