{"last_updated":1691593708,"ttl":30,"version":"2.2","data":{"bikes":[{"bike_id":"a0df643c-f5f0-45e5-8579-755401df5e60","system_id":"levelo_inurba_marseille","lat":43.313391,"lon":5.36706,"is_reserved":false,"is_disabled":false,"rental_uris":{"android":"levelo://app?vid=a0df643c-f5f0-45e5-8579-755401df5e60","ios":"levelo://app?vid=a0df643c-f5f0-45e5-8579-755401df5e60"},"vehicle_type_id":"4","last_reported":1691593709,"current_range_meters":31200,"station_id":"ce4bgr92rcd13ifvqc6g","pricing_plan_id":"free"},{"bike_id":"b392bfe2-2366-47ba-9c59-27109ac3fe3b","system_id":"levelo_inurba_marseille","lat":43.31341,"lon":5.367098,"is_reserved":false,"is_disabled":false,"rental_uris":{"android":"levelo://app?vid=b392bfe2-2366-47ba-9c59-27109ac3fe3b","ios":"levelo://app?vid=b392bfe2-2366-47ba-9c59-27109ac3fe3b"},"vehicle_type_id":"4","last_reported":1691593709,"current_range_meters":22400,"station_id":"ce4bgr92rcd13ifvqc6g","pricing_plan_id":"free"},{"bike_id":"3cd8374d-4366-4c4a-833e-d87217864c4d","system_id":"levelo_inurba_marseille","lat":43.313391,"lon":5.36706,"is_reserved":false,"is_disabled":false,"rental_uris":{"android":"levelo://app?vid=3cd8374d-4366-4c4a-833e-d87217864c4d","ios":"levelo://app?vid=3cd8374d-4366-4c4a-833e-d87217864c4d"},"vehicle_type_id":"4","last_reported":1691593709,"current_range_meters":25200,"station_id":"ce4bgr92rcd13ifvqc6g","pricing_plan_id":"free"},{"bike_id":"8c722ad0-51d8-4d61-a6f9-2798da6ba753","system_id":"levelo_inurba_marseille","lat":43.31341,"lon":5.367098,"is_reserved":false,"is_disabled":false,"rental_uris":{"android":"levelo://app?vid=8c722ad0-51d8-4d61-a6f9-2798da6ba753","ios":"levelo://app?vid=8c722ad0-51d8-4d61-a6f9-2798da6ba753"},"vehicle_type_id":"4","last_reported":1691593709,"current_range_meters":29200,"station_id":"ce4bgr92rcd13ifvqc6g","pricing_plan_id":"free"},{"bike_id":"2f631430-6cfd-4fa8-8cde-155892af507b","system_id":"levelo_inurba_marseille","lat":43.31341,"lon":5.367098,"is_reserved":false,"is_disabled":false,"rental_uris":{"android":"levelo://app?vid=2f631430-6cfd-4fa8-8cde-155892af507b","ios":"levelo://app?vid=2f631430-6cfd-4fa8-8cde-155892af507b"},"vehicle_type_id":"4","last_reported":1691593709,"current_range_meters":18800,"station_id":"ce4bgr92rcd13ifvqc6g","pricing_plan_id":"free"},{"bike_id":"12fc2eb2-808e-4112-9fe1-bf7b265d0f5d","system_id":"levelo_inurba_marseille","lat":43.31341,"lon":5.367098,"is_reserved":false,"is_disabled":false,"rental_uris":{"android":"levelo://app?vid=12fc2eb2-808e-4112-9fe1-bf7b265d0f5d","ios":"levelo://app?vid=12fc2eb2-808e-4112-9fe1-bf7b265d0f5d"},"vehicle_type_id":"4","last_reported":1691593709,"current_range_meters":30400,"station_id":"ce4bgr92rcd13ifvqc6g","pricing_plan_id":"free"},{"bike_id":"d868dd62-326e-4cc2-827f-7b45ed54e27e","system_id":"levelo_inurba_marseille","lat":43.31341,"lon":5.367098,"is_reserved":false,"is_disabled":false,"rental_uris":{"android":"levelo://app?vid=d868dd62-326e-4cc2-827f-7b45ed54e27e","ios":"levelo://app?vid=d868dd62-326e-4cc2-827f-7b45ed54e27e"},"vehicle_type_id":"4","last_reported":1691593709,"current_range_meters":31200,"station_id":"ce4bgr92rcd13ifvqc6g","pricing_plan_id":"free"},{"bike_id":"cbaae489-09a7-4a36-93af-53e335cfa7bc","system_id":"levelo_inurba_marseille","lat":43.31341,"lon":5.367098,"is_reserved":false,"is_disabled":false,"rental_uris":{"android":"levelo://app?vid=cbaae489-09a7-4a36-93af-53e335cfa7bc","ios":"levelo://app?vid=cbaae489-09a7-4a36-93af-53e335cfa7bc"},"vehicle_type_id":"4","last_reported":1691593709,"current_range_meters":31200,"station_id":"ce4bgr92rcd13ifvqc6g","pricing_plan_id":"free"},{"bike_id":"3af50383-0d2b-468e-bb50-ea19e0d7b7ba","system_id":"levelo_inurba_marseille","lat":43.313391,"lon":5.36706,"is_reserved":false,"is_disabled":false,"rental_uris":{"android":"levelo://app?vid=3af50383-0d2b-468e-bb50-ea19e0d7b7ba","ios":"levelo://app?vid=3af50383-0d2b-468e-bb50-ea19e0d7b7ba"},"vehicle_type_id":"4","last_reported":1691593709,"current_range_meters":16400,"station_id":"ce4bgr92rcd13ifvqc6g","pricing_plan_id":"free"},{"bike_id":"88a24a3a-bdb7-480c-95bb-303afc934803","system_id":"levelo_inurba_marseille","lat":43.312239,"lon":5.368562,"is_reserved":false,"is_disabled":false,"rental_uris":{"android":"levelo://app?vid=88a24a3a-bdb7-480c-95bb-303afc934803","ios":"levelo://app?vid=88a24a3a-bdb7-480c-95bb-303afc934803"},"vehicle_type_id":"4","last_reported":1691593709,"current_range_meters":31600,"station_id":"ce4bgl92rcd13ifvqbq0","pricing_plan_id":"free"},{"bike_id":"8d25639b-14c0-49b5-a12e-0d4301b58bc2","system_id":"levelo_inurba_marseille","lat":43.312239,"lon":5.368562,"is_reserved":false,"is_disabled":false,"rental_uris":{"android":"levelo://app?vid=8d25639b-14c0-49b5-a12e-0d4301b58bc2","ios":"levelo://app?vid=8d25639b-14c0-49b5-a12e-0d4301b58bc2"},"vehicle_type_id":"4","last_reported":1691593709,"current_range_meters":31200,"station_id":"ce4bgl92rcd13ifvqbq0","pricing_plan_id":"free"},{"bike_id":"d8ee1607-9150-4484-9479-3c07c1be8908","system_id":"levelo_inurba_marseille","lat":43.312239,"lon":5.368562,"is_reserved":false,"is_disabled":false,"rental_uris":{"android":"levelo://app?vid=d8ee1607-9150-4484-9479-3c07c1be8908","ios":"levelo://app?vid=d8ee1607-9150-4484-9479-3c07c1be8908"},"vehicle_type_id":"4","last_reported":1691593709,"current_range_meters":31600,"station_id":"ce4bgl92rcd13ifvqbq0","pricing_plan_id":"free"},{"bike_id":"37650647-e1c2-4778-80ab-4b0653ec3973","system_id":"levelo_inurba_marseille","lat":43.312239,"lon":5.368562,"is_reserved":false,"is_disabled":false,"rental_uris":{"android":"levelo://app?vid=37650647-e1c2-4778-80ab-4b0653ec3973","ios":"levelo://app?vid=37650647-e1c2-4778-80ab-4b0653ec3973"},"vehicle_type_id":"4","last_reported":1691593709,"current_range_meters":22800,"station_id":"ce4bgl92rcd13ifvqbq0","pricing_plan_id":"free"},{"bike_id":"0cc6e118-b2c7-4825-b79b-a49ec2017c13","system_id":"levelo_inurba_marseille","lat":43.312239,"lon":5.368562,"is_reserved":false,"is_disabled":false,"rental_uris":{"android":"levelo://app?vid=0cc6e118-b2c7-4825-b79b-a49ec2017c13","ios":"levelo://app?vid=0cc6e118-b2c7-4825-b79b-a49ec2017c13"},"vehicle_type_id":"4","last_reported":1691593709,"current_range_meters":30000,"station_id":"ce4bgl92rcd13ifvqbq0","pricing_plan_id":"free"},{"bike_id":"d70dab7d-7960-4244-8d33-7cab883f4b9b","system_id":"levelo_inurba_marseille","lat":43.312239,"lon":5.368562,"is_reserved":false,"is_disabled":false,"rental_uris":{"android":"levelo://app?vid=d70dab7d-7960-4244-8d33-7cab883f4b9b","ios":"levelo://app?vid=d70dab7d-7960-4244-8d33-7cab883f4b9b"},"vehicle_type_id":"4","last_reported":1691593709,"current_range_meters":31200,"station_id":"ce4bgl92rcd13ifvqbq0","pricing_plan_id":"free"},{"bike_id":"ad9c59bf-901f-41e9-a882-104d3f2d12a0","system_id":"levelo_inurba_marseille","lat":43.312239,"lon":5.368562,"is_reserved":false,"is_disabled":false,"rental_uris":{"android":"levelo://app?vid=ad9c59bf-901f-41e9-a882-104d3f2d12a0","ios":"levelo://app?vid=ad9c59bf-901f-41e9-a882-104d3f2d12a0"},"vehicle_type_id":"4","last_reported":1691593709,"current_range_meters":27600,"station_id":"ce4bgl92rcd13ifvqbq0","pricing_plan_id":"free"},{"bike_id":"6c0bade0-438f-4e4e-8c65-08b9b00e0b11","system_id":"levelo_inurba_marseille","lat":43.312239,"lon":5.368562,"is_reserved":false,"is_disabled":false,"rental_uris":{"android":"levelo://app?vid=6c0bade0-438f-4e4e-8c65-08b9b00e0b11","ios":"levelo://app?vid=6c0bade0-438f-4e4e-8c65-08b9b00e0b11"},"vehicle_type_id":"4","last_reported":1691593709,"current_range_meters":27200,"station_id":"ce4bgl92rcd13ifvqbq0","pricing_plan_id":"free"},{"bike_id":"4dbfead8-9274-44df-a397-222741afe8a2","system_id":"levelo_inurba_marseille","lat":43.312239,"lon":5.368562,"is_reserved":false,"is_disabled":false,"rental_uris":{"android":"levelo://app?vid=4dbfead8-9274-44df-a397-222741afe8a2","ios":"levelo://app?vid=4dbfead8-9274-44df-a397-222741afe8a2"},"vehicle_type_id":"4","last_reported":1691593709,"current_range_meters":17600,"station_id":"ce4bgl92rcd13ifvqbq0","pricing_plan_id":"free"},{"bike_id":"746337e7-4bd4-4212-abf0-6c47d02aa9a2","system_id":"levelo_inurba_marseille","lat":43.312239,"lon":5.368562,"is_reserved":false,"is_disabled":false,"rental_uris":{"android":"levelo://app?vid=746337e7-4bd4-4212-abf0-6c47d02aa9a2","ios":"levelo://app?vid=746337e7-4bd4-4212-abf0-6c47d02aa9a2"},"vehicle_type_id":"4","last_reported":1691593709,"current_range_meters":16000,"station_id":"ce4bgl92rcd13ifvqbq0","pricing_plan_id":"free"},{"bike_id":"4a5d1f2d-33e7-49f9-b9e6-b2b85267e96e","system_id":"levelo_inurba_marseille","lat":43.312239,"lon":5.368562,"is_reserved":false,"is_disabled":false,"rental_uris":{"android":"levelo://app?vid=4a5d1f2d-33e7-49f9-b9e6-b2b85267e96e","ios":"levelo://app?vid=4a5d1f2d-33e7-49f9-b9e6-b2b85267e96e"},"vehicle_type_id":"4","last_reported":1691593709,"current_range_meters":31600,"station_id":"ce4bgl92rcd13ifvqbq0","pricing_plan_id":"free"},{"bike_id":"1f5acead-3833-4f4d-bf1d-f7aeaade1692","system_id":"levelo_inurba_marseille","lat":43.312239,"lon":5.368562,"is_reserved":false,"is_disabled":false,"rental_uris":{"android":"levelo://app?vid=1f5acead-3833-4f4d-bf1d-f7aeaade1692","ios":"levelo://app?vid=1f5acead-3833-4f4d-bf1d-f7aeaade1692"},"vehicle_type_id":"4","last_reported":1691593709,"current_range_meters":32000,"station_id":"ce4bgl92rcd13ifvqbq0","pricing_plan_id":"free"},{"bike_id":"cf76ceea-0ede-44a5-9e72-5332e1639bb1","system_id":"levelo_inurba_marseille","lat":43.312239,"lon":5.368562,"is_reserved":false,"is_disabled":false,"rental_uris":{"android":"levelo://app?vid=cf76ceea-0ede-44a5-9e72-5332e1639bb1","ios":"levelo://app?vid=cf76ceea-0ede-44a5-9e72-5332e1639bb1"},"vehicle_type_id":"4","last_reported":1691593709,"current_range_meters":7200,"station_id":"ce4bgl92rcd13ifvqbq0","pricing_plan_id":"free"},{"bike_id":"4f66e1b7-3d96-426e-bb08-f47e7fbcca53","system_id":"levelo_inurba_marseille","lat":43.312239,"lon":5.368562,"is_reserved":false,"is_disabled":false,"rental_uris":{"android":"levelo://app?vid=4f66e1b7-3d96-426e-bb08-f47e7fbcca53","ios":"levelo://app?vid=4f66e1b7-3d96-426e-bb08-f47e7fbcca53"},"vehicle_type_id":"4","last_reported":1691593709,"current_range_meters":24000,"station_id":"ce4bgl92rcd13ifvqbq0","pricing_plan_id":"free"},{"bike_id":"95fbec98-718c-4965-b8aa-22dec9b7d216","system_id":"levelo_inurba_marseille","lat":43.31493,"lon":5.37304,"is_reserved":false,"is_disabled":false,"rental_uris":{"android":"levelo://app?vid=95fbec98-718c-4965-b8aa-22dec9b7d216","ios":"levelo://app?vid=95fbec98-718c-4965-b8aa-22dec9b7d216"},"vehicle_type_id":"4","last_reported":1691593709,"current_range_meters":800,"station_id":"ce4bgt12rcd13ifvqcd0","pricing_plan_id":"free"},{"bike_id":"0a299271-5bc8-40e5-ab4b-fba47662252a","system_id":"levelo_inurba_marseille","lat":43.31499,"lon":5.37305,"is_reserved":false,"is_disabled":false,"rental_uris":{"android":"levelo://app?vid=0a299271-5bc8-40e5-ab4b-fba47662252a","ios":"levelo://app?vid=0a299271-5bc8-40e5-ab4b-fba47662252a"},"vehicle_type_id":"4","last_reported":1691593709,"current_range_meters":31200,"station_id":"ce4bgt12rcd13ifvqcd0","pricing_plan_id":"free"},{"bike_id":"07290b74-4485-48a7-97ba-9d16aa8c3756","system_id":"levelo_inurba_marseille","lat":43.305712,"lon":5.365641,"is_reserved":false,"is_disabled":false,"rental_uris":{"android":"levelo://app?vid=07290b74-4485-48a7-97ba-9d16aa8c3756","ios":"levelo://app?vid=07290b74-4485-48a7-97ba-9d16aa8c3756"},"vehicle_type_id":"4","last_reported":1691593709,"current_range_meters":2000,"station_id":"ce4bgs12rcd13ifvqcag","pricing_plan_id":"free"},{"bike_id":"fd4ae649-b4c6-441b-8d9a-6eaaf28b94f3","system_id":"levelo_inurba_marseille","lat":43.30542,"lon":5.36532,"is_reserved":false,"is_disabled":false,"rental_uris":{"android":"levelo://app?vid=fd4ae649-b4c6-441b-8d9a-6eaaf28b94f3","ios":"levelo://app?vid=fd4ae649-b4c6-441b-8d9a-6eaaf28b94f3"},"vehicle_type_id":"4","last_reported":1691593709,"current_range_meters":31600,"station_id":"ce4bh092rcd13ifvqd20","pricing_plan_id":"free"},{"bike_id":"ff0e6736-88fc-4d4b-9ca9-deaf424fb30c","system_id":"levelo_inurba_marseille","lat":43.305989,"lon":5.37225,"is_reserved":false,"is_disabled":false,"rental_uris":{"android":"levelo://app?vid=ff0e6736-88fc-4d4b-9ca9-deaf424fb30c","ios":"levelo://app?vid=ff0e6736-88fc-4d4b-9ca9-deaf424fb30c"},"vehicle_type_id":"4","last_reported":1691593709,"current_range_meters":27600,"station_id":"ce4bgqh2rcd13ifvqc4g","pricing_plan_id":"free"},{"bike_id":"5f7be487-7765-4565-a4ae-3e37c11a0afc","system_id":"levelo_inurba_marseille","lat":43.305989,"lon":5.37225,"is_reserved":false,"is_disabled":false,"rental_uris":{"android":"levelo://app?vid=5f7be487-7765-4565-a4ae-3e37c11a0afc","ios":"levelo://app?vid=5f7be487-7765-4565-a4ae-3e37c11a0afc"},"vehicle_type_id":"4","last_reported":1691593709,"current_range_meters":24000,"station_id":"ce4bgqh2rcd13ifvqc4g","pricing_plan_id":"free"},{"bike_id":"26380366-0d4a-4f52-9e79-25210bb6786e","system_id":"levelo_inurba_marseille","lat":43.305989,"lon":5.37225,"is_reserved":false,"is_disabled":false,"rental_uris":{"android":"levelo://app?vid=26380366-0d4a-4f52-9e79-25210bb6786e","ios":"levelo://app?vid=26380366-0d4a-4f52-9e79-25210bb6786e"},"vehicle_type_id":"4","last_reported":1691593709,"current_range_meters":25600,"station_id":"ce4bgqh2rcd13ifvqc4g","pricing_plan_id":"free"},{"bike_id":"e2feeff6-bb58-4caf-b5db-ac26826b2148","system_id":"levelo_inurba_marseille","lat":43.311125,"lon":5.377624,"is_reserved":false,"is_disabled":false,"rental_uris":{"android":"levelo://app?vid=e2feeff6-bb58-4caf-b5db-ac26826b2148","ios":"levelo://app?vid=e2feeff6-bb58-4caf-b5db-ac26826b2148"},"vehicle_type_id":"4","last_reported":1691593709,"current_range_meters":10000,"station_id":"ce4bgt92rcd13ifvqcg0","pricing_plan_id":"free"},{"bike_id":"07cce338-f8e8-47da-a1c7-74f8b0044640","system_id":"levelo_inurba_marseille","lat":43.305989,"lon":5.37225,"is_reserved":false,"is_disabled":false,"rental_uris":{"android":"levelo://app?vid=07cce338-f8e8-47da-a1c7-74f8b0044640","ios":"levelo://app?vid=07cce338-f8e8-47da-a1c7-74f8b0044640"},"vehicle_type_id":"4","last_reported":1691593709,"current_range_meters":14400,"station_id":"ce4bgqh2rcd13ifvqc4g","pricing_plan_id":"free"},{"bike_id":"4f717866-d364-4e9a-b3c1-01d819498732","system_id":"levelo_inurba_marseille","lat":43.30819,"lon":5.37669,"is_reserved":false,"is_disabled":false,"rental_uris":{"android":"levelo://app?vid=4f717866-d364-4e9a-b3c1-01d819498732","ios":"levelo://app?vid=4f717866-d364-4e9a-b3c1-01d819498732"},"vehicle_type_id":"4","last_reported":1691593709,"current_range_meters":30800,"station_id":"ce4bgv92rcd13ifvqcq0","pricing_plan_id":"free"},{"bike_id":"752a431f-ffe7-4ccf-822f-89526060fdd1","system_id":"levelo_inurba_marseille","lat":43.30781,"lon":5.37646,"is_reserved":false,"is_disabled":false,"rental_uris":{"android":"levelo://app?vid=752a431f-ffe7-4ccf-822f-89526060fdd1","ios":"levelo://app?vid=752a431f-ffe7-4ccf-822f-89526060fdd1"},"vehicle_type_id":"4","last_reported":1691593709,"current_range_meters":16400,"station_id":"ce4bgv92rcd13ifvqcq0","pricing_plan_id":"free"},{"bike_id":"0590e5c1-aaa2-4ea7-b4cd-5f80df62fcb8","system_id":"levelo_inurba_marseille","lat":43.30787,"lon":5.37658,"is_reserved":false,"is_disabled":false,"rental_uris":{"android":"levelo://app?vid=0590e5c1-aaa2-4ea7-b4cd-5f80df62fcb8","ios":"levelo://app?vid=0590e5c1-aaa2-4ea7-b4cd-5f80df62fcb8"},"vehicle_type_id":"4","last_reported":1691593709,"current_range_meters":30000,"station_id":"ce4bgv92rcd13ifvqcq0","pricing_plan_id":"free"},{"bike_id":"5057ece2-f01e-4728-8b3f-11203107a956","system_id":"levelo_inurba_marseille","lat":43.30782,"lon":5.37655,"is_reserved":false,"is_disabled":false,"rental_uris":{"android":"levelo://app?vid=5057ece2-f01e-4728-8b3f-11203107a956","ios":"levelo://app?vid=5057ece2-f01e-4728-8b3f-11203107a956"},"vehicle_type_id":"4","last_reported":1691593709,"current_range_meters":23200,"station_id":"ce4bgv92rcd13ifvqcq0","pricing_plan_id":"free"},{"bike_id":"f97d00a3-1a23-410b-b45b-05d1960be2f4","system_id":"levelo_inurba_marseille","lat":43.30778,"lon":5.37657,"is_reserved":false,"is_disabled":false,"rental_uris":{"android":"levelo://app?vid=f97d00a3-1a23-410b-b45b-05d1960be2f4","ios":"levelo://app?vid=f97d00a3-1a23-410b-b45b-05d1960be2f4"},"vehicle_type_id":"4","last_reported":1691593709,"current_range_meters":31200,"station_id":"ce4bgv92rcd13ifvqcq0","pricing_plan_id":"free"},{"bike_id":"20b5ce43-c7f1-4b3b-b3b7-a6912248472f","system_id":"levelo_inurba_marseille","lat":43.317075,"lon":5.377367,"is_reserved":false,"is_disabled":false,"rental_uris":{"android":"levelo://app?vid=20b5ce43-c7f1-4b3b-b3b7-a6912248472f","ios":"levelo://app?vid=20b5ce43-c7f1-4b3b-b3b7-a6912248472f"},"vehicle_type_id":"4","last_reported":1691593709,"current_range_meters":30400,"station_id":"ce4bgth2rcd13ifvqch0","pricing_plan_id":"free"},{"bike_id":"b1c47f7f-d58d-4b23-afc7-5d3872c88590","system_id":"levelo_inurba_marseille","lat":43.317075,"lon":5.377367,"is_reserved":false,"is_disabled":false,"rental_uris":{"android":"levelo://app?vid=b1c47f7f-d58d-4b23-afc7-5d3872c88590","ios":"levelo://app?vid=b1c47f7f-d58d-4b23-afc7-5d3872c88590"},"vehicle_type_id":"4","last_reported":1691593709,"current_range_meters":27200,"station_id":"ce4bgth2rcd13ifvqch0","pricing_plan_id":"free"},{"bike_id":"c0fea9aa-658c-496e-8538-4a5ed2925bb9","system_id":"levelo_inurba_marseille","lat":43.317075,"lon":5.377367,"is_reserved":false,"is_disabled":false,"rental_uris":{"android":"levelo://app?vid=c0fea9aa-658c-496e-8538-4a5ed2925bb9","ios":"levelo://app?vid=c0fea9aa-658c-496e-8538-4a5ed2925bb9"},"vehicle_type_id":"4","last_reported":1691593709,"current_range_meters":31600,"station_id":"ce4bgth2rcd13ifvqch0","pricing_plan_id":"free"},{"bike_id":"dbadef06-daaa-4454-a704-981a09e77f2d","system_id":"levelo_inurba_marseille","lat":43.317075,"lon":5.377367,"is_reserved":false,"is_disabled":false,"rental_uris":{"android":"levelo://app?vid=dbadef06-daaa-4454-a704-981a09e77f2d","ios":"levelo://app?vid=dbadef06-daaa-4454-a704-981a09e77f2d"},"vehicle_type_id":"4","last_reported":1691593709,"current_range_meters":30000,"station_id":"ce4bgth2rcd13ifvqch0","pricing_plan_id":"free"},{"bike_id":"65affa8a-9878-4fb2-aeeb-5e00e608d8f2","system_id":"levelo_inurba_marseille","lat":43.317075,"lon":5.377367,"is_reserved":false,"is_disabled":false,"rental_uris":{"android":"levelo://app?vid=65affa8a-9878-4fb2-aeeb-5e00e608d8f2","ios":"levelo://app?vid=65affa8a-9878-4fb2-aeeb-5e00e608d8f2"},"vehicle_type_id":"4","last_reported":1691593709,"current_range_meters":32000,"station_id":"ce4bgth2rcd13ifvqch0","pricing_plan_id":"free"},{"bike_id":"56f9209d-f165-47a9-8056-11504adc3bdb","system_id":"levelo_inurba_marseille","lat":43.30304,"lon":5.368987,"is_reserved":false,"is_disabled":false,"rental_uris":{"android":"levelo://app?vid=56f9209d-f165-47a9-8056-11504adc3bdb","ios":"levelo://app?vid=56f9209d-f165-47a9-8056-11504adc3bdb"},"vehicle_type_id":"4","last_reported":1691593709,"current_range_meters":0,"station_id":"ce4bgqh2rcd13ifvqc5g","pricing_plan_id":"free"},{"bike_id":"2618f72f-31ed-4a5f-9974-80b786a79f76","system_id":"levelo_inurba_marseille","lat":43.30304,"lon":5.368987,"is_reserved":false,"is_disabled":false,"rental_uris":{"android":"levelo://app?vid=2618f72f-31ed-4a5f-9974-80b786a79f76","ios":"levelo://app?vid=2618f72f-31ed-4a5f-9974-80b786a79f76"},"vehicle_type_id":"4","last_reported":1691593709,"current_range_meters":400,"station_id":"ce4bgqh2rcd13ifvqc5g","pricing_plan_id":"free"},{"bike_id":"e2eeb3c0-a12a-4085-8d10-eabb17bc6f6b","system_id":"levelo_inurba_marseille","lat":43.30301,"lon":5.36916,"is_reserved":false,"is_disabled":false,"rental_uris":{"android":"levelo://app?vid=e2eeb3c0-a12a-4085-8d10-eabb17bc6f6b","ios":"levelo://app?vid=e2eeb3c0-a12a-4085-8d10-eabb17bc6f6b"},"vehicle_type_id":"4","last_reported":1691593709,"current_range_meters":0,"station_id":"ce4bgqh2rcd13ifvqc5g","pricing_plan_id":"free"},{"bike_id":"edf68a9d-7ad6-4500-a685-11616b49cdda","system_id":"levelo_inurba_marseille","lat":43.231562,"lon":5.436933,"is_reserved":false,"is_disabled":false,"rental_uris":{"android":"levelo://app?vid=edf68a9d-7ad6-4500-a685-11616b49cdda","ios":"levelo://app?vid=edf68a9d-7ad6-4500-a685-11616b49cdda"},"vehicle_type_id":"4","last_reported":1691593709,"current_range_meters":31200,"station_id":"ce4bhmp2rcd13ifvqgog","pricing_plan_id":"free"},{"bike_id":"eb9ca236-8bea-4a16-80b9-f4dcd1570b49","system_id":"levelo_inurba_marseille","lat":43.319935,"lon":5.381699,"is_reserved":false,"is_disabled":false,"rental_uris":{"android":"levelo://app?vid=eb9ca236-8bea-4a16-80b9-f4dcd1570b49","ios":"levelo://app?vid=eb9ca236-8bea-4a16-80b9-f4dcd1570b49"},"vehicle_type_id":"4","last_reported":1691593709,"current_range_meters":19600,"station_id":"ce4bhr12rcd13ifvqhpg","pricing_plan_id":"free"},{"bike_id":"34d34957-3a05-48d3-a56a-489b167561fb","system_id":"levelo_inurba_marseille","lat":43.319935,"lon":5.381699,"is_reserved":false,"is_disabled":false,"rental_uris":{"android":"levelo://app?vid=34d34957-3a05-48d3-a56a-489b167561fb","ios":"levelo://app?vid=34d34957-3a05-48d3-a56a-489b167561fb"},"vehicle_type_id":"4","last_reported":1691593709,"current_range_meters":31200,"station_id":"ce4bhr12rcd13ifvqhpg","pricing_plan_id":"free"},{"bike_id":"7b419518-ea7f-4da5-b99a-931cff3ce7fb","system_id":"levelo_inurba_marseille","lat":43.319935,"lon":5.381699,"is_reserved":false,"is_disabled":false,"rental_uris":{"android":"levelo://app?vid=7b419518-ea7f-4da5-b99a-931cff3ce7fb","ios":"levelo://app?vid=7b419518-ea7f-4da5-b99a-931cff3ce7fb"},"vehicle_type_id":"4","last_reported":1691593709,"current_range_meters":31200,"station_id":"ce4bhr12rcd13ifvqhpg","pricing_plan_id":"free"},{"bike_id":"514dab9a-01db-4cab-9229-e29bacfe8d0b","system_id":"levelo_inurba_marseille","lat":43.313571,"lon":5.384829,"is_reserved":false,"is_disabled":false,"rental_uris":{"android":"levelo://app?vid=514dab9a-01db-4cab-9229-e29bacfe8d0b","ios":"levelo://app?vid=514dab9a-01db-4cab-9229-e29bacfe8d0b"},"vehicle_type_id":"4","last_reported":1691593709,"current_range_meters":26800,"station_id":"ce4bgt92rcd13ifvqcf0","pricing_plan_id":"free"},{"bike_id":"f4f04c72-246e-4efe-97af-8091f713ac6d","system_id":"levelo_inurba_marseille","lat":43.313571,"lon":5.384829,"is_reserved":false,"is_disabled":false,"rental_uris":{"android":"levelo://app?vid=f4f04c72-246e-4efe-97af-8091f713ac6d","ios":"levelo://app?vid=f4f04c72-246e-4efe-97af-8091f713ac6d"},"vehicle_type_id":"4","last_reported":1691593709,"current_range_meters":13200,"station_id":"ce4bgt92rcd13ifvqcf0","pricing_plan_id":"free"},{"bike_id":"6b5f81f0-ca6e-4cbe-8ba1-f06aeccfd03e","system_id":"levelo_inurba_marseille","lat":43.313571,"lon":5.384829,"is_reserved":false,"is_disabled":false,"rental_uris":{"android":"levelo://app?vid=6b5f81f0-ca6e-4cbe-8ba1-f06aeccfd03e","ios":"levelo://app?vid=6b5f81f0-ca6e-4cbe-8ba1-f06aeccfd03e"},"vehicle_type_id":"4","last_reported":1691593709,"current_range_meters":31200,"station_id":"ce4bgt92rcd13ifvqcf0","pricing_plan_id":"free"},{"bike_id":"cb654f9d-8160-49fb-b09f-4b0f408c90ca","system_id":"levelo_inurba_marseille","lat":43.313571,"lon":5.384829,"is_reserved":false,"is_disabled":false,"rental_uris":{"android":"levelo://app?vid=cb654f9d-8160-49fb-b09f-4b0f408c90ca","ios":"levelo://app?vid=cb654f9d-8160-49fb-b09f-4b0f408c90ca"},"vehicle_type_id":"4","last_reported":1691593709,"current_range_meters":19200,"station_id":"ce4bgt92rcd13ifvqcf0","pricing_plan_id":"free"},{"bike_id":"e30c3070-4fe5-4573-8f13-8513cb601b4d","system_id":"levelo_inurba_marseille","lat":43.31364,"lon":5.38495,"is_reserved":false,"is_disabled":false,"rental_uris":{"android":"levelo://app?vid=e30c3070-4fe5-4573-8f13-8513cb601b4d","ios":"levelo://app?vid=e30c3070-4fe5-4573-8f13-8513cb601b4d"},"vehicle_type_id":"4","last_reported":1691593709,"current_range_meters":25600,"station_id":"","pricing_plan_id":"free"},{"bike_id":"31379656-e9ab-4885-8d50-7bfaa24b5c4c","system_id":"levelo_inurba_marseille","lat":43.313571,"lon":5.384829,"is_reserved":false,"is_disabled":false,"rental_uris":{"android":"levelo://app?vid=31379656-e9ab-4885-8d50-7bfaa24b5c4c","ios":"levelo://app?vid=31379656-e9ab-4885-8d50-7bfaa24b5c4c"},"vehicle_type_id":"4","last_reported":1691593709,"current_range_meters":30000,"station_id":"ce4bgt92rcd13ifvqcf0","pricing_plan_id":"free"},{"bike_id":"28086311-ed09-4177-a83a-413c3dedd48b","system_id":"levelo_inurba_marseille","lat":43.313571,"lon":5.384829,"is_reserved":false,"is_disabled":false,"rental_uris":{"android":"levelo://app?vid=28086311-ed09-4177-a83a-413c3dedd48b","ios":"levelo://app?vid=28086311-ed09-4177-a83a-413c3dedd48b"},"vehicle_type_id":"4","last_reported":1691593709,"current_range_meters":31200,"station_id":"ce4bgt92rcd13ifvqcf0","pricing_plan_id":"free"},{"bike_id":"153224a8-a388-4333-b138-6066fcad6ea7","system_id":"levelo_inurba_marseille","lat":43.313571,"lon":5.384829,"is_reserved":false,"is_disabled":false,"rental_uris":{"android":"levelo://app?vid=153224a8-a388-4333-b138-6066fcad6ea7","ios":"levelo://app?vid=153224a8-a388-4333-b138-6066fcad6ea7"},"vehicle_type_id":"4","last_reported":1691593709,"current_range_meters":31600,"station_id":"ce4bgt92rcd13ifvqcf0","pricing_plan_id":"free"},{"bike_id":"971ec600-3e67-4350-8657-184b0a605933","system_id":"levelo_inurba_marseille","lat":43.29933,"lon":5.36552,"is_reserved":false,"is_disabled":false,"rental_uris":{"android":"levelo://app?vid=971ec600-3e67-4350-8657-184b0a605933","ios":"levelo://app?vid=971ec600-3e67-4350-8657-184b0a605933"},"vehicle_type_id":"4","last_reported":1691593709,"current_range_meters":11200,"station_id":"ce4bgm92rcd13ifvqbr0","pricing_plan_id":"free"},{"bike_id":"15b2f289-e8da-4c30-a721-2cf15799ace1","system_id":"levelo_inurba_marseille","lat":43.31985,"lon":5.38268,"is_reserved":false,"is_disabled":false,"rental_uris":{"android":"levelo://app?vid=15b2f289-e8da-4c30-a721-2cf15799ace1","ios":"levelo://app?vid=15b2f289-e8da-4c30-a721-2cf15799ace1"},"vehicle_type_id":"4","last_reported":1691593709,"current_range_meters":5200,"station_id":"","pricing_plan_id":"free"},{"bike_id":"6a917446-08a8-4beb-9051-84bfd390bcbb","system_id":"levelo_inurba_marseille","lat":43.30536,"lon":5.38413,"is_reserved":false,"is_disabled":false,"rental_uris":{"android":"levelo://app?vid=6a917446-08a8-4beb-9051-84bfd390bcbb","ios":"levelo://app?vid=6a917446-08a8-4beb-9051-84bfd390bcbb"},"vehicle_type_id":"4","last_reported":1691593709,"current_range_meters":21600,"station_id":"ce4bgg92rcd13ifvqb30","pricing_plan_id":"free"},{"bike_id":"bb2b3e54-0af7-4c22-96b0-718d44582c68","system_id":"levelo_inurba_marseille","lat":43.305403,"lon":5.384227,"is_reserved":false,"is_disabled":false,"rental_uris":{"android":"levelo://app?vid=bb2b3e54-0af7-4c22-96b0-718d44582c68","ios":"levelo://app?vid=bb2b3e54-0af7-4c22-96b0-718d44582c68"},"vehicle_type_id":"4","last_reported":1691593709,"current_range_meters":31600,"station_id":"ce4bgg92rcd13ifvqb30","pricing_plan_id":"free"},{"bike_id":"e12b4729-a1d9-4909-9759-e5b8690101b0","system_id":"levelo_inurba_marseille","lat":43.30081,"lon":5.37844,"is_reserved":false,"is_disabled":false,"rental_uris":{"android":"levelo://app?vid=e12b4729-a1d9-4909-9759-e5b8690101b0","ios":"levelo://app?vid=e12b4729-a1d9-4909-9759-e5b8690101b0"},"vehicle_type_id":"4","last_reported":1691593709,"current_range_meters":14000,"station_id":"","pricing_plan_id":"free"},{"bike_id":"eb84509c-6302-4507-8ba3-630e7e10b8f3","system_id":"levelo_inurba_marseille","lat":43.30539,"lon":5.38426,"is_reserved":false,"is_disabled":false,"rental_uris":{"android":"levelo://app?vid=eb84509c-6302-4507-8ba3-630e7e10b8f3","ios":"levelo://app?vid=eb84509c-6302-4507-8ba3-630e7e10b8f3"},"vehicle_type_id":"4","last_reported":1691593709,"current_range_meters":31200,"station_id":"ce4bgg92rcd13ifvqb30","pricing_plan_id":"free"},{"bike_id":"7d2bb12a-4d48-41e0-bedc-c344fb591b1d","system_id":"levelo_inurba_marseille","lat":43.298433,"lon":5.362774,"is_reserved":false,"is_disabled":false,"rental_uris":{"android":"levelo://app?vid=7d2bb12a-4d48-41e0-bedc-c344fb591b1d","ios":"levelo://app?vid=7d2bb12a-4d48-41e0-bedc-c344fb591b1d"},"vehicle_type_id":"4","last_reported":1691593709,"current_range_meters":28800,"station_id":"ce4bgpp2rcd13ifvqc3g","pricing_plan_id":"free"},{"bike_id":"0adf9f92-b558-4319-b1c7-82642d9b154a","system_id":"levelo_inurba_marseille","lat":43.29844,"lon":5.36263,"is_reserved":false,"is_disabled":false,"rental_uris":{"android":"levelo://app?vid=0adf9f92-b558-4319-b1c7-82642d9b154a","ios":"levelo://app?vid=0adf9f92-b558-4319-b1c7-82642d9b154a"},"vehicle_type_id":"4","last_reported":1691593709,"current_range_meters":31200,"station_id":"ce4bgpp2rcd13ifvqc3g","pricing_plan_id":"free"},{"bike_id":"67a00840-f579-4f61-8bc3-d5eda48d7512","system_id":"levelo_inurba_marseille","lat":43.299243,"lon":5.374807,"is_reserved":false,"is_disabled":false,"rental_uris":{"android":"levelo://app?vid=67a00840-f579-4f61-8bc3-d5eda48d7512","ios":"levelo://app?vid=67a00840-f579-4f61-8bc3-d5eda48d7512"},"vehicle_type_id":"4","last_reported":1691593709,"current_range_meters":28000,"station_id":"ce4bgjh2rcd13ifvqbg0","pricing_plan_id":"free"},{"bike_id":"cf06159d-1199-48b9-8b9f-3600052389dd","system_id":"levelo_inurba_marseille","lat":43.30533,"lon":5.38429,"is_reserved":false,"is_disabled":false,"rental_uris":{"android":"levelo://app?vid=cf06159d-1199-48b9-8b9f-3600052389dd","ios":"levelo://app?vid=cf06159d-1199-48b9-8b9f-3600052389dd"},"vehicle_type_id":"4","last_reported":1691593709,"current_range_meters":23600,"station_id":"ce4bgg92rcd13ifvqb30","pricing_plan_id":"free"},{"bike_id":"30537d43-af02-4a10-b928-7b9b8cf633d2","system_id":"levelo_inurba_marseille","lat":43.305265,"lon":5.384239,"is_reserved":false,"is_disabled":false,"rental_uris":{"android":"levelo://app?vid=30537d43-af02-4a10-b928-7b9b8cf633d2","ios":"levelo://app?vid=30537d43-af02-4a10-b928-7b9b8cf633d2"},"vehicle_type_id":"4","last_reported":1691593709,"current_range_meters":19600,"station_id":"ce4bgg92rcd13ifvqb30","pricing_plan_id":"free"},{"bike_id":"4a6881d2-6ef7-4791-860d-62e1f027fa52","system_id":"levelo_inurba_marseille","lat":43.311722,"lon":5.387247,"is_reserved":false,"is_disabled":false,"rental_uris":{"android":"levelo://app?vid=4a6881d2-6ef7-4791-860d-62e1f027fa52","ios":"levelo://app?vid=4a6881d2-6ef7-4791-860d-62e1f027fa52"},"vehicle_type_id":"4","last_reported":1691593709,"current_range_meters":10400,"station_id":"ce4bgv12rcd13ifvqcp0","pricing_plan_id":"free"},{"bike_id":"a2c13a32-d575-4847-95d4-98b34bc7061b","system_id":"levelo_inurba_marseille","lat":43.311722,"lon":5.387247,"is_reserved":false,"is_disabled":false,"rental_uris":{"android":"levelo://app?vid=a2c13a32-d575-4847-95d4-98b34bc7061b","ios":"levelo://app?vid=a2c13a32-d575-4847-95d4-98b34bc7061b"},"vehicle_type_id":"4","last_reported":1691593709,"current_range_meters":18000,"station_id":"ce4bgv12rcd13ifvqcp0","pricing_plan_id":"free"},{"bike_id":"4e2a616e-a0c5-4362-8f23-758a217f922e","system_id":"levelo_inurba_marseille","lat":43.297794,"lon":5.370888,"is_reserved":false,"is_disabled":false,"rental_uris":{"android":"levelo://app?vid=4e2a616e-a0c5-4362-8f23-758a217f922e","ios":"levelo://app?vid=4e2a616e-a0c5-4362-8f23-758a217f922e"},"vehicle_type_id":"4","last_reported":1691593709,"current_range_meters":22800,"station_id":"ce4bgop2rcd13ifvqc1g","pricing_plan_id":"free"},{"bike_id":"3a574de3-b31f-4b53-9fcf-1545808be757","system_id":"levelo_inurba_marseille","lat":43.32296,"lon":5.38255,"is_reserved":false,"is_disabled":false,"rental_uris":{"android":"levelo://app?vid=3a574de3-b31f-4b53-9fcf-1545808be757","ios":"levelo://app?vid=3a574de3-b31f-4b53-9fcf-1545808be757"},"vehicle_type_id":"4","last_reported":1691593709,"current_range_meters":25600,"station_id":"ce4bhr12rcd13ifvqhqg","pricing_plan_id":"free"},{"bike_id":"d5843db5-5fbd-4c44-99e8-d89a4403f1b2","system_id":"levelo_inurba_marseille","lat":43.297794,"lon":5.370888,"is_reserved":false,"is_disabled":false,"rental_uris":{"android":"levelo://app?vid=d5843db5-5fbd-4c44-99e8-d89a4403f1b2","ios":"levelo://app?vid=d5843db5-5fbd-4c44-99e8-d89a4403f1b2"},"vehicle_type_id":"4","last_reported":1691593709,"current_range_meters":20400,"station_id":"ce4bgop2rcd13ifvqc1g","pricing_plan_id":"free"},{"bike_id":"cb90dca6-3441-4c3e-b0b0-a84353df66c1","system_id":"levelo_inurba_marseille","lat":43.297794,"lon":5.370888,"is_reserved":false,"is_disabled":false,"rental_uris":{"android":"levelo://app?vid=cb90dca6-3441-4c3e-b0b0-a84353df66c1","ios":"levelo://app?vid=cb90dca6-3441-4c3e-b0b0-a84353df66c1"},"vehicle_type_id":"4","last_reported":1691593709,"current_range_meters":12400,"station_id":"ce4bgop2rcd13ifvqc1g","pricing_plan_id":"free"},{"bike_id":"b3e59944-51c6-41f6-a617-bc9454b48e90","system_id":"levelo_inurba_marseille","lat":43.32822,"lon":5.3667,"is_reserved":false,"is_disabled":false,"rental_uris":{"android":"levelo://app?vid=b3e59944-51c6-41f6-a617-bc9454b48e90","ios":"levelo://app?vid=b3e59944-51c6-41f6-a617-bc9454b48e90"},"vehicle_type_id":"4","last_reported":1691593709,"current_range_meters":30800,"station_id":"ce4bhs92rcd13ifvqi0g","pricing_plan_id":"free"},{"bike_id":"2fdf06f0-8fe8-4a94-ae1f-c98849da9368","system_id":"levelo_inurba_marseille","lat":43.328371,"lon":5.366909,"is_reserved":false,"is_disabled":false,"rental_uris":{"android":"levelo://app?vid=2fdf06f0-8fe8-4a94-ae1f-c98849da9368","ios":"levelo://app?vid=2fdf06f0-8fe8-4a94-ae1f-c98849da9368"},"vehicle_type_id":"4","last_reported":1691593709,"current_range_meters":29600,"station_id":"ce4bhs92rcd13ifvqi0g","pricing_plan_id":"free"},{"bike_id":"ceca8cd4-3d1e-41a7-9382-c718aad1c6a0","system_id":"levelo_inurba_marseille","lat":43.32826,"lon":5.36674,"is_reserved":false,"is_disabled":false,"rental_uris":{"android":"levelo://app?vid=ceca8cd4-3d1e-41a7-9382-c718aad1c6a0","ios":"levelo://app?vid=ceca8cd4-3d1e-41a7-9382-c718aad1c6a0"},"vehicle_type_id":"4","last_reported":1691593709,"current_range_meters":31200,"station_id":"ce4bhs92rcd13ifvqi0g","pricing_plan_id":"free"},{"bike_id":"96a24695-afe7-4738-b13e-7bd48d93c2cd","system_id":"levelo_inurba_marseille","lat":43.32826,"lon":5.3667,"is_reserved":false,"is_disabled":false,"rental_uris":{"android":"levelo://app?vid=96a24695-afe7-4738-b13e-7bd48d93c2cd","ios":"levelo://app?vid=96a24695-afe7-4738-b13e-7bd48d93c2cd"},"vehicle_type_id":"4","last_reported":1691593709,"current_range_meters":24800,"station_id":"ce4bhs92rcd13ifvqi0g","pricing_plan_id":"free"},{"bike_id":"1aa045b9-3de3-4cf3-bcc9-d7e40ca37fd7","system_id":"levelo_inurba_marseille","lat":43.32831,"lon":5.36674,"is_reserved":false,"is_disabled":false,"rental_uris":{"android":"levelo://app?vid=1aa045b9-3de3-4cf3-bcc9-d7e40ca37fd7","ios":"levelo://app?vid=1aa045b9-3de3-4cf3-bcc9-d7e40ca37fd7"},"vehicle_type_id":"4","last_reported":1691593709,"current_range_meters":25200,"station_id":"ce4bhs92rcd13ifvqi0g","pricing_plan_id":"free"},{"bike_id":"3dee33b0-1dbd-4d86-9b6b-12fca67c3ee9","system_id":"levelo_inurba_marseille","lat":43.32832,"lon":5.3667,"is_reserved":false,"is_disabled":false,"rental_uris":{"android":"levelo://app?vid=3dee33b0-1dbd-4d86-9b6b-12fca67c3ee9","ios":"levelo://app?vid=3dee33b0-1dbd-4d86-9b6b-12fca67c3ee9"},"vehicle_type_id":"4","last_reported":1691593709,"current_range_meters":23200,"station_id":"ce4bhs92rcd13ifvqi0g","pricing_plan_id":"free"},{"bike_id":"69208cf7-0ad1-487d-a460-18606486926b","system_id":"levelo_inurba_marseille","lat":43.32833,"lon":5.36668,"is_reserved":false,"is_disabled":false,"rental_uris":{"android":"levelo://app?vid=69208cf7-0ad1-487d-a460-18606486926b","ios":"levelo://app?vid=69208cf7-0ad1-487d-a460-18606486926b"},"vehicle_type_id":"4","last_reported":1691593709,"current_range_meters":31200,"station_id":"ce4bhs92rcd13ifvqi0g","pricing_plan_id":"free"},{"bike_id":"22ab1de9-259f-4ba8-9b1b-8a48368f1118","system_id":"levelo_inurba_marseille","lat":43.32834,"lon":5.36672,"is_reserved":false,"is_disabled":false,"rental_uris":{"android":"levelo://app?vid=22ab1de9-259f-4ba8-9b1b-8a48368f1118","ios":"levelo://app?vid=22ab1de9-259f-4ba8-9b1b-8a48368f1118"},"vehicle_type_id":"4","last_reported":1691593709,"current_range_meters":30000,"station_id":"ce4bhs92rcd13ifvqi0g","pricing_plan_id":"free"},{"bike_id":"16a86685-6f10-4570-b2f6-1bb2cfa44378","system_id":"levelo_inurba_marseille","lat":43.32836,"lon":5.36694,"is_reserved":false,"is_disabled":false,"rental_uris":{"android":"levelo://app?vid=16a86685-6f10-4570-b2f6-1bb2cfa44378","ios":"levelo://app?vid=16a86685-6f10-4570-b2f6-1bb2cfa44378"},"vehicle_type_id":"4","last_reported":1691593709,"current_range_meters":25600,"station_id":"ce4bhs92rcd13ifvqi0g","pricing_plan_id":"free"},{"bike_id":"dd789220-e7b5-42c1-b9dc-dc4243148021","system_id":"levelo_inurba_marseille","lat":43.297163,"lon":5.365866,"is_reserved":false,"is_disabled":false,"rental_uris":{"android":"levelo://app?vid=dd789220-e7b5-42c1-b9dc-dc4243148021","ios":"levelo://app?vid=dd789220-e7b5-42c1-b9dc-dc4243148021"},"vehicle_type_id":"4","last_reported":1691593709,"current_range_meters":31200,"station_id":"ce4bgn12rcd13ifvqbt0","pricing_plan_id":"free"},{"bike_id":"bd61f5fb-d1b1-4c17-a469-10bbf4518c85","system_id":"levelo_inurba_marseille","lat":43.296131,"lon":5.370791,"is_reserved":false,"is_disabled":false,"rental_uris":{"android":"levelo://app?vid=bd61f5fb-d1b1-4c17-a469-10bbf4518c85","ios":"levelo://app?vid=bd61f5fb-d1b1-4c17-a469-10bbf4518c85"},"vehicle_type_id":"4","last_reported":1691593709,"current_range_meters":26400,"station_id":"ce4bgnh2rcd13ifvqc0g","pricing_plan_id":"free"},{"bike_id":"87133aad-c39e-4977-b560-14df6973f906","system_id":"levelo_inurba_marseille","lat":43.231562,"lon":5.436933,"is_reserved":false,"is_disabled":false,"rental_uris":{"android":"levelo://app?vid=87133aad-c39e-4977-b560-14df6973f906","ios":"levelo://app?vid=87133aad-c39e-4977-b560-14df6973f906"},"vehicle_type_id":"4","last_reported":1691593709,"current_range_meters":30800,"station_id":"ce4bhmp2rcd13ifvqgog","pricing_plan_id":"free"},{"bike_id":"b65ee9eb-7566-4fac-a1aa-60b1b1309196","system_id":"levelo_inurba_marseille","lat":43.296131,"lon":5.370791,"is_reserved":false,"is_disabled":false,"rental_uris":{"android":"levelo://app?vid=b65ee9eb-7566-4fac-a1aa-60b1b1309196","ios":"levelo://app?vid=b65ee9eb-7566-4fac-a1aa-60b1b1309196"},"vehicle_type_id":"4","last_reported":1691593709,"current_range_meters":3200,"station_id":"ce4bgnh2rcd13ifvqc0g","pricing_plan_id":"free"},{"bike_id":"00115edb-3065-44ee-aa0d-b0f3e38d35ed","system_id":"levelo_inurba_marseille","lat":43.3098,"lon":5.38985,"is_reserved":false,"is_disabled":false,"rental_uris":{"android":"levelo://app?vid=00115edb-3065-44ee-aa0d-b0f3e38d35ed","ios":"levelo://app?vid=00115edb-3065-44ee-aa0d-b0f3e38d35ed"},"vehicle_type_id":"4","last_reported":1691593709,"current_range_meters":29600,"station_id":"ce4bgup2rcd13ifvqco0","pricing_plan_id":"free"},{"bike_id":"d2f30d57-4926-4470-9aa7-7fc9064b050d","system_id":"levelo_inurba_marseille","lat":43.309663,"lon":5.390138,"is_reserved":false,"is_disabled":false,"rental_uris":{"android":"levelo://app?vid=d2f30d57-4926-4470-9aa7-7fc9064b050d","ios":"levelo://app?vid=d2f30d57-4926-4470-9aa7-7fc9064b050d"},"vehicle_type_id":"4","last_reported":1691593709,"current_range_meters":15200,"station_id":"","pricing_plan_id":"free"},{"bike_id":"1cf88b6f-5fe1-4f4a-be47-3d19f682a3d2","system_id":"levelo_inurba_marseille","lat":43.299028,"lon":5.381509,"is_reserved":false,"is_disabled":false,"rental_uris":{"android":"levelo://app?vid=1cf88b6f-5fe1-4f4a-be47-3d19f682a3d2","ios":"levelo://app?vid=1cf88b6f-5fe1-4f4a-be47-3d19f682a3d2"},"vehicle_type_id":"4","last_reported":1691593709,"current_range_meters":19200,"station_id":"ce4bgj12rcd13ifvqbc0","pricing_plan_id":"free"},{"bike_id":"1407c1a6-2ea8-47fc-bdcc-75f0132adf21","system_id":"levelo_inurba_marseille","lat":43.317557,"lon":5.390173,"is_reserved":false,"is_disabled":false,"rental_uris":{"android":"levelo://app?vid=1407c1a6-2ea8-47fc-bdcc-75f0132adf21","ios":"levelo://app?vid=1407c1a6-2ea8-47fc-bdcc-75f0132adf21"},"vehicle_type_id":"4","last_reported":1691593709,"current_range_meters":25200,"station_id":"ce4bhqp2rcd13ifvqhng","pricing_plan_id":"free"},{"bike_id":"38795b4d-66c8-4f7f-85fd-a43fd1cba755","system_id":"levelo_inurba_marseille","lat":43.317557,"lon":5.390173,"is_reserved":false,"is_disabled":false,"rental_uris":{"android":"levelo://app?vid=38795b4d-66c8-4f7f-85fd-a43fd1cba755","ios":"levelo://app?vid=38795b4d-66c8-4f7f-85fd-a43fd1cba755"},"vehicle_type_id":"4","last_reported":1691593709,"current_range_meters":4400,"station_id":"ce4bhqp2rcd13ifvqhng","pricing_plan_id":"free"},{"bike_id":"67bf6f54-0066-4632-bd5e-6c18d78f8763","system_id":"levelo_inurba_marseille","lat":43.317557,"lon":5.390173,"is_reserved":false,"is_disabled":false,"rental_uris":{"android":"levelo://app?vid=67bf6f54-0066-4632-bd5e-6c18d78f8763","ios":"levelo://app?vid=67bf6f54-0066-4632-bd5e-6c18d78f8763"},"vehicle_type_id":"4","last_reported":1691593709,"current_range_meters":30400,"station_id":"ce4bhqp2rcd13ifvqhng","pricing_plan_id":"free"},{"bike_id":"9f780d5f-25f7-4665-bb1f-ee2252260176","system_id":"levelo_inurba_marseille","lat":43.317557,"lon":5.390173,"is_reserved":false,"is_disabled":false,"rental_uris":{"android":"levelo://app?vid=9f780d5f-25f7-4665-bb1f-ee2252260176","ios":"levelo://app?vid=9f780d5f-25f7-4665-bb1f-ee2252260176"},"vehicle_type_id":"4","last_reported":1691593709,"current_range_meters":26000,"station_id":"ce4bhqp2rcd13ifvqhng","pricing_plan_id":"free"},{"bike_id":"bbdf66e1-433b-4a72-929b-a9f7a519bdb2","system_id":"levelo_inurba_marseille","lat":43.317557,"lon":5.390173,"is_reserved":false,"is_disabled":false,"rental_uris":{"android":"levelo://app?vid=bbdf66e1-433b-4a72-929b-a9f7a519bdb2","ios":"levelo://app?vid=bbdf66e1-433b-4a72-929b-a9f7a519bdb2"},"vehicle_type_id":"4","last_reported":1691593709,"current_range_meters":31200,"station_id":"ce4bhqp2rcd13ifvqhng","pricing_plan_id":"free"},{"bike_id":"4ac2e1cb-ccbf-4b9a-b24d-70e9e0a66a09","system_id":"levelo_inurba_marseille","lat":43.317557,"lon":5.390173,"is_reserved":false,"is_disabled":false,"rental_uris":{"android":"levelo://app?vid=4ac2e1cb-ccbf-4b9a-b24d-70e9e0a66a09","ios":"levelo://app?vid=4ac2e1cb-ccbf-4b9a-b24d-70e9e0a66a09"},"vehicle_type_id":"4","last_reported":1691593709,"current_range_meters":31200,"station_id":"ce4bhqp2rcd13ifvqhng","pricing_plan_id":"free"},{"bike_id":"e77b3d0f-7a57-4c82-b455-52a093522c55","system_id":"levelo_inurba_marseille","lat":43.317557,"lon":5.390173,"is_reserved":false,"is_disabled":false,"rental_uris":{"android":"levelo://app?vid=e77b3d0f-7a57-4c82-b455-52a093522c55","ios":"levelo://app?vid=e77b3d0f-7a57-4c82-b455-52a093522c55"},"vehicle_type_id":"4","last_reported":1691593709,"current_range_meters":26800,"station_id":"ce4bhqp2rcd13ifvqhng","pricing_plan_id":"free"},{"bike_id":"5c960f21-4fa0-4fac-81c2-ff0397396ba7","system_id":"levelo_inurba_marseille","lat":43.317557,"lon":5.390173,"is_reserved":false,"is_disabled":false,"rental_uris":{"android":"levelo://app?vid=5c960f21-4fa0-4fac-81c2-ff0397396ba7","ios":"levelo://app?vid=5c960f21-4fa0-4fac-81c2-ff0397396ba7"},"vehicle_type_id":"4","last_reported":1691593709,"current_range_meters":27600,"station_id":"ce4bhqp2rcd13ifvqhng","pricing_plan_id":"free"},{"bike_id":"f0d506b5-1334-4bf3-b008-61812ced1ee1","system_id":"levelo_inurba_marseille","lat":43.317557,"lon":5.390173,"is_reserved":false,"is_disabled":false,"rental_uris":{"android":"levelo://app?vid=f0d506b5-1334-4bf3-b008-61812ced1ee1","ios":"levelo://app?vid=f0d506b5-1334-4bf3-b008-61812ced1ee1"},"vehicle_type_id":"4","last_reported":1691593709,"current_range_meters":24800,"station_id":"ce4bhqp2rcd13ifvqhng","pricing_plan_id":"free"},{"bike_id":"6eabaaf2-8d6f-4794-ab72-c5c62f92bf9a","system_id":"levelo_inurba_marseille","lat":43.298037,"lon":5.381066,"is_reserved":false,"is_disabled":false,"rental_uris":{"android":"levelo://app?vid=6eabaaf2-8d6f-4794-ab72-c5c62f92bf9a","ios":"levelo://app?vid=6eabaaf2-8d6f-4794-ab72-c5c62f92bf9a"},"vehicle_type_id":"4","last_reported":1691593709,"current_range_meters":17600,"station_id":"ce4bgip2rcd13ifvqbb0","pricing_plan_id":"free"},{"bike_id":"57f98f54-2676-4102-8c5d-26081a994650","system_id":"levelo_inurba_marseille","lat":43.304274,"lon":5.388873,"is_reserved":false,"is_disabled":false,"rental_uris":{"android":"levelo://app?vid=57f98f54-2676-4102-8c5d-26081a994650","ios":"levelo://app?vid=57f98f54-2676-4102-8c5d-26081a994650"},"vehicle_type_id":"4","last_reported":1691593709,"current_range_meters":18800,"station_id":"ce4bgk12rcd13ifvqbi0","pricing_plan_id":"free"},{"bike_id":"a4df99ce-0488-49dd-a888-94686f562e88","system_id":"levelo_inurba_marseille","lat":43.295748,"lon":5.37522,"is_reserved":false,"is_disabled":false,"rental_uris":{"android":"levelo://app?vid=a4df99ce-0488-49dd-a888-94686f562e88","ios":"levelo://app?vid=a4df99ce-0488-49dd-a888-94686f562e88"},"vehicle_type_id":"4","last_reported":1691593709,"current_range_meters":29600,"station_id":"ce4bgh92rcd13ifvqb50","pricing_plan_id":"free"},{"bike_id":"9f407741-3e82-42f6-9092-a4177cc78039","system_id":"levelo_inurba_marseille","lat":43.32367,"lon":5.388836,"is_reserved":false,"is_disabled":false,"rental_uris":{"android":"levelo://app?vid=9f407741-3e82-42f6-9092-a4177cc78039","ios":"levelo://app?vid=9f407741-3e82-42f6-9092-a4177cc78039"},"vehicle_type_id":"4","last_reported":1691593709,"current_range_meters":18800,"station_id":"ce4bhqp2rcd13ifvqhog","pricing_plan_id":"free"},{"bike_id":"2d8b254a-87f3-4049-a7bc-03fd28f94150","system_id":"levelo_inurba_marseille","lat":43.32366,"lon":5.3888,"is_reserved":false,"is_disabled":false,"rental_uris":{"android":"levelo://app?vid=2d8b254a-87f3-4049-a7bc-03fd28f94150","ios":"levelo://app?vid=2d8b254a-87f3-4049-a7bc-03fd28f94150"},"vehicle_type_id":"4","last_reported":1691593709,"current_range_meters":19200,"station_id":"ce4bhqp2rcd13ifvqhog","pricing_plan_id":"free"},{"bike_id":"09bdcea8-f003-494e-acb1-85fbb290a0e2","system_id":"levelo_inurba_marseille","lat":43.32367,"lon":5.388836,"is_reserved":false,"is_disabled":false,"rental_uris":{"android":"levelo://app?vid=09bdcea8-f003-494e-acb1-85fbb290a0e2","ios":"levelo://app?vid=09bdcea8-f003-494e-acb1-85fbb290a0e2"},"vehicle_type_id":"4","last_reported":1691593709,"current_range_meters":31200,"station_id":"ce4bhqp2rcd13ifvqhog","pricing_plan_id":"free"},{"bike_id":"706b5370-7eed-4a42-a1a9-b4cf78d1d029","system_id":"levelo_inurba_marseille","lat":43.32369,"lon":5.38883,"is_reserved":false,"is_disabled":false,"rental_uris":{"android":"levelo://app?vid=706b5370-7eed-4a42-a1a9-b4cf78d1d029","ios":"levelo://app?vid=706b5370-7eed-4a42-a1a9-b4cf78d1d029"},"vehicle_type_id":"4","last_reported":1691593709,"current_range_meters":30800,"station_id":"ce4bhqp2rcd13ifvqhog","pricing_plan_id":"free"},{"bike_id":"eaad0f71-f290-4338-9e3a-b85deb3d9357","system_id":"levelo_inurba_marseille","lat":43.32367,"lon":5.38887,"is_reserved":false,"is_disabled":false,"rental_uris":{"android":"levelo://app?vid=eaad0f71-f290-4338-9e3a-b85deb3d9357","ios":"levelo://app?vid=eaad0f71-f290-4338-9e3a-b85deb3d9357"},"vehicle_type_id":"4","last_reported":1691593709,"current_range_meters":31200,"station_id":"ce4bhqp2rcd13ifvqhog","pricing_plan_id":"free"},{"bike_id":"c5071b5e-e528-45c7-9a22-9fcb357a8d0b","system_id":"levelo_inurba_marseille","lat":43.29602,"lon":5.381084,"is_reserved":false,"is_disabled":false,"rental_uris":{"android":"levelo://app?vid=c5071b5e-e528-45c7-9a22-9fcb357a8d0b","ios":"levelo://app?vid=c5071b5e-e528-45c7-9a22-9fcb357a8d0b"},"vehicle_type_id":"4","last_reported":1691593709,"current_range_meters":1600,"station_id":"ce4bgl12rcd13ifvqbo0","pricing_plan_id":"free"},{"bike_id":"65b2eec5-5290-4240-b925-943e2e581990","system_id":"levelo_inurba_marseille","lat":43.293111,"lon":5.371793,"is_reserved":false,"is_disabled":false,"rental_uris":{"android":"levelo://app?vid=65b2eec5-5290-4240-b925-943e2e581990","ios":"levelo://app?vid=65b2eec5-5290-4240-b925-943e2e581990"},"vehicle_type_id":"4","last_reported":1691593709,"current_range_meters":5600,"station_id":"ce4bgh92rcd13ifvqb40","pricing_plan_id":"free"},{"bike_id":"dbe406a0-e31d-4174-932b-0d8d584d17c2","system_id":"levelo_inurba_marseille","lat":43.292749,"lon":5.368402,"is_reserved":false,"is_disabled":false,"rental_uris":{"android":"levelo://app?vid=dbe406a0-e31d-4174-932b-0d8d584d17c2","ios":"levelo://app?vid=dbe406a0-e31d-4174-932b-0d8d584d17c2"},"vehicle_type_id":"4","last_reported":1691593709,"current_range_meters":31200,"station_id":"ce4bhbp2rcd13ifvqesg","pricing_plan_id":"free"},{"bike_id":"6fac4d3b-f897-4527-b853-1dbcf4e4968e","system_id":"levelo_inurba_marseille","lat":43.29306,"lon":5.37166,"is_reserved":false,"is_disabled":false,"rental_uris":{"android":"levelo://app?vid=6fac4d3b-f897-4527-b853-1dbcf4e4968e","ios":"levelo://app?vid=6fac4d3b-f897-4527-b853-1dbcf4e4968e"},"vehicle_type_id":"4","last_reported":1691593709,"current_range_meters":20800,"station_id":"ce4bgh92rcd13ifvqb40","pricing_plan_id":"free"},{"bike_id":"7a7203c2-461b-4b51-a133-eb5cacf94727","system_id":"levelo_inurba_marseille","lat":43.292749,"lon":5.368398,"is_reserved":false,"is_disabled":false,"rental_uris":{"android":"levelo://app?vid=7a7203c2-461b-4b51-a133-eb5cacf94727","ios":"levelo://app?vid=7a7203c2-461b-4b51-a133-eb5cacf94727"},"vehicle_type_id":"4","last_reported":1691593709,"current_range_meters":19600,"station_id":"ce4bhbp2rcd13ifvqesg","pricing_plan_id":"free"},{"bike_id":"1b743634-8c3b-4969-a8c0-c00fb844d088","system_id":"levelo_inurba_marseille","lat":43.29302,"lon":5.37171,"is_reserved":false,"is_disabled":false,"rental_uris":{"android":"levelo://app?vid=1b743634-8c3b-4969-a8c0-c00fb844d088","ios":"levelo://app?vid=1b743634-8c3b-4969-a8c0-c00fb844d088"},"vehicle_type_id":"4","last_reported":1691593709,"current_range_meters":23600,"station_id":"ce4bgh92rcd13ifvqb40","pricing_plan_id":"free"},{"bike_id":"8b55052b-c185-4ed0-919a-9f18dc6fa3bf","system_id":"levelo_inurba_marseille","lat":43.292749,"lon":5.368398,"is_reserved":false,"is_disabled":false,"rental_uris":{"android":"levelo://app?vid=8b55052b-c185-4ed0-919a-9f18dc6fa3bf","ios":"levelo://app?vid=8b55052b-c185-4ed0-919a-9f18dc6fa3bf"},"vehicle_type_id":"4","last_reported":1691593709,"current_range_meters":11600,"station_id":"ce4bhbp2rcd13ifvqesg","pricing_plan_id":"free"},{"bike_id":"7041281c-b278-4df1-8157-ed03c9f42bf0","system_id":"levelo_inurba_marseille","lat":43.293009,"lon":5.374584,"is_reserved":false,"is_disabled":false,"rental_uris":{"android":"levelo://app?vid=7041281c-b278-4df1-8157-ed03c9f42bf0","ios":"levelo://app?vid=7041281c-b278-4df1-8157-ed03c9f42bf0"},"vehicle_type_id":"4","last_reported":1691593709,"current_range_meters":2400,"station_id":"ce4bgi12rcd13ifvqb70","pricing_plan_id":"free"},{"bike_id":"614e59c1-6ad1-472b-b713-9ec8603c7525","system_id":"levelo_inurba_marseille","lat":43.2936,"lon":5.37835,"is_reserved":false,"is_disabled":false,"rental_uris":{"android":"levelo://app?vid=614e59c1-6ad1-472b-b713-9ec8603c7525","ios":"levelo://app?vid=614e59c1-6ad1-472b-b713-9ec8603c7525"},"vehicle_type_id":"4","last_reported":1691593709,"current_range_meters":6000,"station_id":"ce4bgjh2rcd13ifvqbf0","pricing_plan_id":"free"},{"bike_id":"31a91e0e-2f05-415a-a4fa-b28b07b9a82b","system_id":"levelo_inurba_marseille","lat":43.291675,"lon":5.371583,"is_reserved":false,"is_disabled":false,"rental_uris":{"android":"levelo://app?vid=31a91e0e-2f05-415a-a4fa-b28b07b9a82b","ios":"levelo://app?vid=31a91e0e-2f05-415a-a4fa-b28b07b9a82b"},"vehicle_type_id":"4","last_reported":1691593709,"current_range_meters":12800,"station_id":"ce4bha92rcd13ifvqeh0","pricing_plan_id":"free"},{"bike_id":"355e1ee9-9cbc-4ce6-9b42-08d3af86fe72","system_id":"levelo_inurba_marseille","lat":43.291671,"lon":5.371575,"is_reserved":false,"is_disabled":false,"rental_uris":{"android":"levelo://app?vid=355e1ee9-9cbc-4ce6-9b42-08d3af86fe72","ios":"levelo://app?vid=355e1ee9-9cbc-4ce6-9b42-08d3af86fe72"},"vehicle_type_id":"4","last_reported":1691593709,"current_range_meters":21200,"station_id":"ce4bha92rcd13ifvqeh0","pricing_plan_id":"free"},{"bike_id":"6a457a7f-2a0e-4076-9e45-8cb63d97d7db","system_id":"levelo_inurba_marseille","lat":43.291671,"lon":5.371575,"is_reserved":false,"is_disabled":false,"rental_uris":{"android":"levelo://app?vid=6a457a7f-2a0e-4076-9e45-8cb63d97d7db","ios":"levelo://app?vid=6a457a7f-2a0e-4076-9e45-8cb63d97d7db"},"vehicle_type_id":"4","last_reported":1691593709,"current_range_meters":12400,"station_id":"ce4bha92rcd13ifvqeh0","pricing_plan_id":"free"},{"bike_id":"4f08875d-8c28-481b-a4ee-421da244f4d9","system_id":"levelo_inurba_marseille","lat":43.31331,"lon":5.39692,"is_reserved":false,"is_disabled":false,"rental_uris":{"android":"levelo://app?vid=4f08875d-8c28-481b-a4ee-421da244f4d9","ios":"levelo://app?vid=4f08875d-8c28-481b-a4ee-421da244f4d9"},"vehicle_type_id":"4","last_reported":1691593709,"current_range_meters":27200,"station_id":"ce4bgvp2rcd13ifvqcu0","pricing_plan_id":"free"},{"bike_id":"9608e44d-c8a5-470e-aa0b-a820ba2c27e7","system_id":"levelo_inurba_marseille","lat":43.31321,"lon":5.39693,"is_reserved":false,"is_disabled":false,"rental_uris":{"android":"levelo://app?vid=9608e44d-c8a5-470e-aa0b-a820ba2c27e7","ios":"levelo://app?vid=9608e44d-c8a5-470e-aa0b-a820ba2c27e7"},"vehicle_type_id":"4","last_reported":1691593709,"current_range_meters":17200,"station_id":"ce4bgvp2rcd13ifvqcu0","pricing_plan_id":"free"},{"bike_id":"15a65ead-1cd3-4eaf-9e02-93bc962a8ae2","system_id":"levelo_inurba_marseille","lat":43.290631,"lon":5.359244,"is_reserved":false,"is_disabled":false,"rental_uris":{"android":"levelo://app?vid=15a65ead-1cd3-4eaf-9e02-93bc962a8ae2","ios":"levelo://app?vid=15a65ead-1cd3-4eaf-9e02-93bc962a8ae2"},"vehicle_type_id":"4","last_reported":1691593709,"current_range_meters":24800,"station_id":"ce4bha92rcd13ifvqeg0","pricing_plan_id":"free"},{"bike_id":"7e669669-9df5-4d72-a492-61add1afcf61","system_id":"levelo_inurba_marseille","lat":43.29414,"lon":5.38631,"is_reserved":false,"is_disabled":false,"rental_uris":{"android":"levelo://app?vid=7e669669-9df5-4d72-a492-61add1afcf61","ios":"levelo://app?vid=7e669669-9df5-4d72-a492-61add1afcf61"},"vehicle_type_id":"4","last_reported":1691593709,"current_range_meters":0,"station_id":"ce4bh2h2rcd13ifvqdh0","pricing_plan_id":"free"},{"bike_id":"23e99cde-30ea-4aaa-9e91-0ed2360808cc","system_id":"levelo_inurba_marseille","lat":43.289468,"lon":5.363719,"is_reserved":false,"is_disabled":false,"rental_uris":{"android":"levelo://app?vid=23e99cde-30ea-4aaa-9e91-0ed2360808cc","ios":"levelo://app?vid=23e99cde-30ea-4aaa-9e91-0ed2360808cc"},"vehicle_type_id":"4","last_reported":1691593709,"current_range_meters":16400,"station_id":"ce4bhc92rcd13ifvqetg","pricing_plan_id":"free"},{"bike_id":"ed9f1478-ab78-4c7f-9eac-7c87dd7a9af0","system_id":"levelo_inurba_marseille","lat":43.29041,"lon":5.399634,"is_reserved":false,"is_disabled":false,"rental_uris":{"android":"levelo://app?vid=ed9f1478-ab78-4c7f-9eac-7c87dd7a9af0","ios":"levelo://app?vid=ed9f1478-ab78-4c7f-9eac-7c87dd7a9af0"},"vehicle_type_id":"4","last_reported":1691593709,"current_range_meters":10400,"station_id":"ce4bh392rcd13ifvqdm0","pricing_plan_id":"free"},{"bike_id":"4134a781-cf6e-4b88-804a-88dae89d7443","system_id":"levelo_inurba_marseille","lat":43.30481,"lon":5.39776,"is_reserved":false,"is_disabled":false,"rental_uris":{"android":"levelo://app?vid=4134a781-cf6e-4b88-804a-88dae89d7443","ios":"levelo://app?vid=4134a781-cf6e-4b88-804a-88dae89d7443"},"vehicle_type_id":"4","last_reported":1691593709,"current_range_meters":18400,"station_id":"","pricing_plan_id":"free"},{"bike_id":"1834a0ff-0c77-4e81-8754-168400578db8","system_id":"levelo_inurba_marseille","lat":43.292574,"lon":5.384428,"is_reserved":false,"is_disabled":false,"rental_uris":{"android":"levelo://app?vid=1834a0ff-0c77-4e81-8754-168400578db8","ios":"levelo://app?vid=1834a0ff-0c77-4e81-8754-168400578db8"},"vehicle_type_id":"4","last_reported":1691593709,"current_range_meters":2400,"station_id":"","pricing_plan_id":"free"},{"bike_id":"f8bf6a9c-58da-4368-a1c1-f966be94a14b","system_id":"levelo_inurba_marseille","lat":43.33045,"lon":5.38907,"is_reserved":false,"is_disabled":false,"rental_uris":{"android":"levelo://app?vid=f8bf6a9c-58da-4368-a1c1-f966be94a14b","ios":"levelo://app?vid=f8bf6a9c-58da-4368-a1c1-f966be94a14b"},"vehicle_type_id":"4","last_reported":1691593709,"current_range_meters":31200,"station_id":"ce4bhr92rcd13ifvqhrg","pricing_plan_id":"free"},{"bike_id":"1d39cb6b-9879-4e3f-8a27-1c570603366e","system_id":"levelo_inurba_marseille","lat":43.33046,"lon":5.38906,"is_reserved":false,"is_disabled":false,"rental_uris":{"android":"levelo://app?vid=1d39cb6b-9879-4e3f-8a27-1c570603366e","ios":"levelo://app?vid=1d39cb6b-9879-4e3f-8a27-1c570603366e"},"vehicle_type_id":"4","last_reported":1691593709,"current_range_meters":31200,"station_id":"ce4bhr92rcd13ifvqhrg","pricing_plan_id":"free"},{"bike_id":"979de499-9e12-4ff2-9460-38757b5c7b57","system_id":"levelo_inurba_marseille","lat":43.33042,"lon":5.38915,"is_reserved":false,"is_disabled":false,"rental_uris":{"android":"levelo://app?vid=979de499-9e12-4ff2-9460-38757b5c7b57","ios":"levelo://app?vid=979de499-9e12-4ff2-9460-38757b5c7b57"},"vehicle_type_id":"4","last_reported":1691593709,"current_range_meters":26000,"station_id":"ce4bhr92rcd13ifvqhrg","pricing_plan_id":"free"},{"bike_id":"7b78d55e-e99c-4fa7-968a-c672d6912f00","system_id":"levelo_inurba_marseille","lat":43.290104,"lon":5.356111,"is_reserved":false,"is_disabled":false,"rental_uris":{"android":"levelo://app?vid=7b78d55e-e99c-4fa7-968a-c672d6912f00","ios":"levelo://app?vid=7b78d55e-e99c-4fa7-968a-c672d6912f00"},"vehicle_type_id":"4","last_reported":1691593709,"current_range_meters":31200,"station_id":"ce4bhb92rcd13ifvqen0","pricing_plan_id":"free"},{"bike_id":"f71aed5b-352a-4d4c-967b-b7e0283ec3d5","system_id":"levelo_inurba_marseille","lat":43.33046,"lon":5.38913,"is_reserved":false,"is_disabled":false,"rental_uris":{"android":"levelo://app?vid=f71aed5b-352a-4d4c-967b-b7e0283ec3d5","ios":"levelo://app?vid=f71aed5b-352a-4d4c-967b-b7e0283ec3d5"},"vehicle_type_id":"4","last_reported":1691593709,"current_range_meters":29600,"station_id":"ce4bhr92rcd13ifvqhrg","pricing_plan_id":"free"},{"bike_id":"3287fb30-ec66-4dda-b599-a65f0dc59abf","system_id":"levelo_inurba_marseille","lat":43.33049,"lon":5.38909,"is_reserved":false,"is_disabled":false,"rental_uris":{"android":"levelo://app?vid=3287fb30-ec66-4dda-b599-a65f0dc59abf","ios":"levelo://app?vid=3287fb30-ec66-4dda-b599-a65f0dc59abf"},"vehicle_type_id":"4","last_reported":1691593709,"current_range_meters":24800,"station_id":"ce4bhr92rcd13ifvqhrg","pricing_plan_id":"free"},{"bike_id":"a9b14877-104f-4116-9e68-b8bee167f6a8","system_id":"levelo_inurba_marseille","lat":43.290044,"lon":5.356227,"is_reserved":false,"is_disabled":false,"rental_uris":{"android":"levelo://app?vid=a9b14877-104f-4116-9e68-b8bee167f6a8","ios":"levelo://app?vid=a9b14877-104f-4116-9e68-b8bee167f6a8"},"vehicle_type_id":"4","last_reported":1691593709,"current_range_meters":28800,"station_id":"","pricing_plan_id":"free"},{"bike_id":"4d69903f-089b-45af-8e33-88a64418710e","system_id":"levelo_inurba_marseille","lat":43.29007,"lon":5.35606,"is_reserved":false,"is_disabled":false,"rental_uris":{"android":"levelo://app?vid=4d69903f-089b-45af-8e33-88a64418710e","ios":"levelo://app?vid=4d69903f-089b-45af-8e33-88a64418710e"},"vehicle_type_id":"4","last_reported":1691593709,"current_range_meters":25600,"station_id":"ce4bhb92rcd13ifvqen0","pricing_plan_id":"free"},{"bike_id":"4e1c1255-b693-4e99-911a-1cb06a535209","system_id":"levelo_inurba_marseille","lat":43.29003,"lon":5.35617,"is_reserved":false,"is_disabled":false,"rental_uris":{"android":"levelo://app?vid=4e1c1255-b693-4e99-911a-1cb06a535209","ios":"levelo://app?vid=4e1c1255-b693-4e99-911a-1cb06a535209"},"vehicle_type_id":"4","last_reported":1691593709,"current_range_meters":16400,"station_id":"ce4bhb92rcd13ifvqen0","pricing_plan_id":"free"},{"bike_id":"b34eb68b-9fd6-46bb-9d30-3e982538e67d","system_id":"levelo_inurba_marseille","lat":43.290104,"lon":5.356111,"is_reserved":false,"is_disabled":false,"rental_uris":{"android":"levelo://app?vid=b34eb68b-9fd6-46bb-9d30-3e982538e67d","ios":"levelo://app?vid=b34eb68b-9fd6-46bb-9d30-3e982538e67d"},"vehicle_type_id":"4","last_reported":1691593709,"current_range_meters":31200,"station_id":"ce4bhb92rcd13ifvqen0","pricing_plan_id":"free"},{"bike_id":"d92191b5-3897-428d-989c-4b986c7a7e64","system_id":"levelo_inurba_marseille","lat":43.29004,"lon":5.3561,"is_reserved":false,"is_disabled":false,"rental_uris":{"android":"levelo://app?vid=d92191b5-3897-428d-989c-4b986c7a7e64","ios":"levelo://app?vid=d92191b5-3897-428d-989c-4b986c7a7e64"},"vehicle_type_id":"4","last_reported":1691593709,"current_range_meters":31200,"station_id":"ce4bhb92rcd13ifvqen0","pricing_plan_id":"free"},{"bike_id":"674798dc-ce47-435f-82de-1c6bf351ee15","system_id":"levelo_inurba_marseille","lat":43.290104,"lon":5.356111,"is_reserved":false,"is_disabled":false,"rental_uris":{"android":"levelo://app?vid=674798dc-ce47-435f-82de-1c6bf351ee15","ios":"levelo://app?vid=674798dc-ce47-435f-82de-1c6bf351ee15"},"vehicle_type_id":"4","last_reported":1691593709,"current_range_meters":6400,"station_id":"ce4bhb92rcd13ifvqen0","pricing_plan_id":"free"},{"bike_id":"e12be379-52d0-4a16-b44e-5c53ec4152c5","system_id":"levelo_inurba_marseille","lat":43.29003,"lon":5.35609,"is_reserved":false,"is_disabled":false,"rental_uris":{"android":"levelo://app?vid=e12be379-52d0-4a16-b44e-5c53ec4152c5","ios":"levelo://app?vid=e12be379-52d0-4a16-b44e-5c53ec4152c5"},"vehicle_type_id":"4","last_reported":1691593709,"current_range_meters":26800,"station_id":"ce4bhb92rcd13ifvqen0","pricing_plan_id":"free"},{"bike_id":"a43cfc82-8aec-4b14-8fe3-e77526355bba","system_id":"levelo_inurba_marseille","lat":43.28999,"lon":5.3561,"is_reserved":false,"is_disabled":false,"rental_uris":{"android":"levelo://app?vid=a43cfc82-8aec-4b14-8fe3-e77526355bba","ios":"levelo://app?vid=a43cfc82-8aec-4b14-8fe3-e77526355bba"},"vehicle_type_id":"4","last_reported":1691593709,"current_range_meters":22800,"station_id":"ce4bhb92rcd13ifvqen0","pricing_plan_id":"free"},{"bike_id":"045f1c73-3ad6-4d71-aa21-e930cd404297","system_id":"levelo_inurba_marseille","lat":43.290995,"lon":5.381361,"is_reserved":false,"is_disabled":false,"rental_uris":{"android":"levelo://app?vid=045f1c73-3ad6-4d71-aa21-e930cd404297","ios":"levelo://app?vid=045f1c73-3ad6-4d71-aa21-e930cd404297"},"vehicle_type_id":"4","last_reported":1691593709,"current_range_meters":28400,"station_id":"ce4bh512rcd13ifvqe2g","pricing_plan_id":"free"},{"bike_id":"7cf7428e-3fdc-4379-85cc-8bf68b8f3165","system_id":"levelo_inurba_marseille","lat":43.295169,"lon":5.390426,"is_reserved":false,"is_disabled":false,"rental_uris":{"android":"levelo://app?vid=7cf7428e-3fdc-4379-85cc-8bf68b8f3165","ios":"levelo://app?vid=7cf7428e-3fdc-4379-85cc-8bf68b8f3165"},"vehicle_type_id":"4","last_reported":1691593709,"current_range_meters":25200,"station_id":"ce4bh3p2rcd13ifvqdp0","pricing_plan_id":"free"},{"bike_id":"7f7dcf62-6f51-41e0-b5d1-a560f2213a08","system_id":"levelo_inurba_marseille","lat":43.295169,"lon":5.390426,"is_reserved":false,"is_disabled":false,"rental_uris":{"android":"levelo://app?vid=7f7dcf62-6f51-41e0-b5d1-a560f2213a08","ios":"levelo://app?vid=7f7dcf62-6f51-41e0-b5d1-a560f2213a08"},"vehicle_type_id":"4","last_reported":1691593709,"current_range_meters":19200,"station_id":"ce4bh3p2rcd13ifvqdp0","pricing_plan_id":"free"},{"bike_id":"601ed74f-26e2-4dcf-a3ff-e31beda06644","system_id":"levelo_inurba_marseille","lat":43.28856,"lon":5.358371,"is_reserved":false,"is_disabled":false,"rental_uris":{"android":"levelo://app?vid=601ed74f-26e2-4dcf-a3ff-e31beda06644","ios":"levelo://app?vid=601ed74f-26e2-4dcf-a3ff-e31beda06644"},"vehicle_type_id":"4","last_reported":1691593709,"current_range_meters":25600,"station_id":"ce4bhb12rcd13ifvqem0","pricing_plan_id":"free"},{"bike_id":"bd4f9f02-f076-450a-84e5-e6d1ff086367","system_id":"levelo_inurba_marseille","lat":43.29009,"lon":5.38135,"is_reserved":false,"is_disabled":false,"rental_uris":{"android":"levelo://app?vid=bd4f9f02-f076-450a-84e5-e6d1ff086367","ios":"levelo://app?vid=bd4f9f02-f076-450a-84e5-e6d1ff086367"},"vehicle_type_id":"4","last_reported":1691593709,"current_range_meters":20400,"station_id":"ce4bh4p2rcd13ifvqe1g","pricing_plan_id":"free"},{"bike_id":"1a1e55a1-1225-4a88-8e7d-e12472a42663","system_id":"levelo_inurba_marseille","lat":43.28856,"lon":5.358371,"is_reserved":false,"is_disabled":false,"rental_uris":{"android":"levelo://app?vid=1a1e55a1-1225-4a88-8e7d-e12472a42663","ios":"levelo://app?vid=1a1e55a1-1225-4a88-8e7d-e12472a42663"},"vehicle_type_id":"4","last_reported":1691593709,"current_range_meters":26800,"station_id":"ce4bhb12rcd13ifvqem0","pricing_plan_id":"free"},{"bike_id":"587f2a5e-97aa-4562-ad3a-7a9ad8b5b318","system_id":"levelo_inurba_marseille","lat":43.3375,"lon":5.37469,"is_reserved":false,"is_disabled":false,"rental_uris":{"android":"levelo://app?vid=587f2a5e-97aa-4562-ad3a-7a9ad8b5b318","ios":"levelo://app?vid=587f2a5e-97aa-4562-ad3a-7a9ad8b5b318"},"vehicle_type_id":"4","last_reported":1691593709,"current_range_meters":30000,"station_id":"","pricing_plan_id":"free"},{"bike_id":"3585088c-1fad-4eca-b223-780202197d91","system_id":"levelo_inurba_marseille","lat":43.33017,"lon":5.3925,"is_reserved":false,"is_disabled":false,"rental_uris":{"android":"levelo://app?vid=3585088c-1fad-4eca-b223-780202197d91","ios":"levelo://app?vid=3585088c-1fad-4eca-b223-780202197d91"},"vehicle_type_id":"4","last_reported":1691593709,"current_range_meters":8000,"station_id":"","pricing_plan_id":"free"},{"bike_id":"75199276-b705-4ad7-b6a9-49aeaa84628a","system_id":"levelo_inurba_marseille","lat":43.286591,"lon":5.363346,"is_reserved":false,"is_disabled":false,"rental_uris":{"android":"levelo://app?vid=75199276-b705-4ad7-b6a9-49aeaa84628a","ios":"levelo://app?vid=75199276-b705-4ad7-b6a9-49aeaa84628a"},"vehicle_type_id":"4","last_reported":1691593709,"current_range_meters":31200,"station_id":"ce4bhah2rcd13ifvqej0","pricing_plan_id":"free"},{"bike_id":"2c3df343-bc1c-4eb8-b5f5-75a560bc4a09","system_id":"levelo_inurba_marseille","lat":43.298681,"lon":5.397225,"is_reserved":false,"is_disabled":false,"rental_uris":{"android":"levelo://app?vid=2c3df343-bc1c-4eb8-b5f5-75a560bc4a09","ios":"levelo://app?vid=2c3df343-bc1c-4eb8-b5f5-75a560bc4a09"},"vehicle_type_id":"4","last_reported":1691593709,"current_range_meters":29200,"station_id":"ce4bh0h2rcd13ifvqd50","pricing_plan_id":"free"},{"bike_id":"7b9e2d57-7c2f-4652-8ec0-ee4d147afe24","system_id":"levelo_inurba_marseille","lat":43.302548,"lon":5.400568,"is_reserved":false,"is_disabled":false,"rental_uris":{"android":"levelo://app?vid=7b9e2d57-7c2f-4652-8ec0-ee4d147afe24","ios":"levelo://app?vid=7b9e2d57-7c2f-4652-8ec0-ee4d147afe24"},"vehicle_type_id":"4","last_reported":1691593709,"current_range_meters":0,"station_id":"","pricing_plan_id":"free"},{"bike_id":"e4b9235b-32e5-493b-978b-c5f46c19016a","system_id":"levelo_inurba_marseille","lat":43.287184,"lon":5.37937,"is_reserved":false,"is_disabled":false,"rental_uris":{"android":"levelo://app?vid=e4b9235b-32e5-493b-978b-c5f46c19016a","ios":"levelo://app?vid=e4b9235b-32e5-493b-978b-c5f46c19016a"},"vehicle_type_id":"4","last_reported":1691593709,"current_range_meters":13600,"station_id":"ce4bh9p2rcd13ifvqec0","pricing_plan_id":"free"},{"bike_id":"f84b9da6-84f3-45a6-8d98-2fcbb2a0146a","system_id":"levelo_inurba_marseille","lat":43.284538,"lon":5.358657,"is_reserved":false,"is_disabled":false,"rental_uris":{"android":"levelo://app?vid=f84b9da6-84f3-45a6-8d98-2fcbb2a0146a","ios":"levelo://app?vid=f84b9da6-84f3-45a6-8d98-2fcbb2a0146a"},"vehicle_type_id":"4","last_reported":1691593709,"current_range_meters":26000,"station_id":"ce4bhah2rcd13ifvqei0","pricing_plan_id":"free"},{"bike_id":"7dd18756-a1e4-4b09-bacf-6bcdc0d81bf4","system_id":"levelo_inurba_marseille","lat":43.29435,"lon":5.39755,"is_reserved":false,"is_disabled":false,"rental_uris":{"android":"levelo://app?vid=7dd18756-a1e4-4b09-bacf-6bcdc0d81bf4","ios":"levelo://app?vid=7dd18756-a1e4-4b09-bacf-6bcdc0d81bf4"},"vehicle_type_id":"4","last_reported":1691593709,"current_range_meters":21600,"station_id":"ce4bh3h2rcd13ifvqdo0","pricing_plan_id":"free"},{"bike_id":"7bfaf776-a589-4b0a-b881-9816c974f233","system_id":"levelo_inurba_marseille","lat":43.285856,"lon":5.350771,"is_reserved":false,"is_disabled":false,"rental_uris":{"android":"levelo://app?vid=7bfaf776-a589-4b0a-b881-9816c974f233","ios":"levelo://app?vid=7bfaf776-a589-4b0a-b881-9816c974f233"},"vehicle_type_id":"4","last_reported":1691593709,"current_range_meters":31200,"station_id":"ce4bhch2rcd13ifvqeug","pricing_plan_id":"free"},{"bike_id":"cdee7ed6-8617-469d-a657-7e304352d1d2","system_id":"levelo_inurba_marseille","lat":43.285856,"lon":5.350771,"is_reserved":false,"is_disabled":false,"rental_uris":{"android":"levelo://app?vid=cdee7ed6-8617-469d-a657-7e304352d1d2","ios":"levelo://app?vid=cdee7ed6-8617-469d-a657-7e304352d1d2"},"vehicle_type_id":"4","last_reported":1691593709,"current_range_meters":15200,"station_id":"ce4bhch2rcd13ifvqeug","pricing_plan_id":"free"},{"bike_id":"e6c66d7b-1b50-49c0-8a52-9764fbde85c5","system_id":"levelo_inurba_marseille","lat":43.28616,"lon":5.35106,"is_reserved":false,"is_disabled":false,"rental_uris":{"android":"levelo://app?vid=e6c66d7b-1b50-49c0-8a52-9764fbde85c5","ios":"levelo://app?vid=e6c66d7b-1b50-49c0-8a52-9764fbde85c5"},"vehicle_type_id":"4","last_reported":1691593709,"current_range_meters":21600,"station_id":"ce4bhch2rcd13ifvqeug","pricing_plan_id":"free"},{"bike_id":"5cc873be-13ab-4e9f-b6de-446711c60013","system_id":"levelo_inurba_marseille","lat":43.28615,"lon":5.35102,"is_reserved":false,"is_disabled":false,"rental_uris":{"android":"levelo://app?vid=5cc873be-13ab-4e9f-b6de-446711c60013","ios":"levelo://app?vid=5cc873be-13ab-4e9f-b6de-446711c60013"},"vehicle_type_id":"4","last_reported":1691593709,"current_range_meters":31200,"station_id":"ce4bhch2rcd13ifvqeug","pricing_plan_id":"free"},{"bike_id":"10bc812a-766c-4231-beb3-4cddfd796f34","system_id":"levelo_inurba_marseille","lat":43.28613,"lon":5.35102,"is_reserved":false,"is_disabled":false,"rental_uris":{"android":"levelo://app?vid=10bc812a-766c-4231-beb3-4cddfd796f34","ios":"levelo://app?vid=10bc812a-766c-4231-beb3-4cddfd796f34"},"vehicle_type_id":"4","last_reported":1691593709,"current_range_meters":4800,"station_id":"ce4bhch2rcd13ifvqeug","pricing_plan_id":"free"},{"bike_id":"b2d3bc4d-26d0-4ae0-bfb2-1facedf45f76","system_id":"levelo_inurba_marseille","lat":43.28611,"lon":5.35107,"is_reserved":false,"is_disabled":false,"rental_uris":{"android":"levelo://app?vid=b2d3bc4d-26d0-4ae0-bfb2-1facedf45f76","ios":"levelo://app?vid=b2d3bc4d-26d0-4ae0-bfb2-1facedf45f76"},"vehicle_type_id":"4","last_reported":1691593709,"current_range_meters":16800,"station_id":"ce4bhch2rcd13ifvqeug","pricing_plan_id":"free"},{"bike_id":"89cee22f-f32a-4910-86c8-a4f50aa3bc6b","system_id":"levelo_inurba_marseille","lat":43.285856,"lon":5.350771,"is_reserved":false,"is_disabled":false,"rental_uris":{"android":"levelo://app?vid=89cee22f-f32a-4910-86c8-a4f50aa3bc6b","ios":"levelo://app?vid=89cee22f-f32a-4910-86c8-a4f50aa3bc6b"},"vehicle_type_id":"4","last_reported":1691593709,"current_range_meters":26000,"station_id":"ce4bhch2rcd13ifvqeug","pricing_plan_id":"free"},{"bike_id":"87e2c347-ad0a-44c5-8151-8169583189b2","system_id":"levelo_inurba_marseille","lat":43.28609,"lon":5.35111,"is_reserved":false,"is_disabled":false,"rental_uris":{"android":"levelo://app?vid=87e2c347-ad0a-44c5-8151-8169583189b2","ios":"levelo://app?vid=87e2c347-ad0a-44c5-8151-8169583189b2"},"vehicle_type_id":"4","last_reported":1691593709,"current_range_meters":6800,"station_id":"ce4bhch2rcd13ifvqeug","pricing_plan_id":"free"},{"bike_id":"d85bf587-4deb-41bf-b183-8dc90700e049","system_id":"levelo_inurba_marseille","lat":43.28612,"lon":5.35101,"is_reserved":false,"is_disabled":false,"rental_uris":{"android":"levelo://app?vid=d85bf587-4deb-41bf-b183-8dc90700e049","ios":"levelo://app?vid=d85bf587-4deb-41bf-b183-8dc90700e049"},"vehicle_type_id":"4","last_reported":1691593709,"current_range_meters":0,"station_id":"ce4bhch2rcd13ifvqeug","pricing_plan_id":"free"},{"bike_id":"6eaf5140-63f9-4533-bcbf-82b35e341718","system_id":"levelo_inurba_marseille","lat":43.28608,"lon":5.351,"is_reserved":false,"is_disabled":false,"rental_uris":{"android":"levelo://app?vid=6eaf5140-63f9-4533-bcbf-82b35e341718","ios":"levelo://app?vid=6eaf5140-63f9-4533-bcbf-82b35e341718"},"vehicle_type_id":"4","last_reported":1691593709,"current_range_meters":22800,"station_id":"ce4bhch2rcd13ifvqeug","pricing_plan_id":"free"},{"bike_id":"cc6b7855-79f7-4023-ada3-b33f095d8200","system_id":"levelo_inurba_marseille","lat":43.28608,"lon":5.35096,"is_reserved":false,"is_disabled":false,"rental_uris":{"android":"levelo://app?vid=cc6b7855-79f7-4023-ada3-b33f095d8200","ios":"levelo://app?vid=cc6b7855-79f7-4023-ada3-b33f095d8200"},"vehicle_type_id":"4","last_reported":1691593709,"current_range_meters":20400,"station_id":"ce4bhch2rcd13ifvqeug","pricing_plan_id":"free"},{"bike_id":"30a0bad0-0145-4f76-8103-33bb3e017856","system_id":"levelo_inurba_marseille","lat":43.28593,"lon":5.35069,"is_reserved":false,"is_disabled":false,"rental_uris":{"android":"levelo://app?vid=30a0bad0-0145-4f76-8103-33bb3e017856","ios":"levelo://app?vid=30a0bad0-0145-4f76-8103-33bb3e017856"},"vehicle_type_id":"4","last_reported":1691593709,"current_range_meters":18800,"station_id":"ce4bhch2rcd13ifvqeug","pricing_plan_id":"free"},{"bike_id":"5d6a2462-bcd1-44ea-aeec-e527d3a2ceb6","system_id":"levelo_inurba_marseille","lat":43.283998,"lon":5.375062,"is_reserved":false,"is_disabled":false,"rental_uris":{"android":"levelo://app?vid=5d6a2462-bcd1-44ea-aeec-e527d3a2ceb6","ios":"levelo://app?vid=5d6a2462-bcd1-44ea-aeec-e527d3a2ceb6"},"vehicle_type_id":"4","last_reported":1691593709,"current_range_meters":28400,"station_id":"ce4bh412rcd13ifvqds0","pricing_plan_id":"free"},{"bike_id":"f7f389ab-cdce-457d-8dad-27e98446c740","system_id":"levelo_inurba_marseille","lat":43.286595,"lon":5.386795,"is_reserved":false,"is_disabled":false,"rental_uris":{"android":"levelo://app?vid=f7f389ab-cdce-457d-8dad-27e98446c740","ios":"levelo://app?vid=f7f389ab-cdce-457d-8dad-27e98446c740"},"vehicle_type_id":"4","last_reported":1691593709,"current_range_meters":7600,"station_id":"ce4bh492rcd13ifvqdug","pricing_plan_id":"free"},{"bike_id":"e335f635-6bde-48e3-b05a-147b7652e5e9","system_id":"levelo_inurba_marseille","lat":43.31887,"lon":5.4073,"is_reserved":false,"is_disabled":false,"rental_uris":{"android":"levelo://app?vid=e335f635-6bde-48e3-b05a-147b7652e5e9","ios":"levelo://app?vid=e335f635-6bde-48e3-b05a-147b7652e5e9"},"vehicle_type_id":"4","last_reported":1691593709,"current_range_meters":20000,"station_id":"ce4bhq12rcd13ifvqhig","pricing_plan_id":"free"},{"bike_id":"c1c36742-594e-4942-8b1b-16f98a15fa5e","system_id":"levelo_inurba_marseille","lat":43.32333,"lon":5.40621,"is_reserved":false,"is_disabled":false,"rental_uris":{"android":"levelo://app?vid=c1c36742-594e-4942-8b1b-16f98a15fa5e","ios":"levelo://app?vid=c1c36742-594e-4942-8b1b-16f98a15fa5e"},"vehicle_type_id":"4","last_reported":1691593709,"current_range_meters":31200,"station_id":"ce4bhq92rcd13ifvqhjg","pricing_plan_id":"free"},{"bike_id":"eefb1a8e-9653-4546-8959-00337b0e4965","system_id":"levelo_inurba_marseille","lat":43.284793,"lon":5.384113,"is_reserved":false,"is_disabled":false,"rental_uris":{"android":"levelo://app?vid=eefb1a8e-9653-4546-8959-00337b0e4965","ios":"levelo://app?vid=eefb1a8e-9653-4546-8959-00337b0e4965"},"vehicle_type_id":"4","last_reported":1691593709,"current_range_meters":22800,"station_id":"ce4bh512rcd13ifvqe3g","pricing_plan_id":"free"},{"bike_id":"15e7ac4c-d246-4024-90fb-fa61601240c7","system_id":"levelo_inurba_marseille","lat":43.284787,"lon":5.384116,"is_reserved":false,"is_disabled":false,"rental_uris":{"android":"levelo://app?vid=15e7ac4c-d246-4024-90fb-fa61601240c7","ios":"levelo://app?vid=15e7ac4c-d246-4024-90fb-fa61601240c7"},"vehicle_type_id":"4","last_reported":1691593709,"current_range_meters":23600,"station_id":"ce4bh512rcd13ifvqe3g","pricing_plan_id":"free"},{"bike_id":"5cd7388d-b6ec-470c-aa34-98f275775f28","system_id":"levelo_inurba_marseille","lat":43.28359,"lon":5.38105,"is_reserved":false,"is_disabled":false,"rental_uris":{"android":"levelo://app?vid=5cd7388d-b6ec-470c-aa34-98f275775f28","ios":"levelo://app?vid=5cd7388d-b6ec-470c-aa34-98f275775f28"},"vehicle_type_id":"4","last_reported":1691593709,"current_range_meters":0,"station_id":"ce4bh412rcd13ifvqdr0","pricing_plan_id":"free"},{"bike_id":"1f58be00-6ab5-4747-bbfa-b69c7aeb54e8","system_id":"levelo_inurba_marseille","lat":43.28349,"lon":5.38102,"is_reserved":false,"is_disabled":false,"rental_uris":{"android":"levelo://app?vid=1f58be00-6ab5-4747-bbfa-b69c7aeb54e8","ios":"levelo://app?vid=1f58be00-6ab5-4747-bbfa-b69c7aeb54e8"},"vehicle_type_id":"4","last_reported":1691593709,"current_range_meters":6000,"station_id":"ce4bh412rcd13ifvqdr0","pricing_plan_id":"free"},{"bike_id":"12e9b649-698e-4f5b-b0ea-fa9b3023e1c7","system_id":"levelo_inurba_marseille","lat":43.283498,"lon":5.380948,"is_reserved":false,"is_disabled":false,"rental_uris":{"android":"levelo://app?vid=12e9b649-698e-4f5b-b0ea-fa9b3023e1c7","ios":"levelo://app?vid=12e9b649-698e-4f5b-b0ea-fa9b3023e1c7"},"vehicle_type_id":"4","last_reported":1691593709,"current_range_meters":16400,"station_id":"ce4bh412rcd13ifvqdr0","pricing_plan_id":"free"},{"bike_id":"94636b6a-92b4-45d9-93be-186a7304c7fa","system_id":"levelo_inurba_marseille","lat":43.28344,"lon":5.38114,"is_reserved":false,"is_disabled":false,"rental_uris":{"android":"levelo://app?vid=94636b6a-92b4-45d9-93be-186a7304c7fa","ios":"levelo://app?vid=94636b6a-92b4-45d9-93be-186a7304c7fa"},"vehicle_type_id":"4","last_reported":1691593709,"current_range_meters":31200,"station_id":"ce4bh412rcd13ifvqdr0","pricing_plan_id":"free"},{"bike_id":"5d53820f-243f-41e4-a16b-9f5f7bbb3595","system_id":"levelo_inurba_marseille","lat":43.28426,"lon":5.34983,"is_reserved":false,"is_disabled":false,"rental_uris":{"android":"levelo://app?vid=5d53820f-243f-41e4-a16b-9f5f7bbb3595","ios":"levelo://app?vid=5d53820f-243f-41e4-a16b-9f5f7bbb3595"},"vehicle_type_id":"4","last_reported":1691593709,"current_range_meters":4000,"station_id":"ce4bhbh2rcd13ifvqepg","pricing_plan_id":"free"},{"bike_id":"3d3b35a5-b93d-44c8-a63c-e1faa1e19906","system_id":"levelo_inurba_marseille","lat":43.28422,"lon":5.34993,"is_reserved":false,"is_disabled":false,"rental_uris":{"android":"levelo://app?vid=3d3b35a5-b93d-44c8-a63c-e1faa1e19906","ios":"levelo://app?vid=3d3b35a5-b93d-44c8-a63c-e1faa1e19906"},"vehicle_type_id":"4","last_reported":1691593709,"current_range_meters":24000,"station_id":"ce4bhbh2rcd13ifvqepg","pricing_plan_id":"free"},{"bike_id":"71036f5e-c133-430f-bad0-fefe7ae69bd1","system_id":"levelo_inurba_marseille","lat":43.28425,"lon":5.34982,"is_reserved":false,"is_disabled":false,"rental_uris":{"android":"levelo://app?vid=71036f5e-c133-430f-bad0-fefe7ae69bd1","ios":"levelo://app?vid=71036f5e-c133-430f-bad0-fefe7ae69bd1"},"vehicle_type_id":"4","last_reported":1691593709,"current_range_meters":14000,"station_id":"ce4bhbh2rcd13ifvqepg","pricing_plan_id":"free"},{"bike_id":"392893e6-3254-4578-97ad-06911aa558f6","system_id":"levelo_inurba_marseille","lat":43.28424,"lon":5.34981,"is_reserved":false,"is_disabled":false,"rental_uris":{"android":"levelo://app?vid=392893e6-3254-4578-97ad-06911aa558f6","ios":"levelo://app?vid=392893e6-3254-4578-97ad-06911aa558f6"},"vehicle_type_id":"4","last_reported":1691593709,"current_range_meters":5200,"station_id":"ce4bhbh2rcd13ifvqepg","pricing_plan_id":"free"},{"bike_id":"874a5045-2d66-4bc4-812a-880975f22397","system_id":"levelo_inurba_marseille","lat":43.284219,"lon":5.3497,"is_reserved":false,"is_disabled":false,"rental_uris":{"android":"levelo://app?vid=874a5045-2d66-4bc4-812a-880975f22397","ios":"levelo://app?vid=874a5045-2d66-4bc4-812a-880975f22397"},"vehicle_type_id":"4","last_reported":1691593709,"current_range_meters":25200,"station_id":"ce4bhbh2rcd13ifvqepg","pricing_plan_id":"free"},{"bike_id":"8582b4c9-be3a-42eb-b162-1dcdca880c7f","system_id":"levelo_inurba_marseille","lat":43.28417,"lon":5.34994,"is_reserved":false,"is_disabled":false,"rental_uris":{"android":"levelo://app?vid=8582b4c9-be3a-42eb-b162-1dcdca880c7f","ios":"levelo://app?vid=8582b4c9-be3a-42eb-b162-1dcdca880c7f"},"vehicle_type_id":"4","last_reported":1691593709,"current_range_meters":23600,"station_id":"ce4bhbh2rcd13ifvqepg","pricing_plan_id":"free"},{"bike_id":"44475ed7-2b08-40aa-8c9e-a964c402fb12","system_id":"levelo_inurba_marseille","lat":43.28416,"lon":5.34997,"is_reserved":false,"is_disabled":false,"rental_uris":{"android":"levelo://app?vid=44475ed7-2b08-40aa-8c9e-a964c402fb12","ios":"levelo://app?vid=44475ed7-2b08-40aa-8c9e-a964c402fb12"},"vehicle_type_id":"4","last_reported":1691593709,"current_range_meters":22800,"station_id":"ce4bhbh2rcd13ifvqepg","pricing_plan_id":"free"},{"bike_id":"555582e9-11a1-48b2-b969-5b64c5c362ea","system_id":"levelo_inurba_marseille","lat":43.28417,"lon":5.34991,"is_reserved":false,"is_disabled":false,"rental_uris":{"android":"levelo://app?vid=555582e9-11a1-48b2-b969-5b64c5c362ea","ios":"levelo://app?vid=555582e9-11a1-48b2-b969-5b64c5c362ea"},"vehicle_type_id":"4","last_reported":1691593709,"current_range_meters":10000,"station_id":"ce4bhbh2rcd13ifvqepg","pricing_plan_id":"free"},{"bike_id":"60a44590-abfb-4704-92b1-56cc7a87b409","system_id":"levelo_inurba_marseille","lat":43.28419,"lon":5.34984,"is_reserved":false,"is_disabled":false,"rental_uris":{"android":"levelo://app?vid=60a44590-abfb-4704-92b1-56cc7a87b409","ios":"levelo://app?vid=60a44590-abfb-4704-92b1-56cc7a87b409"},"vehicle_type_id":"4","last_reported":1691593709,"current_range_meters":5200,"station_id":"ce4bhbh2rcd13ifvqepg","pricing_plan_id":"free"},{"bike_id":"8018e059-097b-41f6-8eef-09b622d9d107","system_id":"levelo_inurba_marseille","lat":43.28417,"lon":5.34989,"is_reserved":false,"is_disabled":false,"rental_uris":{"android":"levelo://app?vid=8018e059-097b-41f6-8eef-09b622d9d107","ios":"levelo://app?vid=8018e059-097b-41f6-8eef-09b622d9d107"},"vehicle_type_id":"4","last_reported":1691593709,"current_range_meters":9200,"station_id":"ce4bhbh2rcd13ifvqepg","pricing_plan_id":"free"},{"bike_id":"493687be-9154-4391-acbb-91bcfea101ec","system_id":"levelo_inurba_marseille","lat":43.284219,"lon":5.3497,"is_reserved":false,"is_disabled":false,"rental_uris":{"android":"levelo://app?vid=493687be-9154-4391-acbb-91bcfea101ec","ios":"levelo://app?vid=493687be-9154-4391-acbb-91bcfea101ec"},"vehicle_type_id":"4","last_reported":1691593709,"current_range_meters":25600,"station_id":"ce4bhbh2rcd13ifvqepg","pricing_plan_id":"free"},{"bike_id":"ad4434c9-3fcf-4af6-aa98-d33e6735879c","system_id":"levelo_inurba_marseille","lat":43.28417,"lon":5.34988,"is_reserved":false,"is_disabled":false,"rental_uris":{"android":"levelo://app?vid=ad4434c9-3fcf-4af6-aa98-d33e6735879c","ios":"levelo://app?vid=ad4434c9-3fcf-4af6-aa98-d33e6735879c"},"vehicle_type_id":"4","last_reported":1691593709,"current_range_meters":24000,"station_id":"ce4bhbh2rcd13ifvqepg","pricing_plan_id":"free"},{"bike_id":"cf4ad1fa-2a3b-4a66-8d93-601581513f61","system_id":"levelo_inurba_marseille","lat":43.28417,"lon":5.34988,"is_reserved":false,"is_disabled":false,"rental_uris":{"android":"levelo://app?vid=cf4ad1fa-2a3b-4a66-8d93-601581513f61","ios":"levelo://app?vid=cf4ad1fa-2a3b-4a66-8d93-601581513f61"},"vehicle_type_id":"4","last_reported":1691593709,"current_range_meters":30400,"station_id":"ce4bhbh2rcd13ifvqepg","pricing_plan_id":"free"},{"bike_id":"1b747f00-6bc0-469e-96a6-1f454139e50f","system_id":"levelo_inurba_marseille","lat":43.284219,"lon":5.3497,"is_reserved":false,"is_disabled":false,"rental_uris":{"android":"levelo://app?vid=1b747f00-6bc0-469e-96a6-1f454139e50f","ios":"levelo://app?vid=1b747f00-6bc0-469e-96a6-1f454139e50f"},"vehicle_type_id":"4","last_reported":1691593709,"current_range_meters":31200,"station_id":"ce4bhbh2rcd13ifvqepg","pricing_plan_id":"free"},{"bike_id":"0c4f6653-63de-4629-b794-e81e4f5cc810","system_id":"levelo_inurba_marseille","lat":43.28418,"lon":5.34983,"is_reserved":false,"is_disabled":false,"rental_uris":{"android":"levelo://app?vid=0c4f6653-63de-4629-b794-e81e4f5cc810","ios":"levelo://app?vid=0c4f6653-63de-4629-b794-e81e4f5cc810"},"vehicle_type_id":"4","last_reported":1691593709,"current_range_meters":24800,"station_id":"ce4bhbh2rcd13ifvqepg","pricing_plan_id":"free"},{"bike_id":"ec095672-ac5b-4381-ac93-429e454daa78","system_id":"levelo_inurba_marseille","lat":43.28415,"lon":5.34992,"is_reserved":false,"is_disabled":false,"rental_uris":{"android":"levelo://app?vid=ec095672-ac5b-4381-ac93-429e454daa78","ios":"levelo://app?vid=ec095672-ac5b-4381-ac93-429e454daa78"},"vehicle_type_id":"4","last_reported":1691593709,"current_range_meters":10400,"station_id":"ce4bhbh2rcd13ifvqepg","pricing_plan_id":"free"},{"bike_id":"b386e3f5-f647-47d1-ba08-23b9e7a83a3a","system_id":"levelo_inurba_marseille","lat":43.28419,"lon":5.34979,"is_reserved":false,"is_disabled":false,"rental_uris":{"android":"levelo://app?vid=b386e3f5-f647-47d1-ba08-23b9e7a83a3a","ios":"levelo://app?vid=b386e3f5-f647-47d1-ba08-23b9e7a83a3a"},"vehicle_type_id":"4","last_reported":1691593709,"current_range_meters":23600,"station_id":"ce4bhbh2rcd13ifvqepg","pricing_plan_id":"free"},{"bike_id":"e716e168-37b1-435f-9048-fbafd6f685bb","system_id":"levelo_inurba_marseille","lat":43.28416,"lon":5.34984,"is_reserved":false,"is_disabled":false,"rental_uris":{"android":"levelo://app?vid=e716e168-37b1-435f-9048-fbafd6f685bb","ios":"levelo://app?vid=e716e168-37b1-435f-9048-fbafd6f685bb"},"vehicle_type_id":"4","last_reported":1691593709,"current_range_meters":31200,"station_id":"ce4bhbh2rcd13ifvqepg","pricing_plan_id":"free"},{"bike_id":"8185a788-2488-46db-a3b8-27f44225885f","system_id":"levelo_inurba_marseille","lat":43.28417,"lon":5.34978,"is_reserved":false,"is_disabled":false,"rental_uris":{"android":"levelo://app?vid=8185a788-2488-46db-a3b8-27f44225885f","ios":"levelo://app?vid=8185a788-2488-46db-a3b8-27f44225885f"},"vehicle_type_id":"4","last_reported":1691593709,"current_range_meters":10000,"station_id":"ce4bhbh2rcd13ifvqepg","pricing_plan_id":"free"},{"bike_id":"7f4a6c65-5ed5-4a7d-8805-a342aa71fcd1","system_id":"levelo_inurba_marseille","lat":43.28416,"lon":5.34981,"is_reserved":false,"is_disabled":false,"rental_uris":{"android":"levelo://app?vid=7f4a6c65-5ed5-4a7d-8805-a342aa71fcd1","ios":"levelo://app?vid=7f4a6c65-5ed5-4a7d-8805-a342aa71fcd1"},"vehicle_type_id":"4","last_reported":1691593709,"current_range_meters":21600,"station_id":"ce4bhbh2rcd13ifvqepg","pricing_plan_id":"free"},{"bike_id":"0e6c688c-90c1-425f-835d-141ca562192e","system_id":"levelo_inurba_marseille","lat":43.28413,"lon":5.34989,"is_reserved":false,"is_disabled":false,"rental_uris":{"android":"levelo://app?vid=0e6c688c-90c1-425f-835d-141ca562192e","ios":"levelo://app?vid=0e6c688c-90c1-425f-835d-141ca562192e"},"vehicle_type_id":"4","last_reported":1691593709,"current_range_meters":31200,"station_id":"ce4bhbh2rcd13ifvqepg","pricing_plan_id":"free"},{"bike_id":"ea60a5ff-2d48-432b-8323-54244e62ff33","system_id":"levelo_inurba_marseille","lat":43.28417,"lon":5.34974,"is_reserved":false,"is_disabled":false,"rental_uris":{"android":"levelo://app?vid=ea60a5ff-2d48-432b-8323-54244e62ff33","ios":"levelo://app?vid=ea60a5ff-2d48-432b-8323-54244e62ff33"},"vehicle_type_id":"4","last_reported":1691593709,"current_range_meters":15600,"station_id":"ce4bhbh2rcd13ifvqepg","pricing_plan_id":"free"},{"bike_id":"84aa36e3-0ced-4747-9e46-1e1fc3bdf475","system_id":"levelo_inurba_marseille","lat":43.28416,"lon":5.34977,"is_reserved":false,"is_disabled":false,"rental_uris":{"android":"levelo://app?vid=84aa36e3-0ced-4747-9e46-1e1fc3bdf475","ios":"levelo://app?vid=84aa36e3-0ced-4747-9e46-1e1fc3bdf475"},"vehicle_type_id":"4","last_reported":1691593709,"current_range_meters":14000,"station_id":"ce4bhbh2rcd13ifvqepg","pricing_plan_id":"free"},{"bike_id":"c9eae1eb-a458-4a03-889a-06f5b9cb84c9","system_id":"levelo_inurba_marseille","lat":43.28412,"lon":5.34989,"is_reserved":false,"is_disabled":false,"rental_uris":{"android":"levelo://app?vid=c9eae1eb-a458-4a03-889a-06f5b9cb84c9","ios":"levelo://app?vid=c9eae1eb-a458-4a03-889a-06f5b9cb84c9"},"vehicle_type_id":"4","last_reported":1691593709,"current_range_meters":31200,"station_id":"ce4bhbh2rcd13ifvqepg","pricing_plan_id":"free"},{"bike_id":"5cec26ac-344f-432b-af34-450b75305b9b","system_id":"levelo_inurba_marseille","lat":43.29276,"lon":5.40127,"is_reserved":false,"is_disabled":false,"rental_uris":{"android":"levelo://app?vid=5cec26ac-344f-432b-af34-450b75305b9b","ios":"levelo://app?vid=5cec26ac-344f-432b-af34-450b75305b9b"},"vehicle_type_id":"4","last_reported":1691593709,"current_range_meters":31200,"station_id":"ce4bh312rcd13ifvqdk0","pricing_plan_id":"free"},{"bike_id":"f0ef67d5-562b-451d-8bc8-960c53518958","system_id":"levelo_inurba_marseille","lat":43.2828,"lon":5.35078,"is_reserved":false,"is_disabled":false,"rental_uris":{"android":"levelo://app?vid=f0ef67d5-562b-451d-8bc8-960c53518958","ios":"levelo://app?vid=f0ef67d5-562b-451d-8bc8-960c53518958"},"vehicle_type_id":"4","last_reported":1691593709,"current_range_meters":1200,"station_id":"ce4bhbp2rcd13ifvqerg","pricing_plan_id":"free"},{"bike_id":"a43c8ce3-9a75-4bad-aa78-c06b32e47ef3","system_id":"levelo_inurba_marseille","lat":43.282744,"lon":5.350533,"is_reserved":false,"is_disabled":false,"rental_uris":{"android":"levelo://app?vid=a43c8ce3-9a75-4bad-aa78-c06b32e47ef3","ios":"levelo://app?vid=a43c8ce3-9a75-4bad-aa78-c06b32e47ef3"},"vehicle_type_id":"4","last_reported":1691593709,"current_range_meters":16400,"station_id":"ce4bhbp2rcd13ifvqerg","pricing_plan_id":"free"},{"bike_id":"7251a34e-edf2-415f-bee5-f1393870f184","system_id":"levelo_inurba_marseille","lat":43.2828,"lon":5.35074,"is_reserved":false,"is_disabled":false,"rental_uris":{"android":"levelo://app?vid=7251a34e-edf2-415f-bee5-f1393870f184","ios":"levelo://app?vid=7251a34e-edf2-415f-bee5-f1393870f184"},"vehicle_type_id":"4","last_reported":1691593709,"current_range_meters":31200,"station_id":"ce4bhbp2rcd13ifvqerg","pricing_plan_id":"free"},{"bike_id":"80203015-ddb0-44b7-84bb-c610540c7e12","system_id":"levelo_inurba_marseille","lat":43.28277,"lon":5.35075,"is_reserved":false,"is_disabled":false,"rental_uris":{"android":"levelo://app?vid=80203015-ddb0-44b7-84bb-c610540c7e12","ios":"levelo://app?vid=80203015-ddb0-44b7-84bb-c610540c7e12"},"vehicle_type_id":"4","last_reported":1691593709,"current_range_meters":23200,"station_id":"ce4bhbp2rcd13ifvqerg","pricing_plan_id":"free"},{"bike_id":"901d7e8d-9fa9-4cf4-bf69-ab13b7dbf41f","system_id":"levelo_inurba_marseille","lat":43.28278,"lon":5.3507,"is_reserved":false,"is_disabled":false,"rental_uris":{"android":"levelo://app?vid=901d7e8d-9fa9-4cf4-bf69-ab13b7dbf41f","ios":"levelo://app?vid=901d7e8d-9fa9-4cf4-bf69-ab13b7dbf41f"},"vehicle_type_id":"4","last_reported":1691593709,"current_range_meters":11200,"station_id":"ce4bhbp2rcd13ifvqerg","pricing_plan_id":"free"},{"bike_id":"507a9641-f15f-4809-aa66-a6491c1664f8","system_id":"levelo_inurba_marseille","lat":43.28275,"lon":5.35079,"is_reserved":false,"is_disabled":false,"rental_uris":{"android":"levelo://app?vid=507a9641-f15f-4809-aa66-a6491c1664f8","ios":"levelo://app?vid=507a9641-f15f-4809-aa66-a6491c1664f8"},"vehicle_type_id":"4","last_reported":1691593709,"current_range_meters":18400,"station_id":"ce4bhbp2rcd13ifvqerg","pricing_plan_id":"free"},{"bike_id":"aac2161e-dd8b-404a-9cbd-a864eb028812","system_id":"levelo_inurba_marseille","lat":43.28276,"lon":5.35071,"is_reserved":false,"is_disabled":false,"rental_uris":{"android":"levelo://app?vid=aac2161e-dd8b-404a-9cbd-a864eb028812","ios":"levelo://app?vid=aac2161e-dd8b-404a-9cbd-a864eb028812"},"vehicle_type_id":"4","last_reported":1691593709,"current_range_meters":31200,"station_id":"ce4bhbp2rcd13ifvqerg","pricing_plan_id":"free"},{"bike_id":"e9e4613a-8d0c-449f-acc2-dffb95dbf198","system_id":"levelo_inurba_marseille","lat":43.28274,"lon":5.35075,"is_reserved":false,"is_disabled":false,"rental_uris":{"android":"levelo://app?vid=e9e4613a-8d0c-449f-acc2-dffb95dbf198","ios":"levelo://app?vid=e9e4613a-8d0c-449f-acc2-dffb95dbf198"},"vehicle_type_id":"4","last_reported":1691593709,"current_range_meters":15200,"station_id":"ce4bhbp2rcd13ifvqerg","pricing_plan_id":"free"},{"bike_id":"81a597e7-7fa2-4167-a3d7-b11d06d24e00","system_id":"levelo_inurba_marseille","lat":43.28276,"lon":5.35068,"is_reserved":false,"is_disabled":false,"rental_uris":{"android":"levelo://app?vid=81a597e7-7fa2-4167-a3d7-b11d06d24e00","ios":"levelo://app?vid=81a597e7-7fa2-4167-a3d7-b11d06d24e00"},"vehicle_type_id":"4","last_reported":1691593709,"current_range_meters":8400,"station_id":"ce4bhbp2rcd13ifvqerg","pricing_plan_id":"free"},{"bike_id":"6f03c315-806b-4a77-9321-c27c5c235d0f","system_id":"levelo_inurba_marseille","lat":43.282744,"lon":5.350533,"is_reserved":false,"is_disabled":false,"rental_uris":{"android":"levelo://app?vid=6f03c315-806b-4a77-9321-c27c5c235d0f","ios":"levelo://app?vid=6f03c315-806b-4a77-9321-c27c5c235d0f"},"vehicle_type_id":"4","last_reported":1691593709,"current_range_meters":20800,"station_id":"ce4bhbp2rcd13ifvqerg","pricing_plan_id":"free"},{"bike_id":"d907275c-7f6a-4a9d-9042-a8c60f3dd221","system_id":"levelo_inurba_marseille","lat":43.282744,"lon":5.350533,"is_reserved":false,"is_disabled":false,"rental_uris":{"android":"levelo://app?vid=d907275c-7f6a-4a9d-9042-a8c60f3dd221","ios":"levelo://app?vid=d907275c-7f6a-4a9d-9042-a8c60f3dd221"},"vehicle_type_id":"4","last_reported":1691593709,"current_range_meters":26400,"station_id":"ce4bhbp2rcd13ifvqerg","pricing_plan_id":"free"},{"bike_id":"3ff49eba-673d-4992-83ee-e93c67813aa1","system_id":"levelo_inurba_marseille","lat":43.28273,"lon":5.35076,"is_reserved":false,"is_disabled":false,"rental_uris":{"android":"levelo://app?vid=3ff49eba-673d-4992-83ee-e93c67813aa1","ios":"levelo://app?vid=3ff49eba-673d-4992-83ee-e93c67813aa1"},"vehicle_type_id":"4","last_reported":1691593709,"current_range_meters":400,"station_id":"ce4bhbp2rcd13ifvqerg","pricing_plan_id":"free"},{"bike_id":"b0aab946-a258-40e1-895a-51c3c19c629c","system_id":"levelo_inurba_marseille","lat":43.28276,"lon":5.35065,"is_reserved":false,"is_disabled":false,"rental_uris":{"android":"levelo://app?vid=b0aab946-a258-40e1-895a-51c3c19c629c","ios":"levelo://app?vid=b0aab946-a258-40e1-895a-51c3c19c629c"},"vehicle_type_id":"4","last_reported":1691593709,"current_range_meters":5600,"station_id":"ce4bhbp2rcd13ifvqerg","pricing_plan_id":"free"},{"bike_id":"fdb2bdca-253a-4bbb-9816-e4a62950f06e","system_id":"levelo_inurba_marseille","lat":43.282744,"lon":5.350533,"is_reserved":false,"is_disabled":false,"rental_uris":{"android":"levelo://app?vid=fdb2bdca-253a-4bbb-9816-e4a62950f06e","ios":"levelo://app?vid=fdb2bdca-253a-4bbb-9816-e4a62950f06e"},"vehicle_type_id":"4","last_reported":1691593709,"current_range_meters":25200,"station_id":"ce4bhbp2rcd13ifvqerg","pricing_plan_id":"free"},{"bike_id":"85da7706-d4ea-4404-a8b3-6582200009d0","system_id":"levelo_inurba_marseille","lat":43.282744,"lon":5.350533,"is_reserved":false,"is_disabled":false,"rental_uris":{"android":"levelo://app?vid=85da7706-d4ea-4404-a8b3-6582200009d0","ios":"levelo://app?vid=85da7706-d4ea-4404-a8b3-6582200009d0"},"vehicle_type_id":"4","last_reported":1691593709,"current_range_meters":18000,"station_id":"ce4bhbp2rcd13ifvqerg","pricing_plan_id":"free"},{"bike_id":"4fb67569-ac8b-4687-a813-4d45a34da4ea","system_id":"levelo_inurba_marseille","lat":43.28274,"lon":5.35068,"is_reserved":false,"is_disabled":false,"rental_uris":{"android":"levelo://app?vid=4fb67569-ac8b-4687-a813-4d45a34da4ea","ios":"levelo://app?vid=4fb67569-ac8b-4687-a813-4d45a34da4ea"},"vehicle_type_id":"4","last_reported":1691593709,"current_range_meters":30800,"station_id":"ce4bhbp2rcd13ifvqerg","pricing_plan_id":"free"},{"bike_id":"9db8c599-066a-4f24-b919-6e4dbe0942b9","system_id":"levelo_inurba_marseille","lat":43.28273,"lon":5.35071,"is_reserved":false,"is_disabled":false,"rental_uris":{"android":"levelo://app?vid=9db8c599-066a-4f24-b919-6e4dbe0942b9","ios":"levelo://app?vid=9db8c599-066a-4f24-b919-6e4dbe0942b9"},"vehicle_type_id":"4","last_reported":1691593709,"current_range_meters":24000,"station_id":"ce4bhbp2rcd13ifvqerg","pricing_plan_id":"free"},{"bike_id":"bfa3e3f6-c680-467b-a953-53242c5ee6fa","system_id":"levelo_inurba_marseille","lat":43.28273,"lon":5.35069,"is_reserved":false,"is_disabled":false,"rental_uris":{"android":"levelo://app?vid=bfa3e3f6-c680-467b-a953-53242c5ee6fa","ios":"levelo://app?vid=bfa3e3f6-c680-467b-a953-53242c5ee6fa"},"vehicle_type_id":"4","last_reported":1691593709,"current_range_meters":16400,"station_id":"ce4bhbp2rcd13ifvqerg","pricing_plan_id":"free"},{"bike_id":"5879d5f1-4e3f-454e-bdc4-f2fc58d240cf","system_id":"levelo_inurba_marseille","lat":43.28273,"lon":5.35069,"is_reserved":false,"is_disabled":false,"rental_uris":{"android":"levelo://app?vid=5879d5f1-4e3f-454e-bdc4-f2fc58d240cf","ios":"levelo://app?vid=5879d5f1-4e3f-454e-bdc4-f2fc58d240cf"},"vehicle_type_id":"4","last_reported":1691593709,"current_range_meters":24400,"station_id":"ce4bhbp2rcd13ifvqerg","pricing_plan_id":"free"},{"bike_id":"51922f5e-0085-463a-a263-7337bb81345f","system_id":"levelo_inurba_marseille","lat":43.28272,"lon":5.35072,"is_reserved":false,"is_disabled":false,"rental_uris":{"android":"levelo://app?vid=51922f5e-0085-463a-a263-7337bb81345f","ios":"levelo://app?vid=51922f5e-0085-463a-a263-7337bb81345f"},"vehicle_type_id":"4","last_reported":1691593709,"current_range_meters":31200,"station_id":"ce4bhbp2rcd13ifvqerg","pricing_plan_id":"free"},{"bike_id":"513c0d9e-ef82-4c05-b8fe-608d48aa87ef","system_id":"levelo_inurba_marseille","lat":43.282744,"lon":5.350533,"is_reserved":false,"is_disabled":false,"rental_uris":{"android":"levelo://app?vid=513c0d9e-ef82-4c05-b8fe-608d48aa87ef","ios":"levelo://app?vid=513c0d9e-ef82-4c05-b8fe-608d48aa87ef"},"vehicle_type_id":"4","last_reported":1691593709,"current_range_meters":22000,"station_id":"ce4bhbp2rcd13ifvqerg","pricing_plan_id":"free"},{"bike_id":"c39d469e-8cba-4fb4-bf2c-3b7e2e2faab4","system_id":"levelo_inurba_marseille","lat":43.2827,"lon":5.35078,"is_reserved":false,"is_disabled":false,"rental_uris":{"android":"levelo://app?vid=c39d469e-8cba-4fb4-bf2c-3b7e2e2faab4","ios":"levelo://app?vid=c39d469e-8cba-4fb4-bf2c-3b7e2e2faab4"},"vehicle_type_id":"4","last_reported":1691593709,"current_range_meters":25600,"station_id":"ce4bhbp2rcd13ifvqerg","pricing_plan_id":"free"},{"bike_id":"3449375a-096a-43db-a253-c13d4b0a7f2b","system_id":"levelo_inurba_marseille","lat":43.28271,"lon":5.35074,"is_reserved":false,"is_disabled":false,"rental_uris":{"android":"levelo://app?vid=3449375a-096a-43db-a253-c13d4b0a7f2b","ios":"levelo://app?vid=3449375a-096a-43db-a253-c13d4b0a7f2b"},"vehicle_type_id":"4","last_reported":1691593709,"current_range_meters":25200,"station_id":"ce4bhbp2rcd13ifvqerg","pricing_plan_id":"free"},{"bike_id":"88940920-727e-47f8-bee6-24feedff1167","system_id":"levelo_inurba_marseille","lat":43.28271,"lon":5.35074,"is_reserved":false,"is_disabled":false,"rental_uris":{"android":"levelo://app?vid=88940920-727e-47f8-bee6-24feedff1167","ios":"levelo://app?vid=88940920-727e-47f8-bee6-24feedff1167"},"vehicle_type_id":"4","last_reported":1691593709,"current_range_meters":31200,"station_id":"ce4bhbp2rcd13ifvqerg","pricing_plan_id":"free"},{"bike_id":"a00d711c-5cee-40a8-ab8b-e3f80cc8b562","system_id":"levelo_inurba_marseille","lat":43.28273,"lon":5.35066,"is_reserved":false,"is_disabled":false,"rental_uris":{"android":"levelo://app?vid=a00d711c-5cee-40a8-ab8b-e3f80cc8b562","ios":"levelo://app?vid=a00d711c-5cee-40a8-ab8b-e3f80cc8b562"},