{"last_updated":1749895836,"ttl":60,"version":"2.2","data":{"bikes":[{"bike_id":"b31f0139-170f-4194-984f-4386218a1e9d","system_id":"levelo_inurba_marseille","lat":43.33771,"lon":5.37424,"is_reserved":false,"is_disabled":true,"rental_uris":{"android":"levelo://app?vid=b31f0139-170f-4194-984f-4386218a1e9d","ios":"levelo://app?vid=b31f0139-170f-4194-984f-4386218a1e9d"},"vehicle_type_id":"4","last_reported":1749895836,"current_range_meters":0,"station_id":"","pricing_plan_id":"cebpf4jnsgd1na2vs0mg"},{"bike_id":"1acfb620-cad7-48c0-8901-d7a5b74a5b65","system_id":"levelo_inurba_marseille","lat":43.33751,"lon":5.37456,"is_reserved":false,"is_disabled":true,"rental_uris":{"android":"levelo://app?vid=1acfb620-cad7-48c0-8901-d7a5b74a5b65","ios":"levelo://app?vid=1acfb620-cad7-48c0-8901-d7a5b74a5b65"},"vehicle_type_id":"4","last_reported":1749895836,"current_range_meters":0,"station_id":"","pricing_plan_id":"cebpf4jnsgd1na2vs0mg"},{"bike_id":"9fcd9c2e-8610-4d87-a883-a5baec28d1dc","system_id":"levelo_inurba_marseille","lat":43.26203,"lon":5.37927,"is_reserved":false,"is_disabled":true,"rental_uris":{"android":"levelo://app?vid=9fcd9c2e-8610-4d87-a883-a5baec28d1dc","ios":"levelo://app?vid=9fcd9c2e-8610-4d87-a883-a5baec28d1dc"},"vehicle_type_id":"4","last_reported":1749895836,"current_range_meters":0,"station_id":"","pricing_plan_id":"cebpf4jnsgd1na2vs0mg"},{"bike_id":"bf89d78c-eb96-40d5-beb0-f402ef102cc1","system_id":"levelo_inurba_marseille","lat":43.337444,"lon":5.374475,"is_reserved":false,"is_disabled":true,"rental_uris":{"android":"levelo://app?vid=bf89d78c-eb96-40d5-beb0-f402ef102cc1","ios":"levelo://app?vid=bf89d78c-eb96-40d5-beb0-f402ef102cc1"},"vehicle_type_id":"4","last_reported":1749895836,"current_range_meters":0,"station_id":"","pricing_plan_id":"cebpf4jnsgd1na2vs0mg"},{"bike_id":"5077581b-cebb-46fc-ba69-4fa8272d4810","system_id":"levelo_inurba_marseille","lat":43.21362,"lon":5.355,"is_reserved":false,"is_disabled":true,"rental_uris":{"android":"levelo://app?vid=5077581b-cebb-46fc-ba69-4fa8272d4810","ios":"levelo://app?vid=5077581b-cebb-46fc-ba69-4fa8272d4810"},"vehicle_type_id":"4","last_reported":1749895836,"current_range_meters":0,"station_id":"","pricing_plan_id":"cebpf4jnsgd1na2vs0mg"},{"bike_id":"ebf89cec-3e1a-4275-9cd0-a3d19d69b5cf","system_id":"levelo_inurba_marseille","lat":43.279773,"lon":5.384793,"is_reserved":false,"is_disabled":true,"rental_uris":{"android":"levelo://app?vid=ebf89cec-3e1a-4275-9cd0-a3d19d69b5cf","ios":"levelo://app?vid=ebf89cec-3e1a-4275-9cd0-a3d19d69b5cf"},"vehicle_type_id":"4","last_reported":1749895836,"current_range_meters":0,"station_id":"","pricing_plan_id":"cebpf4jnsgd1na2vs0mg"},{"bike_id":"492f4bbd-1190-4ef2-b66a-479ffe91b09b","system_id":"levelo_inurba_marseille","lat":43.337444,"lon":5.374475,"is_reserved":false,"is_disabled":true,"rental_uris":{"android":"levelo://app?vid=492f4bbd-1190-4ef2-b66a-479ffe91b09b","ios":"levelo://app?vid=492f4bbd-1190-4ef2-b66a-479ffe91b09b"},"vehicle_type_id":"4","last_reported":1749895836,"current_range_meters":0,"station_id":"","pricing_plan_id":"cebpf4jnsgd1na2vs0mg"},{"bike_id":"a9b6bf99-4070-4437-bb20-72962ae30b90","system_id":"levelo_inurba_marseille","lat":43.27452,"lon":5.36376,"is_reserved":false,"is_disabled":true,"rental_uris":{"android":"levelo://app?vid=a9b6bf99-4070-4437-bb20-72962ae30b90","ios":"levelo://app?vid=a9b6bf99-4070-4437-bb20-72962ae30b90"},"vehicle_type_id":"4","last_reported":1749895836,"current_range_meters":0,"station_id":"","pricing_plan_id":"cebpf4jnsgd1na2vs0mg"},{"bike_id":"14ff8038-d57b-4551-a9ea-8ebd17ae69d9","system_id":"levelo_inurba_marseille","lat":43.29902,"lon":5.37465,"is_reserved":false,"is_disabled":true,"rental_uris":{"android":"levelo://app?vid=14ff8038-d57b-4551-a9ea-8ebd17ae69d9","ios":"levelo://app?vid=14ff8038-d57b-4551-a9ea-8ebd17ae69d9"},"vehicle_type_id":"4","last_reported":1749895836,"current_range_meters":0,"station_id":"ce4bgjh2rcd13ifvqbg0","pricing_plan_id":"cebpf4jnsgd1na2vs0mg"},{"bike_id":"7b309e0c-3ee0-4f55-8a99-1842cc764f91","system_id":"levelo_inurba_marseille","lat":43.30636,"lon":5.40092,"is_reserved":false,"is_disabled":false,"rental_uris":{"android":"levelo://app?vid=7b309e0c-3ee0-4f55-8a99-1842cc764f91","ios":"levelo://app?vid=7b309e0c-3ee0-4f55-8a99-1842cc764f91"},"vehicle_type_id":"4","last_reported":1749895836,"current_range_meters":0,"station_id":"ce4bh112rcd13ifvqda0","pricing_plan_id":"cebpf4jnsgd1na2vs0mg"},{"bike_id":"facad708-ac2e-4647-8c52-a1e2e89ee9aa","system_id":"levelo_inurba_marseille","lat":43.30632,"lon":5.4009,"is_reserved":false,"is_disabled":true,"rental_uris":{"android":"levelo://app?vid=facad708-ac2e-4647-8c52-a1e2e89ee9aa","ios":"levelo://app?vid=facad708-ac2e-4647-8c52-a1e2e89ee9aa"},"vehicle_type_id":"4","last_reported":1749895836,"current_range_meters":0,"station_id":"ce4bh112rcd13ifvqda0","pricing_plan_id":"cebpf4jnsgd1na2vs0mg"},{"bike_id":"1f937ec6-f5dd-4afa-9046-b34e2f216891","system_id":"levelo_inurba_marseille","lat":43.28408,"lon":5.37501,"is_reserved":false,"is_disabled":true,"rental_uris":{"android":"levelo://app?vid=1f937ec6-f5dd-4afa-9046-b34e2f216891","ios":"levelo://app?vid=1f937ec6-f5dd-4afa-9046-b34e2f216891"},"vehicle_type_id":"4","last_reported":1749895836,"current_range_meters":0,"station_id":"ce4bh412rcd13ifvqds0","pricing_plan_id":"cebpf4jnsgd1na2vs0mg"},{"bike_id":"3bb482b0-b133-4438-acb7-e4e1ab3a0181","system_id":"levelo_inurba_marseille","lat":43.2737,"lon":5.36259,"is_reserved":false,"is_disabled":true,"rental_uris":{"android":"levelo://app?vid=3bb482b0-b133-4438-acb7-e4e1ab3a0181","ios":"levelo://app?vid=3bb482b0-b133-4438-acb7-e4e1ab3a0181"},"vehicle_type_id":"4","last_reported":1749895836,"current_range_meters":0,"station_id":"ce4bhbh2rcd13ifvqeo0","pricing_plan_id":"cebpf4jnsgd1na2vs0mg"},{"bike_id":"3ec75ed9-fdba-4ccd-9a0d-10d4d2ba1810","system_id":"levelo_inurba_marseille","lat":43.24374,"lon":5.37093,"is_reserved":false,"is_disabled":true,"rental_uris":{"android":"levelo://app?vid=3ec75ed9-fdba-4ccd-9a0d-10d4d2ba1810","ios":"levelo://app?vid=3ec75ed9-fdba-4ccd-9a0d-10d4d2ba1810"},"vehicle_type_id":"4","last_reported":1749895836,"current_range_meters":0,"station_id":"ce4bhhh2rcd13ifvqfk0","pricing_plan_id":"cebpf4jnsgd1na2vs0mg"},{"bike_id":"7d55c521-4228-4651-993a-31015265590c","system_id":"levelo_inurba_marseille","lat":43.258665,"lon":5.398975,"is_reserved":false,"is_disabled":true,"rental_uris":{"android":"levelo://app?vid=7d55c521-4228-4651-993a-31015265590c","ios":"levelo://app?vid=7d55c521-4228-4651-993a-31015265590c"},"vehicle_type_id":"4","last_reported":1749895836,"current_range_meters":0,"station_id":"ce4bhl92rcd13ifvqghg","pricing_plan_id":"cebpf4jnsgd1na2vs0mg"},{"bike_id":"7aad3b8c-9abe-46bd-8f80-1c2ebdf02d29","system_id":"levelo_inurba_marseille","lat":43.24175,"lon":5.3972,"is_reserved":false,"is_disabled":true,"rental_uris":{"android":"levelo://app?vid=7aad3b8c-9abe-46bd-8f80-1c2ebdf02d29","ios":"levelo://app?vid=7aad3b8c-9abe-46bd-8f80-1c2ebdf02d29"},"vehicle_type_id":"4","last_reported":1749895836,"current_range_meters":0,"station_id":"ce4bhn12rcd13ifvqgpg","pricing_plan_id":"cebpf4jnsgd1na2vs0mg"},{"bike_id":"442be05d-b25d-4a8f-8f0c-2b10cb7b3826","system_id":"levelo_inurba_marseille","lat":43.30411,"lon":5.41282,"is_reserved":false,"is_disabled":true,"rental_uris":{"android":"levelo://app?vid=442be05d-b25d-4a8f-8f0c-2b10cb7b3826","ios":"levelo://app?vid=442be05d-b25d-4a8f-8f0c-2b10cb7b3826"},"vehicle_type_id":"4","last_reported":1749895836,"current_range_meters":0,"station_id":"ce4bhop2rcd13ifvqh8g","pricing_plan_id":"cebpf4jnsgd1na2vs0mg"},{"bike_id":"bbb02913-c6bc-48cc-9429-24d0d9829817","system_id":"levelo_inurba_marseille","lat":43.3234,"lon":5.40608,"is_reserved":false,"is_disabled":true,"rental_uris":{"android":"levelo://app?vid=bbb02913-c6bc-48cc-9429-24d0d9829817","ios":"levelo://app?vid=bbb02913-c6bc-48cc-9429-24d0d9829817"},"vehicle_type_id":"4","last_reported":1749895836,"current_range_meters":0,"station_id":"ce4bhq92rcd13ifvqhjg","pricing_plan_id":"cebpf4jnsgd1na2vs0mg"},{"bike_id":"ed043dea-9fdb-4bab-8e3b-a49729684d53","system_id":"levelo_inurba_marseille","lat":43.29978,"lon":5.38493,"is_reserved":false,"is_disabled":true,"rental_uris":{"android":"levelo://app?vid=ed043dea-9fdb-4bab-8e3b-a49729684d53","ios":"levelo://app?vid=ed043dea-9fdb-4bab-8e3b-a49729684d53"},"vehicle_type_id":"4","last_reported":1749895836,"current_range_meters":400,"station_id":"ce4bgj92rcd13ifvqbd0","pricing_plan_id":"cebpf4jnsgd1na2vs0mg"},{"bike_id":"fe909eec-57cb-4f6d-9797-191bc789bd7d","system_id":"levelo_inurba_marseille","lat":43.3122,"lon":5.36856,"is_reserved":false,"is_disabled":true,"rental_uris":{"android":"levelo://app?vid=fe909eec-57cb-4f6d-9797-191bc789bd7d","ios":"levelo://app?vid=fe909eec-57cb-4f6d-9797-191bc789bd7d"},"vehicle_type_id":"4","last_reported":1749895836,"current_range_meters":800,"station_id":"ce4bgl92rcd13ifvqbq0","pricing_plan_id":"cebpf4jnsgd1na2vs0mg"},{"bike_id":"cc5ce7cc-080a-4aef-bf91-b2c304c0d51e","system_id":"levelo_inurba_marseille","lat":43.29257,"lon":5.38434,"is_reserved":false,"is_disabled":true,"rental_uris":{"android":"levelo://app?vid=cc5ce7cc-080a-4aef-bf91-b2c304c0d51e","ios":"levelo://app?vid=cc5ce7cc-080a-4aef-bf91-b2c304c0d51e"},"vehicle_type_id":"4","last_reported":1749895836,"current_range_meters":800,"station_id":"ce4bh692rcd13ifvqea0","pricing_plan_id":"cebpf4jnsgd1na2vs0mg"},{"bike_id":"df6984b9-afb5-4542-b47e-65344323caf7","system_id":"levelo_inurba_marseille","lat":43.29618,"lon":5.37737,"is_reserved":false,"is_disabled":true,"rental_uris":{"android":"levelo://app?vid=df6984b9-afb5-4542-b47e-65344323caf7","ios":"levelo://app?vid=df6984b9-afb5-4542-b47e-65344323caf7"},"vehicle_type_id":"4","last_reported":1749895836,"current_range_meters":1200,"station_id":"ce4bgi92rcd13ifvqb90","pricing_plan_id":"cebpf4jnsgd1na2vs0mg"},{"bike_id":"e5611539-1c96-4266-8c75-fadd399f42bf","system_id":"levelo_inurba_marseille","lat":43.30937,"lon":5.40136,"is_reserved":false,"is_disabled":true,"rental_uris":{"android":"levelo://app?vid=e5611539-1c96-4266-8c75-fadd399f42bf","ios":"levelo://app?vid=e5611539-1c96-4266-8c75-fadd399f42bf"},"vehicle_type_id":"4","last_reported":1749895836,"current_range_meters":1200,"station_id":"ce4bgvp2rcd13ifvqct0","pricing_plan_id":"cebpf4jnsgd1na2vs0mg"},{"bike_id":"b1b742dc-7b97-4265-b4ad-cbfa16d5b7bf","system_id":"levelo_inurba_marseille","lat":43.27375,"lon":5.36258,"is_reserved":false,"is_disabled":true,"rental_uris":{"android":"levelo://app?vid=b1b742dc-7b97-4265-b4ad-cbfa16d5b7bf","ios":"levelo://app?vid=b1b742dc-7b97-4265-b4ad-cbfa16d5b7bf"},"vehicle_type_id":"4","last_reported":1749895836,"current_range_meters":1600,"station_id":"ce4bhbh2rcd13ifvqeo0","pricing_plan_id":"cebpf4jnsgd1na2vs0mg"},{"bike_id":"5a3fc12d-8188-42f6-8403-4cbe6fff7333","system_id":"levelo_inurba_marseille","lat":43.21199,"lon":5.35076,"is_reserved":false,"is_disabled":true,"rental_uris":{"android":"levelo://app?vid=5a3fc12d-8188-42f6-8403-4cbe6fff7333","ios":"levelo://app?vid=5a3fc12d-8188-42f6-8403-4cbe6fff7333"},"vehicle_type_id":"4","last_reported":1749895836,"current_range_meters":1600,"station_id":"st_cvj6sg6p6f1abm77japg","pricing_plan_id":"cebpf4jnsgd1na2vs0mg"},{"bike_id":"10246807-03be-422c-b404-578c8284d425","system_id":"levelo_inurba_marseille","lat":43.30211,"lon":5.39464,"is_reserved":false,"is_disabled":false,"rental_uris":{"android":"levelo://app?vid=10246807-03be-422c-b404-578c8284d425","ios":"levelo://app?vid=10246807-03be-422c-b404-578c8284d425"},"vehicle_type_id":"4","last_reported":1749895836,"current_range_meters":2800,"station_id":"ce4bh0p2rcd13ifvqd70","pricing_plan_id":"cebpf4jnsgd1na2vs0mg"},{"bike_id":"fbbcc494-9d42-4044-b791-9b18d28b8e88","system_id":"levelo_inurba_marseille","lat":43.29,"lon":5.35611,"is_reserved":false,"is_disabled":false,"rental_uris":{"android":"levelo://app?vid=fbbcc494-9d42-4044-b791-9b18d28b8e88","ios":"levelo://app?vid=fbbcc494-9d42-4044-b791-9b18d28b8e88"},"vehicle_type_id":"4","last_reported":1749895836,"current_range_meters":2800,"station_id":"ce4bhb92rcd13ifvqen0","pricing_plan_id":"cebpf4jnsgd1na2vs0mg"},{"bike_id":"8d60347d-541c-40fb-90ca-203bf6bd520a","system_id":"levelo_inurba_marseille","lat":43.271236,"lon":5.363942,"is_reserved":false,"is_disabled":false,"rental_uris":{"android":"levelo://app?vid=8d60347d-541c-40fb-90ca-203bf6bd520a","ios":"levelo://app?vid=8d60347d-541c-40fb-90ca-203bf6bd520a"},"vehicle_type_id":"4","last_reported":1749895836,"current_range_meters":3200,"station_id":"","pricing_plan_id":"cebpf4jnsgd1na2vs0mg"},{"bike_id":"71d13df3-56f1-48e0-948b-2275785c1073","system_id":"levelo_inurba_marseille","lat":43.24008,"lon":5.36251,"is_reserved":false,"is_disabled":false,"rental_uris":{"android":"levelo://app?vid=71d13df3-56f1-48e0-948b-2275785c1073","ios":"levelo://app?vid=71d13df3-56f1-48e0-948b-2275785c1073"},"vehicle_type_id":"4","last_reported":1749895836,"current_range_meters":3600,"station_id":"","pricing_plan_id":"cebpf4jnsgd1na2vs0mg"},{"bike_id":"8928d7fd-e617-4fd5-afc0-d8b1d4cd0a54","system_id":"levelo_inurba_marseille","lat":43.29614,"lon":5.37731,"is_reserved":false,"is_disabled":false,"rental_uris":{"android":"levelo://app?vid=8928d7fd-e617-4fd5-afc0-d8b1d4cd0a54","ios":"levelo://app?vid=8928d7fd-e617-4fd5-afc0-d8b1d4cd0a54"},"vehicle_type_id":"4","last_reported":1749895836,"current_range_meters":3600,"station_id":"ce4bgi92rcd13ifvqb90","pricing_plan_id":"cebpf4jnsgd1na2vs0mg"},{"bike_id":"a991f01e-a76b-4e02-a71d-664b42aa663c","system_id":"levelo_inurba_marseille","lat":43.33021,"lon":5.3904,"is_reserved":false,"is_disabled":false,"rental_uris":{"android":"levelo://app?vid=a991f01e-a76b-4e02-a71d-664b42aa663c","ios":"levelo://app?vid=a991f01e-a76b-4e02-a71d-664b42aa663c"},"vehicle_type_id":"4","last_reported":1749895836,"current_range_meters":3600,"station_id":"ce4bhr92rcd13ifvqhrg","pricing_plan_id":"cebpf4jnsgd1na2vs0mg"},{"bike_id":"62b75e16-af55-479a-b864-e587d0be13fc","system_id":"levelo_inurba_marseille","lat":43.30313,"lon":5.40432,"is_reserved":false,"is_disabled":false,"rental_uris":{"android":"levelo://app?vid=62b75e16-af55-479a-b864-e587d0be13fc","ios":"levelo://app?vid=62b75e16-af55-479a-b864-e587d0be13fc"},"vehicle_type_id":"4","last_reported":1749895836,"current_range_meters":4000,"station_id":"ce4bh012rcd13ifvqd10","pricing_plan_id":"cebpf4jnsgd1na2vs0mg"},{"bike_id":"97421c04-2630-4fc1-9da9-b17d88602c5f","system_id":"levelo_inurba_marseille","lat":43.337682,"lon":5.374519,"is_reserved":false,"is_disabled":false,"rental_uris":{"android":"levelo://app?vid=97421c04-2630-4fc1-9da9-b17d88602c5f","ios":"levelo://app?vid=97421c04-2630-4fc1-9da9-b17d88602c5f"},"vehicle_type_id":"4","last_reported":1749895836,"current_range_meters":4400,"station_id":"","pricing_plan_id":"cebpf4jnsgd1na2vs0mg"},{"bike_id":"d9be8431-1098-4c2d-b533-c5666589794d","system_id":"levelo_inurba_marseille","lat":43.3042,"lon":5.41286,"is_reserved":false,"is_disabled":false,"rental_uris":{"android":"levelo://app?vid=d9be8431-1098-4c2d-b533-c5666589794d","ios":"levelo://app?vid=d9be8431-1098-4c2d-b533-c5666589794d"},"vehicle_type_id":"4","last_reported":1749895836,"current_range_meters":4800,"station_id":"ce4bhop2rcd13ifvqh8g","pricing_plan_id":"cebpf4jnsgd1na2vs0mg"},{"bike_id":"1915255f-ff05-448b-bd5c-bcd55b7449d7","system_id":"levelo_inurba_marseille","lat":43.2878,"lon":5.37338,"is_reserved":false,"is_disabled":false,"rental_uris":{"android":"levelo://app?vid=1915255f-ff05-448b-bd5c-bcd55b7449d7","ios":"levelo://app?vid=1915255f-ff05-448b-bd5c-bcd55b7449d7"},"vehicle_type_id":"4","last_reported":1749895836,"current_range_meters":5600,"station_id":"","pricing_plan_id":"cebpf4jnsgd1na2vs0mg"},{"bike_id":"64c27f47-bb4d-474d-abb9-a3c340d418fd","system_id":"levelo_inurba_marseille","lat":43.26193,"lon":5.37446,"is_reserved":false,"is_disabled":false,"rental_uris":{"android":"levelo://app?vid=64c27f47-bb4d-474d-abb9-a3c340d418fd","ios":"levelo://app?vid=64c27f47-bb4d-474d-abb9-a3c340d418fd"},"vehicle_type_id":"4","last_reported":1749895836,"current_range_meters":5600,"station_id":"ce4bhgp2rcd13ifvqfc0","pricing_plan_id":"cebpf4jnsgd1na2vs0mg"},{"bike_id":"ab5c85d8-579e-4dd9-84ba-3af3a96518ad","system_id":"levelo_inurba_marseille","lat":43.2119,"lon":5.35072,"is_reserved":false,"is_disabled":false,"rental_uris":{"android":"levelo://app?vid=ab5c85d8-579e-4dd9-84ba-3af3a96518ad","ios":"levelo://app?vid=ab5c85d8-579e-4dd9-84ba-3af3a96518ad"},"vehicle_type_id":"4","last_reported":1749895836,"current_range_meters":5600,"station_id":"st_cvj6sg6p6f1abm77japg","pricing_plan_id":"cebpf4jnsgd1na2vs0mg"},{"bike_id":"f1ca2483-0e34-490e-a7d6-edbe3167f7e9","system_id":"levelo_inurba_marseille","lat":43.29904,"lon":5.37472,"is_reserved":false,"is_disabled":false,"rental_uris":{"android":"levelo://app?vid=f1ca2483-0e34-490e-a7d6-edbe3167f7e9","ios":"levelo://app?vid=f1ca2483-0e34-490e-a7d6-edbe3167f7e9"},"vehicle_type_id":"4","last_reported":1749895836,"current_range_meters":6000,"station_id":"ce4bgjh2rcd13ifvqbg0","pricing_plan_id":"cebpf4jnsgd1na2vs0mg"},{"bike_id":"530b9962-eb5b-4530-9e7e-c82bc0becc2a","system_id":"levelo_inurba_marseille","lat":43.28715,"lon":5.39985,"is_reserved":false,"is_disabled":false,"rental_uris":{"android":"levelo://app?vid=530b9962-eb5b-4530-9e7e-c82bc0becc2a","ios":"levelo://app?vid=530b9962-eb5b-4530-9e7e-c82bc0becc2a"},"vehicle_type_id":"4","last_reported":1749895836,"current_range_meters":6400,"station_id":"ce4bho92rcd13ifvqh3g","pricing_plan_id":"cebpf4jnsgd1na2vs0mg"},{"bike_id":"a8c80a0e-7608-4d9b-a094-34a95e3aac93","system_id":"levelo_inurba_marseille","lat":43.260243,"lon":5.375435,"is_reserved":false,"is_disabled":false,"rental_uris":{"android":"levelo://app?vid=a8c80a0e-7608-4d9b-a094-34a95e3aac93","ios":"levelo://app?vid=a8c80a0e-7608-4d9b-a094-34a95e3aac93"},"vehicle_type_id":"4","last_reported":1749895836,"current_range_meters":6800,"station_id":"ce4bhgh2rcd13ifvqfa0","pricing_plan_id":"cebpf4jnsgd1na2vs0mg"},{"bike_id":"2aaf2205-7518-413f-b8a5-97f1c1695d4c","system_id":"levelo_inurba_marseille","lat":43.2314,"lon":5.43706,"is_reserved":false,"is_disabled":false,"rental_uris":{"android":"levelo://app?vid=2aaf2205-7518-413f-b8a5-97f1c1695d4c","ios":"levelo://app?vid=2aaf2205-7518-413f-b8a5-97f1c1695d4c"},"vehicle_type_id":"4","last_reported":1749895836,"current_range_meters":6800,"station_id":"ce4bhmp2rcd13ifvqgog","pricing_plan_id":"cebpf4jnsgd1na2vs0mg"},{"bike_id":"f5b2ffae-c086-4e1b-b0fd-043d6026a577","system_id":"levelo_inurba_marseille","lat":43.33729,"lon":5.39176,"is_reserved":false,"is_disabled":false,"rental_uris":{"android":"levelo://app?vid=f5b2ffae-c086-4e1b-b0fd-043d6026a577","ios":"levelo://app?vid=f5b2ffae-c086-4e1b-b0fd-043d6026a577"},"vehicle_type_id":"4","last_reported":1749895836,"current_range_meters":6800,"station_id":"ce4bhr92rcd13ifvqhsg","pricing_plan_id":"cebpf4jnsgd1na2vs0mg"},{"bike_id":"af417720-f067-40eb-b425-cd406c0c610a","system_id":"levelo_inurba_marseille","lat":43.23194,"lon":5.35555,"is_reserved":false,"is_disabled":false,"rental_uris":{"android":"levelo://app?vid=af417720-f067-40eb-b425-cd406c0c610a","ios":"levelo://app?vid=af417720-f067-40eb-b425-cd406c0c610a"},"vehicle_type_id":"4","last_reported":1749895836,"current_range_meters":6800,"station_id":"ce4bhu92rcd13ifvqi70","pricing_plan_id":"cebpf4jnsgd1na2vs0mg"},{"bike_id":"26e2572d-2d9b-4252-a754-e30587914fc4","system_id":"levelo_inurba_marseille","lat":43.23193,"lon":5.35552,"is_reserved":false,"is_disabled":false,"rental_uris":{"android":"levelo://app?vid=26e2572d-2d9b-4252-a754-e30587914fc4","ios":"levelo://app?vid=26e2572d-2d9b-4252-a754-e30587914fc4"},"vehicle_type_id":"4","last_reported":1749895836,"current_range_meters":6800,"station_id":"ce4bhu92rcd13ifvqi70","pricing_plan_id":"cebpf4jnsgd1na2vs0mg"},{"bike_id":"05d48a39-7517-4063-b93d-80be4e472241","system_id":"levelo_inurba_marseille","lat":43.3165,"lon":5.40522,"is_reserved":false,"is_disabled":false,"rental_uris":{"android":"levelo://app?vid=05d48a39-7517-4063-b93d-80be4e472241","ios":"levelo://app?vid=05d48a39-7517-4063-b93d-80be4e472241"},"vehicle_type_id":"4","last_reported":1749895836,"current_range_meters":7200,"station_id":"","pricing_plan_id":"cebpf4jnsgd1na2vs0mg"},{"bike_id":"e49fb349-10f0-4406-ac8a-76de68b428f5","system_id":"levelo_inurba_marseille","lat":43.29382,"lon":5.39368,"is_reserved":false,"is_disabled":false,"rental_uris":{"android":"levelo://app?vid=e49fb349-10f0-4406-ac8a-76de68b428f5","ios":"levelo://app?vid=e49fb349-10f0-4406-ac8a-76de68b428f5"},"vehicle_type_id":"4","last_reported":1749895836,"current_range_meters":7200,"station_id":"","pricing_plan_id":"cebpf4jnsgd1na2vs0mg"},{"bike_id":"1a02737e-1ddf-475d-9950-54127761b49d","system_id":"levelo_inurba_marseille","lat":43.29578,"lon":5.42322,"is_reserved":false,"is_disabled":false,"rental_uris":{"android":"levelo://app?vid=1a02737e-1ddf-475d-9950-54127761b49d","ios":"levelo://app?vid=1a02737e-1ddf-475d-9950-54127761b49d"},"vehicle_type_id":"4","last_reported":1749895836,"current_range_meters":7200,"station_id":"ce4bhph2rcd13ifvqhdg","pricing_plan_id":"cebpf4jnsgd1na2vs0mg"},{"bike_id":"362bf9f9-a073-42a9-ba10-441becac2974","system_id":"levelo_inurba_marseille","lat":43.21187,"lon":5.35071,"is_reserved":false,"is_disabled":false,"rental_uris":{"android":"levelo://app?vid=362bf9f9-a073-42a9-ba10-441becac2974","ios":"levelo://app?vid=362bf9f9-a073-42a9-ba10-441becac2974"},"vehicle_type_id":"4","last_reported":1749895836,"current_range_meters":7200,"station_id":"st_cvj6sg6p6f1abm77japg","pricing_plan_id":"cebpf4jnsgd1na2vs0mg"},{"bike_id":"3ebcb526-9195-4257-ae10-ca7e45e1829a","system_id":"levelo_inurba_marseille","lat":43.23193,"lon":5.39978,"is_reserved":false,"is_disabled":false,"rental_uris":{"android":"levelo://app?vid=3ebcb526-9195-4257-ae10-ca7e45e1829a","ios":"levelo://app?vid=3ebcb526-9195-4257-ae10-ca7e45e1829a"},"vehicle_type_id":"4","last_reported":1749895836,"current_range_meters":8000,"station_id":"ce4bhn12rcd13ifvqgqg","pricing_plan_id":"cebpf4jnsgd1na2vs0mg"},{"bike_id":"7a8e251c-eb93-45f7-bacb-e4b0e83e5bab","system_id":"levelo_inurba_marseille","lat":43.32354,"lon":5.36753,"is_reserved":false,"is_disabled":false,"rental_uris":{"android":"levelo://app?vid=7a8e251c-eb93-45f7-bacb-e4b0e83e5bab","ios":"levelo://app?vid=7a8e251c-eb93-45f7-bacb-e4b0e83e5bab"},"vehicle_type_id":"4","last_reported":1749895836,"current_range_meters":8000,"station_id":"ce4bhsh2rcd13ifvqi2g","pricing_plan_id":"cebpf4jnsgd1na2vs0mg"},{"bike_id":"346f3f80-6b15-4406-b905-bb78596f5bac","system_id":"levelo_inurba_marseille","lat":43.32364,"lon":5.36752,"is_reserved":false,"is_disabled":false,"rental_uris":{"android":"levelo://app?vid=346f3f80-6b15-4406-b905-bb78596f5bac","ios":"levelo://app?vid=346f3f80-6b15-4406-b905-bb78596f5bac"},"vehicle_type_id":"4","last_reported":1749895836,"current_range_meters":8000,"station_id":"ce4bhsh2rcd13ifvqi2g","pricing_plan_id":"cebpf4jnsgd1na2vs0mg"},{"bike_id":"06ac91d7-f970-4f94-919b-0e1f3889d810","system_id":"levelo_inurba_marseille","lat":43.21193,"lon":5.35076,"is_reserved":false,"is_disabled":false,"rental_uris":{"android":"levelo://app?vid=06ac91d7-f970-4f94-919b-0e1f3889d810","ios":"levelo://app?vid=06ac91d7-f970-4f94-919b-0e1f3889d810"},"vehicle_type_id":"4","last_reported":1749895836,"current_range_meters":8000,"station_id":"st_cvj6sg6p6f1abm77japg","pricing_plan_id":"cebpf4jnsgd1na2vs0mg"},{"bike_id":"8e3fb325-f117-48bf-8c3e-9b779b43fae9","system_id":"levelo_inurba_marseille","lat":43.30931,"lon":5.40143,"is_reserved":false,"is_disabled":false,"rental_uris":{"android":"levelo://app?vid=8e3fb325-f117-48bf-8c3e-9b779b43fae9","ios":"levelo://app?vid=8e3fb325-f117-48bf-8c3e-9b779b43fae9"},"vehicle_type_id":"4","last_reported":1749895836,"current_range_meters":8400,"station_id":"ce4bgvp2rcd13ifvqct0","pricing_plan_id":"cebpf4jnsgd1na2vs0mg"},{"bike_id":"8d819a86-6511-4910-a5fa-c35d22869085","system_id":"levelo_inurba_marseille","lat":43.24168,"lon":5.3639,"is_reserved":false,"is_disabled":false,"rental_uris":{"android":"levelo://app?vid=8d819a86-6511-4910-a5fa-c35d22869085","ios":"levelo://app?vid=8d819a86-6511-4910-a5fa-c35d22869085"},"vehicle_type_id":"4","last_reported":1749895836,"current_range_meters":8400,"station_id":"cpo36qri1sfpv3e86is0","pricing_plan_id":"cebpf4jnsgd1na2vs0mg"},{"bike_id":"62813162-aab6-47f7-ae4e-5f8a0b392519","system_id":"levelo_inurba_marseille","lat":43.24796,"lon":5.41185,"is_reserved":false,"is_disabled":false,"rental_uris":{"android":"levelo://app?vid=62813162-aab6-47f7-ae4e-5f8a0b392519","ios":"levelo://app?vid=62813162-aab6-47f7-ae4e-5f8a0b392519"},"vehicle_type_id":"4","last_reported":1749895836,"current_range_meters":8800,"station_id":"","pricing_plan_id":"cebpf4jnsgd1na2vs0mg"},{"bike_id":"b4702d26-39b2-4af7-8149-41047e7b4ac3","system_id":"levelo_inurba_marseille","lat":43.29614,"lon":5.3772,"is_reserved":false,"is_disabled":false,"rental_uris":{"android":"levelo://app?vid=b4702d26-39b2-4af7-8149-41047e7b4ac3","ios":"levelo://app?vid=b4702d26-39b2-4af7-8149-41047e7b4ac3"},"vehicle_type_id":"4","last_reported":1749895836,"current_range_meters":8800,"station_id":"ce4bgi92rcd13ifvqb90","pricing_plan_id":"cebpf4jnsgd1na2vs0mg"},{"bike_id":"5fde616e-e904-4aff-97ef-7c14b42f698c","system_id":"levelo_inurba_marseille","lat":43.299257,"lon":5.374891,"is_reserved":false,"is_disabled":false,"rental_uris":{"android":"levelo://app?vid=5fde616e-e904-4aff-97ef-7c14b42f698c","ios":"levelo://app?vid=5fde616e-e904-4aff-97ef-7c14b42f698c"},"vehicle_type_id":"4","last_reported":1749895836,"current_range_meters":8800,"station_id":"ce4bgjh2rcd13ifvqbg0","pricing_plan_id":"cebpf4jnsgd1na2vs0mg"},{"bike_id":"2f05f8ec-ec6d-4afc-8204-77e5a8966465","system_id":"levelo_inurba_marseille","lat":43.29608,"lon":5.38111,"is_reserved":false,"is_disabled":false,"rental_uris":{"android":"levelo://app?vid=2f05f8ec-ec6d-4afc-8204-77e5a8966465","ios":"levelo://app?vid=2f05f8ec-ec6d-4afc-8204-77e5a8966465"},"vehicle_type_id":"4","last_reported":1749895836,"current_range_meters":8800,"station_id":"ce4bgl12rcd13ifvqbo0","pricing_plan_id":"cebpf4jnsgd1na2vs0mg"},{"bike_id":"4b543e03-70dc-45aa-9b58-e60a94500b7e","system_id":"levelo_inurba_marseille","lat":43.294453,"lon":5.375572,"is_reserved":false,"is_disabled":false,"rental_uris":{"android":"levelo://app?vid=4b543e03-70dc-45aa-9b58-e60a94500b7e","ios":"levelo://app?vid=4b543e03-70dc-45aa-9b58-e60a94500b7e"},"vehicle_type_id":"4","last_reported":1749895836,"current_range_meters":9200,"station_id":"","pricing_plan_id":"cebpf4jnsgd1na2vs0mg"},{"bike_id":"6facbc0d-f1b5-4dc3-86d4-5c1204834925","system_id":"levelo_inurba_marseille","lat":43.2806,"lon":5.34794,"is_reserved":false,"is_disabled":false,"rental_uris":{"android":"levelo://app?vid=6facbc0d-f1b5-4dc3-86d4-5c1204834925","ios":"levelo://app?vid=6facbc0d-f1b5-4dc3-86d4-5c1204834925"},"vehicle_type_id":"4","last_reported":1749895836,"current_range_meters":9200,"station_id":"","pricing_plan_id":"cebpf4jnsgd1na2vs0mg"},{"bike_id":"2914d63e-7231-4655-bd0b-4bd0d2837ebe","system_id":"levelo_inurba_marseille","lat":43.31501,"lon":5.37296,"is_reserved":false,"is_disabled":false,"rental_uris":{"android":"levelo://app?vid=2914d63e-7231-4655-bd0b-4bd0d2837ebe","ios":"levelo://app?vid=2914d63e-7231-4655-bd0b-4bd0d2837ebe"},"vehicle_type_id":"4","last_reported":1749895836,"current_range_meters":9200,"station_id":"ce4bgt12rcd13ifvqcd0","pricing_plan_id":"cebpf4jnsgd1na2vs0mg"},{"bike_id":"326cc913-bdbc-48c2-9a88-414846f09512","system_id":"levelo_inurba_marseille","lat":43.32357,"lon":5.3675,"is_reserved":false,"is_disabled":false,"rental_uris":{"android":"levelo://app?vid=326cc913-bdbc-48c2-9a88-414846f09512","ios":"levelo://app?vid=326cc913-bdbc-48c2-9a88-414846f09512"},"vehicle_type_id":"4","last_reported":1749895836,"current_range_meters":9200,"station_id":"ce4bhsh2rcd13ifvqi2g","pricing_plan_id":"cebpf4jnsgd1na2vs0mg"},{"bike_id":"1beca4df-42cd-4026-a62b-94bbbff0b003","system_id":"levelo_inurba_marseille","lat":43.23197,"lon":5.35551,"is_reserved":false,"is_disabled":false,"rental_uris":{"android":"levelo://app?vid=1beca4df-42cd-4026-a62b-94bbbff0b003","ios":"levelo://app?vid=1beca4df-42cd-4026-a62b-94bbbff0b003"},"vehicle_type_id":"4","last_reported":1749895836,"current_range_meters":9200,"station_id":"ce4bhu92rcd13ifvqi70","pricing_plan_id":"cebpf4jnsgd1na2vs0mg"},{"bike_id":"8a53fa43-f4d8-4beb-99a7-362006900c04","system_id":"levelo_inurba_marseille","lat":43.29927,"lon":5.36548,"is_reserved":false,"is_disabled":false,"rental_uris":{"android":"levelo://app?vid=8a53fa43-f4d8-4beb-99a7-362006900c04","ios":"levelo://app?vid=8a53fa43-f4d8-4beb-99a7-362006900c04"},"vehicle_type_id":"4","last_reported":1749895836,"current_range_meters":9600,"station_id":"ce4bgm92rcd13ifvqbr0","pricing_plan_id":"cebpf4jnsgd1na2vs0mg"},{"bike_id":"016ef347-2db9-48fd-9049-3770983f3e7a","system_id":"levelo_inurba_marseille","lat":43.29577,"lon":5.36737,"is_reserved":false,"is_disabled":false,"rental_uris":{"android":"levelo://app?vid=016ef347-2db9-48fd-9049-3770983f3e7a","ios":"levelo://app?vid=016ef347-2db9-48fd-9049-3770983f3e7a"},"vehicle_type_id":"4","last_reported":1749895836,"current_range_meters":9600,"station_id":"ce4bgph2rcd13ifvqc2g","pricing_plan_id":"cebpf4jnsgd1na2vs0mg"},{"bike_id":"913e6a6f-da36-4d67-9149-6b1b92656e2f","system_id":"levelo_inurba_marseille","lat":43.30803,"lon":5.38143,"is_reserved":false,"is_disabled":false,"rental_uris":{"android":"levelo://app?vid=913e6a6f-da36-4d67-9149-6b1b92656e2f","ios":"levelo://app?vid=913e6a6f-da36-4d67-9149-6b1b92656e2f"},"vehicle_type_id":"4","last_reported":1749895836,"current_range_meters":9600,"station_id":"ce4bgt12rcd13ifvqce0","pricing_plan_id":"cebpf4jnsgd1na2vs0mg"},{"bike_id":"45df05f7-fb08-4dfe-96a6-c5e658c570db","system_id":"levelo_inurba_marseille","lat":43.30933,"lon":5.40137,"is_reserved":false,"is_disabled":false,"rental_uris":{"android":"levelo://app?vid=45df05f7-fb08-4dfe-96a6-c5e658c570db","ios":"levelo://app?vid=45df05f7-fb08-4dfe-96a6-c5e658c570db"},"vehicle_type_id":"4","last_reported":1749895836,"current_range_meters":9600,"station_id":"ce4bgvp2rcd13ifvqct0","pricing_plan_id":"cebpf4jnsgd1na2vs0mg"},{"bike_id":"2e0fc41c-ebe9-4213-99e1-a9322513b431","system_id":"levelo_inurba_marseille","lat":43.28412,"lon":5.34983,"is_reserved":false,"is_disabled":false,"rental_uris":{"android":"levelo://app?vid=2e0fc41c-ebe9-4213-99e1-a9322513b431","ios":"levelo://app?vid=2e0fc41c-ebe9-4213-99e1-a9322513b431"},"vehicle_type_id":"4","last_reported":1749895836,"current_range_meters":9600,"station_id":"ce4bhbh2rcd13ifvqepg","pricing_plan_id":"cebpf4jnsgd1na2vs0mg"},{"bike_id":"8ae19f52-e4f1-4c8b-aa60-b6a97eb6268b","system_id":"levelo_inurba_marseille","lat":43.25117,"lon":5.40315,"is_reserved":false,"is_disabled":false,"rental_uris":{"android":"levelo://app?vid=8ae19f52-e4f1-4c8b-aa60-b6a97eb6268b","ios":"levelo://app?vid=8ae19f52-e4f1-4c8b-aa60-b6a97eb6268b"},"vehicle_type_id":"4","last_reported":1749895836,"current_range_meters":9600,"station_id":"ce4bhlh2rcd13ifvqgig","pricing_plan_id":"cebpf4jnsgd1na2vs0mg"},{"bike_id":"7a37726e-be8a-4bdd-848c-4f5b3cae5103","system_id":"levelo_inurba_marseille","lat":43.24536,"lon":5.39537,"is_reserved":false,"is_disabled":false,"rental_uris":{"android":"levelo://app?vid=7a37726e-be8a-4bdd-848c-4f5b3cae5103","ios":"levelo://app?vid=7a37726e-be8a-4bdd-848c-4f5b3cae5103"},"vehicle_type_id":"4","last_reported":1749895836,"current_range_meters":9600,"station_id":"ce4bhlp2rcd13ifvqgjg","pricing_plan_id":"cebpf4jnsgd1na2vs0mg"},{"bike_id":"cf2eecfd-68cb-44cc-943a-6e29380a8e5e","system_id":"levelo_inurba_marseille","lat":43.29496,"lon":5.38689,"is_reserved":false,"is_disabled":false,"rental_uris":{"android":"levelo://app?vid=cf2eecfd-68cb-44cc-943a-6e29380a8e5e","ios":"levelo://app?vid=cf2eecfd-68cb-44cc-943a-6e29380a8e5e"},"vehicle_type_id":"4","last_reported":1749895836,"current_range_meters":10800,"station_id":"","pricing_plan_id":"cebpf4jnsgd1na2vs0mg"},{"bike_id":"87c270dc-4fcf-4263-8f57-a07ca944f869","system_id":"levelo_inurba_marseille","lat":43.31253,"lon":5.395,"is_reserved":false,"is_disabled":false,"rental_uris":{"android":"levelo://app?vid=87c270dc-4fcf-4263-8f57-a07ca944f869","ios":"levelo://app?vid=87c270dc-4fcf-4263-8f57-a07ca944f869"},"vehicle_type_id":"4","last_reported":1749895836,"current_range_meters":10800,"station_id":"","pricing_plan_id":"cebpf4jnsgd1na2vs0mg"},{"bike_id":"50c68087-efb2-41d2-bc73-1e3dbcffe8c3","system_id":"levelo_inurba_marseille","lat":43.30556,"lon":5.36546,"is_reserved":false,"is_disabled":false,"rental_uris":{"android":"levelo://app?vid=50c68087-efb2-41d2-bc73-1e3dbcffe8c3","ios":"levelo://app?vid=50c68087-efb2-41d2-bc73-1e3dbcffe8c3"},"vehicle_type_id":"4","last_reported":1749895836,"current_range_meters":10800,"station_id":"ce4bgs12rcd13ifvqcag","pricing_plan_id":"cebpf4jnsgd1na2vs0mg"},{"bike_id":"66580b7f-8e53-4f03-ab3c-cb4a381544c6","system_id":"levelo_inurba_marseille","lat":43.27966,"lon":5.38753,"is_reserved":false,"is_disabled":false,"rental_uris":{"android":"levelo://app?vid=66580b7f-8e53-4f03-ab3c-cb4a381544c6","ios":"levelo://app?vid=66580b7f-8e53-4f03-ab3c-cb4a381544c6"},"vehicle_type_id":"4","last_reported":1749895836,"current_range_meters":11200,"station_id":"ce4bhg12rcd13ifvqf80","pricing_plan_id":"cebpf4jnsgd1na2vs0mg"},{"bike_id":"1ea9db08-6323-467f-b5de-e7a8f27af663","system_id":"levelo_inurba_marseille","lat":43.27998,"lon":5.4001,"is_reserved":false,"is_disabled":false,"rental_uris":{"android":"levelo://app?vid=1ea9db08-6323-467f-b5de-e7a8f27af663","ios":"levelo://app?vid=1ea9db08-6323-467f-b5de-e7a8f27af663"},"vehicle_type_id":"4","last_reported":1749895836,"current_range_meters":11200,"station_id":"ce4bho92rcd13ifvqh4g","pricing_plan_id":"cebpf4jnsgd1na2vs0mg"},{"bike_id":"2ab31527-f915-4286-b3a0-0beafd2cdd50","system_id":"levelo_inurba_marseille","lat":43.30014,"lon":5.37001,"is_reserved":false,"is_disabled":false,"rental_uris":{"android":"levelo://app?vid=2ab31527-f915-4286-b3a0-0beafd2cdd50","ios":"levelo://app?vid=2ab31527-f915-4286-b3a0-0beafd2cdd50"},"vehicle_type_id":"4","last_reported":1749895836,"current_range_meters":11600,"station_id":"","pricing_plan_id":"cebpf4jnsgd1na2vs0mg"},{"bike_id":"23bfc705-acbc-484d-9e6a-f0778cfea6f5","system_id":"levelo_inurba_marseille","lat":43.34251,"lon":5.38568,"is_reserved":false,"is_disabled":false,"rental_uris":{"android":"levelo://app?vid=23bfc705-acbc-484d-9e6a-f0778cfea6f5","ios":"levelo://app?vid=23bfc705-acbc-484d-9e6a-f0778cfea6f5"},"vehicle_type_id":"4","last_reported":1749895836,"current_range_meters":11600,"station_id":"","pricing_plan_id":"cebpf4jnsgd1na2vs0mg"},{"bike_id":"aba49e60-1ad7-45de-95e3-dddcfff94f91","system_id":"levelo_inurba_marseille","lat":43.26545,"lon":5.37994,"is_reserved":false,"is_disabled":false,"rental_uris":{"android":"levelo://app?vid=aba49e60-1ad7-45de-95e3-dddcfff94f91","ios":"levelo://app?vid=aba49e60-1ad7-45de-95e3-dddcfff94f91"},"vehicle_type_id":"4","last_reported":1749895836,"current_range_meters":11600,"station_id":"","pricing_plan_id":"cebpf4jnsgd1na2vs0mg"},{"bike_id":"f0b4264a-1ce6-4083-b87e-74a6009552c3","system_id":"levelo_inurba_marseille","lat":43.27628,"lon":5.3611,"is_reserved":false,"is_disabled":false,"rental_uris":{"android":"levelo://app?vid=f0b4264a-1ce6-4083-b87e-74a6009552c3","ios":"levelo://app?vid=f0b4264a-1ce6-4083-b87e-74a6009552c3"},"vehicle_type_id":"4","last_reported":1749895836,"current_range_meters":11600,"station_id":"ce4bgj92rcd13ifvqbe0","pricing_plan_id":"cebpf4jnsgd1na2vs0mg"},{"bike_id":"cdd38213-ab7e-45d6-a13c-44f95be6b447","system_id":"levelo_inurba_marseille","lat":43.26552,"lon":5.37286,"is_reserved":false,"is_disabled":false,"rental_uris":{"android":"levelo://app?vid=cdd38213-ab7e-45d6-a13c-44f95be6b447","ios":"levelo://app?vid=cdd38213-ab7e-45d6-a13c-44f95be6b447"},"vehicle_type_id":"4","last_reported":1749895836,"current_range_meters":11600,"station_id":"ce4bhg12rcd13ifvqf70","pricing_plan_id":"cebpf4jnsgd1na2vs0mg"},{"bike_id":"6674f1ca-c16b-45d7-af63-9e6a6c903c91","system_id":"levelo_inurba_marseille","lat":43.25582,"lon":5.38223,"is_reserved":false,"is_disabled":false,"rental_uris":{"android":"levelo://app?vid=6674f1ca-c16b-45d7-af63-9e6a6c903c91","ios":"levelo://app?vid=6674f1ca-c16b-45d7-af63-9e6a6c903c91"},"vehicle_type_id":"4","last_reported":1749895836,"current_range_meters":11600,"station_id":"ce4bhih2rcd13ifvqfs0","pricing_plan_id":"cebpf4jnsgd1na2vs0mg"},{"bike_id":"c668246c-155b-4b55-902a-e132d711d30b","system_id":"levelo_inurba_marseille","lat":43.24541,"lon":5.39503,"is_reserved":false,"is_disabled":false,"rental_uris":{"android":"levelo://app?vid=c668246c-155b-4b55-902a-e132d711d30b","ios":"levelo://app?vid=c668246c-155b-4b55-902a-e132d711d30b"},"vehicle_type_id":"4","last_reported":1749895836,"current_range_meters":11600,"station_id":"ce4bhlp2rcd13ifvqgjg","pricing_plan_id":"cebpf4jnsgd1na2vs0mg"},{"bike_id":"0afcb599-3d9f-4bc3-a6eb-ed35bcfdac84","system_id":"levelo_inurba_marseille","lat":43.23194,"lon":5.35543,"is_reserved":false,"is_disabled":false,"rental_uris":{"android":"levelo://app?vid=0afcb599-3d9f-4bc3-a6eb-ed35bcfdac84","ios":"levelo://app?vid=0afcb599-3d9f-4bc3-a6eb-ed35bcfdac84"},"vehicle_type_id":"4","last_reported":1749895836,"current_range_meters":11600,"station_id":"ce4bhu92rcd13ifvqi70","pricing_plan_id":"cebpf4jnsgd1na2vs0mg"},{"bike_id":"ceca03f7-26ad-4874-a1fe-0628680181d0","system_id":"levelo_inurba_marseille","lat":43.29312,"lon":5.37177,"is_reserved":false,"is_disabled":false,"rental_uris":{"android":"levelo://app?vid=ceca03f7-26ad-4874-a1fe-0628680181d0","ios":"levelo://app?vid=ceca03f7-26ad-4874-a1fe-0628680181d0"},"vehicle_type_id":"4","last_reported":1749895836,"current_range_meters":12000,"station_id":"ce4bgh92rcd13ifvqb40","pricing_plan_id":"cebpf4jnsgd1na2vs0mg"},{"bike_id":"0bd356a4-46ef-4af6-8ac2-85cabb6005eb","system_id":"levelo_inurba_marseille","lat":43.30424,"lon":5.41288,"is_reserved":false,"is_disabled":false,"rental_uris":{"android":"levelo://app?vid=0bd356a4-46ef-4af6-8ac2-85cabb6005eb","ios":"levelo://app?vid=0bd356a4-46ef-4af6-8ac2-85cabb6005eb"},"vehicle_type_id":"4","last_reported":1749895836,"current_range_meters":12000,"station_id":"ce4bhop2rcd13ifvqh8g","pricing_plan_id":"cebpf4jnsgd1na2vs0mg"},{"bike_id":"191524f3-267f-4467-9ea7-6cd874a9eea3","system_id":"levelo_inurba_marseille","lat":43.3041,"lon":5.41283,"is_reserved":false,"is_disabled":false,"rental_uris":{"android":"levelo://app?vid=191524f3-267f-4467-9ea7-6cd874a9eea3","ios":"levelo://app?vid=191524f3-267f-4467-9ea7-6cd874a9eea3"},"vehicle_type_id":"4","last_reported":1749895836,"current_range_meters":12000,"station_id":"ce4bhop2rcd13ifvqh8g","pricing_plan_id":"cebpf4jnsgd1na2vs0mg"},{"bike_id":"226d60a6-ed71-47f6-89dc-595dd1bfe9d2","system_id":"levelo_inurba_marseille","lat":43.28861,"lon":5.35884,"is_reserved":false,"is_disabled":false,"rental_uris":{"android":"levelo://app?vid=226d60a6-ed71-47f6-89dc-595dd1bfe9d2","ios":"levelo://app?vid=226d60a6-ed71-47f6-89dc-595dd1bfe9d2"},"vehicle_type_id":"4","last_reported":1749895836,"current_range_meters":12400,"station_id":"ce4bhb12rcd13ifvqem0","pricing_plan_id":"cebpf4jnsgd1na2vs0mg"},{"bike_id":"f3ec16b2-8afd-4ecb-8d58-15a6a90ff603","system_id":"levelo_inurba_marseille","lat":43.32361,"lon":5.36884,"is_reserved":false,"is_disabled":false,"rental_uris":{"android":"levelo://app?vid=f3ec16b2-8afd-4ecb-8d58-15a6a90ff603","ios":"levelo://app?vid=f3ec16b2-8afd-4ecb-8d58-15a6a90ff603"},"vehicle_type_id":"4","last_reported":1749895836,"current_range_meters":12400,"station_id":"ce4bhsh2rcd13ifvqi2g","pricing_plan_id":"cebpf4jnsgd1na2vs0mg"},{"bike_id":"8e8899f0-4aff-43f9-9f62-ce6bf69d0612","system_id":"levelo_inurba_marseille","lat":43.31196,"lon":5.40188,"is_reserved":false,"is_disabled":false,"rental_uris":{"android":"levelo://app?vid=8e8899f0-4aff-43f9-9f62-ce6bf69d0612","ios":"levelo://app?vid=8e8899f0-4aff-43f9-9f62-ce6bf69d0612"},"vehicle_type_id":"4","last_reported":1749895836,"current_range_meters":12800,"station_id":"","pricing_plan_id":"cebpf4jnsgd1na2vs0mg"},{"bike_id":"728eda6c-169d-4c41-9a72-34e5d2508396","system_id":"levelo_inurba_marseille","lat":43.28863,"lon":5.35856,"is_reserved":false,"is_disabled":false,"rental_uris":{"android":"levelo://app?vid=728eda6c-169d-4c41-9a72-34e5d2508396","ios":"levelo://app?vid=728eda6c-169d-4c41-9a72-34e5d2508396"},"vehicle_type_id":"4","last_reported":1749895836,"current_range_meters":12800,"station_id":"ce4bhb12rcd13ifvqem0","pricing_plan_id":"cebpf4jnsgd1na2vs0mg"},{"bike_id":"d1fe1d4d-2529-484c-8253-538b8173d86d","system_id":"levelo_inurba_marseille","lat":43.30886,"lon":5.39653,"is_reserved":false,"is_disabled":false,"rental_uris":{"android":"levelo://app?vid=d1fe1d4d-2529-484c-8253-538b8173d86d","ios":"levelo://app?vid=d1fe1d4d-2529-484c-8253-538b8173d86d"},"vehicle_type_id":"4","last_reported":1749895836,"current_range_meters":13600,"station_id":"ce4bh012rcd13ifvqcv0","pricing_plan_id":"cebpf4jnsgd1na2vs0mg"},{"bike_id":"f2404481-86a2-4ce2-81b9-adf96a84b46d","system_id":"levelo_inurba_marseille","lat":43.2506,"lon":5.3954,"is_reserved":false,"is_disabled":false,"rental_uris":{"android":"levelo://app?vid=f2404481-86a2-4ce2-81b9-adf96a84b46d","ios":"levelo://app?vid=f2404481-86a2-4ce2-81b9-adf96a84b46d"},"vehicle_type_id":"4","last_reported":1749895836,"current_range_meters":13600,"station_id":"ce4bhm12rcd13ifvqgkg","pricing_plan_id":"cebpf4jnsgd1na2vs0mg"},{"bike_id":"e34e670b-4318-4b23-852e-c8168f51e05d","system_id":"levelo_inurba_marseille","lat":43.28268,"lon":5.35065,"is_reserved":false,"is_disabled":false,"rental_uris":{"android":"levelo://app?vid=e34e670b-4318-4b23-852e-c8168f51e05d","ios":"levelo://app?vid=e34e670b-4318-4b23-852e-c8168f51e05d"},"vehicle_type_id":"4","last_reported":1749895836,"current_range_meters":14000,"station_id":"","pricing_plan_id":"cebpf4jnsgd1na2vs0mg"},{"bike_id":"75ac12dd-4ac9-4201-b6cf-0f9194fc4534","system_id":"levelo_inurba_marseille","lat":43.25078,"lon":5.39514,"is_reserved":false,"is_disabled":false,"rental_uris":{"android":"levelo://app?vid=75ac12dd-4ac9-4201-b6cf-0f9194fc4534","ios":"levelo://app?vid=75ac12dd-4ac9-4201-b6cf-0f9194fc4534"},"vehicle_type_id":"4","last_reported":1749895836,"current_range_meters":14000,"station_id":"ce4bhm12rcd13ifvqgkg","pricing_plan_id":"cebpf4jnsgd1na2vs0mg"},{"bike_id":"300f466f-ffc6-4394-acd1-1a4d925af8be","system_id":"levelo_inurba_marseille","lat":43.21742,"lon":5.34622,"is_reserved":false,"is_disabled":false,"rental_uris":{"android":"levelo://app?vid=300f466f-ffc6-4394-acd1-1a4d925af8be","ios":"levelo://app?vid=300f466f-ffc6-4394-acd1-1a4d925af8be"},"vehicle_type_id":"4","last_reported":1749895836,"current_range_meters":14000,"station_id":"st_cvj6r9ubvosntc0bgbag","pricing_plan_id":"cebpf4jnsgd1na2vs0mg"},{"bike_id":"f5ca8e65-d843-4ebd-b8f6-6066562274b2","system_id":"levelo_inurba_marseille","lat":43.26558,"lon":5.37278,"is_reserved":false,"is_disabled":false,"rental_uris":{"android":"levelo://app?vid=f5ca8e65-d843-4ebd-b8f6-6066562274b2","ios":"levelo://app?vid=f5ca8e65-d843-4ebd-b8f6-6066562274b2"},"vehicle_type_id":"4","last_reported":1749895836,"current_range_meters":14400,"station_id":"ce4bhg12rcd13ifvqf70","pricing_plan_id":"cebpf4jnsgd1na2vs0mg"},{"bike_id":"c5454b5c-3e87-45b2-9512-bb92ba542033","system_id":"levelo_inurba_marseille","lat":43.26028,"lon":5.37547,"is_reserved":false,"is_disabled":false,"rental_uris":{"android":"levelo://app?vid=c5454b5c-3e87-45b2-9512-bb92ba542033","ios":"levelo://app?vid=c5454b5c-3e87-45b2-9512-bb92ba542033"},"vehicle_type_id":"4","last_reported":1749895836,"current_range_meters":14400,"station_id":"ce4bhgh2rcd13ifvqfa0","pricing_plan_id":"cebpf4jnsgd1na2vs0mg"},{"bike_id":"5a21e497-33bb-4066-baf7-e010c7ab35fe","system_id":"levelo_inurba_marseille","lat":43.21188,"lon":5.3506,"is_reserved":false,"is_disabled":false,"rental_uris":{"android":"levelo://app?vid=5a21e497-33bb-4066-baf7-e010c7ab35fe","ios":"levelo://app?vid=5a21e497-33bb-4066-baf7-e010c7ab35fe"},"vehicle_type_id":"4","last_reported":1749895836,"current_range_meters":14400,"station_id":"st_cvj6sg6p6f1abm77japg","pricing_plan_id":"cebpf4jnsgd1na2vs0mg"},{"bike_id":"5f1bb678-fed1-490c-a9eb-24fd6b93aa46","system_id":"levelo_inurba_marseille","lat":43.3019,"lon":5.39468,"is_reserved":false,"is_disabled":false,"rental_uris":{"android":"levelo://app?vid=5f1bb678-fed1-490c-a9eb-24fd6b93aa46","ios":"levelo://app?vid=5f1bb678-fed1-490c-a9eb-24fd6b93aa46"},"vehicle_type_id":"4","last_reported":1749895836,"current_range_meters":14800,"station_id":"ce4bh0p2rcd13ifvqd70","pricing_plan_id":"cebpf4jnsgd1na2vs0mg"},{"bike_id":"7bbea268-7e10-4726-af89-c73005574248","system_id":"levelo_inurba_marseille","lat":43.30374,"lon":5.42479,"is_reserved":false,"is_disabled":false,"rental_uris":{"android":"levelo://app?vid=7bbea268-7e10-4726-af89-c73005574248","ios":"levelo://app?vid=7bbea268-7e10-4726-af89-c73005574248"},"vehicle_type_id":"4","last_reported":1749895836,"current_range_meters":14800,"station_id":"ce4bhoh2rcd13ifvqh6g","pricing_plan_id":"cebpf4jnsgd1na2vs0mg"},{"bike_id":"2cf8fef9-3c36-4c67-a8de-84e157d87623","system_id":"levelo_inurba_marseille","lat":43.320435,"lon":5.4153,"is_reserved":false,"is_disabled":false,"rental_uris":{"android":"levelo://app?vid=2cf8fef9-3c36-4c67-a8de-84e157d87623","ios":"levelo://app?vid=2cf8fef9-3c36-4c67-a8de-84e157d87623"},"vehicle_type_id":"4","last_reported":1749895836,"current_range_meters":14800,"station_id":"ce4bhq92rcd13ifvqhkg","pricing_plan_id":"cebpf4jnsgd1na2vs0mg"},{"bike_id":"ccb9975b-34a8-47da-b755-e17344ae18d3","system_id":"levelo_inurba_marseille","lat":43.23188,"lon":5.35545,"is_reserved":false,"is_disabled":false,"rental_uris":{"android":"levelo://app?vid=ccb9975b-34a8-47da-b755-e17344ae18d3","ios":"levelo://app?vid=ccb9975b-34a8-47da-b755-e17344ae18d3"},"vehicle_type_id":"4","last_reported":1749895836,"current_range_meters":14800,"station_id":"ce4bhu92rcd13ifvqi70","pricing_plan_id":"cebpf4jnsgd1na2vs0mg"},{"bike_id":"efd9c384-daa9-4013-b288-e4e1f794d48f","system_id":"levelo_inurba_marseille","lat":43.30017,"lon":5.40086,"is_reserved":false,"is_disabled":false,"rental_uris":{"android":"levelo://app?vid=efd9c384-daa9-4013-b288-e4e1f794d48f","ios":"levelo://app?vid=efd9c384-daa9-4013-b288-e4e1f794d48f"},"vehicle_type_id":"4","last_reported":1749895836,"current_range_meters":15200,"station_id":"","pricing_plan_id":"cebpf4jnsgd1na2vs0mg"},{"bike_id":"79d8670f-ef9a-448d-ae14-06b25ea9d59c","system_id":"levelo_inurba_marseille","lat":43.30533,"lon":5.365334,"is_reserved":false,"is_disabled":false,"rental_uris":{"android":"levelo://app?vid=79d8670f-ef9a-448d-ae14-06b25ea9d59c","ios":"levelo://app?vid=79d8670f-ef9a-448d-ae14-06b25ea9d59c"},"vehicle_type_id":"4","last_reported":1749895836,"current_range_meters":15200,"station_id":"ce4bgs12rcd13ifvqcag","pricing_plan_id":"cebpf4jnsgd1na2vs0mg"},{"bike_id":"5d2a31ee-68f2-4bf3-90dd-5916471bbad6","system_id":"levelo_inurba_marseille","lat":43.26209,"lon":5.37442,"is_reserved":false,"is_disabled":false,"rental_uris":{"android":"levelo://app?vid=5d2a31ee-68f2-4bf3-90dd-5916471bbad6","ios":"levelo://app?vid=5d2a31ee-68f2-4bf3-90dd-5916471bbad6"},"vehicle_type_id":"4","last_reported":1749895836,"current_range_meters":15200,"station_id":"ce4bhgp2rcd13ifvqfc0","pricing_plan_id":"cebpf4jnsgd1na2vs0mg"},{"bike_id":"c3eec97b-9234-4fbe-b919-6448e406ffbe","system_id":"levelo_inurba_marseille","lat":43.25832,"lon":5.39433,"is_reserved":false,"is_disabled":false,"rental_uris":{"android":"levelo://app?vid=c3eec97b-9234-4fbe-b919-6448e406ffbe","ios":"levelo://app?vid=c3eec97b-9234-4fbe-b919-6448e406ffbe"},"vehicle_type_id":"4","last_reported":1749895836,"current_range_meters":15200,"station_id":"ce4bhip2rcd13ifvqft0","pricing_plan_id":"cebpf4jnsgd1na2vs0mg"},{"bike_id":"928e59e6-77f0-4000-a52d-b34fc20aa3c4","system_id":"levelo_inurba_marseille","lat":43.29851,"lon":5.36263,"is_reserved":false,"is_disabled":false,"rental_uris":{"android":"levelo://app?vid=928e59e6-77f0-4000-a52d-b34fc20aa3c4","ios":"levelo://app?vid=928e59e6-77f0-4000-a52d-b34fc20aa3c4"},"vehicle_type_id":"4","last_reported":1749895836,"current_range_meters":16000,"station_id":"ce4bgpp2rcd13ifvqc3g","pricing_plan_id":"cebpf4jnsgd1na2vs0mg"},{"bike_id":"4a5f6379-ff3a-49dc-b361-bc1a2e456432","system_id":"levelo_inurba_marseille","lat":43.305328,"lon":5.365545,"is_reserved":false,"is_disabled":false,"rental_uris":{"android":"levelo://app?vid=4a5f6379-ff3a-49dc-b361-bc1a2e456432","ios":"levelo://app?vid=4a5f6379-ff3a-49dc-b361-bc1a2e456432"},"vehicle_type_id":"4","last_reported":1749895836,"current_range_meters":16000,"station_id":"ce4bgs12rcd13ifvqcag","pricing_plan_id":"cebpf4jnsgd1na2vs0mg"},{"bike_id":"bd081d41-5eed-4495-82ed-9e27cd112239","system_id":"levelo_inurba_marseille","lat":43.249488,"lon":5.396613,"is_reserved":false,"is_disabled":false,"rental_uris":{"android":"levelo://app?vid=bd081d41-5eed-4495-82ed-9e27cd112239","ios":"levelo://app?vid=bd081d41-5eed-4495-82ed-9e27cd112239"},"vehicle_type_id":"4","last_reported":1749895836,"current_range_meters":16400,"station_id":"","pricing_plan_id":"cebpf4jnsgd1na2vs0mg"},{"bike_id":"d220462c-df82-43a0-ad36-1fbfa929cb06","system_id":"levelo_inurba_marseille","lat":43.29007,"lon":5.35888,"is_reserved":false,"is_disabled":false,"rental_uris":{"android":"levelo://app?vid=d220462c-df82-43a0-ad36-1fbfa929cb06","ios":"levelo://app?vid=d220462c-df82-43a0-ad36-1fbfa929cb06"},"vehicle_type_id":"4","last_reported":1749895836,"current_range_meters":16400,"station_id":"","pricing_plan_id":"cebpf4jnsgd1na2vs0mg"},{"bike_id":"5f73540b-33ed-4f56-9b85-f0e012833c0b","system_id":"levelo_inurba_marseille","lat":43.28933,"lon":5.36624,"is_reserved":false,"is_disabled":false,"rental_uris":{"android":"levelo://app?vid=5f73540b-33ed-4f56-9b85-f0e012833c0b","ios":"levelo://app?vid=5f73540b-33ed-4f56-9b85-f0e012833c0b"},"vehicle_type_id":"4","last_reported":1749895836,"current_range_meters":16400,"station_id":"ce4bhap2rcd13ifvqek0","pricing_plan_id":"cebpf4jnsgd1na2vs0mg"},{"bike_id":"92eb1867-2314-4bfc-a85f-f18c63ab5bca","system_id":"levelo_inurba_marseille","lat":43.27371,"lon":5.36254,"is_reserved":false,"is_disabled":false,"rental_uris":{"android":"levelo://app?vid=92eb1867-2314-4bfc-a85f-f18c63ab5bca","ios":"levelo://app?vid=92eb1867-2314-4bfc-a85f-f18c63ab5bca"},"vehicle_type_id":"4","last_reported":1749895836,"current_range_meters":16400,"station_id":"ce4bhbh2rcd13ifvqeo0","pricing_plan_id":"cebpf4jnsgd1na2vs0mg"},{"bike_id":"3acf5902-4644-42a3-a2eb-53727f870e1c","system_id":"levelo_inurba_marseille","lat":43.26191,"lon":5.37446,"is_reserved":false,"is_disabled":false,"rental_uris":{"android":"levelo://app?vid=3acf5902-4644-42a3-a2eb-53727f870e1c","ios":"levelo://app?vid=3acf5902-4644-42a3-a2eb-53727f870e1c"},"vehicle_type_id":"4","last_reported":1749895836,"current_range_meters":16400,"station_id":"ce4bhgp2rcd13ifvqfc0","pricing_plan_id":"cebpf4jnsgd1na2vs0mg"},{"bike_id":"108df224-a9a1-40dd-bfd9-874deb063612","system_id":"levelo_inurba_marseille","lat":43.25081,"lon":5.39513,"is_reserved":false,"is_disabled":false,"rental_uris":{"android":"levelo://app?vid=108df224-a9a1-40dd-bfd9-874deb063612","ios":"levelo://app?vid=108df224-a9a1-40dd-bfd9-874deb063612"},"vehicle_type_id":"4","last_reported":1749895836,"current_range_meters":16400,"station_id":"ce4bhm12rcd13ifvqgkg","pricing_plan_id":"cebpf4jnsgd1na2vs0mg"},{"bike_id":"6b7fc9d7-28ff-4959-9fe0-d25309462ef8","system_id":"levelo_inurba_marseille","lat":43.2509,"lon":5.39513,"is_reserved":false,"is_disabled":false,"rental_uris":{"android":"levelo://app?vid=6b7fc9d7-28ff-4959-9fe0-d25309462ef8","ios":"levelo://app?vid=6b7fc9d7-28ff-4959-9fe0-d25309462ef8"},"vehicle_type_id":"4","last_reported":1749895836,"current_range_meters":16400,"station_id":"ce4bhm12rcd13ifvqgkg","pricing_plan_id":"cebpf4jnsgd1na2vs0mg"},{"bike_id":"e74cca96-a40f-43ff-b771-d6bc968c8004","system_id":"levelo_inurba_marseille","lat":43.23193,"lon":5.35543,"is_reserved":false,"is_disabled":false,"rental_uris":{"android":"levelo://app?vid=e74cca96-a40f-43ff-b771-d6bc968c8004","ios":"levelo://app?vid=e74cca96-a40f-43ff-b771-d6bc968c8004"},"vehicle_type_id":"4","last_reported":1749895836,"current_range_meters":16400,"station_id":"ce4bhu92rcd13ifvqi70","pricing_plan_id":"cebpf4jnsgd1na2vs0mg"},{"bike_id":"3459ce31-d75a-4462-95a1-3c3f9af1bd51","system_id":"levelo_inurba_marseille","lat":43.21752,"lon":5.34593,"is_reserved":false,"is_disabled":false,"rental_uris":{"android":"levelo://app?vid=3459ce31-d75a-4462-95a1-3c3f9af1bd51","ios":"levelo://app?vid=3459ce31-d75a-4462-95a1-3c3f9af1bd51"},"vehicle_type_id":"4","last_reported":1749895836,"current_range_meters":16400,"station_id":"st_cvj6r9ubvosntc0bgbag","pricing_plan_id":"cebpf4jnsgd1na2vs0mg"},{"bike_id":"7240a984-bb6d-4c3b-ab8d-aef55ac0bce8","system_id":"levelo_inurba_marseille","lat":43.2123,"lon":5.35081,"is_reserved":false,"is_disabled":false,"rental_uris":{"android":"levelo://app?vid=7240a984-bb6d-4c3b-ab8d-aef55ac0bce8","ios":"levelo://app?vid=7240a984-bb6d-4c3b-ab8d-aef55ac0bce8"},"vehicle_type_id":"4","last_reported":1749895836,"current_range_meters":16800,"station_id":"","pricing_plan_id":"cebpf4jnsgd1na2vs0mg"},{"bike_id":"a8283606-6fdf-49b2-991a-62bc6fc9988a","system_id":"levelo_inurba_marseille","lat":43.22509,"lon":5.34786,"is_reserved":false,"is_disabled":false,"rental_uris":{"android":"levelo://app?vid=a8283606-6fdf-49b2-991a-62bc6fc9988a","ios":"levelo://app?vid=a8283606-6fdf-49b2-991a-62bc6fc9988a"},"vehicle_type_id":"4","last_reported":1749895836,"current_range_meters":16800,"station_id":"","pricing_plan_id":"cebpf4jnsgd1na2vs0mg"},{"bike_id":"634bf4d8-a941-4321-86bb-54f326958f04","system_id":"levelo_inurba_marseille","lat":43.30292,"lon":5.39205,"is_reserved":false,"is_disabled":false,"rental_uris":{"android":"levelo://app?vid=634bf4d8-a941-4321-86bb-54f326958f04","ios":"levelo://app?vid=634bf4d8-a941-4321-86bb-54f326958f04"},"vehicle_type_id":"4","last_reported":1749895836,"current_range_meters":16800,"station_id":"ce4bgkh2rcd13ifvqbk0","pricing_plan_id":"cebpf4jnsgd1na2vs0mg"},{"bike_id":"10b82f9e-6191-46ff-8c19-afdf5124c587","system_id":"levelo_inurba_marseille","lat":43.28618,"lon":5.35106,"is_reserved":false,"is_disabled":false,"rental_uris":{"android":"levelo://app?vid=10b82f9e-6191-46ff-8c19-afdf5124c587","ios":"levelo://app?vid=10b82f9e-6191-46ff-8c19-afdf5124c587"},"vehicle_type_id":"4","last_reported":1749895836,"current_range_meters":16800,"station_id":"ce4bhch2rcd13ifvqeug","pricing_plan_id":"cebpf4jnsgd1na2vs0mg"},{"bike_id":"942e8214-3301-4ebf-afb2-2d9748cfc519","system_id":"levelo_inurba_marseille","lat":43.26221,"lon":5.37448,"is_reserved":false,"is_disabled":false,"rental_uris":{"android":"levelo://app?vid=942e8214-3301-4ebf-afb2-2d9748cfc519","ios":"levelo://app?vid=942e8214-3301-4ebf-afb2-2d9748cfc519"},"vehicle_type_id":"4","last_reported":1749895836,"current_range_meters":16800,"station_id":"ce4bhgp2rcd13ifvqfc0","pricing_plan_id":"cebpf4jnsgd1na2vs0mg"},{"bike_id":"3a11c5a8-e636-4a8e-97c5-5f95a0b7cfbb","system_id":"levelo_inurba_marseille","lat":43.337715,"lon":5.392077,"is_reserved":false,"is_disabled":false,"rental_uris":{"android":"levelo://app?vid=3a11c5a8-e636-4a8e-97c5-5f95a0b7cfbb","ios":"levelo://app?vid=3a11c5a8-e636-4a8e-97c5-5f95a0b7cfbb"},"vehicle_type_id":"4","last_reported":1749895836,"current_range_meters":16800,"station_id":"ce4bhr92rcd13ifvqhsg","pricing_plan_id":"cebpf4jnsgd1na2vs0mg"},{"bike_id":"3ba53083-f560-4fb5-b3cc-01a71156c6ba","system_id":"levelo_inurba_marseille","lat":43.23195,"lon":5.35549,"is_reserved":false,"is_disabled":false,"rental_uris":{"android":"levelo://app?vid=3ba53083-f560-4fb5-b3cc-01a71156c6ba","ios":"levelo://app?vid=3ba53083-f560-4fb5-b3cc-01a71156c6ba"},"vehicle_type_id":"4","last_reported":1749895836,"current_range_meters":16800,"station_id":"ce4bhu92rcd13ifvqi70","pricing_plan_id":"cebpf4jnsgd1na2vs0mg"},{"bike_id":"33c88bcc-413d-4d54-bd30-5a2b999a43c0","system_id":"levelo_inurba_marseille","lat":43.21215,"lon":5.35052,"is_reserved":false,"is_disabled":false,"rental_uris":{"android":"levelo://app?vid=33c88bcc-413d-4d54-bd30-5a2b999a43c0","ios":"levelo://app?vid=33c88bcc-413d-4d54-bd30-5a2b999a43c0"},"vehicle_type_id":"4","last_reported":1749895836,"current_range_meters":16800,"station_id":"st_cvj6sg6p6f1abm77japg","pricing_plan_id":"cebpf4jnsgd1na2vs0mg"},{"bike_id":"c82f75f2-635c-40da-9f67-77d82cb74c97","system_id":"levelo_inurba_marseille","lat":43.2119,"lon":5.35075,"is_reserved":false,"is_disabled":false,"rental_uris":{"android":"levelo://app?vid=c82f75f2-635c-40da-9f67-77d82cb74c97","ios":"levelo://app?vid=c82f75f2-635c-40da-9f67-77d82cb74c97"},"vehicle_type_id":"4","last_reported":1749895836,"current_range_meters":16800,"station_id":"st_cvj6sg6p6f1abm77japg","pricing_plan_id":"cebpf4jnsgd1na2vs0mg"},{"bike_id":"c1d18c8e-5e15-4b05-8833-62eece5013a8","system_id":"levelo_inurba_marseille","lat":43.29622,"lon":5.37167,"is_reserved":false,"is_disabled":false,"rental_uris":{"android":"levelo://app?vid=c1d18c8e-5e15-4b05-8833-62eece5013a8","ios":"levelo://app?vid=c1d18c8e-5e15-4b05-8833-62eece5013a8"},"vehicle_type_id":"4","last_reported":1749895836,"current_range_meters":17200,"station_id":"ce4bgnh2rcd13ifvqc0g","pricing_plan_id":"cebpf4jnsgd1na2vs0mg"},{"bike_id":"4acc43a9-efed-4475-8e4e-b0e495d420fe","system_id":"levelo_inurba_marseille","lat":43.31509,"lon":5.37308,"is_reserved":false,"is_disabled":false,"rental_uris":{"android":"levelo://app?vid=4acc43a9-efed-4475-8e4e-b0e495d420fe","ios":"levelo://app?vid=4acc43a9-efed-4475-8e4e-b0e495d420fe"},"vehicle_type_id":"4","last_reported":1749895836,"current_range_meters":17200,"station_id":"ce4bgt12rcd13ifvqcd0","pricing_plan_id":"cebpf4jnsgd1na2vs0mg"},{"bike_id":"cbfe4bf0-73b1-4745-998a-def57691c7aa","system_id":"levelo_inurba_marseille","lat":43.284816,"lon":5.385639,"is_reserved":false,"is_disabled":false,"rental_uris":{"android":"levelo://app?vid=cbfe4bf0-73b1-4745-998a-def57691c7aa","ios":"levelo://app?vid=cbfe4bf0-73b1-4745-998a-def57691c7aa"},"vehicle_type_id":"4","last_reported":1749895836,"current_range_meters":17200,"station_id":"ce4bh8p2rcd13ifvqeb0","pricing_plan_id":"cebpf4jnsgd1na2vs0mg"},{"bike_id":"db14b11c-37ad-4f20-bf0d-55c0e6759255","system_id":"levelo_inurba_marseille","lat":43.280373,"lon":5.36949,"is_reserved":false,"is_disabled":false,"rental_uris":{"android":"levelo://app?vid=db14b11c-37ad-4f20-bf0d-55c0e6759255","ios":"levelo://app?vid=db14b11c-37ad-4f20-bf0d-55c0e6759255"},"vehicle_type_id":"4","last_reported":1749895836,"current_range_meters":17200,"station_id":"ce4bha12rcd13ifvqef0","pricing_plan_id":"cebpf4jnsgd1na2vs0mg"},{"bike_id":"36f7c556-4ea1-4d17-a470-9b9c94a1603a","system_id":"levelo_inurba_marseille","lat":43.26053,"lon":5.39395,"is_reserved":false,"is_disabled":false,"rental_uris":{"android":"levelo://app?vid=36f7c556-4ea1-4d17-a470-9b9c94a1603a","ios":"levelo://app?vid=36f7c556-4ea1-4d17-a470-9b9c94a1603a"},"vehicle_type_id":"4","last_reported":1749895836,"current_range_meters":17200,"station_id":"ce4bhh92rcd13ifvqfj0","pricing_plan_id":"cebpf4jnsgd1na2vs0mg"},{"bike_id":"aefc9b79-d704-43e6-960e-27a6715f11f5","system_id":"levelo_inurba_marseille","lat":43.27057,"lon":5.40255,"is_reserved":false,"is_disabled":false,"rental_uris":{"android":"levelo://app?vid=aefc9b79-d704-43e6-960e-27a6715f11f5","ios":"levelo://app?vid=aefc9b79-d704-43e6-960e-27a6715f11f5"},"vehicle_type_id":"4","last_reported":1749895836,"current_range_meters":17200,"station_id":"ce4bhk92rcd13ifvqgc0","pricing_plan_id":"cebpf4jnsgd1na2vs0mg"},{"bike_id":"b9206a76-9f8d-478c-a097-03507f0015dd","system_id":"levelo_inurba_marseille","lat":43.23176,"lon":5.39981,"is_reserved":false,"is_disabled":false,"rental_uris":{"android":"levelo://app?vid=b9206a76-9f8d-478c-a097-03507f0015dd","ios":"levelo://app?vid=b9206a76-9f8d-478c-a097-03507f0015dd"},"vehicle_type_id":"4","last_reported":1749895836,"current_range_meters":17200,"station_id":"ce4bhn12rcd13ifvqgqg","pricing_plan_id":"cebpf4jnsgd1na2vs0mg"},{"bike_id":"a42da83b-0754-4bfa-a338-c87ce1e67fe4","system_id":"levelo_inurba_marseille","lat":43.2293,"lon":5.35373,"is_reserved":false,"is_disabled":false,"rental_uris":{"android":"levelo://app?vid=a42da83b-0754-4bfa-a338-c87ce1e67fe4","ios":"levelo://app?vid=a42da83b-0754-4bfa-a338-c87ce1e67fe4"},"vehicle_type_id":"4","last_reported":1749895836,"current_range_meters":17200,"station_id":"cpo3532slgdg3j2ikp40","pricing_plan_id":"cebpf4jnsgd1na2vs0mg"},{"bike_id":"335e81a4-1e97-4cdb-b3bc-231c6a43ac9a","system_id":"levelo_inurba_marseille","lat":43.21751,"lon":5.345988,"is_reserved":false,"is_disabled":false,"rental_uris":{"android":"levelo://app?vid=335e81a4-1e97-4cdb-b3bc-231c6a43ac9a","ios":"levelo://app?vid=335e81a4-1e97-4cdb-b3bc-231c6a43ac9a"},"vehicle_type_id":"4","last_reported":1749895836,"current_range_meters":17200,"station_id":"st_cvj6r9ubvosntc0bgbag","pricing_plan_id":"cebpf4jnsgd1na2vs0mg"},{"bike_id":"a123e9fa-df7d-41fb-b2d5-2e4e345456f9","system_id":"levelo_inurba_marseille","lat":43.2531,"lon":5.3747,"is_reserved":false,"is_disabled":false,"rental_uris":{"android":"levelo://app?vid=a123e9fa-df7d-41fb-b2d5-2e4e345456f9","ios":"levelo://app?vid=a123e9fa-df7d-41fb-b2d5-2e4e345456f9"},"vehicle_type_id":"4","last_reported":1749895836,"current_range_meters":17600,"station_id":"","pricing_plan_id":"cebpf4jnsgd1na2vs0mg"},{"bike_id":"7b660635-5285-45ab-a069-b7caf3b0a235","system_id":"levelo_inurba_marseille","lat":43.2737,"lon":5.36257,"is_reserved":false,"is_disabled":false,"rental_uris":{"android":"levelo://app?vid=7b660635-5285-45ab-a069-b7caf3b0a235","ios":"levelo://app?vid=7b660635-5285-45ab-a069-b7caf3b0a235"},"vehicle_type_id":"4","last_reported":1749895836,"current_range_meters":17600,"station_id":"ce4bhbh2rcd13ifvqeo0","pricing_plan_id":"cebpf4jnsgd1na2vs0mg"},{"bike_id":"064e6d73-d31e-4c62-897e-4d4e7de6fcf0","system_id":"levelo_inurba_marseille","lat":43.28618,"lon":5.35105,"is_reserved":false,"is_disabled":false,"rental_uris":{"android":"levelo://app?vid=064e6d73-d31e-4c62-897e-4d4e7de6fcf0","ios":"levelo://app?vid=064e6d73-d31e-4c62-897e-4d4e7de6fcf0"},"vehicle_type_id":"4","last_reported":1749895836,"current_range_meters":17600,"station_id":"ce4bhch2rcd13ifvqeug","pricing_plan_id":"cebpf4jnsgd1na2vs0mg"},{"bike_id":"710d97cb-5291-4f9c-8a23-d89c0b627fd7","system_id":"levelo_inurba_marseille","lat":43.24166,"lon":5.36398,"is_reserved":false,"is_disabled":false,"rental_uris":{"android":"levelo://app?vid=710d97cb-5291-4f9c-8a23-d89c0b627fd7","ios":"levelo://app?vid=710d97cb-5291-4f9c-8a23-d89c0b627fd7"},"vehicle_type_id":"4","last_reported":1749895836,"current_range_meters":17600,"station_id":"cpo36qri1sfpv3e86is0","pricing_plan_id":"cebpf4jnsgd1na2vs0mg"},{"bike_id":"a300b931-d0d8-415a-80cd-9f6e76c9476f","system_id":"levelo_inurba_marseille","lat":43.31589,"lon":5.37296,"is_reserved":false,"is_disabled":false,"rental_uris":{"android":"levelo://app?vid=a300b931-d0d8-415a-80cd-9f6e76c9476f","ios":"levelo://app?vid=a300b931-d0d8-415a-80cd-9f6e76c9476f"},"vehicle_type_id":"4","last_reported":1749895836,"current_range_meters":18000,"station_id":"","pricing_plan_id":"cebpf4jnsgd1na2vs0mg"},{"bike_id":"a704acaf-8de8-44d2-af56-7e0fc845fa86","system_id":"levelo_inurba_marseille","lat":43.28392,"lon":5.37515,"is_reserved":false,"is_disabled":false,"rental_uris":{"android":"levelo://app?vid=a704acaf-8de8-44d2-af56-7e0fc845fa86","ios":"levelo://app?vid=a704acaf-8de8-44d2-af56-7e0fc845fa86"},"vehicle_type_id":"4","last_reported":1749895836,"current_range_meters":18000,"station_id":"ce4bh412rcd13ifvqds0","pricing_plan_id":"cebpf4jnsgd1na2vs0mg"},{"bike_id":"55efbf0f-99d7-4a72-81b2-3cb02b9afbe9","system_id":"levelo_inurba_marseille","lat":43.26192,"lon":5.37446,"is_reserved":false,"is_disabled":false,"rental_uris":{"android":"levelo://app?vid=55efbf0f-99d7-4a72-81b2-3cb02b9afbe9","ios":"levelo://app?vid=55efbf0f-99d7-4a72-81b2-3cb02b9afbe9"},"vehicle_type_id":"4","last_reported":1749895836,"current_range_meters":18000,"station_id":"ce4bhgp2rcd13ifvqfc0","pricing_plan_id":"cebpf4jnsgd1na2vs0mg"},{"bike_id":"467d05a9-392d-4a40-958b-8dea44948f48","system_id":"levelo_inurba_marseille","lat":43.24175,"lon":5.39728,"is_reserved":false,"is_disabled":false,"rental_uris":{"android":"levelo://app?vid=467d05a9-392d-4a40-958b-8dea44948f48","ios":"levelo://app?vid=467d05a9-392d-4a40-958b-8dea44948f48"},"vehicle_type_id":"4","last_reported":1749895836,"current_range_meters":18000,"station_id":"ce4bhn12rcd13ifvqgpg","pricing_plan_id":"cebpf4jnsgd1na2vs0mg"},{"bike_id":"821ffeb7-504e-49a3-aa5e-ded90c45f20e","system_id":"levelo_inurba_marseille","lat":43.30411,"lon":5.41281,"is_reserved":false,"is_disabled":false,"rental_uris":{"android":"levelo://app?vid=821ffeb7-504e-49a3-aa5e-ded90c45f20e","ios":"levelo://app?vid=821ffeb7-504e-49a3-aa5e-ded90c45f20e"},"vehicle_type_id":"4","last_reported":1749895836,"current_range_meters":18000,"station_id":"ce4bhop2rcd13ifvqh8g","pricing_plan_id":"cebpf4jnsgd1na2vs0mg"},{"bike_id":"0e74a242-1a0e-4c83-b590-e40e1552f872","system_id":"levelo_inurba_marseille","lat":43.24164,"lon":5.36392,"is_reserved":false,"is_disabled":false,"rental_uris":{"android":"levelo://app?vid=0e74a242-1a0e-4c83-b590-e40e1552f872","ios":"levelo://app?vid=0e74a242-1a0e-4c83-b590-e40e1552f872"},"vehicle_type_id":"4","last_reported":1749895836,"current_range_meters":18000,"station_id":"cpo36qri1sfpv3e86is0","pricing_plan_id":"cebpf4jnsgd1na2vs0mg"},{"bike_id":"106b506b-3273-4b67-a47d-ff3ad4f9f993","system_id":"levelo_inurba_marseille","lat":43.29096,"lon":5.35916,"is_reserved":false,"is_disabled":false,"rental_uris":{"android":"levelo://app?vid=106b506b-3273-4b67-a47d-ff3ad4f9f993","ios":"levelo://app?vid=106b506b-3273-4b67-a47d-ff3ad4f9f993"},"vehicle_type_id":"4","last_reported":1749895836,"current_range_meters":18800,"station_id":"","pricing_plan_id":"cebpf4jnsgd1na2vs0mg"},{"bike_id":"6ae55948-1830-4b55-a2bd-3288d508fa70","system_id":"levelo_inurba_marseille","lat":43.30142,"lon":5.38068,"is_reserved":false,"is_disabled":false,"rental_uris":{"android":"levelo://app?vid=6ae55948-1830-4b55-a2bd-3288d508fa70","ios":"levelo://app?vid=6ae55948-1830-4b55-a2bd-3288d508fa70"},"vehicle_type_id":"4","last_reported":1749895836,"current_range_meters":18800,"station_id":"ce4bgjp2rcd13ifvqbh0","pricing_plan_id":"cebpf4jnsgd1na2vs0mg"},{"bike_id":"4ab1a19f-234f-4f04-8d74-51051f29a474","system_id":"levelo_inurba_marseille","lat":43.28849,"lon":5.39311,"is_reserved":false,"is_disabled":false,"rental_uris":{"android":"levelo://app?vid=4ab1a19f-234f-4f04-8d74-51051f29a474","ios":"levelo://app?vid=4ab1a19f-234f-4f04-8d74-51051f29a474"},"vehicle_type_id":"4","last_reported":1749895836,"current_range_meters":18800,"station_id":"ce4bh2p2rcd13ifvqdi0","pricing_plan_id":"cebpf4jnsgd1na2vs0mg"},{"bike_id":"843bc366-abe4-4c98-989b-2991b83feacb","system_id":"levelo_inurba_marseille","lat":43.260714,"lon":5.393734,"is_reserved":false,"is_disabled":false,"rental_uris":{"android":"levelo://app?vid=843bc366-abe4-4c98-989b-2991b83feacb","ios":"levelo://app?vid=843bc366-abe4-4c98-989b-2991b83feacb"},"vehicle_type_id":"4","last_reported":1749895836,"current_range_meters":18800,"station_id":"ce4bhh92rcd13ifvqfj0","pricing_plan_id":"cebpf4jnsgd1na2vs0mg"},{"bike_id":"f148e223-23a1-4eba-9dd8-74998b9e9c6b","system_id":"levelo_inurba_marseille","lat":43.25096,"lon":5.39525,"is_reserved":false,"is_disabled":false,"rental_uris":{"android":"levelo://app?vid=f148e223-23a1-4eba-9dd8-74998b9e9c6b","ios":"levelo://app?vid=f148e223-23a1-4eba-9dd8-74998b9e9c6b"},"vehicle_type_id":"4","last_reported":1749895836,"current_range_meters":18800,"station_id":"ce4bhm12rcd13ifvqgkg","pricing_plan_id":"cebpf4jnsgd1na2vs0mg"},{"bike_id":"2c787464-a965-4f7f-9a55-e5f1f053ec56","system_id":"levelo_inurba_marseille","lat":43.29891,"lon":5.43669,"is_reserved":false,"is_disabled":false,"rental_uris":{"android":"levelo://app?vid=2c787464-a965-4f7f-9a55-e5f1f053ec56","ios":"levelo://app?vid=2c787464-a965-4f7f-9a55-e5f1f053ec56"},"vehicle_type_id":"4","last_reported":1749895836,"current_range_meters":18800,"station_id":"ce4bhpp2rcd13ifvqhfg","pricing_plan_id":"cebpf4jnsgd1na2vs0mg"},{"bike_id":"ee9f98b1-bb23-41b5-9f8b-ebe810509f19","system_id":"levelo_inurba_marseille","lat":43.29636,"lon":5.37157,"is_reserved":false,"is_disabled":false,"rental_uris":{"android":"levelo://app?vid=ee9f98b1-bb23-41b5-9f8b-ebe810509f19","ios":"levelo://app?vid=ee9f98b1-bb23-41b5-9f8b-ebe810509f19"},"vehicle_type_id":"4","last_reported":1749895836,"current_range_meters":19200,"station_id":"ce4bgnh2rcd13ifvqc0g","pricing_plan_id":"cebpf4jnsgd1na2vs0mg"},{"bike_id":"d4a3ad1a-6cc5-4adf-820d-f5631e4c9ab3","system_id":"levelo_inurba_marseille","lat":43.30533,"lon":5.36697,"is_reserved":false,"is_disabled":false,"rental_uris":{"android":"levelo://app?vid=d4a3ad1a-6cc5-4adf-820d-f5631e4c9ab3","ios":"levelo://app?vid=d4a3ad1a-6cc5-4adf-820d-f5631e4c9ab3"},"vehicle_type_id":"4","last_reported":1749895836,"current_range_meters":19200,"station_id":"ce4bgrp2rcd13ifvqc9g","pricing_plan_id":"cebpf4jnsgd1na2vs0mg"},{"bike_id":"28767c0e-1fce-4fba-b52a-fa2d2877c31a","system_id":"levelo_inurba_marseille","lat":43.27207,"lon":5.39177,"is_reserved":false,"is_disabled":false,"rental_uris":{"android":"levelo://app?vid=28767c0e-1fce-4fba-b52a-fa2d2877c31a","ios":"levelo://app?vid=28767c0e-1fce-4fba-b52a-fa2d2877c31a"},"vehicle_type_id":"4","last_reported":1749895836,"current_range_meters":19200,"station_id":"ce4bhhp2rcd13ifvqfm0","pricing_plan_id":"cebpf4jnsgd1na2vs0mg"},{"bike_id":"ebd5b4ac-ff95-479e-abea-4ab0e3b77488","system_id":"levelo_inurba_marseille","lat":43.23968,"lon":5.36637,"is_reserved":false,"is_disabled":false,"rental_uris":{"android":"levelo://app?vid=ebd5b4ac-ff95-479e-abea-4ab0e3b77488","ios":"levelo://app?vid=ebd5b4ac-ff95-479e-abea-4ab0e3b77488"},"vehicle_type_id":"4","last_reported":1749895836,"current_range_meters":19200,"station_id":"ce4bhi12rcd13ifvqfp0","pricing_plan_id":"cebpf4jnsgd1na2vs0mg"},{"bike_id":"90f49018-8b41-408d-b86a-41368d4f9c83","system_id":"levelo_inurba_marseille","lat":43.32363,"lon":5.38861,"is_reserved":false,"is_disabled":false,"rental_uris":{"android":"levelo://app?vid=90f49018-8b41-408d-b86a-41368d4f9c83","ios":"levelo://app?vid=90f49018-8b41-408d-b86a-41368d4f9c83"},"vehicle_type_id":"4","last_reported":1749895836,"current_range_meters":19200,"station_id":"ce4bhqp2rcd13ifvqhog","pricing_plan_id":"cebpf4jnsgd1na2vs0mg"},{"bike_id":"af54e57f-f161-4317-9bd4-1d43f8702955","system_id":"levelo_inurba_marseille","lat":43.231899,"lon":5.355489,"is_reserved":false,"is_disabled":false,"rental_uris":{"android":"levelo://app?vid=af54e57f-f161-4317-9bd4-1d43f8702955","ios":"levelo://app?vid=af54e57f-f161-4317-9bd4-1d43f8702955"},"vehicle_type_id":"4","last_reported":1749895836,"current_range_meters":19200,"station_id":"ce4bhu92rcd13ifvqi70","pricing_plan_id":"cebpf4jnsgd1na2vs0mg"},{"bike_id":"11b4247b-81fc-488b-9f89-fdecd52073db","system_id":"levelo_inurba_marseille","lat":43.30555,"lon":5.36546,"is_reserved":false,"is_disabled":false,"rental_uris":{"android":"levelo://app?vid=11b4247b-81fc-488b-9f89-fdecd52073db","ios":"levelo://app?vid=11b4247b-81fc-488b-9f89-fdecd52073db"},"vehicle_type_id":"4","last_reported":1749895836,"current_range_meters":19600,"station_id":"ce4bgs12rcd13ifvqcag","pricing_plan_id":"cebpf4jnsgd1na2vs0mg"},{"bike_id":"6f66d109-ee2e-4707-9172-4dcd3d407a7d","system_id":"levelo_inurba_marseille","lat":43.31496,"lon":5.37308,"is_reserved":false,"is_disabled":false,"rental_uris":{"android":"levelo://app?vid=6f66d109-ee2e-4707-9172-4dcd3d407a7d","ios":"levelo://app?vid=6f66d109-ee2e-4707-9172-4dcd3d407a7d"},"vehicle_type_id":"4","last_reported":1749895836,"current_range_meters":19600,"station_id":"ce4bgt12rcd13ifvqcd0","pricing_plan_id":"cebpf4jnsgd1na2vs0mg"},{"bike_id":"e2f3d659-f94b-4f9e-9629-8496d13aa048","system_id":"levelo_inurba_marseille","lat":43.28416,"lon":5.34981,"is_reserved":false,"is_disabled":false,"rental_uris":{"android":"levelo://app?vid=e2f3d659-f94b-4f9e-9629-8496d13aa048","ios":"levelo://app?vid=e2f3d659-f94b-4f9e-9629-8496d13aa048"},"vehicle_type_id":"4","last_reported":1749895836,"current_range_meters":19600,"station_id":"ce4bhbh2rcd13ifvqepg","pricing_plan_id":"cebpf4jnsgd1na2vs0mg"},{"bike_id":"0b214f94-475b-4c56-b001-15dc0687c937","system_id":"levelo_inurba_marseille","lat":43.28277,"lon":5.35064,"is_reserved":false,"is_disabled":false,"rental_uris":{"android":"levelo://app?vid=0b214f94-475b-4c56-b001-15dc0687c937","ios":"levelo://app?vid=0b214f94-475b-4c56-b001-15dc0687c937"},"vehicle_type_id":"4","last_reported":1749895836,"current_range_meters":19600,"station_id":"ce4bhbp2rcd13ifvqerg","pricing_plan_id":"cebpf4jnsgd1na2vs0mg"},{"bike_id":"4e532e24-ef82-4681-84dd-42f55b3ef32e","system_id":"levelo_inurba_marseille","lat":43.22935,"lon":5.35374,"is_reserved":false,"is_disabled":false,"rental_uris":{"android":"levelo://app?vid=4e532e24-ef82-4681-84dd-42f55b3ef32e","ios":"levelo://app?vid=4e532e24-ef82-4681-84dd-42f55b3ef32e"},"vehicle_type_id":"4","last_reported":1749895836,"current_range_meters":19600,"station_id":"cpo3532slgdg3j2ikp40","pricing_plan_id":"cebpf4jnsgd1na2vs0mg"},{"bike_id":"83dad2db-ae71-4098-a9c2-f58fe60cc33f","system_id":"levelo_inurba_marseille","lat":43.29095,"lon":5.35908,"is_reserved":false,"is_disabled":false,"rental_uris":{"android":"levelo://app?vid=83dad2db-ae71-4098-a9c2-f58fe60cc33f","ios":"levelo://app?vid=83dad2db-ae71-4098-a9c2-f58fe60cc33f"},"vehicle_type_id":"4","last_reported":1749895836,"current_range_meters":20000,"station_id":"","pricing_plan_id":"cebpf4jnsgd1na2vs0mg"},{"bike_id":"c6d88bc4-48ca-44b6-a454-21dadcc32988","system_id":"levelo_inurba_marseille","lat":43.26558,"lon":5.37286,"is_reserved":false,"is_disabled":false,"rental_uris":{"android":"levelo://app?vid=c6d88bc4-48ca-44b6-a454-21dadcc32988","ios":"levelo://app?vid=c6d88bc4-48ca-44b6-a454-21dadcc32988"},"vehicle_type_id":"4","last_reported":1749895836,"current_range_meters":20000,"station_id":"ce4bhg12rcd13ifvqf70","pricing_plan_id":"cebpf4jnsgd1na2vs0mg"},{"bike_id":"3756175f-8acc-4440-9626-971b3f103339","system_id":"levelo_inurba_marseille","lat":43.24181,"lon":5.39721,"is_reserved":false,"is_disabled":false,"rental_uris":{"android":"levelo://app?vid=3756175f-8acc-4440-9626-971b3f103339","ios":"levelo://app?vid=3756175f-8acc-4440-9626-971b3f103339"},"vehicle_type_id":"4","last_reported":1749895836,"current_range_meters":20000,"station_id":"ce4bhn12rcd13ifvqgpg","pricing_plan_id":"cebpf4jnsgd1na2vs0mg"},{"bike_id":"67d4735d-a812-4e55-90bc-5641f4e35931","system_id":"levelo_inurba_marseille","lat":43.21185,"lon":5.351,"is_reserved":false,"is_disabled":false,"rental_uris":{"android":"levelo://app?vid=67d4735d-a812-4e55-90bc-5641f4e35931","ios":"levelo://app?vid=67d4735d-a812-4e55-90bc-5641f4e35931"},"vehicle_type_id":"4","last_reported":1749895836,"current_range_meters":20000,"station_id":"st_cvj6sg6p6f1abm77japg","pricing_plan_id":"cebpf4jnsgd1na2vs0mg"},{"bike_id":"15cdcc5d-fc73-4f86-b199-d1795f435fa4","system_id":"levelo_inurba_marseille","lat":43.2119,"lon":5.35076,"is_reserved":false,"is_disabled":false,"rental_uris":{"android":"levelo://app?vid=15cdcc5d-fc73-4f86-b199-d1795f435fa4","ios":"levelo://app?vid=15cdcc5d-fc73-4f86-b199-d1795f435fa4"},"vehicle_type_id":"4","last_reported":1749895836,"current_range_meters":20000,"station_id":"st_cvj6sg6p6f1abm77japg","pricing_plan_id":"cebpf4jnsgd1na2vs0mg"},{"bike_id":"aba65c02-808e-420d-9eb6-e1453dfa7033","system_id":"levelo_inurba_marseille","lat":43.21196,"lon":5.35075,"is_reserved":false,"is_disabled":false,"rental_uris":{"android":"levelo://app?vid=aba65c02-808e-420d-9eb6-e1453dfa7033","ios":"levelo://app?vid=aba65c02-808e-420d-9eb6-e1453dfa7033"},"vehicle_type_id":"4","last_reported":1749895836,"current_range_meters":20400,"station_id":"","pricing_plan_id":"cebpf4jnsgd1na2vs0mg"},{"bike_id":"ee401939-0c09-4fe0-82df-dfeb89707238","system_id":"levelo_inurba_marseille","lat":43.2991,"lon":5.37462,"is_reserved":false,"is_disabled":false,"rental_uris":{"android":"levelo://app?vid=ee401939-0c09-4fe0-82df-dfeb89707238","ios":"levelo://app?vid=ee401939-0c09-4fe0-82df-dfeb89707238"},"vehicle_type_id":"4","last_reported":1749895836,"current_range_meters":20400,"station_id":"ce4bgjh2rcd13ifvqbg0","pricing_plan_id":"cebpf4jnsgd1na2vs0mg"},{"bike_id":"04e667e6-c17c-402d-a33f-945c33939027","system_id":"levelo_inurba_marseille","lat":43.30689,"lon":5.40021,"is_reserved":false,"is_disabled":false,"rental_uris":{"android":"levelo://app?vid=04e667e6-c17c-402d-a33f-945c33939027","ios":"levelo://app?vid=04e667e6-c17c-402d-a33f-945c33939027"},"vehicle_type_id":"4","last_reported":1749895836,"current_range_meters":20400,"station_id":"ce4bh112rcd13ifvqda0","pricing_plan_id":"cebpf4jnsgd1na2vs0mg"},{"bike_id":"6d2caa00-2639-4175-9633-780a21a94f4a","system_id":"levelo_inurba_marseille","lat":43.3302,"lon":5.39038,"is_reserved":false,"is_disabled":false,"rental_uris":{"android":"levelo://app?vid=6d2caa00-2639-4175-9633-780a21a94f4a","ios":"levelo://app?vid=6d2caa00-2639-4175-9633-780a21a94f4a"},"vehicle_type_id":"4","last_reported":1749895836,"current_range_meters":20400,"station_id":"ce4bhr92rcd13ifvqhrg","pricing_plan_id":"cebpf4jnsgd1na2vs0mg"},{"bike_id":"2489b4ba-d253-4d1a-bab6-2ce44674aa1f","system_id":"levelo_inurba_marseille","lat":43.23191,"lon":5.35552,"is_reserved":false,"is_disabled":false,"rental_uris":{"android":"levelo://app?vid=2489b4ba-d253-4d1a-bab6-2ce44674aa1f","ios":"levelo://app?vid=2489b4ba-d253-4d1a-bab6-2ce44674aa1f"},"vehicle_type_id":"4","last_reported":1749895836,"current_range_meters":20400,"station_id":"ce4bhu92rcd13ifvqi70","pricing_plan_id":"cebpf4jnsgd1na2vs0mg"},{"bike_id":"9caa0e17-0760-4813-b33d-41f1304106e9","system_id":"levelo_inurba_marseille","lat":43.28268,"lon":5.35066,"is_reserved":false,"is_disabled":false,"rental_uris":{"android":"levelo://app?vid=9caa0e17-0760-4813-b33d-41f1304106e9","ios":"levelo://app?vid=9caa0e17-0760-4813-b33d-41f1304106e9"},"vehicle_type_id":"4","last_reported":1749895836,"current_range_meters":20800,"station_id":"","pricing_plan_id":"cebpf4jnsgd1na2vs0mg"},{"bike_id":"8f81662c-8bf4-478f-95ee-bf9d213798f4","system_id":"levelo_inurba_marseille","lat":43.28967,"lon":5.38229,"is_reserved":false,"is_disabled":false,"rental_uris":{"android":"levelo://app?vid=8f81662c-8bf4-478f-95ee-bf9d213798f4","ios":"levelo://app?vid=8f81662c-8bf4-478f-95ee-bf9d213798f4"},"vehicle_type_id":"4","last_reported":1749895836,"current_range_meters":20800,"station_id":"","pricing_plan_id":"cebpf4jnsgd1na2vs0mg"},{"bike_id":"0cf53d06-3d95-47d5-ba09-563a8f1a282c","system_id":"levelo_inurba_marseille","lat":43.305508,"lon":5.365308,"is_reserved":false,"is_disabled":false,"rental_uris":{"android":"levelo://app?vid=0cf53d06-3d95-47d5-ba09-563a8f1a282c","ios":"levelo://app?vid=0cf53d06-3d95-47d5-ba09-563a8f1a282c"},"vehicle_type_id":"4","last_reported":1749895836,"current_range_meters":20800,"station_id":"ce4bgs12rcd13ifvqcag","pricing_plan_id":"cebpf4jnsgd1na2vs0mg"},{"bike_id":"d18f0322-59f7-4fef-9de7-5858dbc904a2","system_id":"levelo_inurba_marseille","lat":43.304636,"lon":5.379122,"is_reserved":false,"is_disabled":false,"rental_uris":{"android":"levelo://app?vid=d18f0322-59f7-4fef-9de7-5858dbc904a2","ios":"levelo://app?vid=d18f0322-59f7-4fef-9de7-5858dbc904a2"},"vehicle_type_id":"4","last_reported":1749895836,"current_range_meters":20800,"station_id":"ce4bgup2rcd13ifvqcn0","pricing_plan_id":"cebpf4jnsgd1na2vs0mg"},{"bike_id":"41954ccd-0623-4ee3-a2a0-44facb68c363","system_id":"levelo_inurba_marseille","lat":43.31326,"lon":5.39694,"is_reserved":false,"is_disabled":false,"rental_uris":{"android":"levelo://app?vid=41954ccd-0623-4ee3-a2a0-44facb68c363","ios":"levelo://app?vid=41954ccd-0623-4ee3-a2a0-44facb68c363"},"vehicle_type_id":"4","last_reported":1749895836,"current_range_meters":20800,"station_id":"ce4bgvp2rcd13ifvqcu0","pricing_plan_id":"cebpf4jnsgd1na2vs0mg"},{"bike_id":"2438c2e4-0e0a-4db1-8c91-12828706207c","system_id":"levelo_inurba_marseille","lat":43.25502,"lon":5.37642,"is_reserved":false,"is_disabled":false,"rental_uris":{"android":"levelo://app?vid=2438c2e4-0e0a-4db1-8c91-12828706207c","ios":"levelo://app?vid=2438c2e4-0e0a-4db1-8c91-12828706207c"},"vehicle_type_id":"4","last_reported":1749895836,"current_range_meters":20800,"station_id":"ce4bhh12rcd13ifvqff0","pricing_plan_id":"cebpf4jnsgd1na2vs0mg"},{"bike_id":"99e24852-98c0-4053-801c-515dce9e7878","system_id":"levelo_inurba_marseille","lat":43.21746,"lon":5.34602,"is_reserved":false,"is_disabled":false,"rental_uris":{"android":"levelo://app?vid=99e24852-98c0-4053-801c-515dce9e7878","ios":"levelo://app?vid=99e24852-98c0-4053-801c-515dce9e7878"},"vehicle_type_id":"4","last_reported":1749895836,"current_range_meters":20800,"station_id":"st_cvj6r9ubvosntc0bgbag","pricing_plan_id":"cebpf4jnsgd1na2vs0mg"},{"bike_id":"4f2889fe-f5fb-4f71-bad5-a803b273376d","system_id":"levelo_inurba_marseille","lat":43.31489,"lon":5.37293,"is_reserved":false,"is_disabled":false,"rental_uris":{"android":"levelo://app?vid=4f2889fe-f5fb-4f71-bad5-a803b273376d","ios":"levelo://app?vid=4f2889fe-f5fb-4f71-bad5-a803b273376d"},"vehicle_type_id":"4","last_reported":1749895836,"current_range_meters":21600,"station_id":"ce4bgt12rcd13ifvqcd0","pricing_plan_id":"cebpf4jnsgd1na2vs0mg"},{"bike_id":"8ddd3fef-32ec-4d27-9d4c-952e90ad4668","system_id":"levelo_inurba_marseille","lat":43.31517,"lon":5.37275,"is_reserved":false,"is_disabled":false,"rental_uris":{"android":"levelo://app?vid=8ddd3fef-32ec-4d27-9d4c-952e90ad4668","ios":"levelo://app?vid=8ddd3fef-32ec-4d27-9d4c-952e90ad4668"},"vehicle_type_id":"4","last_reported":1749895836,"current_range_meters":21600,"station_id":"ce4bgt12rcd13ifvqcd0","pricing_plan_id":"cebpf4jnsgd1na2vs0mg"},{"bike_id":"28e49348-3075-4fd6-abdc-caec930434b1","system_id":"levelo_inurba_marseille","lat":43.30657,"lon":5.40105,"is_reserved":false,"is_disabled":false,"rental_uris":{"android":"levelo://app?vid=28e49348-3075-4fd6-abdc-caec930434b1","ios":"levelo://app?vid=28e49348-3075-4fd6-abdc-caec930434b1"},"vehicle_type_id":"4","last_reported":1749895836,"current_range_meters":21600,"station_id":"ce4bh112rcd13ifvqda0","pricing_plan_id":"cebpf4jnsgd1na2vs0mg"},{"bike_id":"dbe055d6-359f-4a01-b278-25f8c708e44d","system_id":"levelo_inurba_marseille","lat":43.28339,"lon":5.38109,"is_reserved":false,"is_disabled":false,"rental_uris":{"android":"levelo://app?vid=dbe055d6-359f-4a01-b278-25f8c708e44d","ios":"levelo://app?vid=dbe055d6-359f-4a01-b278-25f8c708e44d"},"vehicle_type_id":"4","last_reported":1749895836,"current_range_meters":21600,"station_id":"ce4bh412rcd13ifvqdr0","pricing_plan_id":"cebpf4jnsgd1na2vs0mg"},{"bike_id":"b5dd8b42-cf70-4fe0-b100-df9c12d7f33e","system_id":"levelo_inurba_marseille","lat":43.27364,"lon":5.3625,"is_reserved":false,"is_disabled":false,"rental_uris":{"android":"levelo://app?vid=b5dd8b42-cf70-4fe0-b100-df9c12d7f33e","ios":"levelo://app?vid=b5dd8b42-cf70-4fe0-b100-df9c12d7f33e"},"vehicle_type_id":"4","last_reported":1749895836,"current_range_meters":21600,"station_id":"ce4bhbh2rcd13ifvqeo0","pricing_plan_id":"cebpf4jnsgd1na2vs0mg"},{"bike_id":"2eada1e3-537e-48d7-9731-1a98403598f1","system_id":"levelo_inurba_marseille","lat":43.28622,"lon":5.35099,"is_reserved":false,"is_disabled":false,"rental_uris":{"android":"levelo://app?vid=2eada1e3-537e-48d7-9731-1a98403598f1","ios":"levelo://app?vid=2eada1e3-537e-48d7-9731-1a98403598f1"},"vehicle_type_id":"4","last_reported":1749895836,"current_range_meters":21600,"station_id":"ce4bhch2rcd13ifvqeug","pricing_plan_id":"cebpf4jnsgd1na2vs0mg"},{"bike_id":"9c7bd425-57d5-4306-9383-d20269ce9ee7","system_id":"levelo_inurba_marseille","lat":43.286131,"lon":5.351066,"is_reserved":false,"is_disabled":false,"rental_uris":{"android":"levelo://app?vid=9c7bd425-57d5-4306-9383-d20269ce9ee7","ios":"levelo://app?vid=9c7bd425-57d5-4306-9383-d20269ce9ee7"},"vehicle_type_id":"4","last_reported":1749895836,"current_range_meters":21600,"station_id":"ce4bhch2rcd13ifvqeug","pricing_plan_id":"cebpf4jnsgd1na2vs0mg"},{"bike_id":"e75d42d2-4dbe-428f-930e-8b793c3d1b87","system_id":"levelo_inurba_marseille","lat":43.279434,"lon":5.41041,"is_reserved":false,"is_disabled":false,"rental_uris":{"android":"levelo://app?vid=e75d42d2-4dbe-428f-930e-8b793c3d1b87","ios":"levelo://app?vid=e75d42d2-4dbe-428f-930e-8b793c3d1b87"},"vehicle_type_id":"4","last_reported":1749895836,"current_range_meters":21600,"station_id":"ce4bhnp2rcd13ifvqh0g","pricing_plan_id":"cebpf4jnsgd1na2vs0mg"},{"bike_id":"b8b51955-3455-46bb-867c-3b60ec54072a","system_id":"levelo_inurba_marseille","lat":43.30353,"lon":5.41879,"is_reserved":false,"is_disabled":false,"rental_uris":{"android":"levelo://app?vid=b8b51955-3455-46bb-867c-3b60ec54072a","ios":"levelo://app?vid=b8b51955-3455-46bb-867c-3b60ec54072a"},"vehicle_type_id":"4","last_reported":1749895836,"current_range_meters":21600,"station_id":"ce4bhop2rcd13ifvqh7g","pricing_plan_id":"cebpf4jnsgd1na2vs0mg"},{"bike_id":"e08cdb1f-1999-45a2-8234-3fd1b5d328f0","system_id":"levelo_inurba_marseille","lat":43.32114,"lon":5.36772,"is_reserved":false,"is_disabled":false,"rental_uris":{"android":"levelo://app?vid=e08cdb1f-1999-45a2-8234-3fd1b5d328f0","ios":"levelo://app?vid=e08cdb1f-1999-45a2-8234-3fd1b5d328f0"},"vehicle_type_id":"4","last_reported":1749895836,"current_range_meters":21600,"station_id":"ce4bhrh2rcd13ifvqhug","pricing_plan_id":"cebpf4jnsgd1na2vs0mg"},{"bike_id":"f4960cb7-92f3-48e4-a1cc-a2b8a605a4b3","system_id":"levelo_inurba_marseille","lat":43.33786,"lon":5.37423,"is_reserved":false,"is_disabled":false,"rental_uris":{"android":"levelo://app?vid=f4960cb7-92f3-48e4-a1cc-a2b8a605a4b3","ios":"levelo://app?vid=f4960cb7-92f3-48e4-a1cc-a2b8a605a4b3"},"vehicle_type_id":"4","last_reported":1749895836,"current_range_meters":22000,"station_id":"","pricing_plan_id":"cebpf4jnsgd1na2vs0mg"},{"bike_id":"39599ce5-8952-4063-be63-c453184bc9c6","system_id":"levelo_inurba_marseille","lat":43.30531,"lon":5.36538,"is_reserved":false,"is_disabled":false,"rental_uris":{"android":"levelo://app?vid=39599ce5-8952-4063-be63-c453184bc9c6","ios":"levelo://app?vid=39599ce5-8952-4063-be63-c453184bc9c6"},"vehicle_type_id":"4","last_reported":1749895836,"current_range_meters":22000,"station_id":"ce4bgs12rcd13ifvqcag","pricing_plan_id":"cebpf4jnsgd1na2vs0mg"},{"bike_id":"bbb13d1e-868a-49b4-8192-9ae3ba677a63","system_id":"levelo_inurba_marseille","lat":43.31495,"lon":5.37287,"is_reserved":false,"is_disabled":false,"rental_uris":{"android":"levelo://app?vid=bbb13d1e-868a-49b4-8192-9ae3ba677a63","ios":"levelo://app?vid=bbb13d1e-868a-49b4-8192-9ae3ba677a63"},"vehicle_type_id":"4","last_reported":1749895836,"current_range_meters":22000,"station_id":"ce4bgt12rcd13ifvqcd0","pricing_plan_id":"cebpf4jnsgd1na2vs0mg"},{"bike_id":"7e992a25-c740-427f-9793-af7d2c018968","system_id":"levelo_inurba_marseille","lat":43.30954,"lon":5.3905,"is_reserved":false,"is_disabled":false,"rental_uris":{"android":"levelo://app?vid=7e992a25-c740-427f-9793-af7d2c018968","ios":"levelo://app?vid=7e992a25-c740-427f-9793-af7d2c018968"},"vehicle_type_id":"4","last_reported":1749895836,"current_range_meters":22000,"station_id":"ce4bgup2rcd13ifvqco0","pricing_plan_id":"cebpf4jnsgd1na2vs0mg"},{"bike_id":"435d50da-e6aa-4747-928b-07b1cb4138cf","system_id":"levelo_inurba_marseille","lat":43.25585,"lon":5.38226,"is_reserved":false,"is_disabled":false,"rental_uris":{"android":"levelo://app?vid=435d50da-e6aa-4747-928b-07b1cb4138cf","ios":"levelo://app?vid=435d50da-e6aa-4747-928b-07b1cb4138cf"},"vehicle_type_id":"4","last_reported":1749895836,"current_range_meters":22000,"station_id":"ce4bhih2rcd13ifvqfs0","pricing_plan_id":"cebpf4jnsgd1na2vs0mg"},{"bike_id":"c728fdaf-627b-4df1-b238-cbfc3c8874d6","system_id":"levelo_inurba_marseille","lat":43.2583,"lon":5.39426,"is_reserved":false,"is_disabled":false,"rental_uris":{"android":"levelo://app?vid=c728fdaf-627b-4df1-b238-cbfc3c8874d6","ios":"levelo://app?vid=c728fdaf-627b-4df1-b238-cbfc3c8874d6"},"vehicle_type_id":"4","last_reported":1749895836,"current_range_meters":22000,"station_id":"ce4bhip2rcd13ifvqft0","pricing_plan_id":"cebpf4jnsgd1na2vs0mg"},{"bike_id":"405f3222-d59e-4941-9cc7-131e4def9f19","system_id":"levelo_inurba_marseille","lat":43.32472,"lon":5.36578,"is_reserved":false,"is_disabled":false,"rental_uris":{"android":"levelo://app?vid=405f3222-d59e-4941-9cc7-131e4def9f19","ios":"levelo://app?vid=405f3222-d59e-4941-9cc7-131e4def9f19"},"vehicle_type_id":"4","last_reported":1749895836,"current_range_meters":22000,"station_id":"ce4bhs12rcd13ifvqhvg","pricing_plan_id":"cebpf4jnsgd1na2vs0mg"},{"bike_id":"38e08ec6-738b-4a04-a092-dec10c6891d3","system_id":"levelo_inurba_marseille","lat":43.26854,"lon":5.4067,"is_reserved":false,"is_disabled":false,"rental_uris":{"android":"levelo://app?vid=38e08ec6-738b-4a04-a092-dec10c6891d3","ios":"levelo://app?vid=38e08ec6-738b-4a04-a092-dec10c6891d3"},"vehicle_type_id":"4","last_reported":1749895836,"current_range_meters":22400,"station_id":"","pricing_plan_id":"cebpf4jnsgd1na2vs0mg"},{"bike_id":"007ee846-6342-4694-b446-31f6688aa999","system_id":"levelo_inurba_marseille","lat":43.296193,"lon":5.371586,"is_reserved":false,"is_disabled":false,"rental_uris":{"android":"levelo://app?vid=007ee846-6342-4694-b446-31f6688aa999","ios":"levelo://app?vid=007ee846-6342-4694-b446-31f6688aa999"},"vehicle_type_id":"4","last_reported":1749895836,"current_range_meters":22400,"station_id":"ce4bgnh2rcd13ifvqc0g","pricing_plan_id":"cebpf4jnsgd1na2vs0mg"},{"bike_id":"2440c1fe-c54a-42b2-bf9c-58e383b237c6","system_id":"levelo_inurba_marseille","lat":43.28418,"lon":5.34983,"is_reserved":false,"is_disabled":false,"rental_uris":{"android":"levelo://app?vid=2440c1fe-c54a-42b2-bf9c-58e383b237c6","ios":"levelo://app?vid=2440c1fe-c54a-42b2-bf9c-58e383b237c6"},"vehicle_type_id":"4","last_reported":1749895836,"current_range_meters":22400,"station_id":"ce4bhbh2rcd13ifvqepg","pricing_plan_id":"cebpf4jnsgd1na2vs0mg"},{"bike_id":"9845097f-2a3e-4a2f-b32d-ee589a38d9e8","system_id":"levelo_inurba_marseille","lat":43.25487,"lon":5.37643,"is_reserved":false,"is_disabled":false,"rental_uris":{"android":"levelo://app?vid=9845097f-2a3e-4a2f-b32d-ee589a38d9e8","ios":"levelo://app?vid=9845097f-2a3e-4a2f-b32d-ee589a38d9e8"},"vehicle_type_id":"4","last_reported":1749895836,"current_range_meters":22400,"station_id":"ce4bhh12rcd13ifvqff0","pricing_plan_id":"cebpf4jnsgd1na2vs0mg"},{"bike_id":"0df946ce-0473-443b-a4c6-3b4881c8b15c","system_id":"levelo_inurba_marseille","lat":43.254909,"lon":5.376489,"is_reserved":false,"is_disabled":false,"rental_uris":{"android":"levelo://app?vid=0df946ce-0473-443b-a4c6-3b4881c8b15c","ios":"levelo://app?vid=0df946ce-0473-443b-a4c6-3b4881c8b15c"},"vehicle_type_id":"4","last_reported":1749895836,"current_range_meters":22400,"station_id":"ce4bhh12rcd13ifvqff0","pricing_plan_id":"cebpf4jnsgd1na2vs0mg"},{"bike_id":"c0512557-9347-4198-b579-d4df5183dde3","system_id":"levelo_inurba_marseille","lat":43.29545,"lon":5.42286,"is_reserved":false,"is_disabled":false,"rental_uris":{"android":"levelo://app?vid=c0512557-9347-4198-b579-d4df5183dde3","ios":"levelo://app?vid=c0512557-9347-4198-b579-d4df5183dde3"},"vehicle_type_id":"4","last_reported":1749895836,"current_range_meters":22400,"station_id":"ce4bhph2rcd13ifvqhdg","pricing_plan_id":"cebpf4jnsgd1na2vs0mg"},{"bike_id":"7fbb8cf5-f563-4c4a-90cf-1a5ac10b01c4","system_id":"levelo_inurba_marseille","lat":43.21127,"lon":5.35226,"is_reserved":false,"is_disabled":false,"rental_uris":{"android":"levelo://app?vid=7fbb8cf5-f563-4c4a-90cf-1a5ac10b01c4","ios":"levelo://app?vid=7fbb8cf5-f563-4c4a-90cf-1a5ac10b01c4"},"vehicle_type_id":"4","last_reported":1749895836,"current_range_meters":22800,"station_id":"","pricing_plan_id":"cebpf4jnsgd1na2vs0mg"},{"bike_id":"522b867b-65c0-463b-98d6-d3ea33551615","system_id":"levelo_inurba_marseille","lat":43.293029,"lon":5.37182,"is_reserved":false,"is_disabled":false,"rental_uris":{"android":"levelo://app?vid=522b867b-65c0-463b-98d6-d3ea33551615","ios":"levelo://app?vid=522b867b-65c0-463b-98d6-d3ea33551615"},"vehicle_type_id":"4","last_reported":1749895836,"current_range_meters":22800,"station_id":"ce4bgh92rcd13ifvqb40","pricing_plan_id":"cebpf4jnsgd1na2vs0mg"},{"bike_id":"77cac30c-f936-4c6d-b68c-420c6c59cba4","system_id":"levelo_inurba_marseille","lat":43.29271,"lon":5.36837,"is_reserved":false,"is_disabled":false,"rental_uris":{"android":"levelo://app?vid=77cac30c-f936-4c6d-b68c-420c6c59cba4","ios":"levelo://app?vid=77cac30c-f936-4c6d-b68c-420c6c59cba4"},"vehicle_type_id":"4","last_reported":1749895836,"current_range_meters":22800,"station_id":"ce4bhbp2rcd13ifvqesg","pricing_plan_id":"cebpf4jnsgd1na2vs0mg"},{"bike_id":"8029ea64-7583-4337-9b32-f8c3401a4773","system_id":"levelo_inurba_marseille","lat":43.27918,"lon":5.39574,"is_reserved":false,"is_disabled":false,"rental_uris":{"android":"levelo://app?vid=8029ea64-7583-4337-9b32-f8c3401a4773","ios":"levelo://app?vid=8029ea64-7583-4337-9b32-f8c3401a4773"},"vehicle_type_id":"4","last_reported":1749895836,"current_range_meters":22800,"station_id":"ce4bhf92rcd13ifvqf40","pricing_plan_id":"cebpf4jnsgd1na2vs0mg"},{"bike_id":"edd67f18-5a93-435c-b0a9-c6e05c483e31","system_id":"levelo_inurba_marseille","lat":43.27063,"lon":5.40258,"is_reserved":false,"is_disabled":false,"rental_uris":{"android":"levelo://app?vid=edd67f18-5a93-435c-b0a9-c6e05c483e31","ios":"levelo://app?vid=edd67f18-5a93-435c-b0a9-c6e05c483e31"},"vehicle_type_id":"4","last_reported":1749895836,"current_range_meters":22800,"station_id":"ce4bhk92rcd13ifvqgc0","pricing_plan_id":"cebpf4jnsgd1na2vs0mg"},{"bike_id":"c957a38c-1a89-49b9-9b9e-da45a4de23f0","system_id":"levelo_inurba_marseille","lat":43.24179,"lon":5.39713,"is_reserved":false,"is_disabled":false,"rental_uris":{"android":"levelo://app?vid=c957a38c-1a89-49b9-9b9e-da45a4de23f0","ios":"levelo://app?vid=c957a38c-1a89-49b9-9b9e-da45a4de23f0"},"vehicle_type_id":"4","last_reported":1749895836,"current_range_meters":22800,"station_id":"ce4bhn12rcd13ifvqgpg","pricing_plan_id":"cebpf4jnsgd1na2vs0mg"},{"bike_id":"8bc58b32-a736-4d07-b8b1-b326fd190544","system_id":"levelo_inurba_marseille","lat":43.21756,"lon":5.34598,"is_reserved":false,"is_disabled":false,"rental_uris":{"android":"levelo://app?vid=8bc58b32-a736-4d07-b8b1-b326fd190544","ios":"levelo://app?vid=8bc58b32-a736-4d07-b8b1-b326fd190544"},"vehicle_type_id":"4","last_reported":1749895836,"current_range_meters":22800,"station_id":"st_cvj6r9ubvosntc0bgbag","pricing_plan_id":"cebpf4jnsgd1na2vs0mg"},{"bike_id":"3e232180-096e-45c2-8101-145150acb1d5","system_id":"levelo_inurba_marseille","lat":43.211862,"lon":5.350738,"is_reserved":false,"is_disabled":false,"rental_uris":{"android":"levelo://app?vid=3e232180-096e-45c2-8101-145150acb1d5","ios":"levelo://app?vid=3e232180-096e-45c2-8101-145150acb1d5"},"vehicle_type_id":"4","last_reported":1749895836,"current_range_meters":22800,"station_id":"st_cvj6sg6p6f1abm77japg","pricing_plan_id":"cebpf4jnsgd1na2vs0mg"},{"bike_id":"866b3a8d-a10c-4a21-b0a6-c759dade442d","system_id":"levelo_inurba_marseille","lat":43.29255,"lon":5.36853,"is_reserved":false,"is_disabled":false,"rental_uris":{"android":"levelo://app?vid=866b3a8d-a10c-4a21-b0a6-c759dade442d","ios":"levelo://app?vid=866b3a8d-a10c-4a21-b0a6-c759dade442d"},"vehicle_type_id":"4","last_reported":1749895836,"current_range_meters":23200,"station_id":"ce4bhbp2rcd13ifvqesg","pricing_plan_id":"cebpf4jnsgd1na2vs0mg"},{"bike_id":"47326f5d-6307-437b-bef7-ea34a21f8fb8","system_id":"levelo_inurba_marseille","lat":43.28939,"lon":5.36393,"is_reserved":false,"is_disabled":false,"rental_uris":{"android":"levelo://app?vid=47326f5d-6307-437b-bef7-ea34a21f8fb8","ios":"levelo://app?vid=47326f5d-6307-437b-bef7-ea34a21f8fb8"},"vehicle_type_id":"4","last_reported":1749895836,"current_range_meters":23200,"station_id":"ce4bhc92rcd13ifvqetg","pricing_plan_id":"cebpf4jnsgd1na2vs0mg"},{"bike_id":"ebd5df0f-f1c5-4c4d-9cda-1ecb9b352b1b","system_id":"levelo_inurba_marseille","lat":43.2306,"lon":5.35486,"is_reserved":false,"is_disabled":false,"rental_uris":{"android":"levelo://app?vid=ebd5df0f-f1c5-4c4d-9cda-1ecb9b352b1b","ios":"levelo://app?vid=ebd5df0f-f1c5-4c4d-9cda-1ecb9b352b1b"},"vehicle_type_id":"4","last_reported":1749895836,"current_range_meters":23200,"station_id":"cpo3342slgdg3j2ifvpg","pricing_plan_id":"cebpf4jnsgd1na2vs0mg"},{"bike_id":"c0f92f14-d9f0-4bd0-8b21-0b969bcd325a","system_id":"levelo_inurba_marseille","lat":43.21764,"lon":5.34597,"is_reserved":false,"is_disabled":false,"rental_uris":{"android":"levelo://app?vid=c0f92f14-d9f0-4bd0-8b21-0b969bcd325a","ios":"levelo://app?vid=c0f92f14-d9f0-4bd0-8b21-0b969bcd325a"},"vehicle_type_id":"4","last_reported":1749895836,"current_range_meters":23200,"station_id":"st_cvj6r9ubvosntc0bgbag","pricing_plan_id":"cebpf4jnsgd1na2vs0mg"},{"bike_id":"e925ed2b-babc-4cf9-b75b-bac898fd5635","system_id":"levelo_inurba_marseille","lat":43.21195,"lon":5.35063,"is_reserved":false,"is_disabled":false,"rental_uris":{"android":"levelo://app?vid=e925ed2b-babc-4cf9-b75b-bac898fd5635","ios":"levelo://app?vid=e925ed2b-babc-4cf9-b75b-bac898fd5635"},"vehicle_type_id":"4","last_reported":1749895836,"current_range_meters":23200,"station_id":"st_cvj6sg6p6f1abm77japg","pricing_plan_id":"cebpf4jnsgd1na2vs0mg"},{"bike_id":"11b3d602-be91-42ef-b03e-d905bd6d48bd","system_id":"levelo_inurba_marseille","lat":43.28474,"lon":5.385672,"is_reserved":false,"is_disabled":false,"rental_uris":{"android":"levelo://app?vid=11b3d602-be91-42ef-b03e-d905bd6d48bd","ios":"levelo://app?vid=11b3d602-be91-42ef-b03e-d905bd6d48bd"},"vehicle_type_id":"4","last_reported":1749895836,"current_range_meters":24000,"station_id":"","pricing_plan_id":"cebpf4jnsgd1na2vs0mg"},{"bike_id":"8e7a1850-7612-4451-9267-bcfd1ebcb96a","system_id":"levelo_inurba_marseille","lat":43.28457,"lon":5.35877,"is_reserved":false,"is_disabled":false,"rental_uris":{"android":"levelo://app?vid=8e7a1850-7612-4451-9267-bcfd1ebcb96a","ios":"levelo://app?vid=8e7a1850-7612-4451-9267-bcfd1ebcb96a"},"vehicle_type_id":"4","last_reported":1749895836,"current_range_meters":24000,"station_id":"ce4bhah2rcd13ifvqei0","pricing_plan_id":"cebpf4jnsgd1na2vs0mg"},{"bike_id":"d225d17e-0aae-442a-b354-8a8487ac8286","system_id":"levelo_inurba_marseille","lat":43.2885,"lon":5.35865,"is_reserved":false,"is_disabled":false,"rental_uris":{"android":"levelo://app?vid=d225d17e-0aae-442a-b354-8a8487ac8286","ios":"levelo://app?vid=d225d17e-0aae-442a-b354-8a8487ac8286"},"vehicle_type_id":"4","last_reported":1749895836,"current_range_meters":24000,"station_id":"ce4bhb12rcd13ifvqem0","pricing_plan_id":"cebpf4jnsgd1na2vs0mg"},{"bike_id":"f5b7ccdb-9258-4139-a56f-827a09bb638f","system_id":"levelo_inurba_marseille","lat":43.29234,"lon":5.36057,"is_reserved":false,"is_disabled":false,"rental_uris":{"android":"levelo://app?vid=f5b7ccdb-9258-4139-a56f-827a09bb638f","ios":"levelo://app?vid=f5b7ccdb-9258-4139-a56f-827a09bb638f"},"vehicle_type_id":"4","last_reported":1749895836,"current_range_meters":24000,"station_id":"ce4bhbh2rcd13ifvqeqg","pricing_plan_id":"cebpf4jnsgd1na2vs0mg"},{"bike_id":"f2a513ec-6cd5-4dd3-af7a-3d2b176b4ea1","system_id":"levelo_inurba_marseille","lat":43.25509,"lon":5.37647,"is_reserved":false,"is_disabled":false,"rental_uris":{"android":"levelo://app?vid=f2a513ec-6cd5-4dd3-af7a-3d2b176b4ea1","ios":"levelo://app?vid=f2a513ec-6cd5-4dd3-af7a-3d2b176b4ea1"},"vehicle_type_id":"4","last_reported":1749895836,"current_range_meters":24000,"station_id":"ce4bhh12rcd13ifvqff0","pricing_plan_id":"cebpf4jnsgd1na2vs0mg"},