{"last_updated":1737659210,"ttl":60,"version":"2.2","data":{"bikes":[{"bike_id":"efaf8603-0bec-433e-97a0-3f9a4e56efbc","system_id":"levelo_inurba_marseille","lat":43.26578,"lon":5.39068,"is_reserved":false,"is_disabled":true,"rental_uris":{"android":"levelo://app?vid=efaf8603-0bec-433e-97a0-3f9a4e56efbc","ios":"levelo://app?vid=efaf8603-0bec-433e-97a0-3f9a4e56efbc"},"vehicle_type_id":"4","last_reported":1737659210,"current_range_meters":400,"station_id":"","pricing_plan_id":"cebpf4jnsgd1na2vs0mg"},{"bike_id":"5b0f23e0-30c9-479c-af2a-0d39d7adb7f8","system_id":"levelo_inurba_marseille","lat":43.30786,"lon":5.3765,"is_reserved":false,"is_disabled":false,"rental_uris":{"android":"levelo://app?vid=5b0f23e0-30c9-479c-af2a-0d39d7adb7f8","ios":"levelo://app?vid=5b0f23e0-30c9-479c-af2a-0d39d7adb7f8"},"vehicle_type_id":"4","last_reported":1737659210,"current_range_meters":25600,"station_id":"ce4bgv92rcd13ifvqcq0","pricing_plan_id":"cebpf4jnsgd1na2vs0mg"},{"bike_id":"6038a21d-ddd9-48cc-b41b-c7d265bcdf42","system_id":"levelo_inurba_marseille","lat":43.25862,"lon":5.399,"is_reserved":false,"is_disabled":false,"rental_uris":{"android":"levelo://app?vid=6038a21d-ddd9-48cc-b41b-c7d265bcdf42","ios":"levelo://app?vid=6038a21d-ddd9-48cc-b41b-c7d265bcdf42"},"vehicle_type_id":"4","last_reported":1737659210,"current_range_meters":38800,"station_id":"ce4bhl92rcd13ifvqghg","pricing_plan_id":"cebpf4jnsgd1na2vs0mg"},{"bike_id":"eccf0d1b-bc05-4442-912e-9450590b779a","system_id":"levelo_inurba_marseille","lat":43.31975,"lon":5.3812,"is_reserved":false,"is_disabled":false,"rental_uris":{"android":"levelo://app?vid=eccf0d1b-bc05-4442-912e-9450590b779a","ios":"levelo://app?vid=eccf0d1b-bc05-4442-912e-9450590b779a"},"vehicle_type_id":"4","last_reported":1737659210,"current_range_meters":17200,"station_id":"ce4bhr12rcd13ifvqhpg","pricing_plan_id":"cebpf4jnsgd1na2vs0mg"},{"bike_id":"bb837106-5fe6-4c19-83c9-a4ca3cad7964","system_id":"levelo_inurba_marseille","lat":43.29213,"lon":5.36046,"is_reserved":false,"is_disabled":false,"rental_uris":{"android":"levelo://app?vid=bb837106-5fe6-4c19-83c9-a4ca3cad7964","ios":"levelo://app?vid=bb837106-5fe6-4c19-83c9-a4ca3cad7964"},"vehicle_type_id":"4","last_reported":1737659210,"current_range_meters":24800,"station_id":"ce4bhbh2rcd13ifvqeqg","pricing_plan_id":"cebpf4jnsgd1na2vs0mg"},{"bike_id":"6bf1abaa-85ea-47ef-aa15-9b541f8817d8","system_id":"levelo_inurba_marseille","lat":43.31895,"lon":5.40739,"is_reserved":false,"is_disabled":false,"rental_uris":{"android":"levelo://app?vid=6bf1abaa-85ea-47ef-aa15-9b541f8817d8","ios":"levelo://app?vid=6bf1abaa-85ea-47ef-aa15-9b541f8817d8"},"vehicle_type_id":"4","last_reported":1737659210,"current_range_meters":35600,"station_id":"ce4bhq12rcd13ifvqhig","pricing_plan_id":"cebpf4jnsgd1na2vs0mg"},{"bike_id":"7ffa4c5f-399b-415f-a0ea-597f39a741fa","system_id":"levelo_inurba_marseille","lat":43.28456,"lon":5.35878,"is_reserved":false,"is_disabled":false,"rental_uris":{"android":"levelo://app?vid=7ffa4c5f-399b-415f-a0ea-597f39a741fa","ios":"levelo://app?vid=7ffa4c5f-399b-415f-a0ea-597f39a741fa"},"vehicle_type_id":"4","last_reported":1737659210,"current_range_meters":25600,"station_id":"ce4bhah2rcd13ifvqei0","pricing_plan_id":"cebpf4jnsgd1na2vs0mg"},{"bike_id":"d5e872fd-88ad-4d26-bf6b-08aaaf1253ee","system_id":"levelo_inurba_marseille","lat":43.28459,"lon":5.35885,"is_reserved":false,"is_disabled":false,"rental_uris":{"android":"levelo://app?vid=d5e872fd-88ad-4d26-bf6b-08aaaf1253ee","ios":"levelo://app?vid=d5e872fd-88ad-4d26-bf6b-08aaaf1253ee"},"vehicle_type_id":"4","last_reported":1737659210,"current_range_meters":17600,"station_id":"ce4bhah2rcd13ifvqei0","pricing_plan_id":"cebpf4jnsgd1na2vs0mg"},{"bike_id":"9c1687bb-43d0-46e6-8dd5-ae557d3f0f34","system_id":"levelo_inurba_marseille","lat":43.25718,"lon":5.41113,"is_reserved":false,"is_disabled":false,"rental_uris":{"android":"levelo://app?vid=9c1687bb-43d0-46e6-8dd5-ae557d3f0f34","ios":"levelo://app?vid=9c1687bb-43d0-46e6-8dd5-ae557d3f0f34"},"vehicle_type_id":"4","last_reported":1737659210,"current_range_meters":8800,"station_id":"ce4bhkp2rcd13ifvqgd0","pricing_plan_id":"cebpf4jnsgd1na2vs0mg"},{"bike_id":"b5cb07e6-6ffd-4db4-8954-0084503b2aef","system_id":"levelo_inurba_marseille","lat":43.33025,"lon":5.39036,"is_reserved":false,"is_disabled":false,"rental_uris":{"android":"levelo://app?vid=b5cb07e6-6ffd-4db4-8954-0084503b2aef","ios":"levelo://app?vid=b5cb07e6-6ffd-4db4-8954-0084503b2aef"},"vehicle_type_id":"4","last_reported":1737659210,"current_range_meters":38800,"station_id":"ce4bhr92rcd13ifvqhrg","pricing_plan_id":"cebpf4jnsgd1na2vs0mg"},{"bike_id":"8c720811-bfc2-4e22-b407-da8ecec62317","system_id":"levelo_inurba_marseille","lat":43.27279,"lon":5.3908,"is_reserved":false,"is_disabled":false,"rental_uris":{"android":"levelo://app?vid=8c720811-bfc2-4e22-b407-da8ecec62317","ios":"levelo://app?vid=8c720811-bfc2-4e22-b407-da8ecec62317"},"vehicle_type_id":"4","last_reported":1737659210,"current_range_meters":35600,"station_id":"ce4bhgp2rcd13ifvqfe0","pricing_plan_id":"cebpf4jnsgd1na2vs0mg"},{"bike_id":"ec016e4b-1100-4b80-a9e8-7ce8bce9aee4","system_id":"levelo_inurba_marseille","lat":43.28002,"lon":5.400162,"is_reserved":false,"is_disabled":false,"rental_uris":{"android":"levelo://app?vid=ec016e4b-1100-4b80-a9e8-7ce8bce9aee4","ios":"levelo://app?vid=ec016e4b-1100-4b80-a9e8-7ce8bce9aee4"},"vehicle_type_id":"4","last_reported":1737659210,"current_range_meters":22000,"station_id":"ce4bho92rcd13ifvqh4g","pricing_plan_id":"cebpf4jnsgd1na2vs0mg"},{"bike_id":"728f953c-5e65-472b-a7a0-a086875e16b0","system_id":"levelo_inurba_marseille","lat":43.26062,"lon":5.39396,"is_reserved":false,"is_disabled":false,"rental_uris":{"android":"levelo://app?vid=728f953c-5e65-472b-a7a0-a086875e16b0","ios":"levelo://app?vid=728f953c-5e65-472b-a7a0-a086875e16b0"},"vehicle_type_id":"4","last_reported":1737659210,"current_range_meters":20800,"station_id":"ce4bhh92rcd13ifvqfj0","pricing_plan_id":"cebpf4jnsgd1na2vs0mg"},{"bike_id":"91fc8ad7-6bde-4451-b3fd-2d2543b21a70","system_id":"levelo_inurba_marseille","lat":43.29506,"lon":5.38519,"is_reserved":false,"is_disabled":false,"rental_uris":{"android":"levelo://app?vid=91fc8ad7-6bde-4451-b3fd-2d2543b21a70","ios":"levelo://app?vid=91fc8ad7-6bde-4451-b3fd-2d2543b21a70"},"vehicle_type_id":"4","last_reported":1737659210,"current_range_meters":20400,"station_id":"ce4bgih2rcd13ifvqba0","pricing_plan_id":"cebpf4jnsgd1na2vs0mg"},{"bike_id":"90ef6c1c-7716-486b-815b-e3296621e8a4","system_id":"levelo_inurba_marseille","lat":43.27919,"lon":5.3958,"is_reserved":false,"is_disabled":false,"rental_uris":{"android":"levelo://app?vid=90ef6c1c-7716-486b-815b-e3296621e8a4","ios":"levelo://app?vid=90ef6c1c-7716-486b-815b-e3296621e8a4"},"vehicle_type_id":"4","last_reported":1737659210,"current_range_meters":38800,"station_id":"ce4bhf92rcd13ifvqf40","pricing_plan_id":"cebpf4jnsgd1na2vs0mg"},{"bike_id":"b8568598-e61f-4a20-9739-cc6c473e0cb5","system_id":"levelo_inurba_marseille","lat":43.29972,"lon":5.4132,"is_reserved":false,"is_disabled":false,"rental_uris":{"android":"levelo://app?vid=b8568598-e61f-4a20-9739-cc6c473e0cb5","ios":"levelo://app?vid=b8568598-e61f-4a20-9739-cc6c473e0cb5"},"vehicle_type_id":"4","last_reported":1737659210,"current_range_meters":20000,"station_id":"ce4bhp12rcd13ifvqh9g","pricing_plan_id":"cebpf4jnsgd1na2vs0mg"},{"bike_id":"d89c0122-2201-493a-bcbe-65b5d08f4000","system_id":"levelo_inurba_marseille","lat":43.2925,"lon":5.40903,"is_reserved":false,"is_disabled":false,"rental_uris":{"android":"levelo://app?vid=d89c0122-2201-493a-bcbe-65b5d08f4000","ios":"levelo://app?vid=d89c0122-2201-493a-bcbe-65b5d08f4000"},"vehicle_type_id":"4","last_reported":1737659210,"current_range_meters":34000,"station_id":"ce4bh192rcd13ifvqdc0","pricing_plan_id":"cebpf4jnsgd1na2vs0mg"},{"bike_id":"fb25aff4-7712-412a-885d-4665f45586cc","system_id":"levelo_inurba_marseille","lat":43.24656,"lon":5.38158,"is_reserved":false,"is_disabled":false,"rental_uris":{"android":"levelo://app?vid=fb25aff4-7712-412a-885d-4665f45586cc","ios":"levelo://app?vid=fb25aff4-7712-412a-885d-4665f45586cc"},"vehicle_type_id":"4","last_reported":1737659210,"current_range_meters":23200,"station_id":"ce4bhih2rcd13ifvqfr0","pricing_plan_id":"cebpf4jnsgd1na2vs0mg"},{"bike_id":"7dbb9d34-c7b8-41c5-b6d4-fee3aa6edf6f","system_id":"levelo_inurba_marseille","lat":43.32479,"lon":5.36566,"is_reserved":false,"is_disabled":true,"rental_uris":{"android":"levelo://app?vid=7dbb9d34-c7b8-41c5-b6d4-fee3aa6edf6f","ios":"levelo://app?vid=7dbb9d34-c7b8-41c5-b6d4-fee3aa6edf6f"},"vehicle_type_id":"4","last_reported":1737659210,"current_range_meters":800,"station_id":"ce4bhs12rcd13ifvqhvg","pricing_plan_id":"cebpf4jnsgd1na2vs0mg"},{"bike_id":"a699c8d0-54e1-4edc-be47-2cb00b44d521","system_id":"levelo_inurba_marseille","lat":43.30955,"lon":5.36721,"is_reserved":false,"is_disabled":false,"rental_uris":{"android":"levelo://app?vid=a699c8d0-54e1-4edc-be47-2cb00b44d521","ios":"levelo://app?vid=a699c8d0-54e1-4edc-be47-2cb00b44d521"},"vehicle_type_id":"4","last_reported":1737659210,"current_range_meters":32000,"station_id":"","pricing_plan_id":"cebpf4jnsgd1na2vs0mg"},{"bike_id":"8306911c-1b49-4f25-b658-2afe8ce20858","system_id":"levelo_inurba_marseille","lat":43.28455,"lon":5.35874,"is_reserved":false,"is_disabled":false,"rental_uris":{"android":"levelo://app?vid=8306911c-1b49-4f25-b658-2afe8ce20858","ios":"levelo://app?vid=8306911c-1b49-4f25-b658-2afe8ce20858"},"vehicle_type_id":"4","last_reported":1737659210,"current_range_meters":31200,"station_id":"ce4bhah2rcd13ifvqei0","pricing_plan_id":"cebpf4jnsgd1na2vs0mg"},{"bike_id":"e38da209-d8d9-4680-be99-11d1954272ef","system_id":"levelo_inurba_marseille","lat":43.26205,"lon":5.37917,"is_reserved":false,"is_disabled":false,"rental_uris":{"android":"levelo://app?vid=e38da209-d8d9-4680-be99-11d1954272ef","ios":"levelo://app?vid=e38da209-d8d9-4680-be99-11d1954272ef"},"vehicle_type_id":"4","last_reported":1737659210,"current_range_meters":39200,"station_id":"ce4bhjp2rcd13ifvqg90","pricing_plan_id":"cebpf4jnsgd1na2vs0mg"},{"bike_id":"3797cfec-e8e8-4763-a6d2-dd14bd67c606","system_id":"levelo_inurba_marseille","lat":43.31369,"lon":5.38489,"is_reserved":false,"is_disabled":false,"rental_uris":{"android":"levelo://app?vid=3797cfec-e8e8-4763-a6d2-dd14bd67c606","ios":"levelo://app?vid=3797cfec-e8e8-4763-a6d2-dd14bd67c606"},"vehicle_type_id":"4","last_reported":1737659210,"current_range_meters":9200,"station_id":"ce4bgt92rcd13ifvqcf0","pricing_plan_id":"cebpf4jnsgd1na2vs0mg"},{"bike_id":"1a87f163-95aa-44fd-b2d0-ded4d159ad4c","system_id":"levelo_inurba_marseille","lat":43.29522,"lon":5.39033,"is_reserved":false,"is_disabled":false,"rental_uris":{"android":"levelo://app?vid=1a87f163-95aa-44fd-b2d0-ded4d159ad4c","ios":"levelo://app?vid=1a87f163-95aa-44fd-b2d0-ded4d159ad4c"},"vehicle_type_id":"4","last_reported":1737659210,"current_range_meters":23200,"station_id":"ce4bh3p2rcd13ifvqdp0","pricing_plan_id":"cebpf4jnsgd1na2vs0mg"},{"bike_id":"644e1c08-c502-4c85-94d4-d4a064391ff0","system_id":"levelo_inurba_marseille","lat":43.31857,"lon":5.37967,"is_reserved":false,"is_disabled":false,"rental_uris":{"android":"levelo://app?vid=644e1c08-c502-4c85-94d4-d4a064391ff0","ios":"levelo://app?vid=644e1c08-c502-4c85-94d4-d4a064391ff0"},"vehicle_type_id":"4","last_reported":1737659210,"current_range_meters":7200,"station_id":"","pricing_plan_id":"cebpf4jnsgd1na2vs0mg"},{"bike_id":"2e1961ea-cc50-4ce5-bd0e-43fe5c2fb5e3","system_id":"levelo_inurba_marseille","lat":43.25857,"lon":5.39907,"is_reserved":false,"is_disabled":false,"rental_uris":{"android":"levelo://app?vid=2e1961ea-cc50-4ce5-bd0e-43fe5c2fb5e3","ios":"levelo://app?vid=2e1961ea-cc50-4ce5-bd0e-43fe5c2fb5e3"},"vehicle_type_id":"4","last_reported":1737659210,"current_range_meters":29600,"station_id":"ce4bhl92rcd13ifvqghg","pricing_plan_id":"cebpf4jnsgd1na2vs0mg"},{"bike_id":"553e4976-b27f-47dc-8e32-f79d8de69447","system_id":"levelo_inurba_marseille","lat":43.290002,"lon":5.356174,"is_reserved":false,"is_disabled":false,"rental_uris":{"android":"levelo://app?vid=553e4976-b27f-47dc-8e32-f79d8de69447","ios":"levelo://app?vid=553e4976-b27f-47dc-8e32-f79d8de69447"},"vehicle_type_id":"4","last_reported":1737659210,"current_range_meters":38800,"station_id":"ce4bhb92rcd13ifvqen0","pricing_plan_id":"cebpf4jnsgd1na2vs0mg"},{"bike_id":"193315e2-36f8-42b2-9f1c-169237b7a901","system_id":"levelo_inurba_marseille","lat":43.26061,"lon":5.39396,"is_reserved":false,"is_disabled":false,"rental_uris":{"android":"levelo://app?vid=193315e2-36f8-42b2-9f1c-169237b7a901","ios":"levelo://app?vid=193315e2-36f8-42b2-9f1c-169237b7a901"},"vehicle_type_id":"4","last_reported":1737659210,"current_range_meters":38800,"station_id":"ce4bhh92rcd13ifvqfj0","pricing_plan_id":"cebpf4jnsgd1na2vs0mg"},{"bike_id":"1d88e9e1-7a91-4ffc-b950-03c3cc987696","system_id":"levelo_inurba_marseille","lat":43.27844,"lon":5.39214,"is_reserved":false,"is_disabled":false,"rental_uris":{"android":"levelo://app?vid=1d88e9e1-7a91-4ffc-b950-03c3cc987696","ios":"levelo://app?vid=1d88e9e1-7a91-4ffc-b950-03c3cc987696"},"vehicle_type_id":"4","last_reported":1737659210,"current_range_meters":31200,"station_id":"ce4bhjp2rcd13ifvqga0","pricing_plan_id":"cebpf4jnsgd1na2vs0mg"},{"bike_id":"d176d05d-f592-4680-9312-b4c47d85e9a1","system_id":"levelo_inurba_marseille","lat":43.28423,"lon":5.3752,"is_reserved":false,"is_disabled":false,"rental_uris":{"android":"levelo://app?vid=d176d05d-f592-4680-9312-b4c47d85e9a1","ios":"levelo://app?vid=d176d05d-f592-4680-9312-b4c47d85e9a1"},"vehicle_type_id":"4","last_reported":1737659210,"current_range_meters":8400,"station_id":"ce4bh412rcd13ifvqds0","pricing_plan_id":"cebpf4jnsgd1na2vs0mg"},{"bike_id":"820d236e-1578-4ddc-b946-1dd3b5ad3eb4","system_id":"levelo_inurba_marseille","lat":43.30881,"lon":5.39658,"is_reserved":false,"is_disabled":false,"rental_uris":{"android":"levelo://app?vid=820d236e-1578-4ddc-b946-1dd3b5ad3eb4","ios":"levelo://app?vid=820d236e-1578-4ddc-b946-1dd3b5ad3eb4"},"vehicle_type_id":"4","last_reported":1737659210,"current_range_meters":25600,"station_id":"ce4bh012rcd13ifvqcv0","pricing_plan_id":"cebpf4jnsgd1na2vs0mg"},{"bike_id":"1db8bd1c-7c70-413d-99b6-fbf4d9d684f3","system_id":"levelo_inurba_marseille","lat":43.2904,"lon":5.37568,"is_reserved":false,"is_disabled":false,"rental_uris":{"android":"levelo://app?vid=1db8bd1c-7c70-413d-99b6-fbf4d9d684f3","ios":"levelo://app?vid=1db8bd1c-7c70-413d-99b6-fbf4d9d684f3"},"vehicle_type_id":"4","last_reported":1737659210,"current_range_meters":14000,"station_id":"ce4bh692rcd13ifvqe90","pricing_plan_id":"cebpf4jnsgd1na2vs0mg"},{"bike_id":"2eaadf26-eff6-470d-9306-d06ecd633174","system_id":"levelo_inurba_marseille","lat":43.25575,"lon":5.38221,"is_reserved":false,"is_disabled":false,"rental_uris":{"android":"levelo://app?vid=2eaadf26-eff6-470d-9306-d06ecd633174","ios":"levelo://app?vid=2eaadf26-eff6-470d-9306-d06ecd633174"},"vehicle_type_id":"4","last_reported":1737659210,"current_range_meters":26800,"station_id":"ce4bhih2rcd13ifvqfs0","pricing_plan_id":"cebpf4jnsgd1na2vs0mg"},{"bike_id":"abc60fff-dd66-4aec-926e-90acfc4baba7","system_id":"levelo_inurba_marseille","lat":43.29022,"lon":5.38645,"is_reserved":false,"is_disabled":false,"rental_uris":{"android":"levelo://app?vid=abc60fff-dd66-4aec-926e-90acfc4baba7","ios":"levelo://app?vid=abc60fff-dd66-4aec-926e-90acfc4baba7"},"vehicle_type_id":"4","last_reported":1737659210,"current_range_meters":18000,"station_id":"ce4bh4p2rcd13ifvqe0g","pricing_plan_id":"cebpf4jnsgd1na2vs0mg"},{"bike_id":"1fbcfb52-8929-4f0c-a9d8-51ffbe3630c4","system_id":"levelo_inurba_marseille","lat":43.31326,"lon":5.39702,"is_reserved":false,"is_disabled":false,"rental_uris":{"android":"levelo://app?vid=1fbcfb52-8929-4f0c-a9d8-51ffbe3630c4","ios":"levelo://app?vid=1fbcfb52-8929-4f0c-a9d8-51ffbe3630c4"},"vehicle_type_id":"4","last_reported":1737659210,"current_range_meters":33200,"station_id":"ce4bgvp2rcd13ifvqcu0","pricing_plan_id":"cebpf4jnsgd1na2vs0mg"},{"bike_id":"0672c778-6d96-43cb-9618-48f187d64dea","system_id":"levelo_inurba_marseille","lat":43.25577,"lon":5.38232,"is_reserved":false,"is_disabled":false,"rental_uris":{"android":"levelo://app?vid=0672c778-6d96-43cb-9618-48f187d64dea","ios":"levelo://app?vid=0672c778-6d96-43cb-9618-48f187d64dea"},"vehicle_type_id":"4","last_reported":1737659210,"current_range_meters":6800,"station_id":"ce4bhih2rcd13ifvqfs0","pricing_plan_id":"cebpf4jnsgd1na2vs0mg"},{"bike_id":"71ebb7a1-23b0-4621-b58d-f41888021343","system_id":"levelo_inurba_marseille","lat":43.29302,"lon":5.37171,"is_reserved":false,"is_disabled":false,"rental_uris":{"android":"levelo://app?vid=71ebb7a1-23b0-4621-b58d-f41888021343","ios":"levelo://app?vid=71ebb7a1-23b0-4621-b58d-f41888021343"},"vehicle_type_id":"4","last_reported":1737659210,"current_range_meters":4000,"station_id":"ce4bgh92rcd13ifvqb40","pricing_plan_id":"cebpf4jnsgd1na2vs0mg"},{"bike_id":"0085c7c3-ab92-41f5-a149-bcf1f28130b5","system_id":"levelo_inurba_marseille","lat":43.25,"lon":5.38929,"is_reserved":false,"is_disabled":false,"rental_uris":{"android":"levelo://app?vid=0085c7c3-ab92-41f5-a149-bcf1f28130b5","ios":"levelo://app?vid=0085c7c3-ab92-41f5-a149-bcf1f28130b5"},"vehicle_type_id":"4","last_reported":1737659210,"current_range_meters":21600,"station_id":"ce4bhgp2rcd13ifvqfd0","pricing_plan_id":"cebpf4jnsgd1na2vs0mg"},{"bike_id":"274e4258-aed1-4a6c-bc7d-1158086de7c3","system_id":"levelo_inurba_marseille","lat":43.30192,"lon":5.38949,"is_reserved":false,"is_disabled":false,"rental_uris":{"android":"levelo://app?vid=274e4258-aed1-4a6c-bc7d-1158086de7c3","ios":"levelo://app?vid=274e4258-aed1-4a6c-bc7d-1158086de7c3"},"vehicle_type_id":"4","last_reported":1737659210,"current_range_meters":17200,"station_id":"","pricing_plan_id":"cebpf4jnsgd1na2vs0mg"},{"bike_id":"bbdfc660-e997-4a11-9591-bbb56c89be46","system_id":"levelo_inurba_marseille","lat":43.33022,"lon":5.39031,"is_reserved":false,"is_disabled":false,"rental_uris":{"android":"levelo://app?vid=bbdfc660-e997-4a11-9591-bbb56c89be46","ios":"levelo://app?vid=bbdfc660-e997-4a11-9591-bbb56c89be46"},"vehicle_type_id":"4","last_reported":1737659210,"current_range_meters":37600,"station_id":"ce4bhr92rcd13ifvqhrg","pricing_plan_id":"cebpf4jnsgd1na2vs0mg"},{"bike_id":"5e75dd30-ab3b-44d3-8dcb-cb5fd4a0eb65","system_id":"levelo_inurba_marseille","lat":43.24652,"lon":5.38875,"is_reserved":false,"is_disabled":false,"rental_uris":{"android":"levelo://app?vid=5e75dd30-ab3b-44d3-8dcb-cb5fd4a0eb65","ios":"levelo://app?vid=5e75dd30-ab3b-44d3-8dcb-cb5fd4a0eb65"},"vehicle_type_id":"4","last_reported":1737659210,"current_range_meters":36800,"station_id":"ce4bhg12rcd13ifvqf60","pricing_plan_id":"cebpf4jnsgd1na2vs0mg"},{"bike_id":"ebcd7348-62f6-499d-9377-eaf8f056d917","system_id":"levelo_inurba_marseille","lat":43.27569,"lon":5.38427,"is_reserved":false,"is_disabled":false,"rental_uris":{"android":"levelo://app?vid=ebcd7348-62f6-499d-9377-eaf8f056d917","ios":"levelo://app?vid=ebcd7348-62f6-499d-9377-eaf8f056d917"},"vehicle_type_id":"4","last_reported":1737659210,"current_range_meters":37600,"station_id":"ce4bhh92rcd13ifvqfi0","pricing_plan_id":"cebpf4jnsgd1na2vs0mg"},{"bike_id":"a9c31a40-9201-412b-8757-c85cddf83ffd","system_id":"levelo_inurba_marseille","lat":43.26691,"lon":5.38253,"is_reserved":false,"is_disabled":false,"rental_uris":{"android":"levelo://app?vid=a9c31a40-9201-412b-8757-c85cddf83ffd","ios":"levelo://app?vid=a9c31a40-9201-412b-8757-c85cddf83ffd"},"vehicle_type_id":"4","last_reported":1737659210,"current_range_meters":36800,"station_id":"ce4bhg92rcd13ifvqf90","pricing_plan_id":"cebpf4jnsgd1na2vs0mg"},{"bike_id":"1f4cc9a1-a6f1-42ee-8f62-d3fd1b2849a6","system_id":"levelo_inurba_marseille","lat":43.23193,"lon":5.39984,"is_reserved":false,"is_disabled":false,"rental_uris":{"android":"levelo://app?vid=1f4cc9a1-a6f1-42ee-8f62-d3fd1b2849a6","ios":"levelo://app?vid=1f4cc9a1-a6f1-42ee-8f62-d3fd1b2849a6"},"vehicle_type_id":"4","last_reported":1737659210,"current_range_meters":7200,"station_id":"ce4bhn12rcd13ifvqgqg","pricing_plan_id":"cebpf4jnsgd1na2vs0mg"},{"bike_id":"dbe2d962-47ba-41d5-b845-dff1f2f4936a","system_id":"levelo_inurba_marseille","lat":43.29369,"lon":5.37844,"is_reserved":false,"is_disabled":false,"rental_uris":{"android":"levelo://app?vid=dbe2d962-47ba-41d5-b845-dff1f2f4936a","ios":"levelo://app?vid=dbe2d962-47ba-41d5-b845-dff1f2f4936a"},"vehicle_type_id":"4","last_reported":1737659210,"current_range_meters":7200,"station_id":"ce4bgjh2rcd13ifvqbf0","pricing_plan_id":"cebpf4jnsgd1na2vs0mg"},{"bike_id":"071539da-84e9-408d-ace9-6801b87e83b6","system_id":"levelo_inurba_marseille","lat":43.29415,"lon":5.38629,"is_reserved":false,"is_disabled":false,"rental_uris":{"android":"levelo://app?vid=071539da-84e9-408d-ace9-6801b87e83b6","ios":"levelo://app?vid=071539da-84e9-408d-ace9-6801b87e83b6"},"vehicle_type_id":"4","last_reported":1737659210,"current_range_meters":39200,"station_id":"ce4bh2h2rcd13ifvqdh0","pricing_plan_id":"cebpf4jnsgd1na2vs0mg"},{"bike_id":"77a12100-d260-4f7f-997e-94d8d05bfd42","system_id":"levelo_inurba_marseille","lat":43.28038,"lon":5.36942,"is_reserved":false,"is_disabled":false,"rental_uris":{"android":"levelo://app?vid=77a12100-d260-4f7f-997e-94d8d05bfd42","ios":"levelo://app?vid=77a12100-d260-4f7f-997e-94d8d05bfd42"},"vehicle_type_id":"4","last_reported":1737659210,"current_range_meters":7200,"station_id":"ce4bha12rcd13ifvqef0","pricing_plan_id":"cebpf4jnsgd1na2vs0mg"},{"bike_id":"9838cc78-2b53-49d3-ae13-82df62c4fd64","system_id":"levelo_inurba_marseille","lat":43.28415,"lon":5.40936,"is_reserved":false,"is_disabled":false,"rental_uris":{"android":"levelo://app?vid=9838cc78-2b53-49d3-ae13-82df62c4fd64","ios":"levelo://app?vid=9838cc78-2b53-49d3-ae13-82df62c4fd64"},"vehicle_type_id":"4","last_reported":1737659210,"current_range_meters":4800,"station_id":"","pricing_plan_id":"cebpf4jnsgd1na2vs0mg"},{"bike_id":"cf80fd66-51d2-45da-a957-8dd48a7f896f","system_id":"levelo_inurba_marseille","lat":43.30329,"lon":5.40445,"is_reserved":false,"is_disabled":false,"rental_uris":{"android":"levelo://app?vid=cf80fd66-51d2-45da-a957-8dd48a7f896f","ios":"levelo://app?vid=cf80fd66-51d2-45da-a957-8dd48a7f896f"},"vehicle_type_id":"4","last_reported":1737659210,"current_range_meters":14800,"station_id":"ce4bh012rcd13ifvqd10","pricing_plan_id":"cebpf4jnsgd1na2vs0mg"},{"bike_id":"d9d67e50-ff60-4024-bb97-06b4cc192a7e","system_id":"levelo_inurba_marseille","lat":43.30214,"lon":5.37485,"is_reserved":false,"is_disabled":true,"rental_uris":{"android":"levelo://app?vid=d9d67e50-ff60-4024-bb97-06b4cc192a7e","ios":"levelo://app?vid=d9d67e50-ff60-4024-bb97-06b4cc192a7e"},"vehicle_type_id":"4","last_reported":1737659210,"current_range_meters":38400,"station_id":"","pricing_plan_id":"cebpf4jnsgd1na2vs0mg"},{"bike_id":"73d834fb-e5b5-46db-8e60-2e0f290ea695","system_id":"levelo_inurba_marseille","lat":43.295363,"lon":5.39043,"is_reserved":false,"is_disabled":false,"rental_uris":{"android":"levelo://app?vid=73d834fb-e5b5-46db-8e60-2e0f290ea695","ios":"levelo://app?vid=73d834fb-e5b5-46db-8e60-2e0f290ea695"},"vehicle_type_id":"4","last_reported":1737659210,"current_range_meters":38800,"station_id":"ce4bh3p2rcd13ifvqdp0","pricing_plan_id":"cebpf4jnsgd1na2vs0mg"},{"bike_id":"ece6fdd6-9ea1-4d73-833a-919f3bfb5310","system_id":"levelo_inurba_marseille","lat":43.26193,"lon":5.37442,"is_reserved":false,"is_disabled":false,"rental_uris":{"android":"levelo://app?vid=ece6fdd6-9ea1-4d73-833a-919f3bfb5310","ios":"levelo://app?vid=ece6fdd6-9ea1-4d73-833a-919f3bfb5310"},"vehicle_type_id":"4","last_reported":1737659210,"current_range_meters":24800,"station_id":"ce4bhgp2rcd13ifvqfc0","pricing_plan_id":"cebpf4jnsgd1na2vs0mg"},{"bike_id":"bf096a89-ee72-4f37-85bd-7b3cf9f0cb41","system_id":"levelo_inurba_marseille","lat":43.31945,"lon":5.37903,"is_reserved":false,"is_disabled":false,"rental_uris":{"android":"levelo://app?vid=bf096a89-ee72-4f37-85bd-7b3cf9f0cb41","ios":"levelo://app?vid=bf096a89-ee72-4f37-85bd-7b3cf9f0cb41"},"vehicle_type_id":"4","last_reported":1737659210,"current_range_meters":37600,"station_id":"","pricing_plan_id":"cebpf4jnsgd1na2vs0mg"},{"bike_id":"81a1ee1f-b7a3-487f-abfc-c81babfe5d0a","system_id":"levelo_inurba_marseille","lat":43.23165,"lon":5.40015,"is_reserved":false,"is_disabled":false,"rental_uris":{"android":"levelo://app?vid=81a1ee1f-b7a3-487f-abfc-c81babfe5d0a","ios":"levelo://app?vid=81a1ee1f-b7a3-487f-abfc-c81babfe5d0a"},"vehicle_type_id":"4","last_reported":1737659210,"current_range_meters":8400,"station_id":"ce4bhn12rcd13ifvqgqg","pricing_plan_id":"cebpf4jnsgd1na2vs0mg"},{"bike_id":"4078e194-9a49-4303-b9e9-14bd13d7cef2","system_id":"levelo_inurba_marseille","lat":43.25107,"lon":5.40334,"is_reserved":false,"is_disabled":false,"rental_uris":{"android":"levelo://app?vid=4078e194-9a49-4303-b9e9-14bd13d7cef2","ios":"levelo://app?vid=4078e194-9a49-4303-b9e9-14bd13d7cef2"},"vehicle_type_id":"4","last_reported":1737659210,"current_range_meters":12000,"station_id":"ce4bhlh2rcd13ifvqgig","pricing_plan_id":"cebpf4jnsgd1na2vs0mg"},{"bike_id":"634d56c1-a2c0-4178-97ec-f77ccc52b51c","system_id":"levelo_inurba_marseille","lat":43.23198,"lon":5.39987,"is_reserved":false,"is_disabled":false,"rental_uris":{"android":"levelo://app?vid=634d56c1-a2c0-4178-97ec-f77ccc52b51c","ios":"levelo://app?vid=634d56c1-a2c0-4178-97ec-f77ccc52b51c"},"vehicle_type_id":"4","last_reported":1737659210,"current_range_meters":35200,"station_id":"ce4bhn12rcd13ifvqgqg","pricing_plan_id":"cebpf4jnsgd1na2vs0mg"},{"bike_id":"a0572c5e-fc42-4d61-b26c-067e0b5e7c90","system_id":"levelo_inurba_marseille","lat":43.29041,"lon":5.3996,"is_reserved":false,"is_disabled":false,"rental_uris":{"android":"levelo://app?vid=a0572c5e-fc42-4d61-b26c-067e0b5e7c90","ios":"levelo://app?vid=a0572c5e-fc42-4d61-b26c-067e0b5e7c90"},"vehicle_type_id":"4","last_reported":1737659210,"current_range_meters":4400,"station_id":"ce4bh392rcd13ifvqdm0","pricing_plan_id":"cebpf4jnsgd1na2vs0mg"},{"bike_id":"16d479db-6199-4d0f-a471-271878ad8ffc","system_id":"levelo_inurba_marseille","lat":43.26206,"lon":5.37448,"is_reserved":false,"is_disabled":false,"rental_uris":{"android":"levelo://app?vid=16d479db-6199-4d0f-a471-271878ad8ffc","ios":"levelo://app?vid=16d479db-6199-4d0f-a471-271878ad8ffc"},"vehicle_type_id":"4","last_reported":1737659210,"current_range_meters":18800,"station_id":"ce4bhgp2rcd13ifvqfc0","pricing_plan_id":"cebpf4jnsgd1na2vs0mg"},{"bike_id":"f672922c-4cb7-46a1-8093-07992af6e753","system_id":"levelo_inurba_marseille","lat":43.30209,"lon":5.39483,"is_reserved":false,"is_disabled":false,"rental_uris":{"android":"levelo://app?vid=f672922c-4cb7-46a1-8093-07992af6e753","ios":"levelo://app?vid=f672922c-4cb7-46a1-8093-07992af6e753"},"vehicle_type_id":"4","last_reported":1737659210,"current_range_meters":7200,"station_id":"ce4bh0p2rcd13ifvqd70","pricing_plan_id":"cebpf4jnsgd1na2vs0mg"},{"bike_id":"cefd512e-18d5-4cc6-98c9-a2b5f6ffa509","system_id":"levelo_inurba_marseille","lat":43.29526,"lon":5.39402,"is_reserved":false,"is_disabled":false,"rental_uris":{"android":"levelo://app?vid=cefd512e-18d5-4cc6-98c9-a2b5f6ffa509","ios":"levelo://app?vid=cefd512e-18d5-4cc6-98c9-a2b5f6ffa509"},"vehicle_type_id":"4","last_reported":1737659210,"current_range_meters":8000,"station_id":"ce4bh292rcd13ifvqdf0","pricing_plan_id":"cebpf4jnsgd1na2vs0mg"},{"bike_id":"2b79e43b-432b-49ef-b88b-b47a2c4aaf14","system_id":"levelo_inurba_marseille","lat":43.27176,"lon":5.4099,"is_reserved":false,"is_disabled":false,"rental_uris":{"android":"levelo://app?vid=2b79e43b-432b-49ef-b88b-b47a2c4aaf14","ios":"levelo://app?vid=2b79e43b-432b-49ef-b88b-b47a2c4aaf14"},"vehicle_type_id":"4","last_reported":1737659210,"current_range_meters":23200,"station_id":"ce4bhl12rcd13ifvqgf0","pricing_plan_id":"cebpf4jnsgd1na2vs0mg"},{"bike_id":"d5a781ee-10b5-4670-ad1d-c2b0411bef16","system_id":"levelo_inurba_marseille","lat":43.26951,"lon":5.38637,"is_reserved":false,"is_disabled":false,"rental_uris":{"android":"levelo://app?vid=d5a781ee-10b5-4670-ad1d-c2b0411bef16","ios":"levelo://app?vid=d5a781ee-10b5-4670-ad1d-c2b0411bef16"},"vehicle_type_id":"4","last_reported":1737659210,"current_range_meters":36800,"station_id":"ce4bhh92rcd13ifvqfh0","pricing_plan_id":"cebpf4jnsgd1na2vs0mg"},{"bike_id":"48abaa4a-2251-4b1a-985d-736d5322fef9","system_id":"levelo_inurba_marseille","lat":43.26556,"lon":5.37295,"is_reserved":false,"is_disabled":false,"rental_uris":{"android":"levelo://app?vid=48abaa4a-2251-4b1a-985d-736d5322fef9","ios":"levelo://app?vid=48abaa4a-2251-4b1a-985d-736d5322fef9"},"vehicle_type_id":"4","last_reported":1737659210,"current_range_meters":16400,"station_id":"ce4bhg12rcd13ifvqf70","pricing_plan_id":"cebpf4jnsgd1na2vs0mg"},{"bike_id":"c02142ed-2ca3-4518-8243-f41117608462","system_id":"levelo_inurba_marseille","lat":43.29935,"lon":5.36517,"is_reserved":false,"is_disabled":false,"rental_uris":{"android":"levelo://app?vid=c02142ed-2ca3-4518-8243-f41117608462","ios":"levelo://app?vid=c02142ed-2ca3-4518-8243-f41117608462"},"vehicle_type_id":"4","last_reported":1737659210,"current_range_meters":27200,"station_id":"ce4bgm92rcd13ifvqbr0","pricing_plan_id":"cebpf4jnsgd1na2vs0mg"},{"bike_id":"58e04e08-346e-461f-85c7-12eadb78d927","system_id":"levelo_inurba_marseille","lat":43.313263,"lon":5.39696,"is_reserved":false,"is_disabled":false,"rental_uris":{"android":"levelo://app?vid=58e04e08-346e-461f-85c7-12eadb78d927","ios":"levelo://app?vid=58e04e08-346e-461f-85c7-12eadb78d927"},"vehicle_type_id":"4","last_reported":1737659210,"current_range_meters":39200,"station_id":"ce4bgvp2rcd13ifvqcu0","pricing_plan_id":"cebpf4jnsgd1na2vs0mg"},{"bike_id":"536484ed-d967-41c5-8f88-22ed70378acb","system_id":"levelo_inurba_marseille","lat":43.27513,"lon":5.398,"is_reserved":false,"is_disabled":false,"rental_uris":{"android":"levelo://app?vid=536484ed-d967-41c5-8f88-22ed70378acb","ios":"levelo://app?vid=536484ed-d967-41c5-8f88-22ed70378acb"},"vehicle_type_id":"4","last_reported":1737659210,"current_range_meters":8000,"station_id":"","pricing_plan_id":"cebpf4jnsgd1na2vs0mg"},{"bike_id":"3513c61e-1cff-44ef-a6d7-ed049fab1555","system_id":"levelo_inurba_marseille","lat":43.30141,"lon":5.3807,"is_reserved":false,"is_disabled":true,"rental_uris":{"android":"levelo://app?vid=3513c61e-1cff-44ef-a6d7-ed049fab1555","ios":"levelo://app?vid=3513c61e-1cff-44ef-a6d7-ed049fab1555"},"vehicle_type_id":"4","last_reported":1737659210,"current_range_meters":1200,"station_id":"ce4bgjp2rcd13ifvqbh0","pricing_plan_id":"cebpf4jnsgd1na2vs0mg"},{"bike_id":"a48a1d35-3f13-45af-a2ef-e29bf30d3d17","system_id":"levelo_inurba_marseille","lat":43.30795,"lon":5.43526,"is_reserved":false,"is_disabled":false,"rental_uris":{"android":"levelo://app?vid=a48a1d35-3f13-45af-a2ef-e29bf30d3d17","ios":"levelo://app?vid=a48a1d35-3f13-45af-a2ef-e29bf30d3d17"},"vehicle_type_id":"4","last_reported":1737659210,"current_range_meters":9600,"station_id":"ce4bhph2rcd13ifvqheg","pricing_plan_id":"cebpf4jnsgd1na2vs0mg"},{"bike_id":"43554216-5b65-4b78-a805-db76eef8eee0","system_id":"levelo_inurba_marseille","lat":43.29023,"lon":5.38644,"is_reserved":false,"is_disabled":false,"rental_uris":{"android":"levelo://app?vid=43554216-5b65-4b78-a805-db76eef8eee0","ios":"levelo://app?vid=43554216-5b65-4b78-a805-db76eef8eee0"},"vehicle_type_id":"4","last_reported":1737659210,"current_range_meters":38800,"station_id":"ce4bh4p2rcd13ifvqe0g","pricing_plan_id":"cebpf4jnsgd1na2vs0mg"},{"bike_id":"050bd42b-0fa4-4ea3-8a02-3c1196960ece","system_id":"levelo_inurba_marseille","lat":43.316392,"lon":5.373953,"is_reserved":false,"is_disabled":false,"rental_uris":{"android":"levelo://app?vid=050bd42b-0fa4-4ea3-8a02-3c1196960ece","ios":"levelo://app?vid=050bd42b-0fa4-4ea3-8a02-3c1196960ece"},"vehicle_type_id":"4","last_reported":1737659210,"current_range_meters":26800,"station_id":"","pricing_plan_id":"cebpf4jnsgd1na2vs0mg"},{"bike_id":"3a59db95-3ba3-45d9-9d51-35faeb1e0f2b","system_id":"levelo_inurba_marseille","lat":43.25113,"lon":5.40322,"is_reserved":false,"is_disabled":false,"rental_uris":{"android":"levelo://app?vid=3a59db95-3ba3-45d9-9d51-35faeb1e0f2b","ios":"levelo://app?vid=3a59db95-3ba3-45d9-9d51-35faeb1e0f2b"},"vehicle_type_id":"4","last_reported":1737659210,"current_range_meters":28800,"station_id":"ce4bhlh2rcd13ifvqgig","pricing_plan_id":"cebpf4jnsgd1na2vs0mg"},{"bike_id":"37b37a0b-c78c-4f48-bdce-1672352ab565","system_id":"levelo_inurba_marseille","lat":43.28438,"lon":5.39177,"is_reserved":false,"is_disabled":false,"rental_uris":{"android":"levelo://app?vid=37b37a0b-c78c-4f48-bdce-1672352ab565","ios":"levelo://app?vid=37b37a0b-c78c-4f48-bdce-1672352ab565"},"vehicle_type_id":"4","last_reported":1737659210,"current_range_meters":3200,"station_id":"ce4bhoh2rcd13ifvqh5g","pricing_plan_id":"cebpf4jnsgd1na2vs0mg"},{"bike_id":"2f4fa984-4c44-4974-abb6-1d4b539de1f0","system_id":"levelo_inurba_marseille","lat":43.28673,"lon":5.38661,"is_reserved":false,"is_disabled":true,"rental_uris":{"android":"levelo://app?vid=2f4fa984-4c44-4974-abb6-1d4b539de1f0","ios":"levelo://app?vid=2f4fa984-4c44-4974-abb6-1d4b539de1f0"},"vehicle_type_id":"4","last_reported":1737659210,"current_range_meters":35600,"station_id":"ce4bh492rcd13ifvqdug","pricing_plan_id":"cebpf4jnsgd1na2vs0mg"},{"bike_id":"347dd29e-9a9e-4a37-8ddd-6e2050aaff03","system_id":"levelo_inurba_marseille","lat":43.33738,"lon":5.39202,"is_reserved":false,"is_disabled":true,"rental_uris":{"android":"levelo://app?vid=347dd29e-9a9e-4a37-8ddd-6e2050aaff03","ios":"levelo://app?vid=347dd29e-9a9e-4a37-8ddd-6e2050aaff03"},"vehicle_type_id":"4","last_reported":1737659210,"current_range_meters":0,"station_id":"ce4bhr92rcd13ifvqhsg","pricing_plan_id":"cebpf4jnsgd1na2vs0mg"},{"bike_id":"e171ea3d-34a7-4bed-9418-eb3dcd6fd5da","system_id":"levelo_inurba_marseille","lat":43.301483,"lon":5.380751,"is_reserved":false,"is_disabled":true,"rental_uris":{"android":"levelo://app?vid=e171ea3d-34a7-4bed-9418-eb3dcd6fd5da","ios":"levelo://app?vid=e171ea3d-34a7-4bed-9418-eb3dcd6fd5da"},"vehicle_type_id":"4","last_reported":1737659210,"current_range_meters":38000,"station_id":"ce4bgjp2rcd13ifvqbh0","pricing_plan_id":"cebpf4jnsgd1na2vs0mg"},{"bike_id":"bc32fe9e-5d0d-4c67-850a-c98929b9b6c7","system_id":"levelo_inurba_marseille","lat":43.29532,"lon":5.38542,"is_reserved":false,"is_disabled":false,"rental_uris":{"android":"levelo://app?vid=bc32fe9e-5d0d-4c67-850a-c98929b9b6c7","ios":"levelo://app?vid=bc32fe9e-5d0d-4c67-850a-c98929b9b6c7"},"vehicle_type_id":"4","last_reported":1737659210,"current_range_meters":33600,"station_id":"ce4bgih2rcd13ifvqba0","pricing_plan_id":"cebpf4jnsgd1na2vs0mg"},{"bike_id":"33bdb648-9d21-4884-aef8-a671389b4fbb","system_id":"levelo_inurba_marseille","lat":43.2927,"lon":5.36839,"is_reserved":false,"is_disabled":true,"rental_uris":{"android":"levelo://app?vid=33bdb648-9d21-4884-aef8-a671389b4fbb","ios":"levelo://app?vid=33bdb648-9d21-4884-aef8-a671389b4fbb"},"vehicle_type_id":"4","last_reported":1737659210,"current_range_meters":800,"station_id":"ce4bhbp2rcd13ifvqesg","pricing_plan_id":"cebpf4jnsgd1na2vs0mg"},{"bike_id":"0931094f-243c-4e90-8628-5fcd2785e477","system_id":"levelo_inurba_marseille","lat":43.28346,"lon":5.38116,"is_reserved":false,"is_disabled":true,"rental_uris":{"android":"levelo://app?vid=0931094f-243c-4e90-8628-5fcd2785e477","ios":"levelo://app?vid=0931094f-243c-4e90-8628-5fcd2785e477"},"vehicle_type_id":"4","last_reported":1737659210,"current_range_meters":2000,"station_id":"ce4bh412rcd13ifvqdr0","pricing_plan_id":"cebpf4jnsgd1na2vs0mg"},{"bike_id":"f98a7ee0-f9fe-4556-933e-ecf6827038e5","system_id":"levelo_inurba_marseille","lat":43.29187,"lon":5.357,"is_reserved":false,"is_disabled":false,"rental_uris":{"android":"levelo://app?vid=f98a7ee0-f9fe-4556-933e-ecf6827038e5","ios":"levelo://app?vid=f98a7ee0-f9fe-4556-933e-ecf6827038e5"},"vehicle_type_id":"4","last_reported":1737659210,"current_range_meters":12000,"station_id":"","pricing_plan_id":"cebpf4jnsgd1na2vs0mg"},{"bike_id":"683af226-c0aa-4093-91f7-e63075c01d26","system_id":"levelo_inurba_marseille","lat":43.297,"lon":5.36607,"is_reserved":false,"is_disabled":false,"rental_uris":{"android":"levelo://app?vid=683af226-c0aa-4093-91f7-e63075c01d26","ios":"levelo://app?vid=683af226-c0aa-4093-91f7-e63075c01d26"},"vehicle_type_id":"4","last_reported":1737659210,"current_range_meters":18800,"station_id":"ce4bgn12rcd13ifvqbt0","pricing_plan_id":"cebpf4jnsgd1na2vs0mg"},{"bike_id":"90b8a1b1-ad54-458d-9362-f5197bbdf048","system_id":"levelo_inurba_marseille","lat":43.22938,"lon":5.35376,"is_reserved":false,"is_disabled":false,"rental_uris":{"android":"levelo://app?vid=90b8a1b1-ad54-458d-9362-f5197bbdf048","ios":"levelo://app?vid=90b8a1b1-ad54-458d-9362-f5197bbdf048"},"vehicle_type_id":"4","last_reported":1737659210,"current_range_meters":38800,"station_id":"cpo3532slgdg3j2ikp40","pricing_plan_id":"cebpf4jnsgd1na2vs0mg"},{"bike_id":"cc380291-8127-4d6a-96bb-c3c69e0e9e50","system_id":"levelo_inurba_marseille","lat":43.29035,"lon":5.39958,"is_reserved":false,"is_disabled":false,"rental_uris":{"android":"levelo://app?vid=cc380291-8127-4d6a-96bb-c3c69e0e9e50","ios":"levelo://app?vid=cc380291-8127-4d6a-96bb-c3c69e0e9e50"},"vehicle_type_id":"4","last_reported":1737659210,"current_range_meters":33200,"station_id":"ce4bh392rcd13ifvqdm0","pricing_plan_id":"cebpf4jnsgd1na2vs0mg"},{"bike_id":"656571c3-6c17-4e0d-a9af-c80324863edf","system_id":"levelo_inurba_marseille","lat":43.29166,"lon":5.35792,"is_reserved":false,"is_disabled":false,"rental_uris":{"android":"levelo://app?vid=656571c3-6c17-4e0d-a9af-c80324863edf","ios":"levelo://app?vid=656571c3-6c17-4e0d-a9af-c80324863edf"},"vehicle_type_id":"4","last_reported":1737659210,"current_range_meters":37600,"station_id":"ce4bhb12rcd13ifvqel0","pricing_plan_id":"cebpf4jnsgd1na2vs0mg"},{"bike_id":"d1338c39-3c83-4495-8214-c15d39c6cf89","system_id":"levelo_inurba_marseille","lat":43.29786,"lon":5.3934,"is_reserved":false,"is_disabled":false,"rental_uris":{"android":"levelo://app?vid=d1338c39-3c83-4495-8214-c15d39c6cf89","ios":"levelo://app?vid=d1338c39-3c83-4495-8214-c15d39c6cf89"},"vehicle_type_id":"4","last_reported":1737659210,"current_range_meters":12400,"station_id":"chh1huq6cuj3fo74tm60","pricing_plan_id":"cebpf4jnsgd1na2vs0mg"},{"bike_id":"62069f6c-3dd9-4b79-9f44-941214b1a57f","system_id":"levelo_inurba_marseille","lat":43.29939,"lon":5.36544,"is_reserved":false,"is_disabled":false,"rental_uris":{"android":"levelo://app?vid=62069f6c-3dd9-4b79-9f44-941214b1a57f","ios":"levelo://app?vid=62069f6c-3dd9-4b79-9f44-941214b1a57f"},"vehicle_type_id":"4","last_reported":1737659210,"current_range_meters":38800,"station_id":"ce4bgm92rcd13ifvqbr0","pricing_plan_id":"cebpf4jnsgd1na2vs0mg"},{"bike_id":"1c521484-0b29-41a9-9bd2-15ebb17b6cb5","system_id":"levelo_inurba_marseille","lat":43.2762,"lon":5.36099,"is_reserved":false,"is_disabled":false,"rental_uris":{"android":"levelo://app?vid=1c521484-0b29-41a9-9bd2-15ebb17b6cb5","ios":"levelo://app?vid=1c521484-0b29-41a9-9bd2-15ebb17b6cb5"},"vehicle_type_id":"4","last_reported":1737659210,"current_range_meters":39200,"station_id":"ce4bgj92rcd13ifvqbe0","pricing_plan_id":"cebpf4jnsgd1na2vs0mg"},{"bike_id":"ce90fea6-ff2a-4d0b-bd4f-45ced0acf4c0","system_id":"levelo_inurba_marseille","lat":43.32358,"lon":5.36749,"is_reserved":false,"is_disabled":false,"rental_uris":{"android":"levelo://app?vid=ce90fea6-ff2a-4d0b-bd4f-45ced0acf4c0","ios":"levelo://app?vid=ce90fea6-ff2a-4d0b-bd4f-45ced0acf4c0"},"vehicle_type_id":"4","last_reported":1737659210,"current_range_meters":10000,"station_id":"ce4bhsh2rcd13ifvqi2g","pricing_plan_id":"cebpf4jnsgd1na2vs0mg"},{"bike_id":"05eb4e75-cd59-4343-82d1-c95d3b887f99","system_id":"levelo_inurba_marseille","lat":43.29027,"lon":5.3864,"is_reserved":false,"is_disabled":false,"rental_uris":{"android":"levelo://app?vid=05eb4e75-cd59-4343-82d1-c95d3b887f99","ios":"levelo://app?vid=05eb4e75-cd59-4343-82d1-c95d3b887f99"},"vehicle_type_id":"4","last_reported":1737659210,"current_range_meters":17200,"station_id":"ce4bh4p2rcd13ifvqe0g","pricing_plan_id":"cebpf4jnsgd1na2vs0mg"},{"bike_id":"ab13439f-1c4b-4b83-ac72-9f4e6d1f64cb","system_id":"levelo_inurba_marseille","lat":43.3124,"lon":5.37972,"is_reserved":false,"is_disabled":true,"rental_uris":{"android":"levelo://app?vid=ab13439f-1c4b-4b83-ac72-9f4e6d1f64cb","ios":"levelo://app?vid=ab13439f-1c4b-4b83-ac72-9f4e6d1f64cb"},"vehicle_type_id":"4","last_reported":1737659210,"current_range_meters":9600,"station_id":"","pricing_plan_id":"cebpf4jnsgd1na2vs0mg"},{"bike_id":"d2c3071e-adcf-41bd-b088-c6978a9812a5","system_id":"levelo_inurba_marseille","lat":43.31361,"lon":5.44469,"is_reserved":false,"is_disabled":false,"rental_uris":{"android":"levelo://app?vid=d2c3071e-adcf-41bd-b088-c6978a9812a5","ios":"levelo://app?vid=d2c3071e-adcf-41bd-b088-c6978a9812a5"},"vehicle_type_id":"4","last_reported":1737659210,"current_range_meters":38800,"station_id":"","pricing_plan_id":"cebpf4jnsgd1na2vs0mg"},{"bike_id":"02394dc5-85af-47df-a8e1-31c154c9e2cc","system_id":"levelo_inurba_marseille","lat":43.231869,"lon":5.399823,"is_reserved":false,"is_disabled":false,"rental_uris":{"android":"levelo://app?vid=02394dc5-85af-47df-a8e1-31c154c9e2cc","ios":"levelo://app?vid=02394dc5-85af-47df-a8e1-31c154c9e2cc"},"vehicle_type_id":"4","last_reported":1737659210,"current_range_meters":36800,"station_id":"ce4bhn12rcd13ifvqgqg","pricing_plan_id":"cebpf4jnsgd1na2vs0mg"},{"bike_id":"6ed99b05-90d4-4499-bf4d-c3f179d05905","system_id":"levelo_inurba_marseille","lat":43.25112,"lon":5.40314,"is_reserved":false,"is_disabled":false,"rental_uris":{"android":"levelo://app?vid=6ed99b05-90d4-4499-bf4d-c3f179d05905","ios":"levelo://app?vid=6ed99b05-90d4-4499-bf4d-c3f179d05905"},"vehicle_type_id":"4","last_reported":1737659210,"current_range_meters":14000,"station_id":"ce4bhlh2rcd13ifvqgig","pricing_plan_id":"cebpf4jnsgd1na2vs0mg"},{"bike_id":"f727cadd-b012-439d-9f69-5c90e77b0085","system_id":"levelo_inurba_marseille","lat":43.31762,"lon":5.39019,"is_reserved":false,"is_disabled":false,"rental_uris":{"android":"levelo://app?vid=f727cadd-b012-439d-9f69-5c90e77b0085","ios":"levelo://app?vid=f727cadd-b012-439d-9f69-5c90e77b0085"},"vehicle_type_id":"4","last_reported":1737659210,"current_range_meters":10800,"station_id":"ce4bhqp2rcd13ifvqhng","pricing_plan_id":"cebpf4jnsgd1na2vs0mg"},{"bike_id":"399b3fdf-9b49-42ac-b584-cb416615eafc","system_id":"levelo_inurba_marseille","lat":43.29374,"lon":5.3783,"is_reserved":false,"is_disabled":false,"rental_uris":{"android":"levelo://app?vid=399b3fdf-9b49-42ac-b584-cb416615eafc","ios":"levelo://app?vid=399b3fdf-9b49-42ac-b584-cb416615eafc"},"vehicle_type_id":"4","last_reported":1737659210,"current_range_meters":27200,"station_id":"ce4bgjh2rcd13ifvqbf0","pricing_plan_id":"cebpf4jnsgd1na2vs0mg"},{"bike_id":"fa55ba12-9520-4bd9-8fbf-899360165406","system_id":"levelo_inurba_marseille","lat":43.29027,"lon":5.3863,"is_reserved":false,"is_disabled":false,"rental_uris":{"android":"levelo://app?vid=fa55ba12-9520-4bd9-8fbf-899360165406","ios":"levelo://app?vid=fa55ba12-9520-4bd9-8fbf-899360165406"},"vehicle_type_id":"4","last_reported":1737659210,"current_range_meters":27600,"station_id":"ce4bh4p2rcd13ifvqe0g","pricing_plan_id":"cebpf4jnsgd1na2vs0mg"},{"bike_id":"9cd4e814-e85b-400e-b01e-0420b0690d4b","system_id":"levelo_inurba_marseille","lat":43.29706,"lon":5.36612,"is_reserved":false,"is_disabled":false,"rental_uris":{"android":"levelo://app?vid=9cd4e814-e85b-400e-b01e-0420b0690d4b","ios":"levelo://app?vid=9cd4e814-e85b-400e-b01e-0420b0690d4b"},"vehicle_type_id":"4","last_reported":1737659210,"current_range_meters":7200,"station_id":"ce4bgn12rcd13ifvqbt0","pricing_plan_id":"cebpf4jnsgd1na2vs0mg"},{"bike_id":"852c4b2c-ff0b-4349-b1ad-8f4566913b6c","system_id":"levelo_inurba_marseille","lat":43.29712,"lon":5.37693,"is_reserved":false,"is_disabled":true,"rental_uris":{"android":"levelo://app?vid=852c4b2c-ff0b-4349-b1ad-8f4566913b6c","ios":"levelo://app?vid=852c4b2c-ff0b-4349-b1ad-8f4566913b6c"},"vehicle_type_id":"4","last_reported":1737659210,"current_range_meters":0,"station_id":"ce4bgkh2rcd13ifvqbl0","pricing_plan_id":"cebpf4jnsgd1na2vs0mg"},{"bike_id":"78fdab03-275f-4f4e-89ae-49e9a29fa9c1","system_id":"levelo_inurba_marseille","lat":43.24178,"lon":5.39728,"is_reserved":false,"is_disabled":false,"rental_uris":{"android":"levelo://app?vid=78fdab03-275f-4f4e-89ae-49e9a29fa9c1","ios":"levelo://app?vid=78fdab03-275f-4f4e-89ae-49e9a29fa9c1"},"vehicle_type_id":"4","last_reported":1737659210,"current_range_meters":14000,"station_id":"ce4bhn12rcd13ifvqgpg","pricing_plan_id":"cebpf4jnsgd1na2vs0mg"},{"bike_id":"b908caa5-f3a7-40cb-a00e-5d24943280f5","system_id":"levelo_inurba_marseille","lat":43.30133,"lon":5.39858,"is_reserved":false,"is_disabled":false,"rental_uris":{"android":"levelo://app?vid=b908caa5-f3a7-40cb-a00e-5d24943280f5","ios":"levelo://app?vid=b908caa5-f3a7-40cb-a00e-5d24943280f5"},"vehicle_type_id":"4","last_reported":1737659210,"current_range_meters":36400,"station_id":"ce4bh0h2rcd13ifvqd40","pricing_plan_id":"cebpf4jnsgd1na2vs0mg"},{"bike_id":"a6589423-f81d-43db-8547-4d93d0a4d5b1","system_id":"levelo_inurba_marseille","lat":43.3094,"lon":5.40147,"is_reserved":false,"is_disabled":false,"rental_uris":{"android":"levelo://app?vid=a6589423-f81d-43db-8547-4d93d0a4d5b1","ios":"levelo://app?vid=a6589423-f81d-43db-8547-4d93d0a4d5b1"},"vehicle_type_id":"4","last_reported":1737659210,"current_range_meters":38400,"station_id":"ce4bgvp2rcd13ifvqct0","pricing_plan_id":"cebpf4jnsgd1na2vs0mg"},{"bike_id":"d9116d70-9fe4-4bfa-813f-a05c0ef23908","system_id":"levelo_inurba_marseille","lat":43.28575,"lon":5.39499,"is_reserved":false,"is_disabled":false,"rental_uris":{"android":"levelo://app?vid=d9116d70-9fe4-4bfa-813f-a05c0ef23908","ios":"levelo://app?vid=d9116d70-9fe4-4bfa-813f-a05c0ef23908"},"vehicle_type_id":"4","last_reported":1737659210,"current_range_meters":28400,"station_id":"ce4bh292rcd13ifvqdg0","pricing_plan_id":"cebpf4jnsgd1na2vs0mg"},{"bike_id":"08e327aa-4f5b-4e8a-b7e7-01baaa34cbd9","system_id":"levelo_inurba_marseille","lat":43.27997,"lon":5.40024,"is_reserved":false,"is_disabled":false,"rental_uris":{"android":"levelo://app?vid=08e327aa-4f5b-4e8a-b7e7-01baaa34cbd9","ios":"levelo://app?vid=08e327aa-4f5b-4e8a-b7e7-01baaa34cbd9"},"vehicle_type_id":"4","last_reported":1737659210,"current_range_meters":38800,"station_id":"ce4bho92rcd13ifvqh4g","pricing_plan_id":"cebpf4jnsgd1na2vs0mg"},{"bike_id":"acb23a67-c708-4e69-adcd-37fdba94603e","system_id":"levelo_inurba_marseille","lat":43.27847,"lon":5.38514,"is_reserved":false,"is_disabled":false,"rental_uris":{"android":"levelo://app?vid=acb23a67-c708-4e69-adcd-37fdba94603e","ios":"levelo://app?vid=acb23a67-c708-4e69-adcd-37fdba94603e"},"vehicle_type_id":"4","last_reported":1737659210,"current_range_meters":9600,"station_id":"","pricing_plan_id":"cebpf4jnsgd1na2vs0mg"},{"bike_id":"2caef5e1-68d0-412f-8a3e-b378117b2ef4","system_id":"levelo_inurba_marseille","lat":43.25086,"lon":5.39522,"is_reserved":false,"is_disabled":false,"rental_uris":{"android":"levelo://app?vid=2caef5e1-68d0-412f-8a3e-b378117b2ef4","ios":"levelo://app?vid=2caef5e1-68d0-412f-8a3e-b378117b2ef4"},"vehicle_type_id":"4","last_reported":1737659210,"current_range_meters":27600,"station_id":"ce4bhm12rcd13ifvqgkg","pricing_plan_id":"cebpf4jnsgd1na2vs0mg"},{"bike_id":"1cf55402-87c5-435d-85af-2c6c0e9ef152","system_id":"levelo_inurba_marseille","lat":43.32488,"lon":5.36552,"is_reserved":false,"is_disabled":false,"rental_uris":{"android":"levelo://app?vid=1cf55402-87c5-435d-85af-2c6c0e9ef152","ios":"levelo://app?vid=1cf55402-87c5-435d-85af-2c6c0e9ef152"},"vehicle_type_id":"4","last_reported":1737659210,"current_range_meters":7200,"station_id":"ce4bhs12rcd13ifvqhvg","pricing_plan_id":"cebpf4jnsgd1na2vs0mg"},{"bike_id":"66fa9073-c159-445d-a494-1e0beded8a13","system_id":"levelo_inurba_marseille","lat":43.22927,"lon":5.35376,"is_reserved":false,"is_disabled":false,"rental_uris":{"android":"levelo://app?vid=66fa9073-c159-445d-a494-1e0beded8a13","ios":"levelo://app?vid=66fa9073-c159-445d-a494-1e0beded8a13"},"vehicle_type_id":"4","last_reported":1737659210,"current_range_meters":32400,"station_id":"cpo3532slgdg3j2ikp40","pricing_plan_id":"cebpf4jnsgd1na2vs0mg"},{"bike_id":"e505fad4-237b-4dd9-bd13-a8b88153cfa5","system_id":"levelo_inurba_marseille","lat":43.29226,"lon":5.36039,"is_reserved":false,"is_disabled":false,"rental_uris":{"android":"levelo://app?vid=e505fad4-237b-4dd9-bd13-a8b88153cfa5","ios":"levelo://app?vid=e505fad4-237b-4dd9-bd13-a8b88153cfa5"},"vehicle_type_id":"4","last_reported":1737659210,"current_range_meters":38800,"station_id":"ce4bhbh2rcd13ifvqeqg","pricing_plan_id":"cebpf4jnsgd1na2vs0mg"},{"bike_id":"f7f20ea8-ac89-40b3-bd17-c73f31722701","system_id":"levelo_inurba_marseille","lat":43.299015,"lon":5.4368,"is_reserved":false,"is_disabled":false,"rental_uris":{"android":"levelo://app?vid=f7f20ea8-ac89-40b3-bd17-c73f31722701","ios":"levelo://app?vid=f7f20ea8-ac89-40b3-bd17-c73f31722701"},"vehicle_type_id":"4","last_reported":1737659210,"current_range_meters":6400,"station_id":"ce4bhpp2rcd13ifvqhfg","pricing_plan_id":"cebpf4jnsgd1na2vs0mg"},{"bike_id":"d7c147af-d33c-4d5f-826c-e178adad30bd","system_id":"levelo_inurba_marseille","lat":43.28153,"lon":5.42642,"is_reserved":false,"is_disabled":false,"rental_uris":{"android":"levelo://app?vid=d7c147af-d33c-4d5f-826c-e178adad30bd","ios":"levelo://app?vid=d7c147af-d33c-4d5f-826c-e178adad30bd"},"vehicle_type_id":"4","last_reported":1737659210,"current_range_meters":4000,"station_id":"ce4bhnh2rcd13ifvqgug","pricing_plan_id":"cebpf4jnsgd1na2vs0mg"},{"bike_id":"57ce499e-d4f7-4b47-be4a-ba8113d200a0","system_id":"levelo_inurba_marseille","lat":43.279924,"lon":5.416506,"is_reserved":false,"is_disabled":false,"rental_uris":{"android":"levelo://app?vid=57ce499e-d4f7-4b47-be4a-ba8113d200a0","ios":"levelo://app?vid=57ce499e-d4f7-4b47-be4a-ba8113d200a0"},"vehicle_type_id":"4","last_reported":1737659210,"current_range_meters":19200,"station_id":"ce4bho12rcd13ifvqh1g","pricing_plan_id":"cebpf4jnsgd1na2vs0mg"},{"bike_id":"232b25b7-fa81-4630-9104-082348ac0480","system_id":"levelo_inurba_marseille","lat":43.28004,"lon":5.40003,"is_reserved":false,"is_disabled":false,"rental_uris":{"android":"levelo://app?vid=232b25b7-fa81-4630-9104-082348ac0480","ios":"levelo://app?vid=232b25b7-fa81-4630-9104-082348ac0480"},"vehicle_type_id":"4","last_reported":1737659210,"current_range_meters":38800,"station_id":"ce4bho92rcd13ifvqh4g","pricing_plan_id":"cebpf4jnsgd1na2vs0mg"},{"bike_id":"f7d48dec-58d8-4d1f-9306-318a3e03c002","system_id":"levelo_inurba_marseille","lat":43.2919,"lon":5.35801,"is_reserved":false,"is_disabled":false,"rental_uris":{"android":"levelo://app?vid=f7d48dec-58d8-4d1f-9306-318a3e03c002","ios":"levelo://app?vid=f7d48dec-58d8-4d1f-9306-318a3e03c002"},"vehicle_type_id":"4","last_reported":1737659210,"current_range_meters":37600,"station_id":"ce4bhb12rcd13ifvqel0","pricing_plan_id":"cebpf4jnsgd1na2vs0mg"},{"bike_id":"578d9801-98ad-40a2-837a-36390d0f2ab9","system_id":"levelo_inurba_marseille","lat":43.28155,"lon":5.42646,"is_reserved":false,"is_disabled":false,"rental_uris":{"android":"levelo://app?vid=578d9801-98ad-40a2-837a-36390d0f2ab9","ios":"levelo://app?vid=578d9801-98ad-40a2-837a-36390d0f2ab9"},"vehicle_type_id":"4","last_reported":1737659210,"current_range_meters":16400,"station_id":"ce4bhnh2rcd13ifvqgug","pricing_plan_id":"cebpf4jnsgd1na2vs0mg"},{"bike_id":"e5918268-d163-4dfc-934a-8c03f49f9ea3","system_id":"levelo_inurba_marseille","lat":43.27004,"lon":5.39946,"is_reserved":false,"is_disabled":false,"rental_uris":{"android":"levelo://app?vid=e5918268-d163-4dfc-934a-8c03f49f9ea3","ios":"levelo://app?vid=e5918268-d163-4dfc-934a-8c03f49f9ea3"},"vehicle_type_id":"4","last_reported":1737659210,"current_range_meters":18800,"station_id":"","pricing_plan_id":"cebpf4jnsgd1na2vs0mg"},{"bike_id":"7a55f28a-5a5b-4ca4-9825-dee123c17d08","system_id":"levelo_inurba_marseille","lat":43.32111,"lon":5.36787,"is_reserved":false,"is_disabled":true,"rental_uris":{"android":"levelo://app?vid=7a55f28a-5a5b-4ca4-9825-dee123c17d08","ios":"levelo://app?vid=7a55f28a-5a5b-4ca4-9825-dee123c17d08"},"vehicle_type_id":"4","last_reported":1737659210,"current_range_meters":0,"station_id":"ce4bhrh2rcd13ifvqhug","pricing_plan_id":"cebpf4jnsgd1na2vs0mg"},{"bike_id":"f0208806-e1b0-489f-a2fc-522f90f16b25","system_id":"levelo_inurba_marseille","lat":43.2808,"lon":5.39659,"is_reserved":false,"is_disabled":false,"rental_uris":{"android":"levelo://app?vid=f0208806-e1b0-489f-a2fc-522f90f16b25","ios":"levelo://app?vid=f0208806-e1b0-489f-a2fc-522f90f16b25"},"vehicle_type_id":"4","last_reported":1737659210,"current_range_meters":16000,"station_id":"ce4bho12rcd13ifvqh2g","pricing_plan_id":"cebpf4jnsgd1na2vs0mg"},{"bike_id":"0b2a2800-498d-4127-8ed4-b23212f28979","system_id":"levelo_inurba_marseille","lat":43.27957,"lon":5.38711,"is_reserved":false,"is_disabled":false,"rental_uris":{"android":"levelo://app?vid=0b2a2800-498d-4127-8ed4-b23212f28979","ios":"levelo://app?vid=0b2a2800-498d-4127-8ed4-b23212f28979"},"vehicle_type_id":"4","last_reported":1737659210,"current_range_meters":2800,"station_id":"ce4bhg12rcd13ifvqf80","pricing_plan_id":"cebpf4jnsgd1na2vs0mg"},{"bike_id":"7ae57d4a-987c-4a94-bf67-7089b41c8d83","system_id":"levelo_inurba_marseille","lat":43.276164,"lon":5.36108,"is_reserved":false,"is_disabled":true,"rental_uris":{"android":"levelo://app?vid=7ae57d4a-987c-4a94-bf67-7089b41c8d83","ios":"levelo://app?vid=7ae57d4a-987c-4a94-bf67-7089b41c8d83"},"vehicle_type_id":"4","last_reported":1737659210,"current_range_meters":1600,"station_id":"ce4bgj92rcd13ifvqbe0","pricing_plan_id":"cebpf4jnsgd1na2vs0mg"},{"bike_id":"830968a3-7847-42a1-b649-6a27a59fba99","system_id":"levelo_inurba_marseille","lat":43.31479,"lon":5.37307,"is_reserved":false,"is_disabled":true,"rental_uris":{"android":"levelo://app?vid=830968a3-7847-42a1-b649-6a27a59fba99","ios":"levelo://app?vid=830968a3-7847-42a1-b649-6a27a59fba99"},"vehicle_type_id":"4","last_reported":1737659210,"current_range_meters":800,"station_id":"ce4bgt12rcd13ifvqcd0","pricing_plan_id":"cebpf4jnsgd1na2vs0mg"},{"bike_id":"acc9e968-42f2-443f-bb58-cd32856c66f2","system_id":"levelo_inurba_marseille","lat":43.28416,"lon":5.37516,"is_reserved":false,"is_disabled":false,"rental_uris":{"android":"levelo://app?vid=acc9e968-42f2-443f-bb58-cd32856c66f2","ios":"levelo://app?vid=acc9e968-42f2-443f-bb58-cd32856c66f2"},"vehicle_type_id":"4","last_reported":1737659210,"current_range_meters":28000,"station_id":"ce4bh412rcd13ifvqds0","pricing_plan_id":"cebpf4jnsgd1na2vs0mg"},{"bike_id":"6a200a6c-be29-4daf-8a99-35eadd55ad94","system_id":"levelo_inurba_marseille","lat":43.29423,"lon":5.38621,"is_reserved":false,"is_disabled":false,"rental_uris":{"android":"levelo://app?vid=6a200a6c-be29-4daf-8a99-35eadd55ad94","ios":"levelo://app?vid=6a200a6c-be29-4daf-8a99-35eadd55ad94"},"vehicle_type_id":"4","last_reported":1737659210,"current_range_meters":39200,"station_id":"ce4bh2h2rcd13ifvqdh0","pricing_plan_id":"cebpf4jnsgd1na2vs0mg"},{"bike_id":"4b858b21-a4bf-4549-b807-021b7d9ec303","system_id":"levelo_inurba_marseille","lat":43.26945,"lon":5.38641,"is_reserved":false,"is_disabled":false,"rental_uris":{"android":"levelo://app?vid=4b858b21-a4bf-4549-b807-021b7d9ec303","ios":"levelo://app?vid=4b858b21-a4bf-4549-b807-021b7d9ec303"},"vehicle_type_id":"4","last_reported":1737659210,"current_range_meters":39200,"station_id":"ce4bhh92rcd13ifvqfh0","pricing_plan_id":"cebpf4jnsgd1na2vs0mg"},{"bike_id":"35614ed7-a0df-4792-bca2-a1978fcd9fab","system_id":"levelo_inurba_marseille","lat":43.308,"lon":5.43527,"is_reserved":false,"is_disabled":true,"rental_uris":{"android":"levelo://app?vid=35614ed7-a0df-4792-bca2-a1978fcd9fab","ios":"levelo://app?vid=35614ed7-a0df-4792-bca2-a1978fcd9fab"},"vehicle_type_id":"4","last_reported":1737659210,"current_range_meters":0,"station_id":"ce4bhph2rcd13ifvqheg","pricing_plan_id":"cebpf4jnsgd1na2vs0mg"},{"bike_id":"59330309-df9a-48c4-9235-796da7a2782d","system_id":"levelo_inurba_marseille","lat":43.30789,"lon":5.43515,"is_reserved":false,"is_disabled":true,"rental_uris":{"android":"levelo://app?vid=59330309-df9a-48c4-9235-796da7a2782d","ios":"levelo://app?vid=59330309-df9a-48c4-9235-796da7a2782d"},"vehicle_type_id":"4","last_reported":1737659210,"current_range_meters":0,"station_id":"ce4bhph2rcd13ifvqheg","pricing_plan_id":"cebpf4jnsgd1na2vs0mg"},{"bike_id":"04dc4e84-9dbf-4137-b96e-cf425434aa10","system_id":"levelo_inurba_marseille","lat":43.28946,"lon":5.36635,"is_reserved":false,"is_disabled":false,"rental_uris":{"android":"levelo://app?vid=04dc4e84-9dbf-4137-b96e-cf425434aa10","ios":"levelo://app?vid=04dc4e84-9dbf-4137-b96e-cf425434aa10"},"vehicle_type_id":"4","last_reported":1737659210,"current_range_meters":8800,"station_id":"ce4bhap2rcd13ifvqek0","pricing_plan_id":"cebpf4jnsgd1na2vs0mg"},{"bike_id":"8661b5e3-5c50-41b5-9990-f6cea7332865","system_id":"levelo_inurba_marseille","lat":43.29198,"lon":5.357993,"is_reserved":false,"is_disabled":false,"rental_uris":{"android":"levelo://app?vid=8661b5e3-5c50-41b5-9990-f6cea7332865","ios":"levelo://app?vid=8661b5e3-5c50-41b5-9990-f6cea7332865"},"vehicle_type_id":"4","last_reported":1737659210,"current_range_meters":38800,"station_id":"ce4bhb12rcd13ifvqel0","pricing_plan_id":"cebpf4jnsgd1na2vs0mg"},{"bike_id":"d46258ed-a962-4de8-8236-a55809280d9c","system_id":"levelo_inurba_marseille","lat":43.31756,"lon":5.39014,"is_reserved":false,"is_disabled":false,"rental_uris":{"android":"levelo://app?vid=d46258ed-a962-4de8-8236-a55809280d9c","ios":"levelo://app?vid=d46258ed-a962-4de8-8236-a55809280d9c"},"vehicle_type_id":"4","last_reported":1737659210,"current_range_meters":26800,"station_id":"ce4bhqp2rcd13ifvqhng","pricing_plan_id":"cebpf4jnsgd1na2vs0mg"},{"bike_id":"5e0169dd-cfb6-4345-b9e5-59ab64e75e4d","system_id":"levelo_inurba_marseille","lat":43.32299,"lon":5.3824,"is_reserved":false,"is_disabled":false,"rental_uris":{"android":"levelo://app?vid=5e0169dd-cfb6-4345-b9e5-59ab64e75e4d","ios":"levelo://app?vid=5e0169dd-cfb6-4345-b9e5-59ab64e75e4d"},"vehicle_type_id":"4","last_reported":1737659210,"current_range_meters":38800,"station_id":"ce4bhr12rcd13ifvqhqg","pricing_plan_id":"cebpf4jnsgd1na2vs0mg"},{"bike_id":"bf49bae2-9c26-4641-9558-b17e1f3df312","system_id":"levelo_inurba_marseille","lat":43.23187,"lon":5.39972,"is_reserved":false,"is_disabled":false,"rental_uris":{"android":"levelo://app?vid=bf49bae2-9c26-4641-9558-b17e1f3df312","ios":"levelo://app?vid=bf49bae2-9c26-4641-9558-b17e1f3df312"},"vehicle_type_id":"4","last_reported":1737659210,"current_range_meters":38800,"station_id":"ce4bhn12rcd13ifvqgqg","pricing_plan_id":"cebpf4jnsgd1na2vs0mg"},{"bike_id":"96bd9e64-ec79-445f-af92-f8aeeeeb8575","system_id":"levelo_inurba_marseille","lat":43.28425,"lon":5.37519,"is_reserved":false,"is_disabled":false,"rental_uris":{"android":"levelo://app?vid=96bd9e64-ec79-445f-af92-f8aeeeeb8575","ios":"levelo://app?vid=96bd9e64-ec79-445f-af92-f8aeeeeb8575"},"vehicle_type_id":"4","last_reported":1737659210,"current_range_meters":11200,"station_id":"ce4bh412rcd13ifvqds0","pricing_plan_id":"cebpf4jnsgd1na2vs0mg"},{"bike_id":"1f435d6e-5396-4e52-9170-20c8b82a82eb","system_id":"levelo_inurba_marseille","lat":43.3107,"lon":5.38347,"is_reserved":false,"is_disabled":false,"rental_uris":{"android":"levelo://app?vid=1f435d6e-5396-4e52-9170-20c8b82a82eb","ios":"levelo://app?vid=1f435d6e-5396-4e52-9170-20c8b82a82eb"},"vehicle_type_id":"4","last_reported":1737659210,"current_range_meters":17200,"station_id":"ce4bgv92rcd13ifvqcr0","pricing_plan_id":"cebpf4jnsgd1na2vs0mg"},{"bike_id":"a909192c-b42e-42fd-897a-26537d9a69e9","system_id":"levelo_inurba_marseille","lat":43.29975,"lon":5.41321,"is_reserved":false,"is_disabled":false,"rental_uris":{"android":"levelo://app?vid=a909192c-b42e-42fd-897a-26537d9a69e9","ios":"levelo://app?vid=a909192c-b42e-42fd-897a-26537d9a69e9"},"vehicle_type_id":"4","last_reported":1737659210,"current_range_meters":14400,"station_id":"ce4bhp12rcd13ifvqh9g","pricing_plan_id":"cebpf4jnsgd1na2vs0mg"},{"bike_id":"eb3ca7ae-a1ea-4fc7-908d-1a734718f0d6","system_id":"levelo_inurba_marseille","lat":43.28419,"lon":5.37518,"is_reserved":false,"is_disabled":false,"rental_uris":{"android":"levelo://app?vid=eb3ca7ae-a1ea-4fc7-908d-1a734718f0d6","ios":"levelo://app?vid=eb3ca7ae-a1ea-4fc7-908d-1a734718f0d6"},"vehicle_type_id":"4","last_reported":1737659210,"current_range_meters":10000,"station_id":"ce4bh412rcd13ifvqds0","pricing_plan_id":"cebpf4jnsgd1na2vs0mg"},{"bike_id":"0835fdee-96cd-4bac-a68b-50000a930abe","system_id":"levelo_inurba_marseille","lat":43.298542,"lon":5.362928,"is_reserved":false,"is_disabled":false,"rental_uris":{"android":"levelo://app?vid=0835fdee-96cd-4bac-a68b-50000a930abe","ios":"levelo://app?vid=0835fdee-96cd-4bac-a68b-50000a930abe"},"vehicle_type_id":"4","last_reported":1737659210,"current_range_meters":38800,"station_id":"ce4bgpp2rcd13ifvqc3g","pricing_plan_id":"cebpf4jnsgd1na2vs0mg"},{"bike_id":"61e72528-5de1-4c6b-b1a4-02485f947e82","system_id":"levelo_inurba_marseille","lat":43.30887,"lon":5.39653,"is_reserved":false,"is_disabled":false,"rental_uris":{"android":"levelo://app?vid=61e72528-5de1-4c6b-b1a4-02485f947e82","ios":"levelo://app?vid=61e72528-5de1-4c6b-b1a4-02485f947e82"},"vehicle_type_id":"4","last_reported":1737659210,"current_range_meters":29600,"station_id":"ce4bh012rcd13ifvqcv0","pricing_plan_id":"cebpf4jnsgd1na2vs0mg"},{"bike_id":"730a19d7-8638-4500-9d66-b33219f24537","system_id":"levelo_inurba_marseille","lat":43.308,"lon":5.43516,"is_reserved":false,"is_disabled":false,"rental_uris":{"android":"levelo://app?vid=730a19d7-8638-4500-9d66-b33219f24537","ios":"levelo://app?vid=730a19d7-8638-4500-9d66-b33219f24537"},"vehicle_type_id":"4","last_reported":1737659210,"current_range_meters":24800,"station_id":"ce4bhph2rcd13ifvqheg","pricing_plan_id":"cebpf4jnsgd1na2vs0mg"},{"bike_id":"d2b4ed73-d7f8-4c49-bef7-db3f88698c80","system_id":"levelo_inurba_marseille","lat":43.30318,"lon":5.40426,"is_reserved":false,"is_disabled":false,"rental_uris":{"android":"levelo://app?vid=d2b4ed73-d7f8-4c49-bef7-db3f88698c80","ios":"levelo://app?vid=d2b4ed73-d7f8-4c49-bef7-db3f88698c80"},"vehicle_type_id":"4","last_reported":1737659210,"current_range_meters":38800,"station_id":"ce4bh012rcd13ifvqd10","pricing_plan_id":"cebpf4jnsgd1na2vs0mg"},{"bike_id":"f2a423d2-541a-4d27-98b1-bbdc8f11174c","system_id":"levelo_inurba_marseille","lat":43.30596,"lon":5.39344,"is_reserved":false,"is_disabled":true,"rental_uris":{"android":"levelo://app?vid=f2a423d2-541a-4d27-98b1-bbdc8f11174c","ios":"levelo://app?vid=f2a423d2-541a-4d27-98b1-bbdc8f11174c"},"vehicle_type_id":"4","last_reported":1737659210,"current_range_meters":8800,"station_id":"ce4bh0p2rcd13ifvqd80","pricing_plan_id":"cebpf4jnsgd1na2vs0mg"},{"bike_id":"90562b19-8802-4e76-a682-f90dad6ec469","system_id":"levelo_inurba_marseille","lat":43.29542,"lon":5.3854,"is_reserved":false,"is_disabled":true,"rental_uris":{"android":"levelo://app?vid=90562b19-8802-4e76-a682-f90dad6ec469","ios":"levelo://app?vid=90562b19-8802-4e76-a682-f90dad6ec469"},"vehicle_type_id":"4","last_reported":1737659210,"current_range_meters":1200,"station_id":"ce4bgih2rcd13ifvqba0","pricing_plan_id":"cebpf4jnsgd1na2vs0mg"},{"bike_id":"9863b7f9-4316-4322-9f6c-3cc66b0448e2","system_id":"levelo_inurba_marseille","lat":43.279439,"lon":5.389008,"is_reserved":false,"is_disabled":true,"rental_uris":{"android":"levelo://app?vid=9863b7f9-4316-4322-9f6c-3cc66b0448e2","ios":"levelo://app?vid=9863b7f9-4316-4322-9f6c-3cc66b0448e2"},"vehicle_type_id":"4","last_reported":1737659210,"current_range_meters":23200,"station_id":"","pricing_plan_id":"cebpf4jnsgd1na2vs0mg"},{"bike_id":"a500873e-6683-42d5-9071-d5e5d7732db1","system_id":"levelo_inurba_marseille","lat":43.25865,"lon":5.399,"is_reserved":false,"is_disabled":false,"rental_uris":{"android":"levelo://app?vid=a500873e-6683-42d5-9071-d5e5d7732db1","ios":"levelo://app?vid=a500873e-6683-42d5-9071-d5e5d7732db1"},"vehicle_type_id":"4","last_reported":1737659210,"current_range_meters":26800,"station_id":"ce4bhl92rcd13ifvqghg","pricing_plan_id":"cebpf4jnsgd1na2vs0mg"},{"bike_id":"ab927040-bfc3-4782-b1b3-ffbf9d71bc34","system_id":"levelo_inurba_marseille","lat":43.26685,"lon":5.38275,"is_reserved":false,"is_disabled":true,"rental_uris":{"android":"levelo://app?vid=ab927040-bfc3-4782-b1b3-ffbf9d71bc34","ios":"levelo://app?vid=ab927040-bfc3-4782-b1b3-ffbf9d71bc34"},"vehicle_type_id":"4","last_reported":1737659210,"current_range_meters":38800,"station_id":"ce4bhg92rcd13ifvqf90","pricing_plan_id":"cebpf4jnsgd1na2vs0mg"},{"bike_id":"b2fbce03-fc73-43fc-8310-00d51a36d835","system_id":"levelo_inurba_marseille","lat":43.29418,"lon":5.38629,"is_reserved":false,"is_disabled":false,"rental_uris":{"android":"levelo://app?vid=b2fbce03-fc73-43fc-8310-00d51a36d835","ios":"levelo://app?vid=b2fbce03-fc73-43fc-8310-00d51a36d835"},"vehicle_type_id":"4","last_reported":1737659210,"current_range_meters":12800,"station_id":"ce4bh2h2rcd13ifvqdh0","pricing_plan_id":"cebpf4jnsgd1na2vs0mg"},{"bike_id":"e11d5e25-e272-47e7-bd8a-065bf108edeb","system_id":"levelo_inurba_marseille","lat":43.29261,"lon":5.3843,"is_reserved":false,"is_disabled":true,"rental_uris":{"android":"levelo://app?vid=e11d5e25-e272-47e7-bd8a-065bf108edeb","ios":"levelo://app?vid=e11d5e25-e272-47e7-bd8a-065bf108edeb"},"vehicle_type_id":"4","last_reported":1737659210,"current_range_meters":17600,"station_id":"ce4bh692rcd13ifvqea0","pricing_plan_id":"cebpf4jnsgd1na2vs0mg"},{"bike_id":"7555df76-45e5-4931-82aa-7216ceb1ea14","system_id":"levelo_inurba_marseille","lat":43.25861,"lon":5.39899,"is_reserved":false,"is_disabled":false,"rental_uris":{"android":"levelo://app?vid=7555df76-45e5-4931-82aa-7216ceb1ea14","ios":"levelo://app?vid=7555df76-45e5-4931-82aa-7216ceb1ea14"},"vehicle_type_id":"4","last_reported":1737659210,"current_range_meters":9600,"station_id":"ce4bhl92rcd13ifvqghg","pricing_plan_id":"cebpf4jnsgd1na2vs0mg"},{"bike_id":"06da5a03-a1cf-4627-bbde-b0c6e3dc81fb","system_id":"levelo_inurba_marseille","lat":43.28665,"lon":5.36352,"is_reserved":false,"is_disabled":false,"rental_uris":{"android":"levelo://app?vid=06da5a03-a1cf-4627-bbde-b0c6e3dc81fb","ios":"levelo://app?vid=06da5a03-a1cf-4627-bbde-b0c6e3dc81fb"},"vehicle_type_id":"4","last_reported":1737659210,"current_range_meters":31200,"station_id":"ce4bhah2rcd13ifvqej0","pricing_plan_id":"cebpf4jnsgd1na2vs0mg"},{"bike_id":"4dd035c2-8bfe-47d6-9f60-337813e84467","system_id":"levelo_inurba_marseille","lat":43.3107,"lon":5.3835,"is_reserved":false,"is_disabled":false,"rental_uris":{"android":"levelo://app?vid=4dd035c2-8bfe-47d6-9f60-337813e84467","ios":"levelo://app?vid=4dd035c2-8bfe-47d6-9f60-337813e84467"},"vehicle_type_id":"4","last_reported":1737659210,"current_range_meters":28000,"station_id":"ce4bgv92rcd13ifvqcr0","pricing_plan_id":"cebpf4jnsgd1na2vs0mg"},{"bike_id":"89755512-a191-4337-a2e9-b7f75b594ae4","system_id":"levelo_inurba_marseille","lat":43.29785,"lon":5.39336,"is_reserved":false,"is_disabled":true,"rental_uris":{"android":"levelo://app?vid=89755512-a191-4337-a2e9-b7f75b594ae4","ios":"levelo://app?vid=89755512-a191-4337-a2e9-b7f75b594ae4"},"vehicle_type_id":"4","last_reported":1737659210,"current_range_meters":1600,"station_id":"chh1huq6cuj3fo74tm60","pricing_plan_id":"cebpf4jnsgd1na2vs0mg"},{"bike_id":"de0b815b-0972-42a1-b5c0-b465f84342ac","system_id":"levelo_inurba_marseille","lat":43.239507,"lon":5.36647,"is_reserved":false,"is_disabled":false,"rental_uris":{"android":"levelo://app?vid=de0b815b-0972-42a1-b5c0-b465f84342ac","ios":"levelo://app?vid=de0b815b-0972-42a1-b5c0-b465f84342ac"},"vehicle_type_id":"4","last_reported":1737659210,"current_range_meters":28000,"station_id":"ce4bhi12rcd13ifvqfp0","pricing_plan_id":"cebpf4jnsgd1na2vs0mg"},{"bike_id":"88c68bd3-ae6d-44f9-8c55-92579b0843ad","system_id":"levelo_inurba_marseille","lat":43.31995,"lon":5.38156,"is_reserved":false,"is_disabled":false,"rental_uris":{"android":"levelo://app?vid=88c68bd3-ae6d-44f9-8c55-92579b0843ad","ios":"levelo://app?vid=88c68bd3-ae6d-44f9-8c55-92579b0843ad"},"vehicle_type_id":"4","last_reported":1737659210,"current_range_meters":39200,"station_id":"ce4bhr12rcd13ifvqhpg","pricing_plan_id":"cebpf4jnsgd1na2vs0mg"},{"bike_id":"4f55d06d-86a5-4457-9f9b-0d66dd972c6a","system_id":"levelo_inurba_marseille","lat":43.25009,"lon":5.38946,"is_reserved":false,"is_disabled":false,"rental_uris":{"android":"levelo://app?vid=4f55d06d-86a5-4457-9f9b-0d66dd972c6a","ios":"levelo://app?vid=4f55d06d-86a5-4457-9f9b-0d66dd972c6a"},"vehicle_type_id":"4","last_reported":1737659210,"current_range_meters":23200,"station_id":"ce4bhgp2rcd13ifvqfd0","pricing_plan_id":"cebpf4jnsgd1na2vs0mg"},{"bike_id":"27ed1f90-acb0-47c9-b885-12eb34f83622","system_id":"levelo_inurba_marseille","lat":43.26679,"lon":5.38264,"is_reserved":false,"is_disabled":false,"rental_uris":{"android":"levelo://app?vid=27ed1f90-acb0-47c9-b885-12eb34f83622","ios":"levelo://app?vid=27ed1f90-acb0-47c9-b885-12eb34f83622"},"vehicle_type_id":"4","last_reported":1737659210,"current_range_meters":38800,"station_id":"ce4bhg92rcd13ifvqf90","pricing_plan_id":"cebpf4jnsgd1na2vs0mg"},{"bike_id":"a4ff2d3d-9cda-403e-b4d4-527c656d736c","system_id":"levelo_inurba_marseille","lat":43.28369,"lon":5.38646,"is_reserved":false,"is_disabled":false,"rental_uris":{"android":"levelo://app?vid=a4ff2d3d-9cda-403e-b4d4-527c656d736c","ios":"levelo://app?vid=a4ff2d3d-9cda-403e-b4d4-527c656d736c"},"vehicle_type_id":"4","last_reported":1737659210,"current_range_meters":18000,"station_id":"ce4bh492rcd13ifvqdvg","pricing_plan_id":"cebpf4jnsgd1na2vs0mg"},{"bike_id":"8f19a520-4e28-4d39-9ada-762bbddd7cdc","system_id":"levelo_inurba_marseille","lat":43.29259,"lon":5.40906,"is_reserved":false,"is_disabled":false,"rental_uris":{"android":"levelo://app?vid=8f19a520-4e28-4d39-9ada-762bbddd7cdc","ios":"levelo://app?vid=8f19a520-4e28-4d39-9ada-762bbddd7cdc"},"vehicle_type_id":"4","last_reported":1737659210,"current_range_meters":11200,"station_id":"ce4bh192rcd13ifvqdc0","pricing_plan_id":"cebpf4jnsgd1na2vs0mg"},{"bike_id":"be48aa8d-21b2-4ab9-89b3-9ea8a82b40a8","system_id":"levelo_inurba_marseille","lat":43.27942,"lon":5.41051,"is_reserved":false,"is_disabled":false,"rental_uris":{"android":"levelo://app?vid=be48aa8d-21b2-4ab9-89b3-9ea8a82b40a8","ios":"levelo://app?vid=be48aa8d-21b2-4ab9-89b3-9ea8a82b40a8"},"vehicle_type_id":"4","last_reported":1737659210,"current_range_meters":38800,"station_id":"ce4bhnp2rcd13ifvqh0g","pricing_plan_id":"cebpf4jnsgd1na2vs0mg"},{"bike_id":"7c78a755-c7f5-4f07-a96b-621451d47948","system_id":"levelo_inurba_marseille","lat":43.29898,"lon":5.43662,"is_reserved":false,"is_disabled":false,"rental_uris":{"android":"levelo://app?vid=7c78a755-c7f5-4f07-a96b-621451d47948","ios":"levelo://app?vid=7c78a755-c7f5-4f07-a96b-621451d47948"},"vehicle_type_id":"4","last_reported":1737659210,"current_range_meters":10000,"station_id":"ce4bhpp2rcd13ifvqhfg","pricing_plan_id":"cebpf4jnsgd1na2vs0mg"},{"bike_id":"53419644-9b10-4da0-ada4-866a57b8b2c7","system_id":"levelo_inurba_marseille","lat":43.26558,"lon":5.39019,"is_reserved":false,"is_disabled":false,"rental_uris":{"android":"levelo://app?vid=53419644-9b10-4da0-ada4-866a57b8b2c7","ios":"levelo://app?vid=53419644-9b10-4da0-ada4-866a57b8b2c7"},"vehicle_type_id":"4","last_reported":1737659210,"current_range_meters":32800,"station_id":"ce4bhe12rcd13ifvqf30","pricing_plan_id":"cebpf4jnsgd1na2vs0mg"},{"bike_id":"830cd2b3-4aef-4caf-8fc2-a40420b9a333","system_id":"levelo_inurba_marseille","lat":43.24808,"lon":5.37456,"is_reserved":false,"is_disabled":false,"rental_uris":{"android":"levelo://app?vid=830cd2b3-4aef-4caf-8fc2-a40420b9a333","ios":"levelo://app?vid=830cd2b3-4aef-4caf-8fc2-a40420b9a333"},"vehicle_type_id":"4","last_reported":1737659210,"current_range_meters":25200,"station_id":"ce4bhgh2rcd13ifvqfb0","pricing_plan_id":"cebpf4jnsgd1na2vs0mg"},{"bike_id":"b01fce57-63c8-454c-9252-5518a237155b","system_id":"levelo_inurba_marseille","lat":43.23209,"lon":5.39956,"is_reserved":false,"is_disabled":false,"rental_uris":{"android":"levelo://app?vid=b01fce57-63c8-454c-9252-5518a237155b","ios":"levelo://app?vid=b01fce57-63c8-454c-9252-5518a237155b"},"vehicle_type_id":"4","last_reported":1737659210,"current_range_meters":19200,"station_id":"","pricing_plan_id":"cebpf4jnsgd1na2vs0mg"},{"bike_id":"769af911-de75-4566-b8c0-479b032b6aa7","system_id":"levelo_inurba_marseille","lat":43.30596,"lon":5.39364,"is_reserved":false,"is_disabled":false,"rental_uris":{"android":"levelo://app?vid=769af911-de75-4566-b8c0-479b032b6aa7","ios":"levelo://app?vid=769af911-de75-4566-b8c0-479b032b6aa7"},"vehicle_type_id":"4","last_reported":1737659210,"current_range_meters":35200,"station_id":"ce4bh0p2rcd13ifvqd80","pricing_plan_id":"cebpf4jnsgd1na2vs0mg"},{"bike_id":"2d71ab73-c13f-44cb-82bd-e90619e2e516","system_id":"levelo_inurba_marseille","lat":43.27997,"lon":5.40013,"is_reserved":false,"is_disabled":false,"rental_uris":{"android":"levelo://app?vid=2d71ab73-c13f-44cb-82bd-e90619e2e516","ios":"levelo://app?vid=2d71ab73-c13f-44cb-82bd-e90619e2e516"},"vehicle_type_id":"4","last_reported":1737659210,"current_range_meters":31200,"station_id":"ce4bho92rcd13ifvqh4g","pricing_plan_id":"cebpf4jnsgd1na2vs0mg"},{"bike_id":"be81e2f7-9a8e-4339-b1b5-551a0a5db6fc","system_id":"levelo_inurba_marseille","lat":43.23182,"lon":5.40032,"is_reserved":false,"is_disabled":false,"rental_uris":{"android":"levelo://app?vid=be81e2f7-9a8e-4339-b1b5-551a0a5db6fc","ios":"levelo://app?vid=be81e2f7-9a8e-4339-b1b5-551a0a5db6fc"},"vehicle_type_id":"4","last_reported":1737659210,"current_range_meters":30400,"station_id":"ce4bhn12rcd13ifvqgqg","pricing_plan_id":"cebpf4jnsgd1na2vs0mg"},{"bike_id":"9746bde7-9aa4-4650-b100-68d6e1990512","system_id":"levelo_inurba_marseille","lat":43.2927,"lon":5.38437,"is_reserved":false,"is_disabled":false,"rental_uris":{"android":"levelo://app?vid=9746bde7-9aa4-4650-b100-68d6e1990512","ios":"levelo://app?vid=9746bde7-9aa4-4650-b100-68d6e1990512"},"vehicle_type_id":"4","last_reported":1737659210,"current_range_meters":38800,"station_id":"ce4bh692rcd13ifvqea0","pricing_plan_id":"cebpf4jnsgd1na2vs0mg"},{"bike_id":"e834d110-9757-4aa5-8921-77cbfa7c7c6e","system_id":"levelo_inurba_marseille","lat":43.28595,"lon":5.39498,"is_reserved":false,"is_disabled":true,"rental_uris":{"android":"levelo://app?vid=e834d110-9757-4aa5-8921-77cbfa7c7c6e","ios":"levelo://app?vid=e834d110-9757-4aa5-8921-77cbfa7c7c6e"},"vehicle_type_id":"4","last_reported":1737659210,"current_range_meters":9200,"station_id":"ce4bh292rcd13ifvqdg0","pricing_plan_id":"cebpf4jnsgd1na2vs0mg"},{"bike_id":"edb063c2-5269-4848-a95e-51c2a2327baa","system_id":"levelo_inurba_marseille","lat":43.28976,"lon":5.37838,"is_reserved":false,"is_disabled":true,"rental_uris":{"android":"levelo://app?vid=edb063c2-5269-4848-a95e-51c2a2327baa","ios":"levelo://app?vid=edb063c2-5269-4848-a95e-51c2a2327baa"},"vehicle_type_id":"4","last_reported":1737659210,"current_range_meters":2000,"station_id":"ce4bh9p2rcd13ifvqed0","pricing_plan_id":"cebpf4jnsgd1na2vs0mg"},{"bike_id":"24660fe4-5b8c-44d0-880c-f84e257e5528","system_id":"levelo_inurba_marseille","lat":43.30137,"lon":5.39835,"is_reserved":false,"is_disabled":false,"rental_uris":{"android":"levelo://app?vid=24660fe4-5b8c-44d0-880c-f84e257e5528","ios":"levelo://app?vid=24660fe4-5b8c-44d0-880c-f84e257e5528"},"vehicle_type_id":"4","last_reported":1737659210,"current_range_meters":24400,"station_id":"ce4bh0h2rcd13ifvqd40","pricing_plan_id":"cebpf4jnsgd1na2vs0mg"},{"bike_id":"b950cc4f-ccdd-492f-b523-853a0e8ec42a","system_id":"levelo_inurba_marseille","lat":43.30254,"lon":5.4008,"is_reserved":false,"is_disabled":false,"rental_uris":{"android":"levelo://app?vid=b950cc4f-ccdd-492f-b523-853a0e8ec42a","ios":"levelo://app?vid=b950cc4f-ccdd-492f-b523-853a0e8ec42a"},"vehicle_type_id":"4","last_reported":1737659210,"current_range_meters":39200,"station_id":"ce4bgvh2rcd13ifvqcs0","pricing_plan_id":"cebpf4jnsgd1na2vs0mg"},{"bike_id":"8091da5a-cc04-462d-bb09-ae380ca5e4ce","system_id":"levelo_inurba_marseille","lat":43.23184,"lon":5.39996,"is_reserved":false,"is_disabled":false,"rental_uris":{"android":"levelo://app?vid=8091da5a-cc04-462d-bb09-ae380ca5e4ce","ios":"levelo://app?vid=8091da5a-cc04-462d-bb09-ae380ca5e4ce"},"vehicle_type_id":"4","last_reported":1737659210,"current_range_meters":9600,"station_id":"ce4bhn12rcd13ifvqgqg","pricing_plan_id":"cebpf4jnsgd1na2vs0mg"},{"bike_id":"14627a40-75d8-46fb-b98b-d54dd23de1d6","system_id":"levelo_inurba_marseille","lat":43.29271,"lon":5.40118,"is_reserved":false,"is_disabled":false,"rental_uris":{"android":"levelo://app?vid=14627a40-75d8-46fb-b98b-d54dd23de1d6","ios":"levelo://app?vid=14627a40-75d8-46fb-b98b-d54dd23de1d6"},"vehicle_type_id":"4","last_reported":1737659210,"current_range_meters":8800,"station_id":"ce4bh312rcd13ifvqdk0","pricing_plan_id":"cebpf4jnsgd1na2vs0mg"},{"bike_id":"572d8c23-2e31-4ec1-b6a9-8798145cfe74","system_id":"levelo_inurba_marseille","lat":43.27996,"lon":5.40011,"is_reserved":false,"is_disabled":false,"rental_uris":{"android":"levelo://app?vid=572d8c23-2e31-4ec1-b6a9-8798145cfe74","ios":"levelo://app?vid=572d8c23-2e31-4ec1-b6a9-8798145cfe74"},"vehicle_type_id":"4","last_reported":1737659210,"current_range_meters":34800,"station_id":"ce4bho92rcd13ifvqh4g","pricing_plan_id":"cebpf4jnsgd1na2vs0mg"},{"bike_id":"7e916c70-1472-4e6d-89ea-6d1e635df53b","system_id":"levelo_inurba_marseille","lat":43.27813,"lon":5.40711,"is_reserved":false,"is_disabled":false,"rental_uris":{"android":"levelo://app?vid=7e916c70-1472-4e6d-89ea-6d1e635df53b","ios":"levelo://app?vid=7e916c70-1472-4e6d-89ea-6d1e635df53b"},"vehicle_type_id":"4","last_reported":1737659210,"current_range_meters":4800,"station_id":"ce4bhnh2rcd13ifvqgtg","pricing_plan_id":"cebpf4jnsgd1na2vs0mg"},{"bike_id":"72428ff6-b760-4407-bd52-28cdb9f11441","system_id":"levelo_inurba_marseille","lat":43.27371,"lon":5.36243,"is_reserved":false,"is_disabled":false,"rental_uris":{"android":"levelo://app?vid=72428ff6-b760-4407-bd52-28cdb9f11441","ios":"levelo://app?vid=72428ff6-b760-4407-bd52-28cdb9f11441"},"vehicle_type_id":"4","last_reported":1737659210,"current_range_meters":22400,"station_id":"ce4bhbh2rcd13ifvqeo0","pricing_plan_id":"cebpf4jnsgd1na2vs0mg"},{"bike_id":"51b693ec-6376-489f-b989-9f78de29a1f3","system_id":"levelo_inurba_marseille","lat":43.24167,"lon":5.36389,"is_reserved":false,"is_disabled":false,"rental_uris":{"android":"levelo://app?vid=51b693ec-6376-489f-b989-9f78de29a1f3","ios":"levelo://app?vid=51b693ec-6376-489f-b989-9f78de29a1f3"},"vehicle_type_id":"4","last_reported":1737659210,"current_range_meters":20800,"station_id":"cpo36qri1sfpv3e86is0","pricing_plan_id":"cebpf4jnsgd1na2vs0mg"},{"bike_id":"d0b0bc35-3e70-4e41-ba48-1f65f9acc50b","system_id":"levelo_inurba_marseille","lat":43.29537,"lon":5.38544,"is_reserved":false,"is_disabled":false,"rental_uris":{"android":"levelo://app?vid=d0b0bc35-3e70-4e41-ba48-1f65f9acc50b","ios":"levelo://app?vid=d0b0bc35-3e70-4e41-ba48-1f65f9acc50b"},"vehicle_type_id":"4","last_reported":1737659210,"current_range_meters":36000,"station_id":"ce4bgih2rcd13ifvqba0","pricing_plan_id":"cebpf4jnsgd1na2vs0mg"},{"bike_id":"2cb6da78-3cb0-42a4-b200-8c55c4aca179","system_id":"levelo_inurba_marseille","lat":43.31081,"lon":5.42431,"is_reserved":false,"is_disabled":false,"rental_uris":{"android":"levelo://app?vid=2cb6da78-3cb0-42a4-b200-8c55c4aca179","ios":"levelo://app?vid=2cb6da78-3cb0-42a4-b200-8c55c4aca179"},"vehicle_type_id":"4","last_reported":1737659210,"current_range_meters":37600,"station_id":"ce4bhp92rcd13ifvqhag","pricing_plan_id":"cebpf4jnsgd1na2vs0mg"},{"bike_id":"13ff516e-16cf-4543-8540-9030b8b296b4","system_id":"levelo_inurba_marseille","lat":43.23193,"lon":5.35547,"is_reserved":false,"is_disabled":false,"rental_uris":{"android":"levelo://app?vid=13ff516e-16cf-4543-8540-9030b8b296b4","ios":"levelo://app?vid=13ff516e-16cf-4543-8540-9030b8b296b4"},"vehicle_type_id":"4","last_reported":1737659210,"current_range_meters":28000,"station_id":"ce4bhu92rcd13ifvqi70","pricing_plan_id":"cebpf4jnsgd1na2vs0mg"},{"bike_id":"48d71f7e-a5f1-4508-8a0e-d10597c26745","system_id":"levelo_inurba_marseille","lat":43.29448,"lon":5.39747,"is_reserved":false,"is_disabled":false,"rental_uris":{"android":"levelo://app?vid=48d71f7e-a5f1-4508-8a0e-d10597c26745","ios":"levelo://app?vid=48d71f7e-a5f1-4508-8a0e-d10597c26745"},"vehicle_type_id":"4","last_reported":1737659210,"current_range_meters":26000,"station_id":"ce4bh3h2rcd13ifvqdo0","pricing_plan_id":"cebpf4jnsgd1na2vs0mg"},{"bike_id":"382b1d8c-119f-472b-8efe-763a8ffd1020","system_id":"levelo_inurba_marseille","lat":43.27957,"lon":5.41033,"is_reserved":false,"is_disabled":false,"rental_uris":{"android":"levelo://app?vid=382b1d8c-119f-472b-8efe-763a8ffd1020","ios":"levelo://app?vid=382b1d8c-119f-472b-8efe-763a8ffd1020"},"vehicle_type_id":"4","last_reported":1737659210,"current_range_meters":38800,"station_id":"ce4bhnp2rcd13ifvqh0g","pricing_plan_id":"cebpf4jnsgd1na2vs0mg"},{"bike_id":"8a151ccc-edf6-40ab-a6a3-42b4ac96f698","system_id":"levelo_inurba_marseille","lat":43.28276,"lon":5.35075,"is_reserved":false,"is_disabled":true,"rental_uris":{"android":"levelo://app?vid=8a151ccc-edf6-40ab-a6a3-42b4ac96f698","ios":"levelo://app?vid=8a151ccc-edf6-40ab-a6a3-42b4ac96f698"},"vehicle_type_id":"4","last_reported":1737659210,"current_range_meters":27200,"station_id":"ce4bhbp2rcd13ifvqerg","pricing_plan_id":"cebpf4jnsgd1na2vs0mg"},{"bike_id":"ad2cad66-aad6-46b0-82d9-631dcb82d661","system_id":"levelo_inurba_marseille","lat":43.246494,"lon":5.389082,"is_reserved":false,"is_disabled":true,"rental_uris":{"android":"levelo://app?vid=ad2cad66-aad6-46b0-82d9-631dcb82d661","ios":"levelo://app?vid=ad2cad66-aad6-46b0-82d9-631dcb82d661"},"vehicle_type_id":"4","last_reported":1737659210,"current_range_meters":0,"station_id":"ce4bhg12rcd13ifvqf60","pricing_plan_id":"cebpf4jnsgd1na2vs0mg"},{"bike_id":"95d28a23-1e30-4f33-bf86-44a894429a7c","system_id":"levelo_inurba_marseille","lat":43.28491,"lon":5.38408,"is_reserved":false,"is_disabled":true,"rental_uris":{"android":"levelo://app?vid=95d28a23-1e30-4f33-bf86-44a894429a7c","ios":"levelo://app?vid=95d28a23-1e30-4f33-bf86-44a894429a7c"},"vehicle_type_id":"4","last_reported":1737659210,"current_range_meters":400,"station_id":"ce4bh512rcd13ifvqe3g","pricing_plan_id":"cebpf4jnsgd1na2vs0mg"},{"bike_id":"d9332078-072a-4546-89b7-80a89860f381","system_id":"levelo_inurba_marseille","lat":43.29784,"lon":5.39351,"is_reserved":false,"is_disabled":false,"rental_uris":{"android":"levelo://app?vid=d9332078-072a-4546-89b7-80a89860f381","ios":"levelo://app?vid=d9332078-072a-4546-89b7-80a89860f381"},"vehicle_type_id":"4","last_reported":1737659210,"current_range_meters":8400,"station_id":"chh1huq6cuj3fo74tm60","pricing_plan_id":"cebpf4jnsgd1na2vs0mg"},{"bike_id":"5cefcaef-c8d0-426e-85a3-d6a61a1b5e27","system_id":"levelo_inurba_marseille","lat":43.27813,"lon":5.40706,"is_reserved":false,"is_disabled":false,"rental_uris":{"android":"levelo://app?vid=5cefcaef-c8d0-426e-85a3-d6a61a1b5e27","ios":"levelo://app?vid=5cefcaef-c8d0-426e-85a3-d6a61a1b5e27"},"vehicle_type_id":"4","last_reported":1737659210,"current_range_meters":36800,"station_id":"ce4bhnh2rcd13ifvqgtg","pricing_plan_id":"cebpf4jnsgd1na2vs0mg"},{"bike_id":"5ba89a38-2294-4a3f-a884-84d53abdc93f","system_id":"levelo_inurba_marseille","lat":43.30888,"lon":5.39637,"is_reserved":false,"is_disabled":false,"rental_uris":{"android":"levelo://app?vid=5ba89a38-2294-4a3f-a884-84d53abdc93f","ios":"levelo://app?vid=5ba89a38-2294-4a3f-a884-84d53abdc93f"},"vehicle_type_id":"4","last_reported":1737659210,"current_range_meters":22400,"station_id":"ce4bh012rcd13ifvqcv0","pricing_plan_id":"cebpf4jnsgd1na2vs0mg"},{"bike_id":"c149c6e4-98da-47c0-a441-66414b31d9d8","system_id":"levelo_inurba_marseille","lat":43.29024,"lon":5.38624,"is_reserved":false,"is_disabled":false,"rental_uris":{"android":"levelo://app?vid=c149c6e4-98da-47c0-a441-66414b31d9d8","ios":"levelo://app?vid=c149c6e4-98da-47c0-a441-66414b31d9d8"},"vehicle_type_id":"4","last_reported":1737659210,"current_range_meters":27600,"station_id":"ce4bh4p2rcd13ifvqe0g","pricing_plan_id":"cebpf4jnsgd1na2vs0mg"},{"bike_id":"a7a5e5ac-a8ef-4955-b1ae-1d314c428a63","system_id":"levelo_inurba_marseille","lat":43.31715,"lon":5.3775,"is_reserved":false,"is_disabled":false,"rental_uris":{"android":"levelo://app?vid=a7a5e5ac-a8ef-4955-b1ae-1d314c428a63","ios":"levelo://app?vid=a7a5e5ac-a8ef-4955-b1ae-1d314c428a63"},"vehicle_type_id":"4","last_reported":1737659210,"current_range_meters":28000,"station_id":"ce4bgth2rcd13ifvqch0","pricing_plan_id":"cebpf4jnsgd1na2vs0mg"},{"bike_id":"035fd790-7fe2-4a0f-b6e0-56010a04b5c4","system_id":"levelo_inurba_marseille","lat":43.29415,"lon":5.38621,"is_reserved":false,"is_disabled":false,"rental_uris":{"android":"levelo://app?vid=035fd790-7fe2-4a0f-b6e0-56010a04b5c4","ios":"levelo://app?vid=035fd790-7fe2-4a0f-b6e0-56010a04b5c4"},"vehicle_type_id":"4","last_reported":1737659210,"current_range_meters":12800,"station_id":"ce4bh2h2rcd13ifvqdh0","pricing_plan_id":"cebpf4jnsgd1na2vs0mg"},{"bike_id":"b51731b6-9fd4-4fbb-bd7d-cf2871718f3b","system_id":"levelo_inurba_marseille","lat":43.29244,"lon":5.38475,"is_reserved":false,"is_disabled":false,"rental_uris":{"android":"levelo://app?vid=b51731b6-9fd4-4fbb-bd7d-cf2871718f3b","ios":"levelo://app?vid=b51731b6-9fd4-4fbb-bd7d-cf2871718f3b"},"vehicle_type_id":"4","last_reported":1737659210,"current_range_meters":38000,"station_id":"ce4bh692rcd13ifvqea0","pricing_plan_id":"cebpf4jnsgd1na2vs0mg"},{"bike_id":"e1cd9866-5b4a-4efe-a8a6-5860705b5fe2","system_id":"levelo_inurba_marseille","lat":43.25112,"lon":5.40324,"is_reserved":false,"is_disabled":false,"rental_uris":{"android":"levelo://app?vid=e1cd9866-5b4a-4efe-a8a6-5860705b5fe2","ios":"levelo://app?vid=e1cd9866-5b4a-4efe-a8a6-5860705b5fe2"},"vehicle_type_id":"4","last_reported":1737659210,"current_range_meters":38800,"station_id":"ce4bhlh2rcd13ifvqgig","pricing_plan_id":"cebpf4jnsgd1na2vs0mg"},{"bike_id":"42af45ec-421f-4f84-b530-21fa1641183c","system_id":"levelo_inurba_marseille","lat":43.29172,"lon":5.37143,"is_reserved":false,"is_disabled":false,"rental_uris":{"android":"levelo://app?vid=42af45ec-421f-4f84-b530-21fa1641183c","ios":"levelo://app?vid=42af45ec-421f-4f84-b530-21fa1641183c"},"vehicle_type_id":"4","last_reported":1737659210,"current_range_meters":38000,"station_id":"ce4bha92rcd13ifvqeh0","pricing_plan_id":"cebpf4jnsgd1na2vs0mg"},{"bike_id":"dcc872de-3b35-4369-8265-ad68b27fc1b7","system_id":"levelo_inurba_marseille","lat":43.31223,"lon":5.36855,"is_reserved":false,"is_disabled":false,"rental_uris":{"android":"levelo://app?vid=dcc872de-3b35-4369-8265-ad68b27fc1b7","ios":"levelo://app?vid=dcc872de-3b35-4369-8265-ad68b27fc1b7"},"vehicle_type_id":"4","last_reported":1737659210,"current_range_meters":17600,"station_id":"ce4bgl92rcd13ifvqbq0","pricing_plan_id":"cebpf4jnsgd1na2vs0mg"},{"bike_id":"207ece9f-8b0c-431c-b248-6698d7e591dd","system_id":"levelo_inurba_marseille","lat":43.29528,"lon":5.38532,"is_reserved":false,"is_disabled":false,"rental_uris":{"android":"levelo://app?vid=207ece9f-8b0c-431c-b248-6698d7e591dd","ios":"levelo://app?vid=207ece9f-8b0c-431c-b248-6698d7e591dd"},"vehicle_type_id":"4","last_reported":1737659210,"current_range_meters":24000,"station_id":"ce4bgih2rcd13ifvqba0","pricing_plan_id":"cebpf4jnsgd1na2vs0mg"},{"bike_id":"f38f63fd-8f6f-4b91-9c49-8b65f256ffe9","system_id":"levelo_inurba_marseille","lat":43.29845,"lon":5.36274,"is_reserved":false,"is_disabled":true,"rental_uris":{"android":"levelo://app?vid=f38f63fd-8f6f-4b91-9c49-8b65f256ffe9","ios":"levelo://app?vid=f38f63fd-8f6f-4b91-9c49-8b65f256ffe9"},"vehicle_type_id":"4","last_reported":1737659210,"current_range_meters":38000,"station_id":"ce4bgpp2rcd13ifvqc3g","pricing_plan_id":"cebpf4jnsgd1na2vs0mg"},{"bike_id":"cef8cdc3-4e57-4992-ae0b-2d07be32a5a3","system_id":"levelo_inurba_marseille","lat":43.262083,"lon":5.378855,"is_reserved":false,"is_disabled":false,"rental_uris":{"android":"levelo://app?vid=cef8cdc3-4e57-4992-ae0b-2d07be32a5a3","ios":"levelo://app?vid=cef8cdc3-4e57-4992-ae0b-2d07be32a5a3"},"vehicle_type_id":"4","last_reported":1737659210,"current_range_meters":36800,"station_id":"ce4bhjp2rcd13ifvqg90","pricing_plan_id":"cebpf4jnsgd1na2vs0mg"},{"bike_id":"75495e7c-20bd-4569-84c6-35df34ab244d","system_id":"levelo_inurba_marseille","lat":43.29918,"lon":5.43679,"is_reserved":false,"is_disabled":true,"rental_uris":{"android":"levelo://app?vid=75495e7c-20bd-4569-84c6-35df34ab244d","ios":"levelo://app?vid=75495e7c-20bd-4569-84c6-35df34ab244d"},"vehicle_type_id":"4","last_reported":1737659210,"current_range_meters":2000,"station_id":"","pricing_plan_id":"cebpf4jnsgd1na2vs0mg"},{"bike_id":"4fec1689-0b6b-4d9e-be73-d0d54e4c0dfa","system_id":"levelo_inurba_marseille","lat":43.29193,"lon":5.39315,"is_reserved":false,"is_disabled":false,"rental_uris":{"android":"levelo://app?vid=4fec1689-0b6b-4d9e-be73-d0d54e4c0dfa","ios":"levelo://app?vid=4fec1689-0b6b-4d9e-be73-d0d54e4c0dfa"},"vehicle_type_id":"4","last_reported":1737659210,"current_range_meters":8800,"station_id":"ce4bh192rcd13ifvqdd0","pricing_plan_id":"cebpf4jnsgd1na2vs0mg"},{"bike_id":"5c6dd2ff-5977-45ea-9ab6-79ed70b4ade5","system_id":"levelo_inurba_marseille","lat":43.29419,"lon":5.38602,"is_reserved":false,"is_disabled":true,"rental_uris":{"android":"levelo://app?vid=5c6dd2ff-5977-45ea-9ab6-79ed70b4ade5","ios":"levelo://app?vid=5c6dd2ff-5977-45ea-9ab6-79ed70b4ade5"},"vehicle_type_id":"4","last_reported":1737659210,"current_range_meters":35200,"station_id":"ce4bh2h2rcd13ifvqdh0","pricing_plan_id":"cebpf4jnsgd1na2vs0mg"},{"bike_id":"2693e099-578a-4462-b03c-cb6a658dc0f3","system_id":"levelo_inurba_marseille","lat":43.29895,"lon":5.43668,"is_reserved":false,"is_disabled":false,"rental_uris":{"android":"levelo://app?vid=2693e099-578a-4462-b03c-cb6a658dc0f3","ios":"levelo://app?vid=2693e099-578a-4462-b03c-cb6a658dc0f3"},"vehicle_type_id":"4","last_reported":1737659210,"current_range_meters":18000,"station_id":"ce4bhpp2rcd13ifvqhfg","pricing_plan_id":"cebpf4jnsgd1na2vs0mg"},{"bike_id":"f15a3926-03ea-4c4b-9f1b-6e7324acfe94","system_id":"levelo_inurba_marseille","lat":43.28735,"lon":5.37644,"is_reserved":false,"is_disabled":true,"rental_uris":{"android":"levelo://app?vid=f15a3926-03ea-4c4b-9f1b-6e7324acfe94","ios":"levelo://app?vid=f15a3926-03ea-4c4b-9f1b-6e7324acfe94"},"vehicle_type_id":"4","last_reported":1737659210,"current_range_meters":9600,"station_id":"","pricing_plan_id":"cebpf4jnsgd1na2vs0mg"},{"bike_id":"5ab80c98-0435-4d2e-b916-a7a4443a52e6","system_id":"levelo_inurba_marseille","lat":43.29053,"lon":5.35894,"is_reserved":false,"is_disabled":false,"rental_uris":{"android":"levelo://app?vid=5ab80c98-0435-4d2e-b916-a7a4443a52e6","ios":"levelo://app?vid=5ab80c98-0435-4d2e-b916-a7a4443a52e6"},"vehicle_type_id":"4","last_reported":1737659210,"current_range_meters":16400,"station_id":"ce4bha92rcd13ifvqeg0","pricing_plan_id":"cebpf4jnsgd1na2vs0mg"},{"bike_id":"ebc8383b-a647-4b08-b328-9dbdf11ef07c","system_id":"levelo_inurba_marseille","lat":43.2481,"lon":5.37459,"is_reserved":false,"is_disabled":false,"rental_uris":{"android":"levelo://app?vid=ebc8383b-a647-4b08-b328-9dbdf11ef07c","ios":"levelo://app?vid=ebc8383b-a647-4b08-b328-9dbdf11ef07c"},"vehicle_type_id":"4","last_reported":1737659210,"current_range_meters":38000,"station_id":"ce4bhgh2rcd13ifvqfb0","pricing_plan_id":"cebpf4jnsgd1na2vs0mg"},{"bike_id":"0683b8fa-bf66-4a85-b23f-305b1ef8e2c5","system_id":"levelo_inurba_marseille","lat":43.299,"lon":5.43674,"is_reserved":false,"is_disabled":false,"rental_uris":{"android":"levelo://app?vid=0683b8fa-bf66-4a85-b23f-305b1ef8e2c5","ios":"levelo://app?vid=0683b8fa-bf66-4a85-b23f-305b1ef8e2c5"},"vehicle_type_id":"4","last_reported":1737659210,"current_range_meters":14400,"station_id":"ce4bhpp2rcd13ifvqhfg","pricing_plan_id":"cebpf4jnsgd1na2vs0mg"},{"bike_id":"99ea1d2e-8d62-4f50-9344-65f6a4b5a574","system_id":"levelo_inurba_marseille","lat":43.29531,"lon":5.38544,"is_reserved":false,"is_disabled":false,"rental_uris":{"android":"levelo://app?vid=99ea1d2e-8d62-4f50-9344-65f6a4b5a574","ios":"levelo://app?vid=99ea1d2e-8d62-4f50-9344-65f6a4b5a574"},"vehicle_type_id":"4","last_reported":1737659210,"current_range_meters":30000,"station_id":"ce4bgih2rcd13ifvqba0","pricing_plan_id":"cebpf4jnsgd1na2vs0mg"},{"bike_id":"6a8b0fcb-f40f-4dd8-8bec-cc5a7359a967","system_id":"levelo_inurba_marseille","lat":43.3148,"lon":5.37314,"is_reserved":false,"is_disabled":false,"rental_uris":{"android":"levelo://app?vid=6a8b0fcb-f40f-4dd8-8bec-cc5a7359a967","ios":"levelo://app?vid=6a8b0fcb-f40f-4dd8-8bec-cc5a7359a967"},"vehicle_type_id":"4","last_reported":1737659210,"current_range_meters":16000,"station_id":"ce4bgt12rcd13ifvqcd0","pricing_plan_id":"cebpf4jnsgd1na2vs0mg"},{"bike_id":"816b9449-381e-495b-ba77-2cd71e5a676f","system_id":"levelo_inurba_marseille","lat":43.25587,"lon":5.38232,"is_reserved":false,"is_disabled":false,"rental_uris":{"android":"levelo://app?vid=816b9449-381e-495b-ba77-2cd71e5a676f","ios":"levelo://app?vid=816b9449-381e-495b-ba77-2cd71e5a676f"},"vehicle_type_id":"4","last_reported":1737659210,"current_range_meters":16400,"station_id":"ce4bhih2rcd13ifvqfs0","pricing_plan_id":"cebpf4jnsgd1na2vs0mg"},{"bike_id":"ce9b6775-622a-4006-8fb5-f269869a0dfc","system_id":"levelo_inurba_marseille","lat":43.31368,"lon":5.385,"is_reserved":false,"is_disabled":true,"rental_uris":{"android":"levelo://app?vid=ce9b6775-622a-4006-8fb5-f269869a0dfc","ios":"levelo://app?vid=ce9b6775-622a-4006-8fb5-f269869a0dfc"},"vehicle_type_id":"4","last_reported":1737659210,"current_range_meters":29600,"station_id":"ce4bgt92rcd13ifvqcf0","pricing_plan_id":"cebpf4jnsgd1na2vs0mg"},{"bike_id":"63df83ba-40c0-4259-9a0b-c4827ff0fc3c","system_id":"levelo_inurba_marseille","lat":43.26061,"lon":5.39392,"is_reserved":false,"is_disabled":false,"rental_uris":{"android":"levelo://app?vid=63df83ba-40c0-4259-9a0b-c4827ff0fc3c","ios":"levelo://app?vid=63df83ba-40c0-4259-9a0b-c4827ff0fc3c"},"vehicle_type_id":"4","last_reported":1737659210,"current_range_meters":30000,"station_id":"ce4bhh92rcd13ifvqfj0","pricing_plan_id":"cebpf4jnsgd1na2vs0mg"},{"bike_id":"c709a6f6-06c6-414a-b7e4-50a0683e65e2","system_id":"levelo_inurba_marseille","lat":43.2762,"lon":5.36115,"is_reserved":false,"is_disabled":false,"rental_uris":{"android":"levelo://app?vid=c709a6f6-06c6-414a-b7e4-50a0683e65e2","ios":"levelo://app?vid=c709a6f6-06c6-414a-b7e4-50a0683e65e2"},"vehicle_type_id":"4","last_reported":1737659210,"current_range_meters":39200,"station_id":"ce4bgj92rcd13ifvqbe0","pricing_plan_id":"cebpf4jnsgd1na2vs0mg"},{"bike_id":"efd34077-9796-45fd-80a1-67ffb72269ce","system_id":"levelo_inurba_marseille","lat":43.26785,"lon":5.40266,"is_reserved":false,"is_disabled":false,"rental_uris":{"android":"levelo://app?vid=efd34077-9796-45fd-80a1-67ffb72269ce","ios":"levelo://app?vid=efd34077-9796-45fd-80a1-67ffb72269ce"},"vehicle_type_id":"4","last_reported":1737659210,"current_range_meters":2800,"station_id":"ce501612rcd8frsf0b60","pricing_plan_id":"cebpf4jnsgd1na2vs0mg"},{"bike_id":"9d0a1296-bc68-4335-9e8a-2b917ca7e52b","system_id":"levelo_inurba_marseille","lat":43.27624,"lon":5.36111,"is_reserved":false,"is_disabled":false,"rental_uris":{"android":"levelo://app?vid=9d0a1296-bc68-4335-9e8a-2b917ca7e52b","ios":"levelo://app?vid=9d0a1296-bc68-4335-9e8a-2b917ca7e52b"},"vehicle_type_id":"4","last_reported":1737659210,"current_range_meters":18000,"station_id":"ce4bgj92rcd13ifvqbe0","pricing_plan_id":"cebpf4jnsgd1na2vs0mg"},{"bike_id":"19034180-e16f-48f7-94d1-adab833f846a","system_id":"levelo_inurba_marseille","lat":43.30097,"lon":5.3907,"is_reserved":false,"is_disabled":false,"rental_uris":{"android":"levelo://app?vid=19034180-e16f-48f7-94d1-adab833f846a","ios":"levelo://app?vid=19034180-e16f-48f7-94d1-adab833f846a"},"vehicle_type_id":"4","last_reported":1737659210,"current_range_meters":24000,"station_id":"ce4bh192rcd13ifvqdb0","pricing_plan_id":"cebpf4jnsgd1na2vs0mg"},{"bike_id":"693102e7-1939-44cf-a9bd-acad2b527e6d","system_id":"levelo_inurba_marseille","lat":43.28075,"lon":5.39652,"is_reserved":false,"is_disabled":false,"rental_uris":{"android":"levelo://app?vid=693102e7-1939-44cf-a9bd-acad2b527e6d","ios":"levelo://app?vid=693102e7-1939-44cf-a9bd-acad2b527e6d"},"vehicle_type_id":"4","last_reported":1737659210,"current_range_meters":20800,"station_id":"ce4bho12rcd13ifvqh2g","pricing_plan_id":"cebpf4jnsgd1na2vs0mg"},{"bike_id":"76ec0346-e558-4021-8670-6676703c9580","system_id":"levelo_inurba_marseille","lat":43.30146,"lon":5.38779,"is_reserved":false,"is_disabled":false,"rental_uris":{"android":"levelo://app?vid=76ec0346-e558-4021-8670-6676703c9580","ios":"levelo://app?vid=76ec0346-e558-4021-8670-6676703c9580"},"vehicle_type_id":"4","last_reported":1737659210,"current_range_meters":9200,"station_id":"ce4bhoh2rcd13ifvqh6g","pricing_plan_id":"cebpf4jnsgd1na2vs0mg"},{"bike_id":"f10162bc-45ac-4be3-a823-90614decb8dc","system_id":"levelo_inurba_marseille","lat":43.29539,"lon":5.38534,"is_reserved":false,"is_disabled":false,"rental_uris":{"android":"levelo://app?vid=f10162bc-45ac-4be3-a823-90614decb8dc","ios":"levelo://app?vid=f10162bc-45ac-4be3-a823-90614decb8dc"},"vehicle_type_id":"4","last_reported":1737659210,"current_range_meters":38000,"station_id":"ce4bgih2rcd13ifvqba0","pricing_plan_id":"cebpf4jnsgd1na2vs0mg"},{"bike_id":"e0c7473c-8a2c-49b7-b118-bb3719f01f0f","system_id":"levelo_inurba_marseille","lat":43.30884,"lon":5.37184,"is_reserved":false,"is_disabled":false,"rental_uris":{"android":"levelo://app?vid=e0c7473c-8a2c-49b7-b118-bb3719f01f0f","ios":"levelo://app?vid=e0c7473c-8a2c-49b7-b118-bb3719f01f0f"},"vehicle_type_id":"4","last_reported":1737659210,"current_range_meters":38400,"station_id":"ce4bguh2rcd13ifvqckg","pricing_plan_id":"cebpf4jnsgd1na2vs0mg"},{"bike_id":"f8463185-c470-4b3f-aa71-eb3873635162","system_id":"levelo_inurba_marseille","lat":43.27974,"lon":5.38735,"is_reserved":false,"is_disabled":false,"rental_uris":{"android":"levelo://app?vid=f8463185-c470-4b3f-aa71-eb3873635162","ios":"levelo://app?vid=f8463185-c470-4b3f-aa71-eb3873635162"},"vehicle_type_id":"4","last_reported":1737659210,"current_range_meters":8400,"station_id":"ce4bhg12rcd13ifvqf80","pricing_plan_id":"cebpf4jnsgd1na2vs0mg"},{"bike_id":"496105d1-4440-4e61-890c-25931e798891","system_id":"levelo_inurba_marseille","lat":43.29301,"lon":5.37166,"is_reserved":false,"is_disabled":false,"rental_uris":{"android":"levelo://app?vid=496105d1-4440-4e61-890c-25931e798891","ios":"levelo://app?vid=496105d1-4440-4e61-890c-25931e798891"},"vehicle_type_id":"4","last_reported":1737659210,"current_range_meters":16800,"station_id":"ce4bgh92rcd13ifvqb40","pricing_plan_id":"cebpf4jnsgd1na2vs0mg"},{"bike_id":"ddd963ba-9a0c-435b-be45-69b594dc5944","system_id":"levelo_inurba_marseille","lat":43.25108,"lon":5.4032,"is_reserved":false,"is_disabled":false,"rental_uris":{"android":"levelo://app?vid=ddd963ba-9a0c-435b-be45-69b594dc5944","ios":"levelo://app?vid=ddd963ba-9a0c-435b-be45-69b594dc5944"},"vehicle_type_id":"4","last_reported":1737659210,"current_range_meters":22400,"station_id":"ce4bhlh2rcd13ifvqgig","pricing_plan_id":"cebpf4jnsgd1na2vs0mg"},{"bike_id":"37eac7fc-597c-4264-86a3-079a2e149d47","system_id":"levelo_inurba_marseille","lat":43.30416,"lon":5.41283,"is_reserved":false,"is_disabled":true,"rental_uris":{"android":"levelo://app?vid=37eac7fc-597c-4264-86a3-079a2e149d47","ios":"levelo://app?vid=37eac7fc-597c-4264-86a3-079a2e149d47"},"vehicle_type_id":"4","last_reported":1737659210,"current_range_meters":0,"station_id":"ce4bhop2rcd13ifvqh8g","pricing_plan_id":"cebpf4jnsgd1na2vs0mg"},{"bike_id":"efc4b42b-3f23-4c5e-be2d-4f7dfd6fdda5","system_id":"levelo_inurba_marseille","lat":43.280004,"lon":5.400179,"is_reserved":false,"is_disabled":false,"rental_uris":{"android":"levelo://app?vid=efc4b42b-3f23-4c5e-be2d-4f7dfd6fdda5","ios":"levelo://app?vid=efc4b42b-3f23-4c5e-be2d-4f7dfd6fdda5"},