{"last_updated":1769901146,"ttl":60,"version":"2.2","data":{"bikes":[{"bike_id":"81747057-4817-4880-9021-8411c8f0d736","system_id":"levelo_inurba_marseille","lat":43.309622,"lon":5.390472,"is_reserved":false,"is_disabled":false,"rental_uris":{"android":"levelo://app?vid=81747057-4817-4880-9021-8411c8f0d736","ios":"levelo://app?vid=81747057-4817-4880-9021-8411c8f0d736"},"vehicle_type_id":"4","last_reported":1769901147,"current_range_meters":2800,"station_id":"ce4bgup2rcd13ifvqco0","pricing_plan_id":"cebpf4jnsgd1na2vs0mg"},{"bike_id":"bc7d0a6c-dfd5-4be2-a4f8-8d1995dcbe88","system_id":"levelo_inurba_marseille","lat":43.29536,"lon":5.39389,"is_reserved":false,"is_disabled":false,"rental_uris":{"android":"levelo://app?vid=bc7d0a6c-dfd5-4be2-a4f8-8d1995dcbe88","ios":"levelo://app?vid=bc7d0a6c-dfd5-4be2-a4f8-8d1995dcbe88"},"vehicle_type_id":"4","last_reported":1769901147,"current_range_meters":2800,"station_id":"ce4bh292rcd13ifvqdf0","pricing_plan_id":"cebpf4jnsgd1na2vs0mg"},{"bike_id":"cc3cfa52-86a4-4529-bc22-f797aba0641d","system_id":"levelo_inurba_marseille","lat":43.31119,"lon":5.37769,"is_reserved":false,"is_disabled":false,"rental_uris":{"android":"levelo://app?vid=cc3cfa52-86a4-4529-bc22-f797aba0641d","ios":"levelo://app?vid=cc3cfa52-86a4-4529-bc22-f797aba0641d"},"vehicle_type_id":"4","last_reported":1769901147,"current_range_meters":2800,"station_id":"ce4bgt92rcd13ifvqcg0","pricing_plan_id":"cebpf4jnsgd1na2vs0mg"},{"bike_id":"97cd5e3e-9242-4d1a-bf92-abba63d9cb46","system_id":"levelo_inurba_marseille","lat":43.28033,"lon":5.3695,"is_reserved":false,"is_disabled":false,"rental_uris":{"android":"levelo://app?vid=97cd5e3e-9242-4d1a-bf92-abba63d9cb46","ios":"levelo://app?vid=97cd5e3e-9242-4d1a-bf92-abba63d9cb46"},"vehicle_type_id":"4","last_reported":1769901147,"current_range_meters":2800,"station_id":"ce4bha12rcd13ifvqef0","pricing_plan_id":"cebpf4jnsgd1na2vs0mg"},{"bike_id":"66c76971-021f-497e-8d79-ee99d65fdb67","system_id":"levelo_inurba_marseille","lat":43.25571,"lon":5.3822,"is_reserved":false,"is_disabled":false,"rental_uris":{"android":"levelo://app?vid=66c76971-021f-497e-8d79-ee99d65fdb67","ios":"levelo://app?vid=66c76971-021f-497e-8d79-ee99d65fdb67"},"vehicle_type_id":"4","last_reported":1769901147,"current_range_meters":3200,"station_id":"ce4bhih2rcd13ifvqfs0","pricing_plan_id":"cebpf4jnsgd1na2vs0mg"},{"bike_id":"c2029e8e-62e9-40bd-90c8-2d85b607b409","system_id":"levelo_inurba_marseille","lat":43.2976,"lon":5.42783,"is_reserved":false,"is_disabled":false,"rental_uris":{"android":"levelo://app?vid=c2029e8e-62e9-40bd-90c8-2d85b607b409","ios":"levelo://app?vid=c2029e8e-62e9-40bd-90c8-2d85b607b409"},"vehicle_type_id":"4","last_reported":1769901147,"current_range_meters":3200,"station_id":"st_d3md5207bmas73dh9klg","pricing_plan_id":"cebpf4jnsgd1na2vs0mg"},{"bike_id":"b864ecbc-5a09-445e-bbfb-ad118d8a3cb3","system_id":"levelo_inurba_marseille","lat":43.29753,"lon":5.42803,"is_reserved":false,"is_disabled":false,"rental_uris":{"android":"levelo://app?vid=b864ecbc-5a09-445e-bbfb-ad118d8a3cb3","ios":"levelo://app?vid=b864ecbc-5a09-445e-bbfb-ad118d8a3cb3"},"vehicle_type_id":"4","last_reported":1769901147,"current_range_meters":3200,"station_id":"st_d3md5207bmas73dh9klg","pricing_plan_id":"cebpf4jnsgd1na2vs0mg"},{"bike_id":"3c07e8db-1d64-4b7a-879d-8b774c3d7e0c","system_id":"levelo_inurba_marseille","lat":43.27377,"lon":5.36243,"is_reserved":false,"is_disabled":false,"rental_uris":{"android":"levelo://app?vid=3c07e8db-1d64-4b7a-879d-8b774c3d7e0c","ios":"levelo://app?vid=3c07e8db-1d64-4b7a-879d-8b774c3d7e0c"},"vehicle_type_id":"4","last_reported":1769901147,"current_range_meters":3200,"station_id":"ce4bhbh2rcd13ifvqeo0","pricing_plan_id":"cebpf4jnsgd1na2vs0mg"},{"bike_id":"51f85ae2-9b5f-40bb-bbb3-6050ad983feb","system_id":"levelo_inurba_marseille","lat":43.25093,"lon":5.39522,"is_reserved":false,"is_disabled":false,"rental_uris":{"android":"levelo://app?vid=51f85ae2-9b5f-40bb-bbb3-6050ad983feb","ios":"levelo://app?vid=51f85ae2-9b5f-40bb-bbb3-6050ad983feb"},"vehicle_type_id":"4","last_reported":1769901147,"current_range_meters":3200,"station_id":"ce4bhm12rcd13ifvqgkg","pricing_plan_id":"cebpf4jnsgd1na2vs0mg"},{"bike_id":"facf5c8d-7adf-4b26-81c3-f2dd54937001","system_id":"levelo_inurba_marseille","lat":43.22542,"lon":5.34833,"is_reserved":false,"is_disabled":false,"rental_uris":{"android":"levelo://app?vid=facf5c8d-7adf-4b26-81c3-f2dd54937001","ios":"levelo://app?vid=facf5c8d-7adf-4b26-81c3-f2dd54937001"},"vehicle_type_id":"4","last_reported":1769901147,"current_range_meters":3200,"station_id":"st_cvj5dfep6f1abm77gieg","pricing_plan_id":"cebpf4jnsgd1na2vs0mg"},{"bike_id":"06db5d7a-49bf-4ff9-b6a1-13f29d55ed6f","system_id":"levelo_inurba_marseille","lat":43.31174,"lon":5.37387,"is_reserved":false,"is_disabled":false,"rental_uris":{"android":"levelo://app?vid=06db5d7a-49bf-4ff9-b6a1-13f29d55ed6f","ios":"levelo://app?vid=06db5d7a-49bf-4ff9-b6a1-13f29d55ed6f"},"vehicle_type_id":"4","last_reported":1769901147,"current_range_meters":3200,"station_id":"","pricing_plan_id":"cebpf4jnsgd1na2vs0mg"},{"bike_id":"9463c920-ece7-47a5-84ed-6de056b5dc28","system_id":"levelo_inurba_marseille","lat":43.27167,"lon":5.41006,"is_reserved":false,"is_disabled":false,"rental_uris":{"android":"levelo://app?vid=9463c920-ece7-47a5-84ed-6de056b5dc28","ios":"levelo://app?vid=9463c920-ece7-47a5-84ed-6de056b5dc28"},"vehicle_type_id":"4","last_reported":1769901147,"current_range_meters":3200,"station_id":"ce4bhl12rcd13ifvqgf0","pricing_plan_id":"cebpf4jnsgd1na2vs0mg"},{"bike_id":"b8538ea1-5c66-4a72-881d-32abab5c79f9","system_id":"levelo_inurba_marseille","lat":43.24187,"lon":5.39728,"is_reserved":false,"is_disabled":false,"rental_uris":{"android":"levelo://app?vid=b8538ea1-5c66-4a72-881d-32abab5c79f9","ios":"levelo://app?vid=b8538ea1-5c66-4a72-881d-32abab5c79f9"},"vehicle_type_id":"4","last_reported":1769901147,"current_range_meters":3600,"station_id":"ce4bhn12rcd13ifvqgpg","pricing_plan_id":"cebpf4jnsgd1na2vs0mg"},{"bike_id":"4578bb0a-a496-4315-9e86-5a0c2df65bd4","system_id":"levelo_inurba_marseille","lat":43.24666,"lon":5.38176,"is_reserved":false,"is_disabled":false,"rental_uris":{"android":"levelo://app?vid=4578bb0a-a496-4315-9e86-5a0c2df65bd4","ios":"levelo://app?vid=4578bb0a-a496-4315-9e86-5a0c2df65bd4"},"vehicle_type_id":"4","last_reported":1769901147,"current_range_meters":3600,"station_id":"ce4bhih2rcd13ifvqfr0","pricing_plan_id":"cebpf4jnsgd1na2vs0mg"},{"bike_id":"d57877dd-bf49-46b8-a311-0229d9330d0c","system_id":"levelo_inurba_marseille","lat":43.30741,"lon":5.42451,"is_reserved":false,"is_disabled":false,"rental_uris":{"android":"levelo://app?vid=d57877dd-bf49-46b8-a311-0229d9330d0c","ios":"levelo://app?vid=d57877dd-bf49-46b8-a311-0229d9330d0c"},"vehicle_type_id":"4","last_reported":1769901147,"current_range_meters":3600,"station_id":"st_cvj6ca6bvosntc0bfgr0","pricing_plan_id":"cebpf4jnsgd1na2vs0mg"},{"bike_id":"e4d2197b-c5a9-49e1-800e-e836a1529dbd","system_id":"levelo_inurba_marseille","lat":43.2407,"lon":5.37766,"is_reserved":false,"is_disabled":false,"rental_uris":{"android":"levelo://app?vid=e4d2197b-c5a9-49e1-800e-e836a1529dbd","ios":"levelo://app?vid=e4d2197b-c5a9-49e1-800e-e836a1529dbd"},"vehicle_type_id":"4","last_reported":1769901147,"current_range_meters":3600,"station_id":"ce4bhnp2rcd13ifvqgvg","pricing_plan_id":"cebpf4jnsgd1na2vs0mg"},{"bike_id":"e703e95b-29d0-45e1-801b-f3b45a83114a","system_id":"levelo_inurba_marseille","lat":43.29211,"lon":5.40018,"is_reserved":false,"is_disabled":false,"rental_uris":{"android":"levelo://app?vid=e703e95b-29d0-45e1-801b-f3b45a83114a","ios":"levelo://app?vid=e703e95b-29d0-45e1-801b-f3b45a83114a"},"vehicle_type_id":"4","last_reported":1769901147,"current_range_meters":3600,"station_id":"","pricing_plan_id":"cebpf4jnsgd1na2vs0mg"},{"bike_id":"1ae2d96d-59b0-469c-b070-5c6aa648ad29","system_id":"levelo_inurba_marseille","lat":43.24173,"lon":5.36415,"is_reserved":false,"is_disabled":false,"rental_uris":{"android":"levelo://app?vid=1ae2d96d-59b0-469c-b070-5c6aa648ad29","ios":"levelo://app?vid=1ae2d96d-59b0-469c-b070-5c6aa648ad29"},"vehicle_type_id":"4","last_reported":1769901147,"current_range_meters":3600,"station_id":"cpo36qri1sfpv3e86is0","pricing_plan_id":"cebpf4jnsgd1na2vs0mg"},{"bike_id":"1931851e-7d2f-4e4b-bfcb-a545ab946ec7","system_id":"levelo_inurba_marseille","lat":43.29787,"lon":5.39346,"is_reserved":false,"is_disabled":false,"rental_uris":{"android":"levelo://app?vid=1931851e-7d2f-4e4b-bfcb-a545ab946ec7","ios":"levelo://app?vid=1931851e-7d2f-4e4b-bfcb-a545ab946ec7"},"vehicle_type_id":"4","last_reported":1769901147,"current_range_meters":3600,"station_id":"chh1huq6cuj3fo74tm60","pricing_plan_id":"cebpf4jnsgd1na2vs0mg"},{"bike_id":"b98bcdfd-abd9-4de1-85fe-a3f97350d459","system_id":"levelo_inurba_marseille","lat":43.31726,"lon":5.42398,"is_reserved":false,"is_disabled":false,"rental_uris":{"android":"levelo://app?vid=b98bcdfd-abd9-4de1-85fe-a3f97350d459","ios":"levelo://app?vid=b98bcdfd-abd9-4de1-85fe-a3f97350d459"},"vehicle_type_id":"4","last_reported":1769901147,"current_range_meters":3600,"station_id":"ce4bhp92rcd13ifvqhbg","pricing_plan_id":"cebpf4jnsgd1na2vs0mg"},{"bike_id":"b3808154-86af-47d0-966c-f1cc0984587d","system_id":"levelo_inurba_marseille","lat":43.33769,"lon":5.37462,"is_reserved":false,"is_disabled":false,"rental_uris":{"android":"levelo://app?vid=b3808154-86af-47d0-966c-f1cc0984587d","ios":"levelo://app?vid=b3808154-86af-47d0-966c-f1cc0984587d"},"vehicle_type_id":"4","last_reported":1769901147,"current_range_meters":3600,"station_id":"","pricing_plan_id":"cebpf4jnsgd1na2vs0mg"},{"bike_id":"e0529776-2176-417f-8dfc-c2549a882463","system_id":"levelo_inurba_marseille","lat":43.28097,"lon":5.3786,"is_reserved":false,"is_disabled":false,"rental_uris":{"android":"levelo://app?vid=e0529776-2176-417f-8dfc-c2549a882463","ios":"levelo://app?vid=e0529776-2176-417f-8dfc-c2549a882463"},"vehicle_type_id":"4","last_reported":1769901147,"current_range_meters":4000,"station_id":"ce4bha12rcd13ifvqee0","pricing_plan_id":"cebpf4jnsgd1na2vs0mg"},{"bike_id":"9ea50bad-0329-4ce7-bb1b-0c14d81fc6e4","system_id":"levelo_inurba_marseille","lat":43.24647,"lon":5.43144,"is_reserved":false,"is_disabled":false,"rental_uris":{"android":"levelo://app?vid=9ea50bad-0329-4ce7-bb1b-0c14d81fc6e4","ios":"levelo://app?vid=9ea50bad-0329-4ce7-bb1b-0c14d81fc6e4"},"vehicle_type_id":"4","last_reported":1769901147,"current_range_meters":4000,"station_id":"st_d2m6c4gdas8pm72e190g","pricing_plan_id":"cebpf4jnsgd1na2vs0mg"},{"bike_id":"90717d58-a322-438b-926d-ee255aa382bf","system_id":"levelo_inurba_marseille","lat":43.23788,"lon":5.36627,"is_reserved":false,"is_disabled":false,"rental_uris":{"android":"levelo://app?vid=90717d58-a322-438b-926d-ee255aa382bf","ios":"levelo://app?vid=90717d58-a322-438b-926d-ee255aa382bf"},"vehicle_type_id":"4","last_reported":1769901147,"current_range_meters":4000,"station_id":"st_d3nk18o9ro0c73en2l3g","pricing_plan_id":"cebpf4jnsgd1na2vs0mg"},{"bike_id":"baf248f9-5742-46ff-b3e8-5fa5e1b7ff48","system_id":"levelo_inurba_marseille","lat":43.30263,"lon":5.40061,"is_reserved":false,"is_disabled":true,"rental_uris":{"android":"levelo://app?vid=baf248f9-5742-46ff-b3e8-5fa5e1b7ff48","ios":"levelo://app?vid=baf248f9-5742-46ff-b3e8-5fa5e1b7ff48"},"vehicle_type_id":"4","last_reported":1769901147,"current_range_meters":4000,"station_id":"ce4bgvh2rcd13ifvqcs0","pricing_plan_id":"cebpf4jnsgd1na2vs0mg"},{"bike_id":"a633dcb8-69cc-416a-ac75-271c195c29ed","system_id":"levelo_inurba_marseille","lat":43.25514,"lon":5.3763,"is_reserved":false,"is_disabled":false,"rental_uris":{"android":"levelo://app?vid=a633dcb8-69cc-416a-ac75-271c195c29ed","ios":"levelo://app?vid=a633dcb8-69cc-416a-ac75-271c195c29ed"},"vehicle_type_id":"4","last_reported":1769901147,"current_range_meters":4000,"station_id":"ce4bhh12rcd13ifvqff0","pricing_plan_id":"cebpf4jnsgd1na2vs0mg"},{"bike_id":"57a24675-eacf-447b-b4d7-4910ab25f751","system_id":"levelo_inurba_marseille","lat":43.27384,"lon":5.36276,"is_reserved":false,"is_disabled":false,"rental_uris":{"android":"levelo://app?vid=57a24675-eacf-447b-b4d7-4910ab25f751","ios":"levelo://app?vid=57a24675-eacf-447b-b4d7-4910ab25f751"},"vehicle_type_id":"4","last_reported":1769901147,"current_range_meters":4000,"station_id":"ce4bhbh2rcd13ifvqeo0","pricing_plan_id":"cebpf4jnsgd1na2vs0mg"},{"bike_id":"69bd550d-bae4-47b4-8ea1-fdf2613d9cd6","system_id":"levelo_inurba_marseille","lat":43.23959,"lon":5.36638,"is_reserved":false,"is_disabled":false,"rental_uris":{"android":"levelo://app?vid=69bd550d-bae4-47b4-8ea1-fdf2613d9cd6","ios":"levelo://app?vid=69bd550d-bae4-47b4-8ea1-fdf2613d9cd6"},"vehicle_type_id":"4","last_reported":1769901147,"current_range_meters":4000,"station_id":"ce4bhi12rcd13ifvqfp0","pricing_plan_id":"cebpf4jnsgd1na2vs0mg"},{"bike_id":"abdf906c-1d02-4d03-a8b9-85b3b5a13392","system_id":"levelo_inurba_marseille","lat":43.31522,"lon":5.37274,"is_reserved":false,"is_disabled":false,"rental_uris":{"android":"levelo://app?vid=abdf906c-1d02-4d03-a8b9-85b3b5a13392","ios":"levelo://app?vid=abdf906c-1d02-4d03-a8b9-85b3b5a13392"},"vehicle_type_id":"4","last_reported":1769901147,"current_range_meters":4000,"station_id":"ce4bgt12rcd13ifvqcd0","pricing_plan_id":"cebpf4jnsgd1na2vs0mg"},{"bike_id":"0d5b16e7-e10f-4749-b6e0-dea831f5862f","system_id":"levelo_inurba_marseille","lat":43.23958,"lon":5.36636,"is_reserved":false,"is_disabled":false,"rental_uris":{"android":"levelo://app?vid=0d5b16e7-e10f-4749-b6e0-dea831f5862f","ios":"levelo://app?vid=0d5b16e7-e10f-4749-b6e0-dea831f5862f"},"vehicle_type_id":"4","last_reported":1769901147,"current_range_meters":4000,"station_id":"ce4bhi12rcd13ifvqfp0","pricing_plan_id":"cebpf4jnsgd1na2vs0mg"},{"bike_id":"169e268b-5fcc-439a-85a8-5d0f835d65db","system_id":"levelo_inurba_marseille","lat":43.254947,"lon":5.376539,"is_reserved":false,"is_disabled":false,"rental_uris":{"android":"levelo://app?vid=169e268b-5fcc-439a-85a8-5d0f835d65db","ios":"levelo://app?vid=169e268b-5fcc-439a-85a8-5d0f835d65db"},"vehicle_type_id":"4","last_reported":1769901147,"current_range_meters":4400,"station_id":"ce4bhh12rcd13ifvqff0","pricing_plan_id":"cebpf4jnsgd1na2vs0mg"},{"bike_id":"5d0d47a8-756c-475a-969a-b713ee9b7b0d","system_id":"levelo_inurba_marseille","lat":43.31053,"lon":5.39341,"is_reserved":false,"is_disabled":false,"rental_uris":{"android":"levelo://app?vid=5d0d47a8-756c-475a-969a-b713ee9b7b0d","ios":"levelo://app?vid=5d0d47a8-756c-475a-969a-b713ee9b7b0d"},"vehicle_type_id":"4","last_reported":1769901147,"current_range_meters":4400,"station_id":"","pricing_plan_id":"cebpf4jnsgd1na2vs0mg"},{"bike_id":"99267924-aa16-4ddc-a47c-2ef849351b36","system_id":"levelo_inurba_marseille","lat":43.29261,"lon":5.40891,"is_reserved":false,"is_disabled":false,"rental_uris":{"android":"levelo://app?vid=99267924-aa16-4ddc-a47c-2ef849351b36","ios":"levelo://app?vid=99267924-aa16-4ddc-a47c-2ef849351b36"},"vehicle_type_id":"4","last_reported":1769901147,"current_range_meters":4400,"station_id":"ce4bh192rcd13ifvqdc0","pricing_plan_id":"cebpf4jnsgd1na2vs0mg"},{"bike_id":"8d188f9d-fdcb-410f-afd4-c72876609968","system_id":"levelo_inurba_marseille","lat":43.2465,"lon":5.38893,"is_reserved":false,"is_disabled":false,"rental_uris":{"android":"levelo://app?vid=8d188f9d-fdcb-410f-afd4-c72876609968","ios":"levelo://app?vid=8d188f9d-fdcb-410f-afd4-c72876609968"},"vehicle_type_id":"4","last_reported":1769901147,"current_range_meters":4400,"station_id":"ce4bhg12rcd13ifvqf60","pricing_plan_id":"cebpf4jnsgd1na2vs0mg"},{"bike_id":"658afd91-c693-4dbc-8a13-2319a767c279","system_id":"levelo_inurba_marseille","lat":43.31235,"lon":5.38954,"is_reserved":false,"is_disabled":false,"rental_uris":{"android":"levelo://app?vid=658afd91-c693-4dbc-8a13-2319a767c279","ios":"levelo://app?vid=658afd91-c693-4dbc-8a13-2319a767c279"},"vehicle_type_id":"4","last_reported":1769901147,"current_range_meters":4400,"station_id":"","pricing_plan_id":"cebpf4jnsgd1na2vs0mg"},{"bike_id":"08015b95-f541-4439-bbb3-b8cea8f7952d","system_id":"levelo_inurba_marseille","lat":43.25337,"lon":5.42185,"is_reserved":false,"is_disabled":false,"rental_uris":{"android":"levelo://app?vid=08015b95-f541-4439-bbb3-b8cea8f7952d","ios":"levelo://app?vid=08015b95-f541-4439-bbb3-b8cea8f7952d"},"vehicle_type_id":"4","last_reported":1769901147,"current_range_meters":4400,"station_id":"st_d2m65c5bi1j21697t3ng","pricing_plan_id":"cebpf4jnsgd1na2vs0mg"},{"bike_id":"ae18926c-2f80-4500-9ae1-cf409909b93a","system_id":"levelo_inurba_marseille","lat":43.29263,"lon":5.40896,"is_reserved":false,"is_disabled":false,"rental_uris":{"android":"levelo://app?vid=ae18926c-2f80-4500-9ae1-cf409909b93a","ios":"levelo://app?vid=ae18926c-2f80-4500-9ae1-cf409909b93a"},"vehicle_type_id":"4","last_reported":1769901147,"current_range_meters":4400,"station_id":"ce4bh192rcd13ifvqdc0","pricing_plan_id":"cebpf4jnsgd1na2vs0mg"},{"bike_id":"86c4b073-d2a1-4bc5-ba41-2d65e35e6bd4","system_id":"levelo_inurba_marseille","lat":43.30934,"lon":5.40154,"is_reserved":false,"is_disabled":false,"rental_uris":{"android":"levelo://app?vid=86c4b073-d2a1-4bc5-ba41-2d65e35e6bd4","ios":"levelo://app?vid=86c4b073-d2a1-4bc5-ba41-2d65e35e6bd4"},"vehicle_type_id":"4","last_reported":1769901147,"current_range_meters":4400,"station_id":"ce4bgvp2rcd13ifvqct0","pricing_plan_id":"cebpf4jnsgd1na2vs0mg"},{"bike_id":"2118e989-9bd5-4208-aef3-62860e5c21cf","system_id":"levelo_inurba_marseille","lat":43.29741,"lon":5.37701,"is_reserved":false,"is_disabled":false,"rental_uris":{"android":"levelo://app?vid=2118e989-9bd5-4208-aef3-62860e5c21cf","ios":"levelo://app?vid=2118e989-9bd5-4208-aef3-62860e5c21cf"},"vehicle_type_id":"4","last_reported":1769901147,"current_range_meters":4400,"station_id":"ce4bgkh2rcd13ifvqbl0","pricing_plan_id":"cebpf4jnsgd1na2vs0mg"},{"bike_id":"a10fd5ac-f488-49bb-9865-a9b9fcb4d879","system_id":"levelo_inurba_marseille","lat":43.32386,"lon":5.37438,"is_reserved":false,"is_disabled":false,"rental_uris":{"android":"levelo://app?vid=a10fd5ac-f488-49bb-9865-a9b9fcb4d879","ios":"levelo://app?vid=a10fd5ac-f488-49bb-9865-a9b9fcb4d879"},"vehicle_type_id":"4","last_reported":1769901147,"current_range_meters":4800,"station_id":"","pricing_plan_id":"cebpf4jnsgd1na2vs0mg"},{"bike_id":"55e12a44-5227-40a5-8cea-0722c92ca3fa","system_id":"levelo_inurba_marseille","lat":43.28608,"lon":5.35098,"is_reserved":false,"is_disabled":false,"rental_uris":{"android":"levelo://app?vid=55e12a44-5227-40a5-8cea-0722c92ca3fa","ios":"levelo://app?vid=55e12a44-5227-40a5-8cea-0722c92ca3fa"},"vehicle_type_id":"4","last_reported":1769901147,"current_range_meters":4800,"station_id":"ce4bhch2rcd13ifvqeug","pricing_plan_id":"cebpf4jnsgd1na2vs0mg"},{"bike_id":"4c2c6e46-5b40-44ea-8548-5061adf27e6c","system_id":"levelo_inurba_marseille","lat":43.31173,"lon":5.38709,"is_reserved":false,"is_disabled":false,"rental_uris":{"android":"levelo://app?vid=4c2c6e46-5b40-44ea-8548-5061adf27e6c","ios":"levelo://app?vid=4c2c6e46-5b40-44ea-8548-5061adf27e6c"},"vehicle_type_id":"4","last_reported":1769901147,"current_range_meters":4800,"station_id":"ce4bgv12rcd13ifvqcp0","pricing_plan_id":"cebpf4jnsgd1na2vs0mg"},{"bike_id":"f955b312-f85f-4776-bb87-c1f9bceb8274","system_id":"levelo_inurba_marseille","lat":43.22555,"lon":5.41633,"is_reserved":false,"is_disabled":false,"rental_uris":{"android":"levelo://app?vid=f955b312-f85f-4776-bb87-c1f9bceb8274","ios":"levelo://app?vid=f955b312-f85f-4776-bb87-c1f9bceb8274"},"vehicle_type_id":"4","last_reported":1769901147,"current_range_meters":4800,"station_id":"st_d2o4gvlbi1j2169b742g","pricing_plan_id":"cebpf4jnsgd1na2vs0mg"},{"bike_id":"d7403ead-495e-4c3c-8ace-82e560ba1ff5","system_id":"levelo_inurba_marseille","lat":43.308,"lon":5.38182,"is_reserved":false,"is_disabled":false,"rental_uris":{"android":"levelo://app?vid=d7403ead-495e-4c3c-8ace-82e560ba1ff5","ios":"levelo://app?vid=d7403ead-495e-4c3c-8ace-82e560ba1ff5"},"vehicle_type_id":"4","last_reported":1769901147,"current_range_meters":4800,"station_id":"ce4bgt12rcd13ifvqce0","pricing_plan_id":"cebpf4jnsgd1na2vs0mg"},{"bike_id":"667f7189-0ff0-4468-a821-96f30d95245d","system_id":"levelo_inurba_marseille","lat":43.2992,"lon":5.4367,"is_reserved":false,"is_disabled":false,"rental_uris":{"android":"levelo://app?vid=667f7189-0ff0-4468-a821-96f30d95245d","ios":"levelo://app?vid=667f7189-0ff0-4468-a821-96f30d95245d"},"vehicle_type_id":"4","last_reported":1769901147,"current_range_meters":5600,"station_id":"","pricing_plan_id":"cebpf4jnsgd1na2vs0mg"},{"bike_id":"f99c0e56-a861-4817-a5cc-7aa9138a394f","system_id":"levelo_inurba_marseille","lat":43.27059,"lon":5.38319,"is_reserved":false,"is_disabled":false,"rental_uris":{"android":"levelo://app?vid=f99c0e56-a861-4817-a5cc-7aa9138a394f","ios":"levelo://app?vid=f99c0e56-a861-4817-a5cc-7aa9138a394f"},"vehicle_type_id":"4","last_reported":1769901147,"current_range_meters":5600,"station_id":"st_d3n2fo6cfp8s73cte1j0","pricing_plan_id":"cebpf4jnsgd1na2vs0mg"},{"bike_id":"e0a954d6-819c-4021-8d0c-f1ef581b8ddb","system_id":"levelo_inurba_marseille","lat":43.29259,"lon":5.38436,"is_reserved":false,"is_disabled":true,"rental_uris":{"android":"levelo://app?vid=e0a954d6-819c-4021-8d0c-f1ef581b8ddb","ios":"levelo://app?vid=e0a954d6-819c-4021-8d0c-f1ef581b8ddb"},"vehicle_type_id":"4","last_reported":1769901147,"current_range_meters":5600,"station_id":"ce4bh692rcd13ifvqea0","pricing_plan_id":"cebpf4jnsgd1na2vs0mg"},{"bike_id":"4561b101-df9b-4a07-8c08-785ae7c91c29","system_id":"levelo_inurba_marseille","lat":43.30029,"lon":5.38398,"is_reserved":false,"is_disabled":false,"rental_uris":{"android":"levelo://app?vid=4561b101-df9b-4a07-8c08-785ae7c91c29","ios":"levelo://app?vid=4561b101-df9b-4a07-8c08-785ae7c91c29"},"vehicle_type_id":"4","last_reported":1769901147,"current_range_meters":5600,"station_id":"","pricing_plan_id":"cebpf4jnsgd1na2vs0mg"},{"bike_id":"02143fc1-15d6-4ae6-972c-c8f4025a62d9","system_id":"levelo_inurba_marseille","lat":43.23174,"lon":5.35573,"is_reserved":false,"is_disabled":false,"rental_uris":{"android":"levelo://app?vid=02143fc1-15d6-4ae6-972c-c8f4025a62d9","ios":"levelo://app?vid=02143fc1-15d6-4ae6-972c-c8f4025a62d9"},"vehicle_type_id":"4","last_reported":1769901147,"current_range_meters":5600,"station_id":"ce4bhu92rcd13ifvqi70","pricing_plan_id":"cebpf4jnsgd1na2vs0mg"},{"bike_id":"24463bdf-362a-44c7-a065-1582958089af","system_id":"levelo_inurba_marseille","lat":43.30217,"lon":5.39466,"is_reserved":false,"is_disabled":false,"rental_uris":{"android":"levelo://app?vid=24463bdf-362a-44c7-a065-1582958089af","ios":"levelo://app?vid=24463bdf-362a-44c7-a065-1582958089af"},"vehicle_type_id":"4","last_reported":1769901147,"current_range_meters":5600,"station_id":"ce4bh0p2rcd13ifvqd70","pricing_plan_id":"cebpf4jnsgd1na2vs0mg"},{"bike_id":"4cad1348-59d5-4475-bf02-9720c9be6205","system_id":"levelo_inurba_marseille","lat":43.2396,"lon":5.36622,"is_reserved":false,"is_disabled":false,"rental_uris":{"android":"levelo://app?vid=4cad1348-59d5-4475-bf02-9720c9be6205","ios":"levelo://app?vid=4cad1348-59d5-4475-bf02-9720c9be6205"},"vehicle_type_id":"4","last_reported":1769901147,"current_range_meters":5600,"station_id":"ce4bhi12rcd13ifvqfp0","pricing_plan_id":"cebpf4jnsgd1na2vs0mg"},{"bike_id":"f4d6efa2-00bd-44bb-b3f9-95bebe7bedd2","system_id":"levelo_inurba_marseille","lat":43.30157,"lon":5.3797,"is_reserved":false,"is_disabled":false,"rental_uris":{"android":"levelo://app?vid=f4d6efa2-00bd-44bb-b3f9-95bebe7bedd2","ios":"levelo://app?vid=f4d6efa2-00bd-44bb-b3f9-95bebe7bedd2"},"vehicle_type_id":"4","last_reported":1769901147,"current_range_meters":5600,"station_id":"","pricing_plan_id":"cebpf4jnsgd1na2vs0mg"},{"bike_id":"e17fafcf-c85c-46cd-aeba-830af14a1980","system_id":"levelo_inurba_marseille","lat":43.27564,"lon":5.3844,"is_reserved":false,"is_disabled":false,"rental_uris":{"android":"levelo://app?vid=e17fafcf-c85c-46cd-aeba-830af14a1980","ios":"levelo://app?vid=e17fafcf-c85c-46cd-aeba-830af14a1980"},"vehicle_type_id":"4","last_reported":1769901147,"current_range_meters":6000,"station_id":"ce4bhh92rcd13ifvqfi0","pricing_plan_id":"cebpf4jnsgd1na2vs0mg"},{"bike_id":"e063da5b-4820-4962-b1c8-99eec874281e","system_id":"levelo_inurba_marseille","lat":43.23197,"lon":5.39994,"is_reserved":false,"is_disabled":true,"rental_uris":{"android":"levelo://app?vid=e063da5b-4820-4962-b1c8-99eec874281e","ios":"levelo://app?vid=e063da5b-4820-4962-b1c8-99eec874281e"},"vehicle_type_id":"4","last_reported":1769901147,"current_range_meters":6000,"station_id":"ce4bhn12rcd13ifvqgqg","pricing_plan_id":"cebpf4jnsgd1na2vs0mg"},{"bike_id":"8d19955e-e09c-4b47-a6e3-ae607dbe5088","system_id":"levelo_inurba_marseille","lat":43.26211,"lon":5.37468,"is_reserved":false,"is_disabled":false,"rental_uris":{"android":"levelo://app?vid=8d19955e-e09c-4b47-a6e3-ae607dbe5088","ios":"levelo://app?vid=8d19955e-e09c-4b47-a6e3-ae607dbe5088"},"vehicle_type_id":"4","last_reported":1769901147,"current_range_meters":6000,"station_id":"ce4bhgp2rcd13ifvqfc0","pricing_plan_id":"cebpf4jnsgd1na2vs0mg"},{"bike_id":"7a4412cf-c498-4121-be46-049419c026d4","system_id":"levelo_inurba_marseille","lat":43.2795,"lon":5.41036,"is_reserved":false,"is_disabled":false,"rental_uris":{"android":"levelo://app?vid=7a4412cf-c498-4121-be46-049419c026d4","ios":"levelo://app?vid=7a4412cf-c498-4121-be46-049419c026d4"},"vehicle_type_id":"4","last_reported":1769901147,"current_range_meters":6000,"station_id":"ce4bhnp2rcd13ifvqh0g","pricing_plan_id":"cebpf4jnsgd1na2vs0mg"},{"bike_id":"880586ef-6fbd-48f3-a326-6ebac57e39cd","system_id":"levelo_inurba_marseille","lat":43.25516,"lon":5.37666,"is_reserved":false,"is_disabled":false,"rental_uris":{"android":"levelo://app?vid=880586ef-6fbd-48f3-a326-6ebac57e39cd","ios":"levelo://app?vid=880586ef-6fbd-48f3-a326-6ebac57e39cd"},"vehicle_type_id":"4","last_reported":1769901147,"current_range_meters":6000,"station_id":"ce4bhh12rcd13ifvqff0","pricing_plan_id":"cebpf4jnsgd1na2vs0mg"},{"bike_id":"0fa8fafe-2680-41a4-95b1-88881925a052","system_id":"levelo_inurba_marseille","lat":43.307335,"lon":5.424344,"is_reserved":false,"is_disabled":false,"rental_uris":{"android":"levelo://app?vid=0fa8fafe-2680-41a4-95b1-88881925a052","ios":"levelo://app?vid=0fa8fafe-2680-41a4-95b1-88881925a052"},"vehicle_type_id":"4","last_reported":1769901147,"current_range_meters":6000,"station_id":"st_cvj6ca6bvosntc0bfgr0","pricing_plan_id":"cebpf4jnsgd1na2vs0mg"},{"bike_id":"0b5940d7-1ca8-42d9-bb5c-cb53b6826b27","system_id":"levelo_inurba_marseille","lat":43.27943,"lon":5.38695,"is_reserved":false,"is_disabled":false,"rental_uris":{"android":"levelo://app?vid=0b5940d7-1ca8-42d9-bb5c-cb53b6826b27","ios":"levelo://app?vid=0b5940d7-1ca8-42d9-bb5c-cb53b6826b27"},"vehicle_type_id":"4","last_reported":1769901147,"current_range_meters":6000,"station_id":"ce4bhg12rcd13ifvqf80","pricing_plan_id":"cebpf4jnsgd1na2vs0mg"},{"bike_id":"40bfd0a1-6631-49b4-8fcc-b52ff8c335f4","system_id":"levelo_inurba_marseille","lat":43.324791,"lon":5.365677,"is_reserved":false,"is_disabled":false,"rental_uris":{"android":"levelo://app?vid=40bfd0a1-6631-49b4-8fcc-b52ff8c335f4","ios":"levelo://app?vid=40bfd0a1-6631-49b4-8fcc-b52ff8c335f4"},"vehicle_type_id":"4","last_reported":1769901147,"current_range_meters":6000,"station_id":"ce4bhs12rcd13ifvqhvg","pricing_plan_id":"cebpf4jnsgd1na2vs0mg"},{"bike_id":"db89fefb-6011-4017-8d46-077ffa4c12c9","system_id":"levelo_inurba_marseille","lat":43.2964,"lon":5.36615,"is_reserved":false,"is_disabled":false,"rental_uris":{"android":"levelo://app?vid=db89fefb-6011-4017-8d46-077ffa4c12c9","ios":"levelo://app?vid=db89fefb-6011-4017-8d46-077ffa4c12c9"},"vehicle_type_id":"4","last_reported":1769901147,"current_range_meters":6000,"station_id":"","pricing_plan_id":"cebpf4jnsgd1na2vs0mg"},{"bike_id":"e87070e1-26a1-4140-845f-8a9de8448f4c","system_id":"levelo_inurba_marseille","lat":43.29566,"lon":5.38527,"is_reserved":false,"is_disabled":false,"rental_uris":{"android":"levelo://app?vid=e87070e1-26a1-4140-845f-8a9de8448f4c","ios":"levelo://app?vid=e87070e1-26a1-4140-845f-8a9de8448f4c"},"vehicle_type_id":"4","last_reported":1769901147,"current_range_meters":6000,"station_id":"ce4bgih2rcd13ifvqba0","pricing_plan_id":"cebpf4jnsgd1na2vs0mg"},{"bike_id":"93597093-e1ed-4863-af52-2bdc44703f3f","system_id":"levelo_inurba_marseille","lat":43.304338,"lon":5.388855,"is_reserved":false,"is_disabled":false,"rental_uris":{"android":"levelo://app?vid=93597093-e1ed-4863-af52-2bdc44703f3f","ios":"levelo://app?vid=93597093-e1ed-4863-af52-2bdc44703f3f"},"vehicle_type_id":"4","last_reported":1769901147,"current_range_meters":6000,"station_id":"ce4bgk12rcd13ifvqbi0","pricing_plan_id":"cebpf4jnsgd1na2vs0mg"},{"bike_id":"126f0f08-61cc-4a91-b5e4-336294f6c642","system_id":"levelo_inurba_marseille","lat":43.28397,"lon":5.34994,"is_reserved":false,"is_disabled":false,"rental_uris":{"android":"levelo://app?vid=126f0f08-61cc-4a91-b5e4-336294f6c642","ios":"levelo://app?vid=126f0f08-61cc-4a91-b5e4-336294f6c642"},"vehicle_type_id":"4","last_reported":1769901147,"current_range_meters":6000,"station_id":"ce4bhbh2rcd13ifvqepg","pricing_plan_id":"cebpf4jnsgd1na2vs0mg"},{"bike_id":"b559b272-5796-43b3-908a-ffbd6751cf49","system_id":"levelo_inurba_marseille","lat":43.24007,"lon":5.36714,"is_reserved":false,"is_disabled":false,"rental_uris":{"android":"levelo://app?vid=b559b272-5796-43b3-908a-ffbd6751cf49","ios":"levelo://app?vid=b559b272-5796-43b3-908a-ffbd6751cf49"},"vehicle_type_id":"4","last_reported":1769901147,"current_range_meters":6000,"station_id":"","pricing_plan_id":"cebpf4jnsgd1na2vs0mg"},{"bike_id":"1e6e9fcd-377f-4a83-a467-d5b81de873c8","system_id":"levelo_inurba_marseille","lat":43.28219,"lon":5.39081,"is_reserved":false,"is_disabled":false,"rental_uris":{"android":"levelo://app?vid=1e6e9fcd-377f-4a83-a467-d5b81de873c8","ios":"levelo://app?vid=1e6e9fcd-377f-4a83-a467-d5b81de873c8"},"vehicle_type_id":"4","last_reported":1769901147,"current_range_meters":6400,"station_id":"ce4bhn92rcd13ifvqgsg","pricing_plan_id":"cebpf4jnsgd1na2vs0mg"},{"bike_id":"1b187523-973b-43bd-a56f-a5d6c41d569b","system_id":"levelo_inurba_marseille","lat":43.29812,"lon":5.44062,"is_reserved":false,"is_disabled":false,"rental_uris":{"android":"levelo://app?vid=1b187523-973b-43bd-a56f-a5d6c41d569b","ios":"levelo://app?vid=1b187523-973b-43bd-a56f-a5d6c41d569b"},"vehicle_type_id":"4","last_reported":1769901147,"current_range_meters":6400,"station_id":"st_d3jp68qikq2c7381ktn0","pricing_plan_id":"cebpf4jnsgd1na2vs0mg"},{"bike_id":"93a91355-bf30-4000-bf05-ad7ea1e0e038","system_id":"levelo_inurba_marseille","lat":43.29308,"lon":5.37153,"is_reserved":false,"is_disabled":false,"rental_uris":{"android":"levelo://app?vid=93a91355-bf30-4000-bf05-ad7ea1e0e038","ios":"levelo://app?vid=93a91355-bf30-4000-bf05-ad7ea1e0e038"},"vehicle_type_id":"4","last_reported":1769901147,"current_range_meters":6400,"station_id":"ce4bgh92rcd13ifvqb40","pricing_plan_id":"cebpf4jnsgd1na2vs0mg"},{"bike_id":"6259a571-4c97-41bc-9e30-1f15710670c6","system_id":"levelo_inurba_marseille","lat":43.24691,"lon":5.40105,"is_reserved":false,"is_disabled":false,"rental_uris":{"android":"levelo://app?vid=6259a571-4c97-41bc-9e30-1f15710670c6","ios":"levelo://app?vid=6259a571-4c97-41bc-9e30-1f15710670c6"},"vehicle_type_id":"4","last_reported":1769901147,"current_range_meters":6400,"station_id":"","pricing_plan_id":"cebpf4jnsgd1na2vs0mg"},{"bike_id":"80e85d4a-6876-4a01-aa65-1d986fc27bc6","system_id":"levelo_inurba_marseille","lat":43.29278,"lon":5.3843,"is_reserved":false,"is_disabled":false,"rental_uris":{"android":"levelo://app?vid=80e85d4a-6876-4a01-aa65-1d986fc27bc6","ios":"levelo://app?vid=80e85d4a-6876-4a01-aa65-1d986fc27bc6"},"vehicle_type_id":"4","last_reported":1769901147,"current_range_meters":6400,"station_id":"ce4bh692rcd13ifvqea0","pricing_plan_id":"cebpf4jnsgd1na2vs0mg"},{"bike_id":"fd0924a1-005f-4230-b4d1-6e8409283367","system_id":"levelo_inurba_marseille","lat":43.23069,"lon":5.35488,"is_reserved":false,"is_disabled":false,"rental_uris":{"android":"levelo://app?vid=fd0924a1-005f-4230-b4d1-6e8409283367","ios":"levelo://app?vid=fd0924a1-005f-4230-b4d1-6e8409283367"},"vehicle_type_id":"4","last_reported":1769901147,"current_range_meters":6400,"station_id":"cpo3342slgdg3j2ifvpg","pricing_plan_id":"cebpf4jnsgd1na2vs0mg"},{"bike_id":"bec9adc5-b234-40d6-82a5-6fe45c0e1bd0","system_id":"levelo_inurba_marseille","lat":43.29834,"lon":5.44063,"is_reserved":false,"is_disabled":false,"rental_uris":{"android":"levelo://app?vid=bec9adc5-b234-40d6-82a5-6fe45c0e1bd0","ios":"levelo://app?vid=bec9adc5-b234-40d6-82a5-6fe45c0e1bd0"},"vehicle_type_id":"4","last_reported":1769901147,"current_range_meters":6400,"station_id":"","pricing_plan_id":"cebpf4jnsgd1na2vs0mg"},{"bike_id":"a591b198-ffd8-42c1-96f8-07f7188eff82","system_id":"levelo_inurba_marseille","lat":43.25576,"lon":5.3825,"is_reserved":false,"is_disabled":false,"rental_uris":{"android":"levelo://app?vid=a591b198-ffd8-42c1-96f8-07f7188eff82","ios":"levelo://app?vid=a591b198-ffd8-42c1-96f8-07f7188eff82"},"vehicle_type_id":"4","last_reported":1769901147,"current_range_meters":6800,"station_id":"ce4bhih2rcd13ifvqfs0","pricing_plan_id":"cebpf4jnsgd1na2vs0mg"},{"bike_id":"bd0b3557-9fd7-4e9c-b122-eda4f40b316d","system_id":"levelo_inurba_marseille","lat":43.24813,"lon":5.37461,"is_reserved":false,"is_disabled":false,"rental_uris":{"android":"levelo://app?vid=bd0b3557-9fd7-4e9c-b122-eda4f40b316d","ios":"levelo://app?vid=bd0b3557-9fd7-4e9c-b122-eda4f40b316d"},"vehicle_type_id":"4","last_reported":1769901147,"current_range_meters":6800,"station_id":"ce4bhgh2rcd13ifvqfb0","pricing_plan_id":"cebpf4jnsgd1na2vs0mg"},{"bike_id":"9b0b72ce-8292-47cd-b165-f4a28fe1cfff","system_id":"levelo_inurba_marseille","lat":43.28497,"lon":5.38535,"is_reserved":false,"is_disabled":true,"rental_uris":{"android":"levelo://app?vid=9b0b72ce-8292-47cd-b165-f4a28fe1cfff","ios":"levelo://app?vid=9b0b72ce-8292-47cd-b165-f4a28fe1cfff"},"vehicle_type_id":"4","last_reported":1769901147,"current_range_meters":6800,"station_id":"ce4bh8p2rcd13ifvqeb0","pricing_plan_id":"cebpf4jnsgd1na2vs0mg"},{"bike_id":"a8f57f70-acfc-420e-90e9-80b5fb4e7a51","system_id":"levelo_inurba_marseille","lat":43.29634,"lon":5.37176,"is_reserved":false,"is_disabled":false,"rental_uris":{"android":"levelo://app?vid=a8f57f70-acfc-420e-90e9-80b5fb4e7a51","ios":"levelo://app?vid=a8f57f70-acfc-420e-90e9-80b5fb4e7a51"},"vehicle_type_id":"4","last_reported":1769901147,"current_range_meters":6800,"station_id":"ce4bgnh2rcd13ifvqc0g","pricing_plan_id":"cebpf4jnsgd1na2vs0mg"},{"bike_id":"055d8d39-c891-472e-8a0d-a9ee39d8b8c7","system_id":"levelo_inurba_marseille","lat":43.33156,"lon":5.37688,"is_reserved":false,"is_disabled":true,"rental_uris":{"android":"levelo://app?vid=055d8d39-c891-472e-8a0d-a9ee39d8b8c7","ios":"levelo://app?vid=055d8d39-c891-472e-8a0d-a9ee39d8b8c7"},"vehicle_type_id":"4","last_reported":1769901147,"current_range_meters":6800,"station_id":"st_d46cu089ee8s73dldbu0","pricing_plan_id":"cebpf4jnsgd1na2vs0mg"},{"bike_id":"51487434-2c5b-44ec-b6f1-b2d802fd5baf","system_id":"levelo_inurba_marseille","lat":43.295842,"lon":5.367472,"is_reserved":false,"is_disabled":false,"rental_uris":{"android":"levelo://app?vid=51487434-2c5b-44ec-b6f1-b2d802fd5baf","ios":"levelo://app?vid=51487434-2c5b-44ec-b6f1-b2d802fd5baf"},"vehicle_type_id":"4","last_reported":1769901147,"current_range_meters":6800,"station_id":"ce4bgph2rcd13ifvqc2g","pricing_plan_id":"cebpf4jnsgd1na2vs0mg"},{"bike_id":"318133aa-3b05-4452-b847-cf5a32021652","system_id":"levelo_inurba_marseille","lat":43.25084,"lon":5.39497,"is_reserved":false,"is_disabled":false,"rental_uris":{"android":"levelo://app?vid=318133aa-3b05-4452-b847-cf5a32021652","ios":"levelo://app?vid=318133aa-3b05-4452-b847-cf5a32021652"},"vehicle_type_id":"4","last_reported":1769901147,"current_range_meters":6800,"station_id":"ce4bhm12rcd13ifvqgkg","pricing_plan_id":"cebpf4jnsgd1na2vs0mg"},{"bike_id":"272c4cb9-cbc3-4191-aad4-33313dcfb218","system_id":"levelo_inurba_marseille","lat":43.29791,"lon":5.37931,"is_reserved":false,"is_disabled":false,"rental_uris":{"android":"levelo://app?vid=272c4cb9-cbc3-4191-aad4-33313dcfb218","ios":"levelo://app?vid=272c4cb9-cbc3-4191-aad4-33313dcfb218"},"vehicle_type_id":"4","last_reported":1769901147,"current_range_meters":6800,"station_id":"","pricing_plan_id":"cebpf4jnsgd1na2vs0mg"},{"bike_id":"a4c4467a-de4f-4b56-8893-ebacb492a7a6","system_id":"levelo_inurba_marseille","lat":43.25351,"lon":5.42185,"is_reserved":false,"is_disabled":false,"rental_uris":{"android":"levelo://app?vid=a4c4467a-de4f-4b56-8893-ebacb492a7a6","ios":"levelo://app?vid=a4c4467a-de4f-4b56-8893-ebacb492a7a6"},"vehicle_type_id":"4","last_reported":1769901147,"current_range_meters":6800,"station_id":"st_d2m65c5bi1j21697t3ng","pricing_plan_id":"cebpf4jnsgd1na2vs0mg"},{"bike_id":"77619699-b354-480e-91d4-1d10d13baf79","system_id":"levelo_inurba_marseille","lat":43.30882,"lon":5.39642,"is_reserved":false,"is_disabled":false,"rental_uris":{"android":"levelo://app?vid=77619699-b354-480e-91d4-1d10d13baf79","ios":"levelo://app?vid=77619699-b354-480e-91d4-1d10d13baf79"},"vehicle_type_id":"4","last_reported":1769901147,"current_range_meters":6800,"station_id":"ce4bh012rcd13ifvqcv0","pricing_plan_id":"cebpf4jnsgd1na2vs0mg"},{"bike_id":"5be20501-8e04-4673-9119-891aadf1acc1","system_id":"levelo_inurba_marseille","lat":43.28482,"lon":5.48386,"is_reserved":false,"is_disabled":false,"rental_uris":{"android":"levelo://app?vid=5be20501-8e04-4673-9119-891aadf1acc1","ios":"levelo://app?vid=5be20501-8e04-4673-9119-891aadf1acc1"},"vehicle_type_id":"4","last_reported":1769901147,"current_range_meters":6800,"station_id":"st_d3svhcjqgbts73a3dn0g","pricing_plan_id":"cebpf4jnsgd1na2vs0mg"},{"bike_id":"eae001be-3b34-469f-b5f5-7615da95a4ed","system_id":"levelo_inurba_marseille","lat":43.27821,"lon":5.40708,"is_reserved":false,"is_disabled":false,"rental_uris":{"android":"levelo://app?vid=eae001be-3b34-469f-b5f5-7615da95a4ed","ios":"levelo://app?vid=eae001be-3b34-469f-b5f5-7615da95a4ed"},"vehicle_type_id":"4","last_reported":1769901147,"current_range_meters":7200,"station_id":"ce4bhnh2rcd13ifvqgtg","pricing_plan_id":"cebpf4jnsgd1na2vs0mg"},{"bike_id":"097d3826-f1ab-4ba6-b835-18323d7ef4d7","system_id":"levelo_inurba_marseille","lat":43.24524,"lon":5.39534,"is_reserved":false,"is_disabled":false,"rental_uris":{"android":"levelo://app?vid=097d3826-f1ab-4ba6-b835-18323d7ef4d7","ios":"levelo://app?vid=097d3826-f1ab-4ba6-b835-18323d7ef4d7"},"vehicle_type_id":"4","last_reported":1769901147,"current_range_meters":7200,"station_id":"ce4bhlp2rcd13ifvqgjg","pricing_plan_id":"cebpf4jnsgd1na2vs0mg"},{"bike_id":"9378c7cb-4c3a-475f-ba28-80a4781f7ffa","system_id":"levelo_inurba_marseille","lat":43.29763,"lon":5.42777,"is_reserved":false,"is_disabled":false,"rental_uris":{"android":"levelo://app?vid=9378c7cb-4c3a-475f-ba28-80a4781f7ffa","ios":"levelo://app?vid=9378c7cb-4c3a-475f-ba28-80a4781f7ffa"},"vehicle_type_id":"4","last_reported":1769901147,"current_range_meters":7200,"station_id":"st_d3md5207bmas73dh9klg","pricing_plan_id":"cebpf4jnsgd1na2vs0mg"},{"bike_id":"91b963cd-8dda-4d61-bf3b-55460be209e3","system_id":"levelo_inurba_marseille","lat":43.29592,"lon":5.381,"is_reserved":false,"is_disabled":false,"rental_uris":{"android":"levelo://app?vid=91b963cd-8dda-4d61-bf3b-55460be209e3","ios":"levelo://app?vid=91b963cd-8dda-4d61-bf3b-55460be209e3"},"vehicle_type_id":"4","last_reported":1769901147,"current_range_meters":7200,"station_id":"ce4bgl12rcd13ifvqbo0","pricing_plan_id":"cebpf4jnsgd1na2vs0mg"},{"bike_id":"b27a0d4f-f345-47b9-b9a8-196c40313931","system_id":"levelo_inurba_marseille","lat":43.28419,"lon":5.34996,"is_reserved":false,"is_disabled":false,"rental_uris":{"android":"levelo://app?vid=b27a0d4f-f345-47b9-b9a8-196c40313931","ios":"levelo://app?vid=b27a0d4f-f345-47b9-b9a8-196c40313931"},"vehicle_type_id":"4","last_reported":1769901147,"current_range_meters":7200,"station_id":"ce4bhbh2rcd13ifvqepg","pricing_plan_id":"cebpf4jnsgd1na2vs0mg"},{"bike_id":"b0381d5e-d46d-42e8-8ed1-5261cc8eee88","system_id":"levelo_inurba_marseille","lat":43.29047,"lon":5.38677,"is_reserved":false,"is_disabled":false,"rental_uris":{"android":"levelo://app?vid=b0381d5e-d46d-42e8-8ed1-5261cc8eee88","ios":"levelo://app?vid=b0381d5e-d46d-42e8-8ed1-5261cc8eee88"},"vehicle_type_id":"4","last_reported":1769901147,"current_range_meters":7200,"station_id":"ce4bh4p2rcd13ifvqe0g","pricing_plan_id":"cebpf4jnsgd1na2vs0mg"},{"bike_id":"18d24a81-9b0c-4bd9-9c2a-fb9012b51e00","system_id":"levelo_inurba_marseille","lat":43.29289,"lon":5.37177,"is_reserved":false,"is_disabled":false,"rental_uris":{"android":"levelo://app?vid=18d24a81-9b0c-4bd9-9c2a-fb9012b51e00","ios":"levelo://app?vid=18d24a81-9b0c-4bd9-9c2a-fb9012b51e00"},"vehicle_type_id":"4","last_reported":1769901147,"current_range_meters":7200,"station_id":"ce4bgh92rcd13ifvqb40","pricing_plan_id":"cebpf4jnsgd1na2vs0mg"},{"bike_id":"ea996b6a-e4df-4475-a81a-600ad94271b6","system_id":"levelo_inurba_marseille","lat":43.3028,"lon":5.3978,"is_reserved":false,"is_disabled":false,"rental_uris":{"android":"levelo://app?vid=ea996b6a-e4df-4475-a81a-600ad94271b6","ios":"levelo://app?vid=ea996b6a-e4df-4475-a81a-600ad94271b6"},"vehicle_type_id":"4","last_reported":1769901147,"current_range_meters":7200,"station_id":"","pricing_plan_id":"cebpf4jnsgd1na2vs0mg"},{"bike_id":"d4d18011-2bf0-4a2b-a896-7a5c21af3b9d","system_id":"levelo_inurba_marseille","lat":43.2848,"lon":5.48392,"is_reserved":false,"is_disabled":false,"rental_uris":{"android":"levelo://app?vid=d4d18011-2bf0-4a2b-a896-7a5c21af3b9d","ios":"levelo://app?vid=d4d18011-2bf0-4a2b-a896-7a5c21af3b9d"},"vehicle_type_id":"4","last_reported":1769901147,"current_range_meters":7200,"station_id":"st_d3svhcjqgbts73a3dn0g","pricing_plan_id":"cebpf4jnsgd1na2vs0mg"},{"bike_id":"835e3868-2bda-4ef1-bc28-793075d336af","system_id":"levelo_inurba_marseille","lat":43.33159,"lon":5.37689,"is_reserved":false,"is_disabled":false,"rental_uris":{"android":"levelo://app?vid=835e3868-2bda-4ef1-bc28-793075d336af","ios":"levelo://app?vid=835e3868-2bda-4ef1-bc28-793075d336af"},"vehicle_type_id":"4","last_reported":1769901147,"current_range_meters":7200,"station_id":"st_d46cu089ee8s73dldbu0","pricing_plan_id":"cebpf4jnsgd1na2vs0mg"},{"bike_id":"e114d145-366d-4e6b-931f-fe1956507086","system_id":"levelo_inurba_marseille","lat":43.29246,"lon":5.38533,"is_reserved":false,"is_disabled":false,"rental_uris":{"android":"levelo://app?vid=e114d145-366d-4e6b-931f-fe1956507086","ios":"levelo://app?vid=e114d145-366d-4e6b-931f-fe1956507086"},"vehicle_type_id":"4","last_reported":1769901147,"current_range_meters":7200,"station_id":"","pricing_plan_id":"cebpf4jnsgd1na2vs0mg"},{"bike_id":"1a97e377-0881-49ff-8152-6d006ac9f409","system_id":"levelo_inurba_marseille","lat":43.29249,"lon":5.3847,"is_reserved":false,"is_disabled":false,"rental_uris":{"android":"levelo://app?vid=1a97e377-0881-49ff-8152-6d006ac9f409","ios":"levelo://app?vid=1a97e377-0881-49ff-8152-6d006ac9f409"},"vehicle_type_id":"4","last_reported":1769901147,"current_range_meters":7200,"station_id":"ce4bh692rcd13ifvqea0","pricing_plan_id":"cebpf4jnsgd1na2vs0mg"},{"bike_id":"9a51c59d-9df1-4272-bf8a-962f7f317a04","system_id":"levelo_inurba_marseille","lat":43.25489,"lon":5.37641,"is_reserved":false,"is_disabled":false,"rental_uris":{"android":"levelo://app?vid=9a51c59d-9df1-4272-bf8a-962f7f317a04","ios":"levelo://app?vid=9a51c59d-9df1-4272-bf8a-962f7f317a04"},"vehicle_type_id":"4","last_reported":1769901147,"current_range_meters":7200,"station_id":"ce4bhh12rcd13ifvqff0","pricing_plan_id":"cebpf4jnsgd1na2vs0mg"},{"bike_id":"1f7b8b6d-e79f-4d5a-80ba-1168600653c7","system_id":"levelo_inurba_marseille","lat":43.23196,"lon":5.35549,"is_reserved":false,"is_disabled":false,"rental_uris":{"android":"levelo://app?vid=1f7b8b6d-e79f-4d5a-80ba-1168600653c7","ios":"levelo://app?vid=1f7b8b6d-e79f-4d5a-80ba-1168600653c7"},"vehicle_type_id":"4","last_reported":1769901147,"current_range_meters":7200,"station_id":"ce4bhu92rcd13ifvqi70","pricing_plan_id":"cebpf4jnsgd1na2vs0mg"},{"bike_id":"65d989a2-21c5-4af6-985f-22de361672c3","system_id":"levelo_inurba_marseille","lat":43.290308,"lon":5.386512,"is_reserved":false,"is_disabled":false,"rental_uris":{"android":"levelo://app?vid=65d989a2-21c5-4af6-985f-22de361672c3","ios":"levelo://app?vid=65d989a2-21c5-4af6-985f-22de361672c3"},"vehicle_type_id":"4","last_reported":1769901147,"current_range_meters":7200,"station_id":"ce4bh4p2rcd13ifvqe0g","pricing_plan_id":"cebpf4jnsgd1na2vs0mg"},{"bike_id":"0e681b67-3fdf-40b6-b942-590e1536d0c5","system_id":"levelo_inurba_marseille","lat":43.24393,"lon":5.37072,"is_reserved":false,"is_disabled":false,"rental_uris":{"android":"levelo://app?vid=0e681b67-3fdf-40b6-b942-590e1536d0c5","ios":"levelo://app?vid=0e681b67-3fdf-40b6-b942-590e1536d0c5"},"vehicle_type_id":"4","last_reported":1769901147,"current_range_meters":7200,"station_id":"ce4bhhh2rcd13ifvqfk0","pricing_plan_id":"cebpf4jnsgd1na2vs0mg"},{"bike_id":"4a2c405f-1416-447b-a6d7-253cd1597cba","system_id":"levelo_inurba_marseille","lat":43.31168,"lon":5.38731,"is_reserved":false,"is_disabled":false,"rental_uris":{"android":"levelo://app?vid=4a2c405f-1416-447b-a6d7-253cd1597cba","ios":"levelo://app?vid=4a2c405f-1416-447b-a6d7-253cd1597cba"},"vehicle_type_id":"4","last_reported":1769901147,"current_range_meters":7200,"station_id":"ce4bgv12rcd13ifvqcp0","pricing_plan_id":"cebpf4jnsgd1na2vs0mg"},{"bike_id":"d5e67bfe-03c5-4643-9903-6eac267b87da","system_id":"levelo_inurba_marseille","lat":43.24019,"lon":5.37836,"is_reserved":false,"is_disabled":false,"rental_uris":{"android":"levelo://app?vid=d5e67bfe-03c5-4643-9903-6eac267b87da","ios":"levelo://app?vid=d5e67bfe-03c5-4643-9903-6eac267b87da"},"vehicle_type_id":"4","last_reported":1769901147,"current_range_meters":7200,"station_id":"","pricing_plan_id":"cebpf4jnsgd1na2vs0mg"},{"bike_id":"d3215a18-ac25-47b2-bc57-dcaef897eb36","system_id":"levelo_inurba_marseille","lat":43.31398,"lon":5.38569,"is_reserved":false,"is_disabled":false,"rental_uris":{"android":"levelo://app?vid=d3215a18-ac25-47b2-bc57-dcaef897eb36","ios":"levelo://app?vid=d3215a18-ac25-47b2-bc57-dcaef897eb36"},"vehicle_type_id":"4","last_reported":1769901147,"current_range_meters":8000,"station_id":"","pricing_plan_id":"cebpf4jnsgd1na2vs0mg"},{"bike_id":"a0f4c4d9-b17d-4551-87f4-b3e192df9153","system_id":"levelo_inurba_marseille","lat":43.23038,"lon":5.35484,"is_reserved":false,"is_disabled":false,"rental_uris":{"android":"levelo://app?vid=a0f4c4d9-b17d-4551-87f4-b3e192df9153","ios":"levelo://app?vid=a0f4c4d9-b17d-4551-87f4-b3e192df9153"},"vehicle_type_id":"4","last_reported":1769901147,"current_range_meters":8000,"station_id":"cpo3342slgdg3j2ifvpg","pricing_plan_id":"cebpf4jnsgd1na2vs0mg"},{"bike_id":"e66c0050-63ae-4842-902f-7ed4f4ed8737","system_id":"levelo_inurba_marseille","lat":43.22552,"lon":5.41628,"is_reserved":false,"is_disabled":false,"rental_uris":{"android":"levelo://app?vid=e66c0050-63ae-4842-902f-7ed4f4ed8737","ios":"levelo://app?vid=e66c0050-63ae-4842-902f-7ed4f4ed8737"},"vehicle_type_id":"4","last_reported":1769901147,"current_range_meters":8000,"station_id":"st_d2o4gvlbi1j2169b742g","pricing_plan_id":"cebpf4jnsgd1na2vs0mg"},{"bike_id":"1b262235-a4c8-42b2-9b62-c37b9e14300f","system_id":"levelo_inurba_marseille","lat":43.27814,"lon":5.40749,"is_reserved":false,"is_disabled":false,"rental_uris":{"android":"levelo://app?vid=1b262235-a4c8-42b2-9b62-c37b9e14300f","ios":"levelo://app?vid=1b262235-a4c8-42b2-9b62-c37b9e14300f"},"vehicle_type_id":"4","last_reported":1769901147,"current_range_meters":8000,"station_id":"ce4bhnh2rcd13ifvqgtg","pricing_plan_id":"cebpf4jnsgd1na2vs0mg"},{"bike_id":"4ae21097-68ff-4a44-bcb7-3e142e11d517","system_id":"levelo_inurba_marseille","lat":43.241759,"lon":5.363963,"is_reserved":false,"is_disabled":false,"rental_uris":{"android":"levelo://app?vid=4ae21097-68ff-4a44-bcb7-3e142e11d517","ios":"levelo://app?vid=4ae21097-68ff-4a44-bcb7-3e142e11d517"},"vehicle_type_id":"4","last_reported":1769901147,"current_range_meters":8000,"station_id":"cpo36qri1sfpv3e86is0","pricing_plan_id":"cebpf4jnsgd1na2vs0mg"},{"bike_id":"16fde6d1-f51a-48e7-a728-f69430b0136e","system_id":"levelo_inurba_marseille","lat":43.24393,"lon":5.37069,"is_reserved":false,"is_disabled":false,"rental_uris":{"android":"levelo://app?vid=16fde6d1-f51a-48e7-a728-f69430b0136e","ios":"levelo://app?vid=16fde6d1-f51a-48e7-a728-f69430b0136e"},"vehicle_type_id":"4","last_reported":1769901147,"current_range_meters":8000,"station_id":"ce4bhhh2rcd13ifvqfk0","pricing_plan_id":"cebpf4jnsgd1na2vs0mg"},{"bike_id":"fd887aca-98e1-464f-84ac-e7817b808a75","system_id":"levelo_inurba_marseille","lat":43.24381,"lon":5.37058,"is_reserved":false,"is_disabled":false,"rental_uris":{"android":"levelo://app?vid=fd887aca-98e1-464f-84ac-e7817b808a75","ios":"levelo://app?vid=fd887aca-98e1-464f-84ac-e7817b808a75"},"vehicle_type_id":"4","last_reported":1769901147,"current_range_meters":8000,"station_id":"ce4bhhh2rcd13ifvqfk0","pricing_plan_id":"cebpf4jnsgd1na2vs0mg"},{"bike_id":"7e4d0348-c090-4100-bdfd-53d3c76acb31","system_id":"levelo_inurba_marseille","lat":43.24816,"lon":5.37442,"is_reserved":false,"is_disabled":false,"rental_uris":{"android":"levelo://app?vid=7e4d0348-c090-4100-bdfd-53d3c76acb31","ios":"levelo://app?vid=7e4d0348-c090-4100-bdfd-53d3c76acb31"},"vehicle_type_id":"4","last_reported":1769901147,"current_range_meters":8000,"station_id":"ce4bhgh2rcd13ifvqfb0","pricing_plan_id":"cebpf4jnsgd1na2vs0mg"},{"bike_id":"7725ea14-335e-4d54-91ac-40d50e39e00e","system_id":"levelo_inurba_marseille","lat":43.23185,"lon":5.40043,"is_reserved":false,"is_disabled":false,"rental_uris":{"android":"levelo://app?vid=7725ea14-335e-4d54-91ac-40d50e39e00e","ios":"levelo://app?vid=7725ea14-335e-4d54-91ac-40d50e39e00e"},"vehicle_type_id":"4","last_reported":1769901147,"current_range_meters":8000,"station_id":"ce4bhn12rcd13ifvqgqg","pricing_plan_id":"cebpf4jnsgd1na2vs0mg"},{"bike_id":"bcd58453-c6d3-458d-8c23-f0e115fa2945","system_id":"levelo_inurba_marseille","lat":43.28864,"lon":5.4251,"is_reserved":false,"is_disabled":false,"rental_uris":{"android":"levelo://app?vid=bcd58453-c6d3-458d-8c23-f0e115fa2945","ios":"levelo://app?vid=bcd58453-c6d3-458d-8c23-f0e115fa2945"},"vehicle_type_id":"4","last_reported":1769901147,"current_range_meters":8000,"station_id":"st_d3b462108ojc7389ooeg","pricing_plan_id":"cebpf4jnsgd1na2vs0mg"},{"bike_id":"06377c5b-0730-4581-b84f-2d4582a84835","system_id":"levelo_inurba_marseille","lat":43.29258,"lon":5.38433,"is_reserved":false,"is_disabled":false,"rental_uris":{"android":"levelo://app?vid=06377c5b-0730-4581-b84f-2d4582a84835","ios":"levelo://app?vid=06377c5b-0730-4581-b84f-2d4582a84835"},"vehicle_type_id":"4","last_reported":1769901147,"current_range_meters":8000,"station_id":"ce4bh692rcd13ifvqea0","pricing_plan_id":"cebpf4jnsgd1na2vs0mg"},{"bike_id":"3a9d9d6b-764f-4558-a4a3-5611921af6a1","system_id":"levelo_inurba_marseille","lat":43.27894,"lon":5.41073,"is_reserved":false,"is_disabled":false,"rental_uris":{"android":"levelo://app?vid=3a9d9d6b-764f-4558-a4a3-5611921af6a1","ios":"levelo://app?vid=3a9d9d6b-764f-4558-a4a3-5611921af6a1"},"vehicle_type_id":"4","last_reported":1769901147,"current_range_meters":8000,"station_id":"","pricing_plan_id":"cebpf4jnsgd1na2vs0mg"},{"bike_id":"7cf56b5d-4513-486d-9216-3f938f14c405","system_id":"levelo_inurba_marseille","lat":43.243949,"lon":5.370713,"is_reserved":false,"is_disabled":false,"rental_uris":{"android":"levelo://app?vid=7cf56b5d-4513-486d-9216-3f938f14c405","ios":"levelo://app?vid=7cf56b5d-4513-486d-9216-3f938f14c405"},"vehicle_type_id":"4","last_reported":1769901147,"current_range_meters":8000,"station_id":"ce4bhhh2rcd13ifvqfk0","pricing_plan_id":"cebpf4jnsgd1na2vs0mg"},{"bike_id":"0ab8e9dc-7dd0-48e8-954b-0ec31f90f154","system_id":"levelo_inurba_marseille","lat":43.292656,"lon":5.384395,"is_reserved":false,"is_disabled":false,"rental_uris":{"android":"levelo://app?vid=0ab8e9dc-7dd0-48e8-954b-0ec31f90f154","ios":"levelo://app?vid=0ab8e9dc-7dd0-48e8-954b-0ec31f90f154"},"vehicle_type_id":"4","last_reported":1769901147,"current_range_meters":8000,"station_id":"ce4bhoh2rcd13ifvqh5g","pricing_plan_id":"cebpf4jnsgd1na2vs0mg"},{"bike_id":"837f081a-e646-4c00-93df-f959748be000","system_id":"levelo_inurba_marseille","lat":43.2469,"lon":5.38164,"is_reserved":false,"is_disabled":false,"rental_uris":{"android":"levelo://app?vid=837f081a-e646-4c00-93df-f959748be000","ios":"levelo://app?vid=837f081a-e646-4c00-93df-f959748be000"},"vehicle_type_id":"4","last_reported":1769901147,"current_range_meters":8000,"station_id":"ce4bhih2rcd13ifvqfr0","pricing_plan_id":"cebpf4jnsgd1na2vs0mg"},{"bike_id":"8a25a112-bffb-4bc9-b86f-e44087c71e58","system_id":"levelo_inurba_marseille","lat":43.28218,"lon":5.39065,"is_reserved":false,"is_disabled":false,"rental_uris":{"android":"levelo://app?vid=8a25a112-bffb-4bc9-b86f-e44087c71e58","ios":"levelo://app?vid=8a25a112-bffb-4bc9-b86f-e44087c71e58"},"vehicle_type_id":"4","last_reported":1769901147,"current_range_meters":8000,"station_id":"ce4bhn92rcd13ifvqgsg","pricing_plan_id":"cebpf4jnsgd1na2vs0mg"},{"bike_id":"e2bce0e5-c739-4939-9e60-5d1a18c005a4","system_id":"levelo_inurba_marseille","lat":43.2795,"lon":5.41044,"is_reserved":false,"is_disabled":false,"rental_uris":{"android":"levelo://app?vid=e2bce0e5-c739-4939-9e60-5d1a18c005a4","ios":"levelo://app?vid=e2bce0e5-c739-4939-9e60-5d1a18c005a4"},"vehicle_type_id":"4","last_reported":1769901147,"current_range_meters":8000,"station_id":"","pricing_plan_id":"cebpf4jnsgd1na2vs0mg"},{"bike_id":"74856cd2-f709-469e-b628-27ee18812e7c","system_id":"levelo_inurba_marseille","lat":43.28154,"lon":5.42644,"is_reserved":false,"is_disabled":false,"rental_uris":{"android":"levelo://app?vid=74856cd2-f709-469e-b628-27ee18812e7c","ios":"levelo://app?vid=74856cd2-f709-469e-b628-27ee18812e7c"},"vehicle_type_id":"4","last_reported":1769901147,"current_range_meters":8000,"station_id":"ce4bhnh2rcd13ifvqgug","pricing_plan_id":"cebpf4jnsgd1na2vs0mg"},{"bike_id":"ed8ccf73-5784-4f14-8e66-4eb80bb8e4be","system_id":"levelo_inurba_marseille","lat":43.31145,"lon":5.3701,"is_reserved":false,"is_disabled":false,"rental_uris":{"android":"levelo://app?vid=ed8ccf73-5784-4f14-8e66-4eb80bb8e4be","ios":"levelo://app?vid=ed8ccf73-5784-4f14-8e66-4eb80bb8e4be"},"vehicle_type_id":"4","last_reported":1769901147,"current_range_meters":8000,"station_id":"st_d4kl2rp97mjs73e7tdfg","pricing_plan_id":"cebpf4jnsgd1na2vs0mg"},{"bike_id":"7bd46305-b209-4807-8a44-605f196b92c2","system_id":"levelo_inurba_marseille","lat":43.28405,"lon":5.37523,"is_reserved":false,"is_disabled":false,"rental_uris":{"android":"levelo://app?vid=7bd46305-b209-4807-8a44-605f196b92c2","ios":"levelo://app?vid=7bd46305-b209-4807-8a44-605f196b92c2"},"vehicle_type_id":"4","last_reported":1769901147,"current_range_meters":8400,"station_id":"ce4bh412rcd13ifvqds0","pricing_plan_id":"cebpf4jnsgd1na2vs0mg"},{"bike_id":"0b54222e-0ec6-491f-b1f2-77bedbbe81bd","system_id":"levelo_inurba_marseille","lat":43.29079,"lon":5.35924,"is_reserved":false,"is_disabled":false,"rental_uris":{"android":"levelo://app?vid=0b54222e-0ec6-491f-b1f2-77bedbbe81bd","ios":"levelo://app?vid=0b54222e-0ec6-491f-b1f2-77bedbbe81bd"},"vehicle_type_id":"4","last_reported":1769901147,"current_range_meters":8400,"station_id":"ce4bha92rcd13ifvqeg0","pricing_plan_id":"cebpf4jnsgd1na2vs0mg"},{"bike_id":"8999d26c-420d-4d01-819b-5bed6ba174a6","system_id":"levelo_inurba_marseille","lat":43.29884,"lon":5.38357,"is_reserved":false,"is_disabled":false,"rental_uris":{"android":"levelo://app?vid=8999d26c-420d-4d01-819b-5bed6ba174a6","ios":"levelo://app?vid=8999d26c-420d-4d01-819b-5bed6ba174a6"},"vehicle_type_id":"4","last_reported":1769901147,"current_range_meters":8400,"station_id":"","pricing_plan_id":"cebpf4jnsgd1na2vs0mg"},{"bike_id":"9c85555e-ecc5-4b77-9721-4173af578739","system_id":"levelo_inurba_marseille","lat":43.32098,"lon":5.36793,"is_reserved":false,"is_disabled":false,"rental_uris":{"android":"levelo://app?vid=9c85555e-ecc5-4b77-9721-4173af578739","ios":"levelo://app?vid=9c85555e-ecc5-4b77-9721-4173af578739"},"vehicle_type_id":"4","last_reported":1769901147,"current_range_meters":8400,"station_id":"ce4bhrh2rcd13ifvqhug","pricing_plan_id":"cebpf4jnsgd1na2vs0mg"},{"bike_id":"f63ad825-b273-458f-bf2e-2ef630e3fede","system_id":"levelo_inurba_marseille","lat":43.22571,"lon":5.41615,"is_reserved":false,"is_disabled":false,"rental_uris":{"android":"levelo://app?vid=f63ad825-b273-458f-bf2e-2ef630e3fede","ios":"levelo://app?vid=f63ad825-b273-458f-bf2e-2ef630e3fede"},"vehicle_type_id":"4","last_reported":1769901147,"current_range_meters":8400,"station_id":"st_d2o4gvlbi1j2169b742g","pricing_plan_id":"cebpf4jnsgd1na2vs0mg"},{"bike_id":"1b85baa8-054d-452c-96ac-e14de5f87229","system_id":"levelo_inurba_marseille","lat":43.26548,"lon":5.40328,"is_reserved":false,"is_disabled":false,"rental_uris":{"android":"levelo://app?vid=1b85baa8-054d-452c-96ac-e14de5f87229","ios":"levelo://app?vid=1b85baa8-054d-452c-96ac-e14de5f87229"},"vehicle_type_id":"4","last_reported":1769901147,"current_range_meters":8400,"station_id":"ce4bhmp2rcd13ifvqgng","pricing_plan_id":"cebpf4jnsgd1na2vs0mg"},{"bike_id":"1cdce8d3-c523-4d89-8d8b-802fa91e5cb7","system_id":"levelo_inurba_marseille","lat":43.29934,"lon":5.36531,"is_reserved":false,"is_disabled":false,"rental_uris":{"android":"levelo://app?vid=1cdce8d3-c523-4d89-8d8b-802fa91e5cb7","ios":"levelo://app?vid=1cdce8d3-c523-4d89-8d8b-802fa91e5cb7"},"vehicle_type_id":"4","last_reported":1769901147,"current_range_meters":8400,"station_id":"ce4bgm92rcd13ifvqbr0","pricing_plan_id":"cebpf4jnsgd1na2vs0mg"},{"bike_id":"fb793f9e-27c8-4aa6-9e5b-d172f980944b","system_id":"levelo_inurba_marseille","lat":43.27941,"lon":5.41036,"is_reserved":false,"is_disabled":true,"rental_uris":{"android":"levelo://app?vid=fb793f9e-27c8-4aa6-9e5b-d172f980944b","ios":"levelo://app?vid=fb793f9e-27c8-4aa6-9e5b-d172f980944b"},"vehicle_type_id":"4","last_reported":1769901147,"current_range_meters":8400,"station_id":"ce4bhnp2rcd13ifvqh0g","pricing_plan_id":"cebpf4jnsgd1na2vs0mg"},{"bike_id":"12a2fd95-d1c0-4783-819e-a2120934d51e","system_id":"levelo_inurba_marseille","lat":43.23959,"lon":5.36634,"is_reserved":false,"is_disabled":false,"rental_uris":{"android":"levelo://app?vid=12a2fd95-d1c0-4783-819e-a2120934d51e","ios":"levelo://app?vid=12a2fd95-d1c0-4783-819e-a2120934d51e"},"vehicle_type_id":"4","last_reported":1769901147,"current_range_meters":8400,"station_id":"ce4bhi12rcd13ifvqfp0","pricing_plan_id":"cebpf4jnsgd1na2vs0mg"},{"bike_id":"2c9d9ec4-87d2-4a0f-9375-615bf9c41c46","system_id":"levelo_inurba_marseille","lat":43.26185,"lon":5.37459,"is_reserved":false,"is_disabled":false,"rental_uris":{"android":"levelo://app?vid=2c9d9ec4-87d2-4a0f-9375-615bf9c41c46","ios":"levelo://app?vid=2c9d9ec4-87d2-4a0f-9375-615bf9c41c46"},"vehicle_type_id":"4","last_reported":1769901147,"current_range_meters":8400,"station_id":"ce4bhgp2rcd13ifvqfc0","pricing_plan_id":"cebpf4jnsgd1na2vs0mg"},{"bike_id":"ef38276e-2572-4b31-a48e-1f23b24baae4","system_id":"levelo_inurba_marseille","lat":43.24817,"lon":5.37447,"is_reserved":false,"is_disabled":false,"rental_uris":{"android":"levelo://app?vid=ef38276e-2572-4b31-a48e-1f23b24baae4","ios":"levelo://app?vid=ef38276e-2572-4b31-a48e-1f23b24baae4"},"vehicle_type_id":"4","last_reported":1769901147,"current_range_meters":8400,"station_id":"ce4bhgh2rcd13ifvqfb0","pricing_plan_id":"cebpf4jnsgd1na2vs0mg"},{"bike_id":"f47b5364-d86e-414e-a4d7-612bcf40da53","system_id":"levelo_inurba_marseille","lat":43.24175,"lon":5.364,"is_reserved":false,"is_disabled":false,"rental_uris":{"android":"levelo://app?vid=f47b5364-d86e-414e-a4d7-612bcf40da53","ios":"levelo://app?vid=f47b5364-d86e-414e-a4d7-612bcf40da53"},"vehicle_type_id":"4","last_reported":1769901147,"current_range_meters":8400,"station_id":"cpo36qri1sfpv3e86is0","pricing_plan_id":"cebpf4jnsgd1na2vs0mg"},{"bike_id":"d0765df0-cc90-4cba-8b79-61ce95080b49","system_id":"levelo_inurba_marseille","lat":43.2256,"lon":5.41643,"is_reserved":false,"is_disabled":false,"rental_uris":{"android":"levelo://app?vid=d0765df0-cc90-4cba-8b79-61ce95080b49","ios":"levelo://app?vid=d0765df0-cc90-4cba-8b79-61ce95080b49"},"vehicle_type_id":"4","last_reported":1769901147,"current_range_meters":8400,"station_id":"st_d2o4gvlbi1j2169b742g","pricing_plan_id":"cebpf4jnsgd1na2vs0mg"},{"bike_id":"38b77181-b3ce-4754-b533-7792bcc3267e","system_id":"levelo_inurba_marseille","lat":43.27388,"lon":5.36267,"is_reserved":false,"is_disabled":false,"rental_uris":{"android":"levelo://app?vid=38b77181-b3ce-4754-b533-7792bcc3267e","ios":"levelo://app?vid=38b77181-b3ce-4754-b533-7792bcc3267e"},"vehicle_type_id":"4","last_reported":1769901147,"current_range_meters":8400,"station_id":"ce4bhbh2rcd13ifvqeo0","pricing_plan_id":"cebpf4jnsgd1na2vs0mg"},{"bike_id":"27727500-371c-4c0f-9936-b3e5d218633e","system_id":"levelo_inurba_marseille","lat":43.25493,"lon":5.37632,"is_reserved":false,"is_disabled":false,"rental_uris":{"android":"levelo://app?vid=27727500-371c-4c0f-9936-b3e5d218633e","ios":"levelo://app?vid=27727500-371c-4c0f-9936-b3e5d218633e"},"vehicle_type_id":"4","last_reported":1769901147,"current_range_meters":8400,"station_id":"ce4bhh12rcd13ifvqff0","pricing_plan_id":"cebpf4jnsgd1na2vs0mg"},{"bike_id":"1b66b988-980e-4a67-85f9-95de820b03bb","system_id":"levelo_inurba_marseille","lat":43.31072,"lon":5.38355,"is_reserved":false,"is_disabled":false,"rental_uris":{"android":"levelo://app?vid=1b66b988-980e-4a67-85f9-95de820b03bb","ios":"levelo://app?vid=1b66b988-980e-4a67-85f9-95de820b03bb"},"vehicle_type_id":"4","last_reported":1769901147,"current_range_meters":8400,"station_id":"ce4bgv92rcd13ifvqcr0","pricing_plan_id":"cebpf4jnsgd1na2vs0mg"},{"bike_id":"6e03fe2f-50a3-47c4-a420-c4e2641b5dd0","system_id":"levelo_inurba_marseille","lat":43.29529,"lon":5.38543,"is_reserved":false,"is_disabled":false,"rental_uris":{"android":"levelo://app?vid=6e03fe2f-50a3-47c4-a420-c4e2641b5dd0","ios":"levelo://app?vid=6e03fe2f-50a3-47c4-a420-c4e2641b5dd0"},"vehicle_type_id":"4","last_reported":1769901147,"current_range_meters":8400,"station_id":"ce4bgih2rcd13ifvqba0","pricing_plan_id":"cebpf4jnsgd1na2vs0mg"},{"bike_id":"9c2cc992-186a-4b4e-a8c4-2416ec14609e","system_id":"levelo_inurba_marseille","lat":43.25857,"lon":5.39914,"is_reserved":false,"is_disabled":false,"rental_uris":{"android":"levelo://app?vid=9c2cc992-186a-4b4e-a8c4-2416ec14609e","ios":"levelo://app?vid=9c2cc992-186a-4b4e-a8c4-2416ec14609e"},"vehicle_type_id":"4","last_reported":1769901147,"current_range_meters":8400,"station_id":"ce4bhl92rcd13ifvqghg","pricing_plan_id":"cebpf4jnsgd1na2vs0mg"},{"bike_id":"26bd2557-3046-4212-82fc-da1fdbd42b2c","system_id":"levelo_inurba_marseille","lat":43.337444,"lon":5.374475,"is_reserved":false,"is_disabled":false,"rental_uris":{"android":"levelo://app?vid=26bd2557-3046-4212-82fc-da1fdbd42b2c","ios":"levelo://app?vid=26bd2557-3046-4212-82fc-da1fdbd42b2c"},"vehicle_type_id":"4","last_reported":1769901147,"current_range_meters":8400,"station_id":"","pricing_plan_id":"cebpf4jnsgd1na2vs0mg"},{"bike_id":"f74d4c3d-96e9-4afd-9bc9-921171cd5c0f","system_id":"levelo_inurba_marseille","lat":43.27835,"lon":5.4071,"is_reserved":false,"is_disabled":false,"rental_uris":{"android":"levelo://app?vid=f74d4c3d-96e9-4afd-9bc9-921171cd5c0f","ios":"levelo://app?vid=f74d4c3d-96e9-4afd-9bc9-921171cd5c0f"},"vehicle_type_id":"4","last_reported":1769901147,"current_range_meters":8400,"station_id":"ce4bhnh2rcd13ifvqgtg","pricing_plan_id":"cebpf4jnsgd1na2vs0mg"},{"bike_id":"984d051a-47d7-4d6c-a90c-41b0aa8855bb","system_id":"levelo_inurba_marseille","lat":43.32473,"lon":5.36562,"is_reserved":false,"is_disabled":false,"rental_uris":{"android":"levelo://app?vid=984d051a-47d7-4d6c-a90c-41b0aa8855bb","ios":"levelo://app?vid=984d051a-47d7-4d6c-a90c-41b0aa8855bb"},"vehicle_type_id":"4","last_reported":1769901147,"current_range_meters":8400,"station_id":"ce4bhs12rcd13ifvqhvg","pricing_plan_id":"cebpf4jnsgd1na2vs0mg"},{"bike_id":"5b4c0c7a-c0c9-4273-96c2-faded5f9cc26","system_id":"levelo_inurba_marseille","lat":43.27934,"lon":5.41044,"is_reserved":false,"is_disabled":false,"rental_uris":{"android":"levelo://app?vid=5b4c0c7a-c0c9-4273-96c2-faded5f9cc26","ios":"levelo://app?vid=5b4c0c7a-c0c9-4273-96c2-faded5f9cc26"},"vehicle_type_id":"4","last_reported":1769901147,"current_range_meters":8800,"station_id":"ce4bhnp2rcd13ifvqh0g","pricing_plan_id":"cebpf4jnsgd1na2vs0mg"},{"bike_id":"04da1df6-4b42-4515-bc71-2524c0008b6a","system_id":"levelo_inurba_marseille","lat":43.274686,"lon":5.435931,"is_reserved":false,"is_disabled":false,"rental_uris":{"android":"levelo://app?vid=04da1df6-4b42-4515-bc71-2524c0008b6a","ios":"levelo://app?vid=04da1df6-4b42-4515-bc71-2524c0008b6a"},"vehicle_type_id":"4","last_reported":1769901147,"current_range_meters":8800,"station_id":"","pricing_plan_id":"cebpf4jnsgd1na2vs0mg"},{"bike_id":"cbfde2d3-df0a-49db-93c4-81c5397a2860","system_id":"levelo_inurba_marseille","lat":43.2949,"lon":5.38012,"is_reserved":false,"is_disabled":false,"rental_uris":{"android":"levelo://app?vid=cbfde2d3-df0a-49db-93c4-81c5397a2860","ios":"levelo://app?vid=cbfde2d3-df0a-49db-93c4-81c5397a2860"},"vehicle_type_id":"4","last_reported":1769901147,"current_range_meters":8800,"station_id":"","pricing_plan_id":"cebpf4jnsgd1na2vs0mg"},{"bike_id":"667a8115-c025-4bf7-9ff4-f5acd84dd723","system_id":"levelo_inurba_marseille","lat":43.29812,"lon":5.44037,"is_reserved":false,"is_disabled":false,"rental_uris":{"android":"levelo://app?vid=667a8115-c025-4bf7-9ff4-f5acd84dd723","ios":"levelo://app?vid=667a8115-c025-4bf7-9ff4-f5acd84dd723"},"vehicle_type_id":"4","last_reported":1769901147,"current_range_meters":8800,"station_id":"st_d3jp68qikq2c7381ktn0","pricing_plan_id":"cebpf4jnsgd1na2vs0mg"},{"bike_id":"cda423b0-114c-4365-aeb1-89fb80c8de39","system_id":"levelo_inurba_marseille","lat":43.24813,"lon":5.37434,"is_reserved":false,"is_disabled":false,"rental_uris":{"android":"levelo://app?vid=cda423b0-114c-4365-aeb1-89fb80c8de39","ios":"levelo://app?vid=cda423b0-114c-4365-aeb1-89fb80c8de39"},"vehicle_type_id":"4","last_reported":1769901147,"current_range_meters":8800,"station_id":"ce4bhgh2rcd13ifvqfb0","pricing_plan_id":"cebpf4jnsgd1na2vs0mg"},{"bike_id":"6b68bd06-02fc-46d3-a60c-06258ba9ca62","system_id":"levelo_inurba_marseille","lat":43.29536,"lon":5.3906,"is_reserved":false,"is_disabled":false,"rental_uris":{"android":"levelo://app?vid=6b68bd06-02fc-46d3-a60c-06258ba9ca62","ios":"levelo://app?vid=6b68bd06-02fc-46d3-a60c-06258ba9ca62"},"vehicle_type_id":"4","last_reported":1769901147,"current_range_meters":8800,"station_id":"ce4bh3p2rcd13ifvqdp0","pricing_plan_id":"cebpf4jnsgd1na2vs0mg"},{"bike_id":"d93f14c7-2352-47e6-8667-ef12cf410128","system_id":"levelo_inurba_marseille","lat":43.31171,"lon":5.38711,"is_reserved":false,"is_disabled":false,"rental_uris":{"android":"levelo://app?vid=d93f14c7-2352-47e6-8667-ef12cf410128","ios":"levelo://app?vid=d93f14c7-2352-47e6-8667-ef12cf410128"},"vehicle_type_id":"4","last_reported":1769901147,"current_range_meters":8800,"station_id":"ce4bgv12rcd13ifvqcp0","pricing_plan_id":"cebpf4jnsgd1na2vs0mg"},{"bike_id":"f973d1ec-f118-4c4f-8306-b65dfb7e2f13","system_id":"levelo_inurba_marseille","lat":43.2847,"lon":5.39088,"is_reserved":false,"is_disabled":false,"rental_uris":{"android":"levelo://app?vid=f973d1ec-f118-4c4f-8306-b65dfb7e2f13","ios":"levelo://app?vid=f973d1ec-f118-4c4f-8306-b65dfb7e2f13"},"vehicle_type_id":"4","last_reported":1769901147,"current_range_meters":8800,"station_id":"","pricing_plan_id":"cebpf4jnsgd1na2vs0mg"},{"bike_id":"3471e8e7-8da3-45e0-a561-cdc2e5b04adf","system_id":"levelo_inurba_marseille","lat":43.24631,"lon":5.43147,"is_reserved":false,"is_disabled":false,"rental_uris":{"android":"levelo://app?vid=3471e8e7-8da3-45e0-a561-cdc2e5b04adf","ios":"levelo://app?vid=3471e8e7-8da3-45e0-a561-cdc2e5b04adf"},"vehicle_type_id":"4","last_reported":1769901147,"current_range_meters":8800,"station_id":"st_d2m6c4gdas8pm72e190g","pricing_plan_id":"cebpf4jnsgd1na2vs0mg"},{"bike_id":"15b4783f-966c-4f97-8878-41f925f60737","system_id":"levelo_inurba_marseille","lat":43.302,"lon":5.39475,"is_reserved":false,"is_disabled":false,"rental_uris":{"android":"levelo://app?vid=15b4783f-966c-4f97-8878-41f925f60737","ios":"levelo://app?vid=15b4783f-966c-4f97-8878-41f925f60737"},"vehicle_type_id":"4","last_reported":1769901147,"current_range_meters":8800,"station_id":"ce4bh0p2rcd13ifvqd70","pricing_plan_id":"cebpf4jnsgd1na2vs0mg"},{"bike_id":"3609c2a4-1b5f-4ae5-b441-bc3b23fde7e3","system_id":"levelo_inurba_marseille","lat":43.29183,"lon":5.37135,"is_reserved":false,"is_disabled":false,"rental_uris":{"android":"levelo://app?vid=3609c2a4-1b5f-4ae5-b441-bc3b23fde7e3","ios":"levelo://app?vid=3609c2a4-1b5f-4ae5-b441-bc3b23fde7e3"},"vehicle_type_id":"4","last_reported":1769901147,"current_range_meters":8800,"station_id":"ce4bha92rcd13ifvqeh0","pricing_plan_id":"cebpf4jnsgd1na2vs0mg"},{"bike_id":"767dc731-f365-45e9-b7a0-0144ed9ff9a5","system_id":"levelo_inurba_marseille","lat":43.31193,"lon":5.3684,"is_reserved":false,"is_disabled":false,"rental_uris":{"android":"levelo://app?vid=767dc731-f365-45e9-b7a0-0144ed9ff9a5","ios":"levelo://app?vid=767dc731-f365-45e9-b7a0-0144ed9ff9a5"},"vehicle_type_id":"4","last_reported":1769901147,"current_range_meters":8800,"station_id":"ce4bgl92rcd13ifvqbq0","pricing_plan_id":"cebpf4jnsgd1na2vs0mg"},{"bike_id":"0541ad53-c1bf-4cf5-876b-2a19fe47b261","system_id":"levelo_inurba_marseille","lat":43.32108,"lon":5.36772,"is_reserved":false,"is_disabled":false,"rental_uris":{"android":"levelo://app?vid=0541ad53-c1bf-4cf5-876b-2a19fe47b261","ios":"levelo://app?vid=0541ad53-c1bf-4cf5-876b-2a19fe47b261"},"vehicle_type_id":"4","last_reported":1769901147,"current_range_meters":8800,"station_id":"ce4bhrh2rcd13ifvqhug","pricing_plan_id":"cebpf4jnsgd1na2vs0mg"},{"bike_id":"fdd2fa3c-e616-4a70-8908-7dce39319097","system_id":"levelo_inurba_marseille","lat":43.31064,"lon":5.38364,"is_reserved":false,"is_disabled":false,"rental_uris":{"android":"levelo://app?vid=fdd2fa3c-e616-4a70-8908-7dce39319097","ios":"levelo://app?vid=fdd2fa3c-e616-4a70-8908-7dce39319097"},"vehicle_type_id":"4","last_reported":1769901147,"current_range_meters":8800,"station_id":"ce4bgv92rcd13ifvqcr0","pricing_plan_id":"cebpf4jnsgd1na2vs0mg"},{"bike_id":"282b4c58-6430-4481-adf2-6fc926d2a7c4","system_id":"levelo_inurba_marseille","lat":43.2319,"lon":5.35556,"is_reserved":false,"is_disabled":false,"rental_uris":{"android":"levelo://app?vid=282b4c58-6430-4481-adf2-6fc926d2a7c4","ios":"levelo://app?vid=282b4c58-6430-4481-adf2-6fc926d2a7c4"},"vehicle_type_id":"4","last_reported":1769901147,"current_range_meters":8800,"station_id":"ce4bhu92rcd13ifvqi70","pricing_plan_id":"cebpf4jnsgd1na2vs0mg"},{"bike_id":"78aad4a0-61eb-4f91-bc0d-35c4c5c89d16","system_id":"levelo_inurba_marseille","lat":43.29538,"lon":5.38525,"is_reserved":false,"is_disabled":true,"rental_uris":{"android":"levelo://app?vid=78aad4a0-61eb-4f91-bc0d-35c4c5c89d16","ios":"levelo://app?vid=78aad4a0-61eb-4f91-bc0d-35c4c5c89d16"},"vehicle_type_id":"4","last_reported":1769901147,"current_range_meters":8800,"station_id":"ce4bgih2rcd13ifvqba0","pricing_plan_id":"cebpf4jnsgd1na2vs0mg"},{"bike_id":"7296b1cd-b884-46fd-9da9-7b4b58614661","system_id":"levelo_inurba_marseille","lat":43.32351,"lon":5.36738,"is_reserved":false,"is_disabled":false,"rental_uris":{"android":"levelo://app?vid=7296b1cd-b884-46fd-9da9-7b4b58614661","ios":"levelo://app?vid=7296b1cd-b884-46fd-9da9-7b4b58614661"},"vehicle_type_id":"4","last_reported":1769901147,"current_range_meters":8800,"station_id":"ce4bhsh2rcd13ifvqi2g","pricing_plan_id":"cebpf4jnsgd1na2vs0mg"},{"bike_id":"fdb152c1-6e47-4a4a-a2d9-3ab5de199a7b","system_id":"levelo_inurba_marseille","lat":43.25869,"lon":5.398963,"is_reserved":false,"is_disabled":false,"rental_uris":{"android":"levelo://app?vid=fdb152c1-6e47-4a4a-a2d9-3ab5de199a7b","ios":"levelo://app?vid=fdb152c1-6e47-4a4a-a2d9-3ab5de199a7b"},"vehicle_type_id":"4","last_reported":1769901147,"current_range_meters":8800,"station_id":"ce4bhl92rcd13ifvqghg","pricing_plan_id":"cebpf4jnsgd1na2vs0mg"},{"bike_id":"16ff074f-bc01-46e6-afd4-16d11e14e883","system_id":"levelo_inurba_marseille","lat":43.30601,"lon":5.37221,"is_reserved":false,"is_disabled":false,"rental_uris":{"android":"levelo://app?vid=16ff074f-bc01-46e6-afd4-16d11e14e883","ios":"levelo://app?vid=16ff074f-bc01-46e6-afd4-16d11e14e883"},"vehicle_type_id":"4","last_reported":1769901147,"current_range_meters":8800,"station_id":"ce4bgqh2rcd13ifvqc4g","pricing_plan_id":"cebpf4jnsgd1na2vs0mg"},{"bike_id":"17f7a6ee-3ea2-47b2-a6b2-af428a254ad3","system_id":"levelo_inurba_marseille","lat":43.28615,"lon":5.35112,"is_reserved":false,"is_disabled":false,"rental_uris":{"android":"levelo://app?vid=17f7a6ee-3ea2-47b2-a6b2-af428a254ad3","ios":"levelo://app?vid=17f7a6ee-3ea2-47b2-a6b2-af428a254ad3"},"vehicle_type_id":"4","last_reported":1769901147,"current_range_meters":8800,"station_id":"ce4bhch2rcd13ifvqeug","pricing_plan_id":"cebpf4jnsgd1na2vs0mg"},{"bike_id":"0b595329-88a5-4dab-8a2c-b70bbda22e84","system_id":"levelo_inurba_marseille","lat":43.27946,"lon":5.41058,"is_reserved":false,"is_disabled":false,"rental_uris":{"android":"levelo://app?vid=0b595329-88a5-4dab-8a2c-b70bbda22e84","ios":"levelo://app?vid=0b595329-88a5-4dab-8a2c-b70bbda22e84"},"vehicle_type_id":"4","last_reported":1769901147,"current_range_meters":8800,"station_id":"ce4bhnp2rcd13ifvqh0g","pricing_plan_id":"cebpf4jnsgd1na2vs0mg"},{"bike_id":"3a3b5347-78f4-478d-921b-bd0bd9e28ca6","system_id":"levelo_inurba_marseille","lat":43.26772,"lon":5.39425,"is_reserved":false,"is_disabled":false,"rental_uris":{"android":"levelo://app?vid=3a3b5347-78f4-478d-921b-bd0bd9e28ca6","ios":"levelo://app?vid=3a3b5347-78f4-478d-921b-bd0bd9e28ca6"},"vehicle_type_id":"4","last_reported":1769901147,"current_range_meters":8800,"station_id":"ce4bhh12rcd13ifvqfg0","pricing_plan_id":"cebpf4jnsgd1na2vs0mg"},{"bike_id":"fb24d3d1-fd60-4775-b723-157c13e8fff0","system_id":"levelo_inurba_marseille","lat":43.25518,"lon":5.37652,"is_reserved":false,"is_disabled":false,"rental_uris":{"android":"levelo://app?vid=fb24d3d1-fd60-4775-b723-157c13e8fff0","ios":"levelo://app?vid=fb24d3d1-fd60-4775-b723-157c13e8fff0"},"vehicle_type_id":"4","last_reported":1769901147,"current_range_meters":8800,"station_id":"ce4bhh12rcd13ifvqff0","pricing_plan_id":"cebpf4jnsgd1na2vs0mg"},{"bike_id":"75e7e0f4-e18b-4bc3-90c8-b9bce55601cb","system_id":"levelo_inurba_marseille","lat":43.25349,"lon":5.42172,"is_reserved":false,"is_disabled":false,"rental_uris":{"android":"levelo://app?vid=75e7e0f4-e18b-4bc3-90c8-b9bce55601cb","ios":"levelo://app?vid=75e7e0f4-e18b-4bc3-90c8-b9bce55601cb"},"vehicle_type_id":"4","last_reported":1769901147,"current_range_meters":8800,"station_id":"st_d2m65c5bi1j21697t3ng","pricing_plan_id":"cebpf4jnsgd1na2vs0mg"},{"bike_id":"ee39f90f-3222-4732-9961-b784c72f0999","system_id":"levelo_inurba_marseille","lat":43.23194,"lon":5.35575,"is_reserved":false,"is_disabled":false,"rental_uris":{"android":"levelo://app?vid=ee39f90f-3222-4732-9961-b784c72f0999","ios":"levelo://app?vid=ee39f90f-3222-4732-9961-b784c72f0999"},"vehicle_type_id":"4","last_reported":1769901147,"current_range_meters":8800,"station_id":"ce4bhu92rcd13ifvqi70","pricing_plan_id":"cebpf4jnsgd1na2vs0mg"},{"bike_id":"0a1300ad-2f14-46b7-8956-d36a4a430b42","system_id":"levelo_inurba_marseille","lat":43.24809,"lon":5.3745,"is_reserved":false,"is_disabled":false,"rental_uris":{"android":"levelo://app?vid=0a1300ad-2f14-46b7-8956-d36a4a430b42","ios":"levelo://app?vid=0a1300ad-2f14-46b7-8956-d36a4a430b42"},"vehicle_type_id":"4","last_reported":1769901147,"current_range_meters":9200,"station_id":"ce4bhgh2rcd13ifvqfb0","pricing_plan_id":"cebpf4jnsgd1na2vs0mg"},{"bike_id":"87a354e2-aacd-4ec9-ade6-6f6c8860ce28","system_id":"levelo_inurba_marseille","lat":43.28035,"lon":5.36947,"is_reserved":false,"is_disabled":false,"rental_uris":{"android":"levelo://app?vid=87a354e2-aacd-4ec9-ade6-6f6c8860ce28","ios":"levelo://app?vid=87a354e2-aacd-4ec9-ade6-6f6c8860ce28"},"vehicle_type_id":"4","last_reported":1769901147,"current_range_meters":9200,"station_id":"ce4bha12rcd13ifvqef0","pricing_plan_id":"cebpf4jnsgd1na2vs0mg"},{"bike_id":"7538f3bc-c504-457b-8867-886447e19dda","system_id":"levelo_inurba_marseille","lat":43.28027,"lon":5.36939,"is_reserved":false,"is_disabled":false,"rental_uris":{"android":"levelo://app?vid=7538f3bc-c504-457b-8867-886447e19dda","ios":"levelo://app?vid=7538f3bc-c504-457b-8867-886447e19dda"},"vehicle_type_id":"4","last_reported":1769901147,"current_range_meters":9200,"station_id":"ce4bha12rcd13ifvqef0","pricing_plan_id":"cebpf4jnsgd1na2vs0mg"},{"bike_id":"a5fa5eb4-dba4-4657-ad87-40acdd8b2f31","system_id":"levelo_inurba_marseille","lat":43.31077,"lon":5.4242,"is_reserved":false,"is_disabled":false,"rental_uris":{"android":"levelo://app?vid=a5fa5eb4-dba4-4657-ad87-40acdd8b2f31","ios":"levelo://app?vid=a5fa5eb4-dba4-4657-ad87-40acdd8b2f31"},"vehicle_type_id":"4","last_reported":1769901147,"current_range_meters":9200,"station_id":"ce4bhp92rcd13ifvqhag","pricing_plan_id":"cebpf4jnsgd1na2vs0mg"},{"bike_id":"94dc4ea4-8afe-49be-8c24-144fdf1722a8","system_id":"levelo_inurba_marseille","lat":43.24543,"lon":5.39525,"is_reserved":false,"is_disabled":false,"rental_uris":{"android":"levelo://app?vid=94dc4ea4-8afe-49be-8c24-144fdf1722a8","ios":"levelo://app?vid=94dc4ea4-8afe-49be-8c24-144fdf1722a8"},"vehicle_type_id":"4","last_reported":1769901147,"current_range_meters":9200,"station_id":"ce4bhlp2rcd13ifvqgjg","pricing_plan_id":"cebpf4jnsgd1na2vs0mg"},{"bike_id":"3974ebe5-3070-4140-8de4-6e1a67d32b2b","system_id":"levelo_inurba_marseille","lat":43.29567,"lon":5.36751,"is_reserved":false,"is_disabled":false,"rental_uris":{"android":"levelo://app?vid=3974ebe5-3070-4140-8de4-6e1a67d32b2b","ios":"levelo://app?vid=3974ebe5-3070-4140-8de4-6e1a67d32b2b"},"vehicle_type_id":"4","last_reported":1769901147,"current_range_meters":9200,"station_id":"ce4bgph2rcd13ifvqc2g","pricing_plan_id":"cebpf4jnsgd1na2vs0mg"},{"bike_id":"fef69268-649b-47e7-8506-c54d12be9f6f","system_id":"levelo_inurba_marseille","lat":43.29011,"lon":5.35611,"is_reserved":false,"is_disabled":false,"rental_uris":{"android":"levelo://app?vid=fef69268-649b-47e7-8506-c54d12be9f6f","ios":"levelo://app?vid=fef69268-649b-47e7-8506-c54d12be9f6f"},"vehicle_type_id":"4","last_reported":1769901147,"current_range_meters":9200,"station_id":"ce4bhb92rcd13ifvqen0","pricing_plan_id":"cebpf4jnsgd1na2vs0mg"},{"bike_id":"89da0557-2c6e-4998-90ca-afc2b5a8c88d","system_id":"levelo_inurba_marseille","lat":43.27952,"lon":5.41048,"is_reserved":false,"is_disabled":false,"rental_uris":{"android":"levelo://app?vid=89da0557-2c6e-4998-90ca-afc2b5a8c88d","ios":"levelo://app?vid=89da0557-2c6e-4998-90ca-afc2b5a8c88d"},"vehicle_type_id":"4","last_reported":1769901147,"current_range_meters":9200,"station_id":"ce4bhnp2rcd13ifvqh0g","pricing_plan_id":"cebpf4jnsgd1na2vs0mg"},{"bike_id":"8a7fee3a-0ea8-44aa-be3e-3950f4f7dcc0","system_id":"levelo_inurba_marseille","lat":43.29265,"lon":5.38441,"is_reserved":false,"is_disabled":false,"rental_uris":{"android":"levelo://app?vid=8a7fee3a-0ea8-44aa-be3e-3950f4f7dcc0","ios":"levelo://app?vid=8a7fee3a-0ea8-44aa-be3e-3950f4f7dcc0"},"vehicle_type_id":"4","last_reported":1769901147,"current_range_meters":9200,"station_id":"ce4bh692rcd13ifvqea0","pricing_plan_id":"cebpf4jnsgd1na2vs0mg"},{"bike_id":"799b66e3-6851-4405-9c44-fdc13bb833bd","system_id":"levelo_inurba_marseille","lat":43.30943,"lon":5.39059,"is_reserved":false,"is_disabled":false,"rental_uris":{"android":"levelo://app?vid=799b66e3-6851-4405-9c44-fdc13bb833bd","ios":"levelo://app?vid=799b66e3-6851-4405-9c44-fdc13bb833bd"},"vehicle_type_id":"4","last_reported":1769901147,"current_range_meters":9200,"station_id":"ce4bgup2rcd13ifvqco0","pricing_plan_id":"cebpf4jnsgd1na2vs0mg"},{"bike_id":"967e1832-468e-48d4-b164-1bb5ff385d3e","system_id":"levelo_inurba_marseille","lat":43.24661,"lon":5.43146,"is_reserved":false,"is_disabled":false,"rental_uris":{"android":"levelo://app?vid=967e1832-468e-48d4-b164-1bb5ff385d3e","ios":"levelo://app?vid=967e1832-468e-48d4-b164-1bb5ff385d3e"},"vehicle_type_id":"4","last_reported":1769901147,"current_range_meters":9200,"station_id":"st_d2m6c4gdas8pm72e190g","pricing_plan_id":"cebpf4jnsgd1na2vs0mg"},{"bike_id":"b4fbeb64-1fb9-4178-ae15-4108561043c9","system_id":"levelo_inurba_marseille","lat":43.24653,"lon":5.38886,"is_reserved":false,"is_disabled":false,"rental_uris":{"android":"levelo://app?vid=b4fbeb64-1fb9-4178-ae15-4108561043c9","ios":"levelo://app?vid=b4fbeb64-1fb9-4178-ae15-4108561043c9"},"vehicle_type_id":"4","last_reported":1769901147,"current_range_meters":9600,"station_id":"ce4bhg12rcd13ifvqf60","pricing_plan_id":"cebpf4jnsgd1na2vs0mg"},{"bike_id":"1b9e7bf5-f399-4b7a-935f-44d1badb48a9","system_id":"levelo_inurba_marseille","lat":43.292661,"lon":5.384371,"is_reserved":false,"is_disabled":false,"rental_uris":{"android":"levelo://app?vid=1b9e7bf5-f399-4b7a-935f-44d1badb48a9","ios":"levelo://app?vid=1b9e7bf5-f399-4b7a-935f-44d1badb48a9"},"vehicle_type_id":"4","last_reported":1769901147,"current_range_meters":9600,"station_id":"ce4bh3p2rcd13ifvqdp0","pricing_plan_id":"cebpf4jnsgd1na2vs0mg"},{"bike_id":"a825a34e-c66c-4578-9dd4-68f63a09f21e","system_id":"levelo_inurba_marseille","lat":43.27386,"lon":5.36276,"is_reserved":false,"is_disabled":false,"rental_uris":{"android":"levelo://app?vid=a825a34e-c66c-4578-9dd4-68f63a09f21e","ios":"levelo://app?vid=a825a34e-c66c-4578-9dd4-68f63a09f21e"},"vehicle_type_id":"4","last_reported":1769901147,"current_range_meters":9600,"station_id":"ce4bhbh2rcd13ifvqeo0","pricing_plan_id":"cebpf4jnsgd1na2vs0mg"},{"bike_id":"692c7a43-943c-4d75-9c0c-883b6786a702","system_id":"levelo_inurba_marseille","lat":43.29286,"lon":5.38427,"is_reserved":false,"is_disabled":false,"rental_uris":{"android":"levelo://app?vid=692c7a43-943c-4d75-9c0c-883b6786a702","ios":"levelo://app?vid=692c7a43-943c-4d75-9c0c-883b6786a702"},"vehicle_type_id":"4","last_reported":1769901147,"current_range_meters":9600,"station_id":"ce4bh692rcd13ifvqea0","pricing_plan_id":"cebpf4jnsgd1na2vs0mg"},{"bike_id":"33073528-1e22-401a-900c-0ca191a8c4cf","system_id":"levelo_inurba_marseille","lat":43.2257,"lon":5.41548,"is_reserved":false,"is_disabled":false,"rental_uris":{"android":"levelo://app?vid=33073528-1e22-401a-900c-0ca191a8c4cf","ios":"levelo://app?vid=33073528-1e22-401a-900c-0ca191a8c4cf"},"vehicle_type_id":"4","last_reported":1769901147,"current_range_meters":9600,"station_id":"","pricing_plan_id":"cebpf4jnsgd1na2vs0mg"},{"bike_id":"93e60425-8aae-4f4b-b447-57ef8147db67","system_id":"levelo_inurba_marseille","lat":43.2847,"lon":5.48403,"is_reserved":false,"is_disabled":false,"rental_uris":{"android":"levelo://app?vid=93e60425-8aae-4f4b-b447-57ef8147db67","ios":"levelo://app?vid=93e60425-8aae-4f4b-b447-57ef8147db67"},"vehicle_type_id":"4","last_reported":1769901147,"current_range_meters":9600,"station_id":"st_d3svhcjqgbts73a3dn0g","pricing_plan_id":"cebpf4jnsgd1na2vs0mg"},{"bike_id":"5e1c4385-fefc-40d8-9043-9539df7efdd8","system_id":"levelo_inurba_marseille","lat":43.337444,"lon":5.374475,"is_reserved":false,"is_disabled":false,"rental_uris":{"android":"levelo://app?vid=5e1c4385-fefc-40d8-9043-9539df7efdd8","ios":"levelo://app?vid=5e1c4385-fefc-40d8-9043-9539df7efdd8"},"vehicle_type_id":"4","last_reported":1769901147,"current_range_meters":9600,"station_id":"ce4bhbp2rcd13ifvqesg","pricing_plan_id":"cebpf4jnsgd1na2vs0mg"},{"bike_id":"3bdfdbfd-4a2c-4cef-a1ef-828fe31f005e","system_id":"levelo_inurba_marseille","lat":43.241679,"lon":5.363943,"is_reserved":false,"is_disabled":false,"rental_uris":{"android":"levelo://app?vid=3bdfdbfd-4a2c-4cef-a1ef-828fe31f005e","ios":"levelo://app?vid=3bdfdbfd-4a2c-4cef-a1ef-828fe31f005e"},"vehicle_type_id":"4","last_reported":1769901147,"current_range_meters":9600,"station_id":"cpo36qri1sfpv3e86is0","pricing_plan_id":"cebpf4jnsgd1na2vs0mg"},{"bike_id":"a9976113-461f-4068-baa6-28ae0013e332","system_id":"levelo_inurba_marseille","lat":43.25347,"lon":5.42164,"is_reserved":false,"is_disabled":false,"rental_uris":{"android":"levelo://app?vid=a9976113-461f-4068-baa6-28ae0013e332","ios":"levelo://app?vid=a9976113-461f-4068-baa6-28ae0013e332"},"vehicle_type_id":"4","last_reported":1769901147,"current_range_meters":9600,"station_id":"st_d2m65c5bi1j21697t3ng","pricing_plan_id":"cebpf4jnsgd1na2vs0mg"},{"bike_id":"2b052603-1775-4258-80ad-ae63b6286ef5","system_id":"levelo_inurba_marseille","lat":43.2974,"lon":5.35925,"is_reserved":false,"is_disabled":true,"rental_uris":{"android":"levelo://app?vid=2b052603-1775-4258-80ad-ae63b6286ef5","ios":"levelo://app?vid=2b052603-1775-4258-80ad-ae63b6286ef5"},"vehicle_type_id":"4","last_reported":1769901147,"current_range_meters":9600,"station_id":"","pricing_plan_id":"cebpf4jnsgd1na2vs0mg"},{"bike_id":"8955a00b-cb7d-4c6b-bd4d-640663902a3f","system_id":"levelo_inurba_marseille","lat":43.29598,"lon":5.38152,"is_reserved":false,"is_disabled":false,"rental_uris":{"android":"levelo://app?vid=8955a00b-cb7d-4c6b-bd4d-640663902a3f","ios":"levelo://app?vid=8955a00b-cb7d-4c6b-bd4d-640663902a3f"},"vehicle_type_id":"4","last_reported":1769901147,"current_range_meters":9600,"station_id":"ce4bgl12rcd13ifvqbo0","pricing_plan_id":"cebpf4jnsgd1na2vs0mg"},{"bike_id":"27b23e62-94fe-425d-8c2e-1ed932d48b71","system_id":"levelo_inurba_marseille","lat":43.2314,"lon":5.43716,"is_reserved":false,"is_disabled":false,"rental_uris":{"android":"levelo://app?vid=27b23e62-94fe-425d-8c2e-1ed932d48b71","ios":"levelo://app?vid=27b23e62-94fe-425d-8c2e-1ed932d48b71"},"vehicle_type_id":"4","last_reported":1769901147,"current_range_meters":9600,"station_id":"ce4bhmp2rcd13ifvqgog","pricing_plan_id":"cebpf4jnsgd1na2vs0mg"},{"bike_id":"58982c61-2f00-4e02-b620-223b4d372a1d","system_id":"levelo_inurba_marseille","lat":43.25574,"lon":5.38237,"is_reserved":false,"is_disabled":false,"rental_uris":{"android":"levelo://app?vid=58982c61-2f00-4e02-b620-223b4d372a1d","ios":"levelo://app?vid=58982c61-2f00-4e02-b620-223b4d372a1d"},"vehicle_type_id":"4","last_reported":1769901147,"current_range_meters":9600,"station_id":"ce4bhih2rcd13ifvqfs0","pricing_plan_id":"cebpf4jnsgd1na2vs0mg"},{"bike_id":"c0289a6d-61c6-4bc2-837b-b956781f96f3","system_id":"levelo_inurba_marseille","lat":43.29768,"lon":5.38106,"is_reserved":false,"is_disabled":false,"rental_uris":{"android":"levelo://app?vid=c0289a6d-61c6-4bc2-837b-b956781f96f3","ios":"levelo://app?vid=c0289a6d-61c6-4bc2-837b-b956781f96f3"},"vehicle_type_id":"4","last_reported":1769901147,"current_range_meters":10000,"station_id":"ce4bgip2rcd13ifvqbb0","pricing_plan_id":"cebpf4jnsgd1na2vs0mg"},{"bike_id":"f1afd73d-ec70-4dba-ac5d-df0bb8cc8cb8","system_id":"levelo_inurba_marseille","lat":43.24629,"lon":5.43146,"is_reserved":false,"is_disabled":false,"rental_uris":{"android":"levelo://app?vid=f1afd73d-ec70-4dba-ac5d-df0bb8cc8cb8","ios":"levelo://app?vid=f1afd73d-ec70-4dba-ac5d-df0bb8cc8cb8"},"vehicle_type_id":"4","last_reported":1769901147,"current_range_meters":10000,"station_id":"st_d2m6c4gdas8pm72e190g","pricing_plan_id":"cebpf4jnsgd1na2vs0mg"},{"bike_id":"d431d2dc-fe64-4d55-be3e-18b6291747e9","system_id":"levelo_inurba_marseille","lat":43.23058,"lon":5.35496,"is_reserved":false,"is_disabled":false,"rental_uris":{"android":"levelo://app?vid=d431d2dc-fe64-4d55-be3e-18b6291747e9","ios":"levelo://app?vid=d431d2dc-fe64-4d55-be3e-18b6291747e9"},"vehicle_type_id":"4","last_reported":1769901147,"current_range_meters":10000,"station_id":"cpo3342slgdg3j2ifvpg","pricing_plan_id":"cebpf4jnsgd1na2vs0mg"},{"bike_id":"d2ee53f1-49b6-44a6-a171-d364ff8162cf","system_id":"levelo_inurba_marseille","lat":43.33371,"lon":5.43122,"is_reserved":false,"is_disabled":false,"rental_uris":{"android":"levelo://app?vid=d2ee53f1-49b6-44a6-a171-d364ff8162cf","ios":"levelo://app?vid=d2ee53f1-49b6-44a6-a171-d364ff8162cf"},"vehicle_type_id":"4","last_reported":1769901147,"current_range_meters":10000,"station_id":"","pricing_plan_id":"cebpf4jnsgd1na2vs0mg"},{"bike_id":"4c50b102-00aa-40e2-83bd-5e90d2e54b17","system_id":"levelo_inurba_marseille","lat":43.27999,"lon":5.40031,"is_reserved":false,"is_disabled":false,"rental_uris":{"android":"levelo://app?vid=4c50b102-00aa-40e2-83bd-5e90d2e54b17","ios":"levelo://app?vid=4c50b102-00aa-40e2-83bd-5e90d2e54b17"},"vehicle_type_id":"4","last_reported":1769901147,"current_range_meters":10000,"station_id":"ce4bho92rcd13ifvqh4g","pricing_plan_id":"cebpf4jnsgd1na2vs0mg"},{"bike_id":"4ad2da66-d00a-4006-af72-87c62567c87f","system_id":"levelo_inurba_marseille","lat":43.3103,"lon":5.38591,"is_reserved":false,"is_disabled":false,"rental_uris":{"android":"levelo://app?vid=4ad2da66-d00a-4006-af72-87c62567c87f","ios":"levelo://app?vid=4ad2da66-d00a-4006-af72-87c62567c87f"},"vehicle_type_id":"4","last_reported":1769901147,"current_range_meters":10000,"station_id":"","pricing_plan_id":"cebpf4jnsgd1na2vs0mg"},{"bike_id":"bfe9137b-04f2-4da0-a6ab-3cb1bedb8523","system_id":"levelo_inurba_marseille","lat":43.27499,"lon":5.37746,"is_reserved":false,"is_disabled":false,"rental_uris":{"android":"levelo://app?vid=bfe9137b-04f2-4da0-a6ab-3cb1bedb8523","ios":"levelo://app?vid=bfe9137b-04f2-4da0-a6ab-3cb1bedb8523"},"vehicle_type_id":"4","last_reported":1769901147,"current_range_meters":10000,"station_id":"","pricing_plan_id":"cebpf4jnsgd1na2vs0mg"},{"bike_id":"07fa3d21-cf03-4fb9-b9d4-dde85401ad36","system_id":"levelo_inurba_marseille","lat":43.28407,"lon":5.37526,"is_reserved":false,"is_disabled":false,"rental_uris":{"android":"levelo://app?vid=07fa3d21-cf03-4fb9-b9d4-dde85401ad36","ios":"levelo://app?vid=07fa3d21-cf03-4fb9-b9d4-dde85401ad36"},"vehicle_type_id":"4","last_reported":1769901147,"current_range_meters":10000,"station_id":"ce4bh412rcd13ifvqds0","pricing_plan_id":"cebpf4jnsgd1na2vs0mg"},{"bike_id":"4074f7c4-cf6b-4373-aeb2-a1af8e763b39","system_id":"levelo_inurba_marseille","lat":43.31517,"lon":5.37279,"is_reserved":false,"is_disabled":false,"rental_uris":{"android":"levelo://app?vid=4074f7c4-cf6b-4373-aeb2-a1af8e763b39","ios":"levelo://app?vid=4074f7c4-cf6b-4373-aeb2-a1af8e763b39"},"vehicle_type_id":"4","last_reported":1769901147,"current_range_meters":10000,"station_id":"ce4bgt12rcd13ifvqcd0","pricing_plan_id":"cebpf4jnsgd1na2vs0mg"},{"bike_id":"1c236d16-60f0-4d94-8509-fdc59c62481a","system_id":"levelo_inurba_marseille","lat":43.25823,"lon":5.39433,"is_reserved":false,"is_disabled":false,"rental_uris":{"android":"levelo://app?vid=1c236d16-60f0-4d94-8509-fdc59c62481a","ios":"levelo://app?vid=1c236d16-60f0-4d94-8509-fdc59c62481a"},"vehicle_type_id":"4","last_reported":1769901147,"current_range_meters":10800,"station_id":"ce4bhip2rcd13ifvqft0","pricing_plan_id":"cebpf4jnsgd1na2vs0mg"},{"bike_id":"c80f4e19-c866-48f3-a324-75dc35bb5982","system_id":"levelo_inurba_marseille","lat":43.29528,"lon":5.38531,"is_reserved":false,"is_disabled":false,"rental_uris":{"android":"levelo://app?vid=c80f4e19-c866-48f3-a324-75dc35bb5982","ios":"levelo://app?vid=c80f4e19-c866-48f3-a324-75dc35bb5982"},"vehicle_type_id":"4","last_reported":1769901147,"current_range_meters":10800,"station_id":"","pricing_plan_id":"cebpf4jnsgd1na2vs0mg"},{"bike_id":"7f4390ba-3037-46bc-a26f-c691064659a4","system_id":"levelo_inurba_marseille","lat":43.31711,"lon":5.43706,"is_reserved":false,"is_disabled":false,"rental_uris":{"android":"levelo://app?vid=7f4390ba-3037-46bc-a26f-c691064659a4","ios":"levelo://app?vid=7f4390ba-3037-46bc-a26f-c691064659a4"},"vehicle_type_id":"4","last_reported":1769901147,"current_range_meters":10800,"station_id":"ce4bhp92rcd13ifvqhcg","pricing_plan_id":"cebpf4jnsgd1na2vs0mg"},{"bike_id":"598ec0e8-009d-406d-bae1-dedddf86833b","system_id":"levelo_inurba_marseille","lat":43.31214,"lon":5.36855,"is_reserved":false,"is_disabled":false,"rental_uris":{"android":"levelo://app?vid=598ec0e8-009d-406d-bae1-dedddf86833b","ios":"levelo://app?vid=598ec0e8-009d-406d-bae1-dedddf86833b"},"vehicle_type_id":"4","last_reported":1769901147,"current_range_meters":10800,"station_id":"ce4bgl92rcd13ifvqbq0","pricing_plan_id":"cebpf4jnsgd1na2vs0mg"},{"bike_id":"414c5a26-6221-4a83-a117-3d6e5b43843c","system_id":"levelo_inurba_marseille","lat":43.28699,"lon":5.37402,"is_reserved":false,"is_disabled":false,"rental_uris":{"android":"levelo://app?vid=414c5a26-6221-4a83-a117-3d6e5b43843c","ios":"levelo://app?vid=414c5a26-6221-4a83-a117-3d6e5b43843c"},"vehicle_type_id":"4","last_reported":1769901147,"current_range_meters":10800,"station_id":"ce4bh3p2rcd13ifvqdq0","pricing_plan_id":"cebpf4jnsgd1na2vs0mg"},{"bike_id":"3c9bc6df-6dc5-4749-8484-3a081a572fd1","system_id":"levelo_inurba_marseille","lat":43.2669,"lon":5.38272,"is_reserved":false,"is_disabled":false,"rental_uris":{"android":"levelo://app?vid=3c9bc6df-6dc5-4749-8484-3a081a572fd1","ios":"levelo://app?vid=3c9bc6df-6dc5-4749-8484-3a081a572fd1"},"vehicle_type_id":"4","last_reported":1769901147,"current_range_meters":10800,"station_id":"ce4bhg92rcd13ifvqf90","pricing_plan_id":"cebpf4jnsgd1na2vs0mg"},{"bike_id":"cb16a0fb-a0f9-4601-ab2a-91a6d88760fa","system_id":"levelo_inurba_marseille","lat":43.265679,"lon":5.403253,"is_reserved":false,"is_disabled":false,"rental_uris":{"android":"levelo://app?vid=cb16a0fb-a0f9-4601-ab2a-91a6d88760fa","ios":"levelo://app?vid=cb16a0fb-a0f9-4601-ab2a-91a6d88760fa"},"vehicle_type_id":"4","last_reported":1769901147,"current_range_meters":10800,"station_id":"ce4bhmp2rcd13ifvqgng","pricing_plan_id":"cebpf4jnsgd1na2vs0mg"},{"bike_id":"6324e847-1938-4e7e-af5e-4c627daba90f","system_id":"levelo_inurba_marseille","lat":43.29527,"lon":5.39024,"is_reserved":false,"is_disabled":false,"rental_uris":{"android":"levelo://app?vid=6324e847-1938-4e7e-af5e-4c627daba90f","ios":"levelo://app?vid=6324e847-1938-4e7e-af5e-4c627daba90f"},"vehicle_type_id":"4","last_reported":1769901147,"current_range_meters":10800,"station_id":"ce4bh3p2rcd13ifvqdp0","pricing_plan_id":"cebpf4jnsgd1na2vs0mg"},{"bike_id":"770f2f22-15f8-4987-b971-690af65785ff","system_id":"levelo_inurba_marseille","lat":43.26568,"lon":5.40326,"is_reserved":false,"is_disabled":false,"rental_uris":{"android":"levelo://app?vid=770f2f22-15f8-4987-b971-690af65785ff","ios":"levelo://app?vid=770f2f22-15f8-4987-b971-690af65785ff"},"vehicle_type_id":"4","last_reported":1769901147,"current_range_meters":10800,"station_id":"ce4bhmp2rcd13ifvqgng","pricing_plan_id":"cebpf4jnsgd1na2vs0mg"},{"bike_id":"935bb1e1-ef06-45ae-8872-378ba3a79a19","system_id":"levelo_inurba_marseille","lat":43.309235,"lon":5.401412,"is_reserved":false,"is_disabled":false,"rental_uris":{"android":"levelo://app?vid=935bb1e1-ef06-45ae-8872-378ba3a79a19","ios":"levelo://app?vid=935bb1e1-ef06-45ae-8872-378ba3a79a19"},"vehicle_type_id":"4","last_reported":1769901147,"current_range_meters":10800,"station_id":"ce4bgvp2rcd13ifvqct0","pricing_plan_id":"cebpf4jnsgd1na2vs0mg"},{"bike_id":"ead9d525-178d-43f7-b202-498aac541976","system_id":"levelo_inurba_marseille","lat":43.22558,"lon":5.41629,"is_reserved":false,"is_disabled":false,"rental_uris":{"android":"levelo://app?vid=ead9d525-178d-43f7-b202-498aac541976","ios":"levelo://app?vid=ead9d525-178d-43f7-b202-498aac541976"},"vehicle_type_id":"4","last_reported":1769901147,"current_range_meters":10800,"station_id":"st_d2o4gvlbi1j2169b742g","pricing_plan_id":"cebpf4jnsgd1na2vs0mg"},{"bike_id":"36959ff4-69f0-42bb-bb47-b1f1ee86eedd","system_id":"levelo_inurba_marseille","lat":43.30964,"lon":5.39038,"is_reserved":false,"is_disabled":false,"rental_uris":{"android":"levelo://app?vid=36959ff4-69f0-42bb-bb47-b1f1ee86eedd","ios":"levelo://app?vid=36959ff4-69f0-42bb-bb47-b1f1ee86eedd"},"vehicle_type_id":"4","last_reported":1769901147,"current_range_meters":10800,"station_id":"ce4bgup2rcd13ifvqco0","pricing_plan_id":"cebpf4jnsgd1na2vs0mg"},{"bike_id":"f152d78c-f2e0-4c77-8d6e-dd0072285ace","system_id":"levelo_inurba_marseille","lat":43.24953,"lon":5.40516,"is_reserved":false,"is_disabled":false,"rental_uris":{"android":"levelo://app?vid=f152d78c-f2e0-4c77-8d6e-dd0072285ace","ios":"levelo://app?vid=f152d78c-f2e0-4c77-8d6e-dd0072285ace"},"vehicle_type_id":"4","last_reported":1769901147,"current_range_meters":10800,"station_id":"st_d2ngiaodas8pm72gd1h0","pricing_plan_id":"cebpf4jnsgd1na2vs0mg"},{"bike_id":"988398a3-7ea1-401c-9290-5cadcd4b0590","system_id":"levelo_inurba_marseille","lat":43.25021,"lon":5.38931,"is_reserved":false,"is_disabled":false,"rental_uris":{"android":"levelo://app?vid=988398a3-7ea1-401c-9290-5cadcd4b0590","ios":"levelo://app?vid=988398a3-7ea1-401c-9290-5cadcd4b0590"},"vehicle_type_id":"4","last_reported":1769901147,"current_range_meters":10800,"station_id":"ce4bhgp2rcd13ifvqfd0","pricing_plan_id":"cebpf4jnsgd1na2vs0mg"},{"bike_id":"b26b7a51-932a-4045-96ca-602fdf1f8264","system_id":"levelo_inurba_marseille","lat":43.23068,"lon":5.35493,"is_reserved":false,"is_disabled":false,"rental_uris":{"android":"levelo://app?vid=b26b7a51-932a-4045-96ca-602fdf1f8264","ios":"levelo://app?vid=b26b7a51-932a-4045-96ca-602fdf1f8264"},"vehicle_type_id":"4","last_reported":1769901147,"current_range_meters":10800,"station_id":"cpo3342slgdg3j2ifvpg","pricing_plan_id":"cebpf4jnsgd1na2vs0mg"},{"bike_id":"d6fd3dc6-4a1a-42ff-a99a-2a4b414e13ca","system_id":"levelo_inurba_marseille","lat":43.25334,"lon":5.42179,"is_reserved":false,"is_disabled":false,"rental_uris":{"android":"levelo://app?vid=d6fd3dc6-4a1a-42ff-a99a-2a4b414e13ca","ios":"levelo://app?vid=d6fd3dc6-4a1a-42ff-a99a-2a4b414e13ca"},"vehicle_type_id":"4","last_reported":1769901147,"current_range_meters":10800,"station_id":"st_d2m65c5bi1j21697t3ng","pricing_plan_id":"cebpf4jnsgd1na2vs0mg"},{"bike_id":"cf22372f-d36a-4766-bd66-40f23aa014c4","system_id":"levelo_inurba_marseille","lat":43.28856,"lon":5.39317,"is_reserved":false,"is_disabled":false,"rental_uris":{"android":"levelo://app?vid=cf22372f-d36a-4766-bd66-40f23aa014c4","ios":"levelo://app?vid=cf22372f-d36a-4766-bd66-40f23aa014c4"},"vehicle_type_id":"4","last_reported":1769901147,"current_range_meters":11200,"station_id":"ce4bh2p2rcd13ifvqdi0","pricing_plan_id":"cebpf4jnsgd1na2vs0mg"},{"bike_id":"fcc56630-d6aa-427a-9b6b-6381e911d09d","system_id":"levelo_inurba_marseille","lat":43.27945,"lon":5.41048,"is_reserved":false,"is_disabled":false,"rental_uris":{"android":"levelo://app?vid=fcc56630-d6aa-427a-9b6b-6381e911d09d","ios":"levelo://app?vid=fcc56630-d6aa-427a-9b6b-6381e911d09d"},"vehicle_type_id":"4","last_reported":1769901147,"current_range_meters":11200,"station_id":"ce4bhnp2rcd13ifvqh0g","pricing_plan_id":"cebpf4jnsgd1na2vs0mg"},{"bike_id":"b00753f6-9e43-40ef-9959-628446071746","system_id":"levelo_inurba_marseille","lat":43.278184,"lon":5.407224,"is_reserved":false,"is_disabled":true,"rental_uris":{"android":"levelo://app?vid=b00753f6-9e43-40ef-9959-628446071746","ios":"levelo://app?vid=b00753f6-9e43-40ef-9959-628446071746"},"vehicle_type_id":"4","last_reported":1769901147,"current_range_meters":11200,"station_id":"ce4bhnh2rcd13ifvqgtg","pricing_plan_id":"cebpf4jnsgd1na2vs0mg"},{"bike_id":"8d672370-6dac-4499-9863-edf0e3025199","system_id":"levelo_inurba_marseille","lat":43.25592,"lon":5.382,"is_reserved":false,"is_disabled":false,"rental_uris":{"android":"levelo://app?vid=8d672370-6dac-4499-9863-edf0e3025199","ios":"levelo://app?vid=8d672370-6dac-4499-9863-edf0e3025199"},"vehicle_type_id":"4","last_reported":1769901147,"current_range_meters":11200,"station_id":"ce4bhih2rcd13ifvqfs0","pricing_plan_id":"cebpf4jnsgd1na2vs0mg"},{"bike_id":"bafe06f4-691a-42ad-b544-2647048d76df","system_id":"levelo_inurba_marseille","lat":43.23029,"lon":5.35501,"is_reserved":false,"is_disabled":false,"rental_uris":{"android":"levelo://app?vid=bafe06f4-691a-42ad-b544-2647048d76df","ios":"levelo://app?vid=bafe06f4-691a-42ad-b544-2647048d76df"},"vehicle_type_id":"4","last_reported":1769901147,"current_range_meters":11200,"station_id":"cpo3342slgdg3j2ifvpg","pricing_plan_id":"cebpf4jnsgd1na2vs0mg"},