{"last_updated":1727417613,"ttl":60,"version":"2.2","data":{"bikes":[{"bike_id":"204040ce-2445-48a7-93a0-9cb160a4e374","system_id":"levelo_inurba_marseille","lat":43.30466,"lon":5.37914,"is_reserved":false,"is_disabled":false,"rental_uris":{"android":"levelo://app?vid=204040ce-2445-48a7-93a0-9cb160a4e374","ios":"levelo://app?vid=204040ce-2445-48a7-93a0-9cb160a4e374"},"vehicle_type_id":"4","last_reported":1727417613,"current_range_meters":30800,"station_id":"ce4bgup2rcd13ifvqcn0","pricing_plan_id":"cebpf4jnsgd1na2vs0mg"},{"bike_id":"5e12ba5e-f7a1-4936-8720-ec0730e7b63b","system_id":"levelo_inurba_marseille","lat":43.29263,"lon":5.40135,"is_reserved":false,"is_disabled":false,"rental_uris":{"android":"levelo://app?vid=5e12ba5e-f7a1-4936-8720-ec0730e7b63b","ios":"levelo://app?vid=5e12ba5e-f7a1-4936-8720-ec0730e7b63b"},"vehicle_type_id":"4","last_reported":1727417613,"current_range_meters":3600,"station_id":"ce4bh312rcd13ifvqdk0","pricing_plan_id":"cebpf4jnsgd1na2vs0mg"},{"bike_id":"9cc3f55e-f15a-4c6e-9aad-7382ccb1af3f","system_id":"levelo_inurba_marseille","lat":43.30151,"lon":5.3808,"is_reserved":false,"is_disabled":false,"rental_uris":{"android":"levelo://app?vid=9cc3f55e-f15a-4c6e-9aad-7382ccb1af3f","ios":"levelo://app?vid=9cc3f55e-f15a-4c6e-9aad-7382ccb1af3f"},"vehicle_type_id":"4","last_reported":1727417613,"current_range_meters":8800,"station_id":"ce4bgjp2rcd13ifvqbh0","pricing_plan_id":"cebpf4jnsgd1na2vs0mg"},{"bike_id":"46f2ec07-69a2-408e-867a-57437c70c86f","system_id":"levelo_inurba_marseille","lat":43.30468,"lon":5.3792,"is_reserved":false,"is_disabled":false,"rental_uris":{"android":"levelo://app?vid=46f2ec07-69a2-408e-867a-57437c70c86f","ios":"levelo://app?vid=46f2ec07-69a2-408e-867a-57437c70c86f"},"vehicle_type_id":"4","last_reported":1727417613,"current_range_meters":25600,"station_id":"ce4bgup2rcd13ifvqcn0","pricing_plan_id":"cebpf4jnsgd1na2vs0mg"},{"bike_id":"b7d4c31a-d244-4726-a6c8-7797d4822f89","system_id":"levelo_inurba_marseille","lat":43.25941,"lon":5.40901,"is_reserved":false,"is_disabled":false,"rental_uris":{"android":"levelo://app?vid=b7d4c31a-d244-4726-a6c8-7797d4822f89","ios":"levelo://app?vid=b7d4c31a-d244-4726-a6c8-7797d4822f89"},"vehicle_type_id":"4","last_reported":1727417613,"current_range_meters":33600,"station_id":"ce4bhm92rcd13ifvqglg","pricing_plan_id":"cebpf4jnsgd1na2vs0mg"},{"bike_id":"2fb200d7-7ff2-47e1-ab61-4c1a5539af3e","system_id":"levelo_inurba_marseille","lat":43.33604,"lon":5.41034,"is_reserved":false,"is_disabled":false,"rental_uris":{"android":"levelo://app?vid=2fb200d7-7ff2-47e1-ab61-4c1a5539af3e","ios":"levelo://app?vid=2fb200d7-7ff2-47e1-ab61-4c1a5539af3e"},"vehicle_type_id":"4","last_reported":1727417613,"current_range_meters":38000,"station_id":"ce4bhqh2rcd13ifvqhmg","pricing_plan_id":"cebpf4jnsgd1na2vs0mg"},{"bike_id":"319a95fd-4cb6-4140-b1df-59a1aab23798","system_id":"levelo_inurba_marseille","lat":43.23162,"lon":5.43714,"is_reserved":false,"is_disabled":false,"rental_uris":{"android":"levelo://app?vid=319a95fd-4cb6-4140-b1df-59a1aab23798","ios":"levelo://app?vid=319a95fd-4cb6-4140-b1df-59a1aab23798"},"vehicle_type_id":"4","last_reported":1727417613,"current_range_meters":14800,"station_id":"ce4bhmp2rcd13ifvqgog","pricing_plan_id":"cebpf4jnsgd1na2vs0mg"},{"bike_id":"fce7f977-3afa-4d60-8626-f6f94ef572ff","system_id":"levelo_inurba_marseille","lat":43.2988,"lon":5.38897,"is_reserved":false,"is_disabled":false,"rental_uris":{"android":"levelo://app?vid=fce7f977-3afa-4d60-8626-f6f94ef572ff","ios":"levelo://app?vid=fce7f977-3afa-4d60-8626-f6f94ef572ff"},"vehicle_type_id":"4","last_reported":1727417613,"current_range_meters":34800,"station_id":"ce4bh392rcd13ifvqdl0","pricing_plan_id":"cebpf4jnsgd1na2vs0mg"},{"bike_id":"00482625-2a1f-4d9c-b0de-68a86c151684","system_id":"levelo_inurba_marseille","lat":43.2594,"lon":5.40903,"is_reserved":false,"is_disabled":false,"rental_uris":{"android":"levelo://app?vid=00482625-2a1f-4d9c-b0de-68a86c151684","ios":"levelo://app?vid=00482625-2a1f-4d9c-b0de-68a86c151684"},"vehicle_type_id":"4","last_reported":1727417613,"current_range_meters":32000,"station_id":"ce4bhm92rcd13ifvqglg","pricing_plan_id":"cebpf4jnsgd1na2vs0mg"},{"bike_id":"264bb3c0-30ce-4dc1-8f75-b4f3caaeb78c","system_id":"levelo_inurba_marseille","lat":43.283445,"lon":5.381044,"is_reserved":false,"is_disabled":false,"rental_uris":{"android":"levelo://app?vid=264bb3c0-30ce-4dc1-8f75-b4f3caaeb78c","ios":"levelo://app?vid=264bb3c0-30ce-4dc1-8f75-b4f3caaeb78c"},"vehicle_type_id":"4","last_reported":1727417613,"current_range_meters":23200,"station_id":"ce4bh412rcd13ifvqdr0","pricing_plan_id":"cebpf4jnsgd1na2vs0mg"},{"bike_id":"5ba9f6a4-ddc2-4dcb-9c8b-a8b882fc82ec","system_id":"levelo_inurba_marseille","lat":43.31708,"lon":5.37776,"is_reserved":false,"is_disabled":false,"rental_uris":{"android":"levelo://app?vid=5ba9f6a4-ddc2-4dcb-9c8b-a8b882fc82ec","ios":"levelo://app?vid=5ba9f6a4-ddc2-4dcb-9c8b-a8b882fc82ec"},"vehicle_type_id":"4","last_reported":1727417613,"current_range_meters":38800,"station_id":"ce4bgth2rcd13ifvqch0","pricing_plan_id":"cebpf4jnsgd1na2vs0mg"},{"bike_id":"a9669d3a-c989-4bbf-988b-b787f6909497","system_id":"levelo_inurba_marseille","lat":43.32661,"lon":5.40982,"is_reserved":false,"is_disabled":false,"rental_uris":{"android":"levelo://app?vid=a9669d3a-c989-4bbf-988b-b787f6909497","ios":"levelo://app?vid=a9669d3a-c989-4bbf-988b-b787f6909497"},"vehicle_type_id":"4","last_reported":1727417613,"current_range_meters":36400,"station_id":"ce4bhpp2rcd13ifvqhgg","pricing_plan_id":"cebpf4jnsgd1na2vs0mg"},{"bike_id":"e47db2d0-e1e6-4c8f-afe5-0a4d74d20ce7","system_id":"levelo_inurba_marseille","lat":43.28151,"lon":5.42638,"is_reserved":false,"is_disabled":false,"rental_uris":{"android":"levelo://app?vid=e47db2d0-e1e6-4c8f-afe5-0a4d74d20ce7","ios":"levelo://app?vid=e47db2d0-e1e6-4c8f-afe5-0a4d74d20ce7"},"vehicle_type_id":"4","last_reported":1727417613,"current_range_meters":3200,"station_id":"ce4bhnh2rcd13ifvqgug","pricing_plan_id":"cebpf4jnsgd1na2vs0mg"},{"bike_id":"5c04144f-d1e0-4211-9c58-ac7067685bb7","system_id":"levelo_inurba_marseille","lat":43.295358,"lon":5.390976,"is_reserved":false,"is_disabled":false,"rental_uris":{"android":"levelo://app?vid=5c04144f-d1e0-4211-9c58-ac7067685bb7","ios":"levelo://app?vid=5c04144f-d1e0-4211-9c58-ac7067685bb7"},"vehicle_type_id":"4","last_reported":1727417613,"current_range_meters":36000,"station_id":"ce4bgs12rcd13ifvqcag","pricing_plan_id":"cebpf4jnsgd1na2vs0mg"},{"bike_id":"037f446e-ac7a-49e2-bdab-84aaf6e5a6aa","system_id":"levelo_inurba_marseille","lat":43.29033,"lon":5.39965,"is_reserved":false,"is_disabled":false,"rental_uris":{"android":"levelo://app?vid=037f446e-ac7a-49e2-bdab-84aaf6e5a6aa","ios":"levelo://app?vid=037f446e-ac7a-49e2-bdab-84aaf6e5a6aa"},"vehicle_type_id":"4","last_reported":1727417613,"current_range_meters":18000,"station_id":"ce4bh392rcd13ifvqdm0","pricing_plan_id":"cebpf4jnsgd1na2vs0mg"},{"bike_id":"a17cc833-34e0-49cd-aed6-aafc54d2e30a","system_id":"levelo_inurba_marseille","lat":43.289396,"lon":5.363943,"is_reserved":false,"is_disabled":false,"rental_uris":{"android":"levelo://app?vid=a17cc833-34e0-49cd-aed6-aafc54d2e30a","ios":"levelo://app?vid=a17cc833-34e0-49cd-aed6-aafc54d2e30a"},"vehicle_type_id":"4","last_reported":1727417613,"current_range_meters":39200,"station_id":"ce4bhc92rcd13ifvqetg","pricing_plan_id":"cebpf4jnsgd1na2vs0mg"},{"bike_id":"55f4f50b-d6dd-4e12-86b3-1486da4af7d9","system_id":"levelo_inurba_marseille","lat":43.22932,"lon":5.35377,"is_reserved":false,"is_disabled":false,"rental_uris":{"android":"levelo://app?vid=55f4f50b-d6dd-4e12-86b3-1486da4af7d9","ios":"levelo://app?vid=55f4f50b-d6dd-4e12-86b3-1486da4af7d9"},"vehicle_type_id":"4","last_reported":1727417613,"current_range_meters":36800,"station_id":"cpo3532slgdg3j2ikp40","pricing_plan_id":"cebpf4jnsgd1na2vs0mg"},{"bike_id":"a46e739c-4643-4c11-96be-55d583723707","system_id":"levelo_inurba_marseille","lat":43.29575,"lon":5.39968,"is_reserved":false,"is_disabled":false,"rental_uris":{"android":"levelo://app?vid=a46e739c-4643-4c11-96be-55d583723707","ios":"levelo://app?vid=a46e739c-4643-4c11-96be-55d583723707"},"vehicle_type_id":"4","last_reported":1727417613,"current_range_meters":38800,"station_id":"ce4bh312rcd13ifvqdj0","pricing_plan_id":"cebpf4jnsgd1na2vs0mg"},{"bike_id":"05d742b4-d6be-44a9-beca-ea36008943f7","system_id":"levelo_inurba_marseille","lat":43.24667,"lon":5.38158,"is_reserved":false,"is_disabled":false,"rental_uris":{"android":"levelo://app?vid=05d742b4-d6be-44a9-beca-ea36008943f7","ios":"levelo://app?vid=05d742b4-d6be-44a9-beca-ea36008943f7"},"vehicle_type_id":"4","last_reported":1727417613,"current_range_meters":36400,"station_id":"ce4bhih2rcd13ifvqfr0","pricing_plan_id":"cebpf4jnsgd1na2vs0mg"},{"bike_id":"bf9adca4-053d-4c74-8073-178cd925f858","system_id":"levelo_inurba_marseille","lat":43.28996,"lon":5.42625,"is_reserved":false,"is_disabled":false,"rental_uris":{"android":"levelo://app?vid=bf9adca4-053d-4c74-8073-178cd925f858","ios":"levelo://app?vid=bf9adca4-053d-4c74-8073-178cd925f858"},"vehicle_type_id":"4","last_reported":1727417613,"current_range_meters":27200,"station_id":"ce4bhph2rcd13ifvqhdg","pricing_plan_id":"cebpf4jnsgd1na2vs0mg"},{"bike_id":"d94501ef-d3a7-47ec-8fb7-c4ada07e9931","system_id":"levelo_inurba_marseille","lat":43.24666,"lon":5.38163,"is_reserved":false,"is_disabled":false,"rental_uris":{"android":"levelo://app?vid=d94501ef-d3a7-47ec-8fb7-c4ada07e9931","ios":"levelo://app?vid=d94501ef-d3a7-47ec-8fb7-c4ada07e9931"},"vehicle_type_id":"4","last_reported":1727417613,"current_range_meters":38800,"station_id":"ce4bhih2rcd13ifvqfr0","pricing_plan_id":"cebpf4jnsgd1na2vs0mg"},{"bike_id":"b2ff93d1-576a-4833-b1a0-fa96e7884182","system_id":"levelo_inurba_marseille","lat":43.30594,"lon":5.39359,"is_reserved":false,"is_disabled":false,"rental_uris":{"android":"levelo://app?vid=b2ff93d1-576a-4833-b1a0-fa96e7884182","ios":"levelo://app?vid=b2ff93d1-576a-4833-b1a0-fa96e7884182"},"vehicle_type_id":"4","last_reported":1727417613,"current_range_meters":27200,"station_id":"ce4bh0p2rcd13ifvqd80","pricing_plan_id":"cebpf4jnsgd1na2vs0mg"},{"bike_id":"cd4c3ea5-3df9-4ccb-a55d-0c3b17cecce3","system_id":"levelo_inurba_marseille","lat":43.25738,"lon":5.39141,"is_reserved":false,"is_disabled":false,"rental_uris":{"android":"levelo://app?vid=cd4c3ea5-3df9-4ccb-a55d-0c3b17cecce3","ios":"levelo://app?vid=cd4c3ea5-3df9-4ccb-a55d-0c3b17cecce3"},"vehicle_type_id":"4","last_reported":1727417613,"current_range_meters":32400,"station_id":"","pricing_plan_id":"cebpf4jnsgd1na2vs0mg"},{"bike_id":"18551754-cfb7-4efa-9487-a4a9d01af5a7","system_id":"levelo_inurba_marseille","lat":43.26032,"lon":5.37544,"is_reserved":false,"is_disabled":false,"rental_uris":{"android":"levelo://app?vid=18551754-cfb7-4efa-9487-a4a9d01af5a7","ios":"levelo://app?vid=18551754-cfb7-4efa-9487-a4a9d01af5a7"},"vehicle_type_id":"4","last_reported":1727417613,"current_range_meters":38800,"station_id":"ce4bhgh2rcd13ifvqfa0","pricing_plan_id":"cebpf4jnsgd1na2vs0mg"},{"bike_id":"b1092b0c-70d5-4029-bb87-415ed1dfd9a3","system_id":"levelo_inurba_marseille","lat":43.33612,"lon":5.41032,"is_reserved":false,"is_disabled":false,"rental_uris":{"android":"levelo://app?vid=b1092b0c-70d5-4029-bb87-415ed1dfd9a3","ios":"levelo://app?vid=b1092b0c-70d5-4029-bb87-415ed1dfd9a3"},"vehicle_type_id":"4","last_reported":1727417613,"current_range_meters":12800,"station_id":"ce4bhqh2rcd13ifvqhmg","pricing_plan_id":"cebpf4jnsgd1na2vs0mg"},{"bike_id":"724883d9-ee0c-4480-ae5d-022191e8980f","system_id":"levelo_inurba_marseille","lat":43.29964,"lon":5.38499,"is_reserved":false,"is_disabled":false,"rental_uris":{"android":"levelo://app?vid=724883d9-ee0c-4480-ae5d-022191e8980f","ios":"levelo://app?vid=724883d9-ee0c-4480-ae5d-022191e8980f"},"vehicle_type_id":"4","last_reported":1727417613,"current_range_meters":34800,"station_id":"ce4bgj92rcd13ifvqbd0","pricing_plan_id":"cebpf4jnsgd1na2vs0mg"},{"bike_id":"fb59c641-b476-4bb5-8639-953b5fa3e6b8","system_id":"levelo_inurba_marseille","lat":43.29971,"lon":5.38496,"is_reserved":false,"is_disabled":false,"rental_uris":{"android":"levelo://app?vid=fb59c641-b476-4bb5-8639-953b5fa3e6b8","ios":"levelo://app?vid=fb59c641-b476-4bb5-8639-953b5fa3e6b8"},"vehicle_type_id":"4","last_reported":1727417613,"current_range_meters":37600,"station_id":"ce4bgj92rcd13ifvqbd0","pricing_plan_id":"cebpf4jnsgd1na2vs0mg"},{"bike_id":"a1748b99-67f4-4534-ac99-42024fa0d24b","system_id":"levelo_inurba_marseille","lat":43.28699,"lon":5.3998,"is_reserved":false,"is_disabled":false,"rental_uris":{"android":"levelo://app?vid=a1748b99-67f4-4534-ac99-42024fa0d24b","ios":"levelo://app?vid=a1748b99-67f4-4534-ac99-42024fa0d24b"},"vehicle_type_id":"4","last_reported":1727417613,"current_range_meters":20800,"station_id":"ce4bho92rcd13ifvqh3g","pricing_plan_id":"cebpf4jnsgd1na2vs0mg"},{"bike_id":"e71b2228-487e-43d3-aaad-9eadfa97ebeb","system_id":"levelo_inurba_marseille","lat":43.30154,"lon":5.38081,"is_reserved":false,"is_disabled":false,"rental_uris":{"android":"levelo://app?vid=e71b2228-487e-43d3-aaad-9eadfa97ebeb","ios":"levelo://app?vid=e71b2228-487e-43d3-aaad-9eadfa97ebeb"},"vehicle_type_id":"4","last_reported":1727417613,"current_range_meters":3600,"station_id":"ce4bgjp2rcd13ifvqbh0","pricing_plan_id":"cebpf4jnsgd1na2vs0mg"},{"bike_id":"c3d6b5b8-f8fe-43d7-918a-2b3abbd580c8","system_id":"levelo_inurba_marseille","lat":43.30469,"lon":5.37913,"is_reserved":false,"is_disabled":false,"rental_uris":{"android":"levelo://app?vid=c3d6b5b8-f8fe-43d7-918a-2b3abbd580c8","ios":"levelo://app?vid=c3d6b5b8-f8fe-43d7-918a-2b3abbd580c8"},"vehicle_type_id":"4","last_reported":1727417613,"current_range_meters":6800,"station_id":"ce4bgup2rcd13ifvqcn0","pricing_plan_id":"cebpf4jnsgd1na2vs0mg"},{"bike_id":"6393bbb4-aef5-4c70-9f04-509010897e52","system_id":"levelo_inurba_marseille","lat":43.314218,"lon":5.373649,"is_reserved":false,"is_disabled":false,"rental_uris":{"android":"levelo://app?vid=6393bbb4-aef5-4c70-9f04-509010897e52","ios":"levelo://app?vid=6393bbb4-aef5-4c70-9f04-509010897e52"},"vehicle_type_id":"4","last_reported":1727417613,"current_range_meters":39200,"station_id":"ce4bgt12rcd13ifvqcd0","pricing_plan_id":"cebpf4jnsgd1na2vs0mg"},{"bike_id":"4a4903c7-ffbe-40b4-8008-c3ffec982396","system_id":"levelo_inurba_marseille","lat":43.31531,"lon":5.38022,"is_reserved":false,"is_disabled":false,"rental_uris":{"android":"levelo://app?vid=4a4903c7-ffbe-40b4-8008-c3ffec982396","ios":"levelo://app?vid=4a4903c7-ffbe-40b4-8008-c3ffec982396"},"vehicle_type_id":"4","last_reported":1727417613,"current_range_meters":19200,"station_id":"ce4bhsp2rcd13ifvqi50","pricing_plan_id":"cebpf4jnsgd1na2vs0mg"},{"bike_id":"13d1fa7f-3172-46d6-b8a5-774106f12ce3","system_id":"levelo_inurba_marseille","lat":43.27493,"lon":5.4245,"is_reserved":false,"is_disabled":false,"rental_uris":{"android":"levelo://app?vid=13d1fa7f-3172-46d6-b8a5-774106f12ce3","ios":"levelo://app?vid=13d1fa7f-3172-46d6-b8a5-774106f12ce3"},"vehicle_type_id":"4","last_reported":1727417613,"current_range_meters":28400,"station_id":"ce4bhn92rcd13ifvqgrg","pricing_plan_id":"cebpf4jnsgd1na2vs0mg"},{"bike_id":"9145a769-947f-4ef7-b971-08c191f83f09","system_id":"levelo_inurba_marseille","lat":43.32521,"lon":5.41456,"is_reserved":false,"is_disabled":false,"rental_uris":{"android":"levelo://app?vid=9145a769-947f-4ef7-b971-08c191f83f09","ios":"levelo://app?vid=9145a769-947f-4ef7-b971-08c191f83f09"},"vehicle_type_id":"4","last_reported":1727417613,"current_range_meters":38800,"station_id":"ce4bhq12rcd13ifvqhhg","pricing_plan_id":"cebpf4jnsgd1na2vs0mg"},{"bike_id":"b6daf4df-7c90-4c5e-b397-06a87d15013f","system_id":"levelo_inurba_marseille","lat":43.33752,"lon":5.37361,"is_reserved":false,"is_disabled":false,"rental_uris":{"android":"levelo://app?vid=b6daf4df-7c90-4c5e-b397-06a87d15013f","ios":"levelo://app?vid=b6daf4df-7c90-4c5e-b397-06a87d15013f"},"vehicle_type_id":"4","last_reported":1727417613,"current_range_meters":28000,"station_id":"","pricing_plan_id":"cebpf4jnsgd1na2vs0mg"},{"bike_id":"c7907116-f085-4574-b89a-1d87589b1c6f","system_id":"levelo_inurba_marseille","lat":43.26955,"lon":5.38633,"is_reserved":false,"is_disabled":false,"rental_uris":{"android":"levelo://app?vid=c7907116-f085-4574-b89a-1d87589b1c6f","ios":"levelo://app?vid=c7907116-f085-4574-b89a-1d87589b1c6f"},"vehicle_type_id":"4","last_reported":1727417613,"current_range_meters":38800,"station_id":"ce4bhh92rcd13ifvqfh0","pricing_plan_id":"cebpf4jnsgd1na2vs0mg"},{"bike_id":"c6a8f01e-009f-4613-948c-2dd4d8bd2d71","system_id":"levelo_inurba_marseille","lat":43.30159,"lon":5.38077,"is_reserved":false,"is_disabled":false,"rental_uris":{"android":"levelo://app?vid=c6a8f01e-009f-4613-948c-2dd4d8bd2d71","ios":"levelo://app?vid=c6a8f01e-009f-4613-948c-2dd4d8bd2d71"},"vehicle_type_id":"4","last_reported":1727417613,"current_range_meters":37600,"station_id":"ce4bgjp2rcd13ifvqbh0","pricing_plan_id":"cebpf4jnsgd1na2vs0mg"},{"bike_id":"01958bcc-1114-44e7-a1de-ed0825d11990","system_id":"levelo_inurba_marseille","lat":43.33608,"lon":5.41033,"is_reserved":false,"is_disabled":false,"rental_uris":{"android":"levelo://app?vid=01958bcc-1114-44e7-a1de-ed0825d11990","ios":"levelo://app?vid=01958bcc-1114-44e7-a1de-ed0825d11990"},"vehicle_type_id":"4","last_reported":1727417613,"current_range_meters":38800,"station_id":"ce4bhqh2rcd13ifvqhmg","pricing_plan_id":"cebpf4jnsgd1na2vs0mg"},{"bike_id":"9f25d9d7-84b3-465e-a9bc-0ca14c1b9917","system_id":"levelo_inurba_marseille","lat":43.26048,"lon":5.387,"is_reserved":false,"is_disabled":false,"rental_uris":{"android":"levelo://app?vid=9f25d9d7-84b3-465e-a9bc-0ca14c1b9917","ios":"levelo://app?vid=9f25d9d7-84b3-465e-a9bc-0ca14c1b9917"},"vehicle_type_id":"4","last_reported":1727417613,"current_range_meters":25200,"station_id":"","pricing_plan_id":"cebpf4jnsgd1na2vs0mg"},{"bike_id":"b39e69c8-eece-4436-b1ff-10e6e2c27ef3","system_id":"levelo_inurba_marseille","lat":43.29803,"lon":5.38094,"is_reserved":false,"is_disabled":false,"rental_uris":{"android":"levelo://app?vid=b39e69c8-eece-4436-b1ff-10e6e2c27ef3","ios":"levelo://app?vid=b39e69c8-eece-4436-b1ff-10e6e2c27ef3"},"vehicle_type_id":"4","last_reported":1727417613,"current_range_meters":33600,"station_id":"ce4bgip2rcd13ifvqbb0","pricing_plan_id":"cebpf4jnsgd1na2vs0mg"},{"bike_id":"57bc1e84-e83e-4198-85b5-3e7f9c3f0b0b","system_id":"levelo_inurba_marseille","lat":43.24166,"lon":5.36394,"is_reserved":false,"is_disabled":false,"rental_uris":{"android":"levelo://app?vid=57bc1e84-e83e-4198-85b5-3e7f9c3f0b0b","ios":"levelo://app?vid=57bc1e84-e83e-4198-85b5-3e7f9c3f0b0b"},"vehicle_type_id":"4","last_reported":1727417613,"current_range_meters":24400,"station_id":"cpo36qri1sfpv3e86is0","pricing_plan_id":"cebpf4jnsgd1na2vs0mg"},{"bike_id":"7a8458d5-44ac-4f2e-abef-3f01eb31f7ca","system_id":"levelo_inurba_marseille","lat":43.337444,"lon":5.374475,"is_reserved":false,"is_disabled":false,"rental_uris":{"android":"levelo://app?vid=7a8458d5-44ac-4f2e-abef-3f01eb31f7ca","ios":"levelo://app?vid=7a8458d5-44ac-4f2e-abef-3f01eb31f7ca"},"vehicle_type_id":"4","last_reported":1727417613,"current_range_meters":17600,"station_id":"","pricing_plan_id":"cebpf4jnsgd1na2vs0mg"},{"bike_id":"d31aa22d-c663-470a-9441-0a49bc9b68e8","system_id":"levelo_inurba_marseille","lat":43.29714,"lon":5.377,"is_reserved":false,"is_disabled":false,"rental_uris":{"android":"levelo://app?vid=d31aa22d-c663-470a-9441-0a49bc9b68e8","ios":"levelo://app?vid=d31aa22d-c663-470a-9441-0a49bc9b68e8"},"vehicle_type_id":"4","last_reported":1727417613,"current_range_meters":38800,"station_id":"ce4bgkh2rcd13ifvqbl0","pricing_plan_id":"cebpf4jnsgd1na2vs0mg"},{"bike_id":"245322ad-98ce-4a03-920e-f8861ea4255a","system_id":"levelo_inurba_marseille","lat":43.23061,"lon":5.35495,"is_reserved":false,"is_disabled":false,"rental_uris":{"android":"levelo://app?vid=245322ad-98ce-4a03-920e-f8861ea4255a","ios":"levelo://app?vid=245322ad-98ce-4a03-920e-f8861ea4255a"},"vehicle_type_id":"4","last_reported":1727417613,"current_range_meters":38000,"station_id":"cpo3342slgdg3j2ifvpg","pricing_plan_id":"cebpf4jnsgd1na2vs0mg"},{"bike_id":"12e298f1-c905-4113-9416-919b1ec14fa7","system_id":"levelo_inurba_marseille","lat":43.30475,"lon":5.37907,"is_reserved":false,"is_disabled":false,"rental_uris":{"android":"levelo://app?vid=12e298f1-c905-4113-9416-919b1ec14fa7","ios":"levelo://app?vid=12e298f1-c905-4113-9416-919b1ec14fa7"},"vehicle_type_id":"4","last_reported":1727417613,"current_range_meters":38000,"station_id":"ce4bgup2rcd13ifvqcn0","pricing_plan_id":"cebpf4jnsgd1na2vs0mg"},{"bike_id":"59bb7336-e84a-4f03-8b91-d9ff683dde39","system_id":"levelo_inurba_marseille","lat":43.30159,"lon":5.38078,"is_reserved":false,"is_disabled":false,"rental_uris":{"android":"levelo://app?vid=59bb7336-e84a-4f03-8b91-d9ff683dde39","ios":"levelo://app?vid=59bb7336-e84a-4f03-8b91-d9ff683dde39"},"vehicle_type_id":"4","last_reported":1727417613,"current_range_meters":31200,"station_id":"ce4bgjp2rcd13ifvqbh0","pricing_plan_id":"cebpf4jnsgd1na2vs0mg"},{"bike_id":"14753c26-020c-4fdf-a910-6bbc6904ea08","system_id":"levelo_inurba_marseille","lat":43.30891,"lon":5.39628,"is_reserved":false,"is_disabled":false,"rental_uris":{"android":"levelo://app?vid=14753c26-020c-4fdf-a910-6bbc6904ea08","ios":"levelo://app?vid=14753c26-020c-4fdf-a910-6bbc6904ea08"},"vehicle_type_id":"4","last_reported":1727417613,"current_range_meters":37600,"station_id":"ce4bh012rcd13ifvqcv0","pricing_plan_id":"cebpf4jnsgd1na2vs0mg"},{"bike_id":"ec360536-8592-4059-9f40-2db49596541a","system_id":"levelo_inurba_marseille","lat":43.23187,"lon":5.39988,"is_reserved":false,"is_disabled":false,"rental_uris":{"android":"levelo://app?vid=ec360536-8592-4059-9f40-2db49596541a","ios":"levelo://app?vid=ec360536-8592-4059-9f40-2db49596541a"},"vehicle_type_id":"4","last_reported":1727417613,"current_range_meters":38000,"station_id":"ce4bhn12rcd13ifvqgqg","pricing_plan_id":"cebpf4jnsgd1na2vs0mg"},{"bike_id":"0a4f9adf-3015-4d90-98fb-6812acaa9106","system_id":"levelo_inurba_marseille","lat":43.24073,"lon":5.37765,"is_reserved":false,"is_disabled":false,"rental_uris":{"android":"levelo://app?vid=0a4f9adf-3015-4d90-98fb-6812acaa9106","ios":"levelo://app?vid=0a4f9adf-3015-4d90-98fb-6812acaa9106"},"vehicle_type_id":"4","last_reported":1727417613,"current_range_meters":24800,"station_id":"ce4bhnp2rcd13ifvqgvg","pricing_plan_id":"cebpf4jnsgd1na2vs0mg"},{"bike_id":"d6b01f56-84a5-4add-bfbc-64193c81136a","system_id":"levelo_inurba_marseille","lat":43.2947,"lon":5.41687,"is_reserved":false,"is_disabled":false,"rental_uris":{"android":"levelo://app?vid=d6b01f56-84a5-4add-bfbc-64193c81136a","ios":"levelo://app?vid=d6b01f56-84a5-4add-bfbc-64193c81136a"},"vehicle_type_id":"4","last_reported":1727417613,"current_range_meters":36800,"station_id":"ce4bh112rcd13ifvqd90","pricing_plan_id":"cebpf4jnsgd1na2vs0mg"},{"bike_id":"f2bc0ed8-26c3-478a-b8ec-55292632b42b","system_id":"levelo_inurba_marseille","lat":43.33782,"lon":5.37427,"is_reserved":false,"is_disabled":false,"rental_uris":{"android":"levelo://app?vid=f2bc0ed8-26c3-478a-b8ec-55292632b42b","ios":"levelo://app?vid=f2bc0ed8-26c3-478a-b8ec-55292632b42b"},"vehicle_type_id":"4","last_reported":1727417613,"current_range_meters":33600,"station_id":"","pricing_plan_id":"cebpf4jnsgd1na2vs0mg"},{"bike_id":"f350c5b6-9c91-4543-96cf-4415ecc9a4d6","system_id":"levelo_inurba_marseille","lat":43.269379,"lon":5.386245,"is_reserved":false,"is_disabled":false,"rental_uris":{"android":"levelo://app?vid=f350c5b6-9c91-4543-96cf-4415ecc9a4d6","ios":"levelo://app?vid=f350c5b6-9c91-4543-96cf-4415ecc9a4d6"},"vehicle_type_id":"4","last_reported":1727417613,"current_range_meters":34800,"station_id":"ce4bhh92rcd13ifvqfh0","pricing_plan_id":"cebpf4jnsgd1na2vs0mg"},{"bike_id":"7d022498-65f9-4fd1-90ba-7b83d725622d","system_id":"levelo_inurba_marseille","lat":43.27489,"lon":5.4245,"is_reserved":false,"is_disabled":false,"rental_uris":{"android":"levelo://app?vid=7d022498-65f9-4fd1-90ba-7b83d725622d","ios":"levelo://app?vid=7d022498-65f9-4fd1-90ba-7b83d725622d"},"vehicle_type_id":"4","last_reported":1727417613,"current_range_meters":29600,"station_id":"ce4bhn92rcd13ifvqgrg","pricing_plan_id":"cebpf4jnsgd1na2vs0mg"},{"bike_id":"55c46dca-e7be-41e8-a69d-9f094ff0f9f1","system_id":"levelo_inurba_marseille","lat":43.26689,"lon":5.38272,"is_reserved":false,"is_disabled":false,"rental_uris":{"android":"levelo://app?vid=55c46dca-e7be-41e8-a69d-9f094ff0f9f1","ios":"levelo://app?vid=55c46dca-e7be-41e8-a69d-9f094ff0f9f1"},"vehicle_type_id":"4","last_reported":1727417613,"current_range_meters":35600,"station_id":"ce4bhg92rcd13ifvqf90","pricing_plan_id":"cebpf4jnsgd1na2vs0mg"},{"bike_id":"ef333548-5b42-4805-a9c0-dab49a7bfdc3","system_id":"levelo_inurba_marseille","lat":43.32487,"lon":5.36562,"is_reserved":false,"is_disabled":false,"rental_uris":{"android":"levelo://app?vid=ef333548-5b42-4805-a9c0-dab49a7bfdc3","ios":"levelo://app?vid=ef333548-5b42-4805-a9c0-dab49a7bfdc3"},"vehicle_type_id":"4","last_reported":1727417613,"current_range_meters":38800,"station_id":"ce4bhs12rcd13ifvqhvg","pricing_plan_id":"cebpf4jnsgd1na2vs0mg"},{"bike_id":"a7bed86e-c071-4ee5-8a20-06da309b14c4","system_id":"levelo_inurba_marseille","lat":43.31072,"lon":5.38902,"is_reserved":false,"is_disabled":false,"rental_uris":{"android":"levelo://app?vid=a7bed86e-c071-4ee5-8a20-06da309b14c4","ios":"levelo://app?vid=a7bed86e-c071-4ee5-8a20-06da309b14c4"},"vehicle_type_id":"4","last_reported":1727417613,"current_range_meters":36400,"station_id":"","pricing_plan_id":"cebpf4jnsgd1na2vs0mg"},{"bike_id":"b67f57a5-1e2d-49b9-bbf7-56a937586eb8","system_id":"levelo_inurba_marseille","lat":43.3026,"lon":5.40064,"is_reserved":false,"is_disabled":false,"rental_uris":{"android":"levelo://app?vid=b67f57a5-1e2d-49b9-bbf7-56a937586eb8","ios":"levelo://app?vid=b67f57a5-1e2d-49b9-bbf7-56a937586eb8"},"vehicle_type_id":"4","last_reported":1727417613,"current_range_meters":26800,"station_id":"ce4bgvh2rcd13ifvqcs0","pricing_plan_id":"cebpf4jnsgd1na2vs0mg"},{"bike_id":"0968ebbe-bb82-4446-8d24-0ab8271c7a4b","system_id":"levelo_inurba_marseille","lat":43.23157,"lon":5.43707,"is_reserved":false,"is_disabled":false,"rental_uris":{"android":"levelo://app?vid=0968ebbe-bb82-4446-8d24-0ab8271c7a4b","ios":"levelo://app?vid=0968ebbe-bb82-4446-8d24-0ab8271c7a4b"},"vehicle_type_id":"4","last_reported":1727417613,"current_range_meters":23200,"station_id":"ce4bhmp2rcd13ifvqgog","pricing_plan_id":"cebpf4jnsgd1na2vs0mg"},{"bike_id":"782da77e-9102-42f3-8c53-07e4b0b29765","system_id":"levelo_inurba_marseille","lat":43.28036,"lon":5.36939,"is_reserved":false,"is_disabled":false,"rental_uris":{"android":"levelo://app?vid=782da77e-9102-42f3-8c53-07e4b0b29765","ios":"levelo://app?vid=782da77e-9102-42f3-8c53-07e4b0b29765"},"vehicle_type_id":"4","last_reported":1727417613,"current_range_meters":38000,"station_id":"ce4bha12rcd13ifvqef0","pricing_plan_id":"cebpf4jnsgd1na2vs0mg"},{"bike_id":"701ef5b0-588a-437b-99c6-a00baddfc677","system_id":"levelo_inurba_marseille","lat":43.32549,"lon":5.41441,"is_reserved":false,"is_disabled":false,"rental_uris":{"android":"levelo://app?vid=701ef5b0-588a-437b-99c6-a00baddfc677","ios":"levelo://app?vid=701ef5b0-588a-437b-99c6-a00baddfc677"},"vehicle_type_id":"4","last_reported":1727417613,"current_range_meters":39200,"station_id":"ce4bhq12rcd13ifvqhhg","pricing_plan_id":"cebpf4jnsgd1na2vs0mg"},{"bike_id":"d5bbef54-0e76-4d64-bc8a-a1819238d1a7","system_id":"levelo_inurba_marseille","lat":43.23959,"lon":5.36623,"is_reserved":false,"is_disabled":false,"rental_uris":{"android":"levelo://app?vid=d5bbef54-0e76-4d64-bc8a-a1819238d1a7","ios":"levelo://app?vid=d5bbef54-0e76-4d64-bc8a-a1819238d1a7"},"vehicle_type_id":"4","last_reported":1727417613,"current_range_meters":37600,"station_id":"ce4bhi12rcd13ifvqfp0","pricing_plan_id":"cebpf4jnsgd1na2vs0mg"},{"bike_id":"aadb9b46-4125-42b2-8420-e8327b4def86","system_id":"levelo_inurba_marseille","lat":43.27493,"lon":5.42451,"is_reserved":false,"is_disabled":false,"rental_uris":{"android":"levelo://app?vid=aadb9b46-4125-42b2-8420-e8327b4def86","ios":"levelo://app?vid=aadb9b46-4125-42b2-8420-e8327b4def86"},"vehicle_type_id":"4","last_reported":1727417613,"current_range_meters":11200,"station_id":"ce4bhn92rcd13ifvqgrg","pricing_plan_id":"cebpf4jnsgd1na2vs0mg"},{"bike_id":"a713fe86-464d-418e-80a3-dc4c31660520","system_id":"levelo_inurba_marseille","lat":43.30151,"lon":5.38077,"is_reserved":false,"is_disabled":false,"rental_uris":{"android":"levelo://app?vid=a713fe86-464d-418e-80a3-dc4c31660520","ios":"levelo://app?vid=a713fe86-464d-418e-80a3-dc4c31660520"},"vehicle_type_id":"4","last_reported":1727417613,"current_range_meters":32000,"station_id":"ce4bgjp2rcd13ifvqbh0","pricing_plan_id":"cebpf4jnsgd1na2vs0mg"},{"bike_id":"591039d5-67c5-43df-ae6f-f1c141c3a597","system_id":"levelo_inurba_marseille","lat":43.25941,"lon":5.40902,"is_reserved":false,"is_disabled":false,"rental_uris":{"android":"levelo://app?vid=591039d5-67c5-43df-ae6f-f1c141c3a597","ios":"levelo://app?vid=591039d5-67c5-43df-ae6f-f1c141c3a597"},"vehicle_type_id":"4","last_reported":1727417613,"current_range_meters":22400,"station_id":"ce4bhm92rcd13ifvqglg","pricing_plan_id":"cebpf4jnsgd1na2vs0mg"},{"bike_id":"f8e12482-0ce6-4db4-9991-6f7fa46262c4","system_id":"levelo_inurba_marseille","lat":43.27944,"lon":5.41046,"is_reserved":false,"is_disabled":false,"rental_uris":{"android":"levelo://app?vid=f8e12482-0ce6-4db4-9991-6f7fa46262c4","ios":"levelo://app?vid=f8e12482-0ce6-4db4-9991-6f7fa46262c4"},"vehicle_type_id":"4","last_reported":1727417613,"current_range_meters":9600,"station_id":"ce4bhnp2rcd13ifvqh0g","pricing_plan_id":"cebpf4jnsgd1na2vs0mg"},{"bike_id":"639970a1-4122-4e70-ad3a-10e42a77f6b2","system_id":"levelo_inurba_marseille","lat":43.27907,"lon":5.38001,"is_reserved":false,"is_disabled":false,"rental_uris":{"android":"levelo://app?vid=639970a1-4122-4e70-ad3a-10e42a77f6b2","ios":"levelo://app?vid=639970a1-4122-4e70-ad3a-10e42a77f6b2"},"vehicle_type_id":"4","last_reported":1727417613,"current_range_meters":25600,"station_id":"ce4bhf92rcd13ifvqf50","pricing_plan_id":"cebpf4jnsgd1na2vs0mg"},{"bike_id":"bba7de10-169e-4f05-8c77-3ae54a142318","system_id":"levelo_inurba_marseille","lat":43.30153,"lon":5.38093,"is_reserved":false,"is_disabled":false,"rental_uris":{"android":"levelo://app?vid=bba7de10-169e-4f05-8c77-3ae54a142318","ios":"levelo://app?vid=bba7de10-169e-4f05-8c77-3ae54a142318"},"vehicle_type_id":"4","last_reported":1727417613,"current_range_meters":30400,"station_id":"ce4bgjp2rcd13ifvqbh0","pricing_plan_id":"cebpf4jnsgd1na2vs0mg"},{"bike_id":"fcae820f-ad7b-46d5-8a08-fc4e44c653aa","system_id":"levelo_inurba_marseille","lat":43.30466,"lon":5.37912,"is_reserved":false,"is_disabled":false,"rental_uris":{"android":"levelo://app?vid=fcae820f-ad7b-46d5-8a08-fc4e44c653aa","ios":"levelo://app?vid=fcae820f-ad7b-46d5-8a08-fc4e44c653aa"},"vehicle_type_id":"4","last_reported":1727417613,"current_range_meters":34000,"station_id":"ce4bgup2rcd13ifvqcn0","pricing_plan_id":"cebpf4jnsgd1na2vs0mg"},{"bike_id":"98601f1c-4080-4738-89c2-8895d9542515","system_id":"levelo_inurba_marseille","lat":43.30589,"lon":5.3935,"is_reserved":false,"is_disabled":false,"rental_uris":{"android":"levelo://app?vid=98601f1c-4080-4738-89c2-8895d9542515","ios":"levelo://app?vid=98601f1c-4080-4738-89c2-8895d9542515"},"vehicle_type_id":"4","last_reported":1727417613,"current_range_meters":32400,"station_id":"ce4bh0p2rcd13ifvqd80","pricing_plan_id":"cebpf4jnsgd1na2vs0mg"},{"bike_id":"61176cf3-9a8f-4cd2-9048-ae1d9683f6f8","system_id":"levelo_inurba_marseille","lat":43.24069,"lon":5.37756,"is_reserved":false,"is_disabled":false,"rental_uris":{"android":"levelo://app?vid=61176cf3-9a8f-4cd2-9048-ae1d9683f6f8","ios":"levelo://app?vid=61176cf3-9a8f-4cd2-9048-ae1d9683f6f8"},"vehicle_type_id":"4","last_reported":1727417613,"current_range_meters":35200,"station_id":"ce4bhnp2rcd13ifvqgvg","pricing_plan_id":"cebpf4jnsgd1na2vs0mg"},{"bike_id":"a7c482df-490a-4121-82d4-522bf16f9af6","system_id":"levelo_inurba_marseille","lat":43.28931,"lon":5.36636,"is_reserved":false,"is_disabled":false,"rental_uris":{"android":"levelo://app?vid=a7c482df-490a-4121-82d4-522bf16f9af6","ios":"levelo://app?vid=a7c482df-490a-4121-82d4-522bf16f9af6"},"vehicle_type_id":"4","last_reported":1727417613,"current_range_meters":25200,"station_id":"ce4bhap2rcd13ifvqek0","pricing_plan_id":"cebpf4jnsgd1na2vs0mg"},{"bike_id":"c47e7f17-6e7c-496b-a4d2-02bd4834853d","system_id":"levelo_inurba_marseille","lat":43.29793,"lon":5.38104,"is_reserved":false,"is_disabled":false,"rental_uris":{"android":"levelo://app?vid=c47e7f17-6e7c-496b-a4d2-02bd4834853d","ios":"levelo://app?vid=c47e7f17-6e7c-496b-a4d2-02bd4834853d"},"vehicle_type_id":"4","last_reported":1727417613,"current_range_meters":35200,"station_id":"ce4bgip2rcd13ifvqbb0","pricing_plan_id":"cebpf4jnsgd1na2vs0mg"},{"bike_id":"8b8bc4ef-69bf-4b84-aa37-5bbfca53e4ac","system_id":"levelo_inurba_marseille","lat":43.3234,"lon":5.40617,"is_reserved":false,"is_disabled":false,"rental_uris":{"android":"levelo://app?vid=8b8bc4ef-69bf-4b84-aa37-5bbfca53e4ac","ios":"levelo://app?vid=8b8bc4ef-69bf-4b84-aa37-5bbfca53e4ac"},"vehicle_type_id":"4","last_reported":1727417613,"current_range_meters":38800,"station_id":"ce4bhq92rcd13ifvqhjg","pricing_plan_id":"cebpf4jnsgd1na2vs0mg"},{"bike_id":"467cead5-f316-42e3-a8c1-400a19d7507e","system_id":"levelo_inurba_marseille","lat":43.32538,"lon":5.41443,"is_reserved":false,"is_disabled":false,"rental_uris":{"android":"levelo://app?vid=467cead5-f316-42e3-a8c1-400a19d7507e","ios":"levelo://app?vid=467cead5-f316-42e3-a8c1-400a19d7507e"},"vehicle_type_id":"4","last_reported":1727417613,"current_range_meters":22800,"station_id":"ce4bhq12rcd13ifvqhhg","pricing_plan_id":"cebpf4jnsgd1na2vs0mg"},{"bike_id":"c03e17cd-6ed0-433a-b42f-4e893f661b54","system_id":"levelo_inurba_marseille","lat":43.30598,"lon":5.39357,"is_reserved":false,"is_disabled":false,"rental_uris":{"android":"levelo://app?vid=c03e17cd-6ed0-433a-b42f-4e893f661b54","ios":"levelo://app?vid=c03e17cd-6ed0-433a-b42f-4e893f661b54"},"vehicle_type_id":"4","last_reported":1727417613,"current_range_meters":28400,"station_id":"ce4bh0p2rcd13ifvqd80","pricing_plan_id":"cebpf4jnsgd1na2vs0mg"},{"bike_id":"b6d64c9d-8e91-4c23-9491-b31c5c47973f","system_id":"levelo_inurba_marseille","lat":43.32108,"lon":5.36776,"is_reserved":false,"is_disabled":false,"rental_uris":{"android":"levelo://app?vid=b6d64c9d-8e91-4c23-9491-b31c5c47973f","ios":"levelo://app?vid=b6d64c9d-8e91-4c23-9491-b31c5c47973f"},"vehicle_type_id":"4","last_reported":1727417613,"current_range_meters":28000,"station_id":"ce4bhrh2rcd13ifvqhug","pricing_plan_id":"cebpf4jnsgd1na2vs0mg"},{"bike_id":"3a2e2f3b-dc35-4a59-a736-8c191770979e","system_id":"levelo_inurba_marseille","lat":43.25107,"lon":5.40326,"is_reserved":false,"is_disabled":false,"rental_uris":{"android":"levelo://app?vid=3a2e2f3b-dc35-4a59-a736-8c191770979e","ios":"levelo://app?vid=3a2e2f3b-dc35-4a59-a736-8c191770979e"},"vehicle_type_id":"4","last_reported":1727417613,"current_range_meters":36000,"station_id":"ce4bhlh2rcd13ifvqgig","pricing_plan_id":"cebpf4jnsgd1na2vs0mg"},{"bike_id":"57915f32-d649-40b7-b4d1-2dbe157d9f0c","system_id":"levelo_inurba_marseille","lat":43.30534,"lon":5.36532,"is_reserved":false,"is_disabled":false,"rental_uris":{"android":"levelo://app?vid=57915f32-d649-40b7-b4d1-2dbe157d9f0c","ios":"levelo://app?vid=57915f32-d649-40b7-b4d1-2dbe157d9f0c"},"vehicle_type_id":"4","last_reported":1727417613,"current_range_meters":39200,"station_id":"ce4bgs12rcd13ifvqcag","pricing_plan_id":"cebpf4jnsgd1na2vs0mg"},{"bike_id":"d5e906e1-2c02-4cbd-813f-e28a93f83005","system_id":"levelo_inurba_marseille","lat":43.32531,"lon":5.41442,"is_reserved":false,"is_disabled":false,"rental_uris":{"android":"levelo://app?vid=d5e906e1-2c02-4cbd-813f-e28a93f83005","ios":"levelo://app?vid=d5e906e1-2c02-4cbd-813f-e28a93f83005"},"vehicle_type_id":"4","last_reported":1727417613,"current_range_meters":38800,"station_id":"ce4bhq12rcd13ifvqhhg","pricing_plan_id":"cebpf4jnsgd1na2vs0mg"},{"bike_id":"db925dc4-c970-4c1d-9ddf-87c17bd52d69","system_id":"levelo_inurba_marseille","lat":43.27493,"lon":5.42452,"is_reserved":false,"is_disabled":false,"rental_uris":{"android":"levelo://app?vid=db925dc4-c970-4c1d-9ddf-87c17bd52d69","ios":"levelo://app?vid=db925dc4-c970-4c1d-9ddf-87c17bd52d69"},"vehicle_type_id":"4","last_reported":1727417613,"current_range_meters":27200,"station_id":"ce4bhn92rcd13ifvqgrg","pricing_plan_id":"cebpf4jnsgd1na2vs0mg"},{"bike_id":"1b204e8a-2941-408c-961d-b5a0056592dc","system_id":"levelo_inurba_marseille","lat":43.23959,"lon":5.36633,"is_reserved":false,"is_disabled":false,"rental_uris":{"android":"levelo://app?vid=1b204e8a-2941-408c-961d-b5a0056592dc","ios":"levelo://app?vid=1b204e8a-2941-408c-961d-b5a0056592dc"},"vehicle_type_id":"4","last_reported":1727417613,"current_range_meters":37600,"station_id":"ce4bhi12rcd13ifvqfp0","pricing_plan_id":"cebpf4jnsgd1na2vs0mg"},{"bike_id":"0a7834ac-21a4-4d8f-a83b-ccc55c793d00","system_id":"levelo_inurba_marseille","lat":43.30464,"lon":5.37903,"is_reserved":false,"is_disabled":false,"rental_uris":{"android":"levelo://app?vid=0a7834ac-21a4-4d8f-a83b-ccc55c793d00","ios":"levelo://app?vid=0a7834ac-21a4-4d8f-a83b-ccc55c793d00"},"vehicle_type_id":"4","last_reported":1727417613,"current_range_meters":37600,"station_id":"ce4bgup2rcd13ifvqcn0","pricing_plan_id":"cebpf4jnsgd1na2vs0mg"},{"bike_id":"23c9cb27-5226-4e4b-97b3-caff6d4733a0","system_id":"levelo_inurba_marseille","lat":43.3169,"lon":5.40475,"is_reserved":false,"is_disabled":false,"rental_uris":{"android":"levelo://app?vid=23c9cb27-5226-4e4b-97b3-caff6d4733a0","ios":"levelo://app?vid=23c9cb27-5226-4e4b-97b3-caff6d4733a0"},"vehicle_type_id":"4","last_reported":1727417613,"current_range_meters":38400,"station_id":"ce4bh012rcd13ifvqd00","pricing_plan_id":"cebpf4jnsgd1na2vs0mg"},{"bike_id":"f3bf7448-e739-4978-bd33-4a56cc415f41","system_id":"levelo_inurba_marseille","lat":43.37,"lon":5.36536,"is_reserved":false,"is_disabled":false,"rental_uris":{"android":"levelo://app?vid=f3bf7448-e739-4978-bd33-4a56cc415f41","ios":"levelo://app?vid=f3bf7448-e739-4978-bd33-4a56cc415f41"},"vehicle_type_id":"4","last_reported":1727417613,"current_range_meters":24000,"station_id":"","pricing_plan_id":"cebpf4jnsgd1na2vs0mg"},{"bike_id":"a0b4e1dc-b2d5-4e1d-a6e2-2b1fa04ed91c","system_id":"levelo_inurba_marseille","lat":43.28033,"lon":5.36935,"is_reserved":false,"is_disabled":false,"rental_uris":{"android":"levelo://app?vid=a0b4e1dc-b2d5-4e1d-a6e2-2b1fa04ed91c","ios":"levelo://app?vid=a0b4e1dc-b2d5-4e1d-a6e2-2b1fa04ed91c"},"vehicle_type_id":"4","last_reported":1727417613,"current_range_meters":33600,"station_id":"ce4bha12rcd13ifvqef0","pricing_plan_id":"cebpf4jnsgd1na2vs0mg"},{"bike_id":"227e78d6-9a01-4eaf-a14d-859ddd0c6c88","system_id":"levelo_inurba_marseille","lat":43.28404,"lon":5.38405,"is_reserved":false,"is_disabled":false,"rental_uris":{"android":"levelo://app?vid=227e78d6-9a01-4eaf-a14d-859ddd0c6c88","ios":"levelo://app?vid=227e78d6-9a01-4eaf-a14d-859ddd0c6c88"},"vehicle_type_id":"4","last_reported":1727417613,"current_range_meters":32400,"station_id":"ce4bh3h2rcd13ifvqdn0","pricing_plan_id":"cebpf4jnsgd1na2vs0mg"},{"bike_id":"993a2e0b-bb41-4ad6-b556-e7e3251dfc16","system_id":"levelo_inurba_marseille","lat":43.264977,"lon":5.395372,"is_reserved":false,"is_disabled":false,"rental_uris":{"android":"levelo://app?vid=993a2e0b-bb41-4ad6-b556-e7e3251dfc16","ios":"levelo://app?vid=993a2e0b-bb41-4ad6-b556-e7e3251dfc16"},"vehicle_type_id":"4","last_reported":1727417613,"current_range_meters":37600,"station_id":"ce4bhi12rcd13ifvqfq0","pricing_plan_id":"cebpf4jnsgd1na2vs0mg"},{"bike_id":"932c7b30-012b-4098-90b0-32794be8681f","system_id":"levelo_inurba_marseille","lat":43.33605,"lon":5.41021,"is_reserved":false,"is_disabled":false,"rental_uris":{"android":"levelo://app?vid=932c7b30-012b-4098-90b0-32794be8681f","ios":"levelo://app?vid=932c7b30-012b-4098-90b0-32794be8681f"},"vehicle_type_id":"4","last_reported":1727417613,"current_range_meters":28000,"station_id":"ce4bhqh2rcd13ifvqhmg","pricing_plan_id":"cebpf4jnsgd1na2vs0mg"},{"bike_id":"92ffafa1-1448-4eb4-8a11-c2feb61c4842","system_id":"levelo_inurba_marseille","lat":43.29533,"lon":5.37507,"is_reserved":false,"is_disabled":false,"rental_uris":{"android":"levelo://app?vid=92ffafa1-1448-4eb4-8a11-c2feb61c4842","ios":"levelo://app?vid=92ffafa1-1448-4eb4-8a11-c2feb61c4842"},"vehicle_type_id":"4","last_reported":1727417613,"current_range_meters":38400,"station_id":"ce4bgkp2rcd13ifvqbmg","pricing_plan_id":"cebpf4jnsgd1na2vs0mg"},{"bike_id":"46c33816-59dd-4288-95da-8a9ffff55dc4","system_id":"levelo_inurba_marseille","lat":43.28571,"lon":5.39494,"is_reserved":false,"is_disabled":false,"rental_uris":{"android":"levelo://app?vid=46c33816-59dd-4288-95da-8a9ffff55dc4","ios":"levelo://app?vid=46c33816-59dd-4288-95da-8a9ffff55dc4"},"vehicle_type_id":"4","last_reported":1727417613,"current_range_meters":36800,"station_id":"ce4bgn92rcd13ifvqbvg","pricing_plan_id":"cebpf4jnsgd1na2vs0mg"},{"bike_id":"d8c48252-4588-4704-86ec-4f5a0439137e","system_id":"levelo_inurba_marseille","lat":43.29558,"lon":5.42282,"is_reserved":false,"is_disabled":false,"rental_uris":{"android":"levelo://app?vid=d8c48252-4588-4704-86ec-4f5a0439137e","ios":"levelo://app?vid=d8c48252-4588-4704-86ec-4f5a0439137e"},"vehicle_type_id":"4","last_reported":1727417613,"current_range_meters":38800,"station_id":"ce4bhph2rcd13ifvqhdg","pricing_plan_id":"cebpf4jnsgd1na2vs0mg"},{"bike_id":"ae37171f-2006-4461-a9f3-ea6cc01aa1a7","system_id":"levelo_inurba_marseille","lat":43.26952,"lon":5.38617,"is_reserved":false,"is_disabled":false,"rental_uris":{"android":"levelo://app?vid=ae37171f-2006-4461-a9f3-ea6cc01aa1a7","ios":"levelo://app?vid=ae37171f-2006-4461-a9f3-ea6cc01aa1a7"},"vehicle_type_id":"4","last_reported":1727417613,"current_range_meters":33600,"station_id":"ce4bhh92rcd13ifvqfh0","pricing_plan_id":"cebpf4jnsgd1na2vs0mg"},{"bike_id":"13296a5f-860e-43e6-ad11-2dde07d8e825","system_id":"levelo_inurba_marseille","lat":43.30802,"lon":5.38144,"is_reserved":false,"is_disabled":false,"rental_uris":{"android":"levelo://app?vid=13296a5f-860e-43e6-ad11-2dde07d8e825","ios":"levelo://app?vid=13296a5f-860e-43e6-ad11-2dde07d8e825"},"vehicle_type_id":"4","last_reported":1727417613,"current_range_meters":38000,"station_id":"ce4bgt12rcd13ifvqce0","pricing_plan_id":"cebpf4jnsgd1na2vs0mg"},{"bike_id":"39fa4c55-ba59-4795-b216-bdba84781c79","system_id":"levelo_inurba_marseille","lat":43.28466,"lon":5.35882,"is_reserved":false,"is_disabled":false,"rental_uris":{"android":"levelo://app?vid=39fa4c55-ba59-4795-b216-bdba84781c79","ios":"levelo://app?vid=39fa4c55-ba59-4795-b216-bdba84781c79"},"vehicle_type_id":"4","last_reported":1727417613,"current_range_meters":38800,"station_id":"ce4bhah2rcd13ifvqei0","pricing_plan_id":"cebpf4jnsgd1na2vs0mg"},{"bike_id":"ec7cf8ef-bff2-4505-afee-7fa3dc798cbb","system_id":"levelo_inurba_marseille","lat":43.334259,"lon":5.410346,"is_reserved":false,"is_disabled":false,"rental_uris":{"android":"levelo://app?vid=ec7cf8ef-bff2-4505-afee-7fa3dc798cbb","ios":"levelo://app?vid=ec7cf8ef-bff2-4505-afee-7fa3dc798cbb"},"vehicle_type_id":"4","last_reported":1727417613,"current_range_meters":14400,"station_id":"ce4bhqh2rcd13ifvqhmg","pricing_plan_id":"cebpf4jnsgd1na2vs0mg"},{"bike_id":"be7ce05f-fa19-4b34-9a9c-52a01fd586a0","system_id":"levelo_inurba_marseille","lat":43.27427,"lon":5.39425,"is_reserved":false,"is_disabled":false,"rental_uris":{"android":"levelo://app?vid=be7ce05f-fa19-4b34-9a9c-52a01fd586a0","ios":"levelo://app?vid=be7ce05f-fa19-4b34-9a9c-52a01fd586a0"},"vehicle_type_id":"4","last_reported":1727417613,"current_range_meters":37600,"station_id":"ce4bhdp2rcd13ifvqf20","pricing_plan_id":"cebpf4jnsgd1na2vs0mg"},{"bike_id":"2a35124c-e4ce-4d4a-b2cc-80e6befd99f9","system_id":"levelo_inurba_marseille","lat":43.30933,"lon":5.40143,"is_reserved":false,"is_disabled":false,"rental_uris":{"android":"levelo://app?vid=2a35124c-e4ce-4d4a-b2cc-80e6befd99f9","ios":"levelo://app?vid=2a35124c-e4ce-4d4a-b2cc-80e6befd99f9"},"vehicle_type_id":"4","last_reported":1727417613,"current_range_meters":38800,"station_id":"ce4bgvp2rcd13ifvqct0","pricing_plan_id":"cebpf4jnsgd1na2vs0mg"},{"bike_id":"c47b4954-918a-49fc-a6c5-70915d3d5324","system_id":"levelo_inurba_marseille","lat":43.24539,"lon":5.39514,"is_reserved":false,"is_disabled":false,"rental_uris":{"android":"levelo://app?vid=c47b4954-918a-49fc-a6c5-70915d3d5324","ios":"levelo://app?vid=c47b4954-918a-49fc-a6c5-70915d3d5324"},"vehicle_type_id":"4","last_reported":1727417613,"current_range_meters":27600,"station_id":"ce4bhlp2rcd13ifvqgjg","pricing_plan_id":"cebpf4jnsgd1na2vs0mg"},{"bike_id":"11a48128-fc32-4895-8b0d-a780d192ec77","system_id":"levelo_inurba_marseille","lat":43.25823,"lon":5.39438,"is_reserved":false,"is_disabled":false,"rental_uris":{"android":"levelo://app?vid=11a48128-fc32-4895-8b0d-a780d192ec77","ios":"levelo://app?vid=11a48128-fc32-4895-8b0d-a780d192ec77"},"vehicle_type_id":"4","last_reported":1727417613,"current_range_meters":22800,"station_id":"ce4bhip2rcd13ifvqft0","pricing_plan_id":"cebpf4jnsgd1na2vs0mg"},{"bike_id":"49ae1e59-08b3-4859-a392-0191fe810cd9","system_id":"levelo_inurba_marseille","lat":43.25938,"lon":5.40904,"is_reserved":false,"is_disabled":false,"rental_uris":{"android":"levelo://app?vid=49ae1e59-08b3-4859-a392-0191fe810cd9","ios":"levelo://app?vid=49ae1e59-08b3-4859-a392-0191fe810cd9"},"vehicle_type_id":"4","last_reported":1727417613,"current_range_meters":3600,"station_id":"ce4bhm92rcd13ifvqglg","pricing_plan_id":"cebpf4jnsgd1na2vs0mg"},{"bike_id":"3dabe597-7bed-42ce-b402-93f36374a299","system_id":"levelo_inurba_marseille","lat":43.33604,"lon":5.4102,"is_reserved":false,"is_disabled":false,"rental_uris":{"android":"levelo://app?vid=3dabe597-7bed-42ce-b402-93f36374a299","ios":"levelo://app?vid=3dabe597-7bed-42ce-b402-93f36374a299"},"vehicle_type_id":"4","last_reported":1727417613,"current_range_meters":26800,"station_id":"ce4bhqh2rcd13ifvqhmg","pricing_plan_id":"cebpf4jnsgd1na2vs0mg"},{"bike_id":"b4ae0804-26b1-4a71-8845-4e49df2cd494","system_id":"levelo_inurba_marseille","lat":43.30907,"lon":5.36849,"is_reserved":false,"is_disabled":false,"rental_uris":{"android":"levelo://app?vid=b4ae0804-26b1-4a71-8845-4e49df2cd494","ios":"levelo://app?vid=b4ae0804-26b1-4a71-8845-4e49df2cd494"},"vehicle_type_id":"4","last_reported":1727417613,"current_range_meters":38800,"station_id":"ce4bgn92rcd13ifvqbvg","pricing_plan_id":"cebpf4jnsgd1na2vs0mg"},{"bike_id":"d4c76aee-094b-4e67-93eb-876e3e7161ba","system_id":"levelo_inurba_marseille","lat":43.22931,"lon":5.35375,"is_reserved":false,"is_disabled":false,"rental_uris":{"android":"levelo://app?vid=d4c76aee-094b-4e67-93eb-876e3e7161ba","ios":"levelo://app?vid=d4c76aee-094b-4e67-93eb-876e3e7161ba"},"vehicle_type_id":"4","last_reported":1727417613,"current_range_meters":12400,"station_id":"cpo3532slgdg3j2ikp40","pricing_plan_id":"cebpf4jnsgd1na2vs0mg"},{"bike_id":"0de5d883-7699-4512-a81d-817d8ca4956f","system_id":"levelo_inurba_marseille","lat":43.241791,"lon":5.397331,"is_reserved":false,"is_disabled":false,"rental_uris":{"android":"levelo://app?vid=0de5d883-7699-4512-a81d-817d8ca4956f","ios":"levelo://app?vid=0de5d883-7699-4512-a81d-817d8ca4956f"},"vehicle_type_id":"4","last_reported":1727417613,"current_range_meters":6000,"station_id":"","pricing_plan_id":"cebpf4jnsgd1na2vs0mg"},{"bike_id":"6869e77e-866f-4e20-b0e6-a71a08008f6c","system_id":"levelo_inurba_marseille","lat":43.32302,"lon":5.41338,"is_reserved":false,"is_disabled":false,"rental_uris":{"android":"levelo://app?vid=6869e77e-866f-4e20-b0e6-a71a08008f6c","ios":"levelo://app?vid=6869e77e-866f-4e20-b0e6-a71a08008f6c"},"vehicle_type_id":"4","last_reported":1727417613,"current_range_meters":32000,"station_id":"","pricing_plan_id":"cebpf4jnsgd1na2vs0mg"},{"bike_id":"84370e09-0017-4c8b-9c58-8c7e88a8d174","system_id":"levelo_inurba_marseille","lat":43.30929,"lon":5.40167,"is_reserved":false,"is_disabled":false,"rental_uris":{"android":"levelo://app?vid=84370e09-0017-4c8b-9c58-8c7e88a8d174","ios":"levelo://app?vid=84370e09-0017-4c8b-9c58-8c7e88a8d174"},"vehicle_type_id":"4","last_reported":1727417613,"current_range_meters":38800,"station_id":"ce4bgvp2rcd13ifvqct0","pricing_plan_id":"cebpf4jnsgd1na2vs0mg"},{"bike_id":"bc9873de-6a8d-467b-b427-ddae496ac02d","system_id":"levelo_inurba_marseille","lat":43.34135,"lon":5.40908,"is_reserved":false,"is_disabled":false,"rental_uris":{"android":"levelo://app?vid=bc9873de-6a8d-467b-b427-ddae496ac02d","ios":"levelo://app?vid=bc9873de-6a8d-467b-b427-ddae496ac02d"},"vehicle_type_id":"4","last_reported":1727417613,"current_range_meters":2800,"station_id":"ce4bhqh2rcd13ifvqhlg","pricing_plan_id":"cebpf4jnsgd1na2vs0mg"},{"bike_id":"3e0789ab-30e4-4d0b-a878-e2c892fc6058","system_id":"levelo_inurba_marseille","lat":43.28562,"lon":5.39501,"is_reserved":false,"is_disabled":false,"rental_uris":{"android":"levelo://app?vid=3e0789ab-30e4-4d0b-a878-e2c892fc6058","ios":"levelo://app?vid=3e0789ab-30e4-4d0b-a878-e2c892fc6058"},"vehicle_type_id":"4","last_reported":1727417613,"current_range_meters":38800,"station_id":"ce4bh292rcd13ifvqdg0","pricing_plan_id":"cebpf4jnsgd1na2vs0mg"},{"bike_id":"8c8816db-27d9-4d49-b9bf-515cf4a62f34","system_id":"levelo_inurba_marseille","lat":43.26951,"lon":5.38624,"is_reserved":false,"is_disabled":false,"rental_uris":{"android":"levelo://app?vid=8c8816db-27d9-4d49-b9bf-515cf4a62f34","ios":"levelo://app?vid=8c8816db-27d9-4d49-b9bf-515cf4a62f34"},"vehicle_type_id":"4","last_reported":1727417613,"current_range_meters":38000,"station_id":"ce4bhh92rcd13ifvqfh0","pricing_plan_id":"cebpf4jnsgd1na2vs0mg"},{"bike_id":"7dcc681e-687a-4c9a-9ee2-bdf8919d45e7","system_id":"levelo_inurba_marseille","lat":43.3015,"lon":5.38078,"is_reserved":false,"is_disabled":false,"rental_uris":{"android":"levelo://app?vid=7dcc681e-687a-4c9a-9ee2-bdf8919d45e7","ios":"levelo://app?vid=7dcc681e-687a-4c9a-9ee2-bdf8919d45e7"},"vehicle_type_id":"4","last_reported":1727417613,"current_range_meters":37600,"station_id":"ce4bgjp2rcd13ifvqbh0","pricing_plan_id":"cebpf4jnsgd1na2vs0mg"},{"bike_id":"12bb2fa0-def4-44f9-9009-061dd94ed221","system_id":"levelo_inurba_marseille","lat":43.241648,"lon":5.363913,"is_reserved":false,"is_disabled":false,"rental_uris":{"android":"levelo://app?vid=12bb2fa0-def4-44f9-9009-061dd94ed221","ios":"levelo://app?vid=12bb2fa0-def4-44f9-9009-061dd94ed221"},"vehicle_type_id":"4","last_reported":1727417613,"current_range_meters":4000,"station_id":"cpo36qri1sfpv3e86is0","pricing_plan_id":"cebpf4jnsgd1na2vs0mg"},{"bike_id":"caac2220-f204-42a6-8944-b690878e20a4","system_id":"levelo_inurba_marseille","lat":43.26201,"lon":5.37931,"is_reserved":false,"is_disabled":false,"rental_uris":{"android":"levelo://app?vid=caac2220-f204-42a6-8944-b690878e20a4","ios":"levelo://app?vid=caac2220-f204-42a6-8944-b690878e20a4"},"vehicle_type_id":"4","last_reported":1727417613,"current_range_meters":28000,"station_id":"ce4bhjp2rcd13ifvqg90","pricing_plan_id":"cebpf4jnsgd1na2vs0mg"},{"bike_id":"f916f4ea-109f-491c-b317-68616a4e1aaf","system_id":"levelo_inurba_marseille","lat":43.304626,"lon":5.379191,"is_reserved":false,"is_disabled":false,"rental_uris":{"android":"levelo://app?vid=f916f4ea-109f-491c-b317-68616a4e1aaf","ios":"levelo://app?vid=f916f4ea-109f-491c-b317-68616a4e1aaf"},"vehicle_type_id":"4","last_reported":1727417613,"current_range_meters":22800,"station_id":"ce4bgup2rcd13ifvqcn0","pricing_plan_id":"cebpf4jnsgd1na2vs0mg"},{"bike_id":"841ec22f-2dbb-4d77-9dfa-34def4ede8a5","system_id":"levelo_inurba_marseille","lat":43.31884,"lon":5.40747,"is_reserved":false,"is_disabled":false,"rental_uris":{"android":"levelo://app?vid=841ec22f-2dbb-4d77-9dfa-34def4ede8a5","ios":"levelo://app?vid=841ec22f-2dbb-4d77-9dfa-34def4ede8a5"},"vehicle_type_id":"4","last_reported":1727417613,"current_range_meters":17200,"station_id":"ce4bhq12rcd13ifvqhig","pricing_plan_id":"cebpf4jnsgd1na2vs0mg"},{"bike_id":"aacd2e49-5b5b-43df-bd07-231a2928004d","system_id":"levelo_inurba_marseille","lat":43.28464,"lon":5.35876,"is_reserved":false,"is_disabled":false,"rental_uris":{"android":"levelo://app?vid=aacd2e49-5b5b-43df-bd07-231a2928004d","ios":"levelo://app?vid=aacd2e49-5b5b-43df-bd07-231a2928004d"},"vehicle_type_id":"4","last_reported":1727417613,"current_range_meters":28000,"station_id":"ce4bhah2rcd13ifvqei0","pricing_plan_id":"cebpf4jnsgd1na2vs0mg"},{"bike_id":"0a3e75c6-0b21-49c5-96d1-0e3d885d7e49","system_id":"levelo_inurba_marseille","lat":43.28659,"lon":5.36363,"is_reserved":false,"is_disabled":false,"rental_uris":{"android":"levelo://app?vid=0a3e75c6-0b21-49c5-96d1-0e3d885d7e49","ios":"levelo://app?vid=0a3e75c6-0b21-49c5-96d1-0e3d885d7e49"},"vehicle_type_id":"4","last_reported":1727417613,"current_range_meters":11600,"station_id":"ce4bhah2rcd13ifvqej0","pricing_plan_id":"cebpf4jnsgd1na2vs0mg"},{"bike_id":"6638bfbc-e341-409c-94ed-cb6318eaee99","system_id":"levelo_inurba_marseille","lat":43.271844,"lon":5.409961,"is_reserved":false,"is_disabled":false,"rental_uris":{"android":"levelo://app?vid=6638bfbc-e341-409c-94ed-cb6318eaee99","ios":"levelo://app?vid=6638bfbc-e341-409c-94ed-cb6318eaee99"},"vehicle_type_id":"4","last_reported":1727417613,"current_range_meters":6800,"station_id":"ce4bhl12rcd13ifvqgf0","pricing_plan_id":"cebpf4jnsgd1na2vs0mg"},{"bike_id":"a0330d7d-3ee3-4778-9fe7-6a9767b2a352","system_id":"levelo_inurba_marseille","lat":43.23195,"lon":5.3555,"is_reserved":false,"is_disabled":false,"rental_uris":{"android":"levelo://app?vid=a0330d7d-3ee3-4778-9fe7-6a9767b2a352","ios":"levelo://app?vid=a0330d7d-3ee3-4778-9fe7-6a9767b2a352"},"vehicle_type_id":"4","last_reported":1727417613,"current_range_meters":29600,"station_id":"ce4bhu92rcd13ifvqi70","pricing_plan_id":"cebpf4jnsgd1na2vs0mg"},{"bike_id":"8a8ed5c8-f063-4e4c-a9e6-44bee942cf68","system_id":"levelo_inurba_marseille","lat":43.28344,"lon":5.3811,"is_reserved":false,"is_disabled":false,"rental_uris":{"android":"levelo://app?vid=8a8ed5c8-f063-4e4c-a9e6-44bee942cf68","ios":"levelo://app?vid=8a8ed5c8-f063-4e4c-a9e6-44bee942cf68"},"vehicle_type_id":"4","last_reported":1727417613,"current_range_meters":21600,"station_id":"ce4bh412rcd13ifvqdr0","pricing_plan_id":"cebpf4jnsgd1na2vs0mg"},{"bike_id":"637beff3-55bd-4f15-99c0-4cb53d5dddb9","system_id":"levelo_inurba_marseille","lat":43.30653,"lon":5.3953,"is_reserved":false,"is_disabled":false,"rental_uris":{"android":"levelo://app?vid=637beff3-55bd-4f15-99c0-4cb53d5dddb9","ios":"levelo://app?vid=637beff3-55bd-4f15-99c0-4cb53d5dddb9"},"vehicle_type_id":"4","last_reported":1727417613,"current_range_meters":33600,"station_id":"","pricing_plan_id":"cebpf4jnsgd1na2vs0mg"},{"bike_id":"166d3025-903c-4128-9393-b436a9d6906e","system_id":"levelo_inurba_marseille","lat":43.28466,"lon":5.35891,"is_reserved":false,"is_disabled":false,"rental_uris":{"android":"levelo://app?vid=166d3025-903c-4128-9393-b436a9d6906e","ios":"levelo://app?vid=166d3025-903c-4128-9393-b436a9d6906e"},"vehicle_type_id":"4","last_reported":1727417613,"current_range_meters":38000,"station_id":"ce4bhah2rcd13ifvqei0","pricing_plan_id":"cebpf4jnsgd1na2vs0mg"},{"bike_id":"2033226c-ad5e-4558-a007-08be72b3c458","system_id":"levelo_inurba_marseille","lat":43.31997,"lon":5.38149,"is_reserved":false,"is_disabled":false,"rental_uris":{"android":"levelo://app?vid=2033226c-ad5e-4558-a007-08be72b3c458","ios":"levelo://app?vid=2033226c-ad5e-4558-a007-08be72b3c458"},"vehicle_type_id":"4","last_reported":1727417613,"current_range_meters":22800,"station_id":"ce4bhr12rcd13ifvqhpg","pricing_plan_id":"cebpf4jnsgd1na2vs0mg"},{"bike_id":"f2199e93-ecc3-4f96-9bb9-59d6bd578095","system_id":"levelo_inurba_marseille","lat":43.31533,"lon":5.38025,"is_reserved":false,"is_disabled":false,"rental_uris":{"android":"levelo://app?vid=f2199e93-ecc3-4f96-9bb9-59d6bd578095","ios":"levelo://app?vid=f2199e93-ecc3-4f96-9bb9-59d6bd578095"},"vehicle_type_id":"4","last_reported":1727417613,"current_range_meters":26000,"station_id":"ce4bhsp2rcd13ifvqi50","pricing_plan_id":"cebpf4jnsgd1na2vs0mg"},{"bike_id":"53d6e06f-e76e-4a45-9d89-86bbf7739dee","system_id":"levelo_inurba_marseille","lat":43.30472,"lon":5.37907,"is_reserved":false,"is_disabled":false,"rental_uris":{"android":"levelo://app?vid=53d6e06f-e76e-4a45-9d89-86bbf7739dee","ios":"levelo://app?vid=53d6e06f-e76e-4a45-9d89-86bbf7739dee"},"vehicle_type_id":"4","last_reported":1727417613,"current_range_meters":28800,"station_id":"ce4bgup2rcd13ifvqcn0","pricing_plan_id":"cebpf4jnsgd1na2vs0mg"},{"bike_id":"c60567da-b13b-47a5-af8b-f847873a1162","system_id":"levelo_inurba_marseille","lat":43.26064,"lon":5.39394,"is_reserved":false,"is_disabled":false,"rental_uris":{"android":"levelo://app?vid=c60567da-b13b-47a5-af8b-f847873a1162","ios":"levelo://app?vid=c60567da-b13b-47a5-af8b-f847873a1162"},"vehicle_type_id":"4","last_reported":1727417613,"current_range_meters":37600,"station_id":"ce4bhh92rcd13ifvqfj0","pricing_plan_id":"cebpf4jnsgd1na2vs0mg"},{"bike_id":"b0479795-788c-4e33-bf14-476b3dcd18fb","system_id":"levelo_inurba_marseille","lat":43.28937,"lon":5.39627,"is_reserved":false,"is_disabled":false,"rental_uris":{"android":"levelo://app?vid=b0479795-788c-4e33-bf14-476b3dcd18fb","ios":"levelo://app?vid=b0479795-788c-4e33-bf14-476b3dcd18fb"},"vehicle_type_id":"4","last_reported":1727417613,"current_range_meters":20400,"station_id":"ce4bh3h2rcd13ifvqdn0","pricing_plan_id":"cebpf4jnsgd1na2vs0mg"},{"bike_id":"2d7a9fb7-df81-4f65-9229-4f5ebff4a082","system_id":"levelo_inurba_marseille","lat":43.29561,"lon":5.42268,"is_reserved":false,"is_disabled":false,"rental_uris":{"android":"levelo://app?vid=2d7a9fb7-df81-4f65-9229-4f5ebff4a082","ios":"levelo://app?vid=2d7a9fb7-df81-4f65-9229-4f5ebff4a082"},"vehicle_type_id":"4","last_reported":1727417613,"current_range_meters":32800,"station_id":"ce4bhph2rcd13ifvqhdg","pricing_plan_id":"cebpf4jnsgd1na2vs0mg"},{"bike_id":"fe4f10d4-63cd-46bf-9549-795598f8a09b","system_id":"levelo_inurba_marseille","lat":43.28345,"lon":5.38103,"is_reserved":false,"is_disabled":false,"rental_uris":{"android":"levelo://app?vid=fe4f10d4-63cd-46bf-9549-795598f8a09b","ios":"levelo://app?vid=fe4f10d4-63cd-46bf-9549-795598f8a09b"},"vehicle_type_id":"4","last_reported":1727417613,"current_range_meters":20400,"station_id":"ce4bh412rcd13ifvqdr0","pricing_plan_id":"cebpf4jnsgd1na2vs0mg"},{"bike_id":"51cd0e26-68b5-4158-9a80-d3445331b8f5","system_id":"levelo_inurba_marseille","lat":43.23155,"lon":5.43704,"is_reserved":false,"is_disabled":false,"rental_uris":{"android":"levelo://app?vid=51cd0e26-68b5-4158-9a80-d3445331b8f5","ios":"levelo://app?vid=51cd0e26-68b5-4158-9a80-d3445331b8f5"},"vehicle_type_id":"4","last_reported":1727417613,"current_range_meters":12000,"station_id":"ce4bhmp2rcd13ifvqgog","pricing_plan_id":"cebpf4jnsgd1na2vs0mg"},{"bike_id":"1b4b0178-3a24-4b33-98ef-05aef8dad5fc","system_id":"levelo_inurba_marseille","lat":43.262045,"lon":5.37924,"is_reserved":false,"is_disabled":false,"rental_uris":{"android":"levelo://app?vid=1b4b0178-3a24-4b33-98ef-05aef8dad5fc","ios":"levelo://app?vid=1b4b0178-3a24-4b33-98ef-05aef8dad5fc"},"vehicle_type_id":"4","last_reported":1727417613,"current_range_meters":38800,"station_id":"ce4bhjp2rcd13ifvqg90","pricing_plan_id":"cebpf4jnsgd1na2vs0mg"},{"bike_id":"840816d8-06e8-4fbc-9617-5f6d82065a83","system_id":"levelo_inurba_marseille","lat":43.27495,"lon":5.42448,"is_reserved":false,"is_disabled":false,"rental_uris":{"android":"levelo://app?vid=840816d8-06e8-4fbc-9617-5f6d82065a83","ios":"levelo://app?vid=840816d8-06e8-4fbc-9617-5f6d82065a83"},"vehicle_type_id":"4","last_reported":1727417613,"current_range_meters":36800,"station_id":"ce4bhn92rcd13ifvqgrg","pricing_plan_id":"cebpf4jnsgd1na2vs0mg"},{"bike_id":"fd862933-d712-4813-8866-a7ed5682df20","system_id":"levelo_inurba_marseille","lat":43.23157,"lon":5.43694,"is_reserved":false,"is_disabled":false,"rental_uris":{"android":"levelo://app?vid=fd862933-d712-4813-8866-a7ed5682df20","ios":"levelo://app?vid=fd862933-d712-4813-8866-a7ed5682df20"},"vehicle_type_id":"4","last_reported":1727417613,"current_range_meters":19200,"station_id":"ce4bhmp2rcd13ifvqgog","pricing_plan_id":"cebpf4jnsgd1na2vs0mg"},{"bike_id":"fdeab252-3058-4111-add0-775c267b7e58","system_id":"levelo_inurba_marseille","lat":43.33606,"lon":5.41034,"is_reserved":false,"is_disabled":false,"rental_uris":{"android":"levelo://app?vid=fdeab252-3058-4111-add0-775c267b7e58","ios":"levelo://app?vid=fdeab252-3058-4111-add0-775c267b7e58"},"vehicle_type_id":"4","last_reported":1727417613,"current_range_meters":19200,"station_id":"ce4bhqh2rcd13ifvqhmg","pricing_plan_id":"cebpf4jnsgd1na2vs0mg"},{"bike_id":"a49caae8-dc02-43f3-8060-e88ecca58e57","system_id":"levelo_inurba_marseille","lat":43.28575,"lon":5.39493,"is_reserved":false,"is_disabled":false,"rental_uris":{"android":"levelo://app?vid=a49caae8-dc02-43f3-8060-e88ecca58e57","ios":"levelo://app?vid=a49caae8-dc02-43f3-8060-e88ecca58e57"},"vehicle_type_id":"4","last_reported":1727417613,"current_range_meters":35200,"station_id":"ce4bh292rcd13ifvqdg0","pricing_plan_id":"cebpf4jnsgd1na2vs0mg"},{"bike_id":"0d3ab1ad-8bf0-479f-b859-ad3cb2261523","system_id":"levelo_inurba_marseille","lat":43.28461,"lon":5.38426,"is_reserved":false,"is_disabled":false,"rental_uris":{"android":"levelo://app?vid=0d3ab1ad-8bf0-479f-b859-ad3cb2261523","ios":"levelo://app?vid=0d3ab1ad-8bf0-479f-b859-ad3cb2261523"},"vehicle_type_id":"4","last_reported":1727417613,"current_range_meters":22400,"station_id":"ce4bh512rcd13ifvqe3g","pricing_plan_id":"cebpf4jnsgd1na2vs0mg"},{"bike_id":"b041dfe5-3749-4b2e-9906-bcb341fadf5c","system_id":"levelo_inurba_marseille","lat":43.31115,"lon":5.37773,"is_reserved":false,"is_disabled":false,"rental_uris":{"android":"levelo://app?vid=b041dfe5-3749-4b2e-9906-bcb341fadf5c","ios":"levelo://app?vid=b041dfe5-3749-4b2e-9906-bcb341fadf5c"},"vehicle_type_id":"4","last_reported":1727417613,"current_range_meters":38800,"station_id":"ce4bgt92rcd13ifvqcg0","pricing_plan_id":"cebpf4jnsgd1na2vs0mg"},{"bike_id":"f3015718-0641-4d2a-aeed-dfd8ac07edda","system_id":"levelo_inurba_marseille","lat":43.292779,"lon":5.409033,"is_reserved":false,"is_disabled":false,"rental_uris":{"android":"levelo://app?vid=f3015718-0641-4d2a-aeed-dfd8ac07edda","ios":"levelo://app?vid=f3015718-0641-4d2a-aeed-dfd8ac07edda"},"vehicle_type_id":"4","last_reported":1727417613,"current_range_meters":4800,"station_id":"ce4bh192rcd13ifvqdc0","pricing_plan_id":"cebpf4jnsgd1na2vs0mg"},{"bike_id":"c129785d-f2d1-4a6e-ad7a-a895ba0ea7bb","system_id":"levelo_inurba_marseille","lat":43.29264,"lon":5.40904,"is_reserved":false,"is_disabled":false,"rental_uris":{"android":"levelo://app?vid=c129785d-f2d1-4a6e-ad7a-a895ba0ea7bb","ios":"levelo://app?vid=c129785d-f2d1-4a6e-ad7a-a895ba0ea7bb"},"vehicle_type_id":"4","last_reported":1727417613,"current_range_meters":37600,"station_id":"ce4bh192rcd13ifvqdc0","pricing_plan_id":"cebpf4jnsgd1na2vs0mg"},{"bike_id":"571115be-4f92-4f3c-be12-44639ba9602a","system_id":"levelo_inurba_marseille","lat":43.32536,"lon":5.41447,"is_reserved":false,"is_disabled":false,"rental_uris":{"android":"levelo://app?vid=571115be-4f92-4f3c-be12-44639ba9602a","ios":"levelo://app?vid=571115be-4f92-4f3c-be12-44639ba9602a"},"vehicle_type_id":"4","last_reported":1727417613,"current_range_meters":26800,"station_id":"ce4bhq12rcd13ifvqhhg","pricing_plan_id":"cebpf4jnsgd1na2vs0mg"},{"bike_id":"e7a340e5-9566-47cb-8d22-ce80ecf21c73","system_id":"levelo_inurba_marseille","lat":43.2509,"lon":5.39517,"is_reserved":false,"is_disabled":false,"rental_uris":{"android":"levelo://app?vid=e7a340e5-9566-47cb-8d22-ce80ecf21c73","ios":"levelo://app?vid=e7a340e5-9566-47cb-8d22-ce80ecf21c73"},"vehicle_type_id":"4","last_reported":1727417613,"current_range_meters":4000,"station_id":"ce4bhm12rcd13ifvqgkg","pricing_plan_id":"cebpf4jnsgd1na2vs0mg"},{"bike_id":"23436dae-b3bf-4339-b7bb-645a0d1e950e","system_id":"levelo_inurba_marseille","lat":43.299232,"lon":5.374977,"is_reserved":false,"is_disabled":false,"rental_uris":{"android":"levelo://app?vid=23436dae-b3bf-4339-b7bb-645a0d1e950e","ios":"levelo://app?vid=23436dae-b3bf-4339-b7bb-645a0d1e950e"},"vehicle_type_id":"4","last_reported":1727417613,"current_range_meters":34800,"station_id":"ce4bgjh2rcd13ifvqbg0","pricing_plan_id":"cebpf4jnsgd1na2vs0mg"},{"bike_id":"f8a51df7-7b0a-481c-a54c-725f4d5661e3","system_id":"levelo_inurba_marseille","lat":43.34142,"lon":5.40898,"is_reserved":false,"is_disabled":false,"rental_uris":{"android":"levelo://app?vid=f8a51df7-7b0a-481c-a54c-725f4d5661e3","ios":"levelo://app?vid=f8a51df7-7b0a-481c-a54c-725f4d5661e3"},"vehicle_type_id":"4","last_reported":1727417613,"current_range_meters":35600,"station_id":"ce4bhqh2rcd13ifvqhlg","pricing_plan_id":"cebpf4jnsgd1na2vs0mg"},{"bike_id":"4174e0c9-ea8a-45cf-832b-944eca7da095","system_id":"levelo_inurba_marseille","lat":43.26569,"lon":5.39017,"is_reserved":false,"is_disabled":false,"rental_uris":{"android":"levelo://app?vid=4174e0c9-ea8a-45cf-832b-944eca7da095","ios":"levelo://app?vid=4174e0c9-ea8a-45cf-832b-944eca7da095"},"vehicle_type_id":"4","last_reported":1727417613,"current_range_meters":20000,"station_id":"ce4bhe12rcd13ifvqf30","pricing_plan_id":"cebpf4jnsgd1na2vs0mg"},{"bike_id":"2c210439-4eb0-4752-a8f5-8a69ffd1922f","system_id":"levelo_inurba_marseille","lat":43.3059,"lon":5.39359,"is_reserved":false,"is_disabled":false,"rental_uris":{"android":"levelo://app?vid=2c210439-4eb0-4752-a8f5-8a69ffd1922f","ios":"levelo://app?vid=2c210439-4eb0-4752-a8f5-8a69ffd1922f"},"vehicle_type_id":"4","last_reported":1727417613,"current_range_meters":26800,"station_id":"ce4bh0p2rcd13ifvqd80","pricing_plan_id":"cebpf4jnsgd1na2vs0mg"},{"bike_id":"ef3b1768-3128-4f90-82ef-cc8335211ff1","system_id":"levelo_inurba_marseille","lat":43.29556,"lon":5.42296,"is_reserved":false,"is_disabled":false,"rental_uris":{"android":"levelo://app?vid=ef3b1768-3128-4f90-82ef-cc8335211ff1","ios":"levelo://app?vid=ef3b1768-3128-4f90-82ef-cc8335211ff1"},"vehicle_type_id":"4","last_reported":1727417613,"current_range_meters":38800,"station_id":"ce4bhph2rcd13ifvqhdg","pricing_plan_id":"cebpf4jnsgd1na2vs0mg"},{"bike_id":"9c802d72-a3ef-463a-ad77-5644542a6e53","system_id":"levelo_inurba_marseille","lat":43.30469,"lon":5.37899,"is_reserved":false,"is_disabled":false,"rental_uris":{"android":"levelo://app?vid=9c802d72-a3ef-463a-ad77-5644542a6e53","ios":"levelo://app?vid=9c802d72-a3ef-463a-ad77-5644542a6e53"},"vehicle_type_id":"4","last_reported":1727417613,"current_range_meters":27200,"station_id":"ce4bgup2rcd13ifvqcn0","pricing_plan_id":"cebpf4jnsgd1na2vs0mg"},{"bike_id":"fd512eb4-5978-476b-856d-3199680a82b6","system_id":"levelo_inurba_marseille","lat":43.23153,"lon":5.43702,"is_reserved":false,"is_disabled":false,"rental_uris":{"android":"levelo://app?vid=fd512eb4-5978-476b-856d-3199680a82b6","ios":"levelo://app?vid=fd512eb4-5978-476b-856d-3199680a82b6"},"vehicle_type_id":"4","last_reported":1727417613,"current_range_meters":17600,"station_id":"ce4bhmp2rcd13ifvqgog","pricing_plan_id":"cebpf4jnsgd1na2vs0mg"},{"bike_id":"cff557bc-e136-4fde-af6c-83c740466e77","system_id":"levelo_inurba_marseille","lat":43.26954,"lon":5.38629,"is_reserved":false,"is_disabled":false,"rental_uris":{"android":"levelo://app?vid=cff557bc-e136-4fde-af6c-83c740466e77","ios":"levelo://app?vid=cff557bc-e136-4fde-af6c-83c740466e77"},"vehicle_type_id":"4","last_reported":1727417613,"current_range_meters":38800,"station_id":"ce4bhh92rcd13ifvqfh0","pricing_plan_id":"cebpf4jnsgd1na2vs0mg"},{"bike_id":"21f4556e-14f8-4816-8bb2-303815a7881f","system_id":"levelo_inurba_marseille","lat":43.30154,"lon":5.38079,"is_reserved":false,"is_disabled":false,"rental_uris":{"android":"levelo://app?vid=21f4556e-14f8-4816-8bb2-303815a7881f","ios":"levelo://app?vid=21f4556e-14f8-4816-8bb2-303815a7881f"},"vehicle_type_id":"4","last_reported":1727417613,"current_range_meters":27200,"station_id":"ce4bgjp2rcd13ifvqbh0","pricing_plan_id":"cebpf4jnsgd1na2vs0mg"},{"bike_id":"c38ce504-cc12-463a-8702-23f36eeb3a46","system_id":"levelo_inurba_marseille","lat":43.30597,"lon":5.39359,"is_reserved":false,"is_disabled":false,"rental_uris":{"android":"levelo://app?vid=c38ce504-cc12-463a-8702-23f36eeb3a46","ios":"levelo://app?vid=c38ce504-cc12-463a-8702-23f36eeb3a46"},"vehicle_type_id":"4","last_reported":1727417613,"current_range_meters":36800,"station_id":"ce4bh0p2rcd13ifvqd80","pricing_plan_id":"cebpf4jnsgd1na2vs0mg"},{"bike_id":"54349784-eb4a-488f-a187-17d76f2f8837","system_id":"levelo_inurba_marseille","lat":43.341448,"lon":5.409014,"is_reserved":false,"is_disabled":false,"rental_uris":{"android":"levelo://app?vid=54349784-eb4a-488f-a187-17d76f2f8837","ios":"levelo://app?vid=54349784-eb4a-488f-a187-17d76f2f8837"},"vehicle_type_id":"4","last_reported":1727417613,"current_range_meters":17200,"station_id":"ce4bhqh2rcd13ifvqhlg","pricing_plan_id":"cebpf4jnsgd1na2vs0mg"},{"bike_id":"5d77df8f-df8f-49bc-b4f5-88a8d42746d7","system_id":"levelo_inurba_marseille","lat":43.28573,"lon":5.39489,"is_reserved":false,"is_disabled":false,"rental_uris":{"android":"levelo://app?vid=5d77df8f-df8f-49bc-b4f5-88a8d42746d7","ios":"levelo://app?vid=5d77df8f-df8f-49bc-b4f5-88a8d42746d7"},"vehicle_type_id":"4","last_reported":1727417613,"current_range_meters":26800,"station_id":"ce4bh292rcd13ifvqdg0","pricing_plan_id":"cebpf4jnsgd1na2vs0mg"},{"bike_id":"17e01432-ffc9-4bb5-97b9-d31610c10df8","system_id":"levelo_inurba_marseille","lat":43.28343,"lon":5.381,"is_reserved":false,"is_disabled":false,"rental_uris":{"android":"levelo://app?vid=17e01432-ffc9-4bb5-97b9-d31610c10df8","ios":"levelo://app?vid=17e01432-ffc9-4bb5-97b9-d31610c10df8"},"vehicle_type_id":"4","last_reported":1727417613,"current_range_meters":20800,"station_id":"ce4bh412rcd13ifvqdr0","pricing_plan_id":"cebpf4jnsgd1na2vs0mg"},{"bike_id":"12829535-76c0-47ae-b127-397b0ae7ad80","system_id":"levelo_inurba_marseille","lat":43.24259,"lon":5.37987,"is_reserved":false,"is_disabled":false,"rental_uris":{"android":"levelo://app?vid=12829535-76c0-47ae-b127-397b0ae7ad80","ios":"levelo://app?vid=12829535-76c0-47ae-b127-397b0ae7ad80"},"vehicle_type_id":"4","last_reported":1727417613,"current_range_meters":19200,"station_id":"","pricing_plan_id":"cebpf4jnsgd1na2vs0mg"},{"bike_id":"146b7f3b-ab6f-4a16-96b9-4e8e2fd74c29","system_id":"levelo_inurba_marseille","lat":43.302977,"lon":5.39219,"is_reserved":false,"is_disabled":false,"rental_uris":{"android":"levelo://app?vid=146b7f3b-ab6f-4a16-96b9-4e8e2fd74c29","ios":"levelo://app?vid=146b7f3b-ab6f-4a16-96b9-4e8e2fd74c29"},"vehicle_type_id":"4","last_reported":1727417613,"current_range_meters":14000,"station_id":"ce4bgkh2rcd13ifvqbk0","pricing_plan_id":"cebpf4jnsgd1na2vs0mg"},{"bike_id":"e55311dc-47e5-4091-bcf9-a5388faa16d3","system_id":"levelo_inurba_marseille","lat":43.31529,"lon":5.38027,"is_reserved":false,"is_disabled":false,"rental_uris":{"android":"levelo://app?vid=e55311dc-47e5-4091-bcf9-a5388faa16d3","ios":"levelo://app?vid=e55311dc-47e5-4091-bcf9-a5388faa16d3"},"vehicle_type_id":"4","last_reported":1727417613,"current_range_meters":27200,"station_id":"ce4bhsp2rcd13ifvqi50","pricing_plan_id":"cebpf4jnsgd1na2vs0mg"},{"bike_id":"c6371b8b-5ad1-494b-8a26-7f8e38197a50","system_id":"levelo_inurba_marseille","lat":43.26061,"lon":5.39396,"is_reserved":false,"is_disabled":false,"rental_uris":{"android":"levelo://app?vid=c6371b8b-5ad1-494b-8a26-7f8e38197a50","ios":"levelo://app?vid=c6371b8b-5ad1-494b-8a26-7f8e38197a50"},"vehicle_type_id":"4","last_reported":1727417613,"current_range_meters":9600,"station_id":"ce4bhh92rcd13ifvqfj0","pricing_plan_id":"cebpf4jnsgd1na2vs0mg"},{"bike_id":"cd1d534c-641e-4be3-82cd-62a24a6cac4c","system_id":"levelo_inurba_marseille","lat":43.29533,"lon":5.38545,"is_reserved":false,"is_disabled":false,"rental_uris":{"android":"levelo://app?vid=cd1d534c-641e-4be3-82cd-62a24a6cac4c","ios":"levelo://app?vid=cd1d534c-641e-4be3-82cd-62a24a6cac4c"},"vehicle_type_id":"4","last_reported":1727417613,"current_range_meters":33600,"station_id":"ce4bgih2rcd13ifvqba0","pricing_plan_id":"cebpf4jnsgd1na2vs0mg"},{"bike_id":"e4d7438c-f124-4357-93f1-99a58fc91863","system_id":"levelo_inurba_marseille","lat":43.29561,"lon":5.37526,"is_reserved":false,"is_disabled":false,"rental_uris":{"android":"levelo://app?vid=e4d7438c-f124-4357-93f1-99a58fc91863","ios":"levelo://app?vid=e4d7438c-f124-4357-93f1-99a58fc91863"},"vehicle_type_id":"4","last_reported":1727417613,"current_range_meters":28400,"station_id":"ce4bgh92rcd13ifvqb50","pricing_plan_id":"cebpf4jnsgd1na2vs0mg"},{"bike_id":"468301b2-f9be-4cb1-ba74-f7679e1374fb","system_id":"levelo_inurba_marseille","lat":43.30135,"lon":5.38786,"is_reserved":false,"is_disabled":false,"rental_uris":{"android":"levelo://app?vid=468301b2-f9be-4cb1-ba74-f7679e1374fb","ios":"levelo://app?vid=468301b2-f9be-4cb1-ba74-f7679e1374fb"},"vehicle_type_id":"4","last_reported":1727417613,"current_range_meters":21600,"station_id":"ce4bghh2rcd13ifvqb60","pricing_plan_id":"cebpf4jnsgd1na2vs0mg"},{"bike_id":"ad6cc440-4e38-4d52-bb12-7fdbe9f21cfa","system_id":"levelo_inurba_marseille","lat":43.28467,"lon":5.38435,"is_reserved":false,"is_disabled":false,"rental_uris":{"android":"levelo://app?vid=ad6cc440-4e38-4d52-bb12-7fdbe9f21cfa","ios":"levelo://app?vid=ad6cc440-4e38-4d52-bb12-7fdbe9f21cfa"},"vehicle_type_id":"4","last_reported":1727417613,"current_range_meters":28800,"station_id":"ce4bh512rcd13ifvqe3g","pricing_plan_id":"cebpf4jnsgd1na2vs0mg"},{"bike_id":"c68029b3-8e8e-442c-a338-c793845391a8","system_id":"levelo_inurba_marseille","lat":43.26029,"lon":5.37551,"is_reserved":false,"is_disabled":false,"rental_uris":{"android":"levelo://app?vid=c68029b3-8e8e-442c-a338-c793845391a8","ios":"levelo://app?vid=c68029b3-8e8e-442c-a338-c793845391a8"},"vehicle_type_id":"4","last_reported":1727417613,"current_range_meters":38800,"station_id":"ce4bhgh2rcd13ifvqfa0","pricing_plan_id":"cebpf4jnsgd1na2vs0mg"},{"bike_id":"86e04bfb-5740-4598-a5f4-2f230d6e0d0a","system_id":"levelo_inurba_marseille","lat":43.31038,"lon":5.38378,"is_reserved":false,"is_disabled":false,"rental_uris":{"android":"levelo://app?vid=86e04bfb-5740-4598-a5f4-2f230d6e0d0a","ios":"levelo://app?vid=86e04bfb-5740-4598-a5f4-2f230d6e0d0a"},"vehicle_type_id":"4","last_reported":1727417613,"current_range_meters":31200,"station_id":"ce4bgv92rcd13ifvqcr0","pricing_plan_id":"cebpf4jnsgd1na2vs0mg"},{"bike_id":"9b30eb6d-c46c-4191-83ea-eebaaa7b27fb","system_id":"levelo_inurba_marseille","lat":43.30546,"lon":5.367,"is_reserved":false,"is_disabled":false,"rental_uris":{"android":"levelo://app?vid=9b30eb6d-c46c-4191-83ea-eebaaa7b27fb","ios":"levelo://app?vid=9b30eb6d-c46c-4191-83ea-eebaaa7b27fb"},"vehicle_type_id":"4","last_reported":1727417613,"current_range_meters":10000,"station_id":"ce4bgrp2rcd13ifvqc9g","pricing_plan_id":"cebpf4jnsgd1na2vs0mg"},{"bike_id":"5d6c707b-bd6b-4880-9f49-0c552ae705a6","system_id":"levelo_inurba_marseille","lat":43.28579,"lon":5.39493,"is_reserved":false,"is_disabled":false,"rental_uris":{"android":"levelo://app?vid=5d6c707b-bd6b-4880-9f49-0c552ae705a6","ios":"levelo://app?vid=5d6c707b-bd6b-4880-9f49-0c552ae705a6"},"vehicle_type_id":"4","last_reported":1727417613,"current_range_meters":33200,"station_id":"ce4bh292rcd13ifvqdg0","pricing_plan_id":"cebpf4jnsgd1na2vs0mg"},{"bike_id":"5e348244-43b9-4459-a1d4-b6bf9309ac6b","system_id":"levelo_inurba_marseille","lat":43.24082,"lon":5.3775,"is_reserved":false,"is_disabled":false,"rental_uris":{"android":"levelo://app?vid=5e348244-43b9-4459-a1d4-b6bf9309ac6b","ios":"levelo://app?vid=5e348244-43b9-4459-a1d4-b6bf9309ac6b"},"vehicle_type_id":"4","last_reported":1727417613,"current_range_meters":30800,"station_id":"ce4bhnp2rcd13ifvqgvg","pricing_plan_id":"cebpf4jnsgd1na2vs0mg"},{"bike_id":"947c177d-86b4-47ed-a3f4-fc712b6ff0eb","system_id":"levelo_inurba_marseille","lat":43.29786,"lon":5.38107,"is_reserved":false,"is_disabled":false,"rental_uris":{"android":"levelo://app?vid=947c177d-86b4-47ed-a3f4-fc712b6ff0eb","ios":"levelo://app?vid=947c177d-86b4-47ed-a3f4-fc712b6ff0eb"},"vehicle_type_id":"4","last_reported":1727417613,"current_range_meters":38000,"station_id":"ce4bgip2rcd13ifvqbb0","pricing_plan_id":"cebpf4jnsgd1na2vs0mg"},{"bike_id":"380629cf-c9a7-40ac-a210-4ba5fc8ced3b","system_id":"levelo_inurba_marseille","lat":43.28152,"lon":5.4264,"is_reserved":false,"is_disabled":false,"rental_uris":{"android":"levelo://app?vid=380629cf-c9a7-40ac-a210-4ba5fc8ced3b","ios":"levelo://app?vid=380629cf-c9a7-40ac-a210-4ba5fc8ced3b"},"vehicle_type_id":"4","last_reported":1727417613,"current_range_meters":33600,"station_id":"ce4bhnh2rcd13ifvqgug","pricing_plan_id":"cebpf4jnsgd1na2vs0mg"},{"bike_id":"b7ae5eed-8594-44cc-a597-36d96f60e81d","system_id":"levelo_inurba_marseille","lat":43.26565,"lon":5.39024,"is_reserved":false,"is_disabled":false,"rental_uris":{"android":"levelo://app?vid=b7ae5eed-8594-44cc-a597-36d96f60e81d","ios":"levelo://app?vid=b7ae5eed-8594-44cc-a597-36d96f60e81d"},"vehicle_type_id":"4","last_reported":1727417613,"current_range_meters":38800,"station_id":"ce4bhe12rcd13ifvqf30","pricing_plan_id":"cebpf4jnsgd1na2vs0mg"},{"bike_id":"f4261619-f054-436d-84de-9759d6a8d43b","system_id":"levelo_inurba_marseille","lat":43.30462,"lon":5.37897,"is_reserved":false,"is_disabled":false,"rental_uris":{"android":"levelo://app?vid=f4261619-f054-436d-84de-9759d6a8d43b","ios":"levelo://app?vid=f4261619-f054-436d-84de-9759d6a8d43b"},"vehicle_type_id":"4","last_reported":1727417613,"current_range_meters":39200,"station_id":"ce4bgup2rcd13ifvqcn0","pricing_plan_id":"cebpf4jnsgd1na2vs0mg"},{"bike_id":"0e609ef2-c77b-4f1f-9395-cd8dcb28b399","system_id":"levelo_inurba_marseille","lat":43.24083,"lon":5.37747,"is_reserved":false,"is_disabled":false,"rental_uris":{"android":"levelo://app?vid=0e609ef2-c77b-4f1f-9395-cd8dcb28b399","ios":"levelo://app?vid=0e609ef2-c77b-4f1f-9395-cd8dcb28b399"},"vehicle_type_id":"4","last_reported":1727417613,"current_range_meters":38800,"station_id":"ce4bhnp2rcd13ifvqgvg","pricing_plan_id":"cebpf4jnsgd1na2vs0mg"},{"bike_id":"d527ec2b-efa8-4c89-b468-ea90fb530624","system_id":"levelo_inurba_marseille","lat":43.29813,"lon":5.371,"is_reserved":false,"is_disabled":false,"rental_uris":{"android":"levelo://app?vid=d527ec2b-efa8-4c89-b468-ea90fb530624","ios":"levelo://app?vid=d527ec2b-efa8-4c89-b468-ea90fb530624"},"vehicle_type_id":"4","last_reported":1727417613,"current_range_meters":26800,"station_id":"ce4bgop2rcd13ifvqc1g","pricing_plan_id":"cebpf4jnsgd1na2vs0mg"},{"bike_id":"ba1e4cec-2b2a-49da-b88a-2528eff02929","system_id":"levelo_inurba_marseille","lat":43.29612,"lon":5.3772,"is_reserved":false,"is_disabled":false,"rental_uris":{"android":"levelo://app?vid=ba1e4cec-2b2a-49da-b88a-2528eff02929","ios":"levelo://app?vid=ba1e4cec-2b2a-49da-b88a-2528eff02929"},"vehicle_type_id":"4","last_reported":1727417613,"current_range_meters":37600,"station_id":"ce4bgi92rcd13ifvqb90","pricing_plan_id":"cebpf4jnsgd1na2vs0mg"},{"bike_id":"7a221aff-a308-4e51-bd6c-3606a6928c42","system_id":"levelo_inurba_marseille","lat":43.2849,"lon":5.38973,"is_reserved":false,"is_disabled":false,"rental_uris":{"android":"levelo://app?vid=7a221aff-a308-4e51-bd6c-3606a6928c42","ios":"levelo://app?vid=7a221aff-a308-4e51-bd6c-3606a6928c42"},"vehicle_type_id":"4","last_reported":1727417613,"current_range_meters":37600,"station_id":"","pricing_plan_id":"cebpf4jnsgd1na2vs0mg"},{"bike_id":"999ca916-32e1-4e3d-aa5e-4b3870970076","system_id":"levelo_inurba_marseille","lat":43.31482,"lon":5.37305,"is_reserved":false,"is_disabled":false,"rental_uris":{"android":"levelo://app?vid=999ca916-32e1-4e3d-aa5e-4b3870970076","ios":"levelo://app?vid=999ca916-32e1-4e3d-aa5e-4b3870970076"},"vehicle_type_id":"4","last_reported":1727417613,"current_range_meters":4800,"station_id":"ce4bgt12rcd13ifvqcd0","pricing_plan_id":"cebpf4jnsgd1na2vs0mg"},{"bike_id":"e17e3ba9-1bd3-4f83-adbc-5dc83a153375","system_id":"levelo_inurba_marseille","lat":43.31999,"lon":5.38147,"is_reserved":false,"is_disabled":false,"rental_uris":{"android":"levelo://app?vid=e17e3ba9-1bd3-4f83-adbc-5dc83a153375","ios":"levelo://app?vid=e17e3ba9-1bd3-4f83-adbc-5dc83a153375"},"vehicle_type_id":"4","last_reported":1727417613,"current_range_meters":6800,"station_id":"ce4bhr12rcd13ifvqhpg","pricing_plan_id":"cebpf4jnsgd1na2vs0mg"},{"bike_id":"7f34aefb-4e30-4d7d-abac-9eb86aca2079","system_id":"levelo_inurba_marseille","lat":43.28554,"lon":5.38545,"is_reserved":false,"is_disabled":false,"rental_uris":{"android":"levelo://app?vid=7f34aefb-4e30-4d7d-abac-9eb86aca2079","ios":"levelo://app?vid=7f34aefb-4e30-4d7d-abac-9eb86aca2079"},"vehicle_type_id":"4","last_reported":1727417613,"current_range_meters":23200,"station_id":"ce4bh3h2rcd13ifvqdn0","pricing_plan_id":"cebpf4jnsgd1na2vs0mg"},{"bike_id":"07e39731-448f-40d5-9d06-91facf9fcb8e","system_id":"levelo_inurba_marseille","lat":43.31995,"lon":5.38145,"is_reserved":false,"is_disabled":false,"rental_uris":{"android":"levelo://app?vid=07e39731-448f-40d5-9d06-91facf9fcb8e","ios":"levelo://app?vid=07e39731-448f-40d5-9d06-91facf9fcb8e"},"vehicle_type_id":"4","last_reported":1727417613,"current_range_meters":28400,"station_id":"ce4bhr12rcd13ifvqhpg","pricing_plan_id":"cebpf4jnsgd1na2vs0mg"},{"bike_id":"483cfc96-ea74-4848-be9f-ddf1f256f3d2","system_id":"levelo_inurba_marseille","lat":43.31266,"lon":5.40179,"is_reserved":false,"is_disabled":false,"rental_uris":{"android":"levelo://app?vid=483cfc96-ea74-4848-be9f-ddf1f256f3d2","ios":"levelo://app?vid=483cfc96-ea74-4848-be9f-ddf1f256f3d2"},"vehicle_type_id":"4","last_reported":1727417613,"current_range_meters":33200,"station_id":"ce4bh092rcd13ifvqd30","pricing_plan_id":"cebpf4jnsgd1na2vs0mg"},{"bike_id":"8a5475e3-6fbf-4e9b-b650-accf3a939b49","system_id":"levelo_inurba_marseille","lat":43.32488,"lon":5.36579,"is_reserved":false,"is_disabled":false,"rental_uris":{"android":"levelo://app?vid=8a5475e3-6fbf-4e9b-b650-accf3a939b49","ios":"levelo://app?vid=8a5475e3-6fbf-4e9b-b650-accf3a939b49"},"vehicle_type_id":"4","last_reported":1727417613,"current_range_meters":38800,"station_id":"ce4bhs12rcd13ifvqhvg","pricing_plan_id":"cebpf4jnsgd1na2vs0mg"},{"bike_id":"c2e5a81e-6912-4cb0-98ad-5f3df477fa43","system_id":"levelo_inurba_marseille","lat":43.29,"lon":5.37587,"is_reserved":false,"is_disabled":false,"rental_uris":{"android":"levelo://app?vid=c2e5a81e-6912-4cb0-98ad-5f3df477fa43","ios":"levelo://app?vid=c2e5a81e-6912-4cb0-98ad-5f3df477fa43"},"vehicle_type_id":"4","last_reported":1727417613,"current_range_meters":35200,"station_id":"ce4bh692rcd13ifvqe90","pricing_plan_id":"cebpf4jnsgd1na2vs0mg"},{"bike_id":"cf517e91-9fba-4889-840d-85b4c7dbf3fd","system_id":"levelo_inurba_marseille","lat":43.24072,"lon":5.37757,"is_reserved":false,"is_disabled":false,"rental_uris":{"android":"levelo://app?vid=cf517e91-9fba-4889-840d-85b4c7dbf3fd","ios":"levelo://app?vid=cf517e91-9fba-4889-840d-85b4c7dbf3fd"},"vehicle_type_id":"4","last_reported":1727417613,"current_range_meters":8400,"station_id":"ce4bhnp2rcd13ifvqgvg","pricing_plan_id":"cebpf4jnsgd1na2vs0mg"},{"bike_id":"7e9aced8-c82b-4e16-92f6-7eba5a77728c","system_id":"levelo_inurba_marseille","lat":43.28343,"lon":5.38099,"is_reserved":false,"is_disabled":false,"rental_uris":{"android":"levelo://app?vid=7e9aced8-c82b-4e16-92f6-7eba5a77728c","ios":"levelo://app?vid=7e9aced8-c82b-4e16-92f6-7eba5a77728c"},"vehicle_type_id":"4","last_reported":1727417613,"current_range_meters":29600,"station_id":"ce4bh412rcd13ifvqdr0","pricing_plan_id":"cebpf4jnsgd1na2vs0mg"},{"bike_id":"1124c4c9-ccea-43f1-bcaf-4ad148df4256","system_id":"levelo_inurba_marseille","lat":43.28465,"lon":5.38417,"is_reserved":false,"is_disabled":false,"rental_uris":{"android":"levelo://app?vid=1124c4c9-ccea-43f1-bcaf-4ad148df4256","ios":"levelo://app?vid=1124c4c9-ccea-43f1-bcaf-4ad148df4256"},"vehicle_type_id":"4","last_reported":1727417613,"current_range_meters":35600,"station_id":"ce4bh512rcd13ifvqe3g","pricing_plan_id":"cebpf4jnsgd1na2vs0mg"},{"bike_id":"c2c5caaf-f497-42de-af37-d0f5931f2531","system_id":"levelo_inurba_marseille","lat":43.30464,"lon":5.37907,"is_reserved":false,"is_disabled":false,"rental_uris":{"android":"levelo://app?vid=c2c5caaf-f497-42de-af37-d0f5931f2531","ios":"levelo://app?vid=c2c5caaf-f497-42de-af37-d0f5931f2531"},"vehicle_type_id":"4","last_reported":1727417613,"current_range_meters":8800,"station_id":"ce4bgup2rcd13ifvqcn0","pricing_plan_id":"cebpf4jnsgd1na2vs0mg"},{"bike_id":"f8177e84-099e-40dc-8a7c-d6edc13661a9","system_id":"levelo_inurba_marseille","lat":43.29522,"lon":5.37502,"is_reserved":false,"is_disabled":false,"rental_uris":{"android":"levelo://app?vid=f8177e84-099e-40dc-8a7c-d6edc13661a9","ios":"levelo://app?vid=f8177e84-099e-40dc-8a7c-d6edc13661a9"},"vehicle_type_id":"4","last_reported":1727417613,"current_range_meters":39200,"station_id":"ce4bgkp2rcd13ifvqbmg","pricing_plan_id":"cebpf4jnsgd1na2vs0mg"},{"bike_id":"c1ec21c7-2165-4e89-8e4a-1434d40ccc11","system_id":"levelo_inurba_marseille","lat":43.2695,"lon":5.38637,"is_reserved":false,"is_disabled":false,"rental_uris":{"android":"levelo://app?vid=c1ec21c7-2165-4e89-8e4a-1434d40ccc11","ios":"levelo://app?vid=c1ec21c7-2165-4e89-8e4a-1434d40ccc11"},"vehicle_type_id":"4","last_reported":1727417613,"current_range_meters":9200,"station_id":"ce4bhh92rcd13ifvqfh0","pricing_plan_id":"cebpf4jnsgd1na2vs0mg"},{"bike_id":"0a98e96f-92f5-4142-82cf-ec5de4ce169c","system_id":"levelo_inurba_marseille","lat":43.28434,"lon":5.39182,"is_reserved":false,"is_disabled":false,"rental_uris":{"android":"levelo://app?vid=0a98e96f-92f5-4142-82cf-ec5de4ce169c","ios":"levelo://app?vid=0a98e96f-92f5-4142-82cf-ec5de4ce169c"},"vehicle_type_id":"4","last_reported":1727417613,"current_range_meters":25200,"station_id":"ce4bhoh2rcd13ifvqh5g","pricing_plan_id":"cebpf4jnsgd1na2vs0mg"},{"bike_id":"a83e009c-18d7-4965-99fd-b0506ce90311","system_id":"levelo_inurba_marseille","lat":43.2586,"lon":5.39901,"is_reserved":false,"is_disabled":false,"rental_uris":{"android":"levelo://app?vid=a83e009c-18d7-4965-99fd-b0506ce90311","ios":"levelo://app?vid=a83e009c-18d7-4965-99fd-b0506ce90311"},"vehicle_type_id":"4","last_reported":1727417613,"current_range_meters":10800,"station_id":"ce4bhl92rcd13ifvqghg","pricing_plan_id":"cebpf4jnsgd1na2vs0mg"},{"bike_id":"a6449389-19fb-4e47-82b6-30311193cdb3","system_id":"levelo_inurba_marseille","lat":43.311127,"lon":5.377728,"is_reserved":false,"is_disabled":false,"rental_uris":{"android":"levelo://app?vid=a6449389-19fb-4e47-82b6-30311193cdb3","ios":"levelo://app?vid=a6449389-19fb-4e47-82b6-30311193cdb3"},"vehicle_type_id":"4","last_reported":1727417613,"current_range_meters":38400,"station_id":"ce4bgt92rcd13ifvqcg0","pricing_plan_id":"cebpf4jnsgd1na2vs0mg"},{"bike_id":"69f43cfa-6a35-4ef2-a34b-ac0ec5bc7d59","system_id":"levelo_inurba_marseille","lat":43.2549,"lon":5.37646,"is_reserved":false,"is_disabled":false,"rental_uris":{"android":"levelo://app?vid=69f43cfa-6a35-4ef2-a34b-ac0ec5bc7d59","ios":"levelo://app?vid=69f43cfa-6a35-4ef2-a34b-ac0ec5bc7d59"},"vehicle_type_id":"4","last_reported":1727417613,"current_range_meters":33200,"station_id":"ce4bhh12rcd13ifvqff0","pricing_plan_id":"cebpf4jnsgd1na2vs0mg"},{"bike_id":"19d95d56-80d5-4269-9a88-39fdaf7c673c","system_id":"levelo_inurba_marseille","lat":43.24082,"lon":5.37748,"is_reserved":false,"is_disabled":false,"rental_uris":{"android":"levelo://app?vid=19d95d56-80d5-4269-9a88-39fdaf7c673c","ios":"levelo://app?vid=19d95d56-80d5-4269-9a88-39fdaf7c673c"},"vehicle_type_id":"4","last_reported":1727417613,"current_range_meters":33200,"station_id":"ce4bhnp2rcd13ifvqgvg","pricing_plan_id":"cebpf4jnsgd1na2vs0mg"},{"bike_id":"d89a6b44-b264-4a99-8b3c-f07b95bc3cb9","system_id":"levelo_inurba_marseille","lat":43.32289,"lon":5.38272,"is_reserved":false,"is_disabled":false,"rental_uris":{"android":"levelo://app?vid=d89a6b44-b264-4a99-8b3c-f07b95bc3cb9","ios":"levelo://app?vid=d89a6b44-b264-4a99-8b3c-f07b95bc3cb9"},"vehicle_type_id":"4","last_reported":1727417613,"current_range_meters":38400,"station_id":"ce4bhr12rcd13ifvqhqg","pricing_plan_id":"cebpf4jnsgd1na2vs0mg"},{"bike_id":"37a3adab-d5a4-40be-963c-64b75fb764aa","system_id":"levelo_inurba_marseille","lat":43.28648,"lon":5.37409,"is_reserved":false,"is_disabled":false,"rental_uris":{"android":"levelo://app?vid=37a3adab-d5a4-40be-963c-64b75fb764aa","ios":"levelo://app?vid=37a3adab-d5a4-40be-963c-64b75fb764aa"},"vehicle_type_id":"4","last_reported":1727417613,"current_range_meters":31200,"station_id":"ce4bh412rcd13ifvqds0","pricing_plan_id":"cebpf4jnsgd1na2vs0mg"},{"bike_id":"27051d41-3f9c-43f6-8ef3-239e6e843eb3","system_id":"levelo_inurba_marseille","lat":43.32539,"lon":5.4143,"is_reserved":false,"is_disabled":false,"rental_uris":{"android":"levelo://app?vid=27051d41-3f9c-43f6-8ef3-239e6e843eb3","ios":"levelo://app?vid=27051d41-3f9c-43f6-8ef3-239e6e843eb3"},"vehicle_type_id":"4","last_reported":1727417613,"current_range_meters":29600,"station_id":"ce4bhq12rcd13ifvqhhg","pricing_plan_id":"cebpf4jnsgd1na2vs0mg"},{"bike_id":"b8142d3f-f75b-447a-9d50-583179b0ec51","system_id":"levelo_inurba_marseille","lat":43.30467,"lon":5.37915,"is_reserved":false,"is_disabled":false,"rental_uris":{"android":"levelo://app?vid=b8142d3f-f75b-447a-9d50-583179b0ec51","ios":"levelo://app?vid=b8142d3f-f75b-447a-9d50-583179b0ec51"},"vehicle_type_id":"4","last_reported":1727417613,"current_range_meters":32000,"station_id":"ce4bgup2rcd13ifvqcn0","pricing_plan_id":"cebpf4jnsgd1na2vs0mg"},{"bike_id":"337d4fb1-3d06-4aa3-8aec-deb266941d7b","system_id":"levelo_inurba_marseille","lat":43.24667,"lon":5.3816,"is_reserved":false,"is_disabled":false,"rental_uris":{"android":"levelo://app?vid=337d4fb1-3d06-4aa3-8aec-deb266941d7b","ios":"levelo://app?vid=337d4fb1-3d06-4aa3-8aec-deb266941d7b"},"vehicle_type_id":"4","last_reported":1727417613,"current_range_meters":38800,"station_id":"ce4bhih2rcd13ifvqfr0","pricing_plan_id":"cebpf4jnsgd1na2vs0mg"},{"bike_id":"c0698d4c-5e3f-4560-883b-4a3596c098d5","system_id":"levelo_inurba_marseille","lat":43.27966,"lon":5.38716,"is_reserved":false,"is_disabled":false,"rental_uris":{"android":"levelo://app?vid=c0698d4c-5e3f-4560-883b-4a3596c098d5","ios":"levelo://app?vid=c0698d4c-5e3f-4560-883b-4a3596c098d5"},"vehicle_type_id":"4","last_reported":1727417613,"current_range_meters":35200,"station_id":"ce4bhhp2rcd13ifvqfm0","pricing_plan_id":"cebpf4jnsgd1na2vs0mg"},{"bike_id":"1dd1232a-b83e-4382-b557-c7961002ab89","system_id":"levelo_inurba_marseille","lat":43.23183,"lon":5.39979,"is_reserved":false,"is_disabled":false,"rental_uris":{"android":"levelo://app?vid=1dd1232a-b83e-4382-b557-c7961002ab89","ios":"levelo://app?vid=1dd1232a-b83e-4382-b557-c7961002ab89"},"vehicle_type_id":"4","last_reported":1727417613,"current_range_meters":39200,"station_id":"ce4bhn12rcd13ifvqgqg","pricing_plan_id":"cebpf4jnsgd1na2vs0mg"},{"bike_id":"a7bca3df-0344-4204-86d7-b742d4769839","system_id":"levelo_inurba_marseille","lat":43.30863,"lon":5.3685,"is_reserved":false,"is_disabled":false,"rental_uris":{"android":"levelo://app?vid=a7bca3df-0344-4204-86d7-b742d4769839","ios":"levelo://app?vid=a7bca3df-0344-4204-86d7-b742d4769839"},"vehicle_type_id":"4","last_reported":1727417613,"current_range_meters":17600,"station_id":"ce4bgn92rcd13ifvqbvg","pricing_plan_id":"cebpf4jnsgd1na2vs0mg"},{"bike_id":"59562d14-07be-4307-84a6-cd5c5d2a9187","system_id":"levelo_inurba_marseille","lat":43.32534,"lon":5.41446,"is_reserved":false,"is_disabled":false,"rental_uris":{"android":"levelo://app?vid=59562d14-07be-4307-84a6-cd5c5d2a9187","ios":"levelo://app?vid=59562d14-07be-4307-84a6-cd5c5d2a9187"},"vehicle_type_id":"4","last_reported":1727417613,"current_range_meters":36400,"station_id":"ce4bhq12rcd13ifvqhhg","pricing_plan_id":"cebpf4jnsgd1na2vs0mg"},{"bike_id":"546a1bb6-ec80-485c-8b1e-bb866a56741e","system_id":"levelo_inurba_marseille","lat":43.33605,"lon":5.41031,"is_reserved":false,"is_disabled":false,"rental_uris":{"android":"levelo://app?vid=546a1bb6-ec80-485c-8b1e-bb866a56741e","ios":"levelo://app?vid=546a1bb6-ec80-485c-8b1e-bb866a56741e"},"vehicle_type_id":"4","last_reported":1727417613,"current_range_meters":20800,"station_id":"ce4bhqh2rcd13ifvqhmg","pricing_plan_id":"cebpf4jnsgd1na2vs0mg"},{"bike_id":"27ea19f8-1a94-42e0-9759-65df1700c50d","system_id":"levelo_inurba_marseille","lat":43.2835,"lon":5.38097,"is_reserved":false,"is_disabled":false,"rental_uris":{"android":"levelo://app?vid=27ea19f8-1a94-42e0-9759-65df1700c50d","ios":"levelo://app?vid=27ea19f8-1a94-42e0-9759-65df1700c50d"},"vehicle_type_id":"4","last_reported":1727417613,"current_range_meters":19600,"station_id":"ce4bh412rcd13ifvqdr0","pricing_plan_id":"cebpf4jnsgd1na2vs0mg"},{"bike_id":"cd993e98-ab1d-49b3-a81f-d12b73e5d532","system_id":"levelo_inurba_marseille","lat":43.26199,"lon":5.37928,"is_reserved":false,"is_disabled":false,"rental_uris":{"android":"levelo://app?vid=cd993e98-ab1d-49b3-a81f-d12b73e5d532","ios":"levelo://app?vid=cd993e98-ab1d-49b3-a81f-d12b73e5d532"},"vehicle_type_id":"4","last_reported":1727417613,"current_range_meters":37600,"station_id":"ce4bhjp2rcd13ifvqg90","pricing_plan_id":"cebpf4jnsgd1na2vs0mg"},{"bike_id":"a6addce0-6b53-4ddf-bf9c-d50a96dd9e51","system_id":"levelo_inurba_marseille","lat":43.22934,"lon":5.35378,"is_reserved":false,"is_disabled":false,"rental_uris":{"android":"levelo://app?vid=a6addce0-6b53-4ddf-bf9c-d50a96dd9e51","ios":"levelo://app?vid=a6addce0-6b53-4ddf-bf9c-d50a96dd9e51"},"vehicle_type_id":"4","last_reported":1727417613,"current_range_meters":3200,"station_id":"cpo3532slgdg3j2ikp40","pricing_plan_id":"cebpf4jnsgd1na2vs0mg"},{"bike_id":"f86e58ca-2eab-4c36-9203-cab642a140fc","system_id":"levelo_inurba_marseille","lat":43.30471,"lon":5.37911,"is_reserved":false,"is_disabled":false,"rental_uris":{"android":"levelo://app?vid=f86e58ca-2eab-4c36-9203-cab642a140fc","ios":"levelo://app?vid=f86e58ca-2eab-4c36-9203-cab642a140fc"},"vehicle_type_id":"4","last_reported":1727417613,"current_range_meters":39200,"station_id":"ce4bgup2rcd13ifvqcn0","pricing_plan_id":"cebpf4jnsgd1na2vs0mg"},{"bike_id":"c33c0e72-207a-4feb-bf77-0019b71c56cf","system_id":"levelo_inurba_marseille","lat":43.30538,"lon":5.36556,"is_reserved":false,"is_disabled":false,"rental_uris":{"android":"levelo://app?vid=c33c0e72-207a-4feb-bf77-0019b71c56cf","ios":"levelo://app?vid=c33c0e72-207a-4feb-bf77-0019b71c56cf"},"vehicle_type_id":"4","last_reported":1727417613,"current_range_meters":34000,"station_id":"ce4bgs12rcd13ifvqcag","pricing_plan_id":"cebpf4jnsgd1na2vs0mg"},{"bike_id":"4fd96898-ef23-447d-a7ef-0d905f81d47b","system_id":"levelo_inurba_marseille","lat":43.292291,"lon":5.360865,"is_reserved":false,"is_disabled":false,"rental_uris":{"android":"levelo://app?vid=4fd96898-ef23-447d-a7ef-0d905f81d47b","ios":"levelo://app?vid=4fd96898-ef23-447d-a7ef-0d905f81d47b"},"vehicle_type_id":"4","last_reported":1727417613,"current_range_meters":12000,"station_id":"ce4bhbh2rcd13ifvqeqg","pricing_plan_id":"cebpf4jnsgd1na2vs0mg"},{"bike_id":"4ade6d22-602c-4a64-9be0-29df74dcd5ae","system_id":"levelo_inurba_marseille","lat":43.25495,"lon":5.37646,"is_reserved":false,"is_disabled":false,"rental_uris":{"android":"levelo://app?vid=4ade6d22-602c-4a64-9be0-29df74dcd5ae","ios":"levelo://app?vid=4ade6d22-602c-4a64-9be0-29df74dcd5ae"},"vehicle_type_id":"4","last_reported":1727417613,"current_range_meters":18800,"station_id":"ce4bhh12rcd13ifvqff0","pricing_plan_id":"cebpf4jnsgd1na2vs0mg"},{"bike_id":"bbc00e19-a1bd-4c6d-9f1b-b91795b34296","system_id":"levelo_inurba_marseille","lat":43.30955,"lon":5.39026,"is_reserved":false,"is_disabled":false,"rental_uris":{"android":"levelo://app?vid=bbc00e19-a1bd-4c6d-9f1b-b91795b34296","ios":"levelo://app?vid=bbc00e19-a1bd-4c6d-9f1b-b91795b34296"},"vehicle_type_id":"4","last_reported":1727417613,"current_range_meters":35200,"station_id":"ce4bgup2rcd13ifvqco0","pricing_plan_id":"cebpf4jnsgd1na2vs0mg"},{"bike_id":"cf7a35bf-d576-4d9e-81ad-01e1ad5cd51e","system_id":"levelo_inurba_marseille","lat":43.30467,"lon":5.37911,"is_reserved":false,"is_disabled":false,"rental_uris":{"android":"levelo://app?vid=cf7a35bf-d576-4d9e-81ad-01e1ad5cd51e","ios":"levelo://app?vid=cf7a35bf-d576-4d9e-81ad-01e1ad5cd51e"},"vehicle_type_id":"4","last_reported":1727417613,"current_range_meters":18000,"station_id":"ce4bgup2rcd13ifvqcn0","pricing_plan_id":"cebpf4jnsgd1na2vs0mg"},{"bike_id":"d6a23f40-2c57-4bfb-9e40-f3ae43b5dd87","system_id":"levelo_inurba_marseille","lat":43.29022,"lon":5.37205,"is_reserved":false,"is_disabled":false,"rental_uris":{"android":"levelo://app?vid=d6a23f40-2c57-4bfb-9e40-f3ae43b5dd87","ios":"levelo://app?vid=d6a23f40-2c57-4bfb-9e40-f3ae43b5dd87"},"vehicle_type_id":"4","last_reported":1727417613,"current_range_meters":37600,"station_id":"ce4bh5p2rcd13ifvqe4g","pricing_plan_id":"cebpf4jnsgd1na2vs0mg"},{"bike_id":"441a5c82-08e2-4c4d-9276-90a53141032e","system_id":"levelo_inurba_marseille","lat":43.27376,"lon":5.36243,"is_reserved":false,"is_disabled":false,"rental_uris":{"android":"levelo://app?vid=441a5c82-08e2-4c4d-9276-90a53141032e","ios":"levelo://app?vid=441a5c82-08e2-4c4d-9276-90a53141032e"},"vehicle_type_id":"4","last_reported":1727417613,"current_range_meters":37600,"station_id":"ce4bhbh2rcd13ifvqeo0","pricing_plan_id":"cebpf4jnsgd1na2vs0mg"},{"bike_id":"8ac2c57f-d30e-44bc-8c76-e797122bb473","system_id":"levelo_inurba_marseille","lat":43.31223,"lon":5.36859,"is_reserved":false,"is_disabled":false,"rental_uris":{"android":"levelo://app?vid=8ac2c57f-d30e-44bc-8c76-e797122bb473","ios":"levelo://app?vid=8ac2c57f-d30e-44bc-8c76-e797122bb473"},"vehicle_type_id":"4","last_reported":1727417613,"current_range_meters":32800,"station_id":"ce4bgl92rcd13ifvqbq0","pricing_plan_id":"cebpf4jnsgd1na2vs0mg"},{"bike_id":"4a4bfd88-bdfc-4802-b3a8-e798e4274727","system_id":"levelo_inurba_marseille","lat":43.322891,"lon":5.382609,"is_reserved":false,"is_disabled":false,"rental_uris":{"android":"levelo://app?vid=4a4bfd88-bdfc-4802-b3a8-e798e4274727","ios":"levelo://app?vid=4a4bfd88-bdfc-4802-b3a8-e798e4274727"},"vehicle_type_id":"4","last_reported":1727417613,"current_range_meters":19600,"station_id":"ce4bhr12rcd13ifvqhqg","pricing_plan_id":"cebpf4jnsgd1na2vs0mg"},{"bike_id":"50c1345c-e0ca-47d3-93ad-30c0de55ed2b","system_id":"levelo_inurba_marseille","lat":43.3414,"lon":5.40906,"is_reserved":false,"is_disabled":false,"rental_uris":{"android":"levelo://app?vid=50c1345c-e0ca-47d3-93ad-30c0de55ed2b","ios":"levelo://app?vid=50c1345c-e0ca-47d3-93ad-30c0de55ed2b"},"vehicle_type_id":"4","last_reported":1727417613,"current_range_meters":10800,"station_id":"ce4bhqh2rcd13ifvqhlg","pricing_plan_id":"cebpf4jnsgd1na2vs0mg"},{"bike_id":"3efef019-cfce-47f6-8743-95ec063d3569","system_id":"levelo_inurba_marseille","lat":43.25826,"lon":5.3943,"is_reserved":false,"is_disabled":false,"rental_uris":{"android":"levelo://app?vid=3efef019-cfce-47f6-8743-95ec063d3569","ios":"levelo://app?vid=3efef019-cfce-47f6-8743-95ec063d3569"},"vehicle_type_id":"4","last_reported":1727417613,"current_range_meters":38400,"station_id":"ce4bhip2rcd13ifvqft0","pricing_plan_id":"cebpf4jnsgd1na2vs0mg"},{"bike_id":"2ba09575-244f-487f-8743-7cdef664b4d1","system_id":"levelo_inurba_marseille","lat":43.29895,"lon":5.43674,"is_reserved":false,"is_disabled":false,"rental_uris":{"android":"levelo://app?vid=2ba09575-244f-487f-8743-7cdef664b4d1","ios":"levelo://app?vid=2ba09575-244f-487f-8743-7cdef664b4d1"},"vehicle_type_id":"4","last_reported":1727417613,"current_range_meters":13600,"station_id":"ce4bhpp2rcd13ifvqhfg","pricing_plan_id":"cebpf4jnsgd1na2vs0mg"},{"bike_id":"182f6043-9d3b-4424-aec1-875d25d84c7a","system_id":"levelo_inurba_marseille","lat":43.30478,"lon":5.37901,"is_reserved":false,"is_disabled":false,"rental_uris":{"android":"levelo://app?vid=182f6043-9d3b-4424-aec1-875d25d84c7a","ios":"levelo://app?vid=182f6043-9d3b-4424-aec1-875d25d84c7a"},"vehicle_type_id":"4","last_reported":1727417613,"current_range_meters":30400,"station_id":"ce4bgup2rcd13ifvqcn0","pricing_plan_id":"cebpf4jnsgd1na2vs0mg"},