{"last_updated":1766164280,"ttl":60,"version":"2.2","data":{"bikes":[{"bike_id":"600d55a4-2f20-4fd7-90f6-704497e65a89","system_id":"levelo_inurba_marseille","lat":43.292772,"lon":5.401137,"is_reserved":false,"is_disabled":false,"rental_uris":{"android":"levelo://app?vid=600d55a4-2f20-4fd7-90f6-704497e65a89","ios":"levelo://app?vid=600d55a4-2f20-4fd7-90f6-704497e65a89"},"vehicle_type_id":"4","last_reported":1766164280,"current_range_meters":2800,"station_id":"","pricing_plan_id":"cebpf4jnsgd1na2vs0mg"},{"bike_id":"fdb18b9b-3b90-486e-b306-62bb1a73300b","system_id":"levelo_inurba_marseille","lat":43.2465,"lon":5.38172,"is_reserved":false,"is_disabled":true,"rental_uris":{"android":"levelo://app?vid=fdb18b9b-3b90-486e-b306-62bb1a73300b","ios":"levelo://app?vid=fdb18b9b-3b90-486e-b306-62bb1a73300b"},"vehicle_type_id":"4","last_reported":1766164280,"current_range_meters":2800,"station_id":"ce4bhih2rcd13ifvqfr0","pricing_plan_id":"cebpf4jnsgd1na2vs0mg"},{"bike_id":"00fd2dcb-6faf-4c7a-8c99-525909084655","system_id":"levelo_inurba_marseille","lat":43.28161,"lon":5.42643,"is_reserved":false,"is_disabled":true,"rental_uris":{"android":"levelo://app?vid=00fd2dcb-6faf-4c7a-8c99-525909084655","ios":"levelo://app?vid=00fd2dcb-6faf-4c7a-8c99-525909084655"},"vehicle_type_id":"4","last_reported":1766164280,"current_range_meters":2800,"station_id":"ce4bhnh2rcd13ifvqgug","pricing_plan_id":"cebpf4jnsgd1na2vs0mg"},{"bike_id":"8cc4c40d-6b9b-47b7-8fc9-b0c0d39fa2ab","system_id":"levelo_inurba_marseille","lat":43.299217,"lon":5.374766,"is_reserved":false,"is_disabled":false,"rental_uris":{"android":"levelo://app?vid=8cc4c40d-6b9b-47b7-8fc9-b0c0d39fa2ab","ios":"levelo://app?vid=8cc4c40d-6b9b-47b7-8fc9-b0c0d39fa2ab"},"vehicle_type_id":"4","last_reported":1766164280,"current_range_meters":2800,"station_id":"ce4bgjh2rcd13ifvqbg0","pricing_plan_id":"cebpf4jnsgd1na2vs0mg"},{"bike_id":"d88f83fc-7a24-4804-9301-839b1ae399e9","system_id":"levelo_inurba_marseille","lat":43.29518,"lon":5.37873,"is_reserved":false,"is_disabled":false,"rental_uris":{"android":"levelo://app?vid=d88f83fc-7a24-4804-9301-839b1ae399e9","ios":"levelo://app?vid=d88f83fc-7a24-4804-9301-839b1ae399e9"},"vehicle_type_id":"4","last_reported":1766164280,"current_range_meters":2800,"station_id":"","pricing_plan_id":"cebpf4jnsgd1na2vs0mg"},{"bike_id":"116278f1-c1f6-4978-beb9-3e199a9963ca","system_id":"levelo_inurba_marseille","lat":43.28536,"lon":5.44095,"is_reserved":false,"is_disabled":false,"rental_uris":{"android":"levelo://app?vid=116278f1-c1f6-4978-beb9-3e199a9963ca","ios":"levelo://app?vid=116278f1-c1f6-4978-beb9-3e199a9963ca"},"vehicle_type_id":"4","last_reported":1766164280,"current_range_meters":2800,"station_id":"st_d3j3df2ikq2c7380ej80","pricing_plan_id":"cebpf4jnsgd1na2vs0mg"},{"bike_id":"0c8aae8b-0ae5-4e3c-b4fe-8f7c755a7047","system_id":"levelo_inurba_marseille","lat":43.25103,"lon":5.40316,"is_reserved":false,"is_disabled":false,"rental_uris":{"android":"levelo://app?vid=0c8aae8b-0ae5-4e3c-b4fe-8f7c755a7047","ios":"levelo://app?vid=0c8aae8b-0ae5-4e3c-b4fe-8f7c755a7047"},"vehicle_type_id":"4","last_reported":1766164280,"current_range_meters":2800,"station_id":"ce4bhlh2rcd13ifvqgig","pricing_plan_id":"cebpf4jnsgd1na2vs0mg"},{"bike_id":"50e6eefe-8aea-4054-ab8f-87d6e301ff34","system_id":"levelo_inurba_marseille","lat":43.242998,"lon":5.438436,"is_reserved":false,"is_disabled":false,"rental_uris":{"android":"levelo://app?vid=50e6eefe-8aea-4054-ab8f-87d6e301ff34","ios":"levelo://app?vid=50e6eefe-8aea-4054-ab8f-87d6e301ff34"},"vehicle_type_id":"4","last_reported":1766164280,"current_range_meters":2800,"station_id":"","pricing_plan_id":"cebpf4jnsgd1na2vs0mg"},{"bike_id":"3a0d7d5b-c0a9-4472-ac15-0a844faf643f","system_id":"levelo_inurba_marseille","lat":43.29023,"lon":5.37554,"is_reserved":false,"is_disabled":false,"rental_uris":{"android":"levelo://app?vid=3a0d7d5b-c0a9-4472-ac15-0a844faf643f","ios":"levelo://app?vid=3a0d7d5b-c0a9-4472-ac15-0a844faf643f"},"vehicle_type_id":"4","last_reported":1766164280,"current_range_meters":2800,"station_id":"ce4bh692rcd13ifvqe90","pricing_plan_id":"cebpf4jnsgd1na2vs0mg"},{"bike_id":"d2bcf7e6-9e6c-48c1-8c64-5337f19dad07","system_id":"levelo_inurba_marseille","lat":43.22872,"lon":5.39956,"is_reserved":false,"is_disabled":false,"rental_uris":{"android":"levelo://app?vid=d2bcf7e6-9e6c-48c1-8c64-5337f19dad07","ios":"levelo://app?vid=d2bcf7e6-9e6c-48c1-8c64-5337f19dad07"},"vehicle_type_id":"4","last_reported":1766164280,"current_range_meters":2800,"station_id":"","pricing_plan_id":"cebpf4jnsgd1na2vs0mg"},{"bike_id":"d042a778-572f-47ad-acd0-548c6dc1ea37","system_id":"levelo_inurba_marseille","lat":43.28475,"lon":5.38555,"is_reserved":false,"is_disabled":false,"rental_uris":{"android":"levelo://app?vid=d042a778-572f-47ad-acd0-548c6dc1ea37","ios":"levelo://app?vid=d042a778-572f-47ad-acd0-548c6dc1ea37"},"vehicle_type_id":"4","last_reported":1766164280,"current_range_meters":3200,"station_id":"ce4bh8p2rcd13ifvqeb0","pricing_plan_id":"cebpf4jnsgd1na2vs0mg"},{"bike_id":"49d089e7-aec3-41fc-a84b-cd204e168c94","system_id":"levelo_inurba_marseille","lat":43.29524,"lon":5.39046,"is_reserved":false,"is_disabled":false,"rental_uris":{"android":"levelo://app?vid=49d089e7-aec3-41fc-a84b-cd204e168c94","ios":"levelo://app?vid=49d089e7-aec3-41fc-a84b-cd204e168c94"},"vehicle_type_id":"4","last_reported":1766164280,"current_range_meters":3200,"station_id":"ce4bh3p2rcd13ifvqdp0","pricing_plan_id":"cebpf4jnsgd1na2vs0mg"},{"bike_id":"a9adc8bf-52f1-4c31-a2de-42743dd086bf","system_id":"levelo_inurba_marseille","lat":43.33723,"lon":5.3748,"is_reserved":false,"is_disabled":false,"rental_uris":{"android":"levelo://app?vid=a9adc8bf-52f1-4c31-a2de-42743dd086bf","ios":"levelo://app?vid=a9adc8bf-52f1-4c31-a2de-42743dd086bf"},"vehicle_type_id":"4","last_reported":1766164280,"current_range_meters":3600,"station_id":"","pricing_plan_id":"cebpf4jnsgd1na2vs0mg"},{"bike_id":"b2175e0f-6e94-4995-b42c-67510a3dbf78","system_id":"levelo_inurba_marseille","lat":43.30428,"lon":5.39753,"is_reserved":false,"is_disabled":false,"rental_uris":{"android":"levelo://app?vid=b2175e0f-6e94-4995-b42c-67510a3dbf78","ios":"levelo://app?vid=b2175e0f-6e94-4995-b42c-67510a3dbf78"},"vehicle_type_id":"4","last_reported":1766164280,"current_range_meters":3600,"station_id":"ce4bh092rcd13ifvqd20","pricing_plan_id":"cebpf4jnsgd1na2vs0mg"},{"bike_id":"7029c71b-91e9-4fb6-b0c0-fc07f699f07a","system_id":"levelo_inurba_marseille","lat":43.25084,"lon":5.39526,"is_reserved":false,"is_disabled":false,"rental_uris":{"android":"levelo://app?vid=7029c71b-91e9-4fb6-b0c0-fc07f699f07a","ios":"levelo://app?vid=7029c71b-91e9-4fb6-b0c0-fc07f699f07a"},"vehicle_type_id":"4","last_reported":1766164280,"current_range_meters":3600,"station_id":"ce4bhm12rcd13ifvqgkg","pricing_plan_id":"cebpf4jnsgd1na2vs0mg"},{"bike_id":"3cde007c-a409-4597-91e7-ca2461274ad1","system_id":"levelo_inurba_marseille","lat":43.265726,"lon":5.40181,"is_reserved":false,"is_disabled":false,"rental_uris":{"android":"levelo://app?vid=3cde007c-a409-4597-91e7-ca2461274ad1","ios":"levelo://app?vid=3cde007c-a409-4597-91e7-ca2461274ad1"},"vehicle_type_id":"4","last_reported":1766164280,"current_range_meters":4000,"station_id":"","pricing_plan_id":"cebpf4jnsgd1na2vs0mg"},{"bike_id":"81508f0a-e327-4705-ae72-228165570b37","system_id":"levelo_inurba_marseille","lat":43.25092,"lon":5.38948,"is_reserved":false,"is_disabled":false,"rental_uris":{"android":"levelo://app?vid=81508f0a-e327-4705-ae72-228165570b37","ios":"levelo://app?vid=81508f0a-e327-4705-ae72-228165570b37"},"vehicle_type_id":"4","last_reported":1766164280,"current_range_meters":4000,"station_id":"","pricing_plan_id":"cebpf4jnsgd1na2vs0mg"},{"bike_id":"336d8f2f-517c-44ec-a1ff-3bdb605d9737","system_id":"levelo_inurba_marseille","lat":43.235821,"lon":5.398959,"is_reserved":false,"is_disabled":false,"rental_uris":{"android":"levelo://app?vid=336d8f2f-517c-44ec-a1ff-3bdb605d9737","ios":"levelo://app?vid=336d8f2f-517c-44ec-a1ff-3bdb605d9737"},"vehicle_type_id":"4","last_reported":1766164280,"current_range_meters":4000,"station_id":"ce4bhn12rcd13ifvqgqg","pricing_plan_id":"cebpf4jnsgd1na2vs0mg"},{"bike_id":"d15d2302-ae40-4e36-b920-a392096919ff","system_id":"levelo_inurba_marseille","lat":43.301443,"lon":5.374112,"is_reserved":false,"is_disabled":false,"rental_uris":{"android":"levelo://app?vid=d15d2302-ae40-4e36-b920-a392096919ff","ios":"levelo://app?vid=d15d2302-ae40-4e36-b920-a392096919ff"},"vehicle_type_id":"4","last_reported":1766164280,"current_range_meters":4000,"station_id":"ce4bgs92rcd13ifvqcc0","pricing_plan_id":"cebpf4jnsgd1na2vs0mg"},{"bike_id":"79696be0-8bd7-4a71-b9c2-4d865df5650e","system_id":"levelo_inurba_marseille","lat":43.2893,"lon":5.36643,"is_reserved":false,"is_disabled":false,"rental_uris":{"android":"levelo://app?vid=79696be0-8bd7-4a71-b9c2-4d865df5650e","ios":"levelo://app?vid=79696be0-8bd7-4a71-b9c2-4d865df5650e"},"vehicle_type_id":"4","last_reported":1766164280,"current_range_meters":4400,"station_id":"ce4bhap2rcd13ifvqek0","pricing_plan_id":"cebpf4jnsgd1na2vs0mg"},{"bike_id":"a1112cf2-2dc9-45ad-b3ab-5f3164166cad","system_id":"levelo_inurba_marseille","lat":43.26784,"lon":5.3941,"is_reserved":false,"is_disabled":false,"rental_uris":{"android":"levelo://app?vid=a1112cf2-2dc9-45ad-b3ab-5f3164166cad","ios":"levelo://app?vid=a1112cf2-2dc9-45ad-b3ab-5f3164166cad"},"vehicle_type_id":"4","last_reported":1766164280,"current_range_meters":4400,"station_id":"ce4bhh12rcd13ifvqfg0","pricing_plan_id":"cebpf4jnsgd1na2vs0mg"},{"bike_id":"bc719bda-ff74-4772-8266-770bfa204552","system_id":"levelo_inurba_marseille","lat":43.29566,"lon":5.39969,"is_reserved":false,"is_disabled":false,"rental_uris":{"android":"levelo://app?vid=bc719bda-ff74-4772-8266-770bfa204552","ios":"levelo://app?vid=bc719bda-ff74-4772-8266-770bfa204552"},"vehicle_type_id":"4","last_reported":1766164280,"current_range_meters":4800,"station_id":"ce4bh312rcd13ifvqdj0","pricing_plan_id":"cebpf4jnsgd1na2vs0mg"},{"bike_id":"d2d0971b-f666-46db-b6d5-13b8950b15d8","system_id":"levelo_inurba_marseille","lat":43.27813,"lon":5.40715,"is_reserved":false,"is_disabled":false,"rental_uris":{"android":"levelo://app?vid=d2d0971b-f666-46db-b6d5-13b8950b15d8","ios":"levelo://app?vid=d2d0971b-f666-46db-b6d5-13b8950b15d8"},"vehicle_type_id":"4","last_reported":1766164280,"current_range_meters":4800,"station_id":"ce4bhnh2rcd13ifvqgtg","pricing_plan_id":"cebpf4jnsgd1na2vs0mg"},{"bike_id":"da18a3b0-ce97-43eb-b181-936e440b40e5","system_id":"levelo_inurba_marseille","lat":43.31691,"lon":5.40377,"is_reserved":false,"is_disabled":false,"rental_uris":{"android":"levelo://app?vid=da18a3b0-ce97-43eb-b181-936e440b40e5","ios":"levelo://app?vid=da18a3b0-ce97-43eb-b181-936e440b40e5"},"vehicle_type_id":"4","last_reported":1766164280,"current_range_meters":4800,"station_id":"","pricing_plan_id":"cebpf4jnsgd1na2vs0mg"},{"bike_id":"a4669282-527e-4974-bd02-dff988daace9","system_id":"levelo_inurba_marseille","lat":43.23194,"lon":5.35551,"is_reserved":false,"is_disabled":false,"rental_uris":{"android":"levelo://app?vid=a4669282-527e-4974-bd02-dff988daace9","ios":"levelo://app?vid=a4669282-527e-4974-bd02-dff988daace9"},"vehicle_type_id":"4","last_reported":1766164280,"current_range_meters":4800,"station_id":"ce4bhu92rcd13ifvqi70","pricing_plan_id":"cebpf4jnsgd1na2vs0mg"},{"bike_id":"8ecd260f-88f1-4144-a79d-abca4caa52dc","system_id":"levelo_inurba_marseille","lat":43.280023,"lon":5.416617,"is_reserved":false,"is_disabled":false,"rental_uris":{"android":"levelo://app?vid=8ecd260f-88f1-4144-a79d-abca4caa52dc","ios":"levelo://app?vid=8ecd260f-88f1-4144-a79d-abca4caa52dc"},"vehicle_type_id":"4","last_reported":1766164280,"current_range_meters":4800,"station_id":"ce4bho12rcd13ifvqh1g","pricing_plan_id":"cebpf4jnsgd1na2vs0mg"},{"bike_id":"0f790576-6061-4c09-aa76-5fb8223294e2","system_id":"levelo_inurba_marseille","lat":43.273241,"lon":5.390715,"is_reserved":false,"is_disabled":true,"rental_uris":{"android":"levelo://app?vid=0f790576-6061-4c09-aa76-5fb8223294e2","ios":"levelo://app?vid=0f790576-6061-4c09-aa76-5fb8223294e2"},"vehicle_type_id":"4","last_reported":1766164280,"current_range_meters":5600,"station_id":"","pricing_plan_id":"cebpf4jnsgd1na2vs0mg"},{"bike_id":"3ec71d32-610d-4aed-a045-75b09150b330","system_id":"levelo_inurba_marseille","lat":43.23182,"lon":5.39995,"is_reserved":false,"is_disabled":false,"rental_uris":{"android":"levelo://app?vid=3ec71d32-610d-4aed-a045-75b09150b330","ios":"levelo://app?vid=3ec71d32-610d-4aed-a045-75b09150b330"},"vehicle_type_id":"4","last_reported":1766164280,"current_range_meters":5600,"station_id":"ce4bhn12rcd13ifvqgqg","pricing_plan_id":"cebpf4jnsgd1na2vs0mg"},{"bike_id":"f297c977-3380-4557-a67a-a111ce73bc2d","system_id":"levelo_inurba_marseille","lat":43.296371,"lon":5.405967,"is_reserved":false,"is_disabled":false,"rental_uris":{"android":"levelo://app?vid=f297c977-3380-4557-a67a-a111ce73bc2d","ios":"levelo://app?vid=f297c977-3380-4557-a67a-a111ce73bc2d"},"vehicle_type_id":"4","last_reported":1766164280,"current_range_meters":5600,"station_id":"","pricing_plan_id":"cebpf4jnsgd1na2vs0mg"},{"bike_id":"4e081150-c273-4073-9cdb-a7543ac637ae","system_id":"levelo_inurba_marseille","lat":43.29096,"lon":5.3816,"is_reserved":false,"is_disabled":false,"rental_uris":{"android":"levelo://app?vid=4e081150-c273-4073-9cdb-a7543ac637ae","ios":"levelo://app?vid=4e081150-c273-4073-9cdb-a7543ac637ae"},"vehicle_type_id":"4","last_reported":1766164280,"current_range_meters":5600,"station_id":"ce4bh512rcd13ifvqe2g","pricing_plan_id":"cebpf4jnsgd1na2vs0mg"},{"bike_id":"2086225a-a747-4f9f-9bfb-723b2da30c0e","system_id":"levelo_inurba_marseille","lat":43.24779,"lon":5.39587,"is_reserved":false,"is_disabled":false,"rental_uris":{"android":"levelo://app?vid=2086225a-a747-4f9f-9bfb-723b2da30c0e","ios":"levelo://app?vid=2086225a-a747-4f9f-9bfb-723b2da30c0e"},"vehicle_type_id":"4","last_reported":1766164280,"current_range_meters":5600,"station_id":"","pricing_plan_id":"cebpf4jnsgd1na2vs0mg"},{"bike_id":"461ae964-0350-492d-aa1d-a59c9fcd1ac9","system_id":"levelo_inurba_marseille","lat":43.30557,"lon":5.39817,"is_reserved":false,"is_disabled":false,"rental_uris":{"android":"levelo://app?vid=461ae964-0350-492d-aa1d-a59c9fcd1ac9","ios":"levelo://app?vid=461ae964-0350-492d-aa1d-a59c9fcd1ac9"},"vehicle_type_id":"4","last_reported":1766164280,"current_range_meters":6000,"station_id":"","pricing_plan_id":"cebpf4jnsgd1na2vs0mg"},{"bike_id":"4a7dc593-a5b0-496c-825d-ca52c4b57b98","system_id":"levelo_inurba_marseille","lat":43.24055,"lon":5.37771,"is_reserved":false,"is_disabled":false,"rental_uris":{"android":"levelo://app?vid=4a7dc593-a5b0-496c-825d-ca52c4b57b98","ios":"levelo://app?vid=4a7dc593-a5b0-496c-825d-ca52c4b57b98"},"vehicle_type_id":"4","last_reported":1766164280,"current_range_meters":6000,"station_id":"ce4bhnp2rcd13ifvqgvg","pricing_plan_id":"cebpf4jnsgd1na2vs0mg"},{"bike_id":"40c51ff6-bcdf-4189-b2f9-53259a9dc236","system_id":"levelo_inurba_marseille","lat":43.28306,"lon":5.38919,"is_reserved":false,"is_disabled":true,"rental_uris":{"android":"levelo://app?vid=40c51ff6-bcdf-4189-b2f9-53259a9dc236","ios":"levelo://app?vid=40c51ff6-bcdf-4189-b2f9-53259a9dc236"},"vehicle_type_id":"4","last_reported":1766164280,"current_range_meters":6000,"station_id":"","pricing_plan_id":"cebpf4jnsgd1na2vs0mg"},{"bike_id":"f567b0f3-3773-471b-9065-aa56814d0933","system_id":"levelo_inurba_marseille","lat":43.290394,"lon":5.375601,"is_reserved":false,"is_disabled":false,"rental_uris":{"android":"levelo://app?vid=f567b0f3-3773-471b-9065-aa56814d0933","ios":"levelo://app?vid=f567b0f3-3773-471b-9065-aa56814d0933"},"vehicle_type_id":"4","last_reported":1766164280,"current_range_meters":6000,"station_id":"","pricing_plan_id":"cebpf4jnsgd1na2vs0mg"},{"bike_id":"67fe2471-1cc2-49f3-8860-6c45a1e6b28e","system_id":"levelo_inurba_marseille","lat":43.273742,"lon":5.362622,"is_reserved":false,"is_disabled":false,"rental_uris":{"android":"levelo://app?vid=67fe2471-1cc2-49f3-8860-6c45a1e6b28e","ios":"levelo://app?vid=67fe2471-1cc2-49f3-8860-6c45a1e6b28e"},"vehicle_type_id":"4","last_reported":1766164280,"current_range_meters":6000,"station_id":"ce4bhbh2rcd13ifvqeo0","pricing_plan_id":"cebpf4jnsgd1na2vs0mg"},{"bike_id":"fd497d6e-caa4-4b54-9d55-695db2ffe120","system_id":"levelo_inurba_marseille","lat":43.30209,"lon":5.39462,"is_reserved":false,"is_disabled":false,"rental_uris":{"android":"levelo://app?vid=fd497d6e-caa4-4b54-9d55-695db2ffe120","ios":"levelo://app?vid=fd497d6e-caa4-4b54-9d55-695db2ffe120"},"vehicle_type_id":"4","last_reported":1766164280,"current_range_meters":6400,"station_id":"ce4bh0p2rcd13ifvqd70","pricing_plan_id":"cebpf4jnsgd1na2vs0mg"},{"bike_id":"467517c8-ed87-4e02-bef8-4ed63963538d","system_id":"levelo_inurba_marseille","lat":43.27189,"lon":5.41007,"is_reserved":false,"is_disabled":true,"rental_uris":{"android":"levelo://app?vid=467517c8-ed87-4e02-bef8-4ed63963538d","ios":"levelo://app?vid=467517c8-ed87-4e02-bef8-4ed63963538d"},"vehicle_type_id":"4","last_reported":1766164280,"current_range_meters":6400,"station_id":"ce4bhl12rcd13ifvqgf0","pricing_plan_id":"cebpf4jnsgd1na2vs0mg"},{"bike_id":"e8669cfc-52c4-4ad2-a7d2-cfbc470a929e","system_id":"levelo_inurba_marseille","lat":43.26923,"lon":5.38923,"is_reserved":false,"is_disabled":false,"rental_uris":{"android":"levelo://app?vid=e8669cfc-52c4-4ad2-a7d2-cfbc470a929e","ios":"levelo://app?vid=e8669cfc-52c4-4ad2-a7d2-cfbc470a929e"},"vehicle_type_id":"4","last_reported":1766164280,"current_range_meters":6800,"station_id":"ce4bhhh2rcd13ifvqfl0","pricing_plan_id":"cebpf4jnsgd1na2vs0mg"},{"bike_id":"ff84a541-8304-4987-80b6-d59e6c72d111","system_id":"levelo_inurba_marseille","lat":43.29628,"lon":5.37148,"is_reserved":false,"is_disabled":false,"rental_uris":{"android":"levelo://app?vid=ff84a541-8304-4987-80b6-d59e6c72d111","ios":"levelo://app?vid=ff84a541-8304-4987-80b6-d59e6c72d111"},"vehicle_type_id":"4","last_reported":1766164280,"current_range_meters":6800,"station_id":"ce4bgnh2rcd13ifvqc0g","pricing_plan_id":"cebpf4jnsgd1na2vs0mg"},{"bike_id":"cf0e2dfe-8751-4251-bbd3-3ad00be9f3ad","system_id":"levelo_inurba_marseille","lat":43.28478,"lon":5.48385,"is_reserved":false,"is_disabled":false,"rental_uris":{"android":"levelo://app?vid=cf0e2dfe-8751-4251-bbd3-3ad00be9f3ad","ios":"levelo://app?vid=cf0e2dfe-8751-4251-bbd3-3ad00be9f3ad"},"vehicle_type_id":"4","last_reported":1766164280,"current_range_meters":6800,"station_id":"","pricing_plan_id":"cebpf4jnsgd1na2vs0mg"},{"bike_id":"720d2239-763c-42b4-8c2c-f764838140df","system_id":"levelo_inurba_marseille","lat":43.28718,"lon":5.36091,"is_reserved":false,"is_disabled":false,"rental_uris":{"android":"levelo://app?vid=720d2239-763c-42b4-8c2c-f764838140df","ios":"levelo://app?vid=720d2239-763c-42b4-8c2c-f764838140df"},"vehicle_type_id":"4","last_reported":1766164280,"current_range_meters":6800,"station_id":"cki0cbj6b192h4jlfktg","pricing_plan_id":"cebpf4jnsgd1na2vs0mg"},{"bike_id":"049bc835-a734-4393-ad01-377657bd19d7","system_id":"levelo_inurba_marseille","lat":43.28859,"lon":5.42526,"is_reserved":false,"is_disabled":false,"rental_uris":{"android":"levelo://app?vid=049bc835-a734-4393-ad01-377657bd19d7","ios":"levelo://app?vid=049bc835-a734-4393-ad01-377657bd19d7"},"vehicle_type_id":"4","last_reported":1766164280,"current_range_meters":6800,"station_id":"st_d3b462108ojc7389ooeg","pricing_plan_id":"cebpf4jnsgd1na2vs0mg"},{"bike_id":"1017f5d5-831f-4635-a13b-f0e76b75735a","system_id":"levelo_inurba_marseille","lat":43.28569,"lon":5.39488,"is_reserved":false,"is_disabled":false,"rental_uris":{"android":"levelo://app?vid=1017f5d5-831f-4635-a13b-f0e76b75735a","ios":"levelo://app?vid=1017f5d5-831f-4635-a13b-f0e76b75735a"},"vehicle_type_id":"4","last_reported":1766164280,"current_range_meters":6800,"station_id":"ce4bh292rcd13ifvqdg0","pricing_plan_id":"cebpf4jnsgd1na2vs0mg"},{"bike_id":"4638a237-9a3f-4d83-aba1-cd5a90eea28a","system_id":"levelo_inurba_marseille","lat":43.28953,"lon":5.36606,"is_reserved":false,"is_disabled":false,"rental_uris":{"android":"levelo://app?vid=4638a237-9a3f-4d83-aba1-cd5a90eea28a","ios":"levelo://app?vid=4638a237-9a3f-4d83-aba1-cd5a90eea28a"},"vehicle_type_id":"4","last_reported":1766164280,"current_range_meters":7200,"station_id":"ce4bhap2rcd13ifvqek0","pricing_plan_id":"cebpf4jnsgd1na2vs0mg"},{"bike_id":"013eff55-f95b-41c3-841a-b36f7c6456ff","system_id":"levelo_inurba_marseille","lat":43.29798,"lon":5.38091,"is_reserved":false,"is_disabled":false,"rental_uris":{"android":"levelo://app?vid=013eff55-f95b-41c3-841a-b36f7c6456ff","ios":"levelo://app?vid=013eff55-f95b-41c3-841a-b36f7c6456ff"},"vehicle_type_id":"4","last_reported":1766164280,"current_range_meters":7200,"station_id":"ce4bgip2rcd13ifvqbb0","pricing_plan_id":"cebpf4jnsgd1na2vs0mg"},{"bike_id":"2fe34453-a70e-4370-be20-d0210da8f317","system_id":"levelo_inurba_marseille","lat":43.23188,"lon":5.39986,"is_reserved":false,"is_disabled":false,"rental_uris":{"android":"levelo://app?vid=2fe34453-a70e-4370-be20-d0210da8f317","ios":"levelo://app?vid=2fe34453-a70e-4370-be20-d0210da8f317"},"vehicle_type_id":"4","last_reported":1766164280,"current_range_meters":7200,"station_id":"ce4bhn12rcd13ifvqgqg","pricing_plan_id":"cebpf4jnsgd1na2vs0mg"},{"bike_id":"0a598fce-978f-4f90-b03f-b8be1902feff","system_id":"levelo_inurba_marseille","lat":43.31297,"lon":5.37874,"is_reserved":false,"is_disabled":false,"rental_uris":{"android":"levelo://app?vid=0a598fce-978f-4f90-b03f-b8be1902feff","ios":"levelo://app?vid=0a598fce-978f-4f90-b03f-b8be1902feff"},"vehicle_type_id":"4","last_reported":1766164280,"current_range_meters":7200,"station_id":"","pricing_plan_id":"cebpf4jnsgd1na2vs0mg"},{"bike_id":"88376390-de6f-4353-a97b-ea917a211d39","system_id":"levelo_inurba_marseille","lat":43.282316,"lon":5.39071,"is_reserved":false,"is_disabled":false,"rental_uris":{"android":"levelo://app?vid=88376390-de6f-4353-a97b-ea917a211d39","ios":"levelo://app?vid=88376390-de6f-4353-a97b-ea917a211d39"},"vehicle_type_id":"4","last_reported":1766164280,"current_range_meters":7200,"station_id":"ce4bhn92rcd13ifvqgsg","pricing_plan_id":"cebpf4jnsgd1na2vs0mg"},{"bike_id":"f20ad7f7-fe76-4e0d-8969-04dbbca3b071","system_id":"levelo_inurba_marseille","lat":43.29493,"lon":5.43315,"is_reserved":false,"is_disabled":false,"rental_uris":{"android":"levelo://app?vid=f20ad7f7-fe76-4e0d-8969-04dbbca3b071","ios":"levelo://app?vid=f20ad7f7-fe76-4e0d-8969-04dbbca3b071"},"vehicle_type_id":"4","last_reported":1766164280,"current_range_meters":7200,"station_id":"st_d3j5ugp08ojc73fj9d10","pricing_plan_id":"cebpf4jnsgd1na2vs0mg"},{"bike_id":"9900d379-d58a-44c0-982a-74485f48f9d5","system_id":"levelo_inurba_marseille","lat":43.26549,"lon":5.37289,"is_reserved":false,"is_disabled":false,"rental_uris":{"android":"levelo://app?vid=9900d379-d58a-44c0-982a-74485f48f9d5","ios":"levelo://app?vid=9900d379-d58a-44c0-982a-74485f48f9d5"},"vehicle_type_id":"4","last_reported":1766164280,"current_range_meters":7200,"station_id":"ce4bhg12rcd13ifvqf70","pricing_plan_id":"cebpf4jnsgd1na2vs0mg"},{"bike_id":"4cdb8c34-abac-4caa-87cf-eaab613d6e0b","system_id":"levelo_inurba_marseille","lat":43.2318,"lon":5.39982,"is_reserved":false,"is_disabled":false,"rental_uris":{"android":"levelo://app?vid=4cdb8c34-abac-4caa-87cf-eaab613d6e0b","ios":"levelo://app?vid=4cdb8c34-abac-4caa-87cf-eaab613d6e0b"},"vehicle_type_id":"4","last_reported":1766164280,"current_range_meters":7200,"station_id":"ce4bhn12rcd13ifvqgqg","pricing_plan_id":"cebpf4jnsgd1na2vs0mg"},{"bike_id":"436e467e-3ef8-4484-b12e-82fd46509f97","system_id":"levelo_inurba_marseille","lat":43.2331,"lon":5.44405,"is_reserved":false,"is_disabled":false,"rental_uris":{"android":"levelo://app?vid=436e467e-3ef8-4484-b12e-82fd46509f97","ios":"levelo://app?vid=436e467e-3ef8-4484-b12e-82fd46509f97"},"vehicle_type_id":"4","last_reported":1766164280,"current_range_meters":8000,"station_id":"","pricing_plan_id":"cebpf4jnsgd1na2vs0mg"},{"bike_id":"4a614ce4-d61c-499d-8955-0569e02f377b","system_id":"levelo_inurba_marseille","lat":43.27513,"lon":5.37277,"is_reserved":false,"is_disabled":false,"rental_uris":{"android":"levelo://app?vid=4a614ce4-d61c-499d-8955-0569e02f377b","ios":"levelo://app?vid=4a614ce4-d61c-499d-8955-0569e02f377b"},"vehicle_type_id":"4","last_reported":1766164280,"current_range_meters":8000,"station_id":"","pricing_plan_id":"cebpf4jnsgd1na2vs0mg"},{"bike_id":"ee6f7e5c-24b4-4046-a3ec-072080785116","system_id":"levelo_inurba_marseille","lat":43.21746,"lon":5.34594,"is_reserved":false,"is_disabled":true,"rental_uris":{"android":"levelo://app?vid=ee6f7e5c-24b4-4046-a3ec-072080785116","ios":"levelo://app?vid=ee6f7e5c-24b4-4046-a3ec-072080785116"},"vehicle_type_id":"4","last_reported":1766164280,"current_range_meters":8400,"station_id":"st_cvj6r9ubvosntc0bgbag","pricing_plan_id":"cebpf4jnsgd1na2vs0mg"},{"bike_id":"c5365846-c619-4f12-8c92-97c9f9725a15","system_id":"levelo_inurba_marseille","lat":43.295249,"lon":5.379389,"is_reserved":false,"is_disabled":false,"rental_uris":{"android":"levelo://app?vid=c5365846-c619-4f12-8c92-97c9f9725a15","ios":"levelo://app?vid=c5365846-c619-4f12-8c92-97c9f9725a15"},"vehicle_type_id":"4","last_reported":1766164280,"current_range_meters":8400,"station_id":"","pricing_plan_id":"cebpf4jnsgd1na2vs0mg"},{"bike_id":"2bf98273-0fbd-4744-bdae-4cc48522d2ac","system_id":"levelo_inurba_marseille","lat":43.30115,"lon":5.39836,"is_reserved":false,"is_disabled":false,"rental_uris":{"android":"levelo://app?vid=2bf98273-0fbd-4744-bdae-4cc48522d2ac","ios":"levelo://app?vid=2bf98273-0fbd-4744-bdae-4cc48522d2ac"},"vehicle_type_id":"4","last_reported":1766164280,"current_range_meters":8400,"station_id":"ce4bh0h2rcd13ifvqd40","pricing_plan_id":"cebpf4jnsgd1na2vs0mg"},{"bike_id":"374a0371-4968-4fe9-88a9-ac5ffa94b236","system_id":"levelo_inurba_marseille","lat":43.31465,"lon":5.4538,"is_reserved":false,"is_disabled":false,"rental_uris":{"android":"levelo://app?vid=374a0371-4968-4fe9-88a9-ac5ffa94b236","ios":"levelo://app?vid=374a0371-4968-4fe9-88a9-ac5ffa94b236"},"vehicle_type_id":"4","last_reported":1766164280,"current_range_meters":8400,"station_id":"","pricing_plan_id":"cebpf4jnsgd1na2vs0mg"},{"bike_id":"a5afd0b1-2733-40f7-93f5-1e02fc2d90a3","system_id":"levelo_inurba_marseille","lat":43.29031,"lon":5.37563,"is_reserved":false,"is_disabled":false,"rental_uris":{"android":"levelo://app?vid=a5afd0b1-2733-40f7-93f5-1e02fc2d90a3","ios":"levelo://app?vid=a5afd0b1-2733-40f7-93f5-1e02fc2d90a3"},"vehicle_type_id":"4","last_reported":1766164280,"current_range_meters":8400,"station_id":"ce4bh692rcd13ifvqe90","pricing_plan_id":"cebpf4jnsgd1na2vs0mg"},{"bike_id":"32ba8441-69f4-4600-b187-5b21dd0b2cbd","system_id":"levelo_inurba_marseille","lat":43.28725,"lon":5.36103,"is_reserved":false,"is_disabled":false,"rental_uris":{"android":"levelo://app?vid=32ba8441-69f4-4600-b187-5b21dd0b2cbd","ios":"levelo://app?vid=32ba8441-69f4-4600-b187-5b21dd0b2cbd"},"vehicle_type_id":"4","last_reported":1766164280,"current_range_meters":8800,"station_id":"cki0cbj6b192h4jlfktg","pricing_plan_id":"cebpf4jnsgd1na2vs0mg"},{"bike_id":"72121fb9-091c-4a76-8e49-e2254d48b20d","system_id":"levelo_inurba_marseille","lat":43.31226,"lon":5.36867,"is_reserved":false,"is_disabled":false,"rental_uris":{"android":"levelo://app?vid=72121fb9-091c-4a76-8e49-e2254d48b20d","ios":"levelo://app?vid=72121fb9-091c-4a76-8e49-e2254d48b20d"},"vehicle_type_id":"4","last_reported":1766164280,"current_range_meters":8800,"station_id":"ce4bgl92rcd13ifvqbq0","pricing_plan_id":"cebpf4jnsgd1na2vs0mg"},{"bike_id":"1f8bf9e3-c9bd-4c05-9201-34f9580d25af","system_id":"levelo_inurba_marseille","lat":43.2119,"lon":5.3507,"is_reserved":false,"is_disabled":false,"rental_uris":{"android":"levelo://app?vid=1f8bf9e3-c9bd-4c05-9201-34f9580d25af","ios":"levelo://app?vid=1f8bf9e3-c9bd-4c05-9201-34f9580d25af"},"vehicle_type_id":"4","last_reported":1766164280,"current_range_meters":8800,"station_id":"st_cvj6sg6p6f1abm77japg","pricing_plan_id":"cebpf4jnsgd1na2vs0mg"},{"bike_id":"91dc96a9-ec51-4128-814e-ce3aa80480d3","system_id":"levelo_inurba_marseille","lat":43.30029,"lon":5.38072,"is_reserved":false,"is_disabled":false,"rental_uris":{"android":"levelo://app?vid=91dc96a9-ec51-4128-814e-ce3aa80480d3","ios":"levelo://app?vid=91dc96a9-ec51-4128-814e-ce3aa80480d3"},"vehicle_type_id":"4","last_reported":1766164280,"current_range_meters":8800,"station_id":"","pricing_plan_id":"cebpf4jnsgd1na2vs0mg"},{"bike_id":"cd8ea67b-02ff-44a2-9f1e-0f06c2acc51a","system_id":"levelo_inurba_marseille","lat":43.33156,"lon":5.37689,"is_reserved":false,"is_disabled":false,"rental_uris":{"android":"levelo://app?vid=cd8ea67b-02ff-44a2-9f1e-0f06c2acc51a","ios":"levelo://app?vid=cd8ea67b-02ff-44a2-9f1e-0f06c2acc51a"},"vehicle_type_id":"4","last_reported":1766164280,"current_range_meters":8800,"station_id":"st_d46cu089ee8s73dldbu0","pricing_plan_id":"cebpf4jnsgd1na2vs0mg"},{"bike_id":"dfbc36ee-c8dc-42f0-bb04-210dbbc12a37","system_id":"levelo_inurba_marseille","lat":43.2846,"lon":5.35887,"is_reserved":false,"is_disabled":false,"rental_uris":{"android":"levelo://app?vid=dfbc36ee-c8dc-42f0-bb04-210dbbc12a37","ios":"levelo://app?vid=dfbc36ee-c8dc-42f0-bb04-210dbbc12a37"},"vehicle_type_id":"4","last_reported":1766164280,"current_range_meters":8800,"station_id":"ce4bhah2rcd13ifvqei0","pricing_plan_id":"cebpf4jnsgd1na2vs0mg"},{"bike_id":"cf5eb2c1-c87d-4ae3-9256-41d8d82f1276","system_id":"levelo_inurba_marseille","lat":43.2923,"lon":5.36057,"is_reserved":false,"is_disabled":false,"rental_uris":{"android":"levelo://app?vid=cf5eb2c1-c87d-4ae3-9256-41d8d82f1276","ios":"levelo://app?vid=cf5eb2c1-c87d-4ae3-9256-41d8d82f1276"},"vehicle_type_id":"4","last_reported":1766164280,"current_range_meters":8800,"station_id":"ce4bhbh2rcd13ifvqeqg","pricing_plan_id":"cebpf4jnsgd1na2vs0mg"},{"bike_id":"17a49efb-d179-4b85-b20c-4afe87c0613f","system_id":"levelo_inurba_marseille","lat":43.310533,"lon":5.371801,"is_reserved":false,"is_disabled":true,"rental_uris":{"android":"levelo://app?vid=17a49efb-d179-4b85-b20c-4afe87c0613f","ios":"levelo://app?vid=17a49efb-d179-4b85-b20c-4afe87c0613f"},"vehicle_type_id":"4","last_reported":1766164280,"current_range_meters":8800,"station_id":"st_d4kl2rp97mjs73e7tdfg","pricing_plan_id":"cebpf4jnsgd1na2vs0mg"},{"bike_id":"7282edd6-0667-465d-a973-59e6922c2c4d","system_id":"levelo_inurba_marseille","lat":43.23195,"lon":5.35557,"is_reserved":false,"is_disabled":false,"rental_uris":{"android":"levelo://app?vid=7282edd6-0667-465d-a973-59e6922c2c4d","ios":"levelo://app?vid=7282edd6-0667-465d-a973-59e6922c2c4d"},"vehicle_type_id":"4","last_reported":1766164280,"current_range_meters":8800,"station_id":"ce4bhu92rcd13ifvqi70","pricing_plan_id":"cebpf4jnsgd1na2vs0mg"},{"bike_id":"a6bb7fde-2db0-447e-8cac-38a0c3844ce6","system_id":"levelo_inurba_marseille","lat":43.27771,"lon":5.38794,"is_reserved":false,"is_disabled":false,"rental_uris":{"android":"levelo://app?vid=a6bb7fde-2db0-447e-8cac-38a0c3844ce6","ios":"levelo://app?vid=a6bb7fde-2db0-447e-8cac-38a0c3844ce6"},"vehicle_type_id":"4","last_reported":1766164280,"current_range_meters":9200,"station_id":"","pricing_plan_id":"cebpf4jnsgd1na2vs0mg"},{"bike_id":"586dcbca-3f98-4ac6-8c2c-296aef8107dd","system_id":"levelo_inurba_marseille","lat":43.26929,"lon":5.38919,"is_reserved":false,"is_disabled":false,"rental_uris":{"android":"levelo://app?vid=586dcbca-3f98-4ac6-8c2c-296aef8107dd","ios":"levelo://app?vid=586dcbca-3f98-4ac6-8c2c-296aef8107dd"},"vehicle_type_id":"4","last_reported":1766164280,"current_range_meters":9200,"station_id":"ce4bhhh2rcd13ifvqfl0","pricing_plan_id":"cebpf4jnsgd1na2vs0mg"},{"bike_id":"305412fd-41fd-4f48-b0ce-d25b5a7eb63f","system_id":"levelo_inurba_marseille","lat":43.32554,"lon":5.38938,"is_reserved":false,"is_disabled":false,"rental_uris":{"android":"levelo://app?vid=305412fd-41fd-4f48-b0ce-d25b5a7eb63f","ios":"levelo://app?vid=305412fd-41fd-4f48-b0ce-d25b5a7eb63f"},"vehicle_type_id":"4","last_reported":1766164280,"current_range_meters":9200,"station_id":"","pricing_plan_id":"cebpf4jnsgd1na2vs0mg"},{"bike_id":"a15178ad-6fa7-44d8-bb42-302a2c8c18b9","system_id":"levelo_inurba_marseille","lat":43.24661,"lon":5.381663,"is_reserved":false,"is_disabled":false,"rental_uris":{"android":"levelo://app?vid=a15178ad-6fa7-44d8-bb42-302a2c8c18b9","ios":"levelo://app?vid=a15178ad-6fa7-44d8-bb42-302a2c8c18b9"},"vehicle_type_id":"4","last_reported":1766164280,"current_range_meters":9200,"station_id":"","pricing_plan_id":"cebpf4jnsgd1na2vs0mg"},{"bike_id":"86ffd166-9c1d-485d-8aea-9f66030c620d","system_id":"levelo_inurba_marseille","lat":43.255812,"lon":5.382293,"is_reserved":false,"is_disabled":false,"rental_uris":{"android":"levelo://app?vid=86ffd166-9c1d-485d-8aea-9f66030c620d","ios":"levelo://app?vid=86ffd166-9c1d-485d-8aea-9f66030c620d"},"vehicle_type_id":"4","last_reported":1766164280,"current_range_meters":9200,"station_id":"ce4bhih2rcd13ifvqfs0","pricing_plan_id":"cebpf4jnsgd1na2vs0mg"},{"bike_id":"94dbfdc0-239b-4d7d-ab84-6280e40df375","system_id":"levelo_inurba_marseille","lat":43.301351,"lon":5.38787,"is_reserved":false,"is_disabled":false,"rental_uris":{"android":"levelo://app?vid=94dbfdc0-239b-4d7d-ab84-6280e40df375","ios":"levelo://app?vid=94dbfdc0-239b-4d7d-ab84-6280e40df375"},"vehicle_type_id":"4","last_reported":1766164280,"current_range_meters":9200,"station_id":"ce4bghh2rcd13ifvqb60","pricing_plan_id":"cebpf4jnsgd1na2vs0mg"},{"bike_id":"f3a4c2fd-c27a-4ca6-bbe5-3949d2a88808","system_id":"levelo_inurba_marseille","lat":43.28584,"lon":5.43,"is_reserved":false,"is_disabled":false,"rental_uris":{"android":"levelo://app?vid=f3a4c2fd-c27a-4ca6-bbe5-3949d2a88808","ios":"levelo://app?vid=f3a4c2fd-c27a-4ca6-bbe5-3949d2a88808"},"vehicle_type_id":"4","last_reported":1766164280,"current_range_meters":9200,"station_id":"","pricing_plan_id":"cebpf4jnsgd1na2vs0mg"},{"bike_id":"5d3a354d-b72d-42dd-9209-40ca76e94a80","system_id":"levelo_inurba_marseille","lat":43.29044,"lon":5.35911,"is_reserved":false,"is_disabled":false,"rental_uris":{"android":"levelo://app?vid=5d3a354d-b72d-42dd-9209-40ca76e94a80","ios":"levelo://app?vid=5d3a354d-b72d-42dd-9209-40ca76e94a80"},"vehicle_type_id":"4","last_reported":1766164280,"current_range_meters":9200,"station_id":"ce4bha92rcd13ifvqeg0","pricing_plan_id":"cebpf4jnsgd1na2vs0mg"},{"bike_id":"f9337d60-e19c-40d7-96f0-1395f1118ce4","system_id":"levelo_inurba_marseille","lat":43.26788,"lon":5.39406,"is_reserved":false,"is_disabled":false,"rental_uris":{"android":"levelo://app?vid=f9337d60-e19c-40d7-96f0-1395f1118ce4","ios":"levelo://app?vid=f9337d60-e19c-40d7-96f0-1395f1118ce4"},"vehicle_type_id":"4","last_reported":1766164280,"current_range_meters":9200,"station_id":"ce4bhh12rcd13ifvqfg0","pricing_plan_id":"cebpf4jnsgd1na2vs0mg"},{"bike_id":"48e30a46-3a61-4ed5-93c8-2b0ee8661bac","system_id":"levelo_inurba_marseille","lat":43.29883,"lon":5.37891,"is_reserved":false,"is_disabled":false,"rental_uris":{"android":"levelo://app?vid=48e30a46-3a61-4ed5-93c8-2b0ee8661bac","ios":"levelo://app?vid=48e30a46-3a61-4ed5-93c8-2b0ee8661bac"},"vehicle_type_id":"4","last_reported":1766164280,"current_range_meters":9200,"station_id":"","pricing_plan_id":"cebpf4jnsgd1na2vs0mg"},{"bike_id":"c01812e4-f8df-4a6e-8353-9a2a78db1856","system_id":"levelo_inurba_marseille","lat":43.306481,"lon":5.400876,"is_reserved":false,"is_disabled":false,"rental_uris":{"android":"levelo://app?vid=c01812e4-f8df-4a6e-8353-9a2a78db1856","ios":"levelo://app?vid=c01812e4-f8df-4a6e-8353-9a2a78db1856"},"vehicle_type_id":"4","last_reported":1766164280,"current_range_meters":9200,"station_id":"ce4bh112rcd13ifvqda0","pricing_plan_id":"cebpf4jnsgd1na2vs0mg"},{"bike_id":"86e9be22-c69e-44cd-98be-490605e5c2d2","system_id":"levelo_inurba_marseille","lat":43.336341,"lon":5.392189,"is_reserved":false,"is_disabled":false,"rental_uris":{"android":"levelo://app?vid=86e9be22-c69e-44cd-98be-490605e5c2d2","ios":"levelo://app?vid=86e9be22-c69e-44cd-98be-490605e5c2d2"},"vehicle_type_id":"4","last_reported":1766164280,"current_range_meters":9200,"station_id":"ce4bhr92rcd13ifvqhsg","pricing_plan_id":"cebpf4jnsgd1na2vs0mg"},{"bike_id":"03a00192-64ca-45ea-a972-00a188a27976","system_id":"levelo_inurba_marseille","lat":43.29873,"lon":5.3974,"is_reserved":false,"is_disabled":false,"rental_uris":{"android":"levelo://app?vid=03a00192-64ca-45ea-a972-00a188a27976","ios":"levelo://app?vid=03a00192-64ca-45ea-a972-00a188a27976"},"vehicle_type_id":"4","last_reported":1766164280,"current_range_meters":9600,"station_id":"ce4bh0h2rcd13ifvqd50","pricing_plan_id":"cebpf4jnsgd1na2vs0mg"},{"bike_id":"86befdbd-d81e-4272-98c2-f9724fcb20b1","system_id":"levelo_inurba_marseille","lat":43.30793,"lon":5.37664,"is_reserved":false,"is_disabled":false,"rental_uris":{"android":"levelo://app?vid=86befdbd-d81e-4272-98c2-f9724fcb20b1","ios":"levelo://app?vid=86befdbd-d81e-4272-98c2-f9724fcb20b1"},"vehicle_type_id":"4","last_reported":1766164280,"current_range_meters":9600,"station_id":"ce4bgv92rcd13ifvqcq0","pricing_plan_id":"cebpf4jnsgd1na2vs0mg"},{"bike_id":"6745fdfe-0677-416a-b6fa-7ba8b8eced4f","system_id":"levelo_inurba_marseille","lat":43.29034,"lon":5.37561,"is_reserved":false,"is_disabled":false,"rental_uris":{"android":"levelo://app?vid=6745fdfe-0677-416a-b6fa-7ba8b8eced4f","ios":"levelo://app?vid=6745fdfe-0677-416a-b6fa-7ba8b8eced4f"},"vehicle_type_id":"4","last_reported":1766164280,"current_range_meters":9600,"station_id":"ce4bh692rcd13ifvqe90","pricing_plan_id":"cebpf4jnsgd1na2vs0mg"},{"bike_id":"6be0eb5e-9737-41c4-ab99-ab0062d21bfb","system_id":"levelo_inurba_marseille","lat":43.29875,"lon":5.38917,"is_reserved":false,"is_disabled":false,"rental_uris":{"android":"levelo://app?vid=6be0eb5e-9737-41c4-ab99-ab0062d21bfb","ios":"levelo://app?vid=6be0eb5e-9737-41c4-ab99-ab0062d21bfb"},"vehicle_type_id":"4","last_reported":1766164280,"current_range_meters":9600,"station_id":"ce4bh392rcd13ifvqdl0","pricing_plan_id":"cebpf4jnsgd1na2vs0mg"},{"bike_id":"ea42a270-3b7e-4605-a2c3-58de8f8d1765","system_id":"levelo_inurba_marseille","lat":43.29022,"lon":5.38636,"is_reserved":false,"is_disabled":false,"rental_uris":{"android":"levelo://app?vid=ea42a270-3b7e-4605-a2c3-58de8f8d1765","ios":"levelo://app?vid=ea42a270-3b7e-4605-a2c3-58de8f8d1765"},"vehicle_type_id":"4","last_reported":1766164280,"current_range_meters":9600,"station_id":"ce4bh4p2rcd13ifvqe0g","pricing_plan_id":"cebpf4jnsgd1na2vs0mg"},{"bike_id":"212913cc-edbe-465e-9367-b63552bde39f","system_id":"levelo_inurba_marseille","lat":43.28996,"lon":5.35623,"is_reserved":false,"is_disabled":false,"rental_uris":{"android":"levelo://app?vid=212913cc-edbe-465e-9367-b63552bde39f","ios":"levelo://app?vid=212913cc-edbe-465e-9367-b63552bde39f"},"vehicle_type_id":"4","last_reported":1766164280,"current_range_meters":9600,"station_id":"ce4bhb92rcd13ifvqen0","pricing_plan_id":"cebpf4jnsgd1na2vs0mg"},{"bike_id":"174b6476-5412-4958-b402-db39235e3546","system_id":"levelo_inurba_marseille","lat":43.29955,"lon":5.41316,"is_reserved":false,"is_disabled":false,"rental_uris":{"android":"levelo://app?vid=174b6476-5412-4958-b402-db39235e3546","ios":"levelo://app?vid=174b6476-5412-4958-b402-db39235e3546"},"vehicle_type_id":"4","last_reported":1766164280,"current_range_meters":9600,"station_id":"ce4bhp12rcd13ifvqh9g","pricing_plan_id":"cebpf4jnsgd1na2vs0mg"},{"bike_id":"0fa65c99-2790-40a8-b36e-50cd8c201a64","system_id":"levelo_inurba_marseille","lat":43.27812,"lon":5.40714,"is_reserved":false,"is_disabled":false,"rental_uris":{"android":"levelo://app?vid=0fa65c99-2790-40a8-b36e-50cd8c201a64","ios":"levelo://app?vid=0fa65c99-2790-40a8-b36e-50cd8c201a64"},"vehicle_type_id":"4","last_reported":1766164280,"current_range_meters":9600,"station_id":"ce4bhnh2rcd13ifvqgtg","pricing_plan_id":"cebpf4jnsgd1na2vs0mg"},{"bike_id":"58ea851a-6393-47c2-a8eb-bb8e8cb70103","system_id":"levelo_inurba_marseille","lat":43.24673,"lon":5.38119,"is_reserved":false,"is_disabled":false,"rental_uris":{"android":"levelo://app?vid=58ea851a-6393-47c2-a8eb-bb8e8cb70103","ios":"levelo://app?vid=58ea851a-6393-47c2-a8eb-bb8e8cb70103"},"vehicle_type_id":"4","last_reported":1766164280,"current_range_meters":10000,"station_id":"ce4bhih2rcd13ifvqfr0","pricing_plan_id":"cebpf4jnsgd1na2vs0mg"},{"bike_id":"bb1a4ad0-96cf-4976-b7ef-f710869ce918","system_id":"levelo_inurba_marseille","lat":43.25083,"lon":5.39515,"is_reserved":false,"is_disabled":false,"rental_uris":{"android":"levelo://app?vid=bb1a4ad0-96cf-4976-b7ef-f710869ce918","ios":"levelo://app?vid=bb1a4ad0-96cf-4976-b7ef-f710869ce918"},"vehicle_type_id":"4","last_reported":1766164280,"current_range_meters":10000,"station_id":"ce4bhm12rcd13ifvqgkg","pricing_plan_id":"cebpf4jnsgd1na2vs0mg"},{"bike_id":"c989796d-dcc1-4fc7-b147-6dbca1d74de3","system_id":"levelo_inurba_marseille","lat":43.28145,"lon":5.38347,"is_reserved":false,"is_disabled":false,"rental_uris":{"android":"levelo://app?vid=c989796d-dcc1-4fc7-b147-6dbca1d74de3","ios":"levelo://app?vid=c989796d-dcc1-4fc7-b147-6dbca1d74de3"},"vehicle_type_id":"4","last_reported":1766164280,"current_range_meters":10000,"station_id":"","pricing_plan_id":"cebpf4jnsgd1na2vs0mg"},{"bike_id":"61764517-f2b1-47e2-9c26-bdd74e228761","system_id":"levelo_inurba_marseille","lat":43.28703,"lon":5.373839,"is_reserved":false,"is_disabled":false,"rental_uris":{"android":"levelo://app?vid=61764517-f2b1-47e2-9c26-bdd74e228761","ios":"levelo://app?vid=61764517-f2b1-47e2-9c26-bdd74e228761"},"vehicle_type_id":"4","last_reported":1766164280,"current_range_meters":10000,"station_id":"ce4bha92rcd13ifvqeg0","pricing_plan_id":"cebpf4jnsgd1na2vs0mg"},{"bike_id":"28e7ea25-d676-49ca-8be6-ac1c19bc94ea","system_id":"levelo_inurba_marseille","lat":43.33427,"lon":5.40042,"is_reserved":false,"is_disabled":false,"rental_uris":{"android":"levelo://app?vid=28e7ea25-d676-49ca-8be6-ac1c19bc94ea","ios":"levelo://app?vid=28e7ea25-d676-49ca-8be6-ac1c19bc94ea"},"vehicle_type_id":"4","last_reported":1766164280,"current_range_meters":10000,"station_id":"","pricing_plan_id":"cebpf4jnsgd1na2vs0mg"},{"bike_id":"1deadf87-8924-4907-a608-8e30ee6ae8f3","system_id":"levelo_inurba_marseille","lat":43.27371,"lon":5.36253,"is_reserved":false,"is_disabled":false,"rental_uris":{"android":"levelo://app?vid=1deadf87-8924-4907-a608-8e30ee6ae8f3","ios":"levelo://app?vid=1deadf87-8924-4907-a608-8e30ee6ae8f3"},"vehicle_type_id":"4","last_reported":1766164280,"current_range_meters":10000,"station_id":"ce4bhbh2rcd13ifvqeo0","pricing_plan_id":"cebpf4jnsgd1na2vs0mg"},{"bike_id":"700442f5-a082-454e-8bc7-ab3bbb77bfce","system_id":"levelo_inurba_marseille","lat":43.26651,"lon":5.37434,"is_reserved":false,"is_disabled":false,"rental_uris":{"android":"levelo://app?vid=700442f5-a082-454e-8bc7-ab3bbb77bfce","ios":"levelo://app?vid=700442f5-a082-454e-8bc7-ab3bbb77bfce"},"vehicle_type_id":"4","last_reported":1766164280,"current_range_meters":10000,"station_id":"","pricing_plan_id":"cebpf4jnsgd1na2vs0mg"},{"bike_id":"085acbb2-5d74-4722-90ba-13cf5a1e6238","system_id":"levelo_inurba_marseille","lat":43.29039,"lon":5.37574,"is_reserved":false,"is_disabled":false,"rental_uris":{"android":"levelo://app?vid=085acbb2-5d74-4722-90ba-13cf5a1e6238","ios":"levelo://app?vid=085acbb2-5d74-4722-90ba-13cf5a1e6238"},"vehicle_type_id":"4","last_reported":1766164280,"current_range_meters":10000,"station_id":"ce4bh692rcd13ifvqe90","pricing_plan_id":"cebpf4jnsgd1na2vs0mg"},{"bike_id":"3b475d76-52e2-49a8-b4a8-452a0b21c1ab","system_id":"levelo_inurba_marseille","lat":43.31171,"lon":5.38728,"is_reserved":false,"is_disabled":false,"rental_uris":{"android":"levelo://app?vid=3b475d76-52e2-49a8-b4a8-452a0b21c1ab","ios":"levelo://app?vid=3b475d76-52e2-49a8-b4a8-452a0b21c1ab"},"vehicle_type_id":"4","last_reported":1766164280,"current_range_meters":10000,"station_id":"ce4bgv12rcd13ifvqcp0","pricing_plan_id":"cebpf4jnsgd1na2vs0mg"},{"bike_id":"6e6c324e-da9a-44b3-abb9-01f866125b0b","system_id":"levelo_inurba_marseille","lat":43.284634,"lon":5.384124,"is_reserved":false,"is_disabled":false,"rental_uris":{"android":"levelo://app?vid=6e6c324e-da9a-44b3-abb9-01f866125b0b","ios":"levelo://app?vid=6e6c324e-da9a-44b3-abb9-01f866125b0b"},"vehicle_type_id":"4","last_reported":1766164280,"current_range_meters":10800,"station_id":"ce4bh512rcd13ifvqe3g","pricing_plan_id":"cebpf4jnsgd1na2vs0mg"},{"bike_id":"b1cba474-1be1-45b8-98ce-8eaa4e768295","system_id":"levelo_inurba_marseille","lat":43.274338,"lon":5.39421,"is_reserved":false,"is_disabled":false,"rental_uris":{"android":"levelo://app?vid=b1cba474-1be1-45b8-98ce-8eaa4e768295","ios":"levelo://app?vid=b1cba474-1be1-45b8-98ce-8eaa4e768295"},"vehicle_type_id":"4","last_reported":1766164280,"current_range_meters":10800,"station_id":"ce4bhdp2rcd13ifvqf20","pricing_plan_id":"cebpf4jnsgd1na2vs0mg"},{"bike_id":"1c79eb29-135e-40c1-8651-901759d4aaa6","system_id":"levelo_inurba_marseille","lat":43.28566,"lon":5.35295,"is_reserved":false,"is_disabled":false,"rental_uris":{"android":"levelo://app?vid=1c79eb29-135e-40c1-8651-901759d4aaa6","ios":"levelo://app?vid=1c79eb29-135e-40c1-8651-901759d4aaa6"},"vehicle_type_id":"4","last_reported":1766164280,"current_range_meters":10800,"station_id":"","pricing_plan_id":"cebpf4jnsgd1na2vs0mg"},{"bike_id":"a7bbbd6e-7f8d-4ada-9faf-bd626e8734a6","system_id":"levelo_inurba_marseille","lat":43.27935,"lon":5.41049,"is_reserved":false,"is_disabled":false,"rental_uris":{"android":"levelo://app?vid=a7bbbd6e-7f8d-4ada-9faf-bd626e8734a6","ios":"levelo://app?vid=a7bbbd6e-7f8d-4ada-9faf-bd626e8734a6"},"vehicle_type_id":"4","last_reported":1766164280,"current_range_meters":10800,"station_id":"ce4bhnp2rcd13ifvqh0g","pricing_plan_id":"cebpf4jnsgd1na2vs0mg"},{"bike_id":"bd828d31-568e-480e-b065-1206e1b58d4e","system_id":"levelo_inurba_marseille","lat":43.22932,"lon":5.35376,"is_reserved":false,"is_disabled":false,"rental_uris":{"android":"levelo://app?vid=bd828d31-568e-480e-b065-1206e1b58d4e","ios":"levelo://app?vid=bd828d31-568e-480e-b065-1206e1b58d4e"},"vehicle_type_id":"4","last_reported":1766164280,"current_range_meters":10800,"station_id":"cpo3532slgdg3j2ikp40","pricing_plan_id":"cebpf4jnsgd1na2vs0mg"},{"bike_id":"51850788-6d18-4067-a22e-183a3dbd8b5e","system_id":"levelo_inurba_marseille","lat":43.28613,"lon":5.35138,"is_reserved":false,"is_disabled":false,"rental_uris":{"android":"levelo://app?vid=51850788-6d18-4067-a22e-183a3dbd8b5e","ios":"levelo://app?vid=51850788-6d18-4067-a22e-183a3dbd8b5e"},"vehicle_type_id":"4","last_reported":1766164280,"current_range_meters":10800,"station_id":"ce4bhch2rcd13ifvqeug","pricing_plan_id":"cebpf4jnsgd1na2vs0mg"},{"bike_id":"689e1e25-96b9-418c-bbe1-0e8f9558c52f","system_id":"levelo_inurba_marseille","lat":43.3136,"lon":5.37694,"is_reserved":false,"is_disabled":false,"rental_uris":{"android":"levelo://app?vid=689e1e25-96b9-418c-bbe1-0e8f9558c52f","ios":"levelo://app?vid=689e1e25-96b9-418c-bbe1-0e8f9558c52f"},"vehicle_type_id":"4","last_reported":1766164280,"current_range_meters":10800,"station_id":"","pricing_plan_id":"cebpf4jnsgd1na2vs0mg"},{"bike_id":"47b454cd-01f9-4de3-b129-3f7a7abb6370","system_id":"levelo_inurba_marseille","lat":43.29232,"lon":5.36056,"is_reserved":false,"is_disabled":false,"rental_uris":{"android":"levelo://app?vid=47b454cd-01f9-4de3-b129-3f7a7abb6370","ios":"levelo://app?vid=47b454cd-01f9-4de3-b129-3f7a7abb6370"},"vehicle_type_id":"4","last_reported":1766164280,"current_range_meters":11200,"station_id":"ce4bhbh2rcd13ifvqeqg","pricing_plan_id":"cebpf4jnsgd1na2vs0mg"},{"bike_id":"eace70d9-abc4-463e-ad30-564a1fb2f71d","system_id":"levelo_inurba_marseille","lat":43.2587,"lon":5.39897,"is_reserved":false,"is_disabled":false,"rental_uris":{"android":"levelo://app?vid=eace70d9-abc4-463e-ad30-564a1fb2f71d","ios":"levelo://app?vid=eace70d9-abc4-463e-ad30-564a1fb2f71d"},"vehicle_type_id":"4","last_reported":1766164280,"current_range_meters":11200,"station_id":"ce4bhl92rcd13ifvqghg","pricing_plan_id":"cebpf4jnsgd1na2vs0mg"},{"bike_id":"29ff8d65-fbca-42c1-b12e-cd4dc579808a","system_id":"levelo_inurba_marseille","lat":43.30151,"lon":5.37407,"is_reserved":false,"is_disabled":false,"rental_uris":{"android":"levelo://app?vid=29ff8d65-fbca-42c1-b12e-cd4dc579808a","ios":"levelo://app?vid=29ff8d65-fbca-42c1-b12e-cd4dc579808a"},"vehicle_type_id":"4","last_reported":1766164280,"current_range_meters":11200,"station_id":"ce4bgs92rcd13ifvqcc0","pricing_plan_id":"cebpf4jnsgd1na2vs0mg"},{"bike_id":"c0a3a8db-26e7-4eff-9dcf-c9cc1bfd4b0d","system_id":"levelo_inurba_marseille","lat":43.33016,"lon":5.3903,"is_reserved":false,"is_disabled":false,"rental_uris":{"android":"levelo://app?vid=c0a3a8db-26e7-4eff-9dcf-c9cc1bfd4b0d","ios":"levelo://app?vid=c0a3a8db-26e7-4eff-9dcf-c9cc1bfd4b0d"},"vehicle_type_id":"4","last_reported":1766164280,"current_range_meters":11200,"station_id":"ce4bhr92rcd13ifvqhrg","pricing_plan_id":"cebpf4jnsgd1na2vs0mg"},{"bike_id":"353191d5-c85e-4d2b-8a88-8af8c037e499","system_id":"levelo_inurba_marseille","lat":43.30136,"lon":5.37421,"is_reserved":false,"is_disabled":false,"rental_uris":{"android":"levelo://app?vid=353191d5-c85e-4d2b-8a88-8af8c037e499","ios":"levelo://app?vid=353191d5-c85e-4d2b-8a88-8af8c037e499"},"vehicle_type_id":"4","last_reported":1766164280,"current_range_meters":11200,"station_id":"ce4bgs92rcd13ifvqcc0","pricing_plan_id":"cebpf4jnsgd1na2vs0mg"},{"bike_id":"e0effb5a-e8c9-4234-ae32-e89cc890b254","system_id":"levelo_inurba_marseille","lat":43.28859,"lon":5.42513,"is_reserved":false,"is_disabled":false,"rental_uris":{"android":"levelo://app?vid=e0effb5a-e8c9-4234-ae32-e89cc890b254","ios":"levelo://app?vid=e0effb5a-e8c9-4234-ae32-e89cc890b254"},"vehicle_type_id":"4","last_reported":1766164280,"current_range_meters":11200,"station_id":"st_d3b462108ojc7389ooeg","pricing_plan_id":"cebpf4jnsgd1na2vs0mg"},{"bike_id":"d807ac16-d1e5-4c36-a58d-4108e65b29dc","system_id":"levelo_inurba_marseille","lat":43.2927,"lon":5.38431,"is_reserved":false,"is_disabled":false,"rental_uris":{"android":"levelo://app?vid=d807ac16-d1e5-4c36-a58d-4108e65b29dc","ios":"levelo://app?vid=d807ac16-d1e5-4c36-a58d-4108e65b29dc"},"vehicle_type_id":"4","last_reported":1766164280,"current_range_meters":11200,"station_id":"ce4bh692rcd13ifvqea0","pricing_plan_id":"cebpf4jnsgd1na2vs0mg"},{"bike_id":"cf4504aa-b4d1-4727-97f3-c9bc892126aa","system_id":"levelo_inurba_marseille","lat":43.27564,"lon":5.38411,"is_reserved":false,"is_disabled":false,"rental_uris":{"android":"levelo://app?vid=cf4504aa-b4d1-4727-97f3-c9bc892126aa","ios":"levelo://app?vid=cf4504aa-b4d1-4727-97f3-c9bc892126aa"},"vehicle_type_id":"4","last_reported":1766164280,"current_range_meters":11200,"station_id":"ce4bhh92rcd13ifvqfi0","pricing_plan_id":"cebpf4jnsgd1na2vs0mg"},{"bike_id":"adee7e1f-a57a-45aa-b1df-33a4a60627e7","system_id":"levelo_inurba_marseille","lat":43.30656,"lon":5.40069,"is_reserved":false,"is_disabled":false,"rental_uris":{"android":"levelo://app?vid=adee7e1f-a57a-45aa-b1df-33a4a60627e7","ios":"levelo://app?vid=adee7e1f-a57a-45aa-b1df-33a4a60627e7"},"vehicle_type_id":"4","last_reported":1766164280,"current_range_meters":11200,"station_id":"ce4bh112rcd13ifvqda0","pricing_plan_id":"cebpf4jnsgd1na2vs0mg"},{"bike_id":"1c70b115-e95b-4353-a432-5565caadd1b0","system_id":"levelo_inurba_marseille","lat":43.28706,"lon":5.37394,"is_reserved":false,"is_disabled":false,"rental_uris":{"android":"levelo://app?vid=1c70b115-e95b-4353-a432-5565caadd1b0","ios":"levelo://app?vid=1c70b115-e95b-4353-a432-5565caadd1b0"},"vehicle_type_id":"4","last_reported":1766164280,"current_range_meters":11200,"station_id":"ce4bh3p2rcd13ifvqdq0","pricing_plan_id":"cebpf4jnsgd1na2vs0mg"},{"bike_id":"81cdd19c-9eb0-4b68-8437-f268e3e9b7c5","system_id":"levelo_inurba_marseille","lat":43.264972,"lon":5.395361,"is_reserved":false,"is_disabled":false,"rental_uris":{"android":"levelo://app?vid=81cdd19c-9eb0-4b68-8437-f268e3e9b7c5","ios":"levelo://app?vid=81cdd19c-9eb0-4b68-8437-f268e3e9b7c5"},"vehicle_type_id":"4","last_reported":1766164280,"current_range_meters":11600,"station_id":"ce4bhi12rcd13ifvqfq0","pricing_plan_id":"cebpf4jnsgd1na2vs0mg"},{"bike_id":"3a68f052-ef14-4b15-a197-210bb3d4845c","system_id":"levelo_inurba_marseille","lat":43.28574,"lon":5.39492,"is_reserved":false,"is_disabled":false,"rental_uris":{"android":"levelo://app?vid=3a68f052-ef14-4b15-a197-210bb3d4845c","ios":"levelo://app?vid=3a68f052-ef14-4b15-a197-210bb3d4845c"},"vehicle_type_id":"4","last_reported":1766164280,"current_range_meters":11600,"station_id":"ce4bh292rcd13ifvqdg0","pricing_plan_id":"cebpf4jnsgd1na2vs0mg"},{"bike_id":"fcae12e9-dde1-430e-95a7-f5567d679aa5","system_id":"levelo_inurba_marseille","lat":43.29261,"lon":5.38436,"is_reserved":false,"is_disabled":true,"rental_uris":{"android":"levelo://app?vid=fcae12e9-dde1-430e-95a7-f5567d679aa5","ios":"levelo://app?vid=fcae12e9-dde1-430e-95a7-f5567d679aa5"},"vehicle_type_id":"4","last_reported":1766164280,"current_range_meters":11600,"station_id":"ce4bh692rcd13ifvqea0","pricing_plan_id":"cebpf4jnsgd1na2vs0mg"},{"bike_id":"5d1c96a7-cbd2-4fd1-a2a3-87094e8c862e","system_id":"levelo_inurba_marseille","lat":43.31265,"lon":5.40174,"is_reserved":false,"is_disabled":false,"rental_uris":{"android":"levelo://app?vid=5d1c96a7-cbd2-4fd1-a2a3-87094e8c862e","ios":"levelo://app?vid=5d1c96a7-cbd2-4fd1-a2a3-87094e8c862e"},"vehicle_type_id":"4","last_reported":1766164280,"current_range_meters":11600,"station_id":"ce4bh092rcd13ifvqd30","pricing_plan_id":"cebpf4jnsgd1na2vs0mg"},{"bike_id":"d4019682-44c3-455d-93b8-3f5cb1951937","system_id":"levelo_inurba_marseille","lat":43.26203,"lon":5.37476,"is_reserved":false,"is_disabled":false,"rental_uris":{"android":"levelo://app?vid=d4019682-44c3-455d-93b8-3f5cb1951937","ios":"levelo://app?vid=d4019682-44c3-455d-93b8-3f5cb1951937"},"vehicle_type_id":"4","last_reported":1766164280,"current_range_meters":11600,"station_id":"ce4bhgp2rcd13ifvqfc0","pricing_plan_id":"cebpf4jnsgd1na2vs0mg"},{"bike_id":"2804a5d3-faa8-4e3b-a458-ce91cd4919af","system_id":"levelo_inurba_marseille","lat":43.29221,"lon":5.36083,"is_reserved":false,"is_disabled":false,"rental_uris":{"android":"levelo://app?vid=2804a5d3-faa8-4e3b-a458-ce91cd4919af","ios":"levelo://app?vid=2804a5d3-faa8-4e3b-a458-ce91cd4919af"},"vehicle_type_id":"4","last_reported":1766164280,"current_range_meters":11600,"station_id":"ce4bhbh2rcd13ifvqeqg","pricing_plan_id":"cebpf4jnsgd1na2vs0mg"},{"bike_id":"09d6475c-bdfd-4092-b664-9a9c12fb55b4","system_id":"levelo_inurba_marseille","lat":43.30253,"lon":5.40063,"is_reserved":false,"is_disabled":false,"rental_uris":{"android":"levelo://app?vid=09d6475c-bdfd-4092-b664-9a9c12fb55b4","ios":"levelo://app?vid=09d6475c-bdfd-4092-b664-9a9c12fb55b4"},"vehicle_type_id":"4","last_reported":1766164280,"current_range_meters":11600,"station_id":"ce4bgvh2rcd13ifvqcs0","pricing_plan_id":"cebpf4jnsgd1na2vs0mg"},{"bike_id":"d54651ee-52a6-40c2-8c73-798568414042","system_id":"levelo_inurba_marseille","lat":43.30149,"lon":5.38084,"is_reserved":false,"is_disabled":false,"rental_uris":{"android":"levelo://app?vid=d54651ee-52a6-40c2-8c73-798568414042","ios":"levelo://app?vid=d54651ee-52a6-40c2-8c73-798568414042"},"vehicle_type_id":"4","last_reported":1766164280,"current_range_meters":11600,"station_id":"ce4bgjp2rcd13ifvqbh0","pricing_plan_id":"cebpf4jnsgd1na2vs0mg"},{"bike_id":"84b0495d-fbaf-4d6a-9501-86968f61d2ec","system_id":"levelo_inurba_marseille","lat":43.29258,"lon":5.38449,"is_reserved":false,"is_disabled":false,"rental_uris":{"android":"levelo://app?vid=84b0495d-fbaf-4d6a-9501-86968f61d2ec","ios":"levelo://app?vid=84b0495d-fbaf-4d6a-9501-86968f61d2ec"},"vehicle_type_id":"4","last_reported":1766164280,"current_range_meters":11600,"station_id":"ce4bh692rcd13ifvqea0","pricing_plan_id":"cebpf4jnsgd1na2vs0mg"},{"bike_id":"6ec9a6be-eed9-4adb-a34f-9a64c85ea37b","system_id":"levelo_inurba_marseille","lat":43.3061,"lon":5.375874,"is_reserved":false,"is_disabled":false,"rental_uris":{"android":"levelo://app?vid=6ec9a6be-eed9-4adb-a34f-9a64c85ea37b","ios":"levelo://app?vid=6ec9a6be-eed9-4adb-a34f-9a64c85ea37b"},"vehicle_type_id":"4","last_reported":1766164280,"current_range_meters":11600,"station_id":"","pricing_plan_id":"cebpf4jnsgd1na2vs0mg"},{"bike_id":"f32c739e-421a-43bf-93bc-2de4acddf79b","system_id":"levelo_inurba_marseille","lat":43.26679,"lon":5.38272,"is_reserved":false,"is_disabled":false,"rental_uris":{"android":"levelo://app?vid=f32c739e-421a-43bf-93bc-2de4acddf79b","ios":"levelo://app?vid=f32c739e-421a-43bf-93bc-2de4acddf79b"},"vehicle_type_id":"4","last_reported":1766164280,"current_range_meters":11600,"station_id":"ce4bhg92rcd13ifvqf90","pricing_plan_id":"cebpf4jnsgd1na2vs0mg"},{"bike_id":"02cb24cc-e062-4b73-80fd-141f91a697f7","system_id":"levelo_inurba_marseille","lat":43.31562,"lon":5.37627,"is_reserved":false,"is_disabled":false,"rental_uris":{"android":"levelo://app?vid=02cb24cc-e062-4b73-80fd-141f91a697f7","ios":"levelo://app?vid=02cb24cc-e062-4b73-80fd-141f91a697f7"},"vehicle_type_id":"4","last_reported":1766164280,"current_range_meters":11600,"station_id":"","pricing_plan_id":"cebpf4jnsgd1na2vs0mg"},{"bike_id":"c62b6609-da92-46f5-9d6c-3e90a163e668","system_id":"levelo_inurba_marseille","lat":43.28607,"lon":5.39875,"is_reserved":false,"is_disabled":false,"rental_uris":{"android":"levelo://app?vid=c62b6609-da92-46f5-9d6c-3e90a163e668","ios":"levelo://app?vid=c62b6609-da92-46f5-9d6c-3e90a163e668"},"vehicle_type_id":"4","last_reported":1766164280,"current_range_meters":11600,"station_id":"st_d4a7ka997mjs738ck50g","pricing_plan_id":"cebpf4jnsgd1na2vs0mg"},{"bike_id":"50f85479-fec1-46fd-b398-b47031d6d2bf","system_id":"levelo_inurba_marseille","lat":43.30555,"lon":5.36687,"is_reserved":false,"is_disabled":false,"rental_uris":{"android":"levelo://app?vid=50f85479-fec1-46fd-b398-b47031d6d2bf","ios":"levelo://app?vid=50f85479-fec1-46fd-b398-b47031d6d2bf"},"vehicle_type_id":"4","last_reported":1766164280,"current_range_meters":12000,"station_id":"ce4bgrp2rcd13ifvqc9g","pricing_plan_id":"cebpf4jnsgd1na2vs0mg"},{"bike_id":"128f68df-e6c8-471d-bf6e-3a9c347712de","system_id":"levelo_inurba_marseille","lat":43.29234,"lon":5.40898,"is_reserved":false,"is_disabled":false,"rental_uris":{"android":"levelo://app?vid=128f68df-e6c8-471d-bf6e-3a9c347712de","ios":"levelo://app?vid=128f68df-e6c8-471d-bf6e-3a9c347712de"},"vehicle_type_id":"4","last_reported":1766164280,"current_range_meters":12000,"station_id":"ce4bh192rcd13ifvqdc0","pricing_plan_id":"cebpf4jnsgd1na2vs0mg"},{"bike_id":"67486f1b-a40b-4e91-8dc3-2d661fa8d1bb","system_id":"levelo_inurba_marseille","lat":43.29208,"lon":5.36071,"is_reserved":false,"is_disabled":false,"rental_uris":{"android":"levelo://app?vid=67486f1b-a40b-4e91-8dc3-2d661fa8d1bb","ios":"levelo://app?vid=67486f1b-a40b-4e91-8dc3-2d661fa8d1bb"},"vehicle_type_id":"4","last_reported":1766164280,"current_range_meters":12000,"station_id":"ce4bhbh2rcd13ifvqeqg","pricing_plan_id":"cebpf4jnsgd1na2vs0mg"},{"bike_id":"42374d19-ac13-4769-80c6-dcc0742be19c","system_id":"levelo_inurba_marseille","lat":43.2799,"lon":5.40011,"is_reserved":false,"is_disabled":false,"rental_uris":{"android":"levelo://app?vid=42374d19-ac13-4769-80c6-dcc0742be19c","ios":"levelo://app?vid=42374d19-ac13-4769-80c6-dcc0742be19c"},"vehicle_type_id":"4","last_reported":1766164280,"current_range_meters":12000,"station_id":"ce4bho92rcd13ifvqh4g","pricing_plan_id":"cebpf4jnsgd1na2vs0mg"},{"bike_id":"dcf784f4-8fb6-484a-a880-b53a6c3cae38","system_id":"levelo_inurba_marseille","lat":43.244702,"lon":5.425324,"is_reserved":false,"is_disabled":false,"rental_uris":{"android":"levelo://app?vid=dcf784f4-8fb6-484a-a880-b53a6c3cae38","ios":"levelo://app?vid=dcf784f4-8fb6-484a-a880-b53a6c3cae38"},"vehicle_type_id":"4","last_reported":1766164280,"current_range_meters":12000,"station_id":"st_d4a3vfp97mjs738cd8kg","pricing_plan_id":"cebpf4jnsgd1na2vs0mg"},{"bike_id":"0e831b8a-ba65-4401-84c3-afd3e8869534","system_id":"levelo_inurba_marseille","lat":43.29637,"lon":5.37141,"is_reserved":false,"is_disabled":false,"rental_uris":{"android":"levelo://app?vid=0e831b8a-ba65-4401-84c3-afd3e8869534","ios":"levelo://app?vid=0e831b8a-ba65-4401-84c3-afd3e8869534"},"vehicle_type_id":"4","last_reported":1766164280,"current_range_meters":12000,"station_id":"ce4bgnh2rcd13ifvqc0g","pricing_plan_id":"cebpf4jnsgd1na2vs0mg"},{"bike_id":"ea1c3c90-d47d-4430-a6bb-7db96537cfa6","system_id":"levelo_inurba_marseille","lat":43.27559,"lon":5.38426,"is_reserved":false,"is_disabled":false,"rental_uris":{"android":"levelo://app?vid=ea1c3c90-d47d-4430-a6bb-7db96537cfa6","ios":"levelo://app?vid=ea1c3c90-d47d-4430-a6bb-7db96537cfa6"},"vehicle_type_id":"4","last_reported":1766164280,"current_range_meters":12000,"station_id":"ce4bhh92rcd13ifvqfi0","pricing_plan_id":"cebpf4jnsgd1na2vs0mg"},{"bike_id":"00a29bb1-88ca-440d-9219-07d673c689ed","system_id":"levelo_inurba_marseille","lat":43.30469,"lon":5.36853,"is_reserved":false,"is_disabled":false,"rental_uris":{"android":"levelo://app?vid=00a29bb1-88ca-440d-9219-07d673c689ed","ios":"levelo://app?vid=00a29bb1-88ca-440d-9219-07d673c689ed"},"vehicle_type_id":"4","last_reported":1766164280,"current_range_meters":12400,"station_id":"","pricing_plan_id":"cebpf4jnsgd1na2vs0mg"},{"bike_id":"5106b053-98d9-4499-94aa-a6d6301718ce","system_id":"levelo_inurba_marseille","lat":43.27832,"lon":5.39202,"is_reserved":false,"is_disabled":false,"rental_uris":{"android":"levelo://app?vid=5106b053-98d9-4499-94aa-a6d6301718ce","ios":"levelo://app?vid=5106b053-98d9-4499-94aa-a6d6301718ce"},"vehicle_type_id":"4","last_reported":1766164280,"current_range_meters":12400,"station_id":"ce4bhjp2rcd13ifvqga0","pricing_plan_id":"cebpf4jnsgd1na2vs0mg"},{"bike_id":"a1fd8253-edff-49f6-95c0-f7c7da314418","system_id":"levelo_inurba_marseille","lat":43.297882,"lon":5.39353,"is_reserved":false,"is_disabled":false,"rental_uris":{"android":"levelo://app?vid=a1fd8253-edff-49f6-95c0-f7c7da314418","ios":"levelo://app?vid=a1fd8253-edff-49f6-95c0-f7c7da314418"},"vehicle_type_id":"4","last_reported":1766164280,"current_range_meters":12400,"station_id":"chh1huq6cuj3fo74tm60","pricing_plan_id":"cebpf4jnsgd1na2vs0mg"},{"bike_id":"f5704f5c-2ecc-4bed-9322-fbdcfa074b08","system_id":"levelo_inurba_marseille","lat":43.24065,"lon":5.37758,"is_reserved":false,"is_disabled":false,"rental_uris":{"android":"levelo://app?vid=f5704f5c-2ecc-4bed-9322-fbdcfa074b08","ios":"levelo://app?vid=f5704f5c-2ecc-4bed-9322-fbdcfa074b08"},"vehicle_type_id":"4","last_reported":1766164280,"current_range_meters":12400,"station_id":"ce4bhnp2rcd13ifvqgvg","pricing_plan_id":"cebpf4jnsgd1na2vs0mg"},{"bike_id":"f76f9e4d-d309-41e5-bccd-e5b55b3c97ca","system_id":"levelo_inurba_marseille","lat":43.28614,"lon":5.35101,"is_reserved":false,"is_disabled":false,"rental_uris":{"android":"levelo://app?vid=f76f9e4d-d309-41e5-bccd-e5b55b3c97ca","ios":"levelo://app?vid=f76f9e4d-d309-41e5-bccd-e5b55b3c97ca"},"vehicle_type_id":"4","last_reported":1766164280,"current_range_meters":12400,"station_id":"ce4bhch2rcd13ifvqeug","pricing_plan_id":"cebpf4jnsgd1na2vs0mg"},{"bike_id":"342831ac-e927-49d6-8b43-22fa72e5bef8","system_id":"levelo_inurba_marseille","lat":43.28032,"lon":5.38725,"is_reserved":false,"is_disabled":false,"rental_uris":{"android":"levelo://app?vid=342831ac-e927-49d6-8b43-22fa72e5bef8","ios":"levelo://app?vid=342831ac-e927-49d6-8b43-22fa72e5bef8"},"vehicle_type_id":"4","last_reported":1766164280,"current_range_meters":12400,"station_id":"","pricing_plan_id":"cebpf4jnsgd1na2vs0mg"},{"bike_id":"fcfc57e7-85bd-4812-95be-af559fea2476","system_id":"levelo_inurba_marseille","lat":43.2929,"lon":5.3746,"is_reserved":false,"is_disabled":false,"rental_uris":{"android":"levelo://app?vid=fcfc57e7-85bd-4812-95be-af559fea2476","ios":"levelo://app?vid=fcfc57e7-85bd-4812-95be-af559fea2476"},"vehicle_type_id":"4","last_reported":1766164280,"current_range_meters":12400,"station_id":"ce4bgi12rcd13ifvqb70","pricing_plan_id":"cebpf4jnsgd1na2vs0mg"},{"bike_id":"c30d876d-65a4-4589-a379-23caf2b5c740","system_id":"levelo_inurba_marseille","lat":43.3043,"lon":5.38888,"is_reserved":false,"is_disabled":false,"rental_uris":{"android":"levelo://app?vid=c30d876d-65a4-4589-a379-23caf2b5c740","ios":"levelo://app?vid=c30d876d-65a4-4589-a379-23caf2b5c740"},"vehicle_type_id":"4","last_reported":1766164280,"current_range_meters":12400,"station_id":"ce4bgk12rcd13ifvqbi0","pricing_plan_id":"cebpf4jnsgd1na2vs0mg"},{"bike_id":"653f46d9-639f-4bc8-9ccf-5c1dda5f0dea","system_id":"levelo_inurba_marseille","lat":43.27996,"lon":5.40014,"is_reserved":false,"is_disabled":false,"rental_uris":{"android":"levelo://app?vid=653f46d9-639f-4bc8-9ccf-5c1dda5f0dea","ios":"levelo://app?vid=653f46d9-639f-4bc8-9ccf-5c1dda5f0dea"},"vehicle_type_id":"4","last_reported":1766164280,"current_range_meters":12400,"station_id":"ce4bho92rcd13ifvqh4g","pricing_plan_id":"cebpf4jnsgd1na2vs0mg"},{"bike_id":"41a8494b-ecd8-4c71-a9cf-6e28feb56007","system_id":"levelo_inurba_marseille","lat":43.31714,"lon":5.43705,"is_reserved":false,"is_disabled":false,"rental_uris":{"android":"levelo://app?vid=41a8494b-ecd8-4c71-a9cf-6e28feb56007","ios":"levelo://app?vid=41a8494b-ecd8-4c71-a9cf-6e28feb56007"},"vehicle_type_id":"4","last_reported":1766164280,"current_range_meters":12400,"station_id":"ce4bhp92rcd13ifvqhcg","pricing_plan_id":"cebpf4jnsgd1na2vs0mg"},{"bike_id":"fcd75001-1344-42ec-a013-2f4c6240ace8","system_id":"levelo_inurba_marseille","lat":43.29809,"lon":5.38655,"is_reserved":false,"is_disabled":false,"rental_uris":{"android":"levelo://app?vid=fcd75001-1344-42ec-a013-2f4c6240ace8","ios":"levelo://app?vid=fcd75001-1344-42ec-a013-2f4c6240ace8"},"vehicle_type_id":"4","last_reported":1766164280,"current_range_meters":12800,"station_id":"","pricing_plan_id":"cebpf4jnsgd1na2vs0mg"},{"bike_id":"5dc013a0-6d5f-425a-8554-3da4042bc007","system_id":"levelo_inurba_marseille","lat":43.22937,"lon":5.35371,"is_reserved":false,"is_disabled":false,"rental_uris":{"android":"levelo://app?vid=5dc013a0-6d5f-425a-8554-3da4042bc007","ios":"levelo://app?vid=5dc013a0-6d5f-425a-8554-3da4042bc007"},"vehicle_type_id":"4","last_reported":1766164280,"current_range_meters":12800,"station_id":"cpo3532slgdg3j2ikp40","pricing_plan_id":"cebpf4jnsgd1na2vs0mg"},{"bike_id":"0d303fc7-606f-4943-9629-57c31a744736","system_id":"levelo_inurba_marseille","lat":43.28537,"lon":5.441,"is_reserved":false,"is_disabled":false,"rental_uris":{"android":"levelo://app?vid=0d303fc7-606f-4943-9629-57c31a744736","ios":"levelo://app?vid=0d303fc7-606f-4943-9629-57c31a744736"},"vehicle_type_id":"4","last_reported":1766164280,"current_range_meters":12800,"station_id":"st_d3j3df2ikq2c7380ej80","pricing_plan_id":"cebpf4jnsgd1na2vs0mg"},{"bike_id":"207776d7-b88e-48a6-b74f-2b1aae5e54c7","system_id":"levelo_inurba_marseille","lat":43.268961,"lon":5.387159,"is_reserved":false,"is_disabled":false,"rental_uris":{"android":"levelo://app?vid=207776d7-b88e-48a6-b74f-2b1aae5e54c7","ios":"levelo://app?vid=207776d7-b88e-48a6-b74f-2b1aae5e54c7"},"vehicle_type_id":"4","last_reported":1766164280,"current_range_meters":12800,"station_id":"","pricing_plan_id":"cebpf4jnsgd1na2vs0mg"},{"bike_id":"6dd02831-3476-40a3-9648-da8b220f9ce0","system_id":"levelo_inurba_marseille","lat":43.30152,"lon":5.38092,"is_reserved":false,"is_disabled":false,"rental_uris":{"android":"levelo://app?vid=6dd02831-3476-40a3-9648-da8b220f9ce0","ios":"levelo://app?vid=6dd02831-3476-40a3-9648-da8b220f9ce0"},"vehicle_type_id":"4","last_reported":1766164280,"current_range_meters":12800,"station_id":"ce4bgjp2rcd13ifvqbh0","pricing_plan_id":"cebpf4jnsgd1na2vs0mg"},{"bike_id":"657677ff-bd0f-45b9-a985-0cee09b5fde2","system_id":"levelo_inurba_marseille","lat":43.31686,"lon":5.43714,"is_reserved":false,"is_disabled":false,"rental_uris":{"android":"levelo://app?vid=657677ff-bd0f-45b9-a985-0cee09b5fde2","ios":"levelo://app?vid=657677ff-bd0f-45b9-a985-0cee09b5fde2"},"vehicle_type_id":"4","last_reported":1766164280,"current_range_meters":12800,"station_id":"ce4bhp92rcd13ifvqhcg","pricing_plan_id":"cebpf4jnsgd1na2vs0mg"},{"bike_id":"e0f84bae-cbb0-4084-a9dd-e2f11ef77ffa","system_id":"levelo_inurba_marseille","lat":43.31073,"lon":5.38357,"is_reserved":false,"is_disabled":false,"rental_uris":{"android":"levelo://app?vid=e0f84bae-cbb0-4084-a9dd-e2f11ef77ffa","ios":"levelo://app?vid=e0f84bae-cbb0-4084-a9dd-e2f11ef77ffa"},"vehicle_type_id":"4","last_reported":1766164280,"current_range_meters":12800,"station_id":"ce4bgv92rcd13ifvqcr0","pricing_plan_id":"cebpf4jnsgd1na2vs0mg"},{"bike_id":"5cfdf108-64c2-4b38-8628-9d012576cd8b","system_id":"levelo_inurba_marseille","lat":43.335405,"lon":5.374705,"is_reserved":false,"is_disabled":false,"rental_uris":{"android":"levelo://app?vid=5cfdf108-64c2-4b38-8628-9d012576cd8b","ios":"levelo://app?vid=5cfdf108-64c2-4b38-8628-9d012576cd8b"},"vehicle_type_id":"4","last_reported":1766164280,"current_range_meters":12800,"station_id":"st_d46tts09ee8s73dlu43g","pricing_plan_id":"cebpf4jnsgd1na2vs0mg"},{"bike_id":"4cc6b93b-7adc-41d3-b680-055ccd8a2e7b","system_id":"levelo_inurba_marseille","lat":43.27619,"lon":5.36109,"is_reserved":false,"is_disabled":false,"rental_uris":{"android":"levelo://app?vid=4cc6b93b-7adc-41d3-b680-055ccd8a2e7b","ios":"levelo://app?vid=4cc6b93b-7adc-41d3-b680-055ccd8a2e7b"},"vehicle_type_id":"4","last_reported":1766164280,"current_range_meters":12800,"station_id":"ce4bgj92rcd13ifvqbe0","pricing_plan_id":"cebpf4jnsgd1na2vs0mg"},{"bike_id":"f1c6ef30-df40-4531-b632-19b3b8de3f93","system_id":"levelo_inurba_marseille","lat":43.337444,"lon":5.374475,"is_reserved":false,"is_disabled":false,"rental_uris":{"android":"levelo://app?vid=f1c6ef30-df40-4531-b632-19b3b8de3f93","ios":"levelo://app?vid=f1c6ef30-df40-4531-b632-19b3b8de3f93"},"vehicle_type_id":"4","last_reported":1766164280,"current_range_meters":13600,"station_id":"","pricing_plan_id":"cebpf4jnsgd1na2vs0mg"},{"bike_id":"17b1f9da-14fb-4b92-8cbf-13e65be9f2bb","system_id":"levelo_inurba_marseille","lat":43.29902,"lon":5.37477,"is_reserved":false,"is_disabled":false,"rental_uris":{"android":"levelo://app?vid=17b1f9da-14fb-4b92-8cbf-13e65be9f2bb","ios":"levelo://app?vid=17b1f9da-14fb-4b92-8cbf-13e65be9f2bb"},"vehicle_type_id":"4","last_reported":1766164280,"current_range_meters":13600,"station_id":"ce4bgjh2rcd13ifvqbg0","pricing_plan_id":"cebpf4jnsgd1na2vs0mg"},{"bike_id":"bcb638ec-1f7a-45bb-913f-62a7a0a453a1","system_id":"levelo_inurba_marseille","lat":43.29842,"lon":5.38599,"is_reserved":false,"is_disabled":false,"rental_uris":{"android":"levelo://app?vid=bcb638ec-1f7a-45bb-913f-62a7a0a453a1","ios":"levelo://app?vid=bcb638ec-1f7a-45bb-913f-62a7a0a453a1"},"vehicle_type_id":"4","last_reported":1766164280,"current_range_meters":13600,"station_id":"","pricing_plan_id":"cebpf4jnsgd1na2vs0mg"},{"bike_id":"1e80a204-7357-4919-a1b8-d655b46214a5","system_id":"levelo_inurba_marseille","lat":43.32365,"lon":5.38879,"is_reserved":false,"is_disabled":false,"rental_uris":{"android":"levelo://app?vid=1e80a204-7357-4919-a1b8-d655b46214a5","ios":"levelo://app?vid=1e80a204-7357-4919-a1b8-d655b46214a5"},"vehicle_type_id":"4","last_reported":1766164280,"current_range_meters":13600,"station_id":"ce4bhqp2rcd13ifvqhog","pricing_plan_id":"cebpf4jnsgd1na2vs0mg"},{"bike_id":"0d9297ce-f2d0-4d3a-b34b-40c0d18a1dd9","system_id":"levelo_inurba_marseille","lat":43.22919,"lon":5.35383,"is_reserved":false,"is_disabled":true,"rental_uris":{"android":"levelo://app?vid=0d9297ce-f2d0-4d3a-b34b-40c0d18a1dd9","ios":"levelo://app?vid=0d9297ce-f2d0-4d3a-b34b-40c0d18a1dd9"},"vehicle_type_id":"4","last_reported":1766164280,"current_range_meters":13600,"station_id":"cpo3532slgdg3j2ikp40","pricing_plan_id":"cebpf4jnsgd1na2vs0mg"},{"bike_id":"bb67b255-5e37-444f-b7a3-316dd67e2430","system_id":"levelo_inurba_marseille","lat":43.29177,"lon":5.35789,"is_reserved":false,"is_disabled":false,"rental_uris":{"android":"levelo://app?vid=bb67b255-5e37-444f-b7a3-316dd67e2430","ios":"levelo://app?vid=bb67b255-5e37-444f-b7a3-316dd67e2430"},"vehicle_type_id":"4","last_reported":1766164280,"current_range_meters":13600,"station_id":"ce4bgh92rcd13ifvqb40","pricing_plan_id":"cebpf4jnsgd1na2vs0mg"},{"bike_id":"8ddf5f0b-8638-4227-b0ee-efe27c023df6","system_id":"levelo_inurba_marseille","lat":43.308014,"lon":5.381433,"is_reserved":false,"is_disabled":false,"rental_uris":{"android":"levelo://app?vid=8ddf5f0b-8638-4227-b0ee-efe27c023df6","ios":"levelo://app?vid=8ddf5f0b-8638-4227-b0ee-efe27c023df6"},"vehicle_type_id":"4","last_reported":1766164280,"current_range_meters":13600,"station_id":"ce4bgjp2rcd13ifvqbh0","pricing_plan_id":"cebpf4jnsgd1na2vs0mg"},{"bike_id":"305ed03b-15ad-425e-810c-5ccb0dbadc90","system_id":"levelo_inurba_marseille","lat":43.30148,"lon":5.37407,"is_reserved":false,"is_disabled":false,"rental_uris":{"android":"levelo://app?vid=305ed03b-15ad-425e-810c-5ccb0dbadc90","ios":"levelo://app?vid=305ed03b-15ad-425e-810c-5ccb0dbadc90"},"vehicle_type_id":"4","last_reported":1766164280,"current_range_meters":13600,"station_id":"ce4bgs92rcd13ifvqcc0","pricing_plan_id":"cebpf4jnsgd1na2vs0mg"},{"bike_id":"59c88d49-2334-4e61-b40e-b21da62bfbe7","system_id":"levelo_inurba_marseille","lat":43.26213,"lon":5.37443,"is_reserved":false,"is_disabled":false,"rental_uris":{"android":"levelo://app?vid=59c88d49-2334-4e61-b40e-b21da62bfbe7","ios":"levelo://app?vid=59c88d49-2334-4e61-b40e-b21da62bfbe7"},"vehicle_type_id":"4","last_reported":1766164280,"current_range_meters":13600,"station_id":"ce4bhgp2rcd13ifvqfc0","pricing_plan_id":"cebpf4jnsgd1na2vs0mg"},{"bike_id":"ca146c2e-28d6-4f35-80b1-efb3bde5d07a","system_id":"levelo_inurba_marseille","lat":43.26564,"lon":5.37293,"is_reserved":false,"is_disabled":false,"rental_uris":{"android":"levelo://app?vid=ca146c2e-28d6-4f35-80b1-efb3bde5d07a","ios":"levelo://app?vid=ca146c2e-28d6-4f35-80b1-efb3bde5d07a"},"vehicle_type_id":"4","last_reported":1766164280,"current_range_meters":13600,"station_id":"ce4bhg12rcd13ifvqf70","pricing_plan_id":"cebpf4jnsgd1na2vs0mg"},{"bike_id":"177fd090-0076-4f92-9832-62b1c96ea1ea","system_id":"levelo_inurba_marseille","lat":43.25332,"lon":5.42186,"is_reserved":false,"is_disabled":true,"rental_uris":{"android":"levelo://app?vid=177fd090-0076-4f92-9832-62b1c96ea1ea","ios":"levelo://app?vid=177fd090-0076-4f92-9832-62b1c96ea1ea"},"vehicle_type_id":"4","last_reported":1766164280,"current_range_meters":13600,"station_id":"st_d2m65c5bi1j21697t3ng","pricing_plan_id":"cebpf4jnsgd1na2vs0mg"},{"bike_id":"1b5dbd7c-c63e-4ef4-99ed-0dfcb5187432","system_id":"levelo_inurba_marseille","lat":43.29043,"lon":5.38898,"is_reserved":false,"is_disabled":false,"rental_uris":{"android":"levelo://app?vid=1b5dbd7c-c63e-4ef4-99ed-0dfcb5187432","ios":"levelo://app?vid=1b5dbd7c-c63e-4ef4-99ed-0dfcb5187432"},"vehicle_type_id":"4","last_reported":1766164280,"current_range_meters":14000,"station_id":"","pricing_plan_id":"cebpf4jnsgd1na2vs0mg"},{"bike_id":"afca2274-5111-474b-8b9e-98de3dfd8280","system_id":"levelo_inurba_marseille","lat":43.30794,"lon":5.38144,"is_reserved":false,"is_disabled":false,"rental_uris":{"android":"levelo://app?vid=afca2274-5111-474b-8b9e-98de3dfd8280","ios":"levelo://app?vid=afca2274-5111-474b-8b9e-98de3dfd8280"},"vehicle_type_id":"4","last_reported":1766164280,"current_range_meters":14000,"station_id":"ce4bgt12rcd13ifvqce0","pricing_plan_id":"cebpf4jnsgd1na2vs0mg"},{"bike_id":"6147b2c8-629e-4457-b54b-c0dc21f0f0aa","system_id":"levelo_inurba_marseille","lat":43.30877,"lon":5.37182,"is_reserved":false,"is_disabled":true,"rental_uris":{"android":"levelo://app?vid=6147b2c8-629e-4457-b54b-c0dc21f0f0aa","ios":"levelo://app?vid=6147b2c8-629e-4457-b54b-c0dc21f0f0aa"},"vehicle_type_id":"4","last_reported":1766164280,"current_range_meters":14000,"station_id":"ce4bguh2rcd13ifvqckg","pricing_plan_id":"cebpf4jnsgd1na2vs0mg"},{"bike_id":"21bef541-b528-4e6e-945e-add850c08eb7","system_id":"levelo_inurba_marseille","lat":43.34143,"lon":5.40895,"is_reserved":false,"is_disabled":false,"rental_uris":{"android":"levelo://app?vid=21bef541-b528-4e6e-945e-add850c08eb7","ios":"levelo://app?vid=21bef541-b528-4e6e-945e-add850c08eb7"},"vehicle_type_id":"4","last_reported":1766164280,"current_range_meters":14000,"station_id":"ce4bhqh2rcd13ifvqhlg","pricing_plan_id":"cebpf4jnsgd1na2vs0mg"},{"bike_id":"63b71f61-0ce8-4f6b-8098-b32775a7e568","system_id":"levelo_inurba_marseille","lat":43.32115,"lon":5.36773,"is_reserved":false,"is_disabled":false,"rental_uris":{"android":"levelo://app?vid=63b71f61-0ce8-4f6b-8098-b32775a7e568","ios":"levelo://app?vid=63b71f61-0ce8-4f6b-8098-b32775a7e568"},"vehicle_type_id":"4","last_reported":1766164280,"current_range_meters":14400,"station_id":"ce4bhrh2rcd13ifvqhug","pricing_plan_id":"cebpf4jnsgd1na2vs0mg"},{"bike_id":"bbe6d64f-2cb1-409d-ba24-ff27de876e43","system_id":"levelo_inurba_marseille","lat":43.285382,"lon":5.441033,"is_reserved":false,"is_disabled":false,"rental_uris":{"android":"levelo://app?vid=bbe6d64f-2cb1-409d-ba24-ff27de876e43","ios":"levelo://app?vid=bbe6d64f-2cb1-409d-ba24-ff27de876e43"},"vehicle_type_id":"4","last_reported":1766164280,"current_range_meters":14400,"station_id":"st_d3j3df2ikq2c7380ej80","pricing_plan_id":"cebpf4jnsgd1na2vs0mg"},{"bike_id":"68b52151-88b1-4698-96c1-adf80b02a94c","system_id":"levelo_inurba_marseille","lat":43.278179,"lon":5.407134,"is_reserved":false,"is_disabled":false,"rental_uris":{"android":"levelo://app?vid=68b52151-88b1-4698-96c1-adf80b02a94c","ios":"levelo://app?vid=68b52151-88b1-4698-96c1-adf80b02a94c"},"vehicle_type_id":"4","last_reported":1766164280,"current_range_meters":14400,"station_id":"ce4bhnh2rcd13ifvqgtg","pricing_plan_id":"cebpf4jnsgd1na2vs0mg"},{"bike_id":"99ad97c1-5a83-4b1c-9cf1-08492f7d7210","system_id":"levelo_inurba_marseille","lat":43.29249,"lon":5.409,"is_reserved":false,"is_disabled":false,"rental_uris":{"android":"levelo://app?vid=99ad97c1-5a83-4b1c-9cf1-08492f7d7210","ios":"levelo://app?vid=99ad97c1-5a83-4b1c-9cf1-08492f7d7210"},"vehicle_type_id":"4","last_reported":1766164280,"current_range_meters":14400,"station_id":"ce4bh192rcd13ifvqdc0","pricing_plan_id":"cebpf4jnsgd1na2vs0mg"},{"bike_id":"f2364b2e-178e-40c8-8681-6c34f1d777d6","system_id":"levelo_inurba_marseille","lat":43.30791,"lon":5.37655,"is_reserved":false,"is_disabled":false,"rental_uris":{"android":"levelo://app?vid=f2364b2e-178e-40c8-8681-6c34f1d777d6","ios":"levelo://app?vid=f2364b2e-178e-40c8-8681-6c34f1d777d6"},"vehicle_type_id":"4","last_reported":1766164280,"current_range_meters":14400,"station_id":"ce4bgv92rcd13ifvqcq0","pricing_plan_id":"cebpf4jnsgd1na2vs0mg"},{"bike_id":"d6d2bb3a-fbb7-4a3d-8530-972c5de173fe","system_id":"levelo_inurba_marseille","lat":43.231979,"lon":5.355559,"is_reserved":false,"is_disabled":false,"rental_uris":{"android":"levelo://app?vid=d6d2bb3a-fbb7-4a3d-8530-972c5de173fe","ios":"levelo://app?vid=d6d2bb3a-fbb7-4a3d-8530-972c5de173fe"},"vehicle_type_id":"4","last_reported":1766164280,"current_range_meters":14400,"station_id":"ce4bhu92rcd13ifvqi70","pricing_plan_id":"cebpf4jnsgd1na2vs0mg"},{"bike_id":"49eaeb99-01db-4a25-87fd-cb6c87f1647c","system_id":"levelo_inurba_marseille","lat":43.30143,"lon":5.43085,"is_reserved":false,"is_disabled":false,"rental_uris":{"android":"levelo://app?vid=49eaeb99-01db-4a25-87fd-cb6c87f1647c","ios":"levelo://app?vid=49eaeb99-01db-4a25-87fd-cb6c87f1647c"},"vehicle_type_id":"4","last_reported":1766164280,"current_range_meters":14400,"station_id":"st_d3js3co5814s73ftftug","pricing_plan_id":"cebpf4jnsgd1na2vs0mg"},{"bike_id":"5aa6494d-0eee-4a3c-bc5e-0d25343561e5","system_id":"levelo_inurba_marseille","lat":43.27047,"lon":5.38276,"is_reserved":false,"is_disabled":false,"rental_uris":{"android":"levelo://app?vid=5aa6494d-0eee-4a3c-bc5e-0d25343561e5","ios":"levelo://app?vid=5aa6494d-0eee-4a3c-bc5e-0d25343561e5"},"vehicle_type_id":"4","last_reported":1766164280,"current_range_meters":14400,"station_id":"st_d3n2fo6cfp8s73cte1j0","pricing_plan_id":"cebpf4jnsgd1na2vs0mg"},{"bike_id":"3d8062de-4bd0-49c7-86a6-7bf3b5df4845","system_id":"levelo_inurba_marseille","lat":43.2847,"lon":5.48396,"is_reserved":false,"is_disabled":false,"rental_uris":{"android":"levelo://app?vid=3d8062de-4bd0-49c7-86a6-7bf3b5df4845","ios":"levelo://app?vid=3d8062de-4bd0-49c7-86a6-7bf3b5df4845"},"vehicle_type_id":"4","last_reported":1766164280,"current_range_meters":14400,"station_id":"st_d3svhcjqgbts73a3dn0g","pricing_plan_id":"cebpf4jnsgd1na2vs0mg"},{"bike_id":"25d10222-c173-4842-83dc-73c159ca8d0d","system_id":"levelo_inurba_marseille","lat":43.30477,"lon":5.37901,"is_reserved":false,"is_disabled":false,"rental_uris":{"android":"levelo://app?vid=25d10222-c173-4842-83dc-73c159ca8d0d","ios":"levelo://app?vid=25d10222-c173-4842-83dc-73c159ca8d0d"},"vehicle_type_id":"4","last_reported":1766164280,"current_range_meters":14400,"station_id":"ce4bgup2rcd13ifvqcn0","pricing_plan_id":"cebpf4jnsgd1na2vs0mg"},{"bike_id":"e18d88c4-447f-4613-ac8f-5a6e3bb9a21c","system_id":"levelo_inurba_marseille","lat":43.298159,"lon":5.440672,"is_reserved":false,"is_disabled":false,"rental_uris":{"android":"levelo://app?vid=e18d88c4-447f-4613-ac8f-5a6e3bb9a21c","ios":"levelo://app?vid=e18d88c4-447f-4613-ac8f-5a6e3bb9a21c"},"vehicle_type_id":"4","last_reported":1766164280,"current_range_meters":14400,"station_id":"st_d3jp68qikq2c7381ktn0","pricing_plan_id":"cebpf4jnsgd1na2vs0mg"},{"bike_id":"f7839686-7e1e-4ec1-b87e-d8478aa2b463","system_id":"levelo_inurba_marseille","lat":43.28699,"lon":5.37383,"is_reserved":false,"is_disabled":false,"rental_uris":{"android":"levelo://app?vid=f7839686-7e1e-4ec1-b87e-d8478aa2b463","ios":"levelo://app?vid=f7839686-7e1e-4ec1-b87e-d8478aa2b463"},"vehicle_type_id":"4","last_reported":1766164280,"current_range_meters":14400,"station_id":"ce4bh3p2rcd13ifvqdq0","pricing_plan_id":"cebpf4jnsgd1na2vs0mg"},{"bike_id":"69c3f84c-538e-44ec-83d7-afeadec5cdfe","system_id":"levelo_inurba_marseille","lat":43.233588,"lon":5.399359,"is_reserved":false,"is_disabled":false,"rental_uris":{"android":"levelo://app?vid=69c3f84c-538e-44ec-83d7-afeadec5cdfe","ios":"levelo://app?vid=69c3f84c-538e-44ec-83d7-afeadec5cdfe"},"vehicle_type_id":"4","last_reported":1766164280,"current_range_meters":14400,"station_id":"","pricing_plan_id":"cebpf4jnsgd1na2vs0mg"},{"bike_id":"9f5740fa-3153-4a01-8cd2-77e06ccb53bc","system_id":"levelo_inurba_marseille","lat":43.29723,"lon":5.37689,"is_reserved":false,"is_disabled":false,"rental_uris":{"android":"levelo://app?vid=9f5740fa-3153-4a01-8cd2-77e06ccb53bc","ios":"levelo://app?vid=9f5740fa-3153-4a01-8cd2-77e06ccb53bc"},"vehicle_type_id":"4","last_reported":1766164280,"current_range_meters":14400,"station_id":"ce4bgkh2rcd13ifvqbl0","pricing_plan_id":"cebpf4jnsgd1na2vs0mg"},{"bike_id":"acd1113f-9fa8-47d0-afe0-3d4b6286c877","system_id":"levelo_inurba_marseille","lat":43.31239,"lon":5.36891,"is_reserved":false,"is_disabled":false,"rental_uris":{"android":"levelo://app?vid=acd1113f-9fa8-47d0-afe0-3d4b6286c877","ios":"levelo://app?vid=acd1113f-9fa8-47d0-afe0-3d4b6286c877"},"vehicle_type_id":"4","last_reported":1766164280,"current_range_meters":14400,"station_id":"ce4bgl92rcd13ifvqbq0","pricing_plan_id":"cebpf4jnsgd1na2vs0mg"},{"bike_id":"8fcf17e9-6f12-40c5-b477-90499f0bb83c","system_id":"levelo_inurba_marseille","lat":43.337444,"lon":5.374475,"is_reserved":false,"is_disabled":false,"rental_uris":{"android":"levelo://app?vid=8fcf17e9-6f12-40c5-b477-90499f0bb83c","ios":"levelo://app?vid=8fcf17e9-6f12-40c5-b477-90499f0bb83c"},"vehicle_type_id":"4","last_reported":1766164280,"current_range_meters":14800,"station_id":"","pricing_plan_id":"cebpf4jnsgd1na2vs0mg"},{"bike_id":"025bcf3c-9127-4e0c-b7ed-8709d35ce958","system_id":"levelo_inurba_marseille","lat":43.317324,"lon":5.372052,"is_reserved":false,"is_disabled":false,"rental_uris":{"android":"levelo://app?vid=025bcf3c-9127-4e0c-b7ed-8709d35ce958","ios":"levelo://app?vid=025bcf3c-9127-4e0c-b7ed-8709d35ce958"},"vehicle_type_id":"4","last_reported":1766164280,"current_range_meters":14800,"station_id":"","pricing_plan_id":"cebpf4jnsgd1na2vs0mg"},{"bike_id":"eb1341ba-ba7e-4c28-827b-ac87efb87a9d","system_id":"levelo_inurba_marseille","lat":43.23754,"lon":5.36607,"is_reserved":false,"is_disabled":false,"rental_uris":{"android":"levelo://app?vid=eb1341ba-ba7e-4c28-827b-ac87efb87a9d","ios":"levelo://app?vid=eb1341ba-ba7e-4c28-827b-ac87efb87a9d"},"vehicle_type_id":"4","last_reported":1766164280,"current_range_meters":14800,"station_id":"st_d3nk18o9ro0c73en2l3g","pricing_plan_id":"cebpf4jnsgd1na2vs0mg"},{"bike_id":"d50273a9-2cf9-4ba9-bcf4-4b4339a60a99","system_id":"levelo_inurba_marseille","lat":43.28846,"lon":5.35853,"is_reserved":false,"is_disabled":false,"rental_uris":{"android":"levelo://app?vid=d50273a9-2cf9-4ba9-bcf4-4b4339a60a99","ios":"levelo://app?vid=d50273a9-2cf9-4ba9-bcf4-4b4339a60a99"},"vehicle_type_id":"4","last_reported":1766164280,"current_range_meters":14800,"station_id":"ce4bhb12rcd13ifvqem0","pricing_plan_id":"cebpf4jnsgd1na2vs0mg"},{"bike_id":"960000b9-5f6a-4874-8ba2-61bf0329fc25","system_id":"levelo_inurba_marseille","lat":43.30652,"lon":5.41016,"is_reserved":false,"is_disabled":false,"rental_uris":{"android":"levelo://app?vid=960000b9-5f6a-4874-8ba2-61bf0329fc25","ios":"levelo://app?vid=960000b9-5f6a-4874-8ba2-61bf0329fc25"},"vehicle_type_id":"4","last_reported":1766164280,"current_range_meters":14800,"station_id":"","pricing_plan_id":"cebpf4jnsgd1na2vs0mg"},{"bike_id":"e9d58d1e-c5b2-41a8-b6ef-892cd112849c","system_id":"levelo_inurba_marseille","lat":43.30143,"lon":5.38082,"is_reserved":false,"is_disabled":false,"rental_uris":{"android":"levelo://app?vid=e9d58d1e-c5b2-41a8-b6ef-892cd112849c","ios":"levelo://app?vid=e9d58d1e-c5b2-41a8-b6ef-892cd112849c"},"vehicle_type_id":"4","last_reported":1766164280,"current_range_meters":14800,"station_id":"ce4bgjp2rcd13ifvqbh0","pricing_plan_id":"cebpf4jnsgd1na2vs0mg"},{"bike_id":"9e1886ee-5978-4b4e-a4ad-7b1a3973e38d","system_id":"levelo_inurba_marseille","lat":43.311717,"lon":5.387126,"is_reserved":false,"is_disabled":false,"rental_uris":{"android":"levelo://app?vid=9e1886ee-5978-4b4e-a4ad-7b1a3973e38d","ios":"levelo://app?vid=9e1886ee-5978-4b4e-a4ad-7b1a3973e38d"},"vehicle_type_id":"4","last_reported":1766164280,"current_range_meters":14800,"station_id":"ce4bgv12rcd13ifvqcp0","pricing_plan_id":"cebpf4jnsgd1na2vs0mg"},{"bike_id":"7c03507d-6bc5-4440-9110-2ce8a675d9a4","system_id":"levelo_inurba_marseille","lat":43.291948,"lon":5.358013,"is_reserved":false,"is_disabled":false,"rental_uris":{"android":"levelo://app?vid=7c03507d-6bc5-4440-9110-2ce8a675d9a4","ios":"levelo://app?vid=7c03507d-6bc5-4440-9110-2ce8a675d9a4"},"vehicle_type_id":"4","last_reported":1766164280,"current_range_meters":14800,"station_id":"ce4bhb12rcd13ifvqel0","pricing_plan_id":"cebpf4jnsgd1na2vs0mg"},{"bike_id":"b65eb34d-4d10-4309-9fda-cf6bed872354","system_id":"levelo_inurba_marseille","lat":43.29279,"lon":5.40138,"is_reserved":false,"is_disabled":false,"rental_uris":{"android":"levelo://app?vid=b65eb34d-4d10-4309-9fda-cf6bed872354","ios":"levelo://app?vid=b65eb34d-4d10-4309-9fda-cf6bed872354"},"vehicle_type_id":"4","last_reported":1766164280,"current_range_meters":14800,"station_id":"ce4bh312rcd13ifvqdk0","pricing_plan_id":"cebpf4jnsgd1na2vs0mg"},{"bike_id":"06c5fccb-feb8-4ccd-ba7b-a53b73e5ec3a","system_id":"levelo_inurba_marseille","lat":43.26933,"lon":5.389228,"is_reserved":false,"is_disabled":false,"rental_uris":{"android":"levelo://app?vid=06c5fccb-feb8-4ccd-ba7b-a53b73e5ec3a","ios":"levelo://app?vid=06c5fccb-feb8-4ccd-ba7b-a53b73e5ec3a"},"vehicle_type_id":"4","last_reported":1766164280,"current_range_meters":14800,"station_id":"ce4bhhh2rcd13ifvqfl0","pricing_plan_id":"cebpf4jnsgd1na2vs0mg"},{"bike_id":"6244ba23-4432-4050-a6de-b074545c45d3","system_id":"levelo_inurba_marseille","lat":43.24166,"lon":5.36409,"is_reserved":false,"is_disabled":false,"rental_uris":{"android":"levelo://app?vid=6244ba23-4432-4050-a6de-b074545c45d3","ios":"levelo://app?vid=6244ba23-4432-4050-a6de-b074545c45d3"},"vehicle_type_id":"4","last_reported":1766164280,"current_range_meters":14800,"station_id":"cpo36qri1sfpv3e86is0","pricing_plan_id":"cebpf4jnsgd1na2vs0mg"},{"bike_id":"342f1aab-f383-4095-9af9-476f39ec27e6","system_id":"levelo_inurba_marseille","lat":43.22554,"lon":5.41632,"is_reserved":false,"is_disabled":false,"rental_uris":{"android":"levelo://app?vid=342f1aab-f383-4095-9af9-476f39ec27e6","ios":"levelo://app?vid=342f1aab-f383-4095-9af9-476f39ec27e6"},"vehicle_type_id":"4","last_reported":1766164280,"current_range_meters":14800,"station_id":"st_d2o4gvlbi1j2169b742g","pricing_plan_id":"cebpf4jnsgd1na2vs0mg"},{"bike_id":"20e9dd8e-ed66-4bff-9188-35cbfde59a24","system_id":"levelo_inurba_marseille","lat":43.32323,"lon":5.39369,"is_reserved":false,"is_disabled":false,"rental_uris":{"android":"levelo://app?vid=20e9dd8e-ed66-4bff-9188-35cbfde59a24","ios":"levelo://app?vid=20e9dd8e-ed66-4bff-9188-35cbfde59a24"},"vehicle_type_id":"4","last_reported":1766164280,"current_range_meters":14800,"station_id":"","pricing_plan_id":"cebpf4jnsgd1na2vs0mg"},{"bike_id":"a41c2d2f-9d31-4631-94d6-8fc21cde05e6","system_id":"levelo_inurba_marseille","lat":43.280015,"lon":5.400128,"is_reserved":false,"is_disabled":false,"rental_uris":{"android":"levelo://app?vid=a41c2d2f-9d31-4631-94d6-8fc21cde05e6","ios":"levelo://app?vid=a41c2d2f-9d31-4631-94d6-8fc21cde05e6"},"vehicle_type_id":"4","last_reported":1766164280,"current_range_meters":14800,"station_id":"ce4bho92rcd13ifvqh4g","pricing_plan_id":"cebpf4jnsgd1na2vs0mg"},{"bike_id":"b3496e38-a821-48c1-9f1d-42c373662bce","system_id":"levelo_inurba_marseille","lat":43.2558,"lon":5.38223,"is_reserved":false,"is_disabled":false,"rental_uris":{"android":"levelo://app?vid=b3496e38-a821-48c1-9f1d-42c373662bce","ios":"levelo://app?vid=b3496e38-a821-48c1-9f1d-42c373662bce"},"vehicle_type_id":"4","last_reported":1766164280,"current_range_meters":14800,"station_id":"ce4bhih2rcd13ifvqfs0","pricing_plan_id":"cebpf4jnsgd1na2vs0mg"},{"bike_id":"7a2810d9-a7a2-4f55-a626-e3338912c6bf","system_id":"levelo_inurba_marseille","lat":43.33746,"lon":5.37476,"is_reserved":false,"is_disabled":false,"rental_uris":{"android":"levelo://app?vid=7a2810d9-a7a2-4f55-a626-e3338912c6bf","ios":"levelo://app?vid=7a2810d9-a7a2-4f55-a626-e3338912c6bf"},"vehicle_type_id":"4","last_reported":1766164280,"current_range_meters":15200,"station_id":"","pricing_plan_id":"cebpf4jnsgd1na2vs0mg"},{"bike_id":"78567a20-b1ed-46c4-a479-2ee451b65c20","system_id":"levelo_inurba_marseille","lat":43.29576,"lon":5.37512,"is_reserved":false,"is_disabled":false,"rental_uris":{"android":"levelo://app?vid=78567a20-b1ed-46c4-a479-2ee451b65c20","ios":"levelo://app?vid=78567a20-b1ed-46c4-a479-2ee451b65c20"},"vehicle_type_id":"4","last_reported":1766164280,"current_range_meters":15200,"station_id":"ce4bgh92rcd13ifvqb50","pricing_plan_id":"cebpf4jnsgd1na2vs0mg"},{"bike_id":"ce634916-e630-4474-8c32-4b2bfe924f7f","system_id":"levelo_inurba_marseille","lat":43.24644,"lon":5.43127,"is_reserved":false,"is_disabled":false,"rental_uris":{"android":"levelo://app?vid=ce634916-e630-4474-8c32-4b2bfe924f7f","ios":"levelo://app?vid=ce634916-e630-4474-8c32-4b2bfe924f7f"},"vehicle_type_id":"4","last_reported":1766164280,"current_range_meters":15200,"station_id":"st_d2m6c4gdas8pm72e190g","pricing_plan_id":"cebpf4jnsgd1na2vs0mg"},{"bike_id":"6bb7cf08-cc4f-43ae-aed3-8d6ab6b6c137","system_id":"levelo_inurba_marseille","lat":43.33158,"lon":5.37691,"is_reserved":false,"is_disabled":false,"rental_uris":{"android":"levelo://app?vid=6bb7cf08-cc4f-43ae-aed3-8d6ab6b6c137","ios":"levelo://app?vid=6bb7cf08-cc4f-43ae-aed3-8d6ab6b6c137"},"vehicle_type_id":"4","last_reported":1766164280,"current_range_meters":15200,"station_id":"st_d46cu089ee8s73dldbu0","pricing_plan_id":"cebpf4jnsgd1na2vs0mg"},{"bike_id":"ff400a14-182c-4479-9723-f211d61c81db","system_id":"levelo_inurba_marseille","lat":43.32003,"lon":5.40379,"is_reserved":false,"is_disabled":false,"rental_uris":{"android":"levelo://app?vid=ff400a14-182c-4479-9723-f211d61c81db","ios":"levelo://app?vid=ff400a14-182c-4479-9723-f211d61c81db"},"vehicle_type_id":"4","last_reported":1766164280,"current_range_meters":15200,"station_id":"","pricing_plan_id":"cebpf4jnsgd1na2vs0mg"},{"bike_id":"10db4bca-29de-47aa-8298-e82e9230661d","system_id":"levelo_inurba_marseille","lat":43.312753,"lon":5.401803,"is_reserved":false,"is_disabled":false,"rental_uris":{"android":"levelo://app?vid=10db4bca-29de-47aa-8298-e82e9230661d","ios":"levelo://app?vid=10db4bca-29de-47aa-8298-e82e9230661d"},"vehicle_type_id":"4","last_reported":1766164280,"current_range_meters":15200,"station_id":"","pricing_plan_id":"cebpf4jnsgd1na2vs0mg"},{"bike_id":"9655297c-6cf3-44bd-9ee0-614296cdb6c6","system_id":"levelo_inurba_marseille","lat":43.33021,"lon":5.39036,"is_reserved":false,"is_disabled":false,"rental_uris":{"android":"levelo://app?vid=9655297c-6cf3-44bd-9ee0-614296cdb6c6","ios":"levelo://app?vid=9655297c-6cf3-44bd-9ee0-614296cdb6c6"},"vehicle_type_id":"4","last_reported":1766164280,"current_range_meters":15200,"station_id":"ce4bhr92rcd13ifvqhrg","pricing_plan_id":"cebpf4jnsgd1na2vs0mg"},{"bike_id":"55732066-12e5-4347-9f53-840ae58de829","system_id":"levelo_inurba_marseille","lat":43.29967,"lon":5.37194,"is_reserved":false,"is_disabled":false,"rental_uris":{"android":"levelo://app?vid=55732066-12e5-4347-9f53-840ae58de829","ios":"levelo://app?vid=55732066-12e5-4347-9f53-840ae58de829"},"vehicle_type_id":"4","last_reported":1766164280,"current_range_meters":15200,"station_id":"ce4bgr92rcd13ifvqc7g","pricing_plan_id":"cebpf4jnsgd1na2vs0mg"},{"bike_id":"d26729f5-210b-4096-acd6-99d477896379","system_id":"levelo_inurba_marseille","lat":43.24998,"lon":5.38908,"is_reserved":false,"is_disabled":false,"rental_uris":{"android":"levelo://app?vid=d26729f5-210b-4096-acd6-99d477896379","ios":"levelo://app?vid=d26729f5-210b-4096-acd6-99d477896379"},"vehicle_type_id":"4","last_reported":1766164280,"current_range_meters":15200,"station_id":"ce4bhgp2rcd13ifvqfd0","pricing_plan_id":"cebpf4jnsgd1na2vs0mg"},{"bike_id":"8580f57b-5aa3-4bcd-953e-6f28ee58972f","system_id":"levelo_inurba_marseille","lat":43.24641,"lon":5.43123,"is_reserved":false,"is_disabled":false,"rental_uris":{"android":"levelo://app?vid=8580f57b-5aa3-4bcd-953e-6f28ee58972f","ios":"levelo://app?vid=8580f57b-5aa3-4bcd-953e-6f28ee58972f"},"vehicle_type_id":"4","last_reported":1766164280,"current_range_meters":15200,"station_id":"st_d2m6c4gdas8pm72e190g","pricing_plan_id":"cebpf4jnsgd1na2vs0mg"},{"bike_id":"7c7ea4af-bb75-4279-961d-65bbfa6e5e24","system_id":"levelo_inurba_marseille","lat":43.30129,"lon":5.39866,"is_reserved":false,"is_disabled":false,"rental_uris":{"android":"levelo://app?vid=7c7ea4af-bb75-4279-961d-65bbfa6e5e24","ios":"levelo://app?vid=7c7ea4af-bb75-4279-961d-65bbfa6e5e24"},"vehicle_type_id":"4","last_reported":1766164280,"current_range_meters":15200,"station_id":"ce4bh0h2rcd13ifvqd40","pricing_plan_id":"cebpf4jnsgd1na2vs0mg"},{"bike_id":"32c5bc08-6a94-4a43-8576-96cdc19fcc71","system_id":"levelo_inurba_marseille","lat":43.26192,"lon":5.37447,"is_reserved":false,"is_disabled":false,"rental_uris":{"android":"levelo://app?vid=32c5bc08-6a94-4a43-8576-96cdc19fcc71","ios":"levelo://app?vid=32c5bc08-6a94-4a43-8576-96cdc19fcc71"},"vehicle_type_id":"4","last_reported":1766164280,"current_range_meters":15200,"station_id":"ce4bhgp2rcd13ifvqfc0","pricing_plan_id":"cebpf4jnsgd1na2vs0mg"},{"bike_id":"025b4a43-9c11-4504-9502-51f200349bee","system_id":"levelo_inurba_marseille","lat":43.23184,"lon":5.39985,"is_reserved":false,"is_disabled":false,"rental_uris":{"android":"levelo://app?vid=025b4a43-9c11-4504-9502-51f200349bee","ios":"levelo://app?vid=025b4a43-9c11-4504-9502-51f200349bee"},"vehicle_type_id":"4","last_reported":1766164280,"current_range_meters":15200,"station_id":"ce4bhn12rcd13ifvqgqg","pricing_plan_id":"cebpf4jnsgd1na2vs0mg"},{"bike_id":"47f79f3e-3f2a-43d2-bb44-5c5cb4e20a09","system_id":"levelo_inurba_marseille","lat":43.28475,"lon":5.3842,"is_reserved":false,"is_disabled":false,"rental_uris":{"android":"levelo://app?vid=47f79f3e-3f2a-43d2-bb44-5c5cb4e20a09","ios":"levelo://app?vid=47f79f3e-3f2a-43d2-bb44-5c5cb4e20a09"},"vehicle_type_id":"4","last_reported":1766164280,"current_range_meters":15200,"station_id":"ce4bh512rcd13ifvqe3g","pricing_plan_id":"cebpf4jnsgd1na2vs0mg"},{"bike_id":"576f1f90-c184-4b62-a057-c35da25b7107","system_id":"levelo_inurba_marseille","lat":43.292633,"lon":5.384487,"is_reserved":false,"is_disabled":false,"rental_uris":{"android":"levelo://app?vid=576f1f90-c184-4b62-a057-c35da25b7107","ios":"levelo://app?vid=576f1f90-c184-4b62-a057-c35da25b7107"},"vehicle_type_id":"4","last_reported":1766164280,"current_range_meters":15200,"station_id":"ce4bh692rcd13ifvqea0","pricing_plan_id":"cebpf4jnsgd1na2vs0mg"},{"bike_id":"d7038aa1-2d4f-4096-833b-2e7f97ddfdf6","system_id":"levelo_inurba_marseille","lat":43.30132,"lon":5.3987,"is_reserved":false,"is_disabled":false,"rental_uris":{"android":"levelo://app?vid=d7038aa1-2d4f-4096-833b-2e7f97ddfdf6","ios":"levelo://app?vid=d7038aa1-2d4f-4096-833b-2e7f97ddfdf6"},"vehicle_type_id":"4","last_reported":1766164280,"current_range_meters":16000,"station_id":"ce4bh0h2rcd13ifvqd40","pricing_plan_id":"cebpf4jnsgd1na2vs0mg"},{"bike_id":"d2a86950-00b0-4344-a51f-0dc364389c5b","system_id":"levelo_inurba_marseille","lat":43.289387,"lon":5.366334,"is_reserved":false,"is_disabled":true,"rental_uris":{"android":"levelo://app?vid=d2a86950-00b0-4344-a51f-0dc364389c5b","ios":"levelo://app?vid=d2a86950-00b0-4344-a51f-0dc364389c5b"},"vehicle_type_id":"4","last_reported":1766164280,"current_range_meters":16000,"station_id":"","pricing_plan_id":"cebpf4jnsgd1na2vs0mg"},{"bike_id":"68e50280-ceb0-4170-b546-77d57d5587a8","system_id":"levelo_inurba_marseille","lat":43.26564,"lon":5.39017,"is_reserved":false,"is_disabled":false,"rental_uris":{"android":"levelo://app?vid=68e50280-ceb0-4170-b546-77d57d5587a8","ios":"levelo://app?vid=68e50280-ceb0-4170-b546-77d57d5587a8"},"vehicle_type_id":"4","last_reported":1766164280,"current_range_meters":16000,"station_id":"ce4bhe12rcd13ifvqf30","pricing_plan_id":"cebpf4jnsgd1na2vs0mg"},{"bike_id":"fc11ff76-245d-485d-91df-837545698704","system_id":"levelo_inurba_marseille","lat":43.268906,"lon":5.403202,"is_reserved":false,"is_disabled":false,"rental_uris":{"android":"levelo://app?vid=fc11ff76-245d-485d-91df-837545698704","ios":"levelo://app?vid=fc11ff76-245d-485d-91df-837545698704"},"vehicle_type_id":"4","last_reported":1766164280,"current_range_meters":16000,"station_id":"ce4bhk92rcd13ifvqgc0","pricing_plan_id":"cebpf4jnsgd1na2vs0mg"},{"bike_id":"dd02578a-3ce3-4a5b-a150-72db34f2d7af","system_id":"levelo_inurba_marseille","lat":43.2814,"lon":5.4265,"is_reserved":false,"is_disabled":false,"rental_uris":{"android":"levelo://app?vid=dd02578a-3ce3-4a5b-a150-72db34f2d7af","ios":"levelo://app?vid=dd02578a-3ce3-4a5b-a150-72db34f2d7af"},"vehicle_type_id":"4","last_reported":1766164280,"current_range_meters":16000,"station_id":"ce4bhnh2rcd13ifvqgug","pricing_plan_id":"cebpf4jnsgd1na2vs0mg"},{"bike_id":"e0011a5b-4330-4ab7-82d4-072f7e660e41","system_id":"levelo_inurba_marseille","lat":43.306799,"lon":5.383327,"is_reserved":false,"is_disabled":false,"rental_uris":{"android":"levelo://app?vid=e0011a5b-4330-4ab7-82d4-072f7e660e41","ios":"levelo://app?vid=e0011a5b-4330-4ab7-82d4-072f7e660e41"},"vehicle_type_id":"4","last_reported":1766164280,"current_range_meters":16000,"station_id":"","pricing_plan_id":"cebpf4jnsgd1na2vs0mg"},{"bike_id":"e38b8f28-f63b-4c54-b33c-3b917dffbe40","system_id":"levelo_inurba_marseille","lat":43.22543,"lon":5.34838,"is_reserved":false,"is_disabled":false,"rental_uris":{"android":"levelo://app?vid=e38b8f28-f63b-4c54-b33c-3b917dffbe40","ios":"levelo://app?vid=e38b8f28-f63b-4c54-b33c-3b917dffbe40"},"vehicle_type_id":"4","last_reported":1766164280,"current_range_meters":16000,"station_id":"","pricing_plan_id":"cebpf4jnsgd1na2vs0mg"},{"bike_id":"26f6d6a5-5821-4875-a164-33d619759de8","system_id":"levelo_inurba_marseille","lat":43.241698,"lon":5.363985,"is_reserved":false,"is_disabled":false,"rental_uris":{"android":"levelo://app?vid=26f6d6a5-5821-4875-a164-33d619759de8","ios":"levelo://app?vid=26f6d6a5-5821-4875-a164-33d619759de8"},