{"last_updated":1773730313,"ttl":60,"version":"2.2","data":{"bikes":[{"bike_id":"ccb54f6f-537f-4ee3-8bf1-50606846f171","system_id":"levelo_inurba_marseille","lat":43.28716,"lon":5.35204,"is_reserved":false,"is_disabled":false,"rental_uris":{"android":"levelo://app?vid=ccb54f6f-537f-4ee3-8bf1-50606846f171","ios":"levelo://app?vid=ccb54f6f-537f-4ee3-8bf1-50606846f171"},"vehicle_type_id":"4","last_reported":1773730314,"current_range_meters":2800,"station_id":"","pricing_plan_id":"cebpf4jnsgd1na2vs0mg"},{"bike_id":"73f59619-b8fb-4247-8fd5-e2dcc21c22ed","system_id":"levelo_inurba_marseille","lat":43.30534,"lon":5.36554,"is_reserved":false,"is_disabled":false,"rental_uris":{"android":"levelo://app?vid=73f59619-b8fb-4247-8fd5-e2dcc21c22ed","ios":"levelo://app?vid=73f59619-b8fb-4247-8fd5-e2dcc21c22ed"},"vehicle_type_id":"4","last_reported":1773730314,"current_range_meters":2800,"station_id":"ce4bgs12rcd13ifvqcag","pricing_plan_id":"cebpf4jnsgd1na2vs0mg"},{"bike_id":"9ea4f135-4964-42f6-86a6-ba484d204cec","system_id":"levelo_inurba_marseille","lat":43.29042,"lon":5.3813,"is_reserved":false,"is_disabled":true,"rental_uris":{"android":"levelo://app?vid=9ea4f135-4964-42f6-86a6-ba484d204cec","ios":"levelo://app?vid=9ea4f135-4964-42f6-86a6-ba484d204cec"},"vehicle_type_id":"4","last_reported":1773730314,"current_range_meters":2800,"station_id":"ce4bh4p2rcd13ifvqe1g","pricing_plan_id":"cebpf4jnsgd1na2vs0mg"},{"bike_id":"c1bf3ef1-963d-4207-8611-d7e29cc6c1d1","system_id":"levelo_inurba_marseille","lat":43.28187,"lon":5.42595,"is_reserved":false,"is_disabled":false,"rental_uris":{"android":"levelo://app?vid=c1bf3ef1-963d-4207-8611-d7e29cc6c1d1","ios":"levelo://app?vid=c1bf3ef1-963d-4207-8611-d7e29cc6c1d1"},"vehicle_type_id":"4","last_reported":1773730314,"current_range_meters":2800,"station_id":"","pricing_plan_id":"cebpf4jnsgd1na2vs0mg"},{"bike_id":"05ca0370-ec67-4454-acec-8f110346733e","system_id":"levelo_inurba_marseille","lat":43.30604,"lon":5.39356,"is_reserved":false,"is_disabled":false,"rental_uris":{"android":"levelo://app?vid=05ca0370-ec67-4454-acec-8f110346733e","ios":"levelo://app?vid=05ca0370-ec67-4454-acec-8f110346733e"},"vehicle_type_id":"4","last_reported":1773730314,"current_range_meters":2800,"station_id":"ce4bh0p2rcd13ifvqd80","pricing_plan_id":"cebpf4jnsgd1na2vs0mg"},{"bike_id":"e7c58db4-424e-4970-92fb-a0dce31132b1","system_id":"levelo_inurba_marseille","lat":43.22572,"lon":5.41639,"is_reserved":false,"is_disabled":false,"rental_uris":{"android":"levelo://app?vid=e7c58db4-424e-4970-92fb-a0dce31132b1","ios":"levelo://app?vid=e7c58db4-424e-4970-92fb-a0dce31132b1"},"vehicle_type_id":"4","last_reported":1773730314,"current_range_meters":2800,"station_id":"st_d2o4gvlbi1j2169b742g","pricing_plan_id":"cebpf4jnsgd1na2vs0mg"},{"bike_id":"3e29b245-6248-4e2f-9ee4-f4cd0f161451","system_id":"levelo_inurba_marseille","lat":43.25506,"lon":5.37655,"is_reserved":false,"is_disabled":false,"rental_uris":{"android":"levelo://app?vid=3e29b245-6248-4e2f-9ee4-f4cd0f161451","ios":"levelo://app?vid=3e29b245-6248-4e2f-9ee4-f4cd0f161451"},"vehicle_type_id":"4","last_reported":1773730314,"current_range_meters":2800,"station_id":"ce4bhh12rcd13ifvqff0","pricing_plan_id":"cebpf4jnsgd1na2vs0mg"},{"bike_id":"7ee8d230-e429-4fae-927f-7a22b79397b7","system_id":"levelo_inurba_marseille","lat":43.33774,"lon":5.37512,"is_reserved":false,"is_disabled":true,"rental_uris":{"android":"levelo://app?vid=7ee8d230-e429-4fae-927f-7a22b79397b7","ios":"levelo://app?vid=7ee8d230-e429-4fae-927f-7a22b79397b7"},"vehicle_type_id":"4","last_reported":1773730314,"current_range_meters":3200,"station_id":"","pricing_plan_id":"cebpf4jnsgd1na2vs0mg"},{"bike_id":"86bab4d9-8dd5-4b0f-8a22-2f88c70337ef","system_id":"levelo_inurba_marseille","lat":43.287026,"lon":5.373634,"is_reserved":false,"is_disabled":false,"rental_uris":{"android":"levelo://app?vid=86bab4d9-8dd5-4b0f-8a22-2f88c70337ef","ios":"levelo://app?vid=86bab4d9-8dd5-4b0f-8a22-2f88c70337ef"},"vehicle_type_id":"4","last_reported":1773730314,"current_range_meters":3200,"station_id":"ce4bh3p2rcd13ifvqdq0","pricing_plan_id":"cebpf4jnsgd1na2vs0mg"},{"bike_id":"bed28392-0da1-43b5-9fd6-079b95697677","system_id":"levelo_inurba_marseille","lat":43.246546,"lon":5.381586,"is_reserved":false,"is_disabled":false,"rental_uris":{"android":"levelo://app?vid=bed28392-0da1-43b5-9fd6-079b95697677","ios":"levelo://app?vid=bed28392-0da1-43b5-9fd6-079b95697677"},"vehicle_type_id":"4","last_reported":1773730314,"current_range_meters":3200,"station_id":"ce4bhih2rcd13ifvqfr0","pricing_plan_id":"cebpf4jnsgd1na2vs0mg"},{"bike_id":"394b48db-11ce-428a-ad10-96df9a306fde","system_id":"levelo_inurba_marseille","lat":43.24465,"lon":5.42537,"is_reserved":false,"is_disabled":false,"rental_uris":{"android":"levelo://app?vid=394b48db-11ce-428a-ad10-96df9a306fde","ios":"levelo://app?vid=394b48db-11ce-428a-ad10-96df9a306fde"},"vehicle_type_id":"4","last_reported":1773730314,"current_range_meters":3200,"station_id":"st_d4a3vfp97mjs738cd8kg","pricing_plan_id":"cebpf4jnsgd1na2vs0mg"},{"bike_id":"4d876322-584a-4b9d-934a-70855e7e71e2","system_id":"levelo_inurba_marseille","lat":43.29551,"lon":5.39941,"is_reserved":false,"is_disabled":true,"rental_uris":{"android":"levelo://app?vid=4d876322-584a-4b9d-934a-70855e7e71e2","ios":"levelo://app?vid=4d876322-584a-4b9d-934a-70855e7e71e2"},"vehicle_type_id":"4","last_reported":1773730314,"current_range_meters":3200,"station_id":"ce4bh312rcd13ifvqdj0","pricing_plan_id":"cebpf4jnsgd1na2vs0mg"},{"bike_id":"6684ef43-aed7-4c02-8193-b5dcc2905571","system_id":"levelo_inurba_marseille","lat":43.25337,"lon":5.42172,"is_reserved":false,"is_disabled":false,"rental_uris":{"android":"levelo://app?vid=6684ef43-aed7-4c02-8193-b5dcc2905571","ios":"levelo://app?vid=6684ef43-aed7-4c02-8193-b5dcc2905571"},"vehicle_type_id":"4","last_reported":1773730314,"current_range_meters":3200,"station_id":"st_d2m65c5bi1j21697t3ng","pricing_plan_id":"cebpf4jnsgd1na2vs0mg"},{"bike_id":"b50a2122-1199-42ae-991c-eb622a3b1e41","system_id":"levelo_inurba_marseille","lat":43.30278,"lon":5.37702,"is_reserved":false,"is_disabled":false,"rental_uris":{"android":"levelo://app?vid=b50a2122-1199-42ae-991c-eb622a3b1e41","ios":"levelo://app?vid=b50a2122-1199-42ae-991c-eb622a3b1e41"},"vehicle_type_id":"4","last_reported":1773730314,"current_range_meters":3200,"station_id":"ce4bguh2rcd13ifvqcj0","pricing_plan_id":"cebpf4jnsgd1na2vs0mg"},{"bike_id":"546dec86-6efc-40ae-95e8-ef7683c73998","system_id":"levelo_inurba_marseille","lat":43.24641,"lon":5.43161,"is_reserved":false,"is_disabled":false,"rental_uris":{"android":"levelo://app?vid=546dec86-6efc-40ae-95e8-ef7683c73998","ios":"levelo://app?vid=546dec86-6efc-40ae-95e8-ef7683c73998"},"vehicle_type_id":"4","last_reported":1773730314,"current_range_meters":3200,"station_id":"","pricing_plan_id":"cebpf4jnsgd1na2vs0mg"},{"bike_id":"5c6bcaf2-3895-415c-b8c2-27c24d5ead77","system_id":"levelo_inurba_marseille","lat":43.22574,"lon":5.41654,"is_reserved":false,"is_disabled":false,"rental_uris":{"android":"levelo://app?vid=5c6bcaf2-3895-415c-b8c2-27c24d5ead77","ios":"levelo://app?vid=5c6bcaf2-3895-415c-b8c2-27c24d5ead77"},"vehicle_type_id":"4","last_reported":1773730314,"current_range_meters":3200,"station_id":"st_d2o4gvlbi1j2169b742g","pricing_plan_id":"cebpf4jnsgd1na2vs0mg"},{"bike_id":"eeae0e95-cea9-4eae-9f05-bd0e55033ffe","system_id":"levelo_inurba_marseille","lat":43.30107,"lon":5.39853,"is_reserved":false,"is_disabled":false,"rental_uris":{"android":"levelo://app?vid=eeae0e95-cea9-4eae-9f05-bd0e55033ffe","ios":"levelo://app?vid=eeae0e95-cea9-4eae-9f05-bd0e55033ffe"},"vehicle_type_id":"4","last_reported":1773730314,"current_range_meters":3200,"station_id":"ce4bh0h2rcd13ifvqd40","pricing_plan_id":"cebpf4jnsgd1na2vs0mg"},{"bike_id":"4b66d87f-df59-44c5-bb47-d7e0503e1b42","system_id":"levelo_inurba_marseille","lat":43.21749,"lon":5.34608,"is_reserved":false,"is_disabled":false,"rental_uris":{"android":"levelo://app?vid=4b66d87f-df59-44c5-bb47-d7e0503e1b42","ios":"levelo://app?vid=4b66d87f-df59-44c5-bb47-d7e0503e1b42"},"vehicle_type_id":"4","last_reported":1773730314,"current_range_meters":3200,"station_id":"st_cvj6r9ubvosntc0bgbag","pricing_plan_id":"cebpf4jnsgd1na2vs0mg"},{"bike_id":"16ec8de2-7797-46a8-9aff-ec827b63b48f","system_id":"levelo_inurba_marseille","lat":43.24663,"lon":5.38212,"is_reserved":false,"is_disabled":false,"rental_uris":{"android":"levelo://app?vid=16ec8de2-7797-46a8-9aff-ec827b63b48f","ios":"levelo://app?vid=16ec8de2-7797-46a8-9aff-ec827b63b48f"},"vehicle_type_id":"4","last_reported":1773730314,"current_range_meters":3200,"station_id":"ce4bhih2rcd13ifvqfr0","pricing_plan_id":"cebpf4jnsgd1na2vs0mg"},{"bike_id":"a8c11763-251e-4b93-9a01-e0a3db398ee7","system_id":"levelo_inurba_marseille","lat":43.27995,"lon":5.41661,"is_reserved":false,"is_disabled":false,"rental_uris":{"android":"levelo://app?vid=a8c11763-251e-4b93-9a01-e0a3db398ee7","ios":"levelo://app?vid=a8c11763-251e-4b93-9a01-e0a3db398ee7"},"vehicle_type_id":"4","last_reported":1773730314,"current_range_meters":3600,"station_id":"ce4bho12rcd13ifvqh1g","pricing_plan_id":"cebpf4jnsgd1na2vs0mg"},{"bike_id":"6f1681e6-745f-4763-a26a-a8cfdac1adae","system_id":"levelo_inurba_marseille","lat":43.30316,"lon":5.36858,"is_reserved":false,"is_disabled":true,"rental_uris":{"android":"levelo://app?vid=6f1681e6-745f-4763-a26a-a8cfdac1adae","ios":"levelo://app?vid=6f1681e6-745f-4763-a26a-a8cfdac1adae"},"vehicle_type_id":"4","last_reported":1773730314,"current_range_meters":3600,"station_id":"ce4bgqh2rcd13ifvqc5g","pricing_plan_id":"cebpf4jnsgd1na2vs0mg"},{"bike_id":"ac4ec8f4-cbf9-4d7a-8f9b-9d7e4720889b","system_id":"levelo_inurba_marseille","lat":43.29034,"lon":5.37147,"is_reserved":false,"is_disabled":true,"rental_uris":{"android":"levelo://app?vid=ac4ec8f4-cbf9-4d7a-8f9b-9d7e4720889b","ios":"levelo://app?vid=ac4ec8f4-cbf9-4d7a-8f9b-9d7e4720889b"},"vehicle_type_id":"4","last_reported":1773730314,"current_range_meters":3600,"station_id":"ce4bh5p2rcd13ifvqe4g","pricing_plan_id":"cebpf4jnsgd1na2vs0mg"},{"bike_id":"fb5ea8f3-c138-4eab-be3b-6285c3e10e6c","system_id":"levelo_inurba_marseille","lat":43.29082,"lon":5.38153,"is_reserved":false,"is_disabled":false,"rental_uris":{"android":"levelo://app?vid=fb5ea8f3-c138-4eab-be3b-6285c3e10e6c","ios":"levelo://app?vid=fb5ea8f3-c138-4eab-be3b-6285c3e10e6c"},"vehicle_type_id":"4","last_reported":1773730314,"current_range_meters":3600,"station_id":"ce4bh512rcd13ifvqe2g","pricing_plan_id":"cebpf4jnsgd1na2vs0mg"},{"bike_id":"4b338ce8-5a1d-45ae-98e5-89395f01eed6","system_id":"levelo_inurba_marseille","lat":43.28417,"lon":5.37269,"is_reserved":false,"is_disabled":false,"rental_uris":{"android":"levelo://app?vid=4b338ce8-5a1d-45ae-98e5-89395f01eed6","ios":"levelo://app?vid=4b338ce8-5a1d-45ae-98e5-89395f01eed6"},"vehicle_type_id":"4","last_reported":1773730314,"current_range_meters":3600,"station_id":"ce4bh412rcd13ifvqds0","pricing_plan_id":"cebpf4jnsgd1na2vs0mg"},{"bike_id":"2be48d0d-c988-40d6-948e-4adda5345ace","system_id":"levelo_inurba_marseille","lat":43.29782,"lon":5.42741,"is_reserved":false,"is_disabled":false,"rental_uris":{"android":"levelo://app?vid=2be48d0d-c988-40d6-948e-4adda5345ace","ios":"levelo://app?vid=2be48d0d-c988-40d6-948e-4adda5345ace"},"vehicle_type_id":"4","last_reported":1773730314,"current_range_meters":3600,"station_id":"st_d3md5207bmas73dh9klg","pricing_plan_id":"cebpf4jnsgd1na2vs0mg"},{"bike_id":"c8431d5e-fe62-4c51-a67e-06bd269df984","system_id":"levelo_inurba_marseille","lat":43.33618,"lon":5.37476,"is_reserved":false,"is_disabled":false,"rental_uris":{"android":"levelo://app?vid=c8431d5e-fe62-4c51-a67e-06bd269df984","ios":"levelo://app?vid=c8431d5e-fe62-4c51-a67e-06bd269df984"},"vehicle_type_id":"4","last_reported":1773730314,"current_range_meters":3600,"station_id":"","pricing_plan_id":"cebpf4jnsgd1na2vs0mg"},{"bike_id":"73806190-d7df-4322-93c0-d6bee78abccb","system_id":"levelo_inurba_marseille","lat":43.27425,"lon":5.39008,"is_reserved":false,"is_disabled":false,"rental_uris":{"android":"levelo://app?vid=73806190-d7df-4322-93c0-d6bee78abccb","ios":"levelo://app?vid=73806190-d7df-4322-93c0-d6bee78abccb"},"vehicle_type_id":"4","last_reported":1773730314,"current_range_meters":3600,"station_id":"","pricing_plan_id":"cebpf4jnsgd1na2vs0mg"},{"bike_id":"c057485f-99fb-43ae-b2bf-24da96550154","system_id":"levelo_inurba_marseille","lat":43.31178,"lon":5.38719,"is_reserved":false,"is_disabled":false,"rental_uris":{"android":"levelo://app?vid=c057485f-99fb-43ae-b2bf-24da96550154","ios":"levelo://app?vid=c057485f-99fb-43ae-b2bf-24da96550154"},"vehicle_type_id":"4","last_reported":1773730314,"current_range_meters":3600,"station_id":"ce4bgv12rcd13ifvqcp0","pricing_plan_id":"cebpf4jnsgd1na2vs0mg"},{"bike_id":"a57fd276-80d6-4f2f-8fbc-0c5a46f65dce","system_id":"levelo_inurba_marseille","lat":43.30957,"lon":5.36808,"is_reserved":false,"is_disabled":false,"rental_uris":{"android":"levelo://app?vid=a57fd276-80d6-4f2f-8fbc-0c5a46f65dce","ios":"levelo://app?vid=a57fd276-80d6-4f2f-8fbc-0c5a46f65dce"},"vehicle_type_id":"4","last_reported":1773730314,"current_range_meters":3600,"station_id":"","pricing_plan_id":"cebpf4jnsgd1na2vs0mg"},{"bike_id":"d91f5059-f6b7-4289-a686-c55193d574bf","system_id":"levelo_inurba_marseille","lat":43.29728,"lon":5.36633,"is_reserved":false,"is_disabled":false,"rental_uris":{"android":"levelo://app?vid=d91f5059-f6b7-4289-a686-c55193d574bf","ios":"levelo://app?vid=d91f5059-f6b7-4289-a686-c55193d574bf"},"vehicle_type_id":"4","last_reported":1773730314,"current_range_meters":3600,"station_id":"ce4bgn12rcd13ifvqbt0","pricing_plan_id":"cebpf4jnsgd1na2vs0mg"},{"bike_id":"4fb702b1-5215-4524-9260-909a50753239","system_id":"levelo_inurba_marseille","lat":43.21756,"lon":5.34631,"is_reserved":false,"is_disabled":false,"rental_uris":{"android":"levelo://app?vid=4fb702b1-5215-4524-9260-909a50753239","ios":"levelo://app?vid=4fb702b1-5215-4524-9260-909a50753239"},"vehicle_type_id":"4","last_reported":1773730314,"current_range_meters":3600,"station_id":"st_cvj6r9ubvosntc0bgbag","pricing_plan_id":"cebpf4jnsgd1na2vs0mg"},{"bike_id":"f241c30b-2b1a-4f86-a532-796da72b8ac2","system_id":"levelo_inurba_marseille","lat":43.21209,"lon":5.35075,"is_reserved":false,"is_disabled":false,"rental_uris":{"android":"levelo://app?vid=f241c30b-2b1a-4f86-a532-796da72b8ac2","ios":"levelo://app?vid=f241c30b-2b1a-4f86-a532-796da72b8ac2"},"vehicle_type_id":"4","last_reported":1773730314,"current_range_meters":3600,"station_id":"st_cvj6sg6p6f1abm77japg","pricing_plan_id":"cebpf4jnsgd1na2vs0mg"},{"bike_id":"41a475e8-8f60-49e5-932c-2037737c2411","system_id":"levelo_inurba_marseille","lat":43.33549,"lon":5.37474,"is_reserved":false,"is_disabled":false,"rental_uris":{"android":"levelo://app?vid=41a475e8-8f60-49e5-932c-2037737c2411","ios":"levelo://app?vid=41a475e8-8f60-49e5-932c-2037737c2411"},"vehicle_type_id":"4","last_reported":1773730314,"current_range_meters":3600,"station_id":"st_d46tts09ee8s73dlu43g","pricing_plan_id":"cebpf4jnsgd1na2vs0mg"},{"bike_id":"dc49abda-4989-4517-a756-6f6db199048a","system_id":"levelo_inurba_marseille","lat":43.27054,"lon":5.40261,"is_reserved":false,"is_disabled":false,"rental_uris":{"android":"levelo://app?vid=dc49abda-4989-4517-a756-6f6db199048a","ios":"levelo://app?vid=dc49abda-4989-4517-a756-6f6db199048a"},"vehicle_type_id":"4","last_reported":1773730314,"current_range_meters":4000,"station_id":"ce4bhk92rcd13ifvqgc0","pricing_plan_id":"cebpf4jnsgd1na2vs0mg"},{"bike_id":"9f96e3e5-0df4-4f85-8707-d098d0747392","system_id":"levelo_inurba_marseille","lat":43.25333,"lon":5.42179,"is_reserved":false,"is_disabled":false,"rental_uris":{"android":"levelo://app?vid=9f96e3e5-0df4-4f85-8707-d098d0747392","ios":"levelo://app?vid=9f96e3e5-0df4-4f85-8707-d098d0747392"},"vehicle_type_id":"4","last_reported":1773730314,"current_range_meters":4000,"station_id":"st_d2m65c5bi1j21697t3ng","pricing_plan_id":"cebpf4jnsgd1na2vs0mg"},{"bike_id":"a3eb6664-f79f-4fcc-a176-332c8301346f","system_id":"levelo_inurba_marseille","lat":43.28417,"lon":5.34991,"is_reserved":false,"is_disabled":false,"rental_uris":{"android":"levelo://app?vid=a3eb6664-f79f-4fcc-a176-332c8301346f","ios":"levelo://app?vid=a3eb6664-f79f-4fcc-a176-332c8301346f"},"vehicle_type_id":"4","last_reported":1773730314,"current_range_meters":4000,"station_id":"ce4bhbh2rcd13ifvqepg","pricing_plan_id":"cebpf4jnsgd1na2vs0mg"},{"bike_id":"99405a20-80f7-49c0-b29c-9bad75458236","system_id":"levelo_inurba_marseille","lat":43.26378,"lon":5.41083,"is_reserved":false,"is_disabled":false,"rental_uris":{"android":"levelo://app?vid=99405a20-80f7-49c0-b29c-9bad75458236","ios":"levelo://app?vid=99405a20-80f7-49c0-b29c-9bad75458236"},"vehicle_type_id":"4","last_reported":1773730314,"current_range_meters":4000,"station_id":"st_d4e5ca6na9uc73bfl5fg","pricing_plan_id":"cebpf4jnsgd1na2vs0mg"},{"bike_id":"9d8618ab-de6a-46c3-b454-d4196c014401","system_id":"levelo_inurba_marseille","lat":43.28415,"lon":5.35004,"is_reserved":false,"is_disabled":false,"rental_uris":{"android":"levelo://app?vid=9d8618ab-de6a-46c3-b454-d4196c014401","ios":"levelo://app?vid=9d8618ab-de6a-46c3-b454-d4196c014401"},"vehicle_type_id":"4","last_reported":1773730314,"current_range_meters":4000,"station_id":"ce4bhbh2rcd13ifvqepg","pricing_plan_id":"cebpf4jnsgd1na2vs0mg"},{"bike_id":"4a560852-9384-45ed-b37f-f950441e1aa5","system_id":"levelo_inurba_marseille","lat":43.31169,"lon":5.38721,"is_reserved":false,"is_disabled":false,"rental_uris":{"android":"levelo://app?vid=4a560852-9384-45ed-b37f-f950441e1aa5","ios":"levelo://app?vid=4a560852-9384-45ed-b37f-f950441e1aa5"},"vehicle_type_id":"4","last_reported":1773730314,"current_range_meters":4000,"station_id":"ce4bgv12rcd13ifvqcp0","pricing_plan_id":"cebpf4jnsgd1na2vs0mg"},{"bike_id":"ff6903f8-7d6d-4329-9980-dd36491025a5","system_id":"levelo_inurba_marseille","lat":43.28488,"lon":5.48394,"is_reserved":false,"is_disabled":false,"rental_uris":{"android":"levelo://app?vid=ff6903f8-7d6d-4329-9980-dd36491025a5","ios":"levelo://app?vid=ff6903f8-7d6d-4329-9980-dd36491025a5"},"vehicle_type_id":"4","last_reported":1773730314,"current_range_meters":4000,"station_id":"st_d3svhcjqgbts73a3dn0g","pricing_plan_id":"cebpf4jnsgd1na2vs0mg"},{"bike_id":"a64c7316-4124-45b6-aec3-937069d4f72f","system_id":"levelo_inurba_marseille","lat":43.21748,"lon":5.34609,"is_reserved":false,"is_disabled":false,"rental_uris":{"android":"levelo://app?vid=a64c7316-4124-45b6-aec3-937069d4f72f","ios":"levelo://app?vid=a64c7316-4124-45b6-aec3-937069d4f72f"},"vehicle_type_id":"4","last_reported":1773730314,"current_range_meters":4000,"station_id":"st_cvj6r9ubvosntc0bgbag","pricing_plan_id":"cebpf4jnsgd1na2vs0mg"},{"bike_id":"7077099d-bec4-45e6-9cb2-740f7185bcfe","system_id":"levelo_inurba_marseille","lat":43.31051,"lon":5.37184,"is_reserved":false,"is_disabled":false,"rental_uris":{"android":"levelo://app?vid=7077099d-bec4-45e6-9cb2-740f7185bcfe","ios":"levelo://app?vid=7077099d-bec4-45e6-9cb2-740f7185bcfe"},"vehicle_type_id":"4","last_reported":1773730314,"current_range_meters":4000,"station_id":"st_d4kl2rp97mjs73e7tdfg","pricing_plan_id":"cebpf4jnsgd1na2vs0mg"},{"bike_id":"367d1ebd-1fe7-4381-bb25-dac6bfe4a266","system_id":"levelo_inurba_marseille","lat":43.25337,"lon":5.42186,"is_reserved":false,"is_disabled":false,"rental_uris":{"android":"levelo://app?vid=367d1ebd-1fe7-4381-bb25-dac6bfe4a266","ios":"levelo://app?vid=367d1ebd-1fe7-4381-bb25-dac6bfe4a266"},"vehicle_type_id":"4","last_reported":1773730314,"current_range_meters":4000,"station_id":"st_d2m65c5bi1j21697t3ng","pricing_plan_id":"cebpf4jnsgd1na2vs0mg"},{"bike_id":"ef275710-a738-4425-a373-87c195840051","system_id":"levelo_inurba_marseille","lat":43.30735,"lon":5.42441,"is_reserved":false,"is_disabled":false,"rental_uris":{"android":"levelo://app?vid=ef275710-a738-4425-a373-87c195840051","ios":"levelo://app?vid=ef275710-a738-4425-a373-87c195840051"},"vehicle_type_id":"4","last_reported":1773730314,"current_range_meters":4000,"station_id":"st_cvj6ca6bvosntc0bfgr0","pricing_plan_id":"cebpf4jnsgd1na2vs0mg"},{"bike_id":"a4b70bca-a13e-4323-ac42-385e3d72c821","system_id":"levelo_inurba_marseille","lat":43.305375,"lon":5.384255,"is_reserved":false,"is_disabled":false,"rental_uris":{"android":"levelo://app?vid=a4b70bca-a13e-4323-ac42-385e3d72c821","ios":"levelo://app?vid=a4b70bca-a13e-4323-ac42-385e3d72c821"},"vehicle_type_id":"4","last_reported":1773730314,"current_range_meters":4000,"station_id":"ce4bgg92rcd13ifvqb30","pricing_plan_id":"cebpf4jnsgd1na2vs0mg"},{"bike_id":"94773f3a-d7a8-4f18-a156-83430d5328e9","system_id":"levelo_inurba_marseille","lat":43.31181,"lon":5.38735,"is_reserved":false,"is_disabled":false,"rental_uris":{"android":"levelo://app?vid=94773f3a-d7a8-4f18-a156-83430d5328e9","ios":"levelo://app?vid=94773f3a-d7a8-4f18-a156-83430d5328e9"},"vehicle_type_id":"4","last_reported":1773730314,"current_range_meters":4000,"station_id":"ce4bgv12rcd13ifvqcp0","pricing_plan_id":"cebpf4jnsgd1na2vs0mg"},{"bike_id":"ca5af02f-49f7-48db-a0c5-85c6fd8e11c9","system_id":"levelo_inurba_marseille","lat":43.25013,"lon":5.38928,"is_reserved":false,"is_disabled":true,"rental_uris":{"android":"levelo://app?vid=ca5af02f-49f7-48db-a0c5-85c6fd8e11c9","ios":"levelo://app?vid=ca5af02f-49f7-48db-a0c5-85c6fd8e11c9"},"vehicle_type_id":"4","last_reported":1773730314,"current_range_meters":4000,"station_id":"ce4bhgp2rcd13ifvqfd0","pricing_plan_id":"cebpf4jnsgd1na2vs0mg"},{"bike_id":"7d5e5488-b062-4979-8056-f7926cc5db5b","system_id":"levelo_inurba_marseille","lat":43.28493,"lon":5.48395,"is_reserved":false,"is_disabled":false,"rental_uris":{"android":"levelo://app?vid=7d5e5488-b062-4979-8056-f7926cc5db5b","ios":"levelo://app?vid=7d5e5488-b062-4979-8056-f7926cc5db5b"},"vehicle_type_id":"4","last_reported":1773730314,"current_range_meters":4000,"station_id":"","pricing_plan_id":"cebpf4jnsgd1na2vs0mg"},{"bike_id":"c6d69b4d-4c87-44fe-a02d-92b1370b69aa","system_id":"levelo_inurba_marseille","lat":43.22559,"lon":5.41648,"is_reserved":false,"is_disabled":false,"rental_uris":{"android":"levelo://app?vid=c6d69b4d-4c87-44fe-a02d-92b1370b69aa","ios":"levelo://app?vid=c6d69b4d-4c87-44fe-a02d-92b1370b69aa"},"vehicle_type_id":"4","last_reported":1773730314,"current_range_meters":4400,"station_id":"st_d2o4gvlbi1j2169b742g","pricing_plan_id":"cebpf4jnsgd1na2vs0mg"},{"bike_id":"6bf65720-8266-4d1b-8965-d8f376442203","system_id":"levelo_inurba_marseille","lat":43.25339,"lon":5.42186,"is_reserved":false,"is_disabled":false,"rental_uris":{"android":"levelo://app?vid=6bf65720-8266-4d1b-8965-d8f376442203","ios":"levelo://app?vid=6bf65720-8266-4d1b-8965-d8f376442203"},"vehicle_type_id":"4","last_reported":1773730314,"current_range_meters":4400,"station_id":"st_d2m65c5bi1j21697t3ng","pricing_plan_id":"cebpf4jnsgd1na2vs0mg"},{"bike_id":"7f3d2a35-4825-408e-9e09-722f849bf22e","system_id":"levelo_inurba_marseille","lat":43.30136,"lon":5.38042,"is_reserved":false,"is_disabled":false,"rental_uris":{"android":"levelo://app?vid=7f3d2a35-4825-408e-9e09-722f849bf22e","ios":"levelo://app?vid=7f3d2a35-4825-408e-9e09-722f849bf22e"},"vehicle_type_id":"4","last_reported":1773730314,"current_range_meters":4400,"station_id":"ce4bgjp2rcd13ifvqbh0","pricing_plan_id":"cebpf4jnsgd1na2vs0mg"},{"bike_id":"8431c0ae-c291-4e69-8c30-9ab81ad19a14","system_id":"levelo_inurba_marseille","lat":43.26554,"lon":5.37331,"is_reserved":false,"is_disabled":false,"rental_uris":{"android":"levelo://app?vid=8431c0ae-c291-4e69-8c30-9ab81ad19a14","ios":"levelo://app?vid=8431c0ae-c291-4e69-8c30-9ab81ad19a14"},"vehicle_type_id":"4","last_reported":1773730314,"current_range_meters":4400,"station_id":"ce4bhg12rcd13ifvqf70","pricing_plan_id":"cebpf4jnsgd1na2vs0mg"},{"bike_id":"83ccaa9b-978c-429e-8f2d-59508aa8522c","system_id":"levelo_inurba_marseille","lat":43.28419,"lon":5.3755,"is_reserved":false,"is_disabled":false,"rental_uris":{"android":"levelo://app?vid=83ccaa9b-978c-429e-8f2d-59508aa8522c","ios":"levelo://app?vid=83ccaa9b-978c-429e-8f2d-59508aa8522c"},"vehicle_type_id":"4","last_reported":1773730314,"current_range_meters":4400,"station_id":"ce4bh412rcd13ifvqds0","pricing_plan_id":"cebpf4jnsgd1na2vs0mg"},{"bike_id":"a8261f75-c49a-4d8a-8d78-59cefb23f437","system_id":"levelo_inurba_marseille","lat":43.29857,"lon":5.36286,"is_reserved":false,"is_disabled":true,"rental_uris":{"android":"levelo://app?vid=a8261f75-c49a-4d8a-8d78-59cefb23f437","ios":"levelo://app?vid=a8261f75-c49a-4d8a-8d78-59cefb23f437"},"vehicle_type_id":"4","last_reported":1773730314,"current_range_meters":4400,"station_id":"ce4bgpp2rcd13ifvqc3g","pricing_plan_id":"cebpf4jnsgd1na2vs0mg"},{"bike_id":"51fc0a2e-2315-4252-8764-608f1c4c1b8e","system_id":"levelo_inurba_marseille","lat":43.30151,"lon":5.38074,"is_reserved":false,"is_disabled":false,"rental_uris":{"android":"levelo://app?vid=51fc0a2e-2315-4252-8764-608f1c4c1b8e","ios":"levelo://app?vid=51fc0a2e-2315-4252-8764-608f1c4c1b8e"},"vehicle_type_id":"4","last_reported":1773730314,"current_range_meters":4400,"station_id":"ce4bgjp2rcd13ifvqbh0","pricing_plan_id":"cebpf4jnsgd1na2vs0mg"},{"bike_id":"b3fb0cd9-0d50-4402-b1d7-e0ca7cbbf02f","system_id":"levelo_inurba_marseille","lat":43.22569,"lon":5.4163,"is_reserved":false,"is_disabled":false,"rental_uris":{"android":"levelo://app?vid=b3fb0cd9-0d50-4402-b1d7-e0ca7cbbf02f","ios":"levelo://app?vid=b3fb0cd9-0d50-4402-b1d7-e0ca7cbbf02f"},"vehicle_type_id":"4","last_reported":1773730314,"current_range_meters":4400,"station_id":"st_d2o4gvlbi1j2169b742g","pricing_plan_id":"cebpf4jnsgd1na2vs0mg"},{"bike_id":"e7d20ce8-61ee-4df3-9ba4-585a7648c721","system_id":"levelo_inurba_marseille","lat":43.2467,"lon":5.43208,"is_reserved":false,"is_disabled":false,"rental_uris":{"android":"levelo://app?vid=e7d20ce8-61ee-4df3-9ba4-585a7648c721","ios":"levelo://app?vid=e7d20ce8-61ee-4df3-9ba4-585a7648c721"},"vehicle_type_id":"4","last_reported":1773730314,"current_range_meters":4400,"station_id":"","pricing_plan_id":"cebpf4jnsgd1na2vs0mg"},{"bike_id":"f9957fdd-b7fb-4862-b889-704cc630d45b","system_id":"levelo_inurba_marseille","lat":43.3025,"lon":5.400792,"is_reserved":false,"is_disabled":false,"rental_uris":{"android":"levelo://app?vid=f9957fdd-b7fb-4862-b889-704cc630d45b","ios":"levelo://app?vid=f9957fdd-b7fb-4862-b889-704cc630d45b"},"vehicle_type_id":"4","last_reported":1773730314,"current_range_meters":4400,"station_id":"","pricing_plan_id":"cebpf4jnsgd1na2vs0mg"},{"bike_id":"26202659-445f-404d-b446-d181a4a7df71","system_id":"levelo_inurba_marseille","lat":43.33519,"lon":5.37443,"is_reserved":false,"is_disabled":false,"rental_uris":{"android":"levelo://app?vid=26202659-445f-404d-b446-d181a4a7df71","ios":"levelo://app?vid=26202659-445f-404d-b446-d181a4a7df71"},"vehicle_type_id":"4","last_reported":1773730314,"current_range_meters":4400,"station_id":"st_d46tts09ee8s73dlu43g","pricing_plan_id":"cebpf4jnsgd1na2vs0mg"},{"bike_id":"879a873f-004f-4af1-a55c-41f0a4bec7bc","system_id":"levelo_inurba_marseille","lat":43.21194,"lon":5.35079,"is_reserved":false,"is_disabled":false,"rental_uris":{"android":"levelo://app?vid=879a873f-004f-4af1-a55c-41f0a4bec7bc","ios":"levelo://app?vid=879a873f-004f-4af1-a55c-41f0a4bec7bc"},"vehicle_type_id":"4","last_reported":1773730314,"current_range_meters":4400,"station_id":"st_cvj6sg6p6f1abm77japg","pricing_plan_id":"cebpf4jnsgd1na2vs0mg"},{"bike_id":"91f440a2-b37f-4186-bada-b6ca9b83b739","system_id":"levelo_inurba_marseille","lat":43.23879,"lon":5.37442,"is_reserved":false,"is_disabled":false,"rental_uris":{"android":"levelo://app?vid=91f440a2-b37f-4186-bada-b6ca9b83b739","ios":"levelo://app?vid=91f440a2-b37f-4186-bada-b6ca9b83b739"},"vehicle_type_id":"4","last_reported":1773730314,"current_range_meters":4400,"station_id":"","pricing_plan_id":"cebpf4jnsgd1na2vs0mg"},{"bike_id":"935eb381-6dd6-4507-aaeb-f3779ed74675","system_id":"levelo_inurba_marseille","lat":43.2827,"lon":5.35094,"is_reserved":false,"is_disabled":false,"rental_uris":{"android":"levelo://app?vid=935eb381-6dd6-4507-aaeb-f3779ed74675","ios":"levelo://app?vid=935eb381-6dd6-4507-aaeb-f3779ed74675"},"vehicle_type_id":"4","last_reported":1773730314,"current_range_meters":4800,"station_id":"ce4bhbp2rcd13ifvqerg","pricing_plan_id":"cebpf4jnsgd1na2vs0mg"},{"bike_id":"8679e0b9-667d-427e-8217-48aff02eecf2","system_id":"levelo_inurba_marseille","lat":43.30457,"lon":5.36611,"is_reserved":false,"is_disabled":false,"rental_uris":{"android":"levelo://app?vid=8679e0b9-667d-427e-8217-48aff02eecf2","ios":"levelo://app?vid=8679e0b9-667d-427e-8217-48aff02eecf2"},"vehicle_type_id":"4","last_reported":1773730314,"current_range_meters":4800,"station_id":"ce4bgrp2rcd13ifvqc9g","pricing_plan_id":"cebpf4jnsgd1na2vs0mg"},{"bike_id":"580e4e1f-c821-4f35-b0d2-4b7d76377e51","system_id":"levelo_inurba_marseille","lat":43.29175,"lon":5.35817,"is_reserved":false,"is_disabled":true,"rental_uris":{"android":"levelo://app?vid=580e4e1f-c821-4f35-b0d2-4b7d76377e51","ios":"levelo://app?vid=580e4e1f-c821-4f35-b0d2-4b7d76377e51"},"vehicle_type_id":"4","last_reported":1773730314,"current_range_meters":4800,"station_id":"ce4bhb12rcd13ifvqel0","pricing_plan_id":"cebpf4jnsgd1na2vs0mg"},{"bike_id":"d89134ff-a044-45c7-94db-9ed2eccb039f","system_id":"levelo_inurba_marseille","lat":43.3135,"lon":5.38497,"is_reserved":false,"is_disabled":true,"rental_uris":{"android":"levelo://app?vid=d89134ff-a044-45c7-94db-9ed2eccb039f","ios":"levelo://app?vid=d89134ff-a044-45c7-94db-9ed2eccb039f"},"vehicle_type_id":"4","last_reported":1773730314,"current_range_meters":4800,"station_id":"ce4bgt92rcd13ifvqcf0","pricing_plan_id":"cebpf4jnsgd1na2vs0mg"},{"bike_id":"a963df1e-ad9a-4c3f-9aea-9032c02098e9","system_id":"levelo_inurba_marseille","lat":43.29009,"lon":5.39995,"is_reserved":false,"is_disabled":false,"rental_uris":{"android":"levelo://app?vid=a963df1e-ad9a-4c3f-9aea-9032c02098e9","ios":"levelo://app?vid=a963df1e-ad9a-4c3f-9aea-9032c02098e9"},"vehicle_type_id":"4","last_reported":1773730314,"current_range_meters":4800,"station_id":"ce4bh392rcd13ifvqdm0","pricing_plan_id":"cebpf4jnsgd1na2vs0mg"},{"bike_id":"649f0a63-4734-4229-a1e9-8eb20e6ecc07","system_id":"levelo_inurba_marseille","lat":43.28425,"lon":5.37524,"is_reserved":false,"is_disabled":false,"rental_uris":{"android":"levelo://app?vid=649f0a63-4734-4229-a1e9-8eb20e6ecc07","ios":"levelo://app?vid=649f0a63-4734-4229-a1e9-8eb20e6ecc07"},"vehicle_type_id":"4","last_reported":1773730314,"current_range_meters":4800,"station_id":"ce4bh412rcd13ifvqds0","pricing_plan_id":"cebpf4jnsgd1na2vs0mg"},{"bike_id":"20d965c2-9356-4a2d-b2d1-b586da5c97e8","system_id":"levelo_inurba_marseille","lat":43.28187,"lon":5.40671,"is_reserved":false,"is_disabled":true,"rental_uris":{"android":"levelo://app?vid=20d965c2-9356-4a2d-b2d1-b586da5c97e8","ios":"levelo://app?vid=20d965c2-9356-4a2d-b2d1-b586da5c97e8"},"vehicle_type_id":"4","last_reported":1773730314,"current_range_meters":5600,"station_id":"","pricing_plan_id":"cebpf4jnsgd1na2vs0mg"},{"bike_id":"87cf2c9e-dd79-479c-9e15-2f0aaae6b8ee","system_id":"levelo_inurba_marseille","lat":43.31519,"lon":5.37263,"is_reserved":false,"is_disabled":false,"rental_uris":{"android":"levelo://app?vid=87cf2c9e-dd79-479c-9e15-2f0aaae6b8ee","ios":"levelo://app?vid=87cf2c9e-dd79-479c-9e15-2f0aaae6b8ee"},"vehicle_type_id":"4","last_reported":1773730314,"current_range_meters":5600,"station_id":"","pricing_plan_id":"cebpf4jnsgd1na2vs0mg"},{"bike_id":"0f53d472-bee4-40de-8ab2-7656a789b4f7","system_id":"levelo_inurba_marseille","lat":43.22459,"lon":5.34904,"is_reserved":false,"is_disabled":false,"rental_uris":{"android":"levelo://app?vid=0f53d472-bee4-40de-8ab2-7656a789b4f7","ios":"levelo://app?vid=0f53d472-bee4-40de-8ab2-7656a789b4f7"},"vehicle_type_id":"4","last_reported":1773730314,"current_range_meters":5600,"station_id":"","pricing_plan_id":"cebpf4jnsgd1na2vs0mg"},{"bike_id":"20dd7d86-c4dc-4d33-83b0-519cc08235a3","system_id":"levelo_inurba_marseille","lat":43.26218,"lon":5.37457,"is_reserved":false,"is_disabled":false,"rental_uris":{"android":"levelo://app?vid=20dd7d86-c4dc-4d33-83b0-519cc08235a3","ios":"levelo://app?vid=20dd7d86-c4dc-4d33-83b0-519cc08235a3"},"vehicle_type_id":"4","last_reported":1773730314,"current_range_meters":5600,"station_id":"ce4bhgp2rcd13ifvqfc0","pricing_plan_id":"cebpf4jnsgd1na2vs0mg"},{"bike_id":"5ceea874-16bc-4dc6-9858-1b3ce34dfda6","system_id":"levelo_inurba_marseille","lat":43.28486,"lon":5.48384,"is_reserved":false,"is_disabled":false,"rental_uris":{"android":"levelo://app?vid=5ceea874-16bc-4dc6-9858-1b3ce34dfda6","ios":"levelo://app?vid=5ceea874-16bc-4dc6-9858-1b3ce34dfda6"},"vehicle_type_id":"4","last_reported":1773730314,"current_range_meters":5600,"station_id":"st_d3svhcjqgbts73a3dn0g","pricing_plan_id":"cebpf4jnsgd1na2vs0mg"},{"bike_id":"7e4878ae-c376-48c8-ad77-0c9152653552","system_id":"levelo_inurba_marseille","lat":43.27506,"lon":5.41597,"is_reserved":false,"is_disabled":false,"rental_uris":{"android":"levelo://app?vid=7e4878ae-c376-48c8-ad77-0c9152653552","ios":"levelo://app?vid=7e4878ae-c376-48c8-ad77-0c9152653552"},"vehicle_type_id":"4","last_reported":1773730314,"current_range_meters":5600,"station_id":"st_d6im8g6chgec73a5pndg","pricing_plan_id":"cebpf4jnsgd1na2vs0mg"},{"bike_id":"5c13d3bc-3946-4016-b223-a96c424763ee","system_id":"levelo_inurba_marseille","lat":43.24154,"lon":5.3641,"is_reserved":false,"is_disabled":false,"rental_uris":{"android":"levelo://app?vid=5c13d3bc-3946-4016-b223-a96c424763ee","ios":"levelo://app?vid=5c13d3bc-3946-4016-b223-a96c424763ee"},"vehicle_type_id":"4","last_reported":1773730314,"current_range_meters":5600,"station_id":"cpo36qri1sfpv3e86is0","pricing_plan_id":"cebpf4jnsgd1na2vs0mg"},{"bike_id":"9cb55d20-a7eb-44cb-b8b5-e241c5520e9d","system_id":"levelo_inurba_marseille","lat":43.29283,"lon":5.36848,"is_reserved":false,"is_disabled":true,"rental_uris":{"android":"levelo://app?vid=9cb55d20-a7eb-44cb-b8b5-e241c5520e9d","ios":"levelo://app?vid=9cb55d20-a7eb-44cb-b8b5-e241c5520e9d"},"vehicle_type_id":"4","last_reported":1773730314,"current_range_meters":5600,"station_id":"ce4bhbp2rcd13ifvqesg","pricing_plan_id":"cebpf4jnsgd1na2vs0mg"},{"bike_id":"8c9e26c8-460a-4562-8c2d-b4f73e68fbd8","system_id":"levelo_inurba_marseille","lat":43.28391,"lon":5.37515,"is_reserved":false,"is_disabled":false,"rental_uris":{"android":"levelo://app?vid=8c9e26c8-460a-4562-8c2d-b4f73e68fbd8","ios":"levelo://app?vid=8c9e26c8-460a-4562-8c2d-b4f73e68fbd8"},"vehicle_type_id":"4","last_reported":1773730314,"current_range_meters":5600,"station_id":"ce4bh412rcd13ifvqds0","pricing_plan_id":"cebpf4jnsgd1na2vs0mg"},{"bike_id":"d06b1804-70fd-40ad-8edd-a00949173812","system_id":"levelo_inurba_marseille","lat":43.23192,"lon":5.40004,"is_reserved":false,"is_disabled":false,"rental_uris":{"android":"levelo://app?vid=d06b1804-70fd-40ad-8edd-a00949173812","ios":"levelo://app?vid=d06b1804-70fd-40ad-8edd-a00949173812"},"vehicle_type_id":"4","last_reported":1773730314,"current_range_meters":5600,"station_id":"ce4bhn12rcd13ifvqgqg","pricing_plan_id":"cebpf4jnsgd1na2vs0mg"},{"bike_id":"5247c951-a74f-455c-8348-09a4b4062d01","system_id":"levelo_inurba_marseille","lat":43.21769,"lon":5.34576,"is_reserved":false,"is_disabled":false,"rental_uris":{"android":"levelo://app?vid=5247c951-a74f-455c-8348-09a4b4062d01","ios":"levelo://app?vid=5247c951-a74f-455c-8348-09a4b4062d01"},"vehicle_type_id":"4","last_reported":1773730314,"current_range_meters":5600,"station_id":"st_cvj6r9ubvosntc0bgbag","pricing_plan_id":"cebpf4jnsgd1na2vs0mg"},{"bike_id":"2d475c7c-0764-4ac9-8950-41d5059b573b","system_id":"levelo_inurba_marseille","lat":43.28486,"lon":5.48406,"is_reserved":false,"is_disabled":false,"rental_uris":{"android":"levelo://app?vid=2d475c7c-0764-4ac9-8950-41d5059b573b","ios":"levelo://app?vid=2d475c7c-0764-4ac9-8950-41d5059b573b"},"vehicle_type_id":"4","last_reported":1773730314,"current_range_meters":6000,"station_id":"","pricing_plan_id":"cebpf4jnsgd1na2vs0mg"},{"bike_id":"54e1430e-f603-4f12-94e1-97898e39d9f4","system_id":"levelo_inurba_marseille","lat":43.3103,"lon":5.37163,"is_reserved":false,"is_disabled":false,"rental_uris":{"android":"levelo://app?vid=54e1430e-f603-4f12-94e1-97898e39d9f4","ios":"levelo://app?vid=54e1430e-f603-4f12-94e1-97898e39d9f4"},"vehicle_type_id":"4","last_reported":1773730314,"current_range_meters":6000,"station_id":"st_d4kl2rp97mjs73e7tdfg","pricing_plan_id":"cebpf4jnsgd1na2vs0mg"},{"bike_id":"cca6ab88-ddce-4053-9bf9-c71892882cd4","system_id":"levelo_inurba_marseille","lat":43.30138,"lon":5.38099,"is_reserved":false,"is_disabled":false,"rental_uris":{"android":"levelo://app?vid=cca6ab88-ddce-4053-9bf9-c71892882cd4","ios":"levelo://app?vid=cca6ab88-ddce-4053-9bf9-c71892882cd4"},"vehicle_type_id":"4","last_reported":1773730314,"current_range_meters":6000,"station_id":"ce4bgjp2rcd13ifvqbh0","pricing_plan_id":"cebpf4jnsgd1na2vs0mg"},{"bike_id":"74b262c5-9af4-405f-811f-ffca97e7ff72","system_id":"levelo_inurba_marseille","lat":43.28716,"lon":5.37394,"is_reserved":false,"is_disabled":false,"rental_uris":{"android":"levelo://app?vid=74b262c5-9af4-405f-811f-ffca97e7ff72","ios":"levelo://app?vid=74b262c5-9af4-405f-811f-ffca97e7ff72"},"vehicle_type_id":"4","last_reported":1773730314,"current_range_meters":6000,"station_id":"ce4bh3p2rcd13ifvqdq0","pricing_plan_id":"cebpf4jnsgd1na2vs0mg"},{"bike_id":"9cc251ca-bbe0-4c21-8f97-024982103954","system_id":"levelo_inurba_marseille","lat":43.24069,"lon":5.37758,"is_reserved":false,"is_disabled":false,"rental_uris":{"android":"levelo://app?vid=9cc251ca-bbe0-4c21-8f97-024982103954","ios":"levelo://app?vid=9cc251ca-bbe0-4c21-8f97-024982103954"},"vehicle_type_id":"4","last_reported":1773730314,"current_range_meters":6000,"station_id":"ce4bhnp2rcd13ifvqgvg","pricing_plan_id":"cebpf4jnsgd1na2vs0mg"},{"bike_id":"3b2d3b2b-9e7f-43fe-b40c-4cc1b73a89cf","system_id":"levelo_inurba_marseille","lat":43.28485,"lon":5.38455,"is_reserved":false,"is_disabled":true,"rental_uris":{"android":"levelo://app?vid=3b2d3b2b-9e7f-43fe-b40c-4cc1b73a89cf","ios":"levelo://app?vid=3b2d3b2b-9e7f-43fe-b40c-4cc1b73a89cf"},"vehicle_type_id":"4","last_reported":1773730314,"current_range_meters":6000,"station_id":"ce4bh512rcd13ifvqe3g","pricing_plan_id":"cebpf4jnsgd1na2vs0mg"},{"bike_id":"15be0d27-6ec4-4804-bd50-725ac11aa5cd","system_id":"levelo_inurba_marseille","lat":43.28941,"lon":5.38436,"is_reserved":false,"is_disabled":false,"rental_uris":{"android":"levelo://app?vid=15be0d27-6ec4-4804-bd50-725ac11aa5cd","ios":"levelo://app?vid=15be0d27-6ec4-4804-bd50-725ac11aa5cd"},"vehicle_type_id":"4","last_reported":1773730314,"current_range_meters":6000,"station_id":"ce4bh612rcd13ifvqe6g","pricing_plan_id":"cebpf4jnsgd1na2vs0mg"},{"bike_id":"09670bd3-4cc6-40d6-b9c7-c1422d1906d5","system_id":"levelo_inurba_marseille","lat":43.28483,"lon":5.38405,"is_reserved":false,"is_disabled":false,"rental_uris":{"android":"levelo://app?vid=09670bd3-4cc6-40d6-b9c7-c1422d1906d5","ios":"levelo://app?vid=09670bd3-4cc6-40d6-b9c7-c1422d1906d5"},"vehicle_type_id":"4","last_reported":1773730314,"current_range_meters":6000,"station_id":"ce4bh512rcd13ifvqe3g","pricing_plan_id":"cebpf4jnsgd1na2vs0mg"},{"bike_id":"4ca2074d-5be8-4f09-a2f9-0200664389f9","system_id":"levelo_inurba_marseille","lat":43.30738,"lon":5.42437,"is_reserved":false,"is_disabled":false,"rental_uris":{"android":"levelo://app?vid=4ca2074d-5be8-4f09-a2f9-0200664389f9","ios":"levelo://app?vid=4ca2074d-5be8-4f09-a2f9-0200664389f9"},"vehicle_type_id":"4","last_reported":1773730314,"current_range_meters":6000,"station_id":"st_cvj6ca6bvosntc0bfgr0","pricing_plan_id":"cebpf4jnsgd1na2vs0mg"},{"bike_id":"7fbc82da-1717-40f5-8e22-a284df5edd5a","system_id":"levelo_inurba_marseille","lat":43.24661,"lon":5.43159,"is_reserved":false,"is_disabled":false,"rental_uris":{"android":"levelo://app?vid=7fbc82da-1717-40f5-8e22-a284df5edd5a","ios":"levelo://app?vid=7fbc82da-1717-40f5-8e22-a284df5edd5a"},"vehicle_type_id":"4","last_reported":1773730314,"current_range_meters":6000,"station_id":"","pricing_plan_id":"cebpf4jnsgd1na2vs0mg"},{"bike_id":"b11c0452-81c6-4fc8-9e9d-167cacd2bc53","system_id":"levelo_inurba_marseille","lat":43.28279,"lon":5.35076,"is_reserved":false,"is_disabled":false,"rental_uris":{"android":"levelo://app?vid=b11c0452-81c6-4fc8-9e9d-167cacd2bc53","ios":"levelo://app?vid=b11c0452-81c6-4fc8-9e9d-167cacd2bc53"},"vehicle_type_id":"4","last_reported":1773730314,"current_range_meters":6400,"station_id":"ce4bhbp2rcd13ifvqerg","pricing_plan_id":"cebpf4jnsgd1na2vs0mg"},{"bike_id":"796ed888-5e80-4248-a7be-20570706635d","system_id":"levelo_inurba_marseille","lat":43.2379,"lon":5.36631,"is_reserved":false,"is_disabled":false,"rental_uris":{"android":"levelo://app?vid=796ed888-5e80-4248-a7be-20570706635d","ios":"levelo://app?vid=796ed888-5e80-4248-a7be-20570706635d"},"vehicle_type_id":"4","last_reported":1773730314,"current_range_meters":6400,"station_id":"st_d3nk18o9ro0c73en2l3g","pricing_plan_id":"cebpf4jnsgd1na2vs0mg"},{"bike_id":"480cf634-936b-4cdd-a328-e715ddbb7d86","system_id":"levelo_inurba_marseille","lat":43.27213,"lon":5.39181,"is_reserved":false,"is_disabled":false,"rental_uris":{"android":"levelo://app?vid=480cf634-936b-4cdd-a328-e715ddbb7d86","ios":"levelo://app?vid=480cf634-936b-4cdd-a328-e715ddbb7d86"},"vehicle_type_id":"4","last_reported":1773730314,"current_range_meters":6400,"station_id":"ce4bhhp2rcd13ifvqfm0","pricing_plan_id":"cebpf4jnsgd1na2vs0mg"},{"bike_id":"cd16d767-542b-4e2f-ae6b-1b9f4202800d","system_id":"levelo_inurba_marseille","lat":43.2979,"lon":5.37105,"is_reserved":false,"is_disabled":false,"rental_uris":{"android":"levelo://app?vid=cd16d767-542b-4e2f-ae6b-1b9f4202800d","ios":"levelo://app?vid=cd16d767-542b-4e2f-ae6b-1b9f4202800d"},"vehicle_type_id":"4","last_reported":1773730314,"current_range_meters":6400,"station_id":"ce4bgop2rcd13ifvqc1g","pricing_plan_id":"cebpf4jnsgd1na2vs0mg"},{"bike_id":"2659684f-801c-4863-9231-9c2317cbd087","system_id":"levelo_inurba_marseille","lat":43.30324,"lon":5.40454,"is_reserved":false,"is_disabled":false,"rental_uris":{"android":"levelo://app?vid=2659684f-801c-4863-9231-9c2317cbd087","ios":"levelo://app?vid=2659684f-801c-4863-9231-9c2317cbd087"},"vehicle_type_id":"4","last_reported":1773730314,"current_range_meters":6800,"station_id":"ce4bh012rcd13ifvqd10","pricing_plan_id":"cebpf4jnsgd1na2vs0mg"},{"bike_id":"55ad6576-3c79-4a6b-881b-323a7e8b70a1","system_id":"levelo_inurba_marseille","lat":43.25012,"lon":5.38942,"is_reserved":false,"is_disabled":false,"rental_uris":{"android":"levelo://app?vid=55ad6576-3c79-4a6b-881b-323a7e8b70a1","ios":"levelo://app?vid=55ad6576-3c79-4a6b-881b-323a7e8b70a1"},"vehicle_type_id":"4","last_reported":1773730314,"current_range_meters":6800,"station_id":"ce4bhgp2rcd13ifvqfd0","pricing_plan_id":"cebpf4jnsgd1na2vs0mg"},{"bike_id":"fcc16676-bdcc-453d-943e-a6082336e83f","system_id":"levelo_inurba_marseille","lat":43.29833,"lon":5.44145,"is_reserved":false,"is_disabled":false,"rental_uris":{"android":"levelo://app?vid=fcc16676-bdcc-453d-943e-a6082336e83f","ios":"levelo://app?vid=fcc16676-bdcc-453d-943e-a6082336e83f"},"vehicle_type_id":"4","last_reported":1773730314,"current_range_meters":6800,"station_id":"st_d3jp68qikq2c7381ktn0","pricing_plan_id":"cebpf4jnsgd1na2vs0mg"},{"bike_id":"b5a6141d-ba50-4acc-8bdc-bdaeedf60276","system_id":"levelo_inurba_marseille","lat":43.2954,"lon":5.37483,"is_reserved":false,"is_disabled":true,"rental_uris":{"android":"levelo://app?vid=b5a6141d-ba50-4acc-8bdc-bdaeedf60276","ios":"levelo://app?vid=b5a6141d-ba50-4acc-8bdc-bdaeedf60276"},"vehicle_type_id":"4","last_reported":1773730314,"current_range_meters":6800,"station_id":"ce4bgkp2rcd13ifvqbmg","pricing_plan_id":"cebpf4jnsgd1na2vs0mg"},{"bike_id":"4c3d3553-54d0-46a3-acda-d420768e23c3","system_id":"levelo_inurba_marseille","lat":43.27375,"lon":5.36258,"is_reserved":false,"is_disabled":false,"rental_uris":{"android":"levelo://app?vid=4c3d3553-54d0-46a3-acda-d420768e23c3","ios":"levelo://app?vid=4c3d3553-54d0-46a3-acda-d420768e23c3"},"vehicle_type_id":"4","last_reported":1773730314,"current_range_meters":6800,"station_id":"ce4bhbh2rcd13ifvqeo0","pricing_plan_id":"cebpf4jnsgd1na2vs0mg"},{"bike_id":"69d2e5d2-aab9-4fc9-a42e-b520c7e8b4f1","system_id":"levelo_inurba_marseille","lat":43.23018,"lon":5.35538,"is_reserved":false,"is_disabled":false,"rental_uris":{"android":"levelo://app?vid=69d2e5d2-aab9-4fc9-a42e-b520c7e8b4f1","ios":"levelo://app?vid=69d2e5d2-aab9-4fc9-a42e-b520c7e8b4f1"},"vehicle_type_id":"4","last_reported":1773730314,"current_range_meters":6800,"station_id":"","pricing_plan_id":"cebpf4jnsgd1na2vs0mg"},{"bike_id":"59ce8ea8-9857-4560-96a8-4342edcf3bc4","system_id":"levelo_inurba_marseille","lat":43.29064,"lon":5.39993,"is_reserved":false,"is_disabled":false,"rental_uris":{"android":"levelo://app?vid=59ce8ea8-9857-4560-96a8-4342edcf3bc4","ios":"levelo://app?vid=59ce8ea8-9857-4560-96a8-4342edcf3bc4"},"vehicle_type_id":"4","last_reported":1773730314,"current_range_meters":6800,"station_id":"ce4bh392rcd13ifvqdm0","pricing_plan_id":"cebpf4jnsgd1na2vs0mg"},{"bike_id":"e7729074-2a00-415f-9930-82488baee2d4","system_id":"levelo_inurba_marseille","lat":43.30747,"lon":5.44039,"is_reserved":false,"is_disabled":false,"rental_uris":{"android":"levelo://app?vid=e7729074-2a00-415f-9930-82488baee2d4","ios":"levelo://app?vid=e7729074-2a00-415f-9930-82488baee2d4"},"vehicle_type_id":"4","last_reported":1773730314,"current_range_meters":6800,"station_id":"","pricing_plan_id":"cebpf4jnsgd1na2vs0mg"},{"bike_id":"f54bd02b-8bfd-413b-a9a2-36775fe7ddf7","system_id":"levelo_inurba_marseille","lat":43.30098,"lon":5.40233,"is_reserved":false,"is_disabled":false,"rental_uris":{"android":"levelo://app?vid=f54bd02b-8bfd-413b-a9a2-36775fe7ddf7","ios":"levelo://app?vid=f54bd02b-8bfd-413b-a9a2-36775fe7ddf7"},"vehicle_type_id":"4","last_reported":1773730314,"current_range_meters":6800,"station_id":"","pricing_plan_id":"cebpf4jnsgd1na2vs0mg"},{"bike_id":"5bd25520-71f0-4383-9582-fa2c22fb695a","system_id":"levelo_inurba_marseille","lat":43.25938,"lon":5.409,"is_reserved":false,"is_disabled":false,"rental_uris":{"android":"levelo://app?vid=5bd25520-71f0-4383-9582-fa2c22fb695a","ios":"levelo://app?vid=5bd25520-71f0-4383-9582-fa2c22fb695a"},"vehicle_type_id":"4","last_reported":1773730314,"current_range_meters":6800,"station_id":"ce4bhm92rcd13ifvqglg","pricing_plan_id":"cebpf4jnsgd1na2vs0mg"},{"bike_id":"8f31d5b9-6e05-407e-b4ff-967a781ffb57","system_id":"levelo_inurba_marseille","lat":43.25741,"lon":5.41105,"is_reserved":false,"is_disabled":false,"rental_uris":{"android":"levelo://app?vid=8f31d5b9-6e05-407e-b4ff-967a781ffb57","ios":"levelo://app?vid=8f31d5b9-6e05-407e-b4ff-967a781ffb57"},"vehicle_type_id":"4","last_reported":1773730314,"current_range_meters":6800,"station_id":"ce4bhkp2rcd13ifvqgd0","pricing_plan_id":"cebpf4jnsgd1na2vs0mg"},{"bike_id":"523ea723-1fdd-4331-ab86-103e48a58552","system_id":"levelo_inurba_marseille","lat":43.2866,"lon":5.36354,"is_reserved":false,"is_disabled":false,"rental_uris":{"android":"levelo://app?vid=523ea723-1fdd-4331-ab86-103e48a58552","ios":"levelo://app?vid=523ea723-1fdd-4331-ab86-103e48a58552"},"vehicle_type_id":"4","last_reported":1773730314,"current_range_meters":6800,"station_id":"ce4bhah2rcd13ifvqej0","pricing_plan_id":"cebpf4jnsgd1na2vs0mg"},{"bike_id":"88858f89-fe21-45f8-acbb-9ce67472ddb3","system_id":"levelo_inurba_marseille","lat":43.22928,"lon":5.35364,"is_reserved":false,"is_disabled":false,"rental_uris":{"android":"levelo://app?vid=88858f89-fe21-45f8-acbb-9ce67472ddb3","ios":"levelo://app?vid=88858f89-fe21-45f8-acbb-9ce67472ddb3"},"vehicle_type_id":"4","last_reported":1773730314,"current_range_meters":6800,"station_id":"cpo3532slgdg3j2ikp40","pricing_plan_id":"cebpf4jnsgd1na2vs0mg"},{"bike_id":"8489365d-5feb-4109-a0cf-3015c0ef09d7","system_id":"levelo_inurba_marseille","lat":43.30153,"lon":5.43759,"is_reserved":false,"is_disabled":false,"rental_uris":{"android":"levelo://app?vid=8489365d-5feb-4109-a0cf-3015c0ef09d7","ios":"levelo://app?vid=8489365d-5feb-4109-a0cf-3015c0ef09d7"},"vehicle_type_id":"4","last_reported":1773730314,"current_range_meters":6800,"station_id":"","pricing_plan_id":"cebpf4jnsgd1na2vs0mg"},{"bike_id":"d114d824-e871-4708-87e4-8f178331015c","system_id":"levelo_inurba_marseille","lat":43.26583,"lon":5.39011,"is_reserved":false,"is_disabled":false,"rental_uris":{"android":"levelo://app?vid=d114d824-e871-4708-87e4-8f178331015c","ios":"levelo://app?vid=d114d824-e871-4708-87e4-8f178331015c"},"vehicle_type_id":"4","last_reported":1773730314,"current_range_meters":6800,"station_id":"ce4bhe12rcd13ifvqf30","pricing_plan_id":"cebpf4jnsgd1na2vs0mg"},{"bike_id":"99b3399f-a7f1-46ba-9d8d-17a6644bc2b4","system_id":"levelo_inurba_marseille","lat":43.21742,"lon":5.3461,"is_reserved":false,"is_disabled":false,"rental_uris":{"android":"levelo://app?vid=99b3399f-a7f1-46ba-9d8d-17a6644bc2b4","ios":"levelo://app?vid=99b3399f-a7f1-46ba-9d8d-17a6644bc2b4"},"vehicle_type_id":"4","last_reported":1773730314,"current_range_meters":6800,"station_id":"st_cvj6r9ubvosntc0bgbag","pricing_plan_id":"cebpf4jnsgd1na2vs0mg"},{"bike_id":"5546bd0f-7ced-4964-ba48-a430fa2adf47","system_id":"levelo_inurba_marseille","lat":43.21756,"lon":5.34626,"is_reserved":false,"is_disabled":true,"rental_uris":{"android":"levelo://app?vid=5546bd0f-7ced-4964-ba48-a430fa2adf47","ios":"levelo://app?vid=5546bd0f-7ced-4964-ba48-a430fa2adf47"},"vehicle_type_id":"4","last_reported":1773730314,"current_range_meters":7200,"station_id":"st_cvj6r9ubvosntc0bgbag","pricing_plan_id":"cebpf4jnsgd1na2vs0mg"},{"bike_id":"feaf2e83-6bc7-46d3-b8dc-e52b9fc8cf3e","system_id":"levelo_inurba_marseille","lat":43.22569,"lon":5.41629,"is_reserved":false,"is_disabled":false,"rental_uris":{"android":"levelo://app?vid=feaf2e83-6bc7-46d3-b8dc-e52b9fc8cf3e","ios":"levelo://app?vid=feaf2e83-6bc7-46d3-b8dc-e52b9fc8cf3e"},"vehicle_type_id":"4","last_reported":1773730314,"current_range_meters":7200,"station_id":"st_d2o4gvlbi1j2169b742g","pricing_plan_id":"cebpf4jnsgd1na2vs0mg"},{"bike_id":"47ef176d-68be-4aff-b054-43d33804887a","system_id":"levelo_inurba_marseille","lat":43.26563,"lon":5.37314,"is_reserved":false,"is_disabled":false,"rental_uris":{"android":"levelo://app?vid=47ef176d-68be-4aff-b054-43d33804887a","ios":"levelo://app?vid=47ef176d-68be-4aff-b054-43d33804887a"},"vehicle_type_id":"4","last_reported":1773730314,"current_range_meters":7200,"station_id":"ce4bhg12rcd13ifvqf70","pricing_plan_id":"cebpf4jnsgd1na2vs0mg"},{"bike_id":"c0ddb57f-e5f5-4ce0-b6c4-75fd2010b9ba","system_id":"levelo_inurba_marseille","lat":43.27478,"lon":5.41586,"is_reserved":false,"is_disabled":false,"rental_uris":{"android":"levelo://app?vid=c0ddb57f-e5f5-4ce0-b6c4-75fd2010b9ba","ios":"levelo://app?vid=c0ddb57f-e5f5-4ce0-b6c4-75fd2010b9ba"},"vehicle_type_id":"4","last_reported":1773730314,"current_range_meters":7200,"station_id":"st_d6im8g6chgec73a5pndg","pricing_plan_id":"cebpf4jnsgd1na2vs0mg"},{"bike_id":"37968066-0b78-49a9-89f8-964d9774907e","system_id":"levelo_inurba_marseille","lat":43.26565,"lon":5.37278,"is_reserved":false,"is_disabled":false,"rental_uris":{"android":"levelo://app?vid=37968066-0b78-49a9-89f8-964d9774907e","ios":"levelo://app?vid=37968066-0b78-49a9-89f8-964d9774907e"},"vehicle_type_id":"4","last_reported":1773730314,"current_range_meters":7200,"station_id":"ce4bhg12rcd13ifvqf70","pricing_plan_id":"cebpf4jnsgd1na2vs0mg"},{"bike_id":"b3f9d14b-bef5-4d03-bd67-be3b0a71369f","system_id":"levelo_inurba_marseille","lat":43.28161,"lon":5.42618,"is_reserved":false,"is_disabled":false,"rental_uris":{"android":"levelo://app?vid=b3f9d14b-bef5-4d03-bd67-be3b0a71369f","ios":"levelo://app?vid=b3f9d14b-bef5-4d03-bd67-be3b0a71369f"},"vehicle_type_id":"4","last_reported":1773730314,"current_range_meters":7200,"station_id":"ce4bhnh2rcd13ifvqgug","pricing_plan_id":"cebpf4jnsgd1na2vs0mg"},{"bike_id":"9cb07ab3-75f5-4b10-84f8-b86a241dd760","system_id":"levelo_inurba_marseille","lat":43.2495,"lon":5.40491,"is_reserved":false,"is_disabled":false,"rental_uris":{"android":"levelo://app?vid=9cb07ab3-75f5-4b10-84f8-b86a241dd760","ios":"levelo://app?vid=9cb07ab3-75f5-4b10-84f8-b86a241dd760"},"vehicle_type_id":"4","last_reported":1773730314,"current_range_meters":7200,"station_id":"st_d2ngiaodas8pm72gd1h0","pricing_plan_id":"cebpf4jnsgd1na2vs0mg"},{"bike_id":"df20bf0e-9c4a-4578-906f-eb4a10df313e","system_id":"levelo_inurba_marseille","lat":43.30164,"lon":5.38085,"is_reserved":false,"is_disabled":false,"rental_uris":{"android":"levelo://app?vid=df20bf0e-9c4a-4578-906f-eb4a10df313e","ios":"levelo://app?vid=df20bf0e-9c4a-4578-906f-eb4a10df313e"},"vehicle_type_id":"4","last_reported":1773730314,"current_range_meters":7200,"station_id":"ce4bgjp2rcd13ifvqbh0","pricing_plan_id":"cebpf4jnsgd1na2vs0mg"},{"bike_id":"faa8d18a-3767-4f17-b9c5-3e2ab989e6d0","system_id":"levelo_inurba_marseille","lat":43.25101,"lon":5.39515,"is_reserved":false,"is_disabled":false,"rental_uris":{"android":"levelo://app?vid=faa8d18a-3767-4f17-b9c5-3e2ab989e6d0","ios":"levelo://app?vid=faa8d18a-3767-4f17-b9c5-3e2ab989e6d0"},"vehicle_type_id":"4","last_reported":1773730314,"current_range_meters":7200,"station_id":"ce4bhm12rcd13ifvqgkg","pricing_plan_id":"cebpf4jnsgd1na2vs0mg"},{"bike_id":"b3e3399c-3837-42b8-afac-39674642005e","system_id":"levelo_inurba_marseille","lat":43.29784,"lon":5.42705,"is_reserved":false,"is_disabled":false,"rental_uris":{"android":"levelo://app?vid=b3e3399c-3837-42b8-afac-39674642005e","ios":"levelo://app?vid=b3e3399c-3837-42b8-afac-39674642005e"},"vehicle_type_id":"4","last_reported":1773730314,"current_range_meters":7200,"station_id":"","pricing_plan_id":"cebpf4jnsgd1na2vs0mg"},{"bike_id":"98850a32-3ba9-4a1b-b6b8-d3f04feebee6","system_id":"levelo_inurba_marseille","lat":43.30212,"lon":5.39475,"is_reserved":false,"is_disabled":false,"rental_uris":{"android":"levelo://app?vid=98850a32-3ba9-4a1b-b6b8-d3f04feebee6","ios":"levelo://app?vid=98850a32-3ba9-4a1b-b6b8-d3f04feebee6"},"vehicle_type_id":"4","last_reported":1773730314,"current_range_meters":7200,"station_id":"ce4bh0p2rcd13ifvqd70","pricing_plan_id":"cebpf4jnsgd1na2vs0mg"},{"bike_id":"4edc1e69-f919-4c2f-a6b8-66257e87a54f","system_id":"levelo_inurba_marseille","lat":43.28472,"lon":5.48404,"is_reserved":false,"is_disabled":false,"rental_uris":{"android":"levelo://app?vid=4edc1e69-f919-4c2f-a6b8-66257e87a54f","ios":"levelo://app?vid=4edc1e69-f919-4c2f-a6b8-66257e87a54f"},"vehicle_type_id":"4","last_reported":1773730314,"current_range_meters":7200,"station_id":"","pricing_plan_id":"cebpf4jnsgd1na2vs0mg"},{"bike_id":"e4b515b3-5a64-4f24-8a63-3407e3500a15","system_id":"levelo_inurba_marseille","lat":43.24302,"lon":5.40251,"is_reserved":false,"is_disabled":false,"rental_uris":{"android":"levelo://app?vid=e4b515b3-5a64-4f24-8a63-3407e3500a15","ios":"levelo://app?vid=e4b515b3-5a64-4f24-8a63-3407e3500a15"},"vehicle_type_id":"4","last_reported":1773730314,"current_range_meters":7200,"station_id":"","pricing_plan_id":"cebpf4jnsgd1na2vs0mg"},{"bike_id":"41b7b418-9b4f-4bf0-a387-6295ab4a59a6","system_id":"levelo_inurba_marseille","lat":43.25825,"lon":5.39431,"is_reserved":false,"is_disabled":false,"rental_uris":{"android":"levelo://app?vid=41b7b418-9b4f-4bf0-a387-6295ab4a59a6","ios":"levelo://app?vid=41b7b418-9b4f-4bf0-a387-6295ab4a59a6"},"vehicle_type_id":"4","last_reported":1773730314,"current_range_meters":7200,"station_id":"ce4bhip2rcd13ifvqft0","pricing_plan_id":"cebpf4jnsgd1na2vs0mg"},{"bike_id":"cf7e06e7-174f-44ce-bebf-7de04dbdbc0d","system_id":"levelo_inurba_marseille","lat":43.30338,"lon":5.36875,"is_reserved":false,"is_disabled":true,"rental_uris":{"android":"levelo://app?vid=cf7e06e7-174f-44ce-bebf-7de04dbdbc0d","ios":"levelo://app?vid=cf7e06e7-174f-44ce-bebf-7de04dbdbc0d"},"vehicle_type_id":"4","last_reported":1773730314,"current_range_meters":8000,"station_id":"ce4bgqh2rcd13ifvqc5g","pricing_plan_id":"cebpf4jnsgd1na2vs0mg"},{"bike_id":"03812eec-b185-465c-8c48-7984e651c3d0","system_id":"levelo_inurba_marseille","lat":43.33059,"lon":5.3904,"is_reserved":false,"is_disabled":false,"rental_uris":{"android":"levelo://app?vid=03812eec-b185-465c-8c48-7984e651c3d0","ios":"levelo://app?vid=03812eec-b185-465c-8c48-7984e651c3d0"},"vehicle_type_id":"4","last_reported":1773730314,"current_range_meters":8000,"station_id":"ce4bhr92rcd13ifvqhrg","pricing_plan_id":"cebpf4jnsgd1na2vs0mg"},{"bike_id":"57f59ea7-9661-484b-ab62-8930e39b76a3","system_id":"levelo_inurba_marseille","lat":43.23795,"lon":5.36639,"is_reserved":false,"is_disabled":false,"rental_uris":{"android":"levelo://app?vid=57f59ea7-9661-484b-ab62-8930e39b76a3","ios":"levelo://app?vid=57f59ea7-9661-484b-ab62-8930e39b76a3"},"vehicle_type_id":"4","last_reported":1773730314,"current_range_meters":8000,"station_id":"st_d3nk18o9ro0c73en2l3g","pricing_plan_id":"cebpf4jnsgd1na2vs0mg"},{"bike_id":"9ffcd30b-650f-4436-9b49-3da9737f924f","system_id":"levelo_inurba_marseille","lat":43.31104,"lon":5.37185,"is_reserved":false,"is_disabled":false,"rental_uris":{"android":"levelo://app?vid=9ffcd30b-650f-4436-9b49-3da9737f924f","ios":"levelo://app?vid=9ffcd30b-650f-4436-9b49-3da9737f924f"},"vehicle_type_id":"4","last_reported":1773730314,"current_range_meters":8000,"station_id":"st_d4kl2rp97mjs73e7tdfg","pricing_plan_id":"cebpf4jnsgd1na2vs0mg"},{"bike_id":"010a9f6e-3baf-4328-b2cc-6d9ecc86357b","system_id":"levelo_inurba_marseille","lat":43.31508,"lon":5.37272,"is_reserved":false,"is_disabled":false,"rental_uris":{"android":"levelo://app?vid=010a9f6e-3baf-4328-b2cc-6d9ecc86357b","ios":"levelo://app?vid=010a9f6e-3baf-4328-b2cc-6d9ecc86357b"},"vehicle_type_id":"4","last_reported":1773730314,"current_range_meters":8000,"station_id":"ce4bgt12rcd13ifvqcd0","pricing_plan_id":"cebpf4jnsgd1na2vs0mg"},{"bike_id":"4b968c92-3e00-48fd-a451-196da1366216","system_id":"levelo_inurba_marseille","lat":43.27671,"lon":5.38895,"is_reserved":false,"is_disabled":false,"rental_uris":{"android":"levelo://app?vid=4b968c92-3e00-48fd-a451-196da1366216","ios":"levelo://app?vid=4b968c92-3e00-48fd-a451-196da1366216"},"vehicle_type_id":"4","last_reported":1773730314,"current_range_meters":8000,"station_id":"ce4bhi12rcd13ifvqfo0","pricing_plan_id":"cebpf4jnsgd1na2vs0mg"},{"bike_id":"b21e3be4-c7ed-41ef-8b12-6d82d73722e2","system_id":"levelo_inurba_marseille","lat":43.24841,"lon":5.37482,"is_reserved":false,"is_disabled":false,"rental_uris":{"android":"levelo://app?vid=b21e3be4-c7ed-41ef-8b12-6d82d73722e2","ios":"levelo://app?vid=b21e3be4-c7ed-41ef-8b12-6d82d73722e2"},"vehicle_type_id":"4","last_reported":1773730314,"current_range_meters":8000,"station_id":"","pricing_plan_id":"cebpf4jnsgd1na2vs0mg"},{"bike_id":"225b849b-451b-440d-a48c-4a485e0a2d92","system_id":"levelo_inurba_marseille","lat":43.25867,"lon":5.39906,"is_reserved":false,"is_disabled":false,"rental_uris":{"android":"levelo://app?vid=225b849b-451b-440d-a48c-4a485e0a2d92","ios":"levelo://app?vid=225b849b-451b-440d-a48c-4a485e0a2d92"},"vehicle_type_id":"4","last_reported":1773730314,"current_range_meters":8000,"station_id":"ce4bhl92rcd13ifvqghg","pricing_plan_id":"cebpf4jnsgd1na2vs0mg"},{"bike_id":"dd60e221-7b57-45b0-9f67-03f2a66d7ded","system_id":"levelo_inurba_marseille","lat":43.28204,"lon":5.3905,"is_reserved":false,"is_disabled":false,"rental_uris":{"android":"levelo://app?vid=dd60e221-7b57-45b0-9f67-03f2a66d7ded","ios":"levelo://app?vid=dd60e221-7b57-45b0-9f67-03f2a66d7ded"},"vehicle_type_id":"4","last_reported":1773730314,"current_range_meters":8000,"station_id":"ce4bhn92rcd13ifvqgsg","pricing_plan_id":"cebpf4jnsgd1na2vs0mg"},{"bike_id":"8cb2a7a3-90e1-4b31-8c3b-89053d13e1d9","system_id":"levelo_inurba_marseille","lat":43.23201,"lon":5.35544,"is_reserved":false,"is_disabled":false,"rental_uris":{"android":"levelo://app?vid=8cb2a7a3-90e1-4b31-8c3b-89053d13e1d9","ios":"levelo://app?vid=8cb2a7a3-90e1-4b31-8c3b-89053d13e1d9"},"vehicle_type_id":"4","last_reported":1773730314,"current_range_meters":8000,"station_id":"ce4bhu92rcd13ifvqi70","pricing_plan_id":"cebpf4jnsgd1na2vs0mg"},{"bike_id":"6f83eb31-b48e-41cc-86f8-dc0cead3d767","system_id":"levelo_inurba_marseille","lat":43.21203,"lon":5.35078,"is_reserved":false,"is_disabled":false,"rental_uris":{"android":"levelo://app?vid=6f83eb31-b48e-41cc-86f8-dc0cead3d767","ios":"levelo://app?vid=6f83eb31-b48e-41cc-86f8-dc0cead3d767"},"vehicle_type_id":"4","last_reported":1773730314,"current_range_meters":8000,"station_id":"st_cvj6sg6p6f1abm77japg","pricing_plan_id":"cebpf4jnsgd1na2vs0mg"},{"bike_id":"a9bf5289-9f8f-47c7-87e4-10466567bbec","system_id":"levelo_inurba_marseille","lat":43.28954,"lon":5.36626,"is_reserved":false,"is_disabled":false,"rental_uris":{"android":"levelo://app?vid=a9bf5289-9f8f-47c7-87e4-10466567bbec","ios":"levelo://app?vid=a9bf5289-9f8f-47c7-87e4-10466567bbec"},"vehicle_type_id":"4","last_reported":1773730314,"current_range_meters":8000,"station_id":"ce4bhap2rcd13ifvqek0","pricing_plan_id":"cebpf4jnsgd1na2vs0mg"},{"bike_id":"a1cbdf85-43b7-4cdc-b096-1df550b7ce74","system_id":"levelo_inurba_marseille","lat":43.29574,"lon":5.39965,"is_reserved":false,"is_disabled":false,"rental_uris":{"android":"levelo://app?vid=a1cbdf85-43b7-4cdc-b096-1df550b7ce74","ios":"levelo://app?vid=a1cbdf85-43b7-4cdc-b096-1df550b7ce74"},"vehicle_type_id":"4","last_reported":1773730314,"current_range_meters":8000,"station_id":"ce4bh312rcd13ifvqdj0","pricing_plan_id":"cebpf4jnsgd1na2vs0mg"},{"bike_id":"9b44eabc-9473-4aeb-8589-934e8f4a2c0e","system_id":"levelo_inurba_marseille","lat":43.22955,"lon":5.35414,"is_reserved":false,"is_disabled":false,"rental_uris":{"android":"levelo://app?vid=9b44eabc-9473-4aeb-8589-934e8f4a2c0e","ios":"levelo://app?vid=9b44eabc-9473-4aeb-8589-934e8f4a2c0e"},"vehicle_type_id":"4","last_reported":1773730314,"current_range_meters":8000,"station_id":"cpo3532slgdg3j2ikp40","pricing_plan_id":"cebpf4jnsgd1na2vs0mg"},{"bike_id":"3dad20a7-e396-4101-adc6-30f4c7f64d56","system_id":"levelo_inurba_marseille","lat":43.24995,"lon":5.38933,"is_reserved":false,"is_disabled":false,"rental_uris":{"android":"levelo://app?vid=3dad20a7-e396-4101-adc6-30f4c7f64d56","ios":"levelo://app?vid=3dad20a7-e396-4101-adc6-30f4c7f64d56"},"vehicle_type_id":"4","last_reported":1773730314,"current_range_meters":8000,"station_id":"ce4bhgp2rcd13ifvqfd0","pricing_plan_id":"cebpf4jnsgd1na2vs0mg"},{"bike_id":"a650f10d-9ab2-42e1-a1ec-b23d66310508","system_id":"levelo_inurba_marseille","lat":43.27363,"lon":5.42382,"is_reserved":false,"is_disabled":true,"rental_uris":{"android":"levelo://app?vid=a650f10d-9ab2-42e1-a1ec-b23d66310508","ios":"levelo://app?vid=a650f10d-9ab2-42e1-a1ec-b23d66310508"},"vehicle_type_id":"4","last_reported":1773730314,"current_range_meters":8000,"station_id":"","pricing_plan_id":"cebpf4jnsgd1na2vs0mg"},{"bike_id":"c6bad372-41ad-42c1-be12-31c25e37b1de","system_id":"levelo_inurba_marseille","lat":43.30156,"lon":5.38103,"is_reserved":false,"is_disabled":true,"rental_uris":{"android":"levelo://app?vid=c6bad372-41ad-42c1-be12-31c25e37b1de","ios":"levelo://app?vid=c6bad372-41ad-42c1-be12-31c25e37b1de"},"vehicle_type_id":"4","last_reported":1773730314,"current_range_meters":8000,"station_id":"ce4bgjp2rcd13ifvqbh0","pricing_plan_id":"cebpf4jnsgd1na2vs0mg"},{"bike_id":"d6f4fcc9-529e-44c9-8ab1-66a46ec0a2d7","system_id":"levelo_inurba_marseille","lat":43.29658,"lon":5.37461,"is_reserved":false,"is_disabled":false,"rental_uris":{"android":"levelo://app?vid=d6f4fcc9-529e-44c9-8ab1-66a46ec0a2d7","ios":"levelo://app?vid=d6f4fcc9-529e-44c9-8ab1-66a46ec0a2d7"},"vehicle_type_id":"4","last_reported":1773730314,"current_range_meters":8000,"station_id":"","pricing_plan_id":"cebpf4jnsgd1na2vs0mg"},{"bike_id":"99ba46b4-4c6f-44d5-9c27-ad82efd84c9b","system_id":"levelo_inurba_marseille","lat":43.21204,"lon":5.35077,"is_reserved":false,"is_disabled":false,"rental_uris":{"android":"levelo://app?vid=99ba46b4-4c6f-44d5-9c27-ad82efd84c9b","ios":"levelo://app?vid=99ba46b4-4c6f-44d5-9c27-ad82efd84c9b"},"vehicle_type_id":"4","last_reported":1773730314,"current_range_meters":8000,"station_id":"st_cvj6sg6p6f1abm77japg","pricing_plan_id":"cebpf4jnsgd1na2vs0mg"},{"bike_id":"37b76a4a-4617-40ad-8663-848e6cf36fa3","system_id":"levelo_inurba_marseille","lat":43.31566,"lon":5.36664,"is_reserved":false,"is_disabled":false,"rental_uris":{"android":"levelo://app?vid=37b76a4a-4617-40ad-8663-848e6cf36fa3","ios":"levelo://app?vid=37b76a4a-4617-40ad-8663-848e6cf36fa3"},"vehicle_type_id":"4","last_reported":1773730314,"current_range_meters":8000,"station_id":"","pricing_plan_id":"cebpf4jnsgd1na2vs0mg"},{"bike_id":"44abcca0-01f1-457d-9700-f4ae6bcdaacd","system_id":"levelo_inurba_marseille","lat":43.30973,"lon":5.39058,"is_reserved":false,"is_disabled":true,"rental_uris":{"android":"levelo://app?vid=44abcca0-01f1-457d-9700-f4ae6bcdaacd","ios":"levelo://app?vid=44abcca0-01f1-457d-9700-f4ae6bcdaacd"},"vehicle_type_id":"4","last_reported":1773730314,"current_range_meters":8000,"station_id":"ce4bgup2rcd13ifvqco0","pricing_plan_id":"cebpf4jnsgd1na2vs0mg"},{"bike_id":"947e1acd-8816-4ff5-9c35-e02eb3948228","system_id":"levelo_inurba_marseille","lat":43.29905,"lon":5.43659,"is_reserved":false,"is_disabled":false,"rental_uris":{"android":"levelo://app?vid=947e1acd-8816-4ff5-9c35-e02eb3948228","ios":"levelo://app?vid=947e1acd-8816-4ff5-9c35-e02eb3948228"},"vehicle_type_id":"4","last_reported":1773730314,"current_range_meters":8000,"station_id":"ce4bhpp2rcd13ifvqhfg","pricing_plan_id":"cebpf4jnsgd1na2vs0mg"},{"bike_id":"75056a4b-7dce-4842-b5f6-e3da4f22a752","system_id":"levelo_inurba_marseille","lat":43.21748,"lon":5.34592,"is_reserved":false,"is_disabled":false,"rental_uris":{"android":"levelo://app?vid=75056a4b-7dce-4842-b5f6-e3da4f22a752","ios":"levelo://app?vid=75056a4b-7dce-4842-b5f6-e3da4f22a752"},"vehicle_type_id":"4","last_reported":1773730314,"current_range_meters":8000,"station_id":"st_cvj6r9ubvosntc0bgbag","pricing_plan_id":"cebpf4jnsgd1na2vs0mg"},{"bike_id":"1f50381c-781e-49e6-9665-ffc0ed64e369","system_id":"levelo_inurba_marseille","lat":43.30396,"lon":5.39785,"is_reserved":false,"is_disabled":false,"rental_uris":{"android":"levelo://app?vid=1f50381c-781e-49e6-9665-ffc0ed64e369","ios":"levelo://app?vid=1f50381c-781e-49e6-9665-ffc0ed64e369"},"vehicle_type_id":"4","last_reported":1773730314,"current_range_meters":8000,"station_id":"ce4bh092rcd13ifvqd20","pricing_plan_id":"cebpf4jnsgd1na2vs0mg"},{"bike_id":"617de69c-c5b5-4a8d-82d1-0f8e4719e1e8","system_id":"levelo_inurba_marseille","lat":43.28842,"lon":5.39329,"is_reserved":false,"is_disabled":false,"rental_uris":{"android":"levelo://app?vid=617de69c-c5b5-4a8d-82d1-0f8e4719e1e8","ios":"levelo://app?vid=617de69c-c5b5-4a8d-82d1-0f8e4719e1e8"},"vehicle_type_id":"4","last_reported":1773730314,"current_range_meters":8000,"station_id":"ce4bh2p2rcd13ifvqdi0","pricing_plan_id":"cebpf4jnsgd1na2vs0mg"},{"bike_id":"36bcefea-1744-478b-a4f4-a282d99e8251","system_id":"levelo_inurba_marseille","lat":43.24549,"lon":5.39528,"is_reserved":false,"is_disabled":true,"rental_uris":{"android":"levelo://app?vid=36bcefea-1744-478b-a4f4-a282d99e8251","ios":"levelo://app?vid=36bcefea-1744-478b-a4f4-a282d99e8251"},"vehicle_type_id":"4","last_reported":1773730314,"current_range_meters":8000,"station_id":"ce4bhlp2rcd13ifvqgjg","pricing_plan_id":"cebpf4jnsgd1na2vs0mg"},{"bike_id":"cd459daa-f438-4782-85d7-185b801cd5ea","system_id":"levelo_inurba_marseille","lat":43.2509,"lon":5.39486,"is_reserved":false,"is_disabled":false,"rental_uris":{"android":"levelo://app?vid=cd459daa-f438-4782-85d7-185b801cd5ea","ios":"levelo://app?vid=cd459daa-f438-4782-85d7-185b801cd5ea"},"vehicle_type_id":"4","last_reported":1773730314,"current_range_meters":8000,"station_id":"ce4bhm12rcd13ifvqgkg","pricing_plan_id":"cebpf4jnsgd1na2vs0mg"},{"bike_id":"7d5b3664-02ce-4451-b3f2-afda1ab3ce3d","system_id":"levelo_inurba_marseille","lat":43.33549,"lon":5.37478,"is_reserved":false,"is_disabled":false,"rental_uris":{"android":"levelo://app?vid=7d5b3664-02ce-4451-b3f2-afda1ab3ce3d","ios":"levelo://app?vid=7d5b3664-02ce-4451-b3f2-afda1ab3ce3d"},"vehicle_type_id":"4","last_reported":1773730314,"current_range_meters":8000,"station_id":"st_d46tts09ee8s73dlu43g","pricing_plan_id":"cebpf4jnsgd1na2vs0mg"},{"bike_id":"70fdc065-93d6-4dd2-977b-71ec2a296371","system_id":"levelo_inurba_marseille","lat":43.21752,"lon":5.34602,"is_reserved":false,"is_disabled":false,"rental_uris":{"android":"levelo://app?vid=70fdc065-93d6-4dd2-977b-71ec2a296371","ios":"levelo://app?vid=70fdc065-93d6-4dd2-977b-71ec2a296371"},"vehicle_type_id":"4","last_reported":1773730314,"current_range_meters":8400,"station_id":"st_cvj6r9ubvosntc0bgbag","pricing_plan_id":"cebpf4jnsgd1na2vs0mg"},{"bike_id":"f6c860f4-9c2e-4a13-b509-50fb1709859b","system_id":"levelo_inurba_marseille","lat":43.2119,"lon":5.35074,"is_reserved":false,"is_disabled":false,"rental_uris":{"android":"levelo://app?vid=f6c860f4-9c2e-4a13-b509-50fb1709859b","ios":"levelo://app?vid=f6c860f4-9c2e-4a13-b509-50fb1709859b"},"vehicle_type_id":"4","last_reported":1773730314,"current_range_meters":8400,"station_id":"st_cvj6sg6p6f1abm77japg","pricing_plan_id":"cebpf4jnsgd1na2vs0mg"},{"bike_id":"86f3c3e6-1877-45e4-95fe-47aa36990f39","system_id":"levelo_inurba_marseille","lat":43.31046,"lon":5.37169,"is_reserved":false,"is_disabled":false,"rental_uris":{"android":"levelo://app?vid=86f3c3e6-1877-45e4-95fe-47aa36990f39","ios":"levelo://app?vid=86f3c3e6-1877-45e4-95fe-47aa36990f39"},"vehicle_type_id":"4","last_reported":1773730314,"current_range_meters":8400,"station_id":"st_d4kl2rp97mjs73e7tdfg","pricing_plan_id":"cebpf4jnsgd1na2vs0mg"},{"bike_id":"4eeecf6d-6108-42a0-b77f-fc0c0b55b73c","system_id":"levelo_inurba_marseille","lat":43.2989,"lon":5.37463,"is_reserved":false,"is_disabled":true,"rental_uris":{"android":"levelo://app?vid=4eeecf6d-6108-42a0-b77f-fc0c0b55b73c","ios":"levelo://app?vid=4eeecf6d-6108-42a0-b77f-fc0c0b55b73c"},"vehicle_type_id":"4","last_reported":1773730314,"current_range_meters":8400,"station_id":"ce4bgjh2rcd13ifvqbg0","pricing_plan_id":"cebpf4jnsgd1na2vs0mg"},{"bike_id":"442a7d54-7946-4ea8-bcbf-566c8cc5fd37","system_id":"levelo_inurba_marseille","lat":43.30464,"lon":5.37918,"is_reserved":false,"is_disabled":false,"rental_uris":{"android":"levelo://app?vid=442a7d54-7946-4ea8-bcbf-566c8cc5fd37","ios":"levelo://app?vid=442a7d54-7946-4ea8-bcbf-566c8cc5fd37"},"vehicle_type_id":"4","last_reported":1773730314,"current_range_meters":8400,"station_id":"","pricing_plan_id":"cebpf4jnsgd1na2vs0mg"},{"bike_id":"a198b19a-147f-4fb3-822c-608a1d587cb8","system_id":"levelo_inurba_marseille","lat":43.21754,"lon":5.34604,"is_reserved":false,"is_disabled":false,"rental_uris":{"android":"levelo://app?vid=a198b19a-147f-4fb3-822c-608a1d587cb8","ios":"levelo://app?vid=a198b19a-147f-4fb3-822c-608a1d587cb8"},"vehicle_type_id":"4","last_reported":1773730314,"current_range_meters":8400,"station_id":"st_cvj6r9ubvosntc0bgbag","pricing_plan_id":"cebpf4jnsgd1na2vs0mg"},{"bike_id":"53336338-5141-44ec-bb59-6df2460b79a8","system_id":"levelo_inurba_marseille","lat":43.30179,"lon":5.39435,"is_reserved":false,"is_disabled":true,"rental_uris":{"android":"levelo://app?vid=53336338-5141-44ec-bb59-6df2460b79a8","ios":"levelo://app?vid=53336338-5141-44ec-bb59-6df2460b79a8"},"vehicle_type_id":"4","last_reported":1773730314,"current_range_meters":8400,"station_id":"ce4bh0p2rcd13ifvqd70","pricing_plan_id":"cebpf4jnsgd1na2vs0mg"},{"bike_id":"8f016c89-00f5-46f7-96be-8388bf9e5321","system_id":"levelo_inurba_marseille","lat":43.30245,"lon":5.40045,"is_reserved":false,"is_disabled":false,"rental_uris":{"android":"levelo://app?vid=8f016c89-00f5-46f7-96be-8388bf9e5321","ios":"levelo://app?vid=8f016c89-00f5-46f7-96be-8388bf9e5321"},"vehicle_type_id":"4","last_reported":1773730314,"current_range_meters":8400,"station_id":"ce4bgvh2rcd13ifvqcs0","pricing_plan_id":"cebpf4jnsgd1na2vs0mg"},{"bike_id":"4758d3f8-edf7-48c4-932a-34b8f81efb84","system_id":"levelo_inurba_marseille","lat":43.25318,"lon":5.42146,"is_reserved":false,"is_disabled":false,"rental_uris":{"android":"levelo://app?vid=4758d3f8-edf7-48c4-932a-34b8f81efb84","ios":"levelo://app?vid=4758d3f8-edf7-48c4-932a-34b8f81efb84"},"vehicle_type_id":"4","last_reported":1773730314,"current_range_meters":8400,"station_id":"st_d2m65c5bi1j21697t3ng","pricing_plan_id":"cebpf4jnsgd1na2vs0mg"},{"bike_id":"1f5bfe55-41d9-43f3-a84f-b130fbed01d6","system_id":"levelo_inurba_marseille","lat":43.21187,"lon":5.35074,"is_reserved":false,"is_disabled":false,"rental_uris":{"android":"levelo://app?vid=1f5bfe55-41d9-43f3-a84f-b130fbed01d6","ios":"levelo://app?vid=1f5bfe55-41d9-43f3-a84f-b130fbed01d6"},"vehicle_type_id":"4","last_reported":1773730314,"current_range_meters":8400,"station_id":"st_cvj6sg6p6f1abm77japg","pricing_plan_id":"cebpf4jnsgd1na2vs0mg"},{"bike_id":"9520b000-1907-4236-b05c-aeef22f02066","system_id":"levelo_inurba_marseille","lat":43.31203,"lon":5.36872,"is_reserved":false,"is_disabled":false,"rental_uris":{"android":"levelo://app?vid=9520b000-1907-4236-b05c-aeef22f02066","ios":"levelo://app?vid=9520b000-1907-4236-b05c-aeef22f02066"},"vehicle_type_id":"4","last_reported":1773730314,"current_range_meters":8400,"station_id":"ce4bgl92rcd13ifvqbq0","pricing_plan_id":"cebpf4jnsgd1na2vs0mg"},{"bike_id":"6c7da26a-6e3c-4915-81a4-435886bc144f","system_id":"levelo_inurba_marseille","lat":43.23195,"lon":5.35551,"is_reserved":false,"is_disabled":false,"rental_uris":{"android":"levelo://app?vid=6c7da26a-6e3c-4915-81a4-435886bc144f","ios":"levelo://app?vid=6c7da26a-6e3c-4915-81a4-435886bc144f"},"vehicle_type_id":"4","last_reported":1773730314,"current_range_meters":8400,"station_id":"ce4bhu92rcd13ifvqi70","pricing_plan_id":"cebpf4jnsgd1na2vs0mg"},{"bike_id":"3a2c16fa-f087-430f-a626-5009aeb4e722","system_id":"levelo_inurba_marseille","lat":43.27504,"lon":5.41599,"is_reserved":false,"is_disabled":true,"rental_uris":{"android":"levelo://app?vid=3a2c16fa-f087-430f-a626-5009aeb4e722","ios":"levelo://app?vid=3a2c16fa-f087-430f-a626-5009aeb4e722"},"vehicle_type_id":"4","last_reported":1773730314,"current_range_meters":8400,"station_id":"st_d6im8g6chgec73a5pndg","pricing_plan_id":"cebpf4jnsgd1na2vs0mg"},{"bike_id":"1f30759f-6331-4ddd-bc9a-6b33c2e8e2e5","system_id":"levelo_inurba_marseille","lat":43.21785,"lon":5.3462,"is_reserved":false,"is_disabled":false,"rental_uris":{"android":"levelo://app?vid=1f30759f-6331-4ddd-bc9a-6b33c2e8e2e5","ios":"levelo://app?vid=1f30759f-6331-4ddd-bc9a-6b33c2e8e2e5"},"vehicle_type_id":"4","last_reported":1773730314,"current_range_meters":8800,"station_id":"","pricing_plan_id":"cebpf4jnsgd1na2vs0mg"},{"bike_id":"458f604b-e062-47bf-ac14-a001a31d10d8","system_id":"levelo_inurba_marseille","lat":43.28478,"lon":5.48384,"is_reserved":false,"is_disabled":false,"rental_uris":{"android":"levelo://app?vid=458f604b-e062-47bf-ac14-a001a31d10d8","ios":"levelo://app?vid=458f604b-e062-47bf-ac14-a001a31d10d8"},"vehicle_type_id":"4","last_reported":1773730314,"current_range_meters":8800,"station_id":"","pricing_plan_id":"cebpf4jnsgd1na2vs0mg"},{"bike_id":"a172fb4c-0d89-4238-b899-c9d8e15b8540","system_id":"levelo_inurba_marseille","lat":43.2175,"lon":5.34649,"is_reserved":false,"is_disabled":false,"rental_uris":{"android":"levelo://app?vid=a172fb4c-0d89-4238-b899-c9d8e15b8540","ios":"levelo://app?vid=a172fb4c-0d89-4238-b899-c9d8e15b8540"},"vehicle_type_id":"4","last_reported":1773730314,"current_range_meters":8800,"station_id":"st_cvj6r9ubvosntc0bgbag","pricing_plan_id":"cebpf4jnsgd1na2vs0mg"},{"bike_id":"a18b068d-ee72-4ec9-8811-6eb4a904a5af","system_id":"levelo_inurba_marseille","lat":43.27362,"lon":5.36283,"is_reserved":false,"is_disabled":false,"rental_uris":{"android":"levelo://app?vid=a18b068d-ee72-4ec9-8811-6eb4a904a5af","ios":"levelo://app?vid=a18b068d-ee72-4ec9-8811-6eb4a904a5af"},"vehicle_type_id":"4","last_reported":1773730314,"current_range_meters":8800,"station_id":"ce4bhbh2rcd13ifvqeo0","pricing_plan_id":"cebpf4jnsgd1na2vs0mg"},{"bike_id":"bf20c14f-da9d-4805-8f18-b8dc2f56c951","system_id":"levelo_inurba_marseille","lat":43.25114,"lon":5.40304,"is_reserved":false,"is_disabled":false,"rental_uris":{"android":"levelo://app?vid=bf20c14f-da9d-4805-8f18-b8dc2f56c951","ios":"levelo://app?vid=bf20c14f-da9d-4805-8f18-b8dc2f56c951"},"vehicle_type_id":"4","last_reported":1773730314,"current_range_meters":8800,"station_id":"ce4bhlh2rcd13ifvqgig","pricing_plan_id":"cebpf4jnsgd1na2vs0mg"},{"bike_id":"9985140f-fed1-4163-9957-5fc76200bd08","system_id":"levelo_inurba_marseille","lat":43.30175,"lon":5.38078,"is_reserved":false,"is_disabled":false,"rental_uris":{"android":"levelo://app?vid=9985140f-fed1-4163-9957-5fc76200bd08","ios":"levelo://app?vid=9985140f-fed1-4163-9957-5fc76200bd08"},"vehicle_type_id":"4","last_reported":1773730314,"current_range_meters":8800,"station_id":"ce4bgjp2rcd13ifvqbh0","pricing_plan_id":"cebpf4jnsgd1na2vs0mg"},{"bike_id":"7e372e61-a4a4-4320-b78e-0115edf72ed5","system_id":"levelo_inurba_marseille","lat":43.24176,"lon":5.36403,"is_reserved":false,"is_disabled":true,"rental_uris":{"android":"levelo://app?vid=7e372e61-a4a4-4320-b78e-0115edf72ed5","ios":"levelo://app?vid=7e372e61-a4a4-4320-b78e-0115edf72ed5"},"vehicle_type_id":"4","last_reported":1773730314,"current_range_meters":8800,"station_id":"cpo36qri1sfpv3e86is0","pricing_plan_id":"cebpf4jnsgd1na2vs0mg"},{"bike_id":"f7cad0dd-4929-454b-8848-7575c69435e1","system_id":"levelo_inurba_marseille","lat":43.25853,"lon":5.39897,"is_reserved":false,"is_disabled":true,"rental_uris":{"android":"levelo://app?vid=f7cad0dd-4929-454b-8848-7575c69435e1","ios":"levelo://app?vid=f7cad0dd-4929-454b-8848-7575c69435e1"},"vehicle_type_id":"4","last_reported":1773730314,"current_range_meters":8800,"station_id":"ce4bhl92rcd13ifvqghg","pricing_plan_id":"cebpf4jnsgd1na2vs0mg"},{"bike_id":"dbf5d854-1aab-4032-ae98-ea5d370d4512","system_id":"levelo_inurba_marseille","lat":43.29006,"lon":5.35613,"is_reserved":false,"is_disabled":false,"rental_uris":{"android":"levelo://app?vid=dbf5d854-1aab-4032-ae98-ea5d370d4512","ios":"levelo://app?vid=dbf5d854-1aab-4032-ae98-ea5d370d4512"},"vehicle_type_id":"4","last_reported":1773730314,"current_range_meters":8800,"station_id":"ce4bhb92rcd13ifvqen0","pricing_plan_id":"cebpf4jnsgd1na2vs0mg"},{"bike_id":"47f16d00-d3b5-42b1-aa88-aede83d9f9e1","system_id":"levelo_inurba_marseille","lat":43.28448,"lon":5.35894,"is_reserved":false,"is_disabled":false,"rental_uris":{"android":"levelo://app?vid=47f16d00-d3b5-42b1-aa88-aede83d9f9e1","ios":"levelo://app?vid=47f16d00-d3b5-42b1-aa88-aede83d9f9e1"},"vehicle_type_id":"4","last_reported":1773730314,"current_range_meters":8800,"station_id":"ce4bhah2rcd13ifvqei0","pricing_plan_id":"cebpf4jnsgd1na2vs0mg"},{"bike_id":"b9ef10fd-0204-4e5f-bc92-673f50a6fcb4","system_id":"levelo_inurba_marseille","lat":43.21197,"lon":5.35068,"is_reserved":false,"is_disabled":false,"rental_uris":{"android":"levelo://app?vid=b9ef10fd-0204-4e5f-bc92-673f50a6fcb4","ios":"levelo://app?vid=b9ef10fd-0204-4e5f-bc92-673f50a6fcb4"},"vehicle_type_id":"4","last_reported":1773730314,"current_range_meters":8800,"station_id":"","pricing_plan_id":"cebpf4jnsgd1na2vs0mg"},{"bike_id":"fedd208b-765e-4da1-9fcc-65999b120e19","system_id":"levelo_inurba_marseille","lat":43.24434,"lon":5.37044,"is_reserved":false,"is_disabled":false,"rental_uris":{"android":"levelo://app?vid=fedd208b-765e-4da1-9fcc-65999b120e19","ios":"levelo://app?vid=fedd208b-765e-4da1-9fcc-65999b120e19"},"vehicle_type_id":"4","last_reported":1773730314,"current_range_meters":8800,"station_id":"","pricing_plan_id":"cebpf4jnsgd1na2vs0mg"},{"bike_id":"6aa823cd-4931-4f3f-9262-0dcb3ae7b7e9","system_id":"levelo_inurba_marseille","lat":43.2481,"lon":5.37441,"is_reserved":false,"is_disabled":false,"rental_uris":{"android":"levelo://app?vid=6aa823cd-4931-4f3f-9262-0dcb3ae7b7e9","ios":"levelo://app?vid=6aa823cd-4931-4f3f-9262-0dcb3ae7b7e9"},"vehicle_type_id":"4","last_reported":1773730314,"current_range_meters":8800,"station_id":"ce4bhgh2rcd13ifvqfb0","pricing_plan_id":"cebpf4jnsgd1na2vs0mg"},{"bike_id":"c35776a3-1ecf-486f-b6de-0c7c3e2f2dd1","system_id":"levelo_inurba_marseille","lat":43.30741,"lon":5.42439,"is_reserved":false,"is_disabled":false,"rental_uris":{"android":"levelo://app?vid=c35776a3-1ecf-486f-b6de-0c7c3e2f2dd1","ios":"levelo://app?vid=c35776a3-1ecf-486f-b6de-0c7c3e2f2dd1"},"vehicle_type_id":"4","last_reported":1773730314,"current_range_meters":8800,"station_id":"st_cvj6ca6bvosntc0bfgr0","pricing_plan_id":"cebpf4jnsgd1na2vs0mg"},{"bike_id":"c3a0224f-b7bd-4df3-ab3a-cec68af680c2","system_id":"levelo_inurba_marseille","lat":43.30178,"lon":5.38078,"is_reserved":false,"is_disabled":false,"rental_uris":{"android":"levelo://app?vid=c3a0224f-b7bd-4df3-ab3a-cec68af680c2","ios":"levelo://app?vid=c3a0224f-b7bd-4df3-ab3a-cec68af680c2"},"vehicle_type_id":"4","last_reported":1773730314,"current_range_meters":8800,"station_id":"ce4bgjp2rcd13ifvqbh0","pricing_plan_id":"cebpf4jnsgd1na2vs0mg"},{"bike_id":"f740cb29-e33e-448a-8ce5-5886eb74e940","system_id":"levelo_inurba_marseille","lat":43.26215,"lon":5.37441,"is_reserved":false,"is_disabled":false,"rental_uris":{"android":"levelo://app?vid=f740cb29-e33e-448a-8ce5-5886eb74e940","ios":"levelo://app?vid=f740cb29-e33e-448a-8ce5-5886eb74e940"},"vehicle_type_id":"4","last_reported":1773730314,"current_range_meters":8800,"station_id":"ce4bhgp2rcd13ifvqfc0","pricing_plan_id":"cebpf4jnsgd1na2vs0mg"},{"bike_id":"5efbfe77-f336-4734-90ae-6b59653d3d20","system_id":"levelo_inurba_marseille","lat":43.26565,"lon":5.39014,"is_reserved":false,"is_disabled":true,"rental_uris":{"android":"levelo://app?vid=5efbfe77-f336-4734-90ae-6b59653d3d20","ios":"levelo://app?vid=5efbfe77-f336-4734-90ae-6b59653d3d20"},"vehicle_type_id":"4","last_reported":1773730314,"current_range_meters":8800,"station_id":"ce4bhe12rcd13ifvqf30","pricing_plan_id":"cebpf4jnsgd1na2vs0mg"},{"bike_id":"f698aef6-43ae-4705-b2dd-a21032156ca0","system_id":"levelo_inurba_marseille","lat":43.2861,"lon":5.39877,"is_reserved":false,"is_disabled":false,"rental_uris":{"android":"levelo://app?vid=f698aef6-43ae-4705-b2dd-a21032156ca0","ios":"levelo://app?vid=f698aef6-43ae-4705-b2dd-a21032156ca0"},"vehicle_type_id":"4","last_reported":1773730314,"current_range_meters":8800,"station_id":"st_d4a7ka997mjs738ck50g","pricing_plan_id":"cebpf4jnsgd1na2vs0mg"},{"bike_id":"c2c7c530-5d90-493e-bc68-4654d00e1dc7","system_id":"levelo_inurba_marseille","lat":43.25197,"lon":5.40615,"is_reserved":false,"is_disabled":false,"rental_uris":{"android":"levelo://app?vid=c2c7c530-5d90-493e-bc68-4654d00e1dc7","ios":"levelo://app?vid=c2c7c530-5d90-493e-bc68-4654d00e1dc7"},"vehicle_type_id":"4","last_reported":1773730314,"current_range_meters":8800,"station_id":"","pricing_plan_id":"cebpf4jnsgd1na2vs0mg"},{"bike_id":"8e243929-57f6-4741-9a2a-b42fa32cb653","system_id":"levelo_inurba_marseille","lat":43.31241,"lon":5.36897,"is_reserved":false,"is_disabled":false,"rental_uris":{"android":"levelo://app?vid=8e243929-57f6-4741-9a2a-b42fa32cb653","ios":"levelo://app?vid=8e243929-57f6-4741-9a2a-b42fa32cb653"},"vehicle_type_id":"4","last_reported":1773730314,"current_range_meters":9200,"station_id":"ce4bgl92rcd13ifvqbq0","pricing_plan_id":"cebpf4jnsgd1na2vs0mg"},{"bike_id":"018c9fca-0bb4-4e70-9c0e-eb9fb9835a8e","system_id":"levelo_inurba_marseille","lat":43.2318,"lon":5.39997,"is_reserved":false,"is_disabled":false,"rental_uris":{"android":"levelo://app?vid=018c9fca-0bb4-4e70-9c0e-eb9fb9835a8e","ios":"levelo://app?vid=018c9fca-0bb4-4e70-9c0e-eb9fb9835a8e"},"vehicle_type_id":"4","last_reported":1773730314,"current_range_meters":9200,"station_id":"ce4bhn12rcd13ifvqgqg","pricing_plan_id":"cebpf4jnsgd1na2vs0mg"},{"bike_id":"b8f95b6a-43f8-4f84-83b9-af06677c76c5","system_id":"levelo_inurba_marseille","lat":43.29044,"lon":5.37169,"is_reserved":false,"is_disabled":false,"rental_uris":{"android":"levelo://app?vid=b8f95b6a-43f8-4f84-83b9-af06677c76c5","ios":"levelo://app?vid=b8f95b6a-43f8-4f84-83b9-af06677c76c5"},"vehicle_type_id":"4","last_reported":1773730314,"current_range_meters":9200,"station_id":"ce4bh5p2rcd13ifvqe4g","pricing_plan_id":"cebpf4jnsgd1na2vs0mg"},{"bike_id":"9a0a61e3-6fa3-401b-a271-9eda25d49c69","system_id":"levelo_inurba_marseille","lat":43.29173,"lon":5.39312,"is_reserved":false,"is_disabled":true,"rental_uris":{"android":"levelo://app?vid=9a0a61e3-6fa3-401b-a271-9eda25d49c69","ios":"levelo://app?vid=9a0a61e3-6fa3-401b-a271-9eda25d49c69"},"vehicle_type_id":"4","last_reported":1773730314,"current_range_meters":9200,"station_id":"ce4bh192rcd13ifvqdd0","pricing_plan_id":"cebpf4jnsgd1na2vs0mg"},{"bike_id":"8611a375-7312-462c-a106-d1da01d8cd25","system_id":"levelo_inurba_marseille","lat":43.30147,"lon":5.38094,"is_reserved":false,"is_disabled":false,"rental_uris":{"android":"levelo://app?vid=8611a375-7312-462c-a106-d1da01d8cd25","ios":"levelo://app?vid=8611a375-7312-462c-a106-d1da01d8cd25"},"vehicle_type_id":"4","last_reported":1773730314,"current_range_meters":9200,"station_id":"ce4bgjp2rcd13ifvqbh0","pricing_plan_id":"cebpf4jnsgd1na2vs0mg"},{"bike_id":"da4ef2fd-b4e4-45fc-9600-0bebce2854ca","system_id":"levelo_inurba_marseille","lat":43.24372,"lon":5.37086,"is_reserved":false,"is_disabled":false,"rental_uris":{"android":"levelo://app?vid=da4ef2fd-b4e4-45fc-9600-0bebce2854ca","ios":"levelo://app?vid=da4ef2fd-b4e4-45fc-9600-0bebce2854ca"},"vehicle_type_id":"4","last_reported":1773730314,"current_range_meters":9200,"station_id":"ce4bhhh2rcd13ifvqfk0","pricing_plan_id":"cebpf4jnsgd1na2vs0mg"},{"bike_id":"a8ae2d18-f400-4498-a610-fcd02a4b26fa","system_id":"levelo_inurba_marseille","lat":43.27995,"lon":5.40017,"is_reserved":false,"is_disabled":false,"rental_uris":{"android":"levelo://app?vid=a8ae2d18-f400-4498-a610-fcd02a4b26fa","ios":"levelo://app?vid=a8ae2d18-f400-4498-a610-fcd02a4b26fa"},"vehicle_type_id":"4","last_reported":1773730314,"current_range_meters":9200,"station_id":"ce4bho92rcd13ifvqh4g","pricing_plan_id":"cebpf4jnsgd1na2vs0mg"},{"bike_id":"7de93edb-7e27-48f4-8967-3bca4db9d272","system_id":"levelo_inurba_marseille","lat":43.28194,"lon":5.4269,"is_reserved":false,"is_disabled":false,"rental_uris":{"android":"levelo://app?vid=7de93edb-7e27-48f4-8967-3bca4db9d272","ios":"levelo://app?vid=7de93edb-7e27-48f4-8967-3bca4db9d272"},"vehicle_type_id":"4","last_reported":1773730314,"current_range_meters":9200,"station_id":"","pricing_plan_id":"cebpf4jnsgd1na2vs0mg"},{"bike_id":"e563383a-8a89-4304-b11f-18268886193e","system_id":"levelo_inurba_marseille","lat":43.25592,"lon":5.38226,"is_reserved":false,"is_disabled":false,"rental_uris":{"android":"levelo://app?vid=e563383a-8a89-4304-b11f-18268886193e","ios":"levelo://app?vid=e563383a-8a89-4304-b11f-18268886193e"},"vehicle_type_id":"4","last_reported":1773730314,"current_range_meters":9200,"station_id":"ce4bhih2rcd13ifvqfs0","pricing_plan_id":"cebpf4jnsgd1na2vs0mg"},{"bike_id":"e13f25ab-2e3f-4635-8b03-e38c0f37178e","system_id":"levelo_inurba_marseille","lat":43.2455,"lon":5.39531,"is_reserved":false,"is_disabled":false,"rental_uris":{"android":"levelo://app?vid=e13f25ab-2e3f-4635-8b03-e38c0f37178e","ios":"levelo://app?vid=e13f25ab-2e3f-4635-8b03-e38c0f37178e"},"vehicle_type_id":"4","last_reported":1773730314,"current_range_meters":9200,"station_id":"ce4bhlp2rcd13ifvqgjg","pricing_plan_id":"cebpf4jnsgd1na2vs0mg"},{"bike_id":"e19bbcec-af9d-483d-ac29-18df3b9c0ab9","system_id":"levelo_inurba_marseille","lat":43.28488,"lon":5.48393,"is_reserved":false,"is_disabled":false,"rental_uris":{"android":"levelo://app?vid=e19bbcec-af9d-483d-ac29-18df3b9c0ab9","ios":"levelo://app?vid=e19bbcec-af9d-483d-ac29-18df3b9c0ab9"},"vehicle_type_id":"4","last_reported":1773730314,"current_range_meters":9200,"station_id":"st_d3svhcjqgbts73a3dn0g","pricing_plan_id":"cebpf4jnsgd1na2vs0mg"},{"bike_id":"4910ac16-4610-4354-a211-1cfd6adfd12a","system_id":"levelo_inurba_marseille","lat":43.24807,"lon":5.37449,"is_reserved":false,"is_disabled":false,"rental_uris":{"android":"levelo://app?vid=4910ac16-4610-4354-a211-1cfd6adfd12a","ios":"levelo://app?vid=4910ac16-4610-4354-a211-1cfd6adfd12a"},"vehicle_type_id":"4","last_reported":1773730314,"current_range_meters":9200,"station_id":"ce4bhgh2rcd13ifvqfb0","pricing_plan_id":"cebpf4jnsgd1na2vs0mg"},{"bike_id":"5c905397-02bb-4489-bc2a-606670e3b8c3","system_id":"levelo_inurba_marseille","lat":43.27174,"lon":5.40999,"is_reserved":false,"is_disabled":false,"rental_uris":{"android":"levelo://app?vid=5c905397-02bb-4489-bc2a-606670e3b8c3","ios":"levelo://app?vid=5c905397-02bb-4489-bc2a-606670e3b8c3"},"vehicle_type_id":"4","last_reported":1773730314,"current_range_meters":9200,"station_id":"ce4bhl12rcd13ifvqgf0","pricing_plan_id":"cebpf4jnsgd1na2vs0mg"},{"bike_id":"80db3609-75ad-4c89-b2ce-16c9992dcab3","system_id":"levelo_inurba_marseille","lat":43.22942,"lon":5.35375,"is_reserved":false,"is_disabled":false,"rental_uris":{"android":"levelo://app?vid=80db3609-75ad-4c89-b2ce-16c9992dcab3","ios":"levelo://app?vid=80db3609-75ad-4c89-b2ce-16c9992dcab3"},"vehicle_type_id":"4","last_reported":1773730314,"current_range_meters":9200,"station_id":"cpo3532slgdg3j2ikp40","pricing_plan_id":"cebpf4jnsgd1na2vs0mg"},{"bike_id":"08854d6b-79a2-49fc-9209-5ae8d2d19351","system_id":"levelo_inurba_marseille","lat":43.26202,"lon":5.37931,"is_reserved":false,"is_disabled":false,"rental_uris":{"android":"levelo://app?vid=08854d6b-79a2-49fc-9209-5ae8d2d19351","ios":"levelo://app?vid=08854d6b-79a2-49fc-9209-5ae8d2d19351"},"vehicle_type_id":"4","last_reported":1773730314,"current_range_meters":9200,"station_id":"ce4bhjp2rcd13ifvqg90","pricing_plan_id":"cebpf4jnsgd1na2vs0mg"},{"bike_id":"f8a00c49-c93d-41ce-9f11-d81257ca6394","system_id":"levelo_inurba_marseille","lat":43.22937,"lon":5.3538,"is_reserved":false,"is_disabled":false,"rental_uris":{"android":"levelo://app?vid=f8a00c49-c93d-41ce-9f11-d81257ca6394","ios":"levelo://app?vid=f8a00c49-c93d-41ce-9f11-d81257ca6394"},"vehicle_type_id":"4","last_reported":1773730314,"current_range_meters":9200,"station_id":"cpo3532slgdg3j2ikp40","pricing_plan_id":"cebpf4jnsgd1na2vs0mg"},{"bike_id":"b9f2e5d5-d6ac-4c0d-86f2-4fe1a54ef3b3","system_id":"levelo_inurba_marseille","lat":43.32095,"lon":5.36798,"is_reserved":false,"is_disabled":false,"rental_uris":{"android":"levelo://app?vid=b9f2e5d5-d6ac-4c0d-86f2-4fe1a54ef3b3","ios":"levelo://app?vid=b9f2e5d5-d6ac-4c0d-86f2-4fe1a54ef3b3"},"vehicle_type_id":"4","last_reported":1773730314,"current_range_meters":9200,"station_id":"ce4bhrh2rcd13ifvqhug","pricing_plan_id":"cebpf4jnsgd1na2vs0mg"},{"bike_id":"0ebe125c-0403-4c11-9dc0-82c2407d44ea","system_id":"levelo_inurba_marseille","lat":43.24089,"lon":5.37768,"is_reserved":false,"is_disabled":false,"rental_uris":{"android":"levelo://app?vid=0ebe125c-0403-4c11-9dc0-82c2407d44ea","ios":"levelo://app?vid=0ebe125c-0403-4c11-9dc0-82c2407d44ea"},"vehicle_type_id":"4","last_reported":1773730314,"current_range_meters":9200,"station_id":"ce4bhnp2rcd13ifvqgvg","pricing_plan_id":"cebpf4jnsgd1na2vs0mg"},{"bike_id":"d7d6def4-ed56-402e-9ec3-21bfda07833a","system_id":"levelo_inurba_marseille","lat":43.29978,"lon":5.38485,"is_reserved":false,"is_disabled":true,"rental_uris":{"android":"levelo://app?vid=d7d6def4-ed56-402e-9ec3-21bfda07833a","ios":"levelo://app?vid=d7d6def4-ed56-402e-9ec3-21bfda07833a"},"vehicle_type_id":"4","last_reported":1773730314,"current_range_meters":9200,"station_id":"ce4bgj92rcd13ifvqbd0","pricing_plan_id":"cebpf4jnsgd1na2vs0mg"},{"bike_id":"1fa31361-dec7-4560-8527-d475bfd1b7fb","system_id":"levelo_inurba_marseille","lat":43.30744,"lon":5.42443,"is_reserved":false,"is_disabled":false,"rental_uris":{"android":"levelo://app?vid=1fa31361-dec7-4560-8527-d475bfd1b7fb","ios":"levelo://app?vid=1fa31361-dec7-4560-8527-d475bfd1b7fb"},"vehicle_type_id":"4","last_reported":1773730314,"current_range_meters":9200,"station_id":"st_cvj6ca6bvosntc0bfgr0","pricing_plan_id":"cebpf4jnsgd1na2vs0mg"},{"bike_id":"6ac9fba9-cbd8-4e41-8d10-8d9aa767f584","system_id":"levelo_inurba_marseille","lat":43.27674,"lon":5.38916,"is_reserved":false,"is_disabled":true,"rental_uris":{"android":"levelo://app?vid=6ac9fba9-cbd8-4e41-8d10-8d9aa767f584","ios":"levelo://app?vid=6ac9fba9-cbd8-4e41-8d10-8d9aa767f584"},"vehicle_type_id":"4","last_reported":1773730314,"current_range_meters":9600,"station_id":"ce4bhi12rcd13ifvqfo0","pricing_plan_id":"cebpf4jnsgd1na2vs0mg"},{"bike_id":"9a01ef4e-41b8-4c32-a1bc-678657b841e3","system_id":"levelo_inurba_marseille","lat":43.24384,"lon":5.3706,"is_reserved":false,"is_disabled":false,"rental_uris":{"android":"levelo://app?vid=9a01ef4e-41b8-4c32-a1bc-678657b841e3","ios":"levelo://app?vid=9a01ef4e-41b8-4c32-a1bc-678657b841e3"},"vehicle_type_id":"4","last_reported":1773730314,"current_range_meters":9600,"station_id":"ce4bhhh2rcd13ifvqfk0","pricing_plan_id":"cebpf4jnsgd1na2vs0mg"},{"bike_id":"048176e1-f0a2-4370-90c2-02a1ffe43800","system_id":"levelo_inurba_marseille","lat":43.28274,"lon":5.35075,"is_reserved":false,"is_disabled":false,"rental_uris":{"android":"levelo://app?vid=048176e1-f0a2-4370-90c2-02a1ffe43800","ios":"levelo://app?vid=048176e1-f0a2-4370-90c2-02a1ffe43800"},"vehicle_type_id":"4","last_reported":1773730314,"current_range_meters":9600,"station_id":"ce4bhbp2rcd13ifvqerg","pricing_plan_id":"cebpf4jnsgd1na2vs0mg"},{"bike_id":"cc897b25-9ddc-4b12-bd8a-bfb7db8696bd","system_id":"levelo_inurba_marseille","lat":43.24551,"lon":5.39534,"is_reserved":false,"is_disabled":false,"rental_uris":{"android":"levelo://app?vid=cc897b25-9ddc-4b12-bd8a-bfb7db8696bd","ios":"levelo://app?vid=cc897b25-9ddc-4b12-bd8a-bfb7db8696bd"},"vehicle_type_id":"4","last_reported":1773730314,"current_range_meters":9600,"station_id":"ce4bhlp2rcd13ifvqgjg","pricing_plan_id":"cebpf4jnsgd1na2vs0mg"},{"bike_id":"f0a5fedf-bcef-42eb-a048-e260fe29ba5c","system_id":"levelo_inurba_marseille","lat":43.29949,"lon":5.38521,"is_reserved":false,"is_disabled":false,"rental_uris":{"android":"levelo://app?vid=f0a5fedf-bcef-42eb-a048-e260fe29ba5c","ios":"levelo://app?vid=f0a5fedf-bcef-42eb-a048-e260fe29ba5c"},"vehicle_type_id":"4","last_reported":1773730314,"current_range_meters":9600,"station_id":"ce4bgj92rcd13ifvqbd0","pricing_plan_id":"cebpf4jnsgd1na2vs0mg"},{"bike_id":"a4565e29-4785-4c6b-9d50-6341b10cee0b","system_id":"levelo_inurba_marseille","lat":43.2511,"lon":5.4032,"is_reserved":false,"is_disabled":false,"rental_uris":{"android":"levelo://app?vid=a4565e29-4785-4c6b-9d50-6341b10cee0b","ios":"levelo://app?vid=a4565e29-4785-4c6b-9d50-6341b10cee0b"},"vehicle_type_id":"4","last_reported":1773730314,"current_range_meters":9600,"station_id":"ce4bhlh2rcd13ifvqgig","pricing_plan_id":"cebpf4jnsgd1na2vs0mg"},{"bike_id":"1fb65c21-16d5-4fca-8a81-ada0bd72232e","system_id":"levelo_inurba_marseille","lat":43.2861,"lon":5.37068,"is_reserved":false,"is_disabled":false,"rental_uris":{"android":"levelo://app?vid=1fb65c21-16d5-4fca-8a81-ada0bd72232e","ios":"levelo://app?vid=1fb65c21-16d5-4fca-8a81-ada0bd72232e"},"vehicle_type_id":"4","last_reported":1773730314,"current_range_meters":9600,"station_id":"ce4bht12rcd13ifvqi60","pricing_plan_id":"cebpf4jnsgd1na2vs0mg"},{"bike_id":"2e152780-0c5b-4bb2-b8e8-f7095ec5460a","system_id":"levelo_inurba_marseille","lat":43.287122,"lon":5.400025,"is_reserved":false,"is_disabled":true,"rental_uris":{"android":"levelo://app?vid=2e152780-0c5b-4bb2-b8e8-f7095ec5460a","ios":"levelo://app?vid=2e152780-0c5b-4bb2-b8e8-f7095ec5460a"},"vehicle_type_id":"4","last_reported":1773730314,"current_range_meters":9600,"station_id":"st_d4a7ka997mjs738ck50g","pricing_plan_id":"cebpf4jnsgd1na2vs0mg"},{"bike_id":"70f98469-d2c0-43f4-9102-c6ad6fb97bca","system_id":"levelo_inurba_marseille","lat":43.21747,"lon":5.34607,"is_reserved":false,"is_disabled":false,"rental_uris":{"android":"levelo://app?vid=70f98469-d2c0-43f4-9102-c6ad6fb97bca","ios":"levelo://app?vid=70f98469-d2c0-43f4-9102-c6ad6fb97bca"},"vehicle_type_id":"4","last_reported":1773730314,"current_range_meters":9600,"station_id":"st_cvj6r9ubvosntc0bgbag","pricing_plan_id":"cebpf4jnsgd1na2vs0mg"},{"bike_id":"e9da2391-9ee3-4f06-a199-fdf638b132db","system_id":"levelo_inurba_marseille","lat":43.31498,"lon":5.37301,"is_reserved":false,"is_disabled":false,"rental_uris":{"android":"levelo://app?vid=e9da2391-9ee3-4f06-a199-fdf638b132db","ios":"levelo://app?vid=e9da2391-9ee3-4f06-a199-fdf638b132db"},"vehicle_type_id":"4","last_reported":1773730314,"current_range_meters":9600,"station_id":"ce4bgt12rcd13ifvqcd0","pricing_plan_id":"cebpf4jnsgd1na2vs0mg"},{"bike_id":"0922850f-97f4-4d5f-9c96-79b1b2616092","system_id":"levelo_inurba_marseille","lat":43.29584,"lon":5.37524,"is_reserved":false,"is_disabled":false,"rental_uris":{"android":"levelo://app?vid=0922850f-97f4-4d5f-9c96-79b1b2616092","ios":"levelo://app?vid=0922850f-97f4-4d5f-9c96-79b1b2616092"},"vehicle_type_id":"4","last_reported":1773730314,"current_range_meters":9600,"station_id":"ce4bgh92rcd13ifvqb50","pricing_plan_id":"cebpf4jnsgd1na2vs0mg"},{"bike_id":"838396bf-87b9-4c01-a097-e1f8af9e49fd","system_id":"levelo_inurba_marseille","lat":43.34149,"lon":5.40916,"is_reserved":false,"is_disabled":false,"rental_uris":{"android":"levelo://app?vid=838396bf-87b9-4c01-a097-e1f8af9e49fd","ios":"levelo://app?vid=838396bf-87b9-4c01-a097-e1f8af9e49fd"},"vehicle_type_id":"4","last_reported":1773730314,"current_range_meters":9600,"station_id":"ce4bhqh2rcd13ifvqhlg","pricing_plan_id":"cebpf4jnsgd1na2vs0mg"},{"bike_id":"2e82d9ef-540f-49a0-a493-b19005f4104c","system_id":"levelo_inurba_marseille","lat":43.28615,"lon":5.37065,"is_reserved":false,"is_disabled":false,"rental_uris":{"android":"levelo://app?vid=2e82d9ef-540f-49a0-a493-b19005f4104c","ios":"levelo://app?vid=2e82d9ef-540f-49a0-a493-b19005f4104c"},"vehicle_type_id":"4","last_reported":1773730314,"current_range_meters":9600,"station_id":"ce4bht12rcd13ifvqi60","pricing_plan_id":"cebpf4jnsgd1na2vs0mg"},{"bike_id":"583cc6c3-f194-47c0-862e-adf1264fe103","system_id":"levelo_inurba_marseille","lat":43.30141,"lon":5.39864,"is_reserved":false,"is_disabled":false,"rental_uris":{"android":"levelo://app?vid=583cc6c3-f194-47c0-862e-adf1264fe103","ios":"levelo://app?vid=583cc6c3-f194-47c0-862e-adf1264fe103"},"vehicle_type_id":"4","last_reported":1773730314,"current_range_meters":10000,"station_id":"ce4bh0h2rcd13ifvqd40","pricing_plan_id":"cebpf4jnsgd1na2vs0mg"},{"bike_id":"8af0a38f-153c-4dcf-a261-e40583133eb1","system_id":"levelo_inurba_marseille","lat":43.23802,"lon":5.36612,"is_reserved":false,"is_disabled":false,"rental_uris":{"android":"levelo://app?vid=8af0a38f-153c-4dcf-a261-e40583133eb1","ios":"levelo://app?vid=8af0a38f-153c-4dcf-a261-e40583133eb1"},"vehicle_type_id":"4","last_reported":1773730314,"current_range_meters":10000,"station_id":"st_d3nk18o9ro0c73en2l3g","pricing_plan_id":"cebpf4jnsgd1na2vs0mg"},{"bike_id":"abeed13c-c51b-4739-8fd2-4f8ab70d4f2c","system_id":"levelo_inurba_marseille","lat":43.31718,"lon":5.42399,"is_reserved":false,"is_disabled":false,"rental_uris":{"android":"levelo://app?vid=abeed13c-c51b-4739-8fd2-4f8ab70d4f2c","ios":"levelo://app?vid=abeed13c-c51b-4739-8fd2-4f8ab70d4f2c"},"vehicle_type_id":"4","last_reported":1773730314,"current_range_meters":10000,"station_id":"ce4bhp92rcd13ifvqhbg","pricing_plan_id":"cebpf4jnsgd1na2vs0mg"},{"bike_id":"57eb6917-d4ea-4499-96a3-73ae995062f3","system_id":"levelo_inurba_marseille","lat":43.30315,"lon":5.39205,"is_reserved":false,"is_disabled":false,"rental_uris":{"android":"levelo://app?vid=57eb6917-d4ea-4499-96a3-73ae995062f3","ios":"levelo://app?vid=57eb6917-d4ea-4499-96a3-73ae995062f3"},"vehicle_type_id":"4","last_reported":1773730314,"current_range_meters":10000,"station_id":"ce4bgkh2rcd13ifvqbk0","pricing_plan_id":"cebpf4jnsgd1na2vs0mg"},{"bike_id":"90e3905b-57e6-4282-a1f5-50b7eafc8592","system_id":"levelo_inurba_marseille","lat":43.22588,"lon":5.41652,"is_reserved":false,"is_disabled":false,"rental_uris":{"android":"levelo://app?vid=90e3905b-57e6-4282-a1f5-50b7eafc8592","ios":"levelo://app?vid=90e3905b-57e6-4282-a1f5-50b7eafc8592"},"vehicle_type_id":"4","last_reported":1773730314,"current_range_meters":10000,"station_id":"st_d2o4gvlbi1j2169b742g","pricing_plan_id":"cebpf4jnsgd1na2vs0mg"},