{"last_updated":1753277491,"ttl":60,"version":"2.2","data":{"bikes":[{"bike_id":"1b982a34-40f1-41c9-a0e2-7dcfe9f387a9","system_id":"levelo_inurba_marseille","lat":43.24069,"lon":5.37765,"is_reserved":false,"is_disabled":false,"rental_uris":{"android":"levelo://app?vid=1b982a34-40f1-41c9-a0e2-7dcfe9f387a9","ios":"levelo://app?vid=1b982a34-40f1-41c9-a0e2-7dcfe9f387a9"},"vehicle_type_id":"4","last_reported":1753277491,"current_range_meters":2800,"station_id":"ce4bhnp2rcd13ifvqgvg","pricing_plan_id":"cebpf4jnsgd1na2vs0mg"},{"bike_id":"142f4024-4956-4437-b3f6-502edce6dac7","system_id":"levelo_inurba_marseille","lat":43.26937,"lon":5.38913,"is_reserved":false,"is_disabled":false,"rental_uris":{"android":"levelo://app?vid=142f4024-4956-4437-b3f6-502edce6dac7","ios":"levelo://app?vid=142f4024-4956-4437-b3f6-502edce6dac7"},"vehicle_type_id":"4","last_reported":1753277491,"current_range_meters":2800,"station_id":"ce4bhhh2rcd13ifvqfl0","pricing_plan_id":"cebpf4jnsgd1na2vs0mg"},{"bike_id":"f50861c5-870d-4606-907a-a4023682c1b2","system_id":"levelo_inurba_marseille","lat":43.28417,"lon":5.3498,"is_reserved":false,"is_disabled":false,"rental_uris":{"android":"levelo://app?vid=f50861c5-870d-4606-907a-a4023682c1b2","ios":"levelo://app?vid=f50861c5-870d-4606-907a-a4023682c1b2"},"vehicle_type_id":"4","last_reported":1753277491,"current_range_meters":3200,"station_id":"ce4bhbh2rcd13ifvqepg","pricing_plan_id":"cebpf4jnsgd1na2vs0mg"},{"bike_id":"a35e0d3b-7b45-4544-b22a-dfb6ea3016e8","system_id":"levelo_inurba_marseille","lat":43.29493,"lon":5.38187,"is_reserved":false,"is_disabled":false,"rental_uris":{"android":"levelo://app?vid=a35e0d3b-7b45-4544-b22a-dfb6ea3016e8","ios":"levelo://app?vid=a35e0d3b-7b45-4544-b22a-dfb6ea3016e8"},"vehicle_type_id":"4","last_reported":1753277491,"current_range_meters":3200,"station_id":"","pricing_plan_id":"cebpf4jnsgd1na2vs0mg"},{"bike_id":"fc0e13bf-64b1-4a9f-b4e7-94cb093f1928","system_id":"levelo_inurba_marseille","lat":43.30457,"lon":5.37897,"is_reserved":false,"is_disabled":false,"rental_uris":{"android":"levelo://app?vid=fc0e13bf-64b1-4a9f-b4e7-94cb093f1928","ios":"levelo://app?vid=fc0e13bf-64b1-4a9f-b4e7-94cb093f1928"},"vehicle_type_id":"4","last_reported":1753277491,"current_range_meters":3200,"station_id":"ce4bgup2rcd13ifvqcn0","pricing_plan_id":"cebpf4jnsgd1na2vs0mg"},{"bike_id":"0718ff7d-2faa-4737-b103-175900ff20aa","system_id":"levelo_inurba_marseille","lat":43.29529,"lon":5.38547,"is_reserved":false,"is_disabled":false,"rental_uris":{"android":"levelo://app?vid=0718ff7d-2faa-4737-b103-175900ff20aa","ios":"levelo://app?vid=0718ff7d-2faa-4737-b103-175900ff20aa"},"vehicle_type_id":"4","last_reported":1753277491,"current_range_meters":3200,"station_id":"ce4bgih2rcd13ifvqba0","pricing_plan_id":"cebpf4jnsgd1na2vs0mg"},{"bike_id":"30b57aa5-a5ee-469e-a08f-be7d40307493","system_id":"levelo_inurba_marseille","lat":43.30552,"lon":5.36688,"is_reserved":false,"is_disabled":false,"rental_uris":{"android":"levelo://app?vid=30b57aa5-a5ee-469e-a08f-be7d40307493","ios":"levelo://app?vid=30b57aa5-a5ee-469e-a08f-be7d40307493"},"vehicle_type_id":"4","last_reported":1753277491,"current_range_meters":3200,"station_id":"ce4bgrp2rcd13ifvqc9g","pricing_plan_id":"cebpf4jnsgd1na2vs0mg"},{"bike_id":"42413a25-16d1-4419-b44a-45580e0c6ac6","system_id":"levelo_inurba_marseille","lat":43.33759,"lon":5.3749,"is_reserved":false,"is_disabled":false,"rental_uris":{"android":"levelo://app?vid=42413a25-16d1-4419-b44a-45580e0c6ac6","ios":"levelo://app?vid=42413a25-16d1-4419-b44a-45580e0c6ac6"},"vehicle_type_id":"4","last_reported":1753277491,"current_range_meters":3600,"station_id":"","pricing_plan_id":"cebpf4jnsgd1na2vs0mg"},{"bike_id":"3a8b4a91-434a-4f1a-866a-58a8dc34f1f3","system_id":"levelo_inurba_marseille","lat":43.30254,"lon":5.40059,"is_reserved":false,"is_disabled":false,"rental_uris":{"android":"levelo://app?vid=3a8b4a91-434a-4f1a-866a-58a8dc34f1f3","ios":"levelo://app?vid=3a8b4a91-434a-4f1a-866a-58a8dc34f1f3"},"vehicle_type_id":"4","last_reported":1753277491,"current_range_meters":3600,"station_id":"ce4bgvh2rcd13ifvqcs0","pricing_plan_id":"cebpf4jnsgd1na2vs0mg"},{"bike_id":"87a3b690-4acb-4ad4-a90f-969b5358b543","system_id":"levelo_inurba_marseille","lat":43.2737,"lon":5.36261,"is_reserved":false,"is_disabled":false,"rental_uris":{"android":"levelo://app?vid=87a3b690-4acb-4ad4-a90f-969b5358b543","ios":"levelo://app?vid=87a3b690-4acb-4ad4-a90f-969b5358b543"},"vehicle_type_id":"4","last_reported":1753277491,"current_range_meters":3600,"station_id":"ce4bhbh2rcd13ifvqeo0","pricing_plan_id":"cebpf4jnsgd1na2vs0mg"},{"bike_id":"dfe977b3-cccf-484d-a076-cb42333abe5c","system_id":"levelo_inurba_marseille","lat":43.2929,"lon":5.37459,"is_reserved":false,"is_disabled":false,"rental_uris":{"android":"levelo://app?vid=dfe977b3-cccf-484d-a076-cb42333abe5c","ios":"levelo://app?vid=dfe977b3-cccf-484d-a076-cb42333abe5c"},"vehicle_type_id":"4","last_reported":1753277491,"current_range_meters":1200,"station_id":"ce4bgi12rcd13ifvqb70","pricing_plan_id":"cebpf4jnsgd1na2vs0mg"},{"bike_id":"2ad9d163-9da4-42d8-bf6e-567f9b73cfad","system_id":"levelo_inurba_marseille","lat":43.32346,"lon":5.36752,"is_reserved":false,"is_disabled":false,"rental_uris":{"android":"levelo://app?vid=2ad9d163-9da4-42d8-bf6e-567f9b73cfad","ios":"levelo://app?vid=2ad9d163-9da4-42d8-bf6e-567f9b73cfad"},"vehicle_type_id":"4","last_reported":1753277491,"current_range_meters":4000,"station_id":"ce4bhsh2rcd13ifvqi2g","pricing_plan_id":"cebpf4jnsgd1na2vs0mg"},{"bike_id":"667c77f3-920c-433b-a398-2e4858203c9a","system_id":"levelo_inurba_marseille","lat":43.231888,"lon":5.399737,"is_reserved":false,"is_disabled":false,"rental_uris":{"android":"levelo://app?vid=667c77f3-920c-433b-a398-2e4858203c9a","ios":"levelo://app?vid=667c77f3-920c-433b-a398-2e4858203c9a"},"vehicle_type_id":"4","last_reported":1753277491,"current_range_meters":4400,"station_id":"ce4bhn12rcd13ifvqgqg","pricing_plan_id":"cebpf4jnsgd1na2vs0mg"},{"bike_id":"2e5d8ca1-fc65-439d-80bf-bd179416b9cf","system_id":"levelo_inurba_marseille","lat":43.23059,"lon":5.3549,"is_reserved":false,"is_disabled":false,"rental_uris":{"android":"levelo://app?vid=2e5d8ca1-fc65-439d-80bf-bd179416b9cf","ios":"levelo://app?vid=2e5d8ca1-fc65-439d-80bf-bd179416b9cf"},"vehicle_type_id":"4","last_reported":1753277491,"current_range_meters":4400,"station_id":"cpo3342slgdg3j2ifvpg","pricing_plan_id":"cebpf4jnsgd1na2vs0mg"},{"bike_id":"d733cf8a-b8fd-40f6-92f1-915d3ad55cdc","system_id":"levelo_inurba_marseille","lat":43.26782,"lon":5.39419,"is_reserved":false,"is_disabled":false,"rental_uris":{"android":"levelo://app?vid=d733cf8a-b8fd-40f6-92f1-915d3ad55cdc","ios":"levelo://app?vid=d733cf8a-b8fd-40f6-92f1-915d3ad55cdc"},"vehicle_type_id":"4","last_reported":1753277491,"current_range_meters":4000,"station_id":"ce4bhh12rcd13ifvqfg0","pricing_plan_id":"cebpf4jnsgd1na2vs0mg"},{"bike_id":"8f3ef93e-c0a7-461a-83de-f14d3f1f5762","system_id":"levelo_inurba_marseille","lat":43.26556,"lon":5.37283,"is_reserved":false,"is_disabled":false,"rental_uris":{"android":"levelo://app?vid=8f3ef93e-c0a7-461a-83de-f14d3f1f5762","ios":"levelo://app?vid=8f3ef93e-c0a7-461a-83de-f14d3f1f5762"},"vehicle_type_id":"4","last_reported":1753277491,"current_range_meters":4800,"station_id":"ce4bhg12rcd13ifvqf70","pricing_plan_id":"cebpf4jnsgd1na2vs0mg"},{"bike_id":"b1a9da3f-07cf-4437-acbe-5597cfe17b8e","system_id":"levelo_inurba_marseille","lat":43.24174,"lon":5.3639,"is_reserved":false,"is_disabled":false,"rental_uris":{"android":"levelo://app?vid=b1a9da3f-07cf-4437-acbe-5597cfe17b8e","ios":"levelo://app?vid=b1a9da3f-07cf-4437-acbe-5597cfe17b8e"},"vehicle_type_id":"4","last_reported":1753277491,"current_range_meters":4800,"station_id":"cpo36qri1sfpv3e86is0","pricing_plan_id":"cebpf4jnsgd1na2vs0mg"},{"bike_id":"b8289e00-2058-4aad-8eea-ee4700ee911e","system_id":"levelo_inurba_marseille","lat":43.246552,"lon":5.381717,"is_reserved":false,"is_disabled":false,"rental_uris":{"android":"levelo://app?vid=b8289e00-2058-4aad-8eea-ee4700ee911e","ios":"levelo://app?vid=b8289e00-2058-4aad-8eea-ee4700ee911e"},"vehicle_type_id":"4","last_reported":1753277491,"current_range_meters":5600,"station_id":"ce4bhih2rcd13ifvqfr0","pricing_plan_id":"cebpf4jnsgd1na2vs0mg"},{"bike_id":"65c49045-a877-4e87-8e26-dd9cc69873ff","system_id":"levelo_inurba_marseille","lat":43.28574,"lon":5.3949,"is_reserved":false,"is_disabled":false,"rental_uris":{"android":"levelo://app?vid=65c49045-a877-4e87-8e26-dd9cc69873ff","ios":"levelo://app?vid=65c49045-a877-4e87-8e26-dd9cc69873ff"},"vehicle_type_id":"4","last_reported":1753277491,"current_range_meters":4800,"station_id":"ce4bh292rcd13ifvqdg0","pricing_plan_id":"cebpf4jnsgd1na2vs0mg"},{"bike_id":"eb10a168-f272-4ccc-83f2-aa9341f541ad","system_id":"levelo_inurba_marseille","lat":43.30322,"lon":5.40444,"is_reserved":false,"is_disabled":false,"rental_uris":{"android":"levelo://app?vid=eb10a168-f272-4ccc-83f2-aa9341f541ad","ios":"levelo://app?vid=eb10a168-f272-4ccc-83f2-aa9341f541ad"},"vehicle_type_id":"4","last_reported":1753277491,"current_range_meters":5600,"station_id":"ce4bh012rcd13ifvqd10","pricing_plan_id":"cebpf4jnsgd1na2vs0mg"},{"bike_id":"7f81af80-f06b-4dcc-a687-9b90581d4b2c","system_id":"levelo_inurba_marseille","lat":43.28415,"lon":5.34983,"is_reserved":false,"is_disabled":false,"rental_uris":{"android":"levelo://app?vid=7f81af80-f06b-4dcc-a687-9b90581d4b2c","ios":"levelo://app?vid=7f81af80-f06b-4dcc-a687-9b90581d4b2c"},"vehicle_type_id":"4","last_reported":1753277491,"current_range_meters":6000,"station_id":"ce4bhbh2rcd13ifvqepg","pricing_plan_id":"cebpf4jnsgd1na2vs0mg"},{"bike_id":"aa2693ad-50b7-44d5-859e-9616c3cf8595","system_id":"levelo_inurba_marseille","lat":43.247997,"lon":5.374534,"is_reserved":false,"is_disabled":false,"rental_uris":{"android":"levelo://app?vid=aa2693ad-50b7-44d5-859e-9616c3cf8595","ios":"levelo://app?vid=aa2693ad-50b7-44d5-859e-9616c3cf8595"},"vehicle_type_id":"4","last_reported":1753277491,"current_range_meters":6000,"station_id":"ce4bhgh2rcd13ifvqfb0","pricing_plan_id":"cebpf4jnsgd1na2vs0mg"},{"bike_id":"c083c562-863e-4495-be7e-1c77b650617f","system_id":"levelo_inurba_marseille","lat":43.23191,"lon":5.35553,"is_reserved":false,"is_disabled":false,"rental_uris":{"android":"levelo://app?vid=c083c562-863e-4495-be7e-1c77b650617f","ios":"levelo://app?vid=c083c562-863e-4495-be7e-1c77b650617f"},"vehicle_type_id":"4","last_reported":1753277491,"current_range_meters":6000,"station_id":"ce4bhu92rcd13ifvqi70","pricing_plan_id":"cebpf4jnsgd1na2vs0mg"},{"bike_id":"51102329-c7ca-45fd-8362-598a7c7fd5fd","system_id":"levelo_inurba_marseille","lat":43.313512,"lon":5.36714,"is_reserved":false,"is_disabled":false,"rental_uris":{"android":"levelo://app?vid=51102329-c7ca-45fd-8362-598a7c7fd5fd","ios":"levelo://app?vid=51102329-c7ca-45fd-8362-598a7c7fd5fd"},"vehicle_type_id":"4","last_reported":1753277491,"current_range_meters":6400,"station_id":"ce4bgr92rcd13ifvqc6g","pricing_plan_id":"cebpf4jnsgd1na2vs0mg"},{"bike_id":"79ec2497-d39f-4ce1-8a44-1e9047b41431","system_id":"levelo_inurba_marseille","lat":43.26677,"lon":5.38264,"is_reserved":false,"is_disabled":false,"rental_uris":{"android":"levelo://app?vid=79ec2497-d39f-4ce1-8a44-1e9047b41431","ios":"levelo://app?vid=79ec2497-d39f-4ce1-8a44-1e9047b41431"},"vehicle_type_id":"4","last_reported":1753277491,"current_range_meters":6800,"station_id":"ce4bhg92rcd13ifvqf90","pricing_plan_id":"cebpf4jnsgd1na2vs0mg"},{"bike_id":"df8d1f3e-58ca-4f8b-b86d-6844a6a10358","system_id":"levelo_inurba_marseille","lat":43.30648,"lon":5.40105,"is_reserved":false,"is_disabled":false,"rental_uris":{"android":"levelo://app?vid=df8d1f3e-58ca-4f8b-b86d-6844a6a10358","ios":"levelo://app?vid=df8d1f3e-58ca-4f8b-b86d-6844a6a10358"},"vehicle_type_id":"4","last_reported":1753277491,"current_range_meters":6800,"station_id":"ce4bh112rcd13ifvqda0","pricing_plan_id":"cebpf4jnsgd1na2vs0mg"},{"bike_id":"f9786a5d-366e-49c2-a29b-76a6bac39194","system_id":"levelo_inurba_marseille","lat":43.29613,"lon":5.37723,"is_reserved":false,"is_disabled":false,"rental_uris":{"android":"levelo://app?vid=f9786a5d-366e-49c2-a29b-76a6bac39194","ios":"levelo://app?vid=f9786a5d-366e-49c2-a29b-76a6bac39194"},"vehicle_type_id":"4","last_reported":1753277491,"current_range_meters":6800,"station_id":"ce4bgi92rcd13ifvqb90","pricing_plan_id":"cebpf4jnsgd1na2vs0mg"},{"bike_id":"83766871-d64f-4fc8-9d3b-2ceaf03b1036","system_id":"levelo_inurba_marseille","lat":43.2119,"lon":5.35073,"is_reserved":false,"is_disabled":false,"rental_uris":{"android":"levelo://app?vid=83766871-d64f-4fc8-9d3b-2ceaf03b1036","ios":"levelo://app?vid=83766871-d64f-4fc8-9d3b-2ceaf03b1036"},"vehicle_type_id":"4","last_reported":1753277491,"current_range_meters":6800,"station_id":"st_cvj6sg6p6f1abm77japg","pricing_plan_id":"cebpf4jnsgd1na2vs0mg"},{"bike_id":"94f5f4d3-1ff8-4d2f-96b0-d6769a616d1a","system_id":"levelo_inurba_marseille","lat":43.299222,"lon":5.374714,"is_reserved":false,"is_disabled":false,"rental_uris":{"android":"levelo://app?vid=94f5f4d3-1ff8-4d2f-96b0-d6769a616d1a","ios":"levelo://app?vid=94f5f4d3-1ff8-4d2f-96b0-d6769a616d1a"},"vehicle_type_id":"4","last_reported":1753277491,"current_range_meters":6800,"station_id":"ce4bgjh2rcd13ifvqbg0","pricing_plan_id":"cebpf4jnsgd1na2vs0mg"},{"bike_id":"7a10bb17-bba6-4099-a515-71b68b3217b5","system_id":"levelo_inurba_marseille","lat":43.23981,"lon":5.36613,"is_reserved":false,"is_disabled":false,"rental_uris":{"android":"levelo://app?vid=7a10bb17-bba6-4099-a515-71b68b3217b5","ios":"levelo://app?vid=7a10bb17-bba6-4099-a515-71b68b3217b5"},"vehicle_type_id":"4","last_reported":1753277491,"current_range_meters":6800,"station_id":"ce4bhi12rcd13ifvqfp0","pricing_plan_id":"cebpf4jnsgd1na2vs0mg"},{"bike_id":"ee20928a-7043-4220-b4e9-422dff72d720","system_id":"levelo_inurba_marseille","lat":43.23065,"lon":5.35491,"is_reserved":false,"is_disabled":false,"rental_uris":{"android":"levelo://app?vid=ee20928a-7043-4220-b4e9-422dff72d720","ios":"levelo://app?vid=ee20928a-7043-4220-b4e9-422dff72d720"},"vehicle_type_id":"4","last_reported":1753277491,"current_range_meters":6800,"station_id":"cpo3342slgdg3j2ifvpg","pricing_plan_id":"cebpf4jnsgd1na2vs0mg"},{"bike_id":"9774de0f-39d9-41b0-9727-dec2748f099b","system_id":"levelo_inurba_marseille","lat":43.28075,"lon":5.39658,"is_reserved":false,"is_disabled":false,"rental_uris":{"android":"levelo://app?vid=9774de0f-39d9-41b0-9727-dec2748f099b","ios":"levelo://app?vid=9774de0f-39d9-41b0-9727-dec2748f099b"},"vehicle_type_id":"4","last_reported":1753277491,"current_range_meters":7200,"station_id":"ce4bho12rcd13ifvqh2g","pricing_plan_id":"cebpf4jnsgd1na2vs0mg"},{"bike_id":"f3ad7f3f-05ef-4976-a8bd-7743271afd02","system_id":"levelo_inurba_marseille","lat":43.2315,"lon":5.43709,"is_reserved":false,"is_disabled":false,"rental_uris":{"android":"levelo://app?vid=f3ad7f3f-05ef-4976-a8bd-7743271afd02","ios":"levelo://app?vid=f3ad7f3f-05ef-4976-a8bd-7743271afd02"},"vehicle_type_id":"4","last_reported":1753277491,"current_range_meters":7200,"station_id":"ce4bhmp2rcd13ifvqgog","pricing_plan_id":"cebpf4jnsgd1na2vs0mg"},{"bike_id":"438a59a3-4400-4f75-b20d-0ea2d9cf17e4","system_id":"levelo_inurba_marseille","lat":43.23191,"lon":5.39975,"is_reserved":false,"is_disabled":false,"rental_uris":{"android":"levelo://app?vid=438a59a3-4400-4f75-b20d-0ea2d9cf17e4","ios":"levelo://app?vid=438a59a3-4400-4f75-b20d-0ea2d9cf17e4"},"vehicle_type_id":"4","last_reported":1753277491,"current_range_meters":7200,"station_id":"ce4bhn12rcd13ifvqgqg","pricing_plan_id":"cebpf4jnsgd1na2vs0mg"},{"bike_id":"569f2387-8b66-418a-a691-3b16b4ff4f96","system_id":"levelo_inurba_marseille","lat":43.324859,"lon":5.365702,"is_reserved":false,"is_disabled":false,"rental_uris":{"android":"levelo://app?vid=569f2387-8b66-418a-a691-3b16b4ff4f96","ios":"levelo://app?vid=569f2387-8b66-418a-a691-3b16b4ff4f96"},"vehicle_type_id":"4","last_reported":1753277491,"current_range_meters":8000,"station_id":"ce4bhs12rcd13ifvqhvg","pricing_plan_id":"cebpf4jnsgd1na2vs0mg"},{"bike_id":"4363800f-1e1b-4fc1-a6c1-6a1af720d432","system_id":"levelo_inurba_marseille","lat":43.25499,"lon":5.37651,"is_reserved":false,"is_disabled":false,"rental_uris":{"android":"levelo://app?vid=4363800f-1e1b-4fc1-a6c1-6a1af720d432","ios":"levelo://app?vid=4363800f-1e1b-4fc1-a6c1-6a1af720d432"},"vehicle_type_id":"4","last_reported":1753277491,"current_range_meters":8000,"station_id":"ce4bhh12rcd13ifvqff0","pricing_plan_id":"cebpf4jnsgd1na2vs0mg"},{"bike_id":"4e785803-e884-4b2c-a5bd-5f44b1c215e0","system_id":"levelo_inurba_marseille","lat":43.29584,"lon":5.36742,"is_reserved":false,"is_disabled":false,"rental_uris":{"android":"levelo://app?vid=4e785803-e884-4b2c-a5bd-5f44b1c215e0","ios":"levelo://app?vid=4e785803-e884-4b2c-a5bd-5f44b1c215e0"},"vehicle_type_id":"4","last_reported":1753277491,"current_range_meters":8000,"station_id":"ce4bgph2rcd13ifvqc2g","pricing_plan_id":"cebpf4jnsgd1na2vs0mg"},{"bike_id":"bd7a1645-738f-48c8-ab53-488da510e2e2","system_id":"levelo_inurba_marseille","lat":43.28442,"lon":5.38448,"is_reserved":false,"is_disabled":false,"rental_uris":{"android":"levelo://app?vid=bd7a1645-738f-48c8-ab53-488da510e2e2","ios":"levelo://app?vid=bd7a1645-738f-48c8-ab53-488da510e2e2"},"vehicle_type_id":"4","last_reported":1753277491,"current_range_meters":8000,"station_id":"ce4bh512rcd13ifvqe3g","pricing_plan_id":"cebpf4jnsgd1na2vs0mg"},{"bike_id":"125964e7-5e31-4fdf-972d-691d9c75737f","system_id":"levelo_inurba_marseille","lat":43.29565,"lon":5.42259,"is_reserved":false,"is_disabled":false,"rental_uris":{"android":"levelo://app?vid=125964e7-5e31-4fdf-972d-691d9c75737f","ios":"levelo://app?vid=125964e7-5e31-4fdf-972d-691d9c75737f"},"vehicle_type_id":"4","last_reported":1753277491,"current_range_meters":8000,"station_id":"ce4bhph2rcd13ifvqhdg","pricing_plan_id":"cebpf4jnsgd1na2vs0mg"},{"bike_id":"05575a90-61e8-4b5e-a808-049a312dc5a3","system_id":"levelo_inurba_marseille","lat":43.28674,"lon":5.38656,"is_reserved":false,"is_disabled":false,"rental_uris":{"android":"levelo://app?vid=05575a90-61e8-4b5e-a808-049a312dc5a3","ios":"levelo://app?vid=05575a90-61e8-4b5e-a808-049a312dc5a3"},"vehicle_type_id":"4","last_reported":1753277491,"current_range_meters":8400,"station_id":"ce4bh492rcd13ifvqdug","pricing_plan_id":"cebpf4jnsgd1na2vs0mg"},{"bike_id":"edfccf5a-4167-40fc-b0f8-bc1198d1cb11","system_id":"levelo_inurba_marseille","lat":43.23063,"lon":5.35491,"is_reserved":false,"is_disabled":false,"rental_uris":{"android":"levelo://app?vid=edfccf5a-4167-40fc-b0f8-bc1198d1cb11","ios":"levelo://app?vid=edfccf5a-4167-40fc-b0f8-bc1198d1cb11"},"vehicle_type_id":"4","last_reported":1753277491,"current_range_meters":8400,"station_id":"cpo3342slgdg3j2ifvpg","pricing_plan_id":"cebpf4jnsgd1na2vs0mg"},{"bike_id":"9ae7d50c-a3ea-4136-8080-315c191e000a","system_id":"levelo_inurba_marseille","lat":43.2875,"lon":5.38428,"is_reserved":false,"is_disabled":false,"rental_uris":{"android":"levelo://app?vid=9ae7d50c-a3ea-4136-8080-315c191e000a","ios":"levelo://app?vid=9ae7d50c-a3ea-4136-8080-315c191e000a"},"vehicle_type_id":"4","last_reported":1753277491,"current_range_meters":8400,"station_id":"","pricing_plan_id":"cebpf4jnsgd1na2vs0mg"},{"bike_id":"5eed9fa5-5444-4e01-9ca6-2f35add3d73a","system_id":"levelo_inurba_marseille","lat":43.307907,"lon":5.381548,"is_reserved":false,"is_disabled":true,"rental_uris":{"android":"levelo://app?vid=5eed9fa5-5444-4e01-9ca6-2f35add3d73a","ios":"levelo://app?vid=5eed9fa5-5444-4e01-9ca6-2f35add3d73a"},"vehicle_type_id":"4","last_reported":1753277491,"current_range_meters":8400,"station_id":"ce4bgt12rcd13ifvqce0","pricing_plan_id":"cebpf4jnsgd1na2vs0mg"},{"bike_id":"736a259d-42e5-458a-b188-81d9dc5fa867","system_id":"levelo_inurba_marseille","lat":43.31369,"lon":5.36694,"is_reserved":false,"is_disabled":false,"rental_uris":{"android":"levelo://app?vid=736a259d-42e5-458a-b188-81d9dc5fa867","ios":"levelo://app?vid=736a259d-42e5-458a-b188-81d9dc5fa867"},"vehicle_type_id":"4","last_reported":1753277491,"current_range_meters":8800,"station_id":"ce4bgr92rcd13ifvqc6g","pricing_plan_id":"cebpf4jnsgd1na2vs0mg"},{"bike_id":"1a1ed911-7eec-4cd2-b0d7-ae1ac12e78aa","system_id":"levelo_inurba_marseille","lat":43.30148,"lon":5.37417,"is_reserved":false,"is_disabled":false,"rental_uris":{"android":"levelo://app?vid=1a1ed911-7eec-4cd2-b0d7-ae1ac12e78aa","ios":"levelo://app?vid=1a1ed911-7eec-4cd2-b0d7-ae1ac12e78aa"},"vehicle_type_id":"4","last_reported":1753277491,"current_range_meters":8800,"station_id":"ce4bgs92rcd13ifvqcc0","pricing_plan_id":"cebpf4jnsgd1na2vs0mg"},{"bike_id":"553267f0-6743-4a0b-827b-c5ab2bb024e8","system_id":"levelo_inurba_marseille","lat":43.29103,"lon":5.38134,"is_reserved":false,"is_disabled":false,"rental_uris":{"android":"levelo://app?vid=553267f0-6743-4a0b-827b-c5ab2bb024e8","ios":"levelo://app?vid=553267f0-6743-4a0b-827b-c5ab2bb024e8"},"vehicle_type_id":"4","last_reported":1753277491,"current_range_meters":8800,"station_id":"ce4bh512rcd13ifvqe2g","pricing_plan_id":"cebpf4jnsgd1na2vs0mg"},{"bike_id":"3d20d076-c40b-4817-b31f-b59674e3db70","system_id":"levelo_inurba_marseille","lat":43.29775,"lon":5.38081,"is_reserved":false,"is_disabled":false,"rental_uris":{"android":"levelo://app?vid=3d20d076-c40b-4817-b31f-b59674e3db70","ios":"levelo://app?vid=3d20d076-c40b-4817-b31f-b59674e3db70"},"vehicle_type_id":"4","last_reported":1753277491,"current_range_meters":8800,"station_id":"ce4bgip2rcd13ifvqbb0","pricing_plan_id":"cebpf4jnsgd1na2vs0mg"},{"bike_id":"fbc97770-8ae7-466d-8653-f7d693deca78","system_id":"levelo_inurba_marseille","lat":43.25494,"lon":5.3765,"is_reserved":false,"is_disabled":false,"rental_uris":{"android":"levelo://app?vid=fbc97770-8ae7-466d-8653-f7d693deca78","ios":"levelo://app?vid=fbc97770-8ae7-466d-8653-f7d693deca78"},"vehicle_type_id":"4","last_reported":1753277491,"current_range_meters":8800,"station_id":"ce4bhh12rcd13ifvqff0","pricing_plan_id":"cebpf4jnsgd1na2vs0mg"},{"bike_id":"81f48beb-cba8-4a10-929a-d7834448108c","system_id":"levelo_inurba_marseille","lat":43.33255,"lon":5.39913,"is_reserved":false,"is_disabled":false,"rental_uris":{"android":"levelo://app?vid=81f48beb-cba8-4a10-929a-d7834448108c","ios":"levelo://app?vid=81f48beb-cba8-4a10-929a-d7834448108c"},"vehicle_type_id":"4","last_reported":1753277491,"current_range_meters":8800,"station_id":"","pricing_plan_id":"cebpf4jnsgd1na2vs0mg"},{"bike_id":"e1a0fd87-39a3-42c5-a64d-3dd7b3a1941d","system_id":"levelo_inurba_marseille","lat":43.29741,"lon":5.3767,"is_reserved":false,"is_disabled":false,"rental_uris":{"android":"levelo://app?vid=e1a0fd87-39a3-42c5-a64d-3dd7b3a1941d","ios":"levelo://app?vid=e1a0fd87-39a3-42c5-a64d-3dd7b3a1941d"},"vehicle_type_id":"4","last_reported":1753277491,"current_range_meters":8800,"station_id":"ce4bgkh2rcd13ifvqbl0","pricing_plan_id":"cebpf4jnsgd1na2vs0mg"},{"bike_id":"e4761578-ae86-4dfa-b146-0428e5d8cca7","system_id":"levelo_inurba_marseille","lat":43.24168,"lon":5.36388,"is_reserved":false,"is_disabled":false,"rental_uris":{"android":"levelo://app?vid=e4761578-ae86-4dfa-b146-0428e5d8cca7","ios":"levelo://app?vid=e4761578-ae86-4dfa-b146-0428e5d8cca7"},"vehicle_type_id":"4","last_reported":1753277491,"current_range_meters":9200,"station_id":"cpo36qri1sfpv3e86is0","pricing_plan_id":"cebpf4jnsgd1na2vs0mg"},{"bike_id":"fc80a2fb-a47e-4a61-9452-e62c151fbdcd","system_id":"levelo_inurba_marseille","lat":43.30932,"lon":5.40143,"is_reserved":false,"is_disabled":false,"rental_uris":{"android":"levelo://app?vid=fc80a2fb-a47e-4a61-9452-e62c151fbdcd","ios":"levelo://app?vid=fc80a2fb-a47e-4a61-9452-e62c151fbdcd"},"vehicle_type_id":"4","last_reported":1753277491,"current_range_meters":9200,"station_id":"ce4bgvp2rcd13ifvqct0","pricing_plan_id":"cebpf4jnsgd1na2vs0mg"},{"bike_id":"8a8c67ff-0285-441e-afaf-3eac3565f663","system_id":"levelo_inurba_marseille","lat":43.32354,"lon":5.36766,"is_reserved":false,"is_disabled":false,"rental_uris":{"android":"levelo://app?vid=8a8c67ff-0285-441e-afaf-3eac3565f663","ios":"levelo://app?vid=8a8c67ff-0285-441e-afaf-3eac3565f663"},"vehicle_type_id":"4","last_reported":1753277491,"current_range_meters":9200,"station_id":"ce4bhsh2rcd13ifvqi2g","pricing_plan_id":"cebpf4jnsgd1na2vs0mg"},{"bike_id":"7f12e554-cc15-46fc-9510-2c9d1e6143be","system_id":"levelo_inurba_marseille","lat":43.304049,"lon":5.367819,"is_reserved":false,"is_disabled":false,"rental_uris":{"android":"levelo://app?vid=7f12e554-cc15-46fc-9510-2c9d1e6143be","ios":"levelo://app?vid=7f12e554-cc15-46fc-9510-2c9d1e6143be"},"vehicle_type_id":"4","last_reported":1753277491,"current_range_meters":9200,"station_id":"ce4bgs12rcd13ifvqcag","pricing_plan_id":"cebpf4jnsgd1na2vs0mg"},{"bike_id":"a5f1f0d6-c678-45f4-9b29-96eaa29a3e36","system_id":"levelo_inurba_marseille","lat":43.251392,"lon":5.373432,"is_reserved":false,"is_disabled":true,"rental_uris":{"android":"levelo://app?vid=a5f1f0d6-c678-45f4-9b29-96eaa29a3e36","ios":"levelo://app?vid=a5f1f0d6-c678-45f4-9b29-96eaa29a3e36"},"vehicle_type_id":"4","last_reported":1753277491,"current_range_meters":9200,"station_id":"","pricing_plan_id":"cebpf4jnsgd1na2vs0mg"},{"bike_id":"2772e544-ff9d-45aa-acbe-d00cbb5890a7","system_id":"levelo_inurba_marseille","lat":43.30649,"lon":5.4009,"is_reserved":false,"is_disabled":false,"rental_uris":{"android":"levelo://app?vid=2772e544-ff9d-45aa-acbe-d00cbb5890a7","ios":"levelo://app?vid=2772e544-ff9d-45aa-acbe-d00cbb5890a7"},"vehicle_type_id":"4","last_reported":1753277491,"current_range_meters":9600,"station_id":"ce4bh112rcd13ifvqda0","pricing_plan_id":"cebpf4jnsgd1na2vs0mg"},{"bike_id":"f71d41d4-d51b-4f87-b9fc-aed463159a1a","system_id":"levelo_inurba_marseille","lat":43.287103,"lon":5.39996,"is_reserved":false,"is_disabled":false,"rental_uris":{"android":"levelo://app?vid=f71d41d4-d51b-4f87-b9fc-aed463159a1a","ios":"levelo://app?vid=f71d41d4-d51b-4f87-b9fc-aed463159a1a"},"vehicle_type_id":"4","last_reported":1753277491,"current_range_meters":9600,"station_id":"ce4bho92rcd13ifvqh3g","pricing_plan_id":"cebpf4jnsgd1na2vs0mg"},{"bike_id":"e3468210-7060-440f-82b8-2a60e26aa660","system_id":"levelo_inurba_marseille","lat":43.2621,"lon":5.37437,"is_reserved":false,"is_disabled":false,"rental_uris":{"android":"levelo://app?vid=e3468210-7060-440f-82b8-2a60e26aa660","ios":"levelo://app?vid=e3468210-7060-440f-82b8-2a60e26aa660"},"vehicle_type_id":"4","last_reported":1753277491,"current_range_meters":9600,"station_id":"ce4bhgp2rcd13ifvqfc0","pricing_plan_id":"cebpf4jnsgd1na2vs0mg"},{"bike_id":"31ca0d6d-78b6-4368-976b-470e7d184b9f","system_id":"levelo_inurba_marseille","lat":43.26216,"lon":5.37442,"is_reserved":false,"is_disabled":false,"rental_uris":{"android":"levelo://app?vid=31ca0d6d-78b6-4368-976b-470e7d184b9f","ios":"levelo://app?vid=31ca0d6d-78b6-4368-976b-470e7d184b9f"},"vehicle_type_id":"4","last_reported":1753277491,"current_range_meters":10000,"station_id":"ce4bhgp2rcd13ifvqfc0","pricing_plan_id":"cebpf4jnsgd1na2vs0mg"},{"bike_id":"4935253a-8075-4582-8866-adc8838e1a16","system_id":"levelo_inurba_marseille","lat":43.30528,"lon":5.36554,"is_reserved":false,"is_disabled":false,"rental_uris":{"android":"levelo://app?vid=4935253a-8075-4582-8866-adc8838e1a16","ios":"levelo://app?vid=4935253a-8075-4582-8866-adc8838e1a16"},"vehicle_type_id":"4","last_reported":1753277491,"current_range_meters":10000,"station_id":"ce4bgs12rcd13ifvqcag","pricing_plan_id":"cebpf4jnsgd1na2vs0mg"},{"bike_id":"3cef1158-540c-4055-a46b-73e02d1c17f7","system_id":"levelo_inurba_marseille","lat":43.31355,"lon":5.37454,"is_reserved":false,"is_disabled":false,"rental_uris":{"android":"levelo://app?vid=3cef1158-540c-4055-a46b-73e02d1c17f7","ios":"levelo://app?vid=3cef1158-540c-4055-a46b-73e02d1c17f7"},"vehicle_type_id":"4","last_reported":1753277491,"current_range_meters":10000,"station_id":"","pricing_plan_id":"cebpf4jnsgd1na2vs0mg"},{"bike_id":"3c21b9e1-b296-4844-a6d5-b8d19c7f36c9","system_id":"levelo_inurba_marseille","lat":43.29177,"lon":5.38453,"is_reserved":false,"is_disabled":false,"rental_uris":{"android":"levelo://app?vid=3c21b9e1-b296-4844-a6d5-b8d19c7f36c9","ios":"levelo://app?vid=3c21b9e1-b296-4844-a6d5-b8d19c7f36c9"},"vehicle_type_id":"4","last_reported":1753277491,"current_range_meters":10000,"station_id":"","pricing_plan_id":"cebpf4jnsgd1na2vs0mg"},{"bike_id":"4681d92f-9473-4531-b301-44f585746896","system_id":"levelo_inurba_marseille","lat":43.27838,"lon":5.39206,"is_reserved":false,"is_disabled":false,"rental_uris":{"android":"levelo://app?vid=4681d92f-9473-4531-b301-44f585746896","ios":"levelo://app?vid=4681d92f-9473-4531-b301-44f585746896"},"vehicle_type_id":"4","last_reported":1753277491,"current_range_meters":9600,"station_id":"ce4bhjp2rcd13ifvqga0","pricing_plan_id":"cebpf4jnsgd1na2vs0mg"},{"bike_id":"aa5097b6-6968-4aec-b711-e7780938924b","system_id":"levelo_inurba_marseille","lat":43.32955,"lon":5.35892,"is_reserved":false,"is_disabled":false,"rental_uris":{"android":"levelo://app?vid=aa5097b6-6968-4aec-b711-e7780938924b","ios":"levelo://app?vid=aa5097b6-6968-4aec-b711-e7780938924b"},"vehicle_type_id":"4","last_reported":1753277491,"current_range_meters":10000,"station_id":"","pricing_plan_id":"cebpf4jnsgd1na2vs0mg"},{"bike_id":"efb00c32-bdcf-4ac7-9010-2ac9c8bfd4ed","system_id":"levelo_inurba_marseille","lat":43.30435,"lon":5.39744,"is_reserved":false,"is_disabled":false,"rental_uris":{"android":"levelo://app?vid=efb00c32-bdcf-4ac7-9010-2ac9c8bfd4ed","ios":"levelo://app?vid=efb00c32-bdcf-4ac7-9010-2ac9c8bfd4ed"},"vehicle_type_id":"4","last_reported":1753277491,"current_range_meters":10800,"station_id":"ce4bh092rcd13ifvqd20","pricing_plan_id":"cebpf4jnsgd1na2vs0mg"},{"bike_id":"4b970512-3d63-4822-8d9f-8c23487ad32e","system_id":"levelo_inurba_marseille","lat":43.31325,"lon":5.39691,"is_reserved":false,"is_disabled":false,"rental_uris":{"android":"levelo://app?vid=4b970512-3d63-4822-8d9f-8c23487ad32e","ios":"levelo://app?vid=4b970512-3d63-4822-8d9f-8c23487ad32e"},"vehicle_type_id":"4","last_reported":1753277491,"current_range_meters":10800,"station_id":"ce4bgvp2rcd13ifvqcu0","pricing_plan_id":"cebpf4jnsgd1na2vs0mg"},{"bike_id":"c9dbd36b-479c-4a5c-b200-3aa7673340d9","system_id":"levelo_inurba_marseille","lat":43.241448,"lon":5.363743,"is_reserved":false,"is_disabled":true,"rental_uris":{"android":"levelo://app?vid=c9dbd36b-479c-4a5c-b200-3aa7673340d9","ios":"levelo://app?vid=c9dbd36b-479c-4a5c-b200-3aa7673340d9"},"vehicle_type_id":"4","last_reported":1753277491,"current_range_meters":10800,"station_id":"","pricing_plan_id":"cebpf4jnsgd1na2vs0mg"},{"bike_id":"baca8154-7e82-4bd8-a0cb-6a4d79f767f0","system_id":"levelo_inurba_marseille","lat":43.29058,"lon":5.3717,"is_reserved":false,"is_disabled":false,"rental_uris":{"android":"levelo://app?vid=baca8154-7e82-4bd8-a0cb-6a4d79f767f0","ios":"levelo://app?vid=baca8154-7e82-4bd8-a0cb-6a4d79f767f0"},"vehicle_type_id":"4","last_reported":1753277491,"current_range_meters":10800,"station_id":"ce4bgh92rcd13ifvqb40","pricing_plan_id":"cebpf4jnsgd1na2vs0mg"},{"bike_id":"fe50cf1d-fc61-4e48-98f2-ea42037cc2b3","system_id":"levelo_inurba_marseille","lat":43.22916,"lon":5.35388,"is_reserved":false,"is_disabled":false,"rental_uris":{"android":"levelo://app?vid=fe50cf1d-fc61-4e48-98f2-ea42037cc2b3","ios":"levelo://app?vid=fe50cf1d-fc61-4e48-98f2-ea42037cc2b3"},"vehicle_type_id":"4","last_reported":1753277491,"current_range_meters":10800,"station_id":"cpo3532slgdg3j2ikp40","pricing_plan_id":"cebpf4jnsgd1na2vs0mg"},{"bike_id":"be694ad1-79eb-46c0-b782-3012f14d4c05","system_id":"levelo_inurba_marseille","lat":43.26786,"lon":5.39414,"is_reserved":false,"is_disabled":false,"rental_uris":{"android":"levelo://app?vid=be694ad1-79eb-46c0-b782-3012f14d4c05","ios":"levelo://app?vid=be694ad1-79eb-46c0-b782-3012f14d4c05"},"vehicle_type_id":"4","last_reported":1753277491,"current_range_meters":10800,"station_id":"ce4bhh12rcd13ifvqfg0","pricing_plan_id":"cebpf4jnsgd1na2vs0mg"},{"bike_id":"5467c0fd-0630-4da1-a12e-b4016c5ad233","system_id":"levelo_inurba_marseille","lat":43.29279,"lon":5.36848,"is_reserved":false,"is_disabled":false,"rental_uris":{"android":"levelo://app?vid=5467c0fd-0630-4da1-a12e-b4016c5ad233","ios":"levelo://app?vid=5467c0fd-0630-4da1-a12e-b4016c5ad233"},"vehicle_type_id":"4","last_reported":1753277491,"current_range_meters":10800,"station_id":"ce4bhbp2rcd13ifvqesg","pricing_plan_id":"cebpf4jnsgd1na2vs0mg"},{"bike_id":"e44893bb-5cdf-4921-b4e8-39ee578180a1","system_id":"levelo_inurba_marseille","lat":43.24075,"lon":5.37766,"is_reserved":false,"is_disabled":false,"rental_uris":{"android":"levelo://app?vid=e44893bb-5cdf-4921-b4e8-39ee578180a1","ios":"levelo://app?vid=e44893bb-5cdf-4921-b4e8-39ee578180a1"},"vehicle_type_id":"4","last_reported":1753277491,"current_range_meters":11200,"station_id":"ce4bhnp2rcd13ifvqgvg","pricing_plan_id":"cebpf4jnsgd1na2vs0mg"},{"bike_id":"3290632a-984a-44ca-932b-f59292c19eda","system_id":"levelo_inurba_marseille","lat":43.27375,"lon":5.36259,"is_reserved":false,"is_disabled":false,"rental_uris":{"android":"levelo://app?vid=3290632a-984a-44ca-932b-f59292c19eda","ios":"levelo://app?vid=3290632a-984a-44ca-932b-f59292c19eda"},"vehicle_type_id":"4","last_reported":1753277491,"current_range_meters":11600,"station_id":"ce4bhbh2rcd13ifvqeo0","pricing_plan_id":"cebpf4jnsgd1na2vs0mg"},{"bike_id":"5d84e1a3-b54e-4897-813d-14b2da3de96f","system_id":"levelo_inurba_marseille","lat":43.30608,"lon":5.36747,"is_reserved":false,"is_disabled":false,"rental_uris":{"android":"levelo://app?vid=5d84e1a3-b54e-4897-813d-14b2da3de96f","ios":"levelo://app?vid=5d84e1a3-b54e-4897-813d-14b2da3de96f"},"vehicle_type_id":"4","last_reported":1753277491,"current_range_meters":11200,"station_id":"ce4bgl92rcd13ifvqbq0","pricing_plan_id":"cebpf4jnsgd1na2vs0mg"},{"bike_id":"a280b99a-f927-45da-9e98-7c3b9d5f878f","system_id":"levelo_inurba_marseille","lat":43.26786,"lon":5.3941,"is_reserved":false,"is_disabled":false,"rental_uris":{"android":"levelo://app?vid=a280b99a-f927-45da-9e98-7c3b9d5f878f","ios":"levelo://app?vid=a280b99a-f927-45da-9e98-7c3b9d5f878f"},"vehicle_type_id":"4","last_reported":1753277491,"current_range_meters":11600,"station_id":"ce4bhh12rcd13ifvqfg0","pricing_plan_id":"cebpf4jnsgd1na2vs0mg"},{"bike_id":"53e03623-d18e-4ff5-b6f3-94771ee2fa51","system_id":"levelo_inurba_marseille","lat":43.24663,"lon":5.38153,"is_reserved":false,"is_disabled":false,"rental_uris":{"android":"levelo://app?vid=53e03623-d18e-4ff5-b6f3-94771ee2fa51","ios":"levelo://app?vid=53e03623-d18e-4ff5-b6f3-94771ee2fa51"},"vehicle_type_id":"4","last_reported":1753277491,"current_range_meters":11600,"station_id":"ce4bhih2rcd13ifvqfr0","pricing_plan_id":"cebpf4jnsgd1na2vs0mg"},{"bike_id":"25179602-8f77-482a-8d85-9b63439894d3","system_id":"levelo_inurba_marseille","lat":43.27413,"lon":5.39416,"is_reserved":false,"is_disabled":false,"rental_uris":{"android":"levelo://app?vid=25179602-8f77-482a-8d85-9b63439894d3","ios":"levelo://app?vid=25179602-8f77-482a-8d85-9b63439894d3"},"vehicle_type_id":"4","last_reported":1753277491,"current_range_meters":11600,"station_id":"ce4bhgp2rcd13ifvqfe0","pricing_plan_id":"cebpf4jnsgd1na2vs0mg"},{"bike_id":"7f63f9a0-7ea4-40f1-844d-1425837a99f2","system_id":"levelo_inurba_marseille","lat":43.29642,"lon":5.3802,"is_reserved":false,"is_disabled":false,"rental_uris":{"android":"levelo://app?vid=7f63f9a0-7ea4-40f1-844d-1425837a99f2","ios":"levelo://app?vid=7f63f9a0-7ea4-40f1-844d-1425837a99f2"},"vehicle_type_id":"4","last_reported":1753277491,"current_range_meters":12000,"station_id":"","pricing_plan_id":"cebpf4jnsgd1na2vs0mg"},{"bike_id":"0bf3a313-527f-4a1c-af27-e403f274cdb2","system_id":"levelo_inurba_marseille","lat":43.28665,"lon":5.36354,"is_reserved":false,"is_disabled":false,"rental_uris":{"android":"levelo://app?vid=0bf3a313-527f-4a1c-af27-e403f274cdb2","ios":"levelo://app?vid=0bf3a313-527f-4a1c-af27-e403f274cdb2"},"vehicle_type_id":"4","last_reported":1753277491,"current_range_meters":12000,"station_id":"ce4bhah2rcd13ifvqej0","pricing_plan_id":"cebpf4jnsgd1na2vs0mg"},{"bike_id":"9a143ed1-a3c7-421c-a22c-84e79d27e230","system_id":"levelo_inurba_marseille","lat":43.28424,"lon":5.34987,"is_reserved":false,"is_disabled":false,"rental_uris":{"android":"levelo://app?vid=9a143ed1-a3c7-421c-a22c-84e79d27e230","ios":"levelo://app?vid=9a143ed1-a3c7-421c-a22c-84e79d27e230"},"vehicle_type_id":"4","last_reported":1753277491,"current_range_meters":12000,"station_id":"ce4bhbh2rcd13ifvqepg","pricing_plan_id":"cebpf4jnsgd1na2vs0mg"},{"bike_id":"09428772-3eac-4c61-8f0d-ba61df81678d","system_id":"levelo_inurba_marseille","lat":43.269422,"lon":5.402541,"is_reserved":false,"is_disabled":false,"rental_uris":{"android":"levelo://app?vid=09428772-3eac-4c61-8f0d-ba61df81678d","ios":"levelo://app?vid=09428772-3eac-4c61-8f0d-ba61df81678d"},"vehicle_type_id":"4","last_reported":1753277491,"current_range_meters":12000,"station_id":"cjm6bp8fraef2m0cb0m0","pricing_plan_id":"cebpf4jnsgd1na2vs0mg"},{"bike_id":"74c1770d-80e8-41eb-8c87-83bd0402b361","system_id":"levelo_inurba_marseille","lat":43.24172,"lon":5.36394,"is_reserved":false,"is_disabled":false,"rental_uris":{"android":"levelo://app?vid=74c1770d-80e8-41eb-8c87-83bd0402b361","ios":"levelo://app?vid=74c1770d-80e8-41eb-8c87-83bd0402b361"},"vehicle_type_id":"4","last_reported":1753277491,"current_range_meters":12000,"station_id":"cpo36qri1sfpv3e86is0","pricing_plan_id":"cebpf4jnsgd1na2vs0mg"},{"bike_id":"a75aeaf9-0ffe-413d-ab70-f401185d32b1","system_id":"levelo_inurba_marseille","lat":43.29577,"lon":5.3674,"is_reserved":false,"is_disabled":false,"rental_uris":{"android":"levelo://app?vid=a75aeaf9-0ffe-413d-ab70-f401185d32b1","ios":"levelo://app?vid=a75aeaf9-0ffe-413d-ab70-f401185d32b1"},"vehicle_type_id":"4","last_reported":1753277491,"current_range_meters":12000,"station_id":"ce4bgph2rcd13ifvqc2g","pricing_plan_id":"cebpf4jnsgd1na2vs0mg"},{"bike_id":"0ea7a10a-9a1f-48d6-ba0c-cd300cee1999","system_id":"levelo_inurba_marseille","lat":43.270765,"lon":5.422701,"is_reserved":false,"is_disabled":false,"rental_uris":{"android":"levelo://app?vid=0ea7a10a-9a1f-48d6-ba0c-cd300cee1999","ios":"levelo://app?vid=0ea7a10a-9a1f-48d6-ba0c-cd300cee1999"},"vehicle_type_id":"4","last_reported":1753277491,"current_range_meters":12000,"station_id":"ce4bhk92rcd13ifvqgb0","pricing_plan_id":"cebpf4jnsgd1na2vs0mg"},{"bike_id":"8233b060-2e0a-42b8-bd17-dc0d216555ee","system_id":"levelo_inurba_marseille","lat":43.295963,"lon":5.403515,"is_reserved":false,"is_disabled":false,"rental_uris":{"android":"levelo://app?vid=8233b060-2e0a-42b8-bd17-dc0d216555ee","ios":"levelo://app?vid=8233b060-2e0a-42b8-bd17-dc0d216555ee"},"vehicle_type_id":"4","last_reported":1753277491,"current_range_meters":12000,"station_id":"ce4bh0h2rcd13ifvqd60","pricing_plan_id":"cebpf4jnsgd1na2vs0mg"},{"bike_id":"848a5343-490c-40cd-949c-55ce824484c2","system_id":"levelo_inurba_marseille","lat":43.24803,"lon":5.37453,"is_reserved":false,"is_disabled":false,"rental_uris":{"android":"levelo://app?vid=848a5343-490c-40cd-949c-55ce824484c2","ios":"levelo://app?vid=848a5343-490c-40cd-949c-55ce824484c2"},"vehicle_type_id":"4","last_reported":1753277491,"current_range_meters":12400,"station_id":"ce4bhgh2rcd13ifvqfb0","pricing_plan_id":"cebpf4jnsgd1na2vs0mg"},{"bike_id":"e506fa32-0c00-4fe8-9fa9-d9089a1da2d0","system_id":"levelo_inurba_marseille","lat":43.29618,"lon":5.37159,"is_reserved":false,"is_disabled":false,"rental_uris":{"android":"levelo://app?vid=e506fa32-0c00-4fe8-9fa9-d9089a1da2d0","ios":"levelo://app?vid=e506fa32-0c00-4fe8-9fa9-d9089a1da2d0"},"vehicle_type_id":"4","last_reported":1753277491,"current_range_meters":12000,"station_id":"ce4bgnh2rcd13ifvqc0g","pricing_plan_id":"cebpf4jnsgd1na2vs0mg"},{"bike_id":"ec15ad8a-0ea3-4f63-83be-f6aec521d9e5","system_id":"levelo_inurba_marseille","lat":43.27943,"lon":5.41045,"is_reserved":false,"is_disabled":false,"rental_uris":{"android":"levelo://app?vid=ec15ad8a-0ea3-4f63-83be-f6aec521d9e5","ios":"levelo://app?vid=ec15ad8a-0ea3-4f63-83be-f6aec521d9e5"},"vehicle_type_id":"4","last_reported":1753277491,"current_range_meters":12400,"station_id":"ce4bhnp2rcd13ifvqh0g","pricing_plan_id":"cebpf4jnsgd1na2vs0mg"},{"bike_id":"07e7ec69-2e3a-4f54-b2ae-191ac00bd485","system_id":"levelo_inurba_marseille","lat":43.29856,"lon":5.36272,"is_reserved":false,"is_disabled":false,"rental_uris":{"android":"levelo://app?vid=07e7ec69-2e3a-4f54-b2ae-191ac00bd485","ios":"levelo://app?vid=07e7ec69-2e3a-4f54-b2ae-191ac00bd485"},"vehicle_type_id":"4","last_reported":1753277491,"current_range_meters":12800,"station_id":"ce4bgpp2rcd13ifvqc3g","pricing_plan_id":"cebpf4jnsgd1na2vs0mg"},{"bike_id":"db4f7d16-4447-4752-b9fa-314b60a317e8","system_id":"levelo_inurba_marseille","lat":43.29902,"lon":5.37922,"is_reserved":false,"is_disabled":false,"rental_uris":{"android":"levelo://app?vid=db4f7d16-4447-4752-b9fa-314b60a317e8","ios":"levelo://app?vid=db4f7d16-4447-4752-b9fa-314b60a317e8"},"vehicle_type_id":"4","last_reported":1753277491,"current_range_meters":12800,"station_id":"","pricing_plan_id":"cebpf4jnsgd1na2vs0mg"},{"bike_id":"4f07190e-caac-415f-b780-172edb0f66b7","system_id":"levelo_inurba_marseille","lat":43.31229,"lon":5.36874,"is_reserved":false,"is_disabled":false,"rental_uris":{"android":"levelo://app?vid=4f07190e-caac-415f-b780-172edb0f66b7","ios":"levelo://app?vid=4f07190e-caac-415f-b780-172edb0f66b7"},"vehicle_type_id":"4","last_reported":1753277491,"current_range_meters":12800,"station_id":"ce4bgl92rcd13ifvqbq0","pricing_plan_id":"cebpf4jnsgd1na2vs0mg"},{"bike_id":"cc926983-7496-48df-9677-b8723ddc96b9","system_id":"levelo_inurba_marseille","lat":43.22896,"lon":5.35401,"is_reserved":false,"is_disabled":false,"rental_uris":{"android":"levelo://app?vid=cc926983-7496-48df-9677-b8723ddc96b9","ios":"levelo://app?vid=cc926983-7496-48df-9677-b8723ddc96b9"},"vehicle_type_id":"4","last_reported":1753277491,"current_range_meters":13600,"station_id":"cpo3532slgdg3j2ikp40","pricing_plan_id":"cebpf4jnsgd1na2vs0mg"},{"bike_id":"fb81ee79-6688-4d05-be53-1ac881d0c7b8","system_id":"levelo_inurba_marseille","lat":43.284865,"lon":5.385438,"is_reserved":false,"is_disabled":false,"rental_uris":{"android":"levelo://app?vid=fb81ee79-6688-4d05-be53-1ac881d0c7b8","ios":"levelo://app?vid=fb81ee79-6688-4d05-be53-1ac881d0c7b8"},"vehicle_type_id":"4","last_reported":1753277491,"current_range_meters":13600,"station_id":"ce4bh8p2rcd13ifvqeb0","pricing_plan_id":"cebpf4jnsgd1na2vs0mg"},{"bike_id":"740c5007-a26d-4d36-9be8-ab7b0dfb5f0e","system_id":"levelo_inurba_marseille","lat":43.31084,"lon":5.42429,"is_reserved":false,"is_disabled":false,"rental_uris":{"android":"levelo://app?vid=740c5007-a26d-4d36-9be8-ab7b0dfb5f0e","ios":"levelo://app?vid=740c5007-a26d-4d36-9be8-ab7b0dfb5f0e"},"vehicle_type_id":"4","last_reported":1753277491,"current_range_meters":12800,"station_id":"ce4bhp92rcd13ifvqhag","pricing_plan_id":"cebpf4jnsgd1na2vs0mg"},{"bike_id":"ee260627-b63a-4856-a65e-1dba0f052ca4","system_id":"levelo_inurba_marseille","lat":43.28496,"lon":5.38542,"is_reserved":false,"is_disabled":false,"rental_uris":{"android":"levelo://app?vid=ee260627-b63a-4856-a65e-1dba0f052ca4","ios":"levelo://app?vid=ee260627-b63a-4856-a65e-1dba0f052ca4"},"vehicle_type_id":"4","last_reported":1753277491,"current_range_meters":13600,"station_id":"ce4bh8p2rcd13ifvqeb0","pricing_plan_id":"cebpf4jnsgd1na2vs0mg"},{"bike_id":"34bd60d1-1be5-4fb1-a07e-c91c387d30f9","system_id":"levelo_inurba_marseille","lat":43.28461,"lon":5.35885,"is_reserved":false,"is_disabled":false,"rental_uris":{"android":"levelo://app?vid=34bd60d1-1be5-4fb1-a07e-c91c387d30f9","ios":"levelo://app?vid=34bd60d1-1be5-4fb1-a07e-c91c387d30f9"},"vehicle_type_id":"4","last_reported":1753277491,"current_range_meters":14000,"station_id":"ce4bhah2rcd13ifvqei0","pricing_plan_id":"cebpf4jnsgd1na2vs0mg"},{"bike_id":"ea731c2a-e1c3-44a2-becb-45da31f72b6f","system_id":"levelo_inurba_marseille","lat":43.31362,"lon":5.36687,"is_reserved":false,"is_disabled":false,"rental_uris":{"android":"levelo://app?vid=ea731c2a-e1c3-44a2-becb-45da31f72b6f","ios":"levelo://app?vid=ea731c2a-e1c3-44a2-becb-45da31f72b6f"},"vehicle_type_id":"4","last_reported":1753277491,"current_range_meters":14000,"station_id":"ce4bgr92rcd13ifvqc6g","pricing_plan_id":"cebpf4jnsgd1na2vs0mg"},{"bike_id":"bd4053fb-a507-47f8-b050-a61dab05872e","system_id":"levelo_inurba_marseille","lat":43.255831,"lon":5.382403,"is_reserved":false,"is_disabled":false,"rental_uris":{"android":"levelo://app?vid=bd4053fb-a507-47f8-b050-a61dab05872e","ios":"levelo://app?vid=bd4053fb-a507-47f8-b050-a61dab05872e"},"vehicle_type_id":"4","last_reported":1753277491,"current_range_meters":14000,"station_id":"ce4bhih2rcd13ifvqfs0","pricing_plan_id":"cebpf4jnsgd1na2vs0mg"},{"bike_id":"ffd3569d-fe02-4455-bf07-bd672eff4a28","system_id":"levelo_inurba_marseille","lat":43.29718,"lon":5.3769,"is_reserved":false,"is_disabled":false,"rental_uris":{"android":"levelo://app?vid=ffd3569d-fe02-4455-bf07-bd672eff4a28","ios":"levelo://app?vid=ffd3569d-fe02-4455-bf07-bd672eff4a28"},"vehicle_type_id":"4","last_reported":1753277491,"current_range_meters":14000,"station_id":"ce4bgkh2rcd13ifvqbl0","pricing_plan_id":"cebpf4jnsgd1na2vs0mg"},{"bike_id":"c3b4c842-89f1-49ff-abb9-fc4b30df4519","system_id":"levelo_inurba_marseille","lat":43.256727,"lon":5.382355,"is_reserved":false,"is_disabled":false,"rental_uris":{"android":"levelo://app?vid=c3b4c842-89f1-49ff-abb9-fc4b30df4519","ios":"levelo://app?vid=c3b4c842-89f1-49ff-abb9-fc4b30df4519"},"vehicle_type_id":"4","last_reported":1753277491,"current_range_meters":14000,"station_id":"","pricing_plan_id":"cebpf4jnsgd1na2vs0mg"},{"bike_id":"f5d28b42-029f-4d00-a863-a8c9f012ab43","system_id":"levelo_inurba_marseille","lat":43.2826,"lon":5.35076,"is_reserved":false,"is_disabled":false,"rental_uris":{"android":"levelo://app?vid=f5d28b42-029f-4d00-a863-a8c9f012ab43","ios":"levelo://app?vid=f5d28b42-029f-4d00-a863-a8c9f012ab43"},"vehicle_type_id":"4","last_reported":1753277491,"current_range_meters":14000,"station_id":"ce4bhbp2rcd13ifvqerg","pricing_plan_id":"cebpf4jnsgd1na2vs0mg"},{"bike_id":"bbc2b271-396f-4875-9f1d-0fcc163d87b6","system_id":"levelo_inurba_marseille","lat":43.29072,"lon":5.39919,"is_reserved":false,"is_disabled":false,"rental_uris":{"android":"levelo://app?vid=bbc2b271-396f-4875-9f1d-0fcc163d87b6","ios":"levelo://app?vid=bbc2b271-396f-4875-9f1d-0fcc163d87b6"},"vehicle_type_id":"4","last_reported":1753277491,"current_range_meters":14400,"station_id":"ce4bh392rcd13ifvqdm0","pricing_plan_id":"cebpf4jnsgd1na2vs0mg"},{"bike_id":"f7736a5c-e8f2-41fe-ab50-287bbcb15542","system_id":"levelo_inurba_marseille","lat":43.29259,"lon":5.40909,"is_reserved":false,"is_disabled":false,"rental_uris":{"android":"levelo://app?vid=f7736a5c-e8f2-41fe-ab50-287bbcb15542","ios":"levelo://app?vid=f7736a5c-e8f2-41fe-ab50-287bbcb15542"},"vehicle_type_id":"4","last_reported":1753277491,"current_range_meters":14400,"station_id":"ce4bh192rcd13ifvqdc0","pricing_plan_id":"cebpf4jnsgd1na2vs0mg"},{"bike_id":"b147d87d-ad6b-4ee0-89e1-f2e85a2edd30","system_id":"levelo_inurba_marseille","lat":43.32115,"lon":5.36752,"is_reserved":false,"is_disabled":false,"rental_uris":{"android":"levelo://app?vid=b147d87d-ad6b-4ee0-89e1-f2e85a2edd30","ios":"levelo://app?vid=b147d87d-ad6b-4ee0-89e1-f2e85a2edd30"},"vehicle_type_id":"4","last_reported":1753277491,"current_range_meters":14400,"station_id":"ce4bhrh2rcd13ifvqhug","pricing_plan_id":"cebpf4jnsgd1na2vs0mg"},{"bike_id":"9caafdbd-3f97-4ae1-b1b7-dad552793624","system_id":"levelo_inurba_marseille","lat":43.29589,"lon":5.36734,"is_reserved":false,"is_disabled":false,"rental_uris":{"android":"levelo://app?vid=9caafdbd-3f97-4ae1-b1b7-dad552793624","ios":"levelo://app?vid=9caafdbd-3f97-4ae1-b1b7-dad552793624"},"vehicle_type_id":"4","last_reported":1753277491,"current_range_meters":14800,"station_id":"ce4bgph2rcd13ifvqc2g","pricing_plan_id":"cebpf4jnsgd1na2vs0mg"},{"bike_id":"7f5dbd86-9d2e-434f-905e-bc4d9b13b83e","system_id":"levelo_inurba_marseille","lat":43.286145,"lon":5.370662,"is_reserved":false,"is_disabled":false,"rental_uris":{"android":"levelo://app?vid=7f5dbd86-9d2e-434f-905e-bc4d9b13b83e","ios":"levelo://app?vid=7f5dbd86-9d2e-434f-905e-bc4d9b13b83e"},"vehicle_type_id":"4","last_reported":1753277491,"current_range_meters":14800,"station_id":"ce4bht12rcd13ifvqi60","pricing_plan_id":"cebpf4jnsgd1na2vs0mg"},{"bike_id":"820f7ded-a613-42b4-8c0a-617cf52f5647","system_id":"levelo_inurba_marseille","lat":43.30908,"lon":5.37182,"is_reserved":false,"is_disabled":false,"rental_uris":{"android":"levelo://app?vid=820f7ded-a613-42b4-8c0a-617cf52f5647","ios":"levelo://app?vid=820f7ded-a613-42b4-8c0a-617cf52f5647"},"vehicle_type_id":"4","last_reported":1753277491,"current_range_meters":14800,"station_id":"ce4bguh2rcd13ifvqckg","pricing_plan_id":"cebpf4jnsgd1na2vs0mg"},{"bike_id":"447cebff-3145-45a6-8e32-4e3504be28dd","system_id":"levelo_inurba_marseille","lat":43.28415,"lon":5.34982,"is_reserved":false,"is_disabled":false,"rental_uris":{"android":"levelo://app?vid=447cebff-3145-45a6-8e32-4e3504be28dd","ios":"levelo://app?vid=447cebff-3145-45a6-8e32-4e3504be28dd"},"vehicle_type_id":"4","last_reported":1753277491,"current_range_meters":14400,"station_id":"ce4bhbh2rcd13ifvqepg","pricing_plan_id":"cebpf4jnsgd1na2vs0mg"},{"bike_id":"3c8c8450-a767-4a89-b895-39c7e1d469a3","system_id":"levelo_inurba_marseille","lat":43.25558,"lon":5.37538,"is_reserved":false,"is_disabled":false,"rental_uris":{"android":"levelo://app?vid=3c8c8450-a767-4a89-b895-39c7e1d469a3","ios":"levelo://app?vid=3c8c8450-a767-4a89-b895-39c7e1d469a3"},"vehicle_type_id":"4","last_reported":1753277491,"current_range_meters":14800,"station_id":"","pricing_plan_id":"cebpf4jnsgd1na2vs0mg"},{"bike_id":"c680668c-1348-488d-9ac1-8e451897b666","system_id":"levelo_inurba_marseille","lat":43.26193,"lon":5.37446,"is_reserved":false,"is_disabled":false,"rental_uris":{"android":"levelo://app?vid=c680668c-1348-488d-9ac1-8e451897b666","ios":"levelo://app?vid=c680668c-1348-488d-9ac1-8e451897b666"},"vehicle_type_id":"4","last_reported":1753277491,"current_range_meters":14800,"station_id":"ce4bhgp2rcd13ifvqfc0","pricing_plan_id":"cebpf4jnsgd1na2vs0mg"},{"bike_id":"54fbcc73-411c-4b2a-9645-e2c9498e10eb","system_id":"levelo_inurba_marseille","lat":43.24994,"lon":5.38934,"is_reserved":false,"is_disabled":false,"rental_uris":{"android":"levelo://app?vid=54fbcc73-411c-4b2a-9645-e2c9498e10eb","ios":"levelo://app?vid=54fbcc73-411c-4b2a-9645-e2c9498e10eb"},"vehicle_type_id":"4","last_reported":1753277491,"current_range_meters":14800,"station_id":"ce4bhgp2rcd13ifvqfd0","pricing_plan_id":"cebpf4jnsgd1na2vs0mg"},{"bike_id":"6d6c8df7-00e5-48f4-9f91-d2d6d4cdb8e0","system_id":"levelo_inurba_marseille","lat":43.273954,"lon":5.362611,"is_reserved":false,"is_disabled":false,"rental_uris":{"android":"levelo://app?vid=6d6c8df7-00e5-48f4-9f91-d2d6d4cdb8e0","ios":"levelo://app?vid=6d6c8df7-00e5-48f4-9f91-d2d6d4cdb8e0"},"vehicle_type_id":"4","last_reported":1753277491,"current_range_meters":15200,"station_id":"ce4bhbh2rcd13ifvqeo0","pricing_plan_id":"cebpf4jnsgd1na2vs0mg"},{"bike_id":"4ab27091-1662-4811-87b9-a886b076324d","system_id":"levelo_inurba_marseille","lat":43.32487,"lon":5.36554,"is_reserved":false,"is_disabled":false,"rental_uris":{"android":"levelo://app?vid=4ab27091-1662-4811-87b9-a886b076324d","ios":"levelo://app?vid=4ab27091-1662-4811-87b9-a886b076324d"},"vehicle_type_id":"4","last_reported":1753277491,"current_range_meters":15200,"station_id":"ce4bhs12rcd13ifvqhvg","pricing_plan_id":"cebpf4jnsgd1na2vs0mg"},{"bike_id":"1e147f4b-3fb3-4bdc-9e81-bb4751209bee","system_id":"levelo_inurba_marseille","lat":43.28723,"lon":5.37941,"is_reserved":false,"is_disabled":false,"rental_uris":{"android":"levelo://app?vid=1e147f4b-3fb3-4bdc-9e81-bb4751209bee","ios":"levelo://app?vid=1e147f4b-3fb3-4bdc-9e81-bb4751209bee"},"vehicle_type_id":"4","last_reported":1753277491,"current_range_meters":15200,"station_id":"ce4bh9p2rcd13ifvqec0","pricing_plan_id":"cebpf4jnsgd1na2vs0mg"},{"bike_id":"11b2b844-3792-4730-961c-0c311fcc6984","system_id":"levelo_inurba_marseille","lat":43.28279,"lon":5.35072,"is_reserved":false,"is_disabled":false,"rental_uris":{"android":"levelo://app?vid=11b2b844-3792-4730-961c-0c311fcc6984","ios":"levelo://app?vid=11b2b844-3792-4730-961c-0c311fcc6984"},"vehicle_type_id":"4","last_reported":1753277491,"current_range_meters":15200,"station_id":"ce4bhbp2rcd13ifvqerg","pricing_plan_id":"cebpf4jnsgd1na2vs0mg"},{"bike_id":"42c76ab1-fb43-49bb-99b5-0d20e5821f6e","system_id":"levelo_inurba_marseille","lat":43.28464,"lon":5.35883,"is_reserved":false,"is_disabled":false,"rental_uris":{"android":"levelo://app?vid=42c76ab1-fb43-49bb-99b5-0d20e5821f6e","ios":"levelo://app?vid=42c76ab1-fb43-49bb-99b5-0d20e5821f6e"},"vehicle_type_id":"4","last_reported":1753277491,"current_range_meters":15200,"station_id":"ce4bhah2rcd13ifvqei0","pricing_plan_id":"cebpf4jnsgd1na2vs0mg"},{"bike_id":"2d52fe49-8eef-44fe-ade2-9560b1a6223a","system_id":"levelo_inurba_marseille","lat":43.27061,"lon":5.40254,"is_reserved":false,"is_disabled":false,"rental_uris":{"android":"levelo://app?vid=2d52fe49-8eef-44fe-ade2-9560b1a6223a","ios":"levelo://app?vid=2d52fe49-8eef-44fe-ade2-9560b1a6223a"},"vehicle_type_id":"4","last_reported":1753277491,"current_range_meters":15200,"station_id":"ce4bhk92rcd13ifvqgc0","pricing_plan_id":"cebpf4jnsgd1na2vs0mg"},{"bike_id":"541e3f7a-640b-4d8c-977d-949ca2a087ab","system_id":"levelo_inurba_marseille","lat":43.30796,"lon":5.379577,"is_reserved":false,"is_disabled":true,"rental_uris":{"android":"levelo://app?vid=541e3f7a-640b-4d8c-977d-949ca2a087ab","ios":"levelo://app?vid=541e3f7a-640b-4d8c-977d-949ca2a087ab"},"vehicle_type_id":"4","last_reported":1753277491,"current_range_meters":15200,"station_id":"ce4bgt12rcd13ifvqce0","pricing_plan_id":"cebpf4jnsgd1na2vs0mg"},{"bike_id":"43ba4de9-4fc6-4fc7-8fa1-e659edddea85","system_id":"levelo_inurba_marseille","lat":43.29936,"lon":5.36562,"is_reserved":false,"is_disabled":false,"rental_uris":{"android":"levelo://app?vid=43ba4de9-4fc6-4fc7-8fa1-e659edddea85","ios":"levelo://app?vid=43ba4de9-4fc6-4fc7-8fa1-e659edddea85"},"vehicle_type_id":"4","last_reported":1753277491,"current_range_meters":16000,"station_id":"ce4bgm92rcd13ifvqbr0","pricing_plan_id":"cebpf4jnsgd1na2vs0mg"},{"bike_id":"b76e6765-3edc-4df1-b245-5904f7e4e553","system_id":"levelo_inurba_marseille","lat":43.29266,"lon":5.38444,"is_reserved":false,"is_disabled":false,"rental_uris":{"android":"levelo://app?vid=b76e6765-3edc-4df1-b245-5904f7e4e553","ios":"levelo://app?vid=b76e6765-3edc-4df1-b245-5904f7e4e553"},"vehicle_type_id":"4","last_reported":1753277491,"current_range_meters":16000,"station_id":"ce4bh692rcd13ifvqea0","pricing_plan_id":"cebpf4jnsgd1na2vs0mg"},{"bike_id":"1d774be5-8d21-4e05-8592-4b135ff73843","system_id":"levelo_inurba_marseille","lat":43.32335,"lon":5.40621,"is_reserved":false,"is_disabled":false,"rental_uris":{"android":"levelo://app?vid=1d774be5-8d21-4e05-8592-4b135ff73843","ios":"levelo://app?vid=1d774be5-8d21-4e05-8592-4b135ff73843"},"vehicle_type_id":"4","last_reported":1753277491,"current_range_meters":16000,"station_id":"ce4bhq92rcd13ifvqhjg","pricing_plan_id":"cebpf4jnsgd1na2vs0mg"},{"bike_id":"2704fd55-0669-4cd3-a002-e3ba2e827fa5","system_id":"levelo_inurba_marseille","lat":43.29869,"lon":5.36312,"is_reserved":false,"is_disabled":false,"rental_uris":{"android":"levelo://app?vid=2704fd55-0669-4cd3-a002-e3ba2e827fa5","ios":"levelo://app?vid=2704fd55-0669-4cd3-a002-e3ba2e827fa5"},"vehicle_type_id":"4","last_reported":1753277491,"current_range_meters":16000,"station_id":"ce4bgpp2rcd13ifvqc3g","pricing_plan_id":"cebpf4jnsgd1na2vs0mg"},{"bike_id":"0e53122b-587e-4b25-8915-3a5a331608a7","system_id":"levelo_inurba_marseille","lat":43.28002,"lon":5.41658,"is_reserved":false,"is_disabled":false,"rental_uris":{"android":"levelo://app?vid=0e53122b-587e-4b25-8915-3a5a331608a7","ios":"levelo://app?vid=0e53122b-587e-4b25-8915-3a5a331608a7"},"vehicle_type_id":"4","last_reported":1753277491,"current_range_meters":16000,"station_id":"ce4bho12rcd13ifvqh1g","pricing_plan_id":"cebpf4jnsgd1na2vs0mg"},{"bike_id":"f9c9ff83-8548-4acb-a33b-495af4adeef4","system_id":"levelo_inurba_marseille","lat":43.32361,"lon":5.36687,"is_reserved":false,"is_disabled":false,"rental_uris":{"android":"levelo://app?vid=f9c9ff83-8548-4acb-a33b-495af4adeef4","ios":"levelo://app?vid=f9c9ff83-8548-4acb-a33b-495af4adeef4"},"vehicle_type_id":"4","last_reported":1753277491,"current_range_meters":16000,"station_id":"","pricing_plan_id":"cebpf4jnsgd1na2vs0mg"},{"bike_id":"33f6aa60-2c09-45d1-a178-5815033ed9c8","system_id":"levelo_inurba_marseille","lat":43.271,"lon":5.42268,"is_reserved":false,"is_disabled":false,"rental_uris":{"android":"levelo://app?vid=33f6aa60-2c09-45d1-a178-5815033ed9c8","ios":"levelo://app?vid=33f6aa60-2c09-45d1-a178-5815033ed9c8"},"vehicle_type_id":"4","last_reported":1753277491,"current_range_meters":16000,"station_id":"ce4bhk92rcd13ifvqgb0","pricing_plan_id":"cebpf4jnsgd1na2vs0mg"},{"bike_id":"a0de01aa-cd68-4a4d-8bab-65fa167b8610","system_id":"levelo_inurba_marseille","lat":43.231913,"lon":5.355633,"is_reserved":false,"is_disabled":false,"rental_uris":{"android":"levelo://app?vid=a0de01aa-cd68-4a4d-8bab-65fa167b8610","ios":"levelo://app?vid=a0de01aa-cd68-4a4d-8bab-65fa167b8610"},"vehicle_type_id":"4","last_reported":1753277491,"current_range_meters":16400,"station_id":"ce4bhu92rcd13ifvqi70","pricing_plan_id":"cebpf4jnsgd1na2vs0mg"},{"bike_id":"f26ebe3d-5edb-4a07-bae4-db0a72794a66","system_id":"levelo_inurba_marseille","lat":43.282697,"lon":5.350652,"is_reserved":false,"is_disabled":false,"rental_uris":{"android":"levelo://app?vid=f26ebe3d-5edb-4a07-bae4-db0a72794a66","ios":"levelo://app?vid=f26ebe3d-5edb-4a07-bae4-db0a72794a66"},"vehicle_type_id":"4","last_reported":1753277491,"current_range_meters":16000,"station_id":"ce4bhbp2rcd13ifvqerg","pricing_plan_id":"cebpf4jnsgd1na2vs0mg"},{"bike_id":"dc458318-423c-488a-85c3-e1ff1dd3d933","system_id":"levelo_inurba_marseille","lat":43.30316,"lon":5.40437,"is_reserved":false,"is_disabled":false,"rental_uris":{"android":"levelo://app?vid=dc458318-423c-488a-85c3-e1ff1dd3d933","ios":"levelo://app?vid=dc458318-423c-488a-85c3-e1ff1dd3d933"},"vehicle_type_id":"4","last_reported":1753277491,"current_range_meters":16000,"station_id":"ce4bh012rcd13ifvqd10","pricing_plan_id":"cebpf4jnsgd1na2vs0mg"},{"bike_id":"8ebe434f-5d79-4aab-96e5-a8436d434fd7","system_id":"levelo_inurba_marseille","lat":43.32346,"lon":5.40614,"is_reserved":false,"is_disabled":false,"rental_uris":{"android":"levelo://app?vid=8ebe434f-5d79-4aab-96e5-a8436d434fd7","ios":"levelo://app?vid=8ebe434f-5d79-4aab-96e5-a8436d434fd7"},"vehicle_type_id":"4","last_reported":1753277491,"current_range_meters":16000,"station_id":"ce4bhq92rcd13ifvqhjg","pricing_plan_id":"cebpf4jnsgd1na2vs0mg"},{"bike_id":"83689ae2-469b-43e8-a390-fd7565483d26","system_id":"levelo_inurba_marseille","lat":43.2979,"lon":5.39355,"is_reserved":false,"is_disabled":false,"rental_uris":{"android":"levelo://app?vid=83689ae2-469b-43e8-a390-fd7565483d26","ios":"levelo://app?vid=83689ae2-469b-43e8-a390-fd7565483d26"},"vehicle_type_id":"4","last_reported":1753277491,"current_range_meters":16000,"station_id":"chh1huq6cuj3fo74tm60","pricing_plan_id":"cebpf4jnsgd1na2vs0mg"},{"bike_id":"e8404a02-06ac-4381-bbb2-1247e5f5c9f1","system_id":"levelo_inurba_marseille","lat":43.25916,"lon":5.40884,"is_reserved":false,"is_disabled":false,"rental_uris":{"android":"levelo://app?vid=e8404a02-06ac-4381-bbb2-1247e5f5c9f1","ios":"levelo://app?vid=e8404a02-06ac-4381-bbb2-1247e5f5c9f1"},"vehicle_type_id":"4","last_reported":1753277491,"current_range_meters":16000,"station_id":"ce4bhm92rcd13ifvqglg","pricing_plan_id":"cebpf4jnsgd1na2vs0mg"},{"bike_id":"fedc9b46-f587-4e6b-b1ec-5adbe36a6c96","system_id":"levelo_inurba_marseille","lat":43.25914,"lon":5.40881,"is_reserved":false,"is_disabled":false,"rental_uris":{"android":"levelo://app?vid=fedc9b46-f587-4e6b-b1ec-5adbe36a6c96","ios":"levelo://app?vid=fedc9b46-f587-4e6b-b1ec-5adbe36a6c96"},"vehicle_type_id":"4","last_reported":1753277491,"current_range_meters":16000,"station_id":"ce4bhm92rcd13ifvqglg","pricing_plan_id":"cebpf4jnsgd1na2vs0mg"},{"bike_id":"ff522366-ea7e-4962-b5f1-b4fb89a7e862","system_id":"levelo_inurba_marseille","lat":43.25931,"lon":5.40912,"is_reserved":false,"is_disabled":false,"rental_uris":{"android":"levelo://app?vid=ff522366-ea7e-4962-b5f1-b4fb89a7e862","ios":"levelo://app?vid=ff522366-ea7e-4962-b5f1-b4fb89a7e862"},"vehicle_type_id":"4","last_reported":1753277491,"current_range_meters":16000,"station_id":"ce4bhm92rcd13ifvqglg","pricing_plan_id":"cebpf4jnsgd1na2vs0mg"},{"bike_id":"6ba8bf23-faf4-4e7f-a0da-6f0984da5df1","system_id":"levelo_inurba_marseille","lat":43.26213,"lon":5.3744,"is_reserved":false,"is_disabled":false,"rental_uris":{"android":"levelo://app?vid=6ba8bf23-faf4-4e7f-a0da-6f0984da5df1","ios":"levelo://app?vid=6ba8bf23-faf4-4e7f-a0da-6f0984da5df1"},"vehicle_type_id":"4","last_reported":1753277491,"current_range_meters":16000,"station_id":"ce4bhgp2rcd13ifvqfc0","pricing_plan_id":"cebpf4jnsgd1na2vs0mg"},{"bike_id":"f19429f9-71f2-4d7f-ac9a-0df78a7fea9c","system_id":"levelo_inurba_marseille","lat":43.27568,"lon":5.384217,"is_reserved":false,"is_disabled":false,"rental_uris":{"android":"levelo://app?vid=f19429f9-71f2-4d7f-ac9a-0df78a7fea9c","ios":"levelo://app?vid=f19429f9-71f2-4d7f-ac9a-0df78a7fea9c"},"vehicle_type_id":"4","last_reported":1753277491,"current_range_meters":16400,"station_id":"ce4bhh92rcd13ifvqfi0","pricing_plan_id":"cebpf4jnsgd1na2vs0mg"},{"bike_id":"7fe8b872-8ffa-4f7d-9303-fa2f5788ac86","system_id":"levelo_inurba_marseille","lat":43.28152,"lon":5.42659,"is_reserved":false,"is_disabled":false,"rental_uris":{"android":"levelo://app?vid=7fe8b872-8ffa-4f7d-9303-fa2f5788ac86","ios":"levelo://app?vid=7fe8b872-8ffa-4f7d-9303-fa2f5788ac86"},"vehicle_type_id":"4","last_reported":1753277491,"current_range_meters":16400,"station_id":"ce4bhnh2rcd13ifvqgug","pricing_plan_id":"cebpf4jnsgd1na2vs0mg"},{"bike_id":"f3217e35-0bb5-43ab-beb0-dd5e233a7114","system_id":"levelo_inurba_marseille","lat":43.2557,"lon":5.3825,"is_reserved":false,"is_disabled":false,"rental_uris":{"android":"levelo://app?vid=f3217e35-0bb5-43ab-beb0-dd5e233a7114","ios":"levelo://app?vid=f3217e35-0bb5-43ab-beb0-dd5e233a7114"},"vehicle_type_id":"4","last_reported":1753277491,"current_range_meters":16400,"station_id":"ce4bhih2rcd13ifvqfs0","pricing_plan_id":"cebpf4jnsgd1na2vs0mg"},{"bike_id":"b5ce8d93-17c0-45a5-b2b1-eefce45c2d79","system_id":"levelo_inurba_marseille","lat":43.31814,"lon":5.43528,"is_reserved":false,"is_disabled":false,"rental_uris":{"android":"levelo://app?vid=b5ce8d93-17c0-45a5-b2b1-eefce45c2d79","ios":"levelo://app?vid=b5ce8d93-17c0-45a5-b2b1-eefce45c2d79"},"vehicle_type_id":"4","last_reported":1753277491,"current_range_meters":16400,"station_id":"","pricing_plan_id":"cebpf4jnsgd1na2vs0mg"},{"bike_id":"6c6918e8-d91c-4f92-a727-c9426480bce9","system_id":"levelo_inurba_marseille","lat":43.295294,"lon":5.385393,"is_reserved":false,"is_disabled":false,"rental_uris":{"android":"levelo://app?vid=6c6918e8-d91c-4f92-a727-c9426480bce9","ios":"levelo://app?vid=6c6918e8-d91c-4f92-a727-c9426480bce9"},"vehicle_type_id":"4","last_reported":1753277491,"current_range_meters":16400,"station_id":"ce4bgih2rcd13ifvqba0","pricing_plan_id":"cebpf4jnsgd1na2vs0mg"},{"bike_id":"f58c4a27-603e-4107-98f2-eb83a8e129fa","system_id":"levelo_inurba_marseille","lat":43.24547,"lon":5.39522,"is_reserved":false,"is_disabled":false,"rental_uris":{"android":"levelo://app?vid=f58c4a27-603e-4107-98f2-eb83a8e129fa","ios":"levelo://app?vid=f58c4a27-603e-4107-98f2-eb83a8e129fa"},"vehicle_type_id":"4","last_reported":1753277491,"current_range_meters":16400,"station_id":"ce4bhlp2rcd13ifvqgjg","pricing_plan_id":"cebpf4jnsgd1na2vs0mg"},{"bike_id":"9ce312f1-cb07-4159-91d6-c11a68a5ee71","system_id":"levelo_inurba_marseille","lat":43.211911,"lon":5.350759,"is_reserved":false,"is_disabled":false,"rental_uris":{"android":"levelo://app?vid=9ce312f1-cb07-4159-91d6-c11a68a5ee71","ios":"levelo://app?vid=9ce312f1-cb07-4159-91d6-c11a68a5ee71"},"vehicle_type_id":"4","last_reported":1753277491,"current_range_meters":16400,"station_id":"st_cvj6sg6p6f1abm77japg","pricing_plan_id":"cebpf4jnsgd1na2vs0mg"},{"bike_id":"75921511-23bf-408f-9470-1062209789d6","system_id":"levelo_inurba_marseille","lat":43.25585,"lon":5.38236,"is_reserved":false,"is_disabled":false,"rental_uris":{"android":"levelo://app?vid=75921511-23bf-408f-9470-1062209789d6","ios":"levelo://app?vid=75921511-23bf-408f-9470-1062209789d6"},"vehicle_type_id":"4","last_reported":1753277491,"current_range_meters":16800,"station_id":"ce4bhih2rcd13ifvqfs0","pricing_plan_id":"cebpf4jnsgd1na2vs0mg"},{"bike_id":"7e7f0fe1-be26-4471-8257-922dbc407504","system_id":"levelo_inurba_marseille","lat":43.26554,"lon":5.37282,"is_reserved":false,"is_disabled":false,"rental_uris":{"android":"levelo://app?vid=7e7f0fe1-be26-4471-8257-922dbc407504","ios":"levelo://app?vid=7e7f0fe1-be26-4471-8257-922dbc407504"},"vehicle_type_id":"4","last_reported":1753277491,"current_range_meters":16800,"station_id":"ce4bhg12rcd13ifvqf70","pricing_plan_id":"cebpf4jnsgd1na2vs0mg"},{"bike_id":"38a514c9-449e-4bfc-baed-98d586ecd668","system_id":"levelo_inurba_marseille","lat":43.29092,"lon":5.381522,"is_reserved":false,"is_disabled":false,"rental_uris":{"android":"levelo://app?vid=38a514c9-449e-4bfc-baed-98d586ecd668","ios":"levelo://app?vid=38a514c9-449e-4bfc-baed-98d586ecd668"},"vehicle_type_id":"4","last_reported":1753277491,"current_range_meters":16800,"station_id":"ce4bh512rcd13ifvqe2g","pricing_plan_id":"cebpf4jnsgd1na2vs0mg"},{"bike_id":"9e7bef7c-53f8-4848-95ce-ebad9a02dd2f","system_id":"levelo_inurba_marseille","lat":43.2585,"lon":5.3989,"is_reserved":false,"is_disabled":false,"rental_uris":{"android":"levelo://app?vid=9e7bef7c-53f8-4848-95ce-ebad9a02dd2f","ios":"levelo://app?vid=9e7bef7c-53f8-4848-95ce-ebad9a02dd2f"},"vehicle_type_id":"4","last_reported":1753277491,"current_range_meters":16800,"station_id":"ce4bhl92rcd13ifvqghg","pricing_plan_id":"cebpf4jnsgd1na2vs0mg"},{"bike_id":"1c49cc0d-1a2f-4adb-9c9b-f826e5dd24e2","system_id":"levelo_inurba_marseille","lat":43.29233,"lon":5.38361,"is_reserved":false,"is_disabled":false,"rental_uris":{"android":"levelo://app?vid=1c49cc0d-1a2f-4adb-9c9b-f826e5dd24e2","ios":"levelo://app?vid=1c49cc0d-1a2f-4adb-9c9b-f826e5dd24e2"},"vehicle_type_id":"4","last_reported":1753277491,"current_range_meters":16800,"station_id":"","pricing_plan_id":"cebpf4jnsgd1na2vs0mg"},{"bike_id":"7a8cb97c-0034-46dc-a245-57a51b419f4c","system_id":"levelo_inurba_marseille","lat":43.30546,"lon":5.36705,"is_reserved":false,"is_disabled":false,"rental_uris":{"android":"levelo://app?vid=7a8cb97c-0034-46dc-a245-57a51b419f4c","ios":"levelo://app?vid=7a8cb97c-0034-46dc-a245-57a51b419f4c"},"vehicle_type_id":"4","last_reported":1753277491,"current_range_meters":17200,"station_id":"","pricing_plan_id":"cebpf4jnsgd1na2vs0mg"},{"bike_id":"ccbcedb2-9dbc-4ee9-8baa-a4e195d13cdd","system_id":"levelo_inurba_marseille","lat":43.24169,"lon":5.36396,"is_reserved":false,"is_disabled":false,"rental_uris":{"android":"levelo://app?vid=ccbcedb2-9dbc-4ee9-8baa-a4e195d13cdd","ios":"levelo://app?vid=ccbcedb2-9dbc-4ee9-8baa-a4e195d13cdd"},"vehicle_type_id":"4","last_reported":1753277491,"current_range_meters":17200,"station_id":"cpo36qri1sfpv3e86is0","pricing_plan_id":"cebpf4jnsgd1na2vs0mg"},{"bike_id":"7efcf337-4140-49e9-92b0-3f0aa143c851","system_id":"levelo_inurba_marseille","lat":43.298417,"lon":5.362631,"is_reserved":false,"is_disabled":false,"rental_uris":{"android":"levelo://app?vid=7efcf337-4140-49e9-92b0-3f0aa143c851","ios":"levelo://app?vid=7efcf337-4140-49e9-92b0-3f0aa143c851"},"vehicle_type_id":"4","last_reported":1753277491,"current_range_meters":17200,"station_id":"ce4bgpp2rcd13ifvqc3g","pricing_plan_id":"cebpf4jnsgd1na2vs0mg"},{"bike_id":"3cd09fc8-9554-4236-8496-0931a7be09d1","system_id":"levelo_inurba_marseille","lat":43.21189,"lon":5.3507,"is_reserved":false,"is_disabled":false,"rental_uris":{"android":"levelo://app?vid=3cd09fc8-9554-4236-8496-0931a7be09d1","ios":"levelo://app?vid=3cd09fc8-9554-4236-8496-0931a7be09d1"},"vehicle_type_id":"4","last_reported":1753277491,"current_range_meters":17200,"station_id":"st_cvj6sg6p6f1abm77japg","pricing_plan_id":"cebpf4jnsgd1na2vs0mg"},{"bike_id":"6bb1f31c-9335-4f39-9585-31374a4775f9","system_id":"levelo_inurba_marseille","lat":43.325583,"lon":5.379059,"is_reserved":false,"is_disabled":false,"rental_uris":{"android":"levelo://app?vid=6bb1f31c-9335-4f39-9585-31374a4775f9","ios":"levelo://app?vid=6bb1f31c-9335-4f39-9585-31374a4775f9"},"vehicle_type_id":"4","last_reported":1753277491,"current_range_meters":17200,"station_id":"","pricing_plan_id":"cebpf4jnsgd1na2vs0mg"},{"bike_id":"f493a3a9-7f6b-470e-bce7-7019418af039","system_id":"levelo_inurba_marseille","lat":43.279025,"lon":5.380025,"is_reserved":false,"is_disabled":false,"rental_uris":{"android":"levelo://app?vid=f493a3a9-7f6b-470e-bce7-7019418af039","ios":"levelo://app?vid=f493a3a9-7f6b-470e-bce7-7019418af039"},"vehicle_type_id":"4","last_reported":1753277491,"current_range_meters":17200,"station_id":"ce4bhf92rcd13ifvqf50","pricing_plan_id":"cebpf4jnsgd1na2vs0mg"},{"bike_id":"0a7e2862-d8ec-4c77-89d9-cfcdd51f8d75","system_id":"levelo_inurba_marseille","lat":43.314893,"lon":5.373032,"is_reserved":false,"is_disabled":false,"rental_uris":{"android":"levelo://app?vid=0a7e2862-d8ec-4c77-89d9-cfcdd51f8d75","ios":"levelo://app?vid=0a7e2862-d8ec-4c77-89d9-cfcdd51f8d75"},"vehicle_type_id":"4","last_reported":1753277491,"current_range_meters":17200,"station_id":"ce4bgt12rcd13ifvqcd0","pricing_plan_id":"cebpf4jnsgd1na2vs0mg"},{"bike_id":"31d5a66a-7695-41ed-9825-a3a660d29458","system_id":"levelo_inurba_marseille","lat":43.31216,"lon":5.36879,"is_reserved":false,"is_disabled":false,"rental_uris":{"android":"levelo://app?vid=31d5a66a-7695-41ed-9825-a3a660d29458","ios":"levelo://app?vid=31d5a66a-7695-41ed-9825-a3a660d29458"},"vehicle_type_id":"4","last_reported":1753277491,"current_range_meters":17200,"station_id":"ce4bgl92rcd13ifvqbq0","pricing_plan_id":"cebpf4jnsgd1na2vs0mg"},{"bike_id":"eb031908-7012-4908-b77f-23c950a20d8e","system_id":"levelo_inurba_marseille","lat":43.23203,"lon":5.35511,"is_reserved":false,"is_disabled":false,"rental_uris":{"android":"levelo://app?vid=eb031908-7012-4908-b77f-23c950a20d8e","ios":"levelo://app?vid=eb031908-7012-4908-b77f-23c950a20d8e"},"vehicle_type_id":"4","last_reported":1753277491,"current_range_meters":17200,"station_id":"ce4bhu92rcd13ifvqi70","pricing_plan_id":"cebpf4jnsgd1na2vs0mg"},{"bike_id":"1d9c0346-2f87-4d18-883c-992e3a8810b9","system_id":"levelo_inurba_marseille","lat":43.28014,"lon":5.4166,"is_reserved":false,"is_disabled":false,"rental_uris":{"android":"levelo://app?vid=1d9c0346-2f87-4d18-883c-992e3a8810b9","ios":"levelo://app?vid=1d9c0346-2f87-4d18-883c-992e3a8810b9"},"vehicle_type_id":"4","last_reported":1753277491,"current_range_meters":17200,"station_id":"ce4bho12rcd13ifvqh1g","pricing_plan_id":"cebpf4jnsgd1na2vs0mg"},{"bike_id":"f842fdf6-95fe-4b37-8600-b468542720f1","system_id":"levelo_inurba_marseille","lat":43.25902,"lon":5.4089,"is_reserved":false,"is_disabled":false,"rental_uris":{"android":"levelo://app?vid=f842fdf6-95fe-4b37-8600-b468542720f1","ios":"levelo://app?vid=f842fdf6-95fe-4b37-8600-b468542720f1"},"vehicle_type_id":"4","last_reported":1753277491,"current_range_meters":17600,"station_id":"ce4bhm92rcd13ifvqglg","pricing_plan_id":"cebpf4jnsgd1na2vs0mg"},{"bike_id":"14168552-349d-439d-960a-cfdd0a062c30","system_id":"levelo_inurba_marseille","lat":43.31504,"lon":5.37291,"is_reserved":false,"is_disabled":false,"rental_uris":{"android":"levelo://app?vid=14168552-349d-439d-960a-cfdd0a062c30","ios":"levelo://app?vid=14168552-349d-439d-960a-cfdd0a062c30"},"vehicle_type_id":"4","last_reported":1753277491,"current_range_meters":17600,"station_id":"ce4bgt12rcd13ifvqcd0","pricing_plan_id":"cebpf4jnsgd1na2vs0mg"},{"bike_id":"5ac85406-65d0-4336-aa89-4b04b2e6689e","system_id":"levelo_inurba_marseille","lat":43.332752,"lon":5.419744,"is_reserved":false,"is_disabled":false,"rental_uris":{"android":"levelo://app?vid=5ac85406-65d0-4336-aa89-4b04b2e6689e","ios":"levelo://app?vid=5ac85406-65d0-4336-aa89-4b04b2e6689e"},"vehicle_type_id":"4","last_reported":1753277491,"current_range_meters":17600,"station_id":"","pricing_plan_id":"cebpf4jnsgd1na2vs0mg"},{"bike_id":"496cac02-0e91-4f64-97b9-cb34cf0ab931","system_id":"levelo_inurba_marseille","lat":43.22516,"lon":5.34802,"is_reserved":false,"is_disabled":false,"rental_uris":{"android":"levelo://app?vid=496cac02-0e91-4f64-97b9-cb34cf0ab931","ios":"levelo://app?vid=496cac02-0e91-4f64-97b9-cb34cf0ab931"},"vehicle_type_id":"4","last_reported":1753277491,"current_range_meters":17600,"station_id":"st_cvj5dfep6f1abm77gieg","pricing_plan_id":"cebpf4jnsgd1na2vs0mg"},{"bike_id":"ae131367-d818-44a0-9e1d-4aa65dcdb16a","system_id":"levelo_inurba_marseille","lat":43.27506,"lon":5.39673,"is_reserved":false,"is_disabled":false,"rental_uris":{"android":"levelo://app?vid=ae131367-d818-44a0-9e1d-4aa65dcdb16a","ios":"levelo://app?vid=ae131367-d818-44a0-9e1d-4aa65dcdb16a"},"vehicle_type_id":"4","last_reported":1753277491,"current_range_meters":17600,"station_id":"","pricing_plan_id":"cebpf4jnsgd1na2vs0mg"},{"bike_id":"db2f6c9f-5302-4bc4-9d22-a1d453682171","system_id":"levelo_inurba_marseille","lat":43.337444,"lon":5.374475,"is_reserved":false,"is_disabled":false,"rental_uris":{"android":"levelo://app?vid=db2f6c9f-5302-4bc4-9d22-a1d453682171","ios":"levelo://app?vid=db2f6c9f-5302-4bc4-9d22-a1d453682171"},"vehicle_type_id":"4","last_reported":1753277491,"current_range_meters":17600,"station_id":"ce4bh8p2rcd13ifvqeb0","pricing_plan_id":"cebpf4jnsgd1na2vs0mg"},{"bike_id":"eabf8af7-0ba6-4ed7-9dc1-8770e1d0db11","system_id":"levelo_inurba_marseille","lat":43.305287,"lon":5.367015,"is_reserved":false,"is_disabled":false,"rental_uris":{"android":"levelo://app?vid=eabf8af7-0ba6-4ed7-9dc1-8770e1d0db11","ios":"levelo://app?vid=eabf8af7-0ba6-4ed7-9dc1-8770e1d0db11"},"vehicle_type_id":"4","last_reported":1753277491,"current_range_meters":17600,"station_id":"ce4bgrp2rcd13ifvqc9g","pricing_plan_id":"cebpf4jnsgd1na2vs0mg"},{"bike_id":"b6b8c031-0609-4230-b642-25bc0ff457a7","system_id":"levelo_inurba_marseille","lat":43.26556,"lon":5.373,"is_reserved":false,"is_disabled":false,"rental_uris":{"android":"levelo://app?vid=b6b8c031-0609-4230-b642-25bc0ff457a7","ios":"levelo://app?vid=b6b8c031-0609-4230-b642-25bc0ff457a7"},"vehicle_type_id":"4","last_reported":1753277491,"current_range_meters":17600,"station_id":"ce4bhg12rcd13ifvqf70","pricing_plan_id":"cebpf4jnsgd1na2vs0mg"},{"bike_id":"d080f169-ccd8-4ea1-b6c8-13da223d09cc","system_id":"levelo_inurba_marseille","lat":43.26216,"lon":5.37436,"is_reserved":false,"is_disabled":false,"rental_uris":{"android":"levelo://app?vid=d080f169-ccd8-4ea1-b6c8-13da223d09cc","ios":"levelo://app?vid=d080f169-ccd8-4ea1-b6c8-13da223d09cc"},"vehicle_type_id":"4","last_reported":1753277491,"current_range_meters":17600,"station_id":"ce4bhgp2rcd13ifvqfc0","pricing_plan_id":"cebpf4jnsgd1na2vs0mg"},{"bike_id":"8006020a-6cfe-4131-82ca-a6c8f07671d2","system_id":"levelo_inurba_marseille","lat":43.31168,"lon":5.37732,"is_reserved":false,"is_disabled":false,"rental_uris":{"android":"levelo://app?vid=8006020a-6cfe-4131-82ca-a6c8f07671d2","ios":"levelo://app?vid=8006020a-6cfe-4131-82ca-a6c8f07671d2"},"vehicle_type_id":"4","last_reported":1753277491,"current_range_meters":17600,"station_id":"","pricing_plan_id":"cebpf4jnsgd1na2vs0mg"},{"bike_id":"908a65a2-61a6-4bc8-baac-11bc4d5e1e65","system_id":"levelo_inurba_marseille","lat":43.2829,"lon":5.3506,"is_reserved":false,"is_disabled":false,"rental_uris":{"android":"levelo://app?vid=908a65a2-61a6-4bc8-baac-11bc4d5e1e65","ios":"levelo://app?vid=908a65a2-61a6-4bc8-baac-11bc4d5e1e65"},"vehicle_type_id":"4","last_reported":1753277491,"current_range_meters":17600,"station_id":"ce4bhbp2rcd13ifvqerg","pricing_plan_id":"cebpf4jnsgd1na2vs0mg"},{"bike_id":"dd761ec4-01e5-4144-a46c-689b9433ac2a","system_id":"levelo_inurba_marseille","lat":43.27364,"lon":5.36261,"is_reserved":false,"is_disabled":false,"rental_uris":{"android":"levelo://app?vid=dd761ec4-01e5-4144-a46c-689b9433ac2a","ios":"levelo://app?vid=dd761ec4-01e5-4144-a46c-689b9433ac2a"},"vehicle_type_id":"4","last_reported":1753277491,"current_range_meters":17600,"station_id":"ce4bhbh2rcd13ifvqeo0","pricing_plan_id":"cebpf4jnsgd1na2vs0mg"},{"bike_id":"54943e91-61ee-496b-9667-a7c6c3a25bb5","system_id":"levelo_inurba_marseille","lat":43.26218,"lon":5.37441,"is_reserved":false,"is_disabled":false,"rental_uris":{"android":"levelo://app?vid=54943e91-61ee-496b-9667-a7c6c3a25bb5","ios":"levelo://app?vid=54943e91-61ee-496b-9667-a7c6c3a25bb5"},"vehicle_type_id":"4","last_reported":1753277491,"current_range_meters":17600,"station_id":"ce4bhgp2rcd13ifvqfc0","pricing_plan_id":"cebpf4jnsgd1na2vs0mg"},{"bike_id":"c056311f-78c9-4e18-8685-91c659ddb125","system_id":"levelo_inurba_marseille","lat":43.31638,"lon":5.38979,"is_reserved":false,"is_disabled":false,"rental_uris":{"android":"levelo://app?vid=c056311f-78c9-4e18-8685-91c659ddb125","ios":"levelo://app?vid=c056311f-78c9-4e18-8685-91c659ddb125"},"vehicle_type_id":"4","last_reported":1753277491,"current_range_meters":18000,"station_id":"","pricing_plan_id":"cebpf4jnsgd1na2vs0mg"},{"bike_id":"1699da3b-157a-4d07-ba4d-8fe9df7d93c7","system_id":"levelo_inurba_marseille","lat":43.30375,"lon":5.41931,"is_reserved":false,"is_disabled":false,"rental_uris":{"android":"levelo://app?vid=1699da3b-157a-4d07-ba4d-8fe9df7d93c7","ios":"levelo://app?vid=1699da3b-157a-4d07-ba4d-8fe9df7d93c7"},"vehicle_type_id":"4","last_reported":1753277491,"current_range_meters":18000,"station_id":"","pricing_plan_id":"cebpf4jnsgd1na2vs0mg"},{"bike_id":"70737bad-8214-4681-8a7d-fa98042cf105","system_id":"levelo_inurba_marseille","lat":43.29053,"lon":5.39934,"is_reserved":false,"is_disabled":false,"rental_uris":{"android":"levelo://app?vid=70737bad-8214-4681-8a7d-fa98042cf105","ios":"levelo://app?vid=70737bad-8214-4681-8a7d-fa98042cf105"},"vehicle_type_id":"4","last_reported":1753277491,"current_range_meters":18000,"station_id":"ce4bh392rcd13ifvqdm0","pricing_plan_id":"cebpf4jnsgd1na2vs0mg"},{"bike_id":"a5c474fd-2247-4651-8125-cd6e486d34d9","system_id":"levelo_inurba_marseille","lat":43.321472,"lon":5.384864,"is_reserved":false,"is_disabled":false,"rental_uris":{"android":"levelo://app?vid=a5c474fd-2247-4651-8125-cd6e486d34d9","ios":"levelo://app?vid=a5c474fd-2247-4651-8125-cd6e486d34d9"},"vehicle_type_id":"4","last_reported":1753277491,"current_range_meters":18000,"station_id":"","pricing_plan_id":"cebpf4jnsgd1na2vs0mg"},{"bike_id":"88ba686c-e916-48b4-a187-3089cccb5922","system_id":"levelo_inurba_marseille","lat":43.31487,"lon":5.37292,"is_reserved":false,"is_disabled":false,"rental_uris":{"android":"levelo://app?vid=88ba686c-e916-48b4-a187-3089cccb5922","ios":"levelo://app?vid=88ba686c-e916-48b4-a187-3089cccb5922"},"vehicle_type_id":"4","last_reported":1753277491,"current_range_meters":18000,"station_id":"ce4bgt12rcd13ifvqcd0","pricing_plan_id":"cebpf4jnsgd1na2vs0mg"},{"bike_id":"18b86593-4f21-41ed-81b3-f3a5b378dc91","system_id":"levelo_inurba_marseille","lat":43.312339,"lon":5.381309,"is_reserved":false,"is_disabled":false,"rental_uris":{"android":"levelo://app?vid=18b86593-4f21-41ed-81b3-f3a5b378dc91","ios":"levelo://app?vid=18b86593-4f21-41ed-81b3-f3a5b378dc91"},"vehicle_type_id":"4","last_reported":1753277491,"current_range_meters":18000,"station_id":"","pricing_plan_id":"cebpf4jnsgd1na2vs0mg"},{"bike_id":"8ae20bdf-bf90-461a-986c-b66f491b84cd","system_id":"levelo_inurba_marseille","lat":43.30375,"lon":5.42499,"is_reserved":false,"is_disabled":false,"rental_uris":{"android":"levelo://app?vid=8ae20bdf-bf90-461a-986c-b66f491b84cd","ios":"levelo://app?vid=8ae20bdf-bf90-461a-986c-b66f491b84cd"},"vehicle_type_id":"4","last_reported":1753277491,"current_range_meters":18000,"station_id":"ce4bhoh2rcd13ifvqh6g","pricing_plan_id":"cebpf4jnsgd1na2vs0mg"},{"bike_id":"a41d286a-c628-4838-a2ba-f816a3e31899","system_id":"levelo_inurba_marseille","lat":43.2319,"lon":5.35556,"is_reserved":false,"is_disabled":false,"rental_uris":{"android":"levelo://app?vid=a41d286a-c628-4838-a2ba-f816a3e31899","ios":"levelo://app?vid=a41d286a-c628-4838-a2ba-f816a3e31899"},"vehicle_type_id":"4","last_reported":1753277491,"current_range_meters":18000,"station_id":"ce4bhu92rcd13ifvqi70","pricing_plan_id":"cebpf4jnsgd1na2vs0mg"},{"bike_id":"d33a195d-1aba-4725-a7a9-74d21f9597a0","system_id":"levelo_inurba_marseille","lat":43.26209,"lon":5.37435,"is_reserved":false,"is_disabled":false,"rental_uris":{"android":"levelo://app?vid=d33a195d-1aba-4725-a7a9-74d21f9597a0","ios":"levelo://app?vid=d33a195d-1aba-4725-a7a9-74d21f9597a0"},"vehicle_type_id":"4","last_reported":1753277491,"current_range_meters":18800,"station_id":"ce4bhgp2rcd13ifvqfc0","pricing_plan_id":"cebpf4jnsgd1na2vs0mg"},{"bike_id":"086b22e4-5196-45e9-a924-642396d2348e","system_id":"levelo_inurba_marseille","lat":43.30313,"lon":5.36896,"is_reserved":false,"is_disabled":false,"rental_uris":{"android":"levelo://app?vid=086b22e4-5196-45e9-a924-642396d2348e","ios":"levelo://app?vid=086b22e4-5196-45e9-a924-642396d2348e"},"vehicle_type_id":"4","last_reported":1753277491,"current_range_meters":18800,"station_id":"ce4bgqh2rcd13ifvqc5g","pricing_plan_id":"cebpf4jnsgd1na2vs0mg"},{"bike_id":"d30f66f5-9995-4a0a-832b-41fe2c74d0c0","system_id":"levelo_inurba_marseille","lat":43.22503,"lon":5.34786,"is_reserved":false,"is_disabled":false,"rental_uris":{"android":"levelo://app?vid=d30f66f5-9995-4a0a-832b-41fe2c74d0c0","ios":"levelo://app?vid=d30f66f5-9995-4a0a-832b-41fe2c74d0c0"},"vehicle_type_id":"4","last_reported":1753277491,"current_range_meters":18800,"station_id":"st_cvj5dfep6f1abm77gieg","pricing_plan_id":"cebpf4jnsgd1na2vs0mg"},{"bike_id":"61cb5b9a-9cee-4d3f-8bba-365148ee2e42","system_id":"levelo_inurba_marseille","lat":43.25859,"lon":5.39909,"is_reserved":false,"is_disabled":false,"rental_uris":{"android":"levelo://app?vid=61cb5b9a-9cee-4d3f-8bba-365148ee2e42","ios":"levelo://app?vid=61cb5b9a-9cee-4d3f-8bba-365148ee2e42"},"vehicle_type_id":"4","last_reported":1753277491,"current_range_meters":18800,"station_id":"ce4bhl92rcd13ifvqghg","pricing_plan_id":"cebpf4jnsgd1na2vs0mg"},{"bike_id":"750d370d-abb4-47b3-b4f7-7ef76b03801f","system_id":"levelo_inurba_marseille","lat":43.29694,"lon":5.37947,"is_reserved":false,"is_disabled":false,"rental_uris":{"android":"levelo://app?vid=750d370d-abb4-47b3-b4f7-7ef76b03801f","ios":"levelo://app?vid=750d370d-abb4-47b3-b4f7-7ef76b03801f"},"vehicle_type_id":"4","last_reported":1753277491,"current_range_meters":18800,"station_id":"","pricing_plan_id":"cebpf4jnsgd1na2vs0mg"},{"bike_id":"a387895a-4473-4375-a974-778077bc4443","system_id":"levelo_inurba_marseille","lat":43.29113,"lon":5.38127,"is_reserved":false,"is_disabled":false,"rental_uris":{"android":"levelo://app?vid=a387895a-4473-4375-a974-778077bc4443","ios":"levelo://app?vid=a387895a-4473-4375-a974-778077bc4443"},"vehicle_type_id":"4","last_reported":1753277491,"current_range_meters":18800,"station_id":"ce4bh512rcd13ifvqe2g","pricing_plan_id":"cebpf4jnsgd1na2vs0mg"},{"bike_id":"bfd7e908-297b-4fb3-954a-c8cd06553c6a","system_id":"levelo_inurba_marseille","lat":43.30929,"lon":5.3684,"is_reserved":false,"is_disabled":false,"rental_uris":{"android":"levelo://app?vid=bfd7e908-297b-4fb3-954a-c8cd06553c6a","ios":"levelo://app?vid=bfd7e908-297b-4fb3-954a-c8cd06553c6a"},"vehicle_type_id":"4","last_reported":1753277491,"current_range_meters":18800,"station_id":"ce4bgn92rcd13ifvqbvg","pricing_plan_id":"cebpf4jnsgd1na2vs0mg"},{"bike_id":"f0f73c71-7331-4628-b623-754b73a8546a","system_id":"levelo_inurba_marseille","lat":43.30144,"lon":5.39878,"is_reserved":false,"is_disabled":true,"rental_uris":{"android":"levelo://app?vid=f0f73c71-7331-4628-b623-754b73a8546a","ios":"levelo://app?vid=f0f73c71-7331-4628-b623-754b73a8546a"},"vehicle_type_id":"4","last_reported":1753277491,"current_range_meters":18800,"station_id":"ce4bh0h2rcd13ifvqd40","pricing_plan_id":"cebpf4jnsgd1na2vs0mg"},{"bike_id":"76c65f84-3b49-4269-890c-8259fe6ade74","system_id":"levelo_inurba_marseille","lat":43.32372,"lon":5.36764,"is_reserved":false,"is_disabled":false,"rental_uris":{"android":"levelo://app?vid=76c65f84-3b49-4269-890c-8259fe6ade74","ios":"levelo://app?vid=76c65f84-3b49-4269-890c-8259fe6ade74"},"vehicle_type_id":"4","last_reported":1753277491,"current_range_meters":18800,"station_id":"ce4bhsh2rcd13ifvqi2g","pricing_plan_id":"cebpf4jnsgd1na2vs0mg"},{"bike_id":"1ad257b5-7f83-42c1-867f-92635ff1abbf","system_id":"levelo_inurba_marseille","lat":43.22936,"lon":5.35382,"is_reserved":false,"is_disabled":false,"rental_uris":{"android":"levelo://app?vid=1ad257b5-7f83-42c1-867f-92635ff1abbf","ios":"levelo://app?vid=1ad257b5-7f83-42c1-867f-92635ff1abbf"},"vehicle_type_id":"4","last_reported":1753277491,"current_range_meters":18800,"station_id":"cpo3532slgdg3j2ikp40","pricing_plan_id":"cebpf4jnsgd1na2vs0mg"},{"bike_id":"049fda93-85a8-4ccd-a1df-9139ba5751bc","system_id":"levelo_inurba_marseille","lat":43.24798,"lon":5.37458,"is_reserved":false,"is_disabled":false,"rental_uris":{"android":"levelo://app?vid=049fda93-85a8-4ccd-a1df-9139ba5751bc","ios":"levelo://app?vid=049fda93-85a8-4ccd-a1df-9139ba5751bc"},"vehicle_type_id":"4","last_reported":1753277491,"current_range_meters":18800,"station_id":"ce4bhgh2rcd13ifvqfb0","pricing_plan_id":"cebpf4jnsgd1na2vs0mg"},{"bike_id":"fc2b5476-a057-440b-bc80-bd23f714fe21","system_id":"levelo_inurba_marseille","lat":43.30601,"lon":5.37227,"is_reserved":false,"is_disabled":false,"rental_uris":{"android":"levelo://app?vid=fc2b5476-a057-440b-bc80-bd23f714fe21","ios":"levelo://app?vid=fc2b5476-a057-440b-bc80-bd23f714fe21"},"vehicle_type_id":"4","last_reported":1753277491,"current_range_meters":19200,"station_id":"ce4bgqh2rcd13ifvqc4g","pricing_plan_id":"cebpf4jnsgd1na2vs0mg"},{"bike_id":"b1dbcaf1-bfc6-4e0a-9a80-297fdd0c1f07","system_id":"levelo_inurba_marseille","lat":43.26218,"lon":5.37437,"is_reserved":false,"is_disabled":false,"rental_uris":{"android":"levelo://app?vid=b1dbcaf1-bfc6-4e0a-9a80-297fdd0c1f07","ios":"levelo://app?vid=b1dbcaf1-bfc6-4e0a-9a80-297fdd0c1f07"},"vehicle_type_id":"4","last_reported":1753277491,"current_range_meters":19200,"station_id":"ce4bhgp2rcd13ifvqfc0","pricing_plan_id":"cebpf4jnsgd1na2vs0mg"},{"bike_id":"6ccf16c0-524d-41d0-bc8f-04089f2f6617","system_id":"levelo_inurba_marseille","lat":43.30649,"lon":5.40104,"is_reserved":false,"is_disabled":false,"rental_uris":{"android":"levelo://app?vid=6ccf16c0-524d-41d0-bc8f-04089f2f6617","ios":"levelo://app?vid=6ccf16c0-524d-41d0-bc8f-04089f2f6617"},"vehicle_type_id":"4","last_reported":1753277491,"current_range_meters":19200,"station_id":"ce4bh112rcd13ifvqda0","pricing_plan_id":"cebpf4jnsgd1na2vs0mg"},{"bike_id":"e778c5df-25ef-4e96-9df9-175ecefe3cb1","system_id":"levelo_inurba_marseille","lat":43.30471,"lon":5.37904,"is_reserved":false,"is_disabled":false,"rental_uris":{"android":"levelo://app?vid=e778c5df-25ef-4e96-9df9-175ecefe3cb1","ios":"levelo://app?vid=e778c5df-25ef-4e96-9df9-175ecefe3cb1"},"vehicle_type_id":"4","last_reported":1753277491,"current_range_meters":19200,"station_id":"ce4bgup2rcd13ifvqcn0","pricing_plan_id":"cebpf4jnsgd1na2vs0mg"},{"bike_id":"5d2a4027-c4e2-4789-b8d3-60410bc4c347","system_id":"levelo_inurba_marseille","lat":43.2501,"lon":5.38938,"is_reserved":false,"is_disabled":false,"rental_uris":{"android":"levelo://app?vid=5d2a4027-c4e2-4789-b8d3-60410bc4c347","ios":"levelo://app?vid=5d2a4027-c4e2-4789-b8d3-60410bc4c347"},"vehicle_type_id":"4","last_reported":1753277491,"current_range_meters":19200,"station_id":"ce4bhgp2rcd13ifvqfd0","pricing_plan_id":"cebpf4jnsgd1na2vs0mg"},{"bike_id":"aed7210d-3dd8-4a39-b707-adbaf032a846","system_id":"levelo_inurba_marseille","lat":43.23191,"lon":5.35561,"is_reserved":false,"is_disabled":false,"rental_uris":{"android":"levelo://app?vid=aed7210d-3dd8-4a39-b707-adbaf032a846","ios":"levelo://app?vid=aed7210d-3dd8-4a39-b707-adbaf032a846"},"vehicle_type_id":"4","last_reported":1753277491,"current_range_meters":19200,"station_id":"ce4bhu92rcd13ifvqi70","pricing_plan_id":"cebpf4jnsgd1na2vs0mg"},{"bike_id":"20586eb9-d076-4483-9da1-32bd7f971b1a","system_id":"levelo_inurba_marseille","lat":43.25928,"lon":5.4085,"is_reserved":false,"is_disabled":false,"rental_uris":{"android":"levelo://app?vid=20586eb9-d076-4483-9da1-32bd7f971b1a","ios":"levelo://app?vid=20586eb9-d076-4483-9da1-32bd7f971b1a"},"vehicle_type_id":"4","last_reported":1753277491,"current_range_meters":19200,"station_id":"ce4bhm92rcd13ifvqglg","pricing_plan_id":"cebpf4jnsgd1na2vs0mg"},{"bike_id":"7088152f-d8f6-450a-b81d-5a38c1d2c99c","system_id":"levelo_inurba_marseille","lat":43.27673,"lon":5.38894,"is_reserved":false,"is_disabled":false,"rental_uris":{"android":"levelo://app?vid=7088152f-d8f6-450a-b81d-5a38c1d2c99c","ios":"levelo://app?vid=7088152f-d8f6-450a-b81d-5a38c1d2c99c"},"vehicle_type_id":"4","last_reported":1753277491,"current_range_meters":19200,"station_id":"ce4bhi12rcd13ifvqfo0","pricing_plan_id":"cebpf4jnsgd1na2vs0mg"},{"bike_id":"1df2cfb2-ff2f-4e1a-972e-0b080e1388c0","system_id":"levelo_inurba_marseille","lat":43.29622,"lon":5.37163,"is_reserved":false,"is_disabled":false,"rental_uris":{"android":"levelo://app?vid=1df2cfb2-ff2f-4e1a-972e-0b080e1388c0","ios":"levelo://app?vid=1df2cfb2-ff2f-4e1a-972e-0b080e1388c0"},"vehicle_type_id":"4","last_reported":1753277491,"current_range_meters":19200,"station_id":"ce4bgnh2rcd13ifvqc0g","pricing_plan_id":"cebpf4jnsgd1na2vs0mg"},{"bike_id":"35a86048-76dd-4de0-afb2-7da8772fad44","system_id":"levelo_inurba_marseille","lat":43.21515,"lon":5.34741,"is_reserved":false,"is_disabled":false,"rental_uris":{"android":"levelo://app?vid=35a86048-76dd-4de0-afb2-7da8772fad44","ios":"levelo://app?vid=35a86048-76dd-4de0-afb2-7da8772fad44"},"vehicle_type_id":"4","last_reported":1753277491,"current_range_meters":19200,"station_id":"","pricing_plan_id":"cebpf4jnsgd1na2vs0mg"},{"bike_id":"154842fb-66cb-4d03-b336-ad8705751d21","system_id":"levelo_inurba_marseille","lat":43.27942,"lon":5.41051,"is_reserved":false,"is_disabled":false,"rental_uris":{"android":"levelo://app?vid=154842fb-66cb-4d03-b336-ad8705751d21","ios":"levelo://app?vid=154842fb-66cb-4d03-b336-ad8705751d21"},"vehicle_type_id":"4","last_reported":1753277491,"current_range_meters":19200,"station_id":"ce4bhnp2rcd13ifvqh0g","pricing_plan_id":"cebpf4jnsgd1na2vs0mg"},{"bike_id":"e246d1c9-8a7e-4c9d-983b-668f75fd83e7","system_id":"levelo_inurba_marseille","lat":43.26562,"lon":5.37286,"is_reserved":false,"is_disabled":false,"rental_uris":{"android":"levelo://app?vid=e246d1c9-8a7e-4c9d-983b-668f75fd83e7","ios":"levelo://app?vid=e246d1c9-8a7e-4c9d-983b-668f75fd83e7"},"vehicle_type_id":"4","last_reported":1753277491,"current_range_meters":19200,"station_id":"ce4bhg12rcd13ifvqf70","pricing_plan_id":"cebpf4jnsgd1na2vs0mg"},{"bike_id":"5cc6d602-fce1-4532-bb04-0a956e6f54a2","system_id":"levelo_inurba_marseille","lat":43.28409,"lon":5.34975,"is_reserved":false,"is_disabled":false,"rental_uris":{"android":"levelo://app?vid=5cc6d602-fce1-4532-bb04-0a956e6f54a2","ios":"levelo://app?vid=5cc6d602-fce1-4532-bb04-0a956e6f54a2"},"vehicle_type_id":"4","last_reported":1753277491,"current_range_meters":19200,"station_id":"ce4bhbh2rcd13ifvqepg","pricing_plan_id":"cebpf4jnsgd1na2vs0mg"},{"bike_id":"2f308df5-90b3-4c5d-8575-e27252c7739d","system_id":"levelo_inurba_marseille","lat":43.30429,"lon":5.39753,"is_reserved":false,"is_disabled":false,"rental_uris":{"android":"levelo://app?vid=2f308df5-90b3-4c5d-8575-e27252c7739d","ios":"levelo://app?vid=2f308df5-90b3-4c5d-8575-e27252c7739d"},"vehicle_type_id":"4","last_reported":1753277491,"current_range_meters":19600,"station_id":"ce4bh092rcd13ifvqd20","pricing_plan_id":"cebpf4jnsgd1na2vs0mg"},{"bike_id":"1d7fe32e-4c02-41d4-b05b-29aca57e1c1b","system_id":"levelo_inurba_marseille","lat":43.217487,"lon":5.346012,"is_reserved":false,"is_disabled":false,"rental_uris":{"android":"levelo://app?vid=1d7fe32e-4c02-41d4-b05b-29aca57e1c1b","ios":"levelo://app?vid=1d7fe32e-4c02-41d4-b05b-29aca57e1c1b"},"vehicle_type_id":"4","last_reported":1753277491,"current_range_meters":19600,"station_id":"st_cvj6r9ubvosntc0bgbag","pricing_plan_id":"cebpf4jnsgd1na2vs0mg"},{"bike_id":"16c17a24-656e-4cb9-9f35-7461e7a2ad2b","system_id":"levelo_inurba_marseille","lat":43.29096,"lon":5.38121,"is_reserved":false,"is_disabled":false,"rental_uris":{"android":"levelo://app?vid=16c17a24-656e-4cb9-9f35-7461e7a2ad2b","ios":"levelo://app?vid=16c17a24-656e-4cb9-9f35-7461e7a2ad2b"},"vehicle_type_id":"4","last_reported":1753277491,"current_range_meters":19600,"station_id":"ce4bh512rcd13ifvqe2g","pricing_plan_id":"cebpf4jnsgd1na2vs0mg"},{"bike_id":"f7f07796-c7c9-4a74-80e9-fb85744448b8","system_id":"levelo_inurba_marseille","lat":43.22929,"lon":5.35393,"is_reserved":false,"is_disabled":false,"rental_uris":{"android":"levelo://app?vid=f7f07796-c7c9-4a74-80e9-fb85744448b8","ios":"levelo://app?vid=f7f07796-c7c9-4a74-80e9-fb85744448b8"},"vehicle_type_id":"4","last_reported":1753277491,"current_range_meters":19600,"station_id":"cpo3532slgdg3j2ikp40","pricing_plan_id":"cebpf4jnsgd1na2vs0mg"},{"bike_id":"b7dad234-e0b1-49ef-a753-683227550af8","system_id":"levelo_inurba_marseille","lat":43.30907,"lon":5.36863,"is_reserved":false,"is_disabled":false,"rental_uris":{"android":"levelo://app?vid=b7dad234-e0b1-49ef-a753-683227550af8","ios":"levelo://app?vid=b7dad234-e0b1-49ef-a753-683227550af8"},"vehicle_type_id":"4","last_reported":1753277491,"current_range_meters":19600,"station_id":"ce4bgn92rcd13ifvqbvg","pricing_plan_id":"cebpf4jnsgd1na2vs0mg"},{"bike_id":"15d367de-17b0-4dc7-a6ae-9f74942a498e","system_id":"levelo_inurba_marseille","lat":43.30617,"lon":5.37243,"is_reserved":false,"is_disabled":false,"rental_uris":{"android":"levelo://app?vid=15d367de-17b0-4dc7-a6ae-9f74942a498e","ios":"levelo://app?vid=15d367de-17b0-4dc7-a6ae-9f74942a498e"},"vehicle_type_id":"4","last_reported":1753277491,"current_range_meters":19600,"station_id":"ce4bgqh2rcd13ifvqc4g","pricing_plan_id":"cebpf4jnsgd1na2vs0mg"},{"bike_id":"ace7e9f2-d583-4157-aafd-35aba7652150","system_id":"levelo_inurba_marseille","lat":43.28415,"lon":5.34991,"is_reserved":false,"is_disabled":false,"rental_uris":{"android":"levelo://app?vid=ace7e9f2-d583-4157-aafd-35aba7652150","ios":"levelo://app?vid=ace7e9f2-d583-4157-aafd-35aba7652150"},"vehicle_type_id":"4","last_reported":1753277491,"current_range_meters":19600,"station_id":"ce4bhbh2rcd13ifvqepg","pricing_plan_id":"cebpf4jnsgd1na2vs0mg"},{"bike_id":"f6cbc688-e0c4-4b86-9f68-cf0d17b0a867","system_id":"levelo_inurba_marseille","lat":43.2828,"lon":5.35065,"is_reserved":false,"is_disabled":false,"rental_uris":{"android":"levelo://app?vid=f6cbc688-e0c4-4b86-9f68-cf0d17b0a867","ios":"levelo://app?vid=f6cbc688-e0c4-4b86-9f68-cf0d17b0a867"},"vehicle_type_id":"4","last_reported":1753277491,"current_range_meters":19600,"station_id":"ce4bhbp2rcd13ifvqerg","pricing_plan_id":"cebpf4jnsgd1na2vs0mg"},{"bike_id":"66573328-cce6-4ec1-bbb6-cb5d6bb22ede","system_id":"levelo_inurba_marseille","lat":43.28264,"lon":5.3508,"is_reserved":false,"is_disabled":false,"rental_uris":{"android":"levelo://app?vid=66573328-cce6-4ec1-bbb6-cb5d6bb22ede","ios":"levelo://app?vid=66573328-cce6-4ec1-bbb6-cb5d6bb22ede"},"vehicle_type_id":"4","last_reported":1753277491,"current_range_meters":20000,"station_id":"ce4bhbp2rcd13ifvqerg","pricing_plan_id":"cebpf4jnsgd1na2vs0mg"},{"bike_id":"3e7a6c9e-1ec8-4c70-9bc0-27ea105ed580","system_id":"levelo_inurba_marseille","lat":43.28145,"lon":5.42635,"is_reserved":false,"is_disabled":false,"rental_uris":{"android":"levelo://app?vid=3e7a6c9e-1ec8-4c70-9bc0-27ea105ed580","ios":"levelo://app?vid=3e7a6c9e-1ec8-4c70-9bc0-27ea105ed580"},"vehicle_type_id":"4","last_reported":1753277491,"current_range_meters":20000,"station_id":"ce4bhnh2rcd13ifvqgug","pricing_plan_id":"cebpf4jnsgd1na2vs0mg"},{"bike_id":"085cc398-265e-4402-bcb0-4ca5061b4738","system_id":"levelo_inurba_marseille","lat":43.22935,"lon":5.35388,"is_reserved":false,"is_disabled":false,"rental_uris":{"android":"levelo://app?vid=085cc398-265e-4402-bcb0-4ca5061b4738","ios":"levelo://app?vid=085cc398-265e-4402-bcb0-4ca5061b4738"},"vehicle_type_id":"4","last_reported":1753277491,"current_range_meters":20000,"station_id":"cpo3532slgdg3j2ikp40","pricing_plan_id":"cebpf4jnsgd1na2vs0mg"},{"bike_id":"d639b76e-2732-47f3-8f43-23c8f99461b1","system_id":"levelo_inurba_marseille","lat":43.30559,"lon":5.36534,"is_reserved":false,"is_disabled":false,"rental_uris":{"android":"levelo://app?vid=d639b76e-2732-47f3-8f43-23c8f99461b1","ios":"levelo://app?vid=d639b76e-2732-47f3-8f43-23c8f99461b1"},"vehicle_type_id":"4","last_reported":1753277491,"current_range_meters":20000,"station_id":"ce4bgs12rcd13ifvqcag","pricing_plan_id":"cebpf4jnsgd1na2vs0mg"},{"bike_id":"36934cf4-a976-489b-8f3e-dd0ab036ca3e","system_id":"levelo_inurba_marseille","lat":43.25584,"lon":5.3823,"is_reserved":false,"is_disabled":false,"rental_uris":{"android":"levelo://app?vid=36934cf4-a976-489b-8f3e-dd0ab036ca3e","ios":"levelo://app?vid=36934cf4-a976-489b-8f3e-dd0ab036ca3e"},"vehicle_type_id":"4","last_reported":1753277491,"current_range_meters":20000,"station_id":"ce4bhih2rcd13ifvqfs0","pricing_plan_id":"cebpf4jnsgd1na2vs0mg"},{"bike_id":"eaea15aa-98ae-4f78-b37a-80e2e4524837","system_id":"levelo_inurba_marseille","lat":43.297916,"lon":5.381026,"is_reserved":false,"is_disabled":false,"rental_uris":{"android":"levelo://app?vid=eaea15aa-98ae-4f78-b37a-80e2e4524837","ios":"levelo://app?vid=eaea15aa-98ae-4f78-b37a-80e2e4524837"},"vehicle_type_id":"4","last_reported":1753277491,"current_range_meters":20000,"station_id":"","pricing_plan_id":"cebpf4jnsgd1na2vs0mg"},{"bike_id":"5f824980-27aa-4ef2-856d-b766bebead8a","system_id":"levelo_inurba_marseille","lat":43.225044,"lon":5.347808,"is_reserved":false,"is_disabled":false,"rental_uris":{"android":"levelo://app?vid=5f824980-27aa-4ef2-856d-b766bebead8a","ios":"levelo://app?vid=5f824980-27aa-4ef2-856d-b766bebead8a"},"vehicle_type_id":"4","last_reported":1753277491,"current_range_meters":20000,"station_id":"st_cvj5dfep6f1abm77gieg","pricing_plan_id":"cebpf4jnsgd1na2vs0mg"},{"bike_id":"4731169d-b1aa-4d3c-b8b1-cbd858d4007f","system_id":"levelo_inurba_marseille","lat":43.30643,"lon":5.4011,"is_reserved":false,"is_disabled":false,"rental_uris":{"android":"levelo://app?vid=4731169d-b1aa-4d3c-b8b1-cbd858d4007f","ios":"levelo://app?vid=4731169d-b1aa-4d3c-b8b1-cbd858d4007f"},"vehicle_type_id":"4","last_reported":1753277491,"current_range_meters":20000,"station_id":"ce4bh112rcd13ifvqda0","pricing_plan_id":"cebpf4jnsgd1na2vs0mg"},{"bike_id":"8ba0a71c-efd3-41a0-8c70-9012bd73e9ec","system_id":"levelo_inurba_marseille","lat":43.28686,"lon":5.37409,"is_reserved":false,"is_disabled":false,"rental_uris":{"android":"levelo://app?vid=8ba0a71c-efd3-41a0-8c70-9012bd73e9ec","ios":"levelo://app?vid=8ba0a71c-efd3-41a0-8c70-9012bd73e9ec"},"vehicle_type_id":"4","last_reported":1753277491,"current_range_meters":20000,"station_id":"ce4bh3p2rcd13ifvqdq0","pricing_plan_id":"cebpf4jnsgd1na2vs0mg"},{"bike_id":"0ec9883b-fe16-4276-a66e-e1cd2ea1df13","system_id":"levelo_inurba_marseille","lat":43.26218,"lon":5.4047,"is_reserved":false,"is_disabled":false,"rental_uris":{"android":"levelo://app?vid=0ec9883b-fe16-4276-a66e-e1cd2ea1df13","ios":"levelo://app?vid=0ec9883b-fe16-4276-a66e-e1cd2ea1df13"},"vehicle_type_id":"4","last_reported":1753277491,"current_range_meters":20400,"station_id":"ce4bhmh2rcd13ifvqgmg","pricing_plan_id":"cebpf4jnsgd1na2vs0mg"},{"bike_id":"52306da7-e760-4479-b1b3-1b5bc837ce6d","system_id":"levelo_inurba_marseille","lat":43.22504,"lon":5.34783,"is_reserved":false,"is_disabled":false,"rental_uris":{"android":"levelo://app?vid=52306da7-e760-4479-b1b3-1b5bc837ce6d","ios":"levelo://app?vid=52306da7-e760-4479-b1b3-1b5bc837ce6d"},