{"last_updated":1704784080,"ttl":30,"version":"2.2","data":{"bikes":[{"bike_id":"4fa50b5f-38d6-408e-8f79-eaddd407f3aa","system_id":"levelo_inurba_marseille","lat":43.31341,"lon":5.367098,"is_reserved":false,"is_disabled":false,"rental_uris":{"android":"levelo://app?vid=4fa50b5f-38d6-408e-8f79-eaddd407f3aa","ios":"levelo://app?vid=4fa50b5f-38d6-408e-8f79-eaddd407f3aa"},"vehicle_type_id":"4","last_reported":1704784080,"current_range_meters":20800,"station_id":"ce4bgr92rcd13ifvqc6g","pricing_plan_id":"free"},{"bike_id":"d971f3ce-ae65-49a9-8f03-5d711ad7a09b","system_id":"levelo_inurba_marseille","lat":43.313391,"lon":5.36706,"is_reserved":false,"is_disabled":false,"rental_uris":{"android":"levelo://app?vid=d971f3ce-ae65-49a9-8f03-5d711ad7a09b","ios":"levelo://app?vid=d971f3ce-ae65-49a9-8f03-5d711ad7a09b"},"vehicle_type_id":"4","last_reported":1704784080,"current_range_meters":27200,"station_id":"ce4bgr92rcd13ifvqc6g","pricing_plan_id":"free"},{"bike_id":"7665d3e1-8676-4545-beb3-c493534e8d75","system_id":"levelo_inurba_marseille","lat":43.313391,"lon":5.36706,"is_reserved":false,"is_disabled":false,"rental_uris":{"android":"levelo://app?vid=7665d3e1-8676-4545-beb3-c493534e8d75","ios":"levelo://app?vid=7665d3e1-8676-4545-beb3-c493534e8d75"},"vehicle_type_id":"4","last_reported":1704784080,"current_range_meters":24000,"station_id":"ce4bgr92rcd13ifvqc6g","pricing_plan_id":"free"},{"bike_id":"cdb5363f-4d9c-4376-8d19-17f6dfa5efd6","system_id":"levelo_inurba_marseille","lat":43.312239,"lon":5.368562,"is_reserved":false,"is_disabled":false,"rental_uris":{"android":"levelo://app?vid=cdb5363f-4d9c-4376-8d19-17f6dfa5efd6","ios":"levelo://app?vid=cdb5363f-4d9c-4376-8d19-17f6dfa5efd6"},"vehicle_type_id":"4","last_reported":1704784080,"current_range_meters":16800,"station_id":"ce4bgl92rcd13ifvqbq0","pricing_plan_id":"free"},{"bike_id":"51a480b0-168c-4eee-980d-72dd225f4630","system_id":"levelo_inurba_marseille","lat":43.304606,"lon":5.379026,"is_reserved":false,"is_disabled":false,"rental_uris":{"android":"levelo://app?vid=51a480b0-168c-4eee-980d-72dd225f4630","ios":"levelo://app?vid=51a480b0-168c-4eee-980d-72dd225f4630"},"vehicle_type_id":"4","last_reported":1704784080,"current_range_meters":24800,"station_id":"ce4bgup2rcd13ifvqcn0","pricing_plan_id":"free"},{"bike_id":"862af0a1-8768-4f60-833d-d0e8e7a23a0e","system_id":"levelo_inurba_marseille","lat":43.309076,"lon":5.368465,"is_reserved":false,"is_disabled":false,"rental_uris":{"android":"levelo://app?vid=862af0a1-8768-4f60-833d-d0e8e7a23a0e","ios":"levelo://app?vid=862af0a1-8768-4f60-833d-d0e8e7a23a0e"},"vehicle_type_id":"4","last_reported":1704784080,"current_range_meters":26400,"station_id":"ce4bgn92rcd13ifvqbvg","pricing_plan_id":"free"},{"bike_id":"1f7ed7bb-e384-43bc-ae20-099c9ac1b503","system_id":"levelo_inurba_marseille","lat":43.309076,"lon":5.368465,"is_reserved":false,"is_disabled":false,"rental_uris":{"android":"levelo://app?vid=1f7ed7bb-e384-43bc-ae20-099c9ac1b503","ios":"levelo://app?vid=1f7ed7bb-e384-43bc-ae20-099c9ac1b503"},"vehicle_type_id":"4","last_reported":1704784080,"current_range_meters":16800,"station_id":"ce4bgn92rcd13ifvqbvg","pricing_plan_id":"free"},{"bike_id":"13b4d0a2-74a4-435e-8624-bebde031b673","system_id":"levelo_inurba_marseille","lat":43.309076,"lon":5.368465,"is_reserved":false,"is_disabled":false,"rental_uris":{"android":"levelo://app?vid=13b4d0a2-74a4-435e-8624-bebde031b673","ios":"levelo://app?vid=13b4d0a2-74a4-435e-8624-bebde031b673"},"vehicle_type_id":"4","last_reported":1704784080,"current_range_meters":23600,"station_id":"ce4bgn92rcd13ifvqbvg","pricing_plan_id":"free"},{"bike_id":"a39064f1-7908-4db3-9b87-a82a691db4eb","system_id":"levelo_inurba_marseille","lat":43.309076,"lon":5.368465,"is_reserved":false,"is_disabled":false,"rental_uris":{"android":"levelo://app?vid=a39064f1-7908-4db3-9b87-a82a691db4eb","ios":"levelo://app?vid=a39064f1-7908-4db3-9b87-a82a691db4eb"},"vehicle_type_id":"4","last_reported":1704784080,"current_range_meters":19600,"station_id":"ce4bgn92rcd13ifvqbvg","pricing_plan_id":"free"},{"bike_id":"a18c9f18-dd23-4fa3-ae4c-750a813ec2dd","system_id":"levelo_inurba_marseille","lat":43.313625,"lon":5.37344,"is_reserved":false,"is_disabled":false,"rental_uris":{"android":"levelo://app?vid=a18c9f18-dd23-4fa3-ae4c-750a813ec2dd","ios":"levelo://app?vid=a18c9f18-dd23-4fa3-ae4c-750a813ec2dd"},"vehicle_type_id":"4","last_reported":1704784080,"current_range_meters":7200,"station_id":"","pricing_plan_id":"free"},{"bike_id":"cc7b3533-d73c-4d4b-b019-da87e3dc0b70","system_id":"levelo_inurba_marseille","lat":43.314811,"lon":5.373104,"is_reserved":false,"is_disabled":false,"rental_uris":{"android":"levelo://app?vid=cc7b3533-d73c-4d4b-b019-da87e3dc0b70","ios":"levelo://app?vid=cc7b3533-d73c-4d4b-b019-da87e3dc0b70"},"vehicle_type_id":"4","last_reported":1704784080,"current_range_meters":31200,"station_id":"ce4bgt12rcd13ifvqcd0","pricing_plan_id":"free"},{"bike_id":"dbbdc074-5b6c-4ead-9f40-2fc7627bbaf1","system_id":"levelo_inurba_marseille","lat":43.314811,"lon":5.373104,"is_reserved":false,"is_disabled":false,"rental_uris":{"android":"levelo://app?vid=dbbdc074-5b6c-4ead-9f40-2fc7627bbaf1","ios":"levelo://app?vid=dbbdc074-5b6c-4ead-9f40-2fc7627bbaf1"},"vehicle_type_id":"4","last_reported":1704784080,"current_range_meters":29200,"station_id":"ce4bgt12rcd13ifvqcd0","pricing_plan_id":"free"},{"bike_id":"9add8e5a-a050-47ec-ba73-a70d1ef935a1","system_id":"levelo_inurba_marseille","lat":43.31502,"lon":5.373013,"is_reserved":false,"is_disabled":false,"rental_uris":{"android":"levelo://app?vid=9add8e5a-a050-47ec-ba73-a70d1ef935a1","ios":"levelo://app?vid=9add8e5a-a050-47ec-ba73-a70d1ef935a1"},"vehicle_type_id":"4","last_reported":1704784080,"current_range_meters":15600,"station_id":"ce4bgt12rcd13ifvqcd0","pricing_plan_id":"free"},{"bike_id":"2f35dfa9-eba2-403c-a601-4a5e2d9a40e1","system_id":"levelo_inurba_marseille","lat":43.309039,"lon":5.371797,"is_reserved":false,"is_disabled":false,"rental_uris":{"android":"levelo://app?vid=2f35dfa9-eba2-403c-a601-4a5e2d9a40e1","ios":"levelo://app?vid=2f35dfa9-eba2-403c-a601-4a5e2d9a40e1"},"vehicle_type_id":"4","last_reported":1704784080,"current_range_meters":31200,"station_id":"ce4bguh2rcd13ifvqckg","pricing_plan_id":"free"},{"bike_id":"2a15b175-aca8-4868-a33c-35a41bfaec9d","system_id":"levelo_inurba_marseille","lat":43.318041,"lon":5.369303,"is_reserved":false,"is_disabled":false,"rental_uris":{"android":"levelo://app?vid=2a15b175-aca8-4868-a33c-35a41bfaec9d","ios":"levelo://app?vid=2a15b175-aca8-4868-a33c-35a41bfaec9d"},"vehicle_type_id":"4","last_reported":1704784080,"current_range_meters":0,"station_id":"","pricing_plan_id":"free"},{"bike_id":"dc846a2d-c5f1-413f-aa09-725023e6c80a","system_id":"levelo_inurba_marseille","lat":43.305706,"lon":5.365654,"is_reserved":false,"is_disabled":false,"rental_uris":{"android":"levelo://app?vid=dc846a2d-c5f1-413f-aa09-725023e6c80a","ios":"levelo://app?vid=dc846a2d-c5f1-413f-aa09-725023e6c80a"},"vehicle_type_id":"4","last_reported":1704784080,"current_range_meters":20000,"station_id":"ce4bgs12rcd13ifvqcag","pricing_plan_id":"free"},{"bike_id":"52f51b0a-c265-4f15-86a1-9da53d11cc2a","system_id":"levelo_inurba_marseille","lat":43.305706,"lon":5.365654,"is_reserved":false,"is_disabled":false,"rental_uris":{"android":"levelo://app?vid=52f51b0a-c265-4f15-86a1-9da53d11cc2a","ios":"levelo://app?vid=52f51b0a-c265-4f15-86a1-9da53d11cc2a"},"vehicle_type_id":"4","last_reported":1704784080,"current_range_meters":25200,"station_id":"ce4bgs12rcd13ifvqcag","pricing_plan_id":"free"},{"bike_id":"1f1171a7-c471-4371-99e4-3c2902c51e9d","system_id":"levelo_inurba_marseille","lat":43.305368,"lon":5.367343,"is_reserved":false,"is_disabled":false,"rental_uris":{"android":"levelo://app?vid=1f1171a7-c471-4371-99e4-3c2902c51e9d","ios":"levelo://app?vid=1f1171a7-c471-4371-99e4-3c2902c51e9d"},"vehicle_type_id":"4","last_reported":1704784080,"current_range_meters":21200,"station_id":"ce4bgrp2rcd13ifvqc9g","pricing_plan_id":"free"},{"bike_id":"dd6cba84-d4e4-4231-a1af-d2742aea42a1","system_id":"levelo_inurba_marseille","lat":43.305706,"lon":5.365654,"is_reserved":false,"is_disabled":false,"rental_uris":{"android":"levelo://app?vid=dd6cba84-d4e4-4231-a1af-d2742aea42a1","ios":"levelo://app?vid=dd6cba84-d4e4-4231-a1af-d2742aea42a1"},"vehicle_type_id":"4","last_reported":1704784080,"current_range_meters":31200,"station_id":"ce4bgs12rcd13ifvqcag","pricing_plan_id":"free"},{"bike_id":"228e81ad-34b0-4c5f-94bb-5485d0ad25f9","system_id":"levelo_inurba_marseille","lat":43.311197,"lon":5.37756,"is_reserved":false,"is_disabled":false,"rental_uris":{"android":"levelo://app?vid=228e81ad-34b0-4c5f-94bb-5485d0ad25f9","ios":"levelo://app?vid=228e81ad-34b0-4c5f-94bb-5485d0ad25f9"},"vehicle_type_id":"4","last_reported":1704784080,"current_range_meters":17200,"station_id":"ce4bgt92rcd13ifvqcg0","pricing_plan_id":"free"},{"bike_id":"32f82f0a-5cf2-4d95-920c-9e39a6afb0a3","system_id":"levelo_inurba_marseille","lat":43.311131,"lon":5.377651,"is_reserved":false,"is_disabled":false,"rental_uris":{"android":"levelo://app?vid=32f82f0a-5cf2-4d95-920c-9e39a6afb0a3","ios":"levelo://app?vid=32f82f0a-5cf2-4d95-920c-9e39a6afb0a3"},"vehicle_type_id":"4","last_reported":1704784080,"current_range_meters":20800,"station_id":"ce4bgt92rcd13ifvqcg0","pricing_plan_id":"free"},{"bike_id":"6cce4114-9e05-4955-b895-e02bb8291002","system_id":"levelo_inurba_marseille","lat":43.311187,"lon":5.377594,"is_reserved":false,"is_disabled":false,"rental_uris":{"android":"levelo://app?vid=6cce4114-9e05-4955-b895-e02bb8291002","ios":"levelo://app?vid=6cce4114-9e05-4955-b895-e02bb8291002"},"vehicle_type_id":"4","last_reported":1704784080,"current_range_meters":12000,"station_id":"ce4bgt92rcd13ifvqcg0","pricing_plan_id":"free"},{"bike_id":"ffebae68-eee8-4f8b-af05-a6310a95d3f6","system_id":"levelo_inurba_marseille","lat":43.311133,"lon":5.377625,"is_reserved":false,"is_disabled":false,"rental_uris":{"android":"levelo://app?vid=ffebae68-eee8-4f8b-af05-a6310a95d3f6","ios":"levelo://app?vid=ffebae68-eee8-4f8b-af05-a6310a95d3f6"},"vehicle_type_id":"4","last_reported":1704784080,"current_range_meters":24000,"station_id":"ce4bgt92rcd13ifvqcg0","pricing_plan_id":"free"},{"bike_id":"e305e77d-9afd-4c32-bdf3-0814fc7907d2","system_id":"levelo_inurba_marseille","lat":43.311125,"lon":5.377624,"is_reserved":false,"is_disabled":false,"rental_uris":{"android":"levelo://app?vid=e305e77d-9afd-4c32-bdf3-0814fc7907d2","ios":"levelo://app?vid=e305e77d-9afd-4c32-bdf3-0814fc7907d2"},"vehicle_type_id":"4","last_reported":1704784080,"current_range_meters":30400,"station_id":"ce4bgt92rcd13ifvqcg0","pricing_plan_id":"free"},{"bike_id":"23acab9d-9af6-407a-b72c-316d874357c1","system_id":"levelo_inurba_marseille","lat":43.311131,"lon":5.377651,"is_reserved":false,"is_disabled":false,"rental_uris":{"android":"levelo://app?vid=23acab9d-9af6-407a-b72c-316d874357c1","ios":"levelo://app?vid=23acab9d-9af6-407a-b72c-316d874357c1"},"vehicle_type_id":"4","last_reported":1704784080,"current_range_meters":26800,"station_id":"ce4bgt92rcd13ifvqcg0","pricing_plan_id":"free"},{"bike_id":"ce2c9e1d-b7ec-485e-8ab7-5bc13a9b397b","system_id":"levelo_inurba_marseille","lat":43.311125,"lon":5.377624,"is_reserved":false,"is_disabled":false,"rental_uris":{"android":"levelo://app?vid=ce2c9e1d-b7ec-485e-8ab7-5bc13a9b397b","ios":"levelo://app?vid=ce2c9e1d-b7ec-485e-8ab7-5bc13a9b397b"},"vehicle_type_id":"4","last_reported":1704784080,"current_range_meters":28000,"station_id":"ce4bgt92rcd13ifvqcg0","pricing_plan_id":"free"},{"bike_id":"a833e05d-460f-4d6f-89c7-3dbb7f686611","system_id":"levelo_inurba_marseille","lat":43.31103,"lon":5.37773,"is_reserved":false,"is_disabled":false,"rental_uris":{"android":"levelo://app?vid=a833e05d-460f-4d6f-89c7-3dbb7f686611","ios":"levelo://app?vid=a833e05d-460f-4d6f-89c7-3dbb7f686611"},"vehicle_type_id":"4","last_reported":1704784080,"current_range_meters":27200,"station_id":"ce4bgt92rcd13ifvqcg0","pricing_plan_id":"free"},{"bike_id":"0df832ad-1833-4ca0-85b1-5621fb1805a3","system_id":"levelo_inurba_marseille","lat":43.307945,"lon":5.376487,"is_reserved":false,"is_disabled":false,"rental_uris":{"android":"levelo://app?vid=0df832ad-1833-4ca0-85b1-5621fb1805a3","ios":"levelo://app?vid=0df832ad-1833-4ca0-85b1-5621fb1805a3"},"vehicle_type_id":"4","last_reported":1704784080,"current_range_meters":31200,"station_id":"ce4bgv92rcd13ifvqcq0","pricing_plan_id":"free"},{"bike_id":"a26ac5b2-8a46-48ae-b4eb-4c6040d360ed","system_id":"levelo_inurba_marseille","lat":43.307945,"lon":5.376487,"is_reserved":false,"is_disabled":false,"rental_uris":{"android":"levelo://app?vid=a26ac5b2-8a46-48ae-b4eb-4c6040d360ed","ios":"levelo://app?vid=a26ac5b2-8a46-48ae-b4eb-4c6040d360ed"},"vehicle_type_id":"4","last_reported":1704784080,"current_range_meters":26400,"station_id":"ce4bgv92rcd13ifvqcq0","pricing_plan_id":"free"},{"bike_id":"aa3ba0b1-3c9e-4d54-9c2a-eba987c4b925","system_id":"levelo_inurba_marseille","lat":43.307945,"lon":5.376487,"is_reserved":false,"is_disabled":false,"rental_uris":{"android":"levelo://app?vid=aa3ba0b1-3c9e-4d54-9c2a-eba987c4b925","ios":"levelo://app?vid=aa3ba0b1-3c9e-4d54-9c2a-eba987c4b925"},"vehicle_type_id":"4","last_reported":1704784080,"current_range_meters":31200,"station_id":"ce4bgv92rcd13ifvqcq0","pricing_plan_id":"free"},{"bike_id":"3c1a424b-f923-47cf-abf2-870b3754e710","system_id":"levelo_inurba_marseille","lat":43.30304,"lon":5.368987,"is_reserved":false,"is_disabled":false,"rental_uris":{"android":"levelo://app?vid=3c1a424b-f923-47cf-abf2-870b3754e710","ios":"levelo://app?vid=3c1a424b-f923-47cf-abf2-870b3754e710"},"vehicle_type_id":"4","last_reported":1704784080,"current_range_meters":30000,"station_id":"ce4bgqh2rcd13ifvqc5g","pricing_plan_id":"free"},{"bike_id":"a11dacc9-95b0-48ae-b2d6-1dc17bbe7ca3","system_id":"levelo_inurba_marseille","lat":43.303046,"lon":5.368981,"is_reserved":false,"is_disabled":false,"rental_uris":{"android":"levelo://app?vid=a11dacc9-95b0-48ae-b2d6-1dc17bbe7ca3","ios":"levelo://app?vid=a11dacc9-95b0-48ae-b2d6-1dc17bbe7ca3"},"vehicle_type_id":"4","last_reported":1704784080,"current_range_meters":28800,"station_id":"ce4bgqh2rcd13ifvqc5g","pricing_plan_id":"free"},{"bike_id":"f0aa7d7c-2304-4b62-a246-d06e9825deb1","system_id":"levelo_inurba_marseille","lat":43.30304,"lon":5.368987,"is_reserved":false,"is_disabled":false,"rental_uris":{"android":"levelo://app?vid=f0aa7d7c-2304-4b62-a246-d06e9825deb1","ios":"levelo://app?vid=f0aa7d7c-2304-4b62-a246-d06e9825deb1"},"vehicle_type_id":"4","last_reported":1704784080,"current_range_meters":26400,"station_id":"ce4bgqh2rcd13ifvqc5g","pricing_plan_id":"free"},{"bike_id":"28458532-8df6-4878-a103-195d521a7bce","system_id":"levelo_inurba_marseille","lat":43.303046,"lon":5.368981,"is_reserved":false,"is_disabled":false,"rental_uris":{"android":"levelo://app?vid=28458532-8df6-4878-a103-195d521a7bce","ios":"levelo://app?vid=28458532-8df6-4878-a103-195d521a7bce"},"vehicle_type_id":"4","last_reported":1704784080,"current_range_meters":28400,"station_id":"ce4bgqh2rcd13ifvqc5g","pricing_plan_id":"free"},{"bike_id":"a5f71803-e3ba-49c1-a2f7-3a79566dde5a","system_id":"levelo_inurba_marseille","lat":43.315404,"lon":5.380283,"is_reserved":false,"is_disabled":false,"rental_uris":{"android":"levelo://app?vid=a5f71803-e3ba-49c1-a2f7-3a79566dde5a","ios":"levelo://app?vid=a5f71803-e3ba-49c1-a2f7-3a79566dde5a"},"vehicle_type_id":"4","last_reported":1704784080,"current_range_meters":7200,"station_id":"ce4bhsp2rcd13ifvqi50","pricing_plan_id":"free"},{"bike_id":"dfe87906-91b8-40cc-98d7-d2568f77a421","system_id":"levelo_inurba_marseille","lat":43.31535,"lon":5.38031,"is_reserved":false,"is_disabled":false,"rental_uris":{"android":"levelo://app?vid=dfe87906-91b8-40cc-98d7-d2568f77a421","ios":"levelo://app?vid=dfe87906-91b8-40cc-98d7-d2568f77a421"},"vehicle_type_id":"4","last_reported":1704784080,"current_range_meters":17200,"station_id":"ce4bhsp2rcd13ifvqi50","pricing_plan_id":"free"},{"bike_id":"61398e4a-44f1-42ff-8963-6ebd8199c81c","system_id":"levelo_inurba_marseille","lat":43.315319,"lon":5.380323,"is_reserved":false,"is_disabled":false,"rental_uris":{"android":"levelo://app?vid=61398e4a-44f1-42ff-8963-6ebd8199c81c","ios":"levelo://app?vid=61398e4a-44f1-42ff-8963-6ebd8199c81c"},"vehicle_type_id":"4","last_reported":1704784080,"current_range_meters":25200,"station_id":"ce4bhsp2rcd13ifvqi50","pricing_plan_id":"free"},{"bike_id":"d998f942-3cb2-4673-b60f-e3e204d5aa9e","system_id":"levelo_inurba_marseille","lat":43.301939,"lon":5.366286,"is_reserved":false,"is_disabled":false,"rental_uris":{"android":"levelo://app?vid=d998f942-3cb2-4673-b60f-e3e204d5aa9e","ios":"levelo://app?vid=d998f942-3cb2-4673-b60f-e3e204d5aa9e"},"vehicle_type_id":"4","last_reported":1704784080,"current_range_meters":26800,"station_id":"ce4bgrh2rcd13ifvqc8g","pricing_plan_id":"free"},{"bike_id":"373f78f9-6740-44b8-808f-4779ed999ae4","system_id":"levelo_inurba_marseille","lat":43.301939,"lon":5.366286,"is_reserved":false,"is_disabled":false,"rental_uris":{"android":"levelo://app?vid=373f78f9-6740-44b8-808f-4779ed999ae4","ios":"levelo://app?vid=373f78f9-6740-44b8-808f-4779ed999ae4"},"vehicle_type_id":"4","last_reported":1704784080,"current_range_meters":31200,"station_id":"ce4bgrh2rcd13ifvqc8g","pricing_plan_id":"free"},{"bike_id":"d4f745a6-16c3-4220-a899-07f208e72163","system_id":"levelo_inurba_marseille","lat":43.308012,"lon":5.381511,"is_reserved":false,"is_disabled":false,"rental_uris":{"android":"levelo://app?vid=d4f745a6-16c3-4220-a899-07f208e72163","ios":"levelo://app?vid=d4f745a6-16c3-4220-a899-07f208e72163"},"vehicle_type_id":"4","last_reported":1704784080,"current_range_meters":26000,"station_id":"ce4bgt12rcd13ifvqce0","pricing_plan_id":"free"},{"bike_id":"93fbb7c1-e9bd-4321-86dd-50c80aa3d8a7","system_id":"levelo_inurba_marseille","lat":43.308012,"lon":5.381511,"is_reserved":false,"is_disabled":false,"rental_uris":{"android":"levelo://app?vid=93fbb7c1-e9bd-4321-86dd-50c80aa3d8a7","ios":"levelo://app?vid=93fbb7c1-e9bd-4321-86dd-50c80aa3d8a7"},"vehicle_type_id":"4","last_reported":1704784080,"current_range_meters":9200,"station_id":"ce4bgt12rcd13ifvqce0","pricing_plan_id":"free"},{"bike_id":"dbd07a87-c507-49d2-b61c-5335d1c1085a","system_id":"levelo_inurba_marseille","lat":43.304606,"lon":5.379026,"is_reserved":false,"is_disabled":false,"rental_uris":{"android":"levelo://app?vid=dbd07a87-c507-49d2-b61c-5335d1c1085a","ios":"levelo://app?vid=dbd07a87-c507-49d2-b61c-5335d1c1085a"},"vehicle_type_id":"4","last_reported":1704784080,"current_range_meters":29600,"station_id":"ce4bgup2rcd13ifvqcn0","pricing_plan_id":"free"},{"bike_id":"c87266f9-14ba-4f87-a99f-28a49c13c847","system_id":"levelo_inurba_marseille","lat":43.304606,"lon":5.379026,"is_reserved":false,"is_disabled":false,"rental_uris":{"android":"levelo://app?vid=c87266f9-14ba-4f87-a99f-28a49c13c847","ios":"levelo://app?vid=c87266f9-14ba-4f87-a99f-28a49c13c847"},"vehicle_type_id":"4","last_reported":1704784080,"current_range_meters":24000,"station_id":"ce4bgup2rcd13ifvqcn0","pricing_plan_id":"free"},{"bike_id":"0f03d918-0204-48cd-ba27-8c8e3eb68c8f","system_id":"levelo_inurba_marseille","lat":43.304606,"lon":5.379026,"is_reserved":false,"is_disabled":false,"rental_uris":{"android":"levelo://app?vid=0f03d918-0204-48cd-ba27-8c8e3eb68c8f","ios":"levelo://app?vid=0f03d918-0204-48cd-ba27-8c8e3eb68c8f"},"vehicle_type_id":"4","last_reported":1704784080,"current_range_meters":12000,"station_id":"ce4bgup2rcd13ifvqcn0","pricing_plan_id":"free"},{"bike_id":"a87a7415-6a9f-481c-991a-6d70320095a3","system_id":"levelo_inurba_marseille","lat":43.304606,"lon":5.379026,"is_reserved":false,"is_disabled":false,"rental_uris":{"android":"levelo://app?vid=a87a7415-6a9f-481c-991a-6d70320095a3","ios":"levelo://app?vid=a87a7415-6a9f-481c-991a-6d70320095a3"},"vehicle_type_id":"4","last_reported":1704784080,"current_range_meters":15600,"station_id":"ce4bgup2rcd13ifvqcn0","pricing_plan_id":"free"},{"bike_id":"80ae1160-27a2-4943-9d3e-402c6a664f4f","system_id":"levelo_inurba_marseille","lat":43.304606,"lon":5.379026,"is_reserved":false,"is_disabled":false,"rental_uris":{"android":"levelo://app?vid=80ae1160-27a2-4943-9d3e-402c6a664f4f","ios":"levelo://app?vid=80ae1160-27a2-4943-9d3e-402c6a664f4f"},"vehicle_type_id":"4","last_reported":1704784080,"current_range_meters":800,"station_id":"ce4bgup2rcd13ifvqcn0","pricing_plan_id":"free"},{"bike_id":"3c1bc252-4540-4473-9c1f-242e1c2b28e3","system_id":"levelo_inurba_marseille","lat":43.30463,"lon":5.37899,"is_reserved":false,"is_disabled":false,"rental_uris":{"android":"levelo://app?vid=3c1bc252-4540-4473-9c1f-242e1c2b28e3","ios":"levelo://app?vid=3c1bc252-4540-4473-9c1f-242e1c2b28e3"},"vehicle_type_id":"4","last_reported":1704784080,"current_range_meters":10000,"station_id":"ce4bgup2rcd13ifvqcn0","pricing_plan_id":"free"},{"bike_id":"62b0bde8-80c8-42e0-8a43-64c8506dd52e","system_id":"levelo_inurba_marseille","lat":43.304606,"lon":5.379026,"is_reserved":false,"is_disabled":false,"rental_uris":{"android":"levelo://app?vid=62b0bde8-80c8-42e0-8a43-64c8506dd52e","ios":"levelo://app?vid=62b0bde8-80c8-42e0-8a43-64c8506dd52e"},"vehicle_type_id":"4","last_reported":1704784080,"current_range_meters":17200,"station_id":"ce4bgup2rcd13ifvqcn0","pricing_plan_id":"free"},{"bike_id":"a87674b0-d871-42d9-ac0f-3241629ca40c","system_id":"levelo_inurba_marseille","lat":43.304606,"lon":5.379026,"is_reserved":false,"is_disabled":false,"rental_uris":{"android":"levelo://app?vid=a87674b0-d871-42d9-ac0f-3241629ca40c","ios":"levelo://app?vid=a87674b0-d871-42d9-ac0f-3241629ca40c"},"vehicle_type_id":"4","last_reported":1704784080,"current_range_meters":18800,"station_id":"ce4bgup2rcd13ifvqcn0","pricing_plan_id":"free"},{"bike_id":"ce2923d1-0578-4b7a-91ee-980a69dd15b0","system_id":"levelo_inurba_marseille","lat":43.304606,"lon":5.379026,"is_reserved":false,"is_disabled":false,"rental_uris":{"android":"levelo://app?vid=ce2923d1-0578-4b7a-91ee-980a69dd15b0","ios":"levelo://app?vid=ce2923d1-0578-4b7a-91ee-980a69dd15b0"},"vehicle_type_id":"4","last_reported":1704784080,"current_range_meters":26400,"station_id":"ce4bgup2rcd13ifvqcn0","pricing_plan_id":"free"},{"bike_id":"d7f404f4-0597-4f63-b3fb-47ba83d056cb","system_id":"levelo_inurba_marseille","lat":43.304606,"lon":5.379026,"is_reserved":false,"is_disabled":false,"rental_uris":{"android":"levelo://app?vid=d7f404f4-0597-4f63-b3fb-47ba83d056cb","ios":"levelo://app?vid=d7f404f4-0597-4f63-b3fb-47ba83d056cb"},"vehicle_type_id":"4","last_reported":1704784080,"current_range_meters":9200,"station_id":"ce4bgup2rcd13ifvqcn0","pricing_plan_id":"free"},{"bike_id":"0562ce68-6777-4fb6-b785-7262c410c46e","system_id":"levelo_inurba_marseille","lat":43.304606,"lon":5.379026,"is_reserved":false,"is_disabled":false,"rental_uris":{"android":"levelo://app?vid=0562ce68-6777-4fb6-b785-7262c410c46e","ios":"levelo://app?vid=0562ce68-6777-4fb6-b785-7262c410c46e"},"vehicle_type_id":"4","last_reported":1704784080,"current_range_meters":28800,"station_id":"ce4bgup2rcd13ifvqcn0","pricing_plan_id":"free"},{"bike_id":"603f5bfb-0fd7-43ac-9de3-d1474c07ff7c","system_id":"levelo_inurba_marseille","lat":43.304606,"lon":5.379026,"is_reserved":false,"is_disabled":false,"rental_uris":{"android":"levelo://app?vid=603f5bfb-0fd7-43ac-9de3-d1474c07ff7c","ios":"levelo://app?vid=603f5bfb-0fd7-43ac-9de3-d1474c07ff7c"},"vehicle_type_id":"4","last_reported":1704784080,"current_range_meters":20000,"station_id":"ce4bgup2rcd13ifvqcn0","pricing_plan_id":"free"},{"bike_id":"e966c529-6498-44d1-bc08-66b55e5caba6","system_id":"levelo_inurba_marseille","lat":43.304606,"lon":5.379026,"is_reserved":false,"is_disabled":false,"rental_uris":{"android":"levelo://app?vid=e966c529-6498-44d1-bc08-66b55e5caba6","ios":"levelo://app?vid=e966c529-6498-44d1-bc08-66b55e5caba6"},"vehicle_type_id":"4","last_reported":1704784080,"current_range_meters":20800,"station_id":"ce4bgup2rcd13ifvqcn0","pricing_plan_id":"free"},{"bike_id":"11d7b301-e03d-4b5e-bc0d-00eec9d55260","system_id":"levelo_inurba_marseille","lat":43.304606,"lon":5.379026,"is_reserved":false,"is_disabled":false,"rental_uris":{"android":"levelo://app?vid=11d7b301-e03d-4b5e-bc0d-00eec9d55260","ios":"levelo://app?vid=11d7b301-e03d-4b5e-bc0d-00eec9d55260"},"vehicle_type_id":"4","last_reported":1704784080,"current_range_meters":7600,"station_id":"ce4bgup2rcd13ifvqcn0","pricing_plan_id":"free"},{"bike_id":"a71e73fa-1d8a-42c6-b0e8-40a6af9babe6","system_id":"levelo_inurba_marseille","lat":43.30462,"lon":5.37906,"is_reserved":false,"is_disabled":false,"rental_uris":{"android":"levelo://app?vid=a71e73fa-1d8a-42c6-b0e8-40a6af9babe6","ios":"levelo://app?vid=a71e73fa-1d8a-42c6-b0e8-40a6af9babe6"},"vehicle_type_id":"4","last_reported":1704784080,"current_range_meters":8000,"station_id":"ce4bgup2rcd13ifvqcn0","pricing_plan_id":"free"},{"bike_id":"5ab98a2a-2afe-41ff-bd5b-db309709a2ec","system_id":"levelo_inurba_marseille","lat":43.304606,"lon":5.379026,"is_reserved":false,"is_disabled":false,"rental_uris":{"android":"levelo://app?vid=5ab98a2a-2afe-41ff-bd5b-db309709a2ec","ios":"levelo://app?vid=5ab98a2a-2afe-41ff-bd5b-db309709a2ec"},"vehicle_type_id":"4","last_reported":1704784080,"current_range_meters":12000,"station_id":"ce4bgup2rcd13ifvqcn0","pricing_plan_id":"free"},{"bike_id":"ea45cdf6-76ac-46d1-85a6-ac8c0aa18ba0","system_id":"levelo_inurba_marseille","lat":43.304606,"lon":5.379026,"is_reserved":false,"is_disabled":false,"rental_uris":{"android":"levelo://app?vid=ea45cdf6-76ac-46d1-85a6-ac8c0aa18ba0","ios":"levelo://app?vid=ea45cdf6-76ac-46d1-85a6-ac8c0aa18ba0"},"vehicle_type_id":"4","last_reported":1704784080,"current_range_meters":26800,"station_id":"ce4bgup2rcd13ifvqcn0","pricing_plan_id":"free"},{"bike_id":"ca513873-3ec6-4034-9529-44ddad9affa3","system_id":"levelo_inurba_marseille","lat":43.304606,"lon":5.379026,"is_reserved":false,"is_disabled":false,"rental_uris":{"android":"levelo://app?vid=ca513873-3ec6-4034-9529-44ddad9affa3","ios":"levelo://app?vid=ca513873-3ec6-4034-9529-44ddad9affa3"},"vehicle_type_id":"4","last_reported":1704784080,"current_range_meters":25200,"station_id":"ce4bgup2rcd13ifvqcn0","pricing_plan_id":"free"},{"bike_id":"595fd92f-804b-429e-a506-dd612c8c468d","system_id":"levelo_inurba_marseille","lat":43.304606,"lon":5.379026,"is_reserved":false,"is_disabled":false,"rental_uris":{"android":"levelo://app?vid=595fd92f-804b-429e-a506-dd612c8c468d","ios":"levelo://app?vid=595fd92f-804b-429e-a506-dd612c8c468d"},"vehicle_type_id":"4","last_reported":1704784080,"current_range_meters":21200,"station_id":"ce4bgup2rcd13ifvqcn0","pricing_plan_id":"free"},{"bike_id":"a95e59ff-c530-402a-b5e2-2ed374bfd7a0","system_id":"levelo_inurba_marseille","lat":43.304606,"lon":5.379026,"is_reserved":false,"is_disabled":false,"rental_uris":{"android":"levelo://app?vid=a95e59ff-c530-402a-b5e2-2ed374bfd7a0","ios":"levelo://app?vid=a95e59ff-c530-402a-b5e2-2ed374bfd7a0"},"vehicle_type_id":"4","last_reported":1704784080,"current_range_meters":29600,"station_id":"ce4bgup2rcd13ifvqcn0","pricing_plan_id":"free"},{"bike_id":"cfdc4b8e-f0de-495d-aee2-e65abc406d28","system_id":"levelo_inurba_marseille","lat":43.304606,"lon":5.379026,"is_reserved":false,"is_disabled":false,"rental_uris":{"android":"levelo://app?vid=cfdc4b8e-f0de-495d-aee2-e65abc406d28","ios":"levelo://app?vid=cfdc4b8e-f0de-495d-aee2-e65abc406d28"},"vehicle_type_id":"4","last_reported":1704784080,"current_range_meters":28400,"station_id":"ce4bgup2rcd13ifvqcn0","pricing_plan_id":"free"},{"bike_id":"9809bb80-3115-4770-89a3-9f4d8ca02366","system_id":"levelo_inurba_marseille","lat":43.304606,"lon":5.379026,"is_reserved":false,"is_disabled":false,"rental_uris":{"android":"levelo://app?vid=9809bb80-3115-4770-89a3-9f4d8ca02366","ios":"levelo://app?vid=9809bb80-3115-4770-89a3-9f4d8ca02366"},"vehicle_type_id":"4","last_reported":1704784080,"current_range_meters":10800,"station_id":"ce4bgup2rcd13ifvqcn0","pricing_plan_id":"free"},{"bike_id":"23c09aee-91b6-4f70-9f6f-c25c6fd6d0ab","system_id":"levelo_inurba_marseille","lat":43.304606,"lon":5.379026,"is_reserved":false,"is_disabled":false,"rental_uris":{"android":"levelo://app?vid=23c09aee-91b6-4f70-9f6f-c25c6fd6d0ab","ios":"levelo://app?vid=23c09aee-91b6-4f70-9f6f-c25c6fd6d0ab"},"vehicle_type_id":"4","last_reported":1704784080,"current_range_meters":27600,"station_id":"ce4bgup2rcd13ifvqcn0","pricing_plan_id":"free"},{"bike_id":"1ad2e1c5-3f74-496e-a442-cb46af5626ab","system_id":"levelo_inurba_marseille","lat":43.304606,"lon":5.379026,"is_reserved":false,"is_disabled":false,"rental_uris":{"android":"levelo://app?vid=1ad2e1c5-3f74-496e-a442-cb46af5626ab","ios":"levelo://app?vid=1ad2e1c5-3f74-496e-a442-cb46af5626ab"},"vehicle_type_id":"4","last_reported":1704784080,"current_range_meters":18800,"station_id":"ce4bgup2rcd13ifvqcn0","pricing_plan_id":"free"},{"bike_id":"bb02e8fc-1b1a-442d-be08-908b3392a957","system_id":"levelo_inurba_marseille","lat":43.324771,"lon":5.36557,"is_reserved":false,"is_disabled":false,"rental_uris":{"android":"levelo://app?vid=bb02e8fc-1b1a-442d-be08-908b3392a957","ios":"levelo://app?vid=bb02e8fc-1b1a-442d-be08-908b3392a957"},"vehicle_type_id":"4","last_reported":1704784080,"current_range_meters":18000,"station_id":"ce4bhs12rcd13ifvqhvg","pricing_plan_id":"free"},{"bike_id":"2aa100e7-2671-4c1b-a1f0-ab7832afcbad","system_id":"levelo_inurba_marseille","lat":43.324771,"lon":5.36557,"is_reserved":false,"is_disabled":false,"rental_uris":{"android":"levelo://app?vid=2aa100e7-2671-4c1b-a1f0-ab7832afcbad","ios":"levelo://app?vid=2aa100e7-2671-4c1b-a1f0-ab7832afcbad"},"vehicle_type_id":"4","last_reported":1704784080,"current_range_meters":18000,"station_id":"ce4bhs12rcd13ifvqhvg","pricing_plan_id":"free"},{"bike_id":"9a5d20fc-5739-4188-aece-a966211e1333","system_id":"levelo_inurba_marseille","lat":43.324771,"lon":5.36557,"is_reserved":false,"is_disabled":false,"rental_uris":{"android":"levelo://app?vid=9a5d20fc-5739-4188-aece-a966211e1333","ios":"levelo://app?vid=9a5d20fc-5739-4188-aece-a966211e1333"},"vehicle_type_id":"4","last_reported":1704784080,"current_range_meters":6800,"station_id":"ce4bhs12rcd13ifvqhvg","pricing_plan_id":"free"},{"bike_id":"5d34637b-4aca-47df-b4d1-da6fa9424f2a","system_id":"levelo_inurba_marseille","lat":43.324771,"lon":5.36557,"is_reserved":false,"is_disabled":false,"rental_uris":{"android":"levelo://app?vid=5d34637b-4aca-47df-b4d1-da6fa9424f2a","ios":"levelo://app?vid=5d34637b-4aca-47df-b4d1-da6fa9424f2a"},"vehicle_type_id":"4","last_reported":1704784080,"current_range_meters":4800,"station_id":"ce4bhs12rcd13ifvqhvg","pricing_plan_id":"free"},{"bike_id":"592186ea-9749-4077-a128-39abeba103d1","system_id":"levelo_inurba_marseille","lat":43.324849,"lon":5.365616,"is_reserved":false,"is_disabled":false,"rental_uris":{"android":"levelo://app?vid=592186ea-9749-4077-a128-39abeba103d1","ios":"levelo://app?vid=592186ea-9749-4077-a128-39abeba103d1"},"vehicle_type_id":"4","last_reported":1704784080,"current_range_meters":13600,"station_id":"ce4bhs12rcd13ifvqhvg","pricing_plan_id":"free"},{"bike_id":"b3159d53-29a9-4e09-891e-d97ba2312d2f","system_id":"levelo_inurba_marseille","lat":43.30295,"lon":5.3769,"is_reserved":false,"is_disabled":false,"rental_uris":{"android":"levelo://app?vid=b3159d53-29a9-4e09-891e-d97ba2312d2f","ios":"levelo://app?vid=b3159d53-29a9-4e09-891e-d97ba2312d2f"},"vehicle_type_id":"4","last_reported":1704784080,"current_range_meters":19200,"station_id":"","pricing_plan_id":"free"},{"bike_id":"2936bfb6-54dd-40ca-b371-dd0da47cfd63","system_id":"levelo_inurba_marseille","lat":43.30289,"lon":5.37686,"is_reserved":false,"is_disabled":false,"rental_uris":{"android":"levelo://app?vid=2936bfb6-54dd-40ca-b371-dd0da47cfd63","ios":"levelo://app?vid=2936bfb6-54dd-40ca-b371-dd0da47cfd63"},"vehicle_type_id":"4","last_reported":1704784080,"current_range_meters":22000,"station_id":"","pricing_plan_id":"free"},{"bike_id":"a9fa3d66-138e-489f-9580-917d99440044","system_id":"levelo_inurba_marseille","lat":43.324771,"lon":5.36557,"is_reserved":false,"is_disabled":false,"rental_uris":{"android":"levelo://app?vid=a9fa3d66-138e-489f-9580-917d99440044","ios":"levelo://app?vid=a9fa3d66-138e-489f-9580-917d99440044"},"vehicle_type_id":"4","last_reported":1704784080,"current_range_meters":26800,"station_id":"ce4bhs12rcd13ifvqhvg","pricing_plan_id":"free"},{"bike_id":"db926eaa-c90e-4fff-8b43-9bff9469369c","system_id":"levelo_inurba_marseille","lat":43.302811,"lon":5.376925,"is_reserved":false,"is_disabled":false,"rental_uris":{"android":"levelo://app?vid=db926eaa-c90e-4fff-8b43-9bff9469369c","ios":"levelo://app?vid=db926eaa-c90e-4fff-8b43-9bff9469369c"},"vehicle_type_id":"4","last_reported":1704784080,"current_range_meters":25200,"station_id":"","pricing_plan_id":"free"},{"bike_id":"02d5036c-8f1e-4981-adc4-948f011049aa","system_id":"levelo_inurba_marseille","lat":43.302806,"lon":5.376943,"is_reserved":false,"is_disabled":false,"rental_uris":{"android":"levelo://app?vid=02d5036c-8f1e-4981-adc4-948f011049aa","ios":"levelo://app?vid=02d5036c-8f1e-4981-adc4-948f011049aa"},"vehicle_type_id":"4","last_reported":1704784080,"current_range_meters":17200,"station_id":"","pricing_plan_id":"free"},{"bike_id":"f89f3fb1-a217-4a08-a154-eacb077d128a","system_id":"levelo_inurba_marseille","lat":43.302802,"lon":5.37699,"is_reserved":false,"is_disabled":false,"rental_uris":{"android":"levelo://app?vid=f89f3fb1-a217-4a08-a154-eacb077d128a","ios":"levelo://app?vid=f89f3fb1-a217-4a08-a154-eacb077d128a"},"vehicle_type_id":"4","last_reported":1704784080,"current_range_meters":24800,"station_id":"","pricing_plan_id":"free"},{"bike_id":"d589684d-8093-4e7e-b879-23414acab81a","system_id":"levelo_inurba_marseille","lat":43.30269,"lon":5.37709,"is_reserved":false,"is_disabled":false,"rental_uris":{"android":"levelo://app?vid=d589684d-8093-4e7e-b879-23414acab81a","ios":"levelo://app?vid=d589684d-8093-4e7e-b879-23414acab81a"},"vehicle_type_id":"4","last_reported":1704784080,"current_range_meters":20800,"station_id":"","pricing_plan_id":"free"},{"bike_id":"2c4cddb8-2a01-4322-ba5d-b1dd0d5c4eac","system_id":"levelo_inurba_marseille","lat":43.3026,"lon":5.37726,"is_reserved":false,"is_disabled":false,"rental_uris":{"android":"levelo://app?vid=2c4cddb8-2a01-4322-ba5d-b1dd0d5c4eac","ios":"levelo://app?vid=2c4cddb8-2a01-4322-ba5d-b1dd0d5c4eac"},"vehicle_type_id":"4","last_reported":1704784080,"current_range_meters":23200,"station_id":"","pricing_plan_id":"free"},{"bike_id":"bdbdc402-66be-430e-afbc-6e7aded8bacb","system_id":"levelo_inurba_marseille","lat":43.304606,"lon":5.379026,"is_reserved":false,"is_disabled":false,"rental_uris":{"android":"levelo://app?vid=bdbdc402-66be-430e-afbc-6e7aded8bacb","ios":"levelo://app?vid=bdbdc402-66be-430e-afbc-6e7aded8bacb"},"vehicle_type_id":"4","last_reported":1704784080,"current_range_meters":31200,"station_id":"ce4bgup2rcd13ifvqcn0","pricing_plan_id":"free"},{"bike_id":"760261ca-9b90-43a7-81f4-01c4343ef331","system_id":"levelo_inurba_marseille","lat":43.313571,"lon":5.384829,"is_reserved":false,"is_disabled":false,"rental_uris":{"android":"levelo://app?vid=760261ca-9b90-43a7-81f4-01c4343ef331","ios":"levelo://app?vid=760261ca-9b90-43a7-81f4-01c4343ef331"},"vehicle_type_id":"4","last_reported":1704784080,"current_range_meters":31200,"station_id":"ce4bgt92rcd13ifvqcf0","pricing_plan_id":"free"},{"bike_id":"2e160f16-669e-4544-ad4c-2cde20c95741","system_id":"levelo_inurba_marseille","lat":43.308012,"lon":5.381511,"is_reserved":false,"is_disabled":false,"rental_uris":{"android":"levelo://app?vid=2e160f16-669e-4544-ad4c-2cde20c95741","ios":"levelo://app?vid=2e160f16-669e-4544-ad4c-2cde20c95741"},"vehicle_type_id":"4","last_reported":1704784080,"current_range_meters":23600,"station_id":"ce4bgt12rcd13ifvqce0","pricing_plan_id":"free"},{"bike_id":"651e0b9f-076d-4dc0-a89c-1d4225655f3c","system_id":"levelo_inurba_marseille","lat":43.299724,"lon":5.371829,"is_reserved":false,"is_disabled":false,"rental_uris":{"android":"levelo://app?vid=651e0b9f-076d-4dc0-a89c-1d4225655f3c","ios":"levelo://app?vid=651e0b9f-076d-4dc0-a89c-1d4225655f3c"},"vehicle_type_id":"4","last_reported":1704784080,"current_range_meters":29600,"station_id":"ce4bgr92rcd13ifvqc7g","pricing_plan_id":"free"},{"bike_id":"85cd5cc7-8412-4ea2-a97d-a4cdfa7312fd","system_id":"levelo_inurba_marseille","lat":43.299209,"lon":5.365547,"is_reserved":false,"is_disabled":false,"rental_uris":{"android":"levelo://app?vid=85cd5cc7-8412-4ea2-a97d-a4cdfa7312fd","ios":"levelo://app?vid=85cd5cc7-8412-4ea2-a97d-a4cdfa7312fd"},"vehicle_type_id":"4","last_reported":1704784080,"current_range_meters":16800,"station_id":"ce4bgm92rcd13ifvqbr0","pricing_plan_id":"free"},{"bike_id":"0cc5d0fb-56b7-4277-b82f-ab970261e614","system_id":"levelo_inurba_marseille","lat":43.299724,"lon":5.371829,"is_reserved":false,"is_disabled":false,"rental_uris":{"android":"levelo://app?vid=0cc5d0fb-56b7-4277-b82f-ab970261e614","ios":"levelo://app?vid=0cc5d0fb-56b7-4277-b82f-ab970261e614"},"vehicle_type_id":"4","last_reported":1704784080,"current_range_meters":21200,"station_id":"ce4bgr92rcd13ifvqc7g","pricing_plan_id":"free"},{"bike_id":"5e3ae350-92fc-4f1a-91e5-fca6c6157e9c","system_id":"levelo_inurba_marseille","lat":43.314321,"lon":5.385533,"is_reserved":false,"is_disabled":false,"rental_uris":{"android":"levelo://app?vid=5e3ae350-92fc-4f1a-91e5-fca6c6157e9c","ios":"levelo://app?vid=5e3ae350-92fc-4f1a-91e5-fca6c6157e9c"},"vehicle_type_id":"4","last_reported":1704784080,"current_range_meters":11600,"station_id":"","pricing_plan_id":"free"},{"bike_id":"f9d26549-d9b3-4139-af3b-ffba8643c768","system_id":"levelo_inurba_marseille","lat":43.296263,"lon":5.377094,"is_reserved":false,"is_disabled":false,"rental_uris":{"android":"levelo://app?vid=f9d26549-d9b3-4139-af3b-ffba8643c768","ios":"levelo://app?vid=f9d26549-d9b3-4139-af3b-ffba8643c768"},"vehicle_type_id":"4","last_reported":1704784080,"current_range_meters":16000,"station_id":"ce4bgi92rcd13ifvqb90","pricing_plan_id":"free"},{"bike_id":"b22604ec-0c4b-41b4-a20e-38add68f7682","system_id":"levelo_inurba_marseille","lat":43.325423,"lon":5.374786,"is_reserved":false,"is_disabled":false,"rental_uris":{"android":"levelo://app?vid=b22604ec-0c4b-41b4-a20e-38add68f7682","ios":"levelo://app?vid=b22604ec-0c4b-41b4-a20e-38add68f7682"},"vehicle_type_id":"4","last_reported":1704784080,"current_range_meters":2800,"station_id":"","pricing_plan_id":"free"},{"bike_id":"ab0df33a-9c69-47ea-a7d9-b15637703654","system_id":"levelo_inurba_marseille","lat":43.29853,"lon":5.36288,"is_reserved":false,"is_disabled":false,"rental_uris":{"android":"levelo://app?vid=ab0df33a-9c69-47ea-a7d9-b15637703654","ios":"levelo://app?vid=ab0df33a-9c69-47ea-a7d9-b15637703654"},"vehicle_type_id":"4","last_reported":1704784080,"current_range_meters":23600,"station_id":"ce4bgpp2rcd13ifvqc3g","pricing_plan_id":"free"},{"bike_id":"a2882797-d1f5-40ff-b34d-45e0f5d8d084","system_id":"levelo_inurba_marseille","lat":43.298433,"lon":5.362774,"is_reserved":false,"is_disabled":false,"rental_uris":{"android":"levelo://app?vid=a2882797-d1f5-40ff-b34d-45e0f5d8d084","ios":"levelo://app?vid=a2882797-d1f5-40ff-b34d-45e0f5d8d084"},"vehicle_type_id":"4","last_reported":1704784080,"current_range_meters":31200,"station_id":"ce4bgpp2rcd13ifvqc3g","pricing_plan_id":"free"},{"bike_id":"0687d192-3b53-4a10-885e-77105491bca1","system_id":"levelo_inurba_marseille","lat":43.29847,"lon":5.36277,"is_reserved":false,"is_disabled":false,"rental_uris":{"android":"levelo://app?vid=0687d192-3b53-4a10-885e-77105491bca1","ios":"levelo://app?vid=0687d192-3b53-4a10-885e-77105491bca1"},"vehicle_type_id":"4","last_reported":1704784080,"current_range_meters":24400,"station_id":"ce4bgpp2rcd13ifvqc3g","pricing_plan_id":"free"},{"bike_id":"0f8b46bd-ef4d-4154-a94d-8c1597e3eeac","system_id":"levelo_inurba_marseille","lat":43.29847,"lon":5.36272,"is_reserved":false,"is_disabled":false,"rental_uris":{"android":"levelo://app?vid=0f8b46bd-ef4d-4154-a94d-8c1597e3eeac","ios":"levelo://app?vid=0f8b46bd-ef4d-4154-a94d-8c1597e3eeac"},"vehicle_type_id":"4","last_reported":1704784080,"current_range_meters":25200,"station_id":"ce4bgpp2rcd13ifvqc3g","pricing_plan_id":"free"},{"bike_id":"be407769-77ca-41cb-9080-2d5f6af78fe8","system_id":"levelo_inurba_marseille","lat":43.29847,"lon":5.3627,"is_reserved":false,"is_disabled":false,"rental_uris":{"android":"levelo://app?vid=be407769-77ca-41cb-9080-2d5f6af78fe8","ios":"levelo://app?vid=be407769-77ca-41cb-9080-2d5f6af78fe8"},"vehicle_type_id":"4","last_reported":1704784080,"current_range_meters":2000,"station_id":"ce4bgpp2rcd13ifvqc3g","pricing_plan_id":"free"},{"bike_id":"5eed64a0-88bb-4c19-a834-db4d01b4f47a","system_id":"levelo_inurba_marseille","lat":43.298433,"lon":5.362774,"is_reserved":false,"is_disabled":false,"rental_uris":{"android":"levelo://app?vid=5eed64a0-88bb-4c19-a834-db4d01b4f47a","ios":"levelo://app?vid=5eed64a0-88bb-4c19-a834-db4d01b4f47a"},"vehicle_type_id":"4","last_reported":1704784080,"current_range_meters":13600,"station_id":"ce4bgpp2rcd13ifvqc3g","pricing_plan_id":"free"},{"bike_id":"fa3515b8-3ae2-44ba-a570-785bd1e07c93","system_id":"levelo_inurba_marseille","lat":43.298433,"lon":5.362774,"is_reserved":false,"is_disabled":false,"rental_uris":{"android":"levelo://app?vid=fa3515b8-3ae2-44ba-a570-785bd1e07c93","ios":"levelo://app?vid=fa3515b8-3ae2-44ba-a570-785bd1e07c93"},"vehicle_type_id":"4","last_reported":1704784080,"current_range_meters":30400,"station_id":"ce4bgpp2rcd13ifvqc3g","pricing_plan_id":"free"},{"bike_id":"890998dc-bc35-4769-81c8-ccd7a7436893","system_id":"levelo_inurba_marseille","lat":43.29843,"lon":5.36267,"is_reserved":false,"is_disabled":false,"rental_uris":{"android":"levelo://app?vid=890998dc-bc35-4769-81c8-ccd7a7436893","ios":"levelo://app?vid=890998dc-bc35-4769-81c8-ccd7a7436893"},"vehicle_type_id":"4","last_reported":1704784080,"current_range_meters":28400,"station_id":"ce4bgpp2rcd13ifvqc3g","pricing_plan_id":"free"},{"bike_id":"6f1f35ff-5f06-4c7b-8f11-b86803caa7c4","system_id":"levelo_inurba_marseille","lat":43.305364,"lon":5.384119,"is_reserved":false,"is_disabled":false,"rental_uris":{"android":"levelo://app?vid=6f1f35ff-5f06-4c7b-8f11-b86803caa7c4","ios":"levelo://app?vid=6f1f35ff-5f06-4c7b-8f11-b86803caa7c4"},"vehicle_type_id":"4","last_reported":1704784080,"current_range_meters":28000,"station_id":"ce4bgg92rcd13ifvqb30","pricing_plan_id":"free"},{"bike_id":"f6d80a05-d4af-4e24-899c-32d68e3860fd","system_id":"levelo_inurba_marseille","lat":43.311722,"lon":5.387247,"is_reserved":false,"is_disabled":false,"rental_uris":{"android":"levelo://app?vid=f6d80a05-d4af-4e24-899c-32d68e3860fd","ios":"levelo://app?vid=f6d80a05-d4af-4e24-899c-32d68e3860fd"},"vehicle_type_id":"4","last_reported":1704784080,"current_range_meters":29600,"station_id":"ce4bgv12rcd13ifvqcp0","pricing_plan_id":"free"},{"bike_id":"776d133f-3a6f-4fd2-a4d2-2de305336010","system_id":"levelo_inurba_marseille","lat":43.298371,"lon":5.362679,"is_reserved":false,"is_disabled":false,"rental_uris":{"android":"levelo://app?vid=776d133f-3a6f-4fd2-a4d2-2de305336010","ios":"levelo://app?vid=776d133f-3a6f-4fd2-a4d2-2de305336010"},"vehicle_type_id":"4","last_reported":1704784080,"current_range_meters":28800,"station_id":"ce4bgpp2rcd13ifvqc3g","pricing_plan_id":"free"},{"bike_id":"d6dced08-aff6-4329-9498-c6fffe631ded","system_id":"levelo_inurba_marseille","lat":43.311722,"lon":5.387247,"is_reserved":false,"is_disabled":false,"rental_uris":{"android":"levelo://app?vid=d6dced08-aff6-4329-9498-c6fffe631ded","ios":"levelo://app?vid=d6dced08-aff6-4329-9498-c6fffe631ded"},"vehicle_type_id":"4","last_reported":1704784080,"current_range_meters":24800,"station_id":"ce4bgv12rcd13ifvqcp0","pricing_plan_id":"free"},{"bike_id":"27d3fdad-99fd-4955-ba9d-30f4bc695fa8","system_id":"levelo_inurba_marseille","lat":43.311722,"lon":5.387247,"is_reserved":false,"is_disabled":false,"rental_uris":{"android":"levelo://app?vid=27d3fdad-99fd-4955-ba9d-30f4bc695fa8","ios":"levelo://app?vid=27d3fdad-99fd-4955-ba9d-30f4bc695fa8"},"vehicle_type_id":"4","last_reported":1704784080,"current_range_meters":7600,"station_id":"ce4bgv12rcd13ifvqcp0","pricing_plan_id":"free"},{"bike_id":"35a41eac-1f7f-4c6e-867a-cc7193c8cce7","system_id":"levelo_inurba_marseille","lat":43.311722,"lon":5.387247,"is_reserved":false,"is_disabled":false,"rental_uris":{"android":"levelo://app?vid=35a41eac-1f7f-4c6e-867a-cc7193c8cce7","ios":"levelo://app?vid=35a41eac-1f7f-4c6e-867a-cc7193c8cce7"},"vehicle_type_id":"4","last_reported":1704784080,"current_range_meters":31200,"station_id":"ce4bgv12rcd13ifvqcp0","pricing_plan_id":"free"},{"bike_id":"f4a772fa-5e25-4411-a2f1-6273bbd7c8b0","system_id":"levelo_inurba_marseille","lat":43.32285,"lon":5.38275,"is_reserved":false,"is_disabled":false,"rental_uris":{"android":"levelo://app?vid=f4a772fa-5e25-4411-a2f1-6273bbd7c8b0","ios":"levelo://app?vid=f4a772fa-5e25-4411-a2f1-6273bbd7c8b0"},"vehicle_type_id":"4","last_reported":1704784080,"current_range_meters":22800,"station_id":"ce4bhr12rcd13ifvqhqg","pricing_plan_id":"free"},{"bike_id":"387c1dff-fb7e-4547-838e-1af3f69c4219","system_id":"levelo_inurba_marseille","lat":43.32823,"lon":5.36677,"is_reserved":false,"is_disabled":false,"rental_uris":{"android":"levelo://app?vid=387c1dff-fb7e-4547-838e-1af3f69c4219","ios":"levelo://app?vid=387c1dff-fb7e-4547-838e-1af3f69c4219"},"vehicle_type_id":"4","last_reported":1704784080,"current_range_meters":14800,"station_id":"ce4bhs92rcd13ifvqi0g","pricing_plan_id":"free"},{"bike_id":"d68ce626-ef98-4d52-b3b3-f34d703a806b","system_id":"levelo_inurba_marseille","lat":43.32824,"lon":5.36691,"is_reserved":false,"is_disabled":false,"rental_uris":{"android":"levelo://app?vid=d68ce626-ef98-4d52-b3b3-f34d703a806b","ios":"levelo://app?vid=d68ce626-ef98-4d52-b3b3-f34d703a806b"},"vehicle_type_id":"4","last_reported":1704784080,"current_range_meters":24800,"station_id":"ce4bhs92rcd13ifvqi0g","pricing_plan_id":"free"},{"bike_id":"66addf4b-70b7-4ac4-8e17-37956e9ecfbb","system_id":"levelo_inurba_marseille","lat":43.32826,"lon":5.36673,"is_reserved":false,"is_disabled":false,"rental_uris":{"android":"levelo://app?vid=66addf4b-70b7-4ac4-8e17-37956e9ecfbb","ios":"levelo://app?vid=66addf4b-70b7-4ac4-8e17-37956e9ecfbb"},"vehicle_type_id":"4","last_reported":1704784080,"current_range_meters":11600,"station_id":"ce4bhs92rcd13ifvqi0g","pricing_plan_id":"free"},{"bike_id":"72905f78-9c33-4138-8385-d331d9223abd","system_id":"levelo_inurba_marseille","lat":43.328274,"lon":5.366749,"is_reserved":false,"is_disabled":false,"rental_uris":{"android":"levelo://app?vid=72905f78-9c33-4138-8385-d331d9223abd","ios":"levelo://app?vid=72905f78-9c33-4138-8385-d331d9223abd"},"vehicle_type_id":"4","last_reported":1704784080,"current_range_meters":6800,"station_id":"ce4bhs92rcd13ifvqi0g","pricing_plan_id":"free"},{"bike_id":"0fd5fbb6-2d92-4caf-b6a7-425d8318482d","system_id":"levelo_inurba_marseille","lat":43.328371,"lon":5.366909,"is_reserved":false,"is_disabled":false,"rental_uris":{"android":"levelo://app?vid=0fd5fbb6-2d92-4caf-b6a7-425d8318482d","ios":"levelo://app?vid=0fd5fbb6-2d92-4caf-b6a7-425d8318482d"},"vehicle_type_id":"4","last_reported":1704784080,"current_range_meters":18400,"station_id":"ce4bhs92rcd13ifvqi0g","pricing_plan_id":"free"},{"bike_id":"38ed70ee-62fb-4ec5-9c68-b6ac582e12ad","system_id":"levelo_inurba_marseille","lat":43.297154,"lon":5.366051,"is_reserved":false,"is_disabled":false,"rental_uris":{"android":"levelo://app?vid=38ed70ee-62fb-4ec5-9c68-b6ac582e12ad","ios":"levelo://app?vid=38ed70ee-62fb-4ec5-9c68-b6ac582e12ad"},"vehicle_type_id":"4","last_reported":1704784080,"current_range_meters":13600,"station_id":"ce4bgn12rcd13ifvqbt0","pricing_plan_id":"free"},{"bike_id":"0d142450-c6df-4240-906c-0460e242ad2a","system_id":"levelo_inurba_marseille","lat":43.328345,"lon":5.366795,"is_reserved":false,"is_disabled":false,"rental_uris":{"android":"levelo://app?vid=0d142450-c6df-4240-906c-0460e242ad2a","ios":"levelo://app?vid=0d142450-c6df-4240-906c-0460e242ad2a"},"vehicle_type_id":"4","last_reported":1704784080,"current_range_meters":23600,"station_id":"ce4bhs92rcd13ifvqi0g","pricing_plan_id":"free"},{"bike_id":"0736a7ec-e0d7-49d4-a64c-659d14a28a0c","system_id":"levelo_inurba_marseille","lat":43.29714,"lon":5.366096,"is_reserved":false,"is_disabled":false,"rental_uris":{"android":"levelo://app?vid=0736a7ec-e0d7-49d4-a64c-659d14a28a0c","ios":"levelo://app?vid=0736a7ec-e0d7-49d4-a64c-659d14a28a0c"},"vehicle_type_id":"4","last_reported":1704784080,"current_range_meters":24000,"station_id":"ce4bgn12rcd13ifvqbt0","pricing_plan_id":"free"},{"bike_id":"1353c35a-38fb-4d9d-b39f-f7ae475997d5","system_id":"levelo_inurba_marseille","lat":43.29714,"lon":5.36595,"is_reserved":false,"is_disabled":false,"rental_uris":{"android":"levelo://app?vid=1353c35a-38fb-4d9d-b39f-f7ae475997d5","ios":"levelo://app?vid=1353c35a-38fb-4d9d-b39f-f7ae475997d5"},"vehicle_type_id":"4","last_reported":1704784080,"current_range_meters":10800,"station_id":"ce4bgn12rcd13ifvqbt0","pricing_plan_id":"free"},{"bike_id":"74ed4e3b-28d0-443d-a881-625070b8545e","system_id":"levelo_inurba_marseille","lat":43.297163,"lon":5.365866,"is_reserved":false,"is_disabled":false,"rental_uris":{"android":"levelo://app?vid=74ed4e3b-28d0-443d-a881-625070b8545e","ios":"levelo://app?vid=74ed4e3b-28d0-443d-a881-625070b8545e"},"vehicle_type_id":"4","last_reported":1704784080,"current_range_meters":31200,"station_id":"ce4bgn12rcd13ifvqbt0","pricing_plan_id":"free"},{"bike_id":"4c00745f-d4d9-48dd-9340-31526bf98676","system_id":"levelo_inurba_marseille","lat":43.29709,"lon":5.36612,"is_reserved":false,"is_disabled":false,"rental_uris":{"android":"levelo://app?vid=4c00745f-d4d9-48dd-9340-31526bf98676","ios":"levelo://app?vid=4c00745f-d4d9-48dd-9340-31526bf98676"},"vehicle_type_id":"4","last_reported":1704784080,"current_range_meters":0,"station_id":"ce4bgn12rcd13ifvqbt0","pricing_plan_id":"free"},{"bike_id":"5d17fcc1-ee1a-4e36-8844-4f9946d324b0","system_id":"levelo_inurba_marseille","lat":43.297004,"lon":5.365984,"is_reserved":false,"is_disabled":false,"rental_uris":{"android":"levelo://app?vid=5d17fcc1-ee1a-4e36-8844-4f9946d324b0","ios":"levelo://app?vid=5d17fcc1-ee1a-4e36-8844-4f9946d324b0"},"vehicle_type_id":"4","last_reported":1704784080,"current_range_meters":19200,"station_id":"","pricing_plan_id":"free"},{"bike_id":"0e21c0e1-cd91-41f5-a668-23429ce9066e","system_id":"levelo_inurba_marseille","lat":43.296801,"lon":5.372822,"is_reserved":false,"is_disabled":false,"rental_uris":{"android":"levelo://app?vid=0e21c0e1-cd91-41f5-a668-23429ce9066e","ios":"levelo://app?vid=0e21c0e1-cd91-41f5-a668-23429ce9066e"},"vehicle_type_id":"4","last_reported":1704784080,"current_range_meters":16400,"station_id":"","pricing_plan_id":"free"},{"bike_id":"dfd53a63-0b12-403b-b2c9-50c997287923","system_id":"levelo_inurba_marseille","lat":43.296211,"lon":5.371499,"is_reserved":false,"is_disabled":false,"rental_uris":{"android":"levelo://app?vid=dfd53a63-0b12-403b-b2c9-50c997287923","ios":"levelo://app?vid=dfd53a63-0b12-403b-b2c9-50c997287923"},"vehicle_type_id":"4","last_reported":1704784080,"current_range_meters":27200,"station_id":"ce4bgnh2rcd13ifvqc0g","pricing_plan_id":"free"},{"bike_id":"a405edc1-d524-4849-b9e7-8a6b5b56741d","system_id":"levelo_inurba_marseille","lat":43.296131,"lon":5.370773,"is_reserved":false,"is_disabled":false,"rental_uris":{"android":"levelo://app?vid=a405edc1-d524-4849-b9e7-8a6b5b56741d","ios":"levelo://app?vid=a405edc1-d524-4849-b9e7-8a6b5b56741d"},"vehicle_type_id":"4","last_reported":1704784080,"current_range_meters":29200,"station_id":"ce4bgnh2rcd13ifvqc0g","pricing_plan_id":"free"},{"bike_id":"41c5d19a-242f-4df9-aea9-5d34742bc416","system_id":"levelo_inurba_marseille","lat":43.29573,"lon":5.367355,"is_reserved":false,"is_disabled":false,"rental_uris":{"android":"levelo://app?vid=41c5d19a-242f-4df9-aea9-5d34742bc416","ios":"levelo://app?vid=41c5d19a-242f-4df9-aea9-5d34742bc416"},"vehicle_type_id":"4","last_reported":1704784080,"current_range_meters":24400,"station_id":"ce4bgph2rcd13ifvqc2g","pricing_plan_id":"free"},{"bike_id":"87b44958-a69f-4a43-9ffc-09810f58cc4e","system_id":"levelo_inurba_marseille","lat":43.29573,"lon":5.367355,"is_reserved":false,"is_disabled":false,"rental_uris":{"android":"levelo://app?vid=87b44958-a69f-4a43-9ffc-09810f58cc4e","ios":"levelo://app?vid=87b44958-a69f-4a43-9ffc-09810f58cc4e"},"vehicle_type_id":"4","last_reported":1704784080,"current_range_meters":24800,"station_id":"ce4bgph2rcd13ifvqc2g","pricing_plan_id":"free"},{"bike_id":"f05eeef8-ee69-4eb8-8043-59afe6d00a63","system_id":"levelo_inurba_marseille","lat":43.29573,"lon":5.367355,"is_reserved":false,"is_disabled":false,"rental_uris":{"android":"levelo://app?vid=f05eeef8-ee69-4eb8-8043-59afe6d00a63","ios":"levelo://app?vid=f05eeef8-ee69-4eb8-8043-59afe6d00a63"},"vehicle_type_id":"4","last_reported":1704784080,"current_range_meters":25600,"station_id":"ce4bgph2rcd13ifvqc2g","pricing_plan_id":"free"},{"bike_id":"21d9aad9-37db-4201-be8f-1d71407c866a","system_id":"levelo_inurba_marseille","lat":43.299028,"lon":5.381509,"is_reserved":false,"is_disabled":false,"rental_uris":{"android":"levelo://app?vid=21d9aad9-37db-4201-be8f-1d71407c866a","ios":"levelo://app?vid=21d9aad9-37db-4201-be8f-1d71407c866a"},"vehicle_type_id":"4","last_reported":1704784080,"current_range_meters":28400,"station_id":"ce4bgj12rcd13ifvqbc0","pricing_plan_id":"free"},{"bike_id":"1727a032-f32c-4a3b-8b6a-9743d997b28e","system_id":"levelo_inurba_marseille","lat":43.29897,"lon":5.38134,"is_reserved":false,"is_disabled":false,"rental_uris":{"android":"levelo://app?vid=1727a032-f32c-4a3b-8b6a-9743d997b28e","ios":"levelo://app?vid=1727a032-f32c-4a3b-8b6a-9743d997b28e"},"vehicle_type_id":"4","last_reported":1704784080,"current_range_meters":10400,"station_id":"ce4bgj12rcd13ifvqbc0","pricing_plan_id":"free"},{"bike_id":"ab3747d3-ce4e-4a5a-bc7f-f34f748882ca","system_id":"levelo_inurba_marseille","lat":43.309589,"lon":5.390258,"is_reserved":false,"is_disabled":false,"rental_uris":{"android":"levelo://app?vid=ab3747d3-ce4e-4a5a-bc7f-f34f748882ca","ios":"levelo://app?vid=ab3747d3-ce4e-4a5a-bc7f-f34f748882ca"},"vehicle_type_id":"4","last_reported":1704784080,"current_range_meters":16400,"station_id":"ce4bgup2rcd13ifvqco0","pricing_plan_id":"free"},{"bike_id":"a54e4b6f-dbcc-4ccd-b7db-6be83017102f","system_id":"levelo_inurba_marseille","lat":43.309589,"lon":5.390258,"is_reserved":false,"is_disabled":false,"rental_uris":{"android":"levelo://app?vid=a54e4b6f-dbcc-4ccd-b7db-6be83017102f","ios":"levelo://app?vid=a54e4b6f-dbcc-4ccd-b7db-6be83017102f"},"vehicle_type_id":"4","last_reported":1704784080,"current_range_meters":17200,"station_id":"ce4bgup2rcd13ifvqco0","pricing_plan_id":"free"},{"bike_id":"5b159e97-00e1-4124-93b7-e42c8ba76a66","system_id":"levelo_inurba_marseille","lat":43.309618,"lon":5.390655,"is_reserved":false,"is_disabled":false,"rental_uris":{"android":"levelo://app?vid=5b159e97-00e1-4124-93b7-e42c8ba76a66","ios":"levelo://app?vid=5b159e97-00e1-4124-93b7-e42c8ba76a66"},"vehicle_type_id":"4","last_reported":1704784080,"current_range_meters":8000,"station_id":"ce4bgup2rcd13ifvqco0","pricing_plan_id":"free"},{"bike_id":"75cc616f-e751-4d4a-89c1-4acf320a907c","system_id":"levelo_inurba_marseille","lat":43.317557,"lon":5.390173,"is_reserved":false,"is_disabled":false,"rental_uris":{"android":"levelo://app?vid=75cc616f-e751-4d4a-89c1-4acf320a907c","ios":"levelo://app?vid=75cc616f-e751-4d4a-89c1-4acf320a907c"},"vehicle_type_id":"4","last_reported":1704784080,"current_range_meters":29200,"station_id":"ce4bhqp2rcd13ifvqhng","pricing_plan_id":"free"},{"bike_id":"f4c8c44a-c17c-4f50-9cc7-f352519c2b60","system_id":"levelo_inurba_marseille","lat":43.317557,"lon":5.390173,"is_reserved":false,"is_disabled":false,"rental_uris":{"android":"levelo://app?vid=f4c8c44a-c17c-4f50-9cc7-f352519c2b60","ios":"levelo://app?vid=f4c8c44a-c17c-4f50-9cc7-f352519c2b60"},"vehicle_type_id":"4","last_reported":1704784080,"current_range_meters":26800,"station_id":"ce4bhqp2rcd13ifvqhng","pricing_plan_id":"free"},{"bike_id":"41f1ff2c-398f-4e37-8637-3cd03f1ffdfd","system_id":"levelo_inurba_marseille","lat":43.317557,"lon":5.390173,"is_reserved":false,"is_disabled":false,"rental_uris":{"android":"levelo://app?vid=41f1ff2c-398f-4e37-8637-3cd03f1ffdfd","ios":"levelo://app?vid=41f1ff2c-398f-4e37-8637-3cd03f1ffdfd"},"vehicle_type_id":"4","last_reported":1704784080,"current_range_meters":20800,"station_id":"ce4bhqp2rcd13ifvqhng","pricing_plan_id":"free"},{"bike_id":"5d87eaad-7cc9-4ffb-9676-b218569df768","system_id":"levelo_inurba_marseille","lat":43.317557,"lon":5.390173,"is_reserved":false,"is_disabled":false,"rental_uris":{"android":"levelo://app?vid=5d87eaad-7cc9-4ffb-9676-b218569df768","ios":"levelo://app?vid=5d87eaad-7cc9-4ffb-9676-b218569df768"},"vehicle_type_id":"4","last_reported":1704784080,"current_range_meters":19200,"station_id":"ce4bhqp2rcd13ifvqhng","pricing_plan_id":"free"},{"bike_id":"c877eee3-547a-4e6a-9841-194da696995f","system_id":"levelo_inurba_marseille","lat":43.317557,"lon":5.390173,"is_reserved":false,"is_disabled":false,"rental_uris":{"android":"levelo://app?vid=c877eee3-547a-4e6a-9841-194da696995f","ios":"levelo://app?vid=c877eee3-547a-4e6a-9841-194da696995f"},"vehicle_type_id":"4","last_reported":1704784080,"current_range_meters":10800,"station_id":"ce4bhqp2rcd13ifvqhng","pricing_plan_id":"free"},{"bike_id":"8fe8132c-248a-4a60-a838-0d1450fccca4","system_id":"levelo_inurba_marseille","lat":43.298037,"lon":5.381066,"is_reserved":false,"is_disabled":false,"rental_uris":{"android":"levelo://app?vid=8fe8132c-248a-4a60-a838-0d1450fccca4","ios":"levelo://app?vid=8fe8132c-248a-4a60-a838-0d1450fccca4"},"vehicle_type_id":"4","last_reported":1704784080,"current_range_meters":30800,"station_id":"ce4bgip2rcd13ifvqbb0","pricing_plan_id":"free"},{"bike_id":"df701d2c-9f62-4b8d-8786-83ce96c10fb8","system_id":"levelo_inurba_marseille","lat":43.298037,"lon":5.381066,"is_reserved":false,"is_disabled":false,"rental_uris":{"android":"levelo://app?vid=df701d2c-9f62-4b8d-8786-83ce96c10fb8","ios":"levelo://app?vid=df701d2c-9f62-4b8d-8786-83ce96c10fb8"},"vehicle_type_id":"4","last_reported":1704784080,"current_range_meters":28000,"station_id":"ce4bgip2rcd13ifvqbb0","pricing_plan_id":"free"},{"bike_id":"2acd02ec-41c1-41a5-8a53-c90e14551f3e","system_id":"levelo_inurba_marseille","lat":43.304274,"lon":5.388873,"is_reserved":false,"is_disabled":false,"rental_uris":{"android":"levelo://app?vid=2acd02ec-41c1-41a5-8a53-c90e14551f3e","ios":"levelo://app?vid=2acd02ec-41c1-41a5-8a53-c90e14551f3e"},"vehicle_type_id":"4","last_reported":1704784080,"current_range_meters":8800,"station_id":"ce4bgk12rcd13ifvqbi0","pricing_plan_id":"free"},{"bike_id":"03eef4bc-f93c-46c3-8ebb-43a28b4bb8a1","system_id":"levelo_inurba_marseille","lat":43.298037,"lon":5.381066,"is_reserved":false,"is_disabled":false,"rental_uris":{"android":"levelo://app?vid=03eef4bc-f93c-46c3-8ebb-43a28b4bb8a1","ios":"levelo://app?vid=03eef4bc-f93c-46c3-8ebb-43a28b4bb8a1"},"vehicle_type_id":"4","last_reported":1704784080,"current_range_meters":27200,"station_id":"ce4bgip2rcd13ifvqbb0","pricing_plan_id":"free"},{"bike_id":"85a740d9-f027-4f6d-a38a-64b99055f4f6","system_id":"levelo_inurba_marseille","lat":43.298037,"lon":5.381066,"is_reserved":false,"is_disabled":false,"rental_uris":{"android":"levelo://app?vid=85a740d9-f027-4f6d-a38a-64b99055f4f6","ios":"levelo://app?vid=85a740d9-f027-4f6d-a38a-64b99055f4f6"},"vehicle_type_id":"4","last_reported":1704784080,"current_range_meters":0,"station_id":"ce4bgip2rcd13ifvqbb0","pricing_plan_id":"free"},{"bike_id":"d45646dd-2736-42cb-863c-ac302f5679de","system_id":"levelo_inurba_marseille","lat":43.296277,"lon":5.377108,"is_reserved":false,"is_disabled":false,"rental_uris":{"android":"levelo://app?vid=d45646dd-2736-42cb-863c-ac302f5679de","ios":"levelo://app?vid=d45646dd-2736-42cb-863c-ac302f5679de"},"vehicle_type_id":"4","last_reported":1704784080,"current_range_meters":22400,"station_id":"ce4bgi92rcd13ifvqb90","pricing_plan_id":"free"},{"bike_id":"a2993f95-30a4-41f0-bdfa-c9b501da0a89","system_id":"levelo_inurba_marseille","lat":43.304278,"lon":5.388868,"is_reserved":false,"is_disabled":false,"rental_uris":{"android":"levelo://app?vid=a2993f95-30a4-41f0-bdfa-c9b501da0a89","ios":"levelo://app?vid=a2993f95-30a4-41f0-bdfa-c9b501da0a89"},"vehicle_type_id":"4","last_reported":1704784080,"current_range_meters":16000,"station_id":"ce4bgk12rcd13ifvqbi0","pricing_plan_id":"free"},{"bike_id":"822eb956-1813-428e-a453-92bd7bdd2e16","system_id":"levelo_inurba_marseille","lat":43.29792,"lon":5.38121,"is_reserved":false,"is_disabled":false,"rental_uris":{"android":"levelo://app?vid=822eb956-1813-428e-a453-92bd7bdd2e16","ios":"levelo://app?vid=822eb956-1813-428e-a453-92bd7bdd2e16"},"vehicle_type_id":"4","last_reported":1704784080,"current_range_meters":26800,"station_id":"ce4bgip2rcd13ifvqbb0","pricing_plan_id":"free"},{"bike_id":"98118a60-9eb3-4374-8ebe-50062cf8f533","system_id":"levelo_inurba_marseille","lat":43.304278,"lon":5.388868,"is_reserved":false,"is_disabled":false,"rental_uris":{"android":"levelo://app?vid=98118a60-9eb3-4374-8ebe-50062cf8f533","ios":"levelo://app?vid=98118a60-9eb3-4374-8ebe-50062cf8f533"},"vehicle_type_id":"4","last_reported":1704784080,"current_range_meters":24800,"station_id":"ce4bgk12rcd13ifvqbi0","pricing_plan_id":"free"},{"bike_id":"f2b8d45f-7220-4026-be07-2fcc55a9d6ff","system_id":"levelo_inurba_marseille","lat":43.296023,"lon":5.377183,"is_reserved":false,"is_disabled":false,"rental_uris":{"android":"levelo://app?vid=f2b8d45f-7220-4026-be07-2fcc55a9d6ff","ios":"levelo://app?vid=f2b8d45f-7220-4026-be07-2fcc55a9d6ff"},"vehicle_type_id":"4","last_reported":1704784080,"current_range_meters":28000,"station_id":"ce4bgi92rcd13ifvqb90","pricing_plan_id":"free"},{"bike_id":"f80f154c-e2fa-4384-bb26-571192e6384a","system_id":"levelo_inurba_marseille","lat":43.29539,"lon":5.37503,"is_reserved":false,"is_disabled":false,"rental_uris":{"android":"levelo://app?vid=f80f154c-e2fa-4384-bb26-571192e6384a","ios":"levelo://app?vid=f80f154c-e2fa-4384-bb26-571192e6384a"},"vehicle_type_id":"4","last_reported":1704784080,"current_range_meters":6000,"station_id":"ce4bgkp2rcd13ifvqbmg","pricing_plan_id":"free"},{"bike_id":"72dd2a89-1809-4a31-877c-75ffb46fad0a","system_id":"levelo_inurba_marseille","lat":43.295279,"lon":5.375048,"is_reserved":false,"is_disabled":false,"rental_uris":{"android":"levelo://app?vid=72dd2a89-1809-4a31-877c-75ffb46fad0a","ios":"levelo://app?vid=72dd2a89-1809-4a31-877c-75ffb46fad0a"},"vehicle_type_id":"4","last_reported":1704784080,"current_range_meters":23200,"station_id":"ce4bgkp2rcd13ifvqbmg","pricing_plan_id":"free"},{"bike_id":"e7690355-4a78-4875-b343-5c259d1ffdf4","system_id":"levelo_inurba_marseille","lat":43.299717,"lon":5.384845,"is_reserved":false,"is_disabled":false,"rental_uris":{"android":"levelo://app?vid=e7690355-4a78-4875-b343-5c259d1ffdf4","ios":"levelo://app?vid=e7690355-4a78-4875-b343-5c259d1ffdf4"},"vehicle_type_id":"4","last_reported":1704784080,"current_range_meters":11600,"station_id":"ce4bgj92rcd13ifvqbd0","pricing_plan_id":"free"},{"bike_id":"3535480c-1565-4656-8507-46aa9800cfd4","system_id":"levelo_inurba_marseille","lat":43.295279,"lon":5.375048,"is_reserved":false,"is_disabled":false,"rental_uris":{"android":"levelo://app?vid=3535480c-1565-4656-8507-46aa9800cfd4","ios":"levelo://app?vid=3535480c-1565-4656-8507-46aa9800cfd4"},"vehicle_type_id":"4","last_reported":1704784080,"current_range_meters":16400,"station_id":"ce4bgkp2rcd13ifvqbmg","pricing_plan_id":"free"},{"bike_id":"9355193f-36e1-4ece-befa-f5eaaf4d4bbd","system_id":"levelo_inurba_marseille","lat":43.295279,"lon":5.375048,"is_reserved":false,"is_disabled":false,"rental_uris":{"android":"levelo://app?vid=9355193f-36e1-4ece-befa-f5eaaf4d4bbd","ios":"levelo://app?vid=9355193f-36e1-4ece-befa-f5eaaf4d4bbd"},"vehicle_type_id":"4","last_reported":1704784080,"current_range_meters":20000,"station_id":"ce4bgkp2rcd13ifvqbmg","pricing_plan_id":"free"},{"bike_id":"223f9627-7a01-4833-b65a-708bb11f42b6","system_id":"levelo_inurba_marseille","lat":43.295279,"lon":5.375048,"is_reserved":false,"is_disabled":false,"rental_uris":{"android":"levelo://app?vid=223f9627-7a01-4833-b65a-708bb11f42b6","ios":"levelo://app?vid=223f9627-7a01-4833-b65a-708bb11f42b6"},"vehicle_type_id":"4","last_reported":1704784080,"current_range_meters":24800,"station_id":"ce4bgkp2rcd13ifvqbmg","pricing_plan_id":"free"},{"bike_id":"130cb28f-6d32-4b69-a0f6-355400d0b5e0","system_id":"levelo_inurba_marseille","lat":43.299717,"lon":5.384845,"is_reserved":false,"is_disabled":false,"rental_uris":{"android":"levelo://app?vid=130cb28f-6d32-4b69-a0f6-355400d0b5e0","ios":"levelo://app?vid=130cb28f-6d32-4b69-a0f6-355400d0b5e0"},"vehicle_type_id":"4","last_reported":1704784080,"current_range_meters":29600,"station_id":"ce4bgj92rcd13ifvqbd0","pricing_plan_id":"free"},{"bike_id":"c2b1bf9f-42e0-43c7-8670-d94c162f0919","system_id":"levelo_inurba_marseille","lat":43.32367,"lon":5.388836,"is_reserved":false,"is_disabled":false,"rental_uris":{"android":"levelo://app?vid=c2b1bf9f-42e0-43c7-8670-d94c162f0919","ios":"levelo://app?vid=c2b1bf9f-42e0-43c7-8670-d94c162f0919"},"vehicle_type_id":"4","last_reported":1704784080,"current_range_meters":4400,"station_id":"ce4bhqp2rcd13ifvqhog","pricing_plan_id":"free"},{"bike_id":"0d010f52-1f5a-40a5-abec-4107fd04b036","system_id":"levelo_inurba_marseille","lat":43.32367,"lon":5.388836,"is_reserved":false,"is_disabled":false,"rental_uris":{"android":"levelo://app?vid=0d010f52-1f5a-40a5-abec-4107fd04b036","ios":"levelo://app?vid=0d010f52-1f5a-40a5-abec-4107fd04b036"},"vehicle_type_id":"4","last_reported":1704784080,"current_range_meters":5600,"station_id":"ce4bhqp2rcd13ifvqhog","pricing_plan_id":"free"},{"bike_id":"42d89a31-a657-43d2-a194-bb104294a251","system_id":"levelo_inurba_marseille","lat":43.32367,"lon":5.388836,"is_reserved":false,"is_disabled":false,"rental_uris":{"android":"levelo://app?vid=42d89a31-a657-43d2-a194-bb104294a251","ios":"levelo://app?vid=42d89a31-a657-43d2-a194-bb104294a251"},"vehicle_type_id":"4","last_reported":1704784080,"current_range_meters":17200,"station_id":"ce4bhqp2rcd13ifvqhog","pricing_plan_id":"free"},{"bike_id":"fe6d10cd-9018-4282-b790-a6df5f6b6be3","system_id":"levelo_inurba_marseille","lat":43.305994,"lon":5.393687,"is_reserved":false,"is_disabled":false,"rental_uris":{"android":"levelo://app?vid=fe6d10cd-9018-4282-b790-a6df5f6b6be3","ios":"levelo://app?vid=fe6d10cd-9018-4282-b790-a6df5f6b6be3"},"vehicle_type_id":"4","last_reported":1704784080,"current_range_meters":31200,"station_id":"ce4bh0p2rcd13ifvqd80","pricing_plan_id":"free"},{"bike_id":"6f5a346e-50cc-49c3-9238-b9c89790ca91","system_id":"levelo_inurba_marseille","lat":43.305994,"lon":5.393687,"is_reserved":false,"is_disabled":false,"rental_uris":{"android":"levelo://app?vid=6f5a346e-50cc-49c3-9238-b9c89790ca91","ios":"levelo://app?vid=6f5a346e-50cc-49c3-9238-b9c89790ca91"},"vehicle_type_id":"4","last_reported":1704784080,"current_range_meters":25600,"station_id":"ce4bh0p2rcd13ifvqd80","pricing_plan_id":"free"},{"bike_id":"9da97cdc-3492-4b9a-b22c-ceb0efc8fd1b","system_id":"levelo_inurba_marseille","lat":43.305994,"lon":5.393687,"is_reserved":false,"is_disabled":false,"rental_uris":{"android":"levelo://app?vid=9da97cdc-3492-4b9a-b22c-ceb0efc8fd1b","ios":"levelo://app?vid=9da97cdc-3492-4b9a-b22c-ceb0efc8fd1b"},"vehicle_type_id":"4","last_reported":1704784080,"current_range_meters":19600,"station_id":"ce4bh0p2rcd13ifvqd80","pricing_plan_id":"free"},{"bike_id":"aedb225c-e70e-42b2-849f-4fae2d36f3ef","system_id":"levelo_inurba_marseille","lat":43.305994,"lon":5.393687,"is_reserved":false,"is_disabled":false,"rental_uris":{"android":"levelo://app?vid=aedb225c-e70e-42b2-849f-4fae2d36f3ef","ios":"levelo://app?vid=aedb225c-e70e-42b2-849f-4fae2d36f3ef"},"vehicle_type_id":"4","last_reported":1704784080,"current_range_meters":9200,"station_id":"ce4bh0p2rcd13ifvqd80","pricing_plan_id":"free"},{"bike_id":"f94c68ef-d4a5-4e4a-8c35-edaf0016f9b8","system_id":"levelo_inurba_marseille","lat":43.292311,"lon":5.360731,"is_reserved":false,"is_disabled":false,"rental_uris":{"android":"levelo://app?vid=f94c68ef-d4a5-4e4a-8c35-edaf0016f9b8","ios":"levelo://app?vid=f94c68ef-d4a5-4e4a-8c35-edaf0016f9b8"},"vehicle_type_id":"4","last_reported":1704784080,"current_range_meters":21200,"station_id":"ce4bhbh2rcd13ifvqeqg","pricing_plan_id":"free"},{"bike_id":"cef649b4-23b3-469e-9a86-ff60a42819b7","system_id":"levelo_inurba_marseille","lat":43.300852,"lon":5.390859,"is_reserved":false,"is_disabled":false,"rental_uris":{"android":"levelo://app?vid=cef649b4-23b3-469e-9a86-ff60a42819b7","ios":"levelo://app?vid=cef649b4-23b3-469e-9a86-ff60a42819b7"},"vehicle_type_id":"4","last_reported":1704784080,"current_range_meters":29600,"station_id":"ce4bh192rcd13ifvqdb0","pricing_plan_id":"free"},{"bike_id":"00806f19-9897-4159-85a7-11cae59ada1c","system_id":"levelo_inurba_marseille","lat":43.292311,"lon":5.360731,"is_reserved":false,"is_disabled":false,"rental_uris":{"android":"levelo://app?vid=00806f19-9897-4159-85a7-11cae59ada1c","ios":"levelo://app?vid=00806f19-9897-4159-85a7-11cae59ada1c"},"vehicle_type_id":"4","last_reported":1704784080,"current_range_meters":31600,"station_id":"ce4bhbh2rcd13ifvqeqg","pricing_plan_id":"free"},{"bike_id":"3233d348-96fd-4430-b2de-d4303fbb247d","system_id":"levelo_inurba_marseille","lat":43.292311,"lon":5.360731,"is_reserved":false,"is_disabled":false,"rental_uris":{"android":"levelo://app?vid=3233d348-96fd-4430-b2de-d4303fbb247d","ios":"levelo://app?vid=3233d348-96fd-4430-b2de-d4303fbb247d"},"vehicle_type_id":"4","last_reported":1704784080,"current_range_meters":20000,"station_id":"ce4bhbh2rcd13ifvqeqg","pricing_plan_id":"free"},{"bike_id":"5f97c8ff-8851-431a-ab65-d68dea98d621","system_id":"levelo_inurba_marseille","lat":43.292311,"lon":5.360731,"is_reserved":false,"is_disabled":false,"rental_uris":{"android":"levelo://app?vid=5f97c8ff-8851-431a-ab65-d68dea98d621","ios":"levelo://app?vid=5f97c8ff-8851-431a-ab65-d68dea98d621"},"vehicle_type_id":"4","last_reported":1704784080,"current_range_meters":12800,"station_id":"ce4bhbh2rcd13ifvqeqg","pricing_plan_id":"free"},{"bike_id":"3d475891-f4e2-4549-a96a-68953c73b1bb","system_id":"levelo_inurba_marseille","lat":43.292311,"lon":5.360731,"is_reserved":false,"is_disabled":false,"rental_uris":{"android":"levelo://app?vid=3d475891-f4e2-4549-a96a-68953c73b1bb","ios":"levelo://app?vid=3d475891-f4e2-4549-a96a-68953c73b1bb"},"vehicle_type_id":"4","last_reported":1704784080,"current_range_meters":12400,"station_id":"ce4bhbh2rcd13ifvqeqg","pricing_plan_id":"free"},{"bike_id":"39d10db8-138d-4c68-8038-c7c6e7b3bf5e","system_id":"levelo_inurba_marseille","lat":43.292311,"lon":5.360731,"is_reserved":false,"is_disabled":false,"rental_uris":{"android":"levelo://app?vid=39d10db8-138d-4c68-8038-c7c6e7b3bf5e","ios":"levelo://app?vid=39d10db8-138d-4c68-8038-c7c6e7b3bf5e"},"vehicle_type_id":"4","last_reported":1704784080,"current_range_meters":24400,"station_id":"ce4bhbh2rcd13ifvqeqg","pricing_plan_id":"free"},{"bike_id":"c410229f-cc71-4b77-a8d7-95f14030634c","system_id":"levelo_inurba_marseille","lat":43.305994,"lon":5.393687,"is_reserved":false,"is_disabled":false,"rental_uris":{"android":"levelo://app?vid=c410229f-cc71-4b77-a8d7-95f14030634c","ios":"levelo://app?vid=c410229f-cc71-4b77-a8d7-95f14030634c"},"vehicle_type_id":"4","last_reported":1704784080,"current_range_meters":15600,"station_id":"ce4bh0p2rcd13ifvqd80","pricing_plan_id":"free"},{"bike_id":"f615f4b2-529b-4326-a5d3-b84fbb4d5a8d","system_id":"levelo_inurba_marseille","lat":43.291994,"lon":5.357886,"is_reserved":false,"is_disabled":false,"rental_uris":{"android":"levelo://app?vid=f615f4b2-529b-4326-a5d3-b84fbb4d5a8d","ios":"levelo://app?vid=f615f4b2-529b-4326-a5d3-b84fbb4d5a8d"},"vehicle_type_id":"4","last_reported":1704784080,"current_range_meters":15200,"station_id":"ce4bhb12rcd13ifvqel0","pricing_plan_id":"free"},{"bike_id":"fc8a7057-d517-4e9b-8f55-36ef2e3c3f11","system_id":"levelo_inurba_marseille","lat":43.313291,"lon":5.396838,"is_reserved":false,"is_disabled":false,"rental_uris":{"android":"levelo://app?vid=fc8a7057-d517-4e9b-8f55-36ef2e3c3f11","ios":"levelo://app?vid=fc8a7057-d517-4e9b-8f55-36ef2e3c3f11"},"vehicle_type_id":"4","last_reported":1704784080,"current_range_meters":31600,"station_id":"ce4bgvp2rcd13ifvqcu0","pricing_plan_id":"free"},{"bike_id":"678e9ccd-a5ca-43c9-b503-b9724d035043","system_id":"levelo_inurba_marseille","lat":43.313291,"lon":5.396838,"is_reserved":false,"is_disabled":false,"rental_uris":{"android":"levelo://app?vid=678e9ccd-a5ca-43c9-b503-b9724d035043","ios":"levelo://app?vid=678e9ccd-a5ca-43c9-b503-b9724d035043"},"vehicle_type_id":"4","last_reported":1704784080,"current_range_meters":28400,"station_id":"ce4bgvp2rcd13ifvqcu0","pricing_plan_id":"free"},{"bike_id":"5263ba41-63d9-487d-a9af-32c2c67e4335","system_id":"levelo_inurba_marseille","lat":43.313291,"lon":5.396838,"is_reserved":false,"is_disabled":false,"rental_uris":{"android":"levelo://app?vid=5263ba41-63d9-487d-a9af-32c2c67e4335","ios":"levelo://app?vid=5263ba41-63d9-487d-a9af-32c2c67e4335"},"vehicle_type_id":"4","last_reported":1704784080,"current_range_meters":31200,"station_id":"ce4bgvp2rcd13ifvqcu0","pricing_plan_id":"free"},{"bike_id":"524e2104-ee4f-4c16-8a56-dff01dba7cad","system_id":"levelo_inurba_marseille","lat":43.313291,"lon":5.396838,"is_reserved":false,"is_disabled":false,"rental_uris":{"android":"levelo://app?vid=524e2104-ee4f-4c16-8a56-dff01dba7cad","ios":"levelo://app?vid=524e2104-ee4f-4c16-8a56-dff01dba7cad"},"vehicle_type_id":"4","last_reported":1704784080,"current_range_meters":30800,"station_id":"ce4bgvp2rcd13ifvqcu0","pricing_plan_id":"free"},{"bike_id":"5f453d16-f5c5-484b-b6e4-307ac5fe1fe5","system_id":"levelo_inurba_marseille","lat":43.313291,"lon":5.396838,"is_reserved":false,"is_disabled":false,"rental_uris":{"android":"levelo://app?vid=5f453d16-f5c5-484b-b6e4-307ac5fe1fe5","ios":"levelo://app?vid=5f453d16-f5c5-484b-b6e4-307ac5fe1fe5"},"vehicle_type_id":"4","last_reported":1704784080,"current_range_meters":11200,"station_id":"ce4bgvp2rcd13ifvqcu0","pricing_plan_id":"free"},{"bike_id":"cba76931-6221-420a-add0-61fd2fcba881","system_id":"levelo_inurba_marseille","lat":43.313291,"lon":5.396838,"is_reserved":false,"is_disabled":false,"rental_uris":{"android":"levelo://app?vid=cba76931-6221-420a-add0-61fd2fcba881","ios":"levelo://app?vid=cba76931-6221-420a-add0-61fd2fcba881"},"vehicle_type_id":"4","last_reported":1704784080,"current_range_meters":29200,"station_id":"ce4bgvp2rcd13ifvqcu0","pricing_plan_id":"free"},{"bike_id":"6692c4be-42e0-4541-8f82-0dbf6680e12d","system_id":"levelo_inurba_marseille","lat":43.313291,"lon":5.396838,"is_reserved":false,"is_disabled":false,"rental_uris":{"android":"levelo://app?vid=6692c4be-42e0-4541-8f82-0dbf6680e12d","ios":"levelo://app?vid=6692c4be-42e0-4541-8f82-0dbf6680e12d"},"vehicle_type_id":"4","last_reported":1704784080,"current_range_meters":31600,"station_id":"ce4bgvp2rcd13ifvqcu0","pricing_plan_id":"free"},{"bike_id":"0494dfed-d160-439a-9daa-9d5a5c1dd464","system_id":"levelo_inurba_marseille","lat":43.313556,"lon":5.397914,"is_reserved":false,"is_disabled":false,"rental_uris":{"android":"levelo://app?vid=0494dfed-d160-439a-9daa-9d5a5c1dd464","ios":"levelo://app?vid=0494dfed-d160-439a-9daa-9d5a5c1dd464"},"vehicle_type_id":"4","last_reported":1704784080,"current_range_meters":13200,"station_id":"","pricing_plan_id":"free"},{"bike_id":"3ee6a838-ad9f-4757-9e79-8ecbdc2ff805","system_id":"levelo_inurba_marseille","lat":43.30217,"lon":5.39459,"is_reserved":false,"is_disabled":false,"rental_uris":{"android":"levelo://app?vid=3ee6a838-ad9f-4757-9e79-8ecbdc2ff805","ios":"levelo://app?vid=3ee6a838-ad9f-4757-9e79-8ecbdc2ff805"},"vehicle_type_id":"4","last_reported":1704784080,"current_range_meters":28800,"station_id":"ce4bh0p2rcd13ifvqd70","pricing_plan_id":"free"},{"bike_id":"a858e028-1aa7-4253-a42b-1734bfeb4c99","system_id":"levelo_inurba_marseille","lat":43.302008,"lon":5.394694,"is_reserved":false,"is_disabled":false,"rental_uris":{"android":"levelo://app?vid=a858e028-1aa7-4253-a42b-1734bfeb4c99","ios":"levelo://app?vid=a858e028-1aa7-4253-a42b-1734bfeb4c99"},"vehicle_type_id":"4","last_reported":1704784080,"current_range_meters":26400,"station_id":"ce4bh0p2rcd13ifvqd70","pricing_plan_id":"free"},{"bike_id":"70822fb7-a0f2-4826-960e-eb794440fe7f","system_id":"levelo_inurba_marseille","lat":43.290624,"lon":5.359245,"is_reserved":false,"is_disabled":false,"rental_uris":{"android":"levelo://app?vid=70822fb7-a0f2-4826-960e-eb794440fe7f","ios":"levelo://app?vid=70822fb7-a0f2-4826-960e-eb794440fe7f"},"vehicle_type_id":"4","last_reported":1704784080,"current_range_meters":28800,"station_id":"ce4bha92rcd13ifvqeg0","pricing_plan_id":"free"},{"bike_id":"c7a814e8-b429-4116-be40-7b1dc14c60e0","system_id":"levelo_inurba_marseille","lat":43.290624,"lon":5.359245,"is_reserved":false,"is_disabled":false,"rental_uris":{"android":"levelo://app?vid=c7a814e8-b429-4116-be40-7b1dc14c60e0","ios":"levelo://app?vid=c7a814e8-b429-4116-be40-7b1dc14c60e0"},"vehicle_type_id":"4","last_reported":1704784080,"current_range_meters":31200,"station_id":"ce4bha92rcd13ifvqeg0","pricing_plan_id":"free"},{"bike_id":"431135a8-232c-4ff2-8ba6-0fe8e46bc386","system_id":"levelo_inurba_marseille","lat":43.290624,"lon":5.359245,"is_reserved":false,"is_disabled":false,"rental_uris":{"android":"levelo://app?vid=431135a8-232c-4ff2-8ba6-0fe8e46bc386","ios":"levelo://app?vid=431135a8-232c-4ff2-8ba6-0fe8e46bc386"},"vehicle_type_id":"4","last_reported":1704784080,"current_range_meters":29200,"station_id":"ce4bha92rcd13ifvqeg0","pricing_plan_id":"free"},{"bike_id":"8b01444c-9c9b-47ed-b628-f3569ee25fc2","system_id":"levelo_inurba_marseille","lat":43.290624,"lon":5.359245,"is_reserved":false,"is_disabled":false,"rental_uris":{"android":"levelo://app?vid=8b01444c-9c9b-47ed-b628-f3569ee25fc2","ios":"levelo://app?vid=8b01444c-9c9b-47ed-b628-f3569ee25fc2"},"vehicle_type_id":"4","last_reported":1704784080,"current_range_meters":29200,"station_id":"ce4bha92rcd13ifvqeg0","pricing_plan_id":"free"},{"bike_id":"d4572f6f-3a6a-4eca-98cc-84a23652697d","system_id":"levelo_inurba_marseille","lat":43.290631,"lon":5.359244,"is_reserved":false,"is_disabled":false,"rental_uris":{"android":"levelo://app?vid=d4572f6f-3a6a-4eca-98cc-84a23652697d","ios":"levelo://app?vid=d4572f6f-3a6a-4eca-98cc-84a23652697d"},"vehicle_type_id":"4","last_reported":1704784080,"current_range_meters":22800,"station_id":"ce4bha92rcd13ifvqeg0","pricing_plan_id":"free"},{"bike_id":"e969aef5-4092-485c-a64f-e58278bed74c","system_id":"levelo_inurba_marseille","lat":43.290631,"lon":5.359244,"is_reserved":false,"is_disabled":false,"rental_uris":{"android":"levelo://app?vid=e969aef5-4092-485c-a64f-e58278bed74c","ios":"levelo://app?vid=e969aef5-4092-485c-a64f-e58278bed74c"},"vehicle_type_id":"4","last_reported":1704784080,"current_range_meters":31600,"station_id":"ce4bha92rcd13ifvqeg0","pricing_plan_id":"free"},{"bike_id":"aa5a9638-118b-43f4-ace9-de37c5be3132","system_id":"levelo_inurba_marseille","lat":43.294153,"lon":5.386305,"is_reserved":false,"is_disabled":false,"rental_uris":{"android":"levelo://app?vid=aa5a9638-118b-43f4-ace9-de37c5be3132","ios":"levelo://app?vid=aa5a9638-118b-43f4-ace9-de37c5be3132"},"vehicle_type_id":"4","last_reported":1704784080,"current_range_meters":26400,"station_id":"ce4bh2h2rcd13ifvqdh0","pricing_plan_id":"free"},{"bike_id":"09c76fb1-edea-46e7-984f-66e974b73228","system_id":"levelo_inurba_marseille","lat":43.289184,"lon":5.366408,"is_reserved":false,"is_disabled":false,"rental_uris":{"android":"levelo://app?vid=09c76fb1-edea-46e7-984f-66e974b73228","ios":"levelo://app?vid=09c76fb1-edea-46e7-984f-66e974b73228"},"vehicle_type_id":"4","last_reported":1704784080,"current_range_meters":15200,"station_id":"ce4bhap2rcd13ifvqek0","pricing_plan_id":"free"},{"bike_id":"cacf9f71-fa9a-402b-8a0d-848cb50644ac","system_id":"levelo_inurba_marseille","lat":43.290375,"lon":5.375938,"is_reserved":false,"is_disabled":false,"rental_uris":{"android":"levelo://app?vid=cacf9f71-fa9a-402b-8a0d-848cb50644ac","ios":"levelo://app?vid=cacf9f71-fa9a-402b-8a0d-848cb50644ac"},"vehicle_type_id":"4","last_reported":1704784080,"current_range_meters":2800,"station_id":"","pricing_plan_id":"free"},{"bike_id":"46ef912f-48e1-4bc4-a3f7-d38fb058d1f4","system_id":"levelo_inurba_marseille","lat":43.289184,"lon":5.366408,"is_reserved":false,"is_disabled":false,"rental_uris":{"android":"levelo://app?vid=46ef912f-48e1-4bc4-a3f7-d38fb058d1f4","ios":"levelo://app?vid=46ef912f-48e1-4bc4-a3f7-d38fb058d1f4"},"vehicle_type_id":"4","last_reported":1704784080,"current_range_meters":12800,"station_id":"ce4bhap2rcd13ifvqek0","pricing_plan_id":"free"},{"bike_id":"d72dfe98-c838-4cf9-a4e5-d6e50a8604be","system_id":"levelo_inurba_marseille","lat":43.289184,"lon":5.366408,"is_reserved":false,"is_disabled":false,"rental_uris":{"android":"levelo://app?vid=d72dfe98-c838-4cf9-a4e5-d6e50a8604be","ios":"levelo://app?vid=d72dfe98-c838-4cf9-a4e5-d6e50a8604be"},"vehicle_type_id":"4","last_reported":1704784080,"current_range_meters":27600,"station_id":"ce4bhap2rcd13ifvqek0","pricing_plan_id":"free"},{"bike_id":"053bfa9e-cea1-4051-ba5b-1e2a395c0465","system_id":"levelo_inurba_marseille","lat":43.289184,"lon":5.366408,"is_reserved":false,"is_disabled":false,"rental_uris":{"android":"levelo://app?vid=053bfa9e-cea1-4051-ba5b-1e2a395c0465","ios":"levelo://app?vid=053bfa9e-cea1-4051-ba5b-1e2a395c0465"},"vehicle_type_id":"4","last_reported":1704784080,"current_range_meters":20400,"station_id":"ce4bhap2rcd13ifvqek0","pricing_plan_id":"free"},{"bike_id":"5cc41917-9532-4c1f-b8e3-d6b99f3587da","system_id":"levelo_inurba_marseille","lat":43.289468,"lon":5.363719,"is_reserved":false,"is_disabled":false,"rental_uris":{"android":"levelo://app?vid=5cc41917-9532-4c1f-b8e3-d6b99f3587da","ios":"levelo://app?vid=5cc41917-9532-4c1f-b8e3-d6b99f3587da"},"vehicle_type_id":"4","last_reported":1704784080,"current_range_meters":31600,"station_id":"ce4bhc92rcd13ifvqetg","pricing_plan_id":"free"},{"bike_id":"f708be72-f6c3-43cd-83e3-1152d1e8e02a","system_id":"levelo_inurba_marseille","lat":43.289468,"lon":5.363719,"is_reserved":false,"is_disabled":false,"rental_uris":{"android":"levelo://app?vid=f708be72-f6c3-43cd-83e3-1152d1e8e02a","ios":"levelo://app?vid=f708be72-f6c3-43cd-83e3-1152d1e8e02a"},"vehicle_type_id":"4","last_reported":1704784080,"current_range_meters":31600,"station_id":"ce4bhc92rcd13ifvqetg","pricing_plan_id":"free"},{"bike_id":"59f5fb42-4071-430b-a78c-1e916f28dca5","system_id":"levelo_inurba_marseille","lat":43.304296,"lon":5.397513,"is_reserved":false,"is_disabled":false,"rental_uris":{"android":"levelo://app?vid=59f5fb42-4071-430b-a78c-1e916f28dca5","ios":"levelo://app?vid=59f5fb42-4071-430b-a78c-1e916f28dca5"},"vehicle_type_id":"4","last_reported":1704784080,"current_range_meters":28800,"station_id":"ce4bh092rcd13ifvqd20","pricing_plan_id":"free"},{"bike_id":"b2e376fa-da51-4c42-b82c-c730d5e3eed3","system_id":"levelo_inurba_marseille","lat":43.290103,"lon":5.356114,"is_reserved":false,"is_disabled":false,"rental_uris":{"android":"levelo://app?vid=b2e376fa-da51-4c42-b82c-c730d5e3eed3","ios":"levelo://app?vid=b2e376fa-da51-4c42-b82c-c730d5e3eed3"},"vehicle_type_id":"4","last_reported":1704784080,"current_range_meters":28400,"station_id":"ce4bhb92rcd13ifvqen0","pricing_plan_id":"free"},{"bike_id":"dc87805b-f5d1-4dfa-816d-b23a1d1a5120","system_id":"levelo_inurba_marseille","lat":43.290104,"lon":5.356111,"is_reserved":false,"is_disabled":false,"rental_uris":{"android":"levelo://app?vid=dc87805b-f5d1-4dfa-816d-b23a1d1a5120","ios":"levelo://app?vid=dc87805b-f5d1-4dfa-816d-b23a1d1a5120"},"vehicle_type_id":"4","last_reported":1704784080,"current_range_meters":12400,"station_id":"ce4bhb92rcd13ifvqen0","pricing_plan_id":"free"},{"bike_id":"8386313e-f723-4427-86d2-958d58402d21","system_id":"levelo_inurba_marseille","lat":43.290104,"lon":5.356111,"is_reserved":false,"is_disabled":false,"rental_uris":{"android":"levelo://app?vid=8386313e-f723-4427-86d2-958d58402d21","ios":"levelo://app?vid=8386313e-f723-4427-86d2-958d58402d21"},"vehicle_type_id":"4","last_reported":1704784080,"current_range_meters":22800,"station_id":"ce4bhb92rcd13ifvqen0","pricing_plan_id":"free"},{"bike_id":"99a1bcb5-3c81-4d66-b7d0-652b54436f25","system_id":"levelo_inurba_marseille","lat":43.290995,"lon":5.381361,"is_reserved":false,"is_disabled":false,"rental_uris":{"android":"levelo://app?vid=99a1bcb5-3c81-4d66-b7d0-652b54436f25","ios":"levelo://app?vid=99a1bcb5-3c81-4d66-b7d0-652b54436f25"},"vehicle_type_id":"4","last_reported":1704784080,"current_range_meters":30000,"station_id":"ce4bh512rcd13ifvqe2g","pricing_plan_id":"free"},{"bike_id":"2d319910-660a-4c21-9d29-08f2a429d596","system_id":"levelo_inurba_marseille","lat":43.289743,"lon":5.378304,"is_reserved":false,"is_disabled":false,"rental_uris":{"android":"levelo://app?vid=2d319910-660a-4c21-9d29-08f2a429d596","ios":"levelo://app?vid=2d319910-660a-4c21-9d29-08f2a429d596"},"vehicle_type_id":"4","last_reported":1704784080,"current_range_meters":18400,"station_id":"ce4bh9p2rcd13ifvqed0","pricing_plan_id":"free"},{"bike_id":"00c26840-c7d1-4b9b-9cb7-b2e0b410f834","system_id":"levelo_inurba_marseille","lat":43.330442,"lon":5.389148,"is_reserved":false,"is_disabled":false,"rental_uris":{"android":"levelo://app?vid=00c26840-c7d1-4b9b-9cb7-b2e0b410f834","ios":"levelo://app?vid=00c26840-c7d1-4b9b-9cb7-b2e0b410f834"},"vehicle_type_id":"4","last_reported":1704784080,"current_range_meters":30000,"station_id":"ce4bhr92rcd13ifvqhrg","pricing_plan_id":"free"},{"bike_id":"3567c53e-3bfc-4602-90f0-e1d68d621474","system_id":"levelo_inurba_marseille","lat":43.330442,"lon":5.389148,"is_reserved":false,"is_disabled":false,"rental_uris":{"android":"levelo://app?vid=3567c53e-3bfc-4602-90f0-e1d68d621474","ios":"levelo://app?vid=3567c53e-3bfc-4602-90f0-e1d68d621474"},"vehicle_type_id":"4","last_reported":1704784080,"current_range_meters":11200,"station_id":"ce4bhr92rcd13ifvqhrg","pricing_plan_id":"free"},{"bike_id":"ccb0780b-5c08-45fa-a309-7e1cde3a3ee8","system_id":"levelo_inurba_marseille","lat":43.295169,"lon":5.390426,"is_reserved":false,"is_disabled":false,"rental_uris":{"android":"levelo://app?vid=ccb0780b-5c08-45fa-a309-7e1cde3a3ee8","ios":"levelo://app?vid=ccb0780b-5c08-45fa-a309-7e1cde3a3ee8"},"vehicle_type_id":"4","last_reported":1704784080,"current_range_meters":20800,"station_id":"ce4bh3p2rcd13ifvqdp0","pricing_plan_id":"free"},{"bike_id":"b4b1d330-9cae-432f-bbe4-7ca5957c66dd","system_id":"levelo_inurba_marseille","lat":43.330442,"lon":5.389148,"is_reserved":false,"is_disabled":false,"rental_uris":{"android":"levelo://app?vid=b4b1d330-9cae-432f-bbe4-7ca5957c66dd","ios":"levelo://app?vid=b4b1d330-9cae-432f-bbe4-7ca5957c66dd"},"vehicle_type_id":"4","last_reported":1704784080,"current_range_meters":24400,"station_id":"ce4bhr92rcd13ifvqhrg","pricing_plan_id":"free"},{"bike_id":"29877edf-f914-4818-a395-be7aee9e9d72","system_id":"levelo_inurba_marseille","lat":43.330442,"lon":5.389148,"is_reserved":false,"is_disabled":false,"rental_uris":{"android":"levelo://app?vid=29877edf-f914-4818-a395-be7aee9e9d72","ios":"levelo://app?vid=29877edf-f914-4818-a395-be7aee9e9d72"},"vehicle_type_id":"4","last_reported":1704784080,"current_range_meters":7200,"station_id":"ce4bhr92rcd13ifvqhrg","pricing_plan_id":"free"},{"bike_id":"8625464e-66d0-4621-bd34-1a2874fb7a19","system_id":"levelo_inurba_marseille","lat":43.330442,"lon":5.389148,"is_reserved":false,"is_disabled":false,"rental_uris":{"android":"levelo://app?vid=8625464e-66d0-4621-bd34-1a2874fb7a19","ios":"levelo://app?vid=8625464e-66d0-4621-bd34-1a2874fb7a19"},"vehicle_type_id":"4","last_reported":1704784080,"current_range_meters":24800,"station_id":"ce4bhr92rcd13ifvqhrg","pricing_plan_id":"free"},{"bike_id":"604d70e1-4bfc-4c1a-ad50-5c45b428d61e","system_id":"levelo_inurba_marseille","lat":43.330442,"lon":5.389148,"is_reserved":false,"is_disabled":false,"rental_uris":{"android":"levelo://app?vid=604d70e1-4bfc-4c1a-ad50-5c45b428d61e","ios":"levelo://app?vid=604d70e1-4bfc-4c1a-ad50-5c45b428d61e"},"vehicle_type_id":"4","last_reported":1704784080,"current_range_meters":10400,"station_id":"ce4bhr92rcd13ifvqhrg","pricing_plan_id":"free"},{"bike_id":"53c312d1-ce31-4355-93cb-e00cb4a0e9e3","system_id":"levelo_inurba_marseille","lat":43.330442,"lon":5.389148,"is_reserved":false,"is_disabled":false,"rental_uris":{"android":"levelo://app?vid=53c312d1-ce31-4355-93cb-e00cb4a0e9e3","ios":"levelo://app?vid=53c312d1-ce31-4355-93cb-e00cb4a0e9e3"},"vehicle_type_id":"4","last_reported":1704784080,"current_range_meters":14400,"station_id":"ce4bhr92rcd13ifvqhrg","pricing_plan_id":"free"},{"bike_id":"687483ff-386a-4838-8f4e-2365f38f0b96","system_id":"levelo_inurba_marseille","lat":43.330442,"lon":5.389148,"is_reserved":false,"is_disabled":false,"rental_uris":{"android":"levelo://app?vid=687483ff-386a-4838-8f4e-2365f38f0b96","ios":"levelo://app?vid=687483ff-386a-4838-8f4e-2365f38f0b96"},"vehicle_type_id":"4","last_reported":1704784080,"current_range_meters":21200,"station_id":"ce4bhr92rcd13ifvqhrg","pricing_plan_id":"free"},{"bike_id":"205ccfb5-ee01-46a6-b139-b10fcbbe206d","system_id":"levelo_inurba_marseille","lat":43.330442,"lon":5.389148,"is_reserved":false,"is_disabled":false,"rental_uris":{"android":"levelo://app?vid=205ccfb5-ee01-46a6-b139-b10fcbbe206d","ios":"levelo://app?vid=205ccfb5-ee01-46a6-b139-b10fcbbe206d"},"vehicle_type_id":"4","last_reported":1704784080,"current_range_meters":5200,"station_id":"ce4bhr92rcd13ifvqhrg","pricing_plan_id":"free"},{"bike_id":"7c7a6206-545f-4749-ace7-a0c9f17d3062","system_id":"levelo_inurba_marseille","lat":43.330442,"lon":5.389148,"is_reserved":false,"is_disabled":false,"rental_uris":{"android":"levelo://app?vid=7c7a6206-545f-4749-ace7-a0c9f17d3062","ios":"levelo://app?vid=7c7a6206-545f-4749-ace7-a0c9f17d3062"},"vehicle_type_id":"4","last_reported":1704784080,"current_range_meters":5200,"station_id":"ce4bhr92rcd13ifvqhrg","pricing_plan_id":"free"},{"bike_id":"be414bdc-7c97-4653-8ce5-f41901aa05ba","system_id":"levelo_inurba_marseille","lat":43.289743,"lon":5.378304,"is_reserved":false,"is_disabled":false,"rental_uris":{"android":"levelo://app?vid=be414bdc-7c97-4653-8ce5-f41901aa05ba","ios":"levelo://app?vid=be414bdc-7c97-4653-8ce5-f41901aa05ba"},"vehicle_type_id":"4","last_reported":1704784080,"current_range_meters":15200,"station_id":"ce4bh9p2rcd13ifvqed0","pricing_plan_id":"free"},{"bike_id":"3fe3d99a-ff43-4ed0-9a46-6ba5840a9a7b","system_id":"levelo_inurba_marseille","lat":43.289741,"lon":5.378306,"is_reserved":false,"is_disabled":false,"rental_uris":{"android":"levelo://app?vid=3fe3d99a-ff43-4ed0-9a46-6ba5840a9a7b","ios":"levelo://app?vid=3fe3d99a-ff43-4ed0-9a46-6ba5840a9a7b"},"vehicle_type_id":"4","last_reported":1704784080,"current_range_meters":29600,"station_id":"ce4bh9p2rcd13ifvqed0","pricing_plan_id":"free"},{"bike_id":"ffba7a20-4849-4913-b6dc-ace00d89e2cf","system_id":"levelo_inurba_marseille","lat":43.28856,"lon":5.358371,"is_reserved":false,"is_disabled":false,"rental_uris":{"android":"levelo://app?vid=ffba7a20-4849-4913-b6dc-ace00d89e2cf","ios":"levelo://app?vid=ffba7a20-4849-4913-b6dc-ace00d89e2cf"},"vehicle_type_id":"4","last_reported":1704784080,"current_range_meters":20400,"station_id":"ce4bhb12rcd13ifvqem0","pricing_plan_id":"free"},{"bike_id":"54f3708a-9a49-46f1-bafe-bb86670a8640","system_id":"levelo_inurba_marseille","lat":43.28856,"lon":5.35837,"is_reserved":false,"is_disabled":false,"rental_uris":{"android":"levelo://app?vid=54f3708a-9a49-46f1-bafe-bb86670a8640","ios":"levelo://app?vid=54f3708a-9a49-46f1-bafe-bb86670a8640"},"vehicle_type_id":"4","last_reported":1704784080,"current_range_meters":0,"station_id":"ce4bhb12rcd13ifvqem0","pricing_plan_id":"free"},{"bike_id":"be11ae70-9ea4-48fe-85ca-08ed3ba1e8c9","system_id":"levelo_inurba_marseille","lat":43.28856,"lon":5.358371,"is_reserved":false,"is_disabled":false,"rental_uris":{"android":"levelo://app?vid=be11ae70-9ea4-48fe-85ca-08ed3ba1e8c9","ios":"levelo://app?vid=be11ae70-9ea4-48fe-85ca-08ed3ba1e8c9"},"vehicle_type_id":"4","last_reported":1704784080,"current_range_meters":16400,"station_id":"ce4bhb12rcd13ifvqem0","pricing_plan_id":"free"},{"bike_id":"0e28b055-3c54-4393-8d16-3ae70cd7d7fe","system_id":"levelo_inurba_marseille","lat":43.28856,"lon":5.358371,"is_reserved":false,"is_disabled":false,"rental_uris":{"android":"levelo://app?vid=0e28b055-3c54-4393-8d16-3ae70cd7d7fe","ios":"levelo://app?vid=0e28b055-3c54-4393-8d16-3ae70cd7d7fe"},"vehicle_type_id":"4","last_reported":1704784080,"current_range_meters":18000,"station_id":"ce4bhb12rcd13ifvqem0","pricing_plan_id":"free"},{"bike_id":"746e927b-9c34-4d9c-8664-f34ad4cfb8f2","system_id":"levelo_inurba_marseille","lat":43.28856,"lon":5.358371,"is_reserved":false,"is_disabled":false,"rental_uris":{"android":"levelo://app?vid=746e927b-9c34-4d9c-8664-f34ad4cfb8f2","ios":"levelo://app?vid=746e927b-9c34-4d9c-8664-f34ad4cfb8f2"},"vehicle_type_id":"4","last_reported":1704784080,"current_range_meters":29200,"station_id":"ce4bhb12rcd13ifvqem0","pricing_plan_id":"free"},{"bike_id":"9405a02c-1e42-49cb-8e9e-96fd19074351","system_id":"levelo_inurba_marseille","lat":43.288506,"lon":5.358429,"is_reserved":false,"is_disabled":false,"rental_uris":{"android":"levelo://app?vid=9405a02c-1e42-49cb-8e9e-96fd19074351","ios":"levelo://app?vid=9405a02c-1e42-49cb-8e9e-96fd19074351"},"vehicle_type_id":"4","last_reported":1704784080,"current_range_meters":21600,"station_id":"ce4bhb12rcd13ifvqem0","pricing_plan_id":"free"},{"bike_id":"5e08adf7-e2f2-4faf-b169-f71fe4b1d400","system_id":"levelo_inurba_marseille","lat":43.28856,"lon":5.358371,"is_reserved":false,"is_disabled":false,"rental_uris":{"android":"levelo://app?vid=5e08adf7-e2f2-4faf-b169-f71fe4b1d400","ios":"levelo://app?vid=5e08adf7-e2f2-4faf-b169-f71fe4b1d400"},"vehicle_type_id":"4","last_reported":1704784080,"current_range_meters":26800,"station_id":"ce4bhb12rcd13ifvqem0","pricing_plan_id":"free"},{"bike_id":"67b60803-ffdf-457b-b0ad-7478768c28dd","system_id":"levelo_inurba_marseille","lat":43.288467,"lon":5.358463,"is_reserved":false,"is_disabled":false,"rental_uris":{"android":"levelo://app?vid=67b60803-ffdf-457b-b0ad-7478768c28dd","ios":"levelo://app?vid=67b60803-ffdf-457b-b0ad-7478768c28dd"},"vehicle_type_id":"4","last_reported":1704784080,"current_range_meters":7600,"station_id":"ce4bhb12rcd13ifvqem0","pricing_plan_id":"free"},{"bike_id":"84a0f5ed-bda1-447a-981d-af861bde6500","system_id":"levelo_inurba_marseille","lat":43.28856,"lon":5.358371,"is_reserved":false,"is_disabled":false,"rental_uris":{"android":"levelo://app?vid=84a0f5ed-bda1-447a-981d-af861bde6500","ios":"levelo://app?vid=84a0f5ed-bda1-447a-981d-af861bde6500"},"vehicle_type_id":"4","last_reported":1704784080,"current_range_meters":29600,"station_id":"ce4bhb12rcd13ifvqem0","pricing_plan_id":"free"},{"bike_id":"05700fda-c810-4b30-8b7e-4f0148ef7576","system_id":"levelo_inurba_marseille","lat":43.337413,"lon":5.374403,"is_reserved":false,"is_disabled":false,"rental_uris":{"android":"levelo://app?vid=05700fda-c810-4b30-8b7e-4f0148ef7576","ios":"levelo://app?vid=05700fda-c810-4b30-8b7e-4f0148ef7576"},"vehicle_type_id":"4","last_reported":1704784080,"current_range_meters":30800,"station_id":"","pricing_plan_id":"free"},{"bike_id":"1c3c0dca-5937-4bbe-9bbb-83e69bf19098","system_id":"levelo_inurba_marseille","lat":43.312609,"lon":5.401662,"is_reserved":false,"is_disabled":false,"rental_uris":{"android":"levelo://app?vid=1c3c0dca-5937-4bbe-9bbb-83e69bf19098","ios":"levelo://app?vid=1c3c0dca-5937-4bbe-9bbb-83e69bf19098"},"vehicle_type_id":"4","last_reported":1704784080,"current_range_meters":16000,"station_id":"ce4bh092rcd13ifvqd30","pricing_plan_id":"free"},{"bike_id":"83c9568d-ea6d-4279-a25b-455feb33a045","system_id":"levelo_inurba_marseille","lat":43.337583,"lon":5.374707,"is_reserved":false,"is_disabled":false,"rental_uris":{"android":"levelo://app?vid=83c9568d-ea6d-4279-a25b-455feb33a045","ios":"levelo://app?vid=83c9568d-ea6d-4279-a25b-455feb33a045"},"vehicle_type_id":"4","last_reported":1704784080,"current_range_meters":30000,"station_id":"","pricing_plan_id":"free"},{"bike_id":"7683b449-82d1-42c7-a0fd-74f7ddce6822","system_id":"levelo_inurba_marseille","lat":43.28727,"lon":5.36078,"is_reserved":false,"is_disabled":false,"rental_uris":{"android":"levelo://app?vid=7683b449-82d1-42c7-a0fd-74f7ddce6822","ios":"levelo://app?vid=7683b449-82d1-42c7-a0fd-74f7ddce6822"},"vehicle_type_id":"4","last_reported":1704784080,"current_range_meters":28800,"station_id":"cki0cbj6b192h4jlfktg","pricing_plan_id":"free"},{"bike_id":"adcae43a-7f9c-4165-b909-3759dab7de39","system_id":"levelo_inurba_marseille","lat":43.28727,"lon":5.36078,"is_reserved":false,"is_disabled":false,"rental_uris":{"android":"levelo://app?vid=adcae43a-7f9c-4165-b909-3759dab7de39","ios":"levelo://app?vid=adcae43a-7f9c-4165-b909-3759dab7de39"},"vehicle_type_id":"4","last_reported":1704784080,"current_range_meters":30400,"station_id":"cki0cbj6b192h4jlfktg","pricing_plan_id":"free"},{"bike_id":"073a713e-54b5-4216-af9d-0bad8862cb5e","system_id":"levelo_inurba_marseille","lat":43.28727,"lon":5.36078,"is_reserved":false,"is_disabled":false,"rental_uris":{"android":"levelo://app?vid=073a713e-54b5-4216-af9d-0bad8862cb5e","ios":"levelo://app?vid=073a713e-54b5-4216-af9d-0bad8862cb5e"},"vehicle_type_id":"4","last_reported":1704784080,"current_range_meters":30000,"station_id":"cki0cbj6b192h4jlfktg","pricing_plan_id":"free"},{"bike_id":"5eeb626e-00cf-4ea8-a152-125de7b8be07","system_id":"levelo_inurba_marseille","lat":43.28727,"lon":5.36078,"is_reserved":false,"is_disabled":false,"rental_uris":{"android":"levelo://app?vid=5eeb626e-00cf-4ea8-a152-125de7b8be07","ios":"levelo://app?vid=5eeb626e-00cf-4ea8-a152-125de7b8be07"},"vehicle_type_id":"4","last_reported":1704784080,"current_range_meters":26800,"station_id":"cki0cbj6b192h4jlfktg","pricing_plan_id":"free"},{"bike_id":"de3dc654-7a55-4ab1-a4de-2fae7b738faa","system_id":"levelo_inurba_marseille","lat":43.28726,"lon":5.36081,"is_reserved":false,"is_disabled":false,"rental_uris":{"android":"levelo://app?vid=de3dc654-7a55-4ab1-a4de-2fae7b738faa","ios":"levelo://app?vid=de3dc654-7a55-4ab1-a4de-2fae7b738faa"},"vehicle_type_id":"4","last_reported":1704784080,"current_range_meters":20000,"station_id":"cki0cbj6b192h4jlfktg","pricing_plan_id":"free"},{"bike_id":"8d898893-35ed-4ae7-a098-63bcf02ef3bf","system_id":"levelo_inurba_marseille","lat":43.28727,"lon":5.36078,"is_reserved":false,"is_disabled":false,"rental_uris":{"android":"levelo://app?vid=8d898893-35ed-4ae7-a098-63bcf02ef3bf","ios":"levelo://app?vid=8d898893-35ed-4ae7-a098-63bcf02ef3bf"},"vehicle_type_id":"4","last_reported":1704784080,"current_range_meters":30000,"station_id":"cki0cbj6b192h4jlfktg","pricing_plan_id":"free"},{"bike_id":"555448be-ed1b-423f-bec9-1566f80b6207","system_id":"levelo_inurba_marseille","lat":43.287236,"lon":5.360799,"is_reserved":false,"is_disabled":false,"rental_uris":{"android":"levelo://app?vid=555448be-ed1b-423f-bec9-1566f80b6207","ios":"levelo://app?vid=555448be-ed1b-423f-bec9-1566f80b6207"},"vehicle_type_id":"4","last_reported":1704784080,"current_range_meters":23600,"station_id":"cki0cbj6b192h4jlfktg","pricing_plan_id":"free"},{"bike_id":"049f36cc-6093-4bb4-aa08-f83920a8d57e","system_id":"levelo_inurba_marseille","lat":43.28724,"lon":5.36073,"is_reserved":false,"is_disabled":false,"rental_uris":{"android":"levelo://app?vid=049f36cc-6093-4bb4-aa08-f83920a8d57e","ios":"levelo://app?vid=049f36cc-6093-4bb4-aa08-f83920a8d57e"},"vehicle_type_id":"4","last_reported":1704784080,"current_range_meters":28800,"station_id":"cki0cbj6b192h4jlfktg","pricing_plan_id":"free"},