{"last_updated":1708027552,"ttl":30,"version":"2.2","data":{"bikes":[{"bike_id":"57cc7846-7a3e-4761-a4fb-e541da702903","system_id":"levelo_inurba_marseille","lat":43.31341,"lon":5.367098,"is_reserved":false,"is_disabled":false,"rental_uris":{"android":"levelo://app?vid=57cc7846-7a3e-4761-a4fb-e541da702903","ios":"levelo://app?vid=57cc7846-7a3e-4761-a4fb-e541da702903"},"vehicle_type_id":"4","last_reported":1708027552,"current_range_meters":0,"station_id":"ce4bgr92rcd13ifvqc6g","pricing_plan_id":"cebpf4jnsgd1na2vs0mg"},{"bike_id":"44259d77-093b-4e71-b1ad-5db35f1a229e","system_id":"levelo_inurba_marseille","lat":43.312239,"lon":5.368562,"is_reserved":false,"is_disabled":false,"rental_uris":{"android":"levelo://app?vid=44259d77-093b-4e71-b1ad-5db35f1a229e","ios":"levelo://app?vid=44259d77-093b-4e71-b1ad-5db35f1a229e"},"vehicle_type_id":"4","last_reported":1708027552,"current_range_meters":18800,"station_id":"ce4bgl92rcd13ifvqbq0","pricing_plan_id":"cebpf4jnsgd1na2vs0mg"},{"bike_id":"1886e30f-e37f-4776-b1e7-da3bb096356c","system_id":"levelo_inurba_marseille","lat":43.312239,"lon":5.368562,"is_reserved":false,"is_disabled":false,"rental_uris":{"android":"levelo://app?vid=1886e30f-e37f-4776-b1e7-da3bb096356c","ios":"levelo://app?vid=1886e30f-e37f-4776-b1e7-da3bb096356c"},"vehicle_type_id":"4","last_reported":1708027552,"current_range_meters":15600,"station_id":"ce4bgl92rcd13ifvqbq0","pricing_plan_id":"cebpf4jnsgd1na2vs0mg"},{"bike_id":"d5c03cdd-883d-4f8c-8575-21ce8120f581","system_id":"levelo_inurba_marseille","lat":43.312239,"lon":5.368562,"is_reserved":false,"is_disabled":false,"rental_uris":{"android":"levelo://app?vid=d5c03cdd-883d-4f8c-8575-21ce8120f581","ios":"levelo://app?vid=d5c03cdd-883d-4f8c-8575-21ce8120f581"},"vehicle_type_id":"4","last_reported":1708027552,"current_range_meters":18400,"station_id":"ce4bgl92rcd13ifvqbq0","pricing_plan_id":"cebpf4jnsgd1na2vs0mg"},{"bike_id":"0a0d079e-1b79-4b46-bc11-1a544e06d2f6","system_id":"levelo_inurba_marseille","lat":43.312239,"lon":5.368562,"is_reserved":false,"is_disabled":false,"rental_uris":{"android":"levelo://app?vid=0a0d079e-1b79-4b46-bc11-1a544e06d2f6","ios":"levelo://app?vid=0a0d079e-1b79-4b46-bc11-1a544e06d2f6"},"vehicle_type_id":"4","last_reported":1708027552,"current_range_meters":6400,"station_id":"ce4bgl92rcd13ifvqbq0","pricing_plan_id":"cebpf4jnsgd1na2vs0mg"},{"bike_id":"76037fd0-3cae-401d-8da2-ad03a2d4a793","system_id":"levelo_inurba_marseille","lat":43.30907,"lon":5.36676,"is_reserved":false,"is_disabled":false,"rental_uris":{"android":"levelo://app?vid=76037fd0-3cae-401d-8da2-ad03a2d4a793","ios":"levelo://app?vid=76037fd0-3cae-401d-8da2-ad03a2d4a793"},"vehicle_type_id":"4","last_reported":1708027552,"current_range_meters":0,"station_id":"","pricing_plan_id":"cebpf4jnsgd1na2vs0mg"},{"bike_id":"9a024707-e97a-448a-bc3b-4dc7287febf5","system_id":"levelo_inurba_marseille","lat":43.309076,"lon":5.368465,"is_reserved":false,"is_disabled":false,"rental_uris":{"android":"levelo://app?vid=9a024707-e97a-448a-bc3b-4dc7287febf5","ios":"levelo://app?vid=9a024707-e97a-448a-bc3b-4dc7287febf5"},"vehicle_type_id":"4","last_reported":1708027552,"current_range_meters":18400,"station_id":"ce4bgn92rcd13ifvqbvg","pricing_plan_id":"cebpf4jnsgd1na2vs0mg"},{"bike_id":"b67306fa-d95b-4754-b4be-c4de1138c990","system_id":"levelo_inurba_marseille","lat":43.31073,"lon":5.37256,"is_reserved":false,"is_disabled":false,"rental_uris":{"android":"levelo://app?vid=b67306fa-d95b-4754-b4be-c4de1138c990","ios":"levelo://app?vid=b67306fa-d95b-4754-b4be-c4de1138c990"},"vehicle_type_id":"4","last_reported":1708027552,"current_range_meters":14800,"station_id":"","pricing_plan_id":"cebpf4jnsgd1na2vs0mg"},{"bike_id":"056c460b-295d-4a3a-a3be-668fba7080ae","system_id":"levelo_inurba_marseille","lat":43.314811,"lon":5.373103,"is_reserved":false,"is_disabled":false,"rental_uris":{"android":"levelo://app?vid=056c460b-295d-4a3a-a3be-668fba7080ae","ios":"levelo://app?vid=056c460b-295d-4a3a-a3be-668fba7080ae"},"vehicle_type_id":"4","last_reported":1708027552,"current_range_meters":0,"station_id":"ce4bgt12rcd13ifvqcd0","pricing_plan_id":"cebpf4jnsgd1na2vs0mg"},{"bike_id":"d4e70878-95c7-49c9-ba8e-199752c33845","system_id":"levelo_inurba_marseille","lat":43.314811,"lon":5.373103,"is_reserved":false,"is_disabled":false,"rental_uris":{"android":"levelo://app?vid=d4e70878-95c7-49c9-ba8e-199752c33845","ios":"levelo://app?vid=d4e70878-95c7-49c9-ba8e-199752c33845"},"vehicle_type_id":"4","last_reported":1708027552,"current_range_meters":15600,"station_id":"ce4bgt12rcd13ifvqcd0","pricing_plan_id":"cebpf4jnsgd1na2vs0mg"},{"bike_id":"a8a1d0b2-b12c-4566-b692-d15c8f451e69","system_id":"levelo_inurba_marseille","lat":43.314811,"lon":5.373103,"is_reserved":false,"is_disabled":false,"rental_uris":{"android":"levelo://app?vid=a8a1d0b2-b12c-4566-b692-d15c8f451e69","ios":"levelo://app?vid=a8a1d0b2-b12c-4566-b692-d15c8f451e69"},"vehicle_type_id":"4","last_reported":1708027552,"current_range_meters":30400,"station_id":"ce4bgt12rcd13ifvqcd0","pricing_plan_id":"cebpf4jnsgd1na2vs0mg"},{"bike_id":"3ec259c0-d3ee-4f92-921c-e39f73a6d022","system_id":"levelo_inurba_marseille","lat":43.309034,"lon":5.371783,"is_reserved":false,"is_disabled":false,"rental_uris":{"android":"levelo://app?vid=3ec259c0-d3ee-4f92-921c-e39f73a6d022","ios":"levelo://app?vid=3ec259c0-d3ee-4f92-921c-e39f73a6d022"},"vehicle_type_id":"4","last_reported":1708027552,"current_range_meters":5600,"station_id":"ce4bguh2rcd13ifvqckg","pricing_plan_id":"cebpf4jnsgd1na2vs0mg"},{"bike_id":"21e15505-a9de-4cba-bd55-1e6358586d87","system_id":"levelo_inurba_marseille","lat":43.307945,"lon":5.376487,"is_reserved":false,"is_disabled":false,"rental_uris":{"android":"levelo://app?vid=21e15505-a9de-4cba-bd55-1e6358586d87","ios":"levelo://app?vid=21e15505-a9de-4cba-bd55-1e6358586d87"},"vehicle_type_id":"4","last_reported":1708027552,"current_range_meters":21200,"station_id":"ce4bgv92rcd13ifvqcq0","pricing_plan_id":"cebpf4jnsgd1na2vs0mg"},{"bike_id":"4b823488-604a-4b43-9d16-a64601cae6d6","system_id":"levelo_inurba_marseille","lat":43.305368,"lon":5.367343,"is_reserved":false,"is_disabled":false,"rental_uris":{"android":"levelo://app?vid=4b823488-604a-4b43-9d16-a64601cae6d6","ios":"levelo://app?vid=4b823488-604a-4b43-9d16-a64601cae6d6"},"vehicle_type_id":"4","last_reported":1708027552,"current_range_meters":19600,"station_id":"ce4bgrp2rcd13ifvqc9g","pricing_plan_id":"cebpf4jnsgd1na2vs0mg"},{"bike_id":"b51ed00b-c368-4dff-a6a4-3fcad746a76c","system_id":"levelo_inurba_marseille","lat":43.305989,"lon":5.37225,"is_reserved":false,"is_disabled":false,"rental_uris":{"android":"levelo://app?vid=b51ed00b-c368-4dff-a6a4-3fcad746a76c","ios":"levelo://app?vid=b51ed00b-c368-4dff-a6a4-3fcad746a76c"},"vehicle_type_id":"4","last_reported":1708027552,"current_range_meters":4800,"station_id":"ce4bgqh2rcd13ifvqc4g","pricing_plan_id":"cebpf4jnsgd1na2vs0mg"},{"bike_id":"582184db-6674-4050-a6df-56dd6d9cbf7f","system_id":"levelo_inurba_marseille","lat":43.305989,"lon":5.37225,"is_reserved":false,"is_disabled":false,"rental_uris":{"android":"levelo://app?vid=582184db-6674-4050-a6df-56dd6d9cbf7f","ios":"levelo://app?vid=582184db-6674-4050-a6df-56dd6d9cbf7f"},"vehicle_type_id":"4","last_reported":1708027552,"current_range_meters":26000,"station_id":"ce4bgqh2rcd13ifvqc4g","pricing_plan_id":"cebpf4jnsgd1na2vs0mg"},{"bike_id":"a5f4e4a1-4f6c-4306-9d2e-3ac7783f9868","system_id":"levelo_inurba_marseille","lat":43.305989,"lon":5.37225,"is_reserved":false,"is_disabled":false,"rental_uris":{"android":"levelo://app?vid=a5f4e4a1-4f6c-4306-9d2e-3ac7783f9868","ios":"levelo://app?vid=a5f4e4a1-4f6c-4306-9d2e-3ac7783f9868"},"vehicle_type_id":"4","last_reported":1708027552,"current_range_meters":21200,"station_id":"ce4bgqh2rcd13ifvqc4g","pricing_plan_id":"cebpf4jnsgd1na2vs0mg"},{"bike_id":"d1c5ca55-1536-4aaf-96ea-a44ba3af0a7f","system_id":"levelo_inurba_marseille","lat":43.30609,"lon":5.372317,"is_reserved":false,"is_disabled":false,"rental_uris":{"android":"levelo://app?vid=d1c5ca55-1536-4aaf-96ea-a44ba3af0a7f","ios":"levelo://app?vid=d1c5ca55-1536-4aaf-96ea-a44ba3af0a7f"},"vehicle_type_id":"4","last_reported":1708027552,"current_range_meters":26800,"station_id":"ce4bgqh2rcd13ifvqc4g","pricing_plan_id":"cebpf4jnsgd1na2vs0mg"},{"bike_id":"bc28a744-c245-49b0-b30c-b186940a54d6","system_id":"levelo_inurba_marseille","lat":43.30605,"lon":5.37237,"is_reserved":false,"is_disabled":false,"rental_uris":{"android":"levelo://app?vid=bc28a744-c245-49b0-b30c-b186940a54d6","ios":"levelo://app?vid=bc28a744-c245-49b0-b30c-b186940a54d6"},"vehicle_type_id":"4","last_reported":1708027552,"current_range_meters":31200,"station_id":"ce4bgqh2rcd13ifvqc4g","pricing_plan_id":"cebpf4jnsgd1na2vs0mg"},{"bike_id":"222db069-87ae-4fab-a4d2-5c348d0a8745","system_id":"levelo_inurba_marseille","lat":43.30602,"lon":5.37233,"is_reserved":false,"is_disabled":false,"rental_uris":{"android":"levelo://app?vid=222db069-87ae-4fab-a4d2-5c348d0a8745","ios":"levelo://app?vid=222db069-87ae-4fab-a4d2-5c348d0a8745"},"vehicle_type_id":"4","last_reported":1708027552,"current_range_meters":26000,"station_id":"ce4bgqh2rcd13ifvqc4g","pricing_plan_id":"cebpf4jnsgd1na2vs0mg"},{"bike_id":"361ccd03-c684-4747-b5fb-0df8f3d56423","system_id":"levelo_inurba_marseille","lat":43.305989,"lon":5.37225,"is_reserved":false,"is_disabled":false,"rental_uris":{"android":"levelo://app?vid=361ccd03-c684-4747-b5fb-0df8f3d56423","ios":"levelo://app?vid=361ccd03-c684-4747-b5fb-0df8f3d56423"},"vehicle_type_id":"4","last_reported":1708027552,"current_range_meters":20400,"station_id":"ce4bgqh2rcd13ifvqc4g","pricing_plan_id":"cebpf4jnsgd1na2vs0mg"},{"bike_id":"58ed9498-0d3d-4971-a171-47054d65b7bb","system_id":"levelo_inurba_marseille","lat":43.30594,"lon":5.37232,"is_reserved":false,"is_disabled":false,"rental_uris":{"android":"levelo://app?vid=58ed9498-0d3d-4971-a171-47054d65b7bb","ios":"levelo://app?vid=58ed9498-0d3d-4971-a171-47054d65b7bb"},"vehicle_type_id":"4","last_reported":1708027552,"current_range_meters":12800,"station_id":"ce4bgqh2rcd13ifvqc4g","pricing_plan_id":"cebpf4jnsgd1na2vs0mg"},{"bike_id":"654292a4-331e-4ae4-adf1-61b1c1e2187c","system_id":"levelo_inurba_marseille","lat":43.311125,"lon":5.377624,"is_reserved":false,"is_disabled":false,"rental_uris":{"android":"levelo://app?vid=654292a4-331e-4ae4-adf1-61b1c1e2187c","ios":"levelo://app?vid=654292a4-331e-4ae4-adf1-61b1c1e2187c"},"vehicle_type_id":"4","last_reported":1708027552,"current_range_meters":14800,"station_id":"ce4bgt92rcd13ifvqcg0","pricing_plan_id":"cebpf4jnsgd1na2vs0mg"},{"bike_id":"326f744e-f7bb-4e92-b44e-2c98bd92b232","system_id":"levelo_inurba_marseille","lat":43.311131,"lon":5.377651,"is_reserved":false,"is_disabled":false,"rental_uris":{"android":"levelo://app?vid=326f744e-f7bb-4e92-b44e-2c98bd92b232","ios":"levelo://app?vid=326f744e-f7bb-4e92-b44e-2c98bd92b232"},"vehicle_type_id":"4","last_reported":1708027552,"current_range_meters":3600,"station_id":"ce4bgt92rcd13ifvqcg0","pricing_plan_id":"cebpf4jnsgd1na2vs0mg"},{"bike_id":"d9f1f1c6-f12f-4449-b80b-22ce85b88511","system_id":"levelo_inurba_marseille","lat":43.31127,"lon":5.37761,"is_reserved":false,"is_disabled":false,"rental_uris":{"android":"levelo://app?vid=d9f1f1c6-f12f-4449-b80b-22ce85b88511","ios":"levelo://app?vid=d9f1f1c6-f12f-4449-b80b-22ce85b88511"},"vehicle_type_id":"4","last_reported":1708027552,"current_range_meters":10000,"station_id":"ce4bgt92rcd13ifvqcg0","pricing_plan_id":"cebpf4jnsgd1na2vs0mg"},{"bike_id":"6ca4cdaa-1a8b-4a19-a632-649ff42267a1","system_id":"levelo_inurba_marseille","lat":43.311125,"lon":5.377624,"is_reserved":false,"is_disabled":false,"rental_uris":{"android":"levelo://app?vid=6ca4cdaa-1a8b-4a19-a632-649ff42267a1","ios":"levelo://app?vid=6ca4cdaa-1a8b-4a19-a632-649ff42267a1"},"vehicle_type_id":"4","last_reported":1708027552,"current_range_meters":0,"station_id":"ce4bgt92rcd13ifvqcg0","pricing_plan_id":"cebpf4jnsgd1na2vs0mg"},{"bike_id":"1fe5f8cc-9c1d-4e43-bbb3-e48eb5a25aa2","system_id":"levelo_inurba_marseille","lat":43.311125,"lon":5.377624,"is_reserved":false,"is_disabled":false,"rental_uris":{"android":"levelo://app?vid=1fe5f8cc-9c1d-4e43-bbb3-e48eb5a25aa2","ios":"levelo://app?vid=1fe5f8cc-9c1d-4e43-bbb3-e48eb5a25aa2"},"vehicle_type_id":"4","last_reported":1708027552,"current_range_meters":6000,"station_id":"ce4bgt92rcd13ifvqcg0","pricing_plan_id":"cebpf4jnsgd1na2vs0mg"},{"bike_id":"8758d3b5-9ab5-48b1-b9ab-0a590e384be1","system_id":"levelo_inurba_marseille","lat":43.311125,"lon":5.377624,"is_reserved":false,"is_disabled":false,"rental_uris":{"android":"levelo://app?vid=8758d3b5-9ab5-48b1-b9ab-0a590e384be1","ios":"levelo://app?vid=8758d3b5-9ab5-48b1-b9ab-0a590e384be1"},"vehicle_type_id":"4","last_reported":1708027552,"current_range_meters":26400,"station_id":"ce4bgt92rcd13ifvqcg0","pricing_plan_id":"cebpf4jnsgd1na2vs0mg"},{"bike_id":"87996d2f-d0b2-46f0-910e-50da0dd58e8d","system_id":"levelo_inurba_marseille","lat":43.311125,"lon":5.377624,"is_reserved":false,"is_disabled":false,"rental_uris":{"android":"levelo://app?vid=87996d2f-d0b2-46f0-910e-50da0dd58e8d","ios":"levelo://app?vid=87996d2f-d0b2-46f0-910e-50da0dd58e8d"},"vehicle_type_id":"4","last_reported":1708027552,"current_range_meters":7600,"station_id":"ce4bgt92rcd13ifvqcg0","pricing_plan_id":"cebpf4jnsgd1na2vs0mg"},{"bike_id":"8f9d7098-97b6-4507-8357-6f8ecd42a95a","system_id":"levelo_inurba_marseille","lat":43.31119,"lon":5.3777,"is_reserved":false,"is_disabled":false,"rental_uris":{"android":"levelo://app?vid=8f9d7098-97b6-4507-8357-6f8ecd42a95a","ios":"levelo://app?vid=8f9d7098-97b6-4507-8357-6f8ecd42a95a"},"vehicle_type_id":"4","last_reported":1708027552,"current_range_meters":12000,"station_id":"ce4bgt92rcd13ifvqcg0","pricing_plan_id":"cebpf4jnsgd1na2vs0mg"},{"bike_id":"df7164c7-d670-4d02-a01a-881f90bd45db","system_id":"levelo_inurba_marseille","lat":43.311131,"lon":5.377651,"is_reserved":false,"is_disabled":false,"rental_uris":{"android":"levelo://app?vid=df7164c7-d670-4d02-a01a-881f90bd45db","ios":"levelo://app?vid=df7164c7-d670-4d02-a01a-881f90bd45db"},"vehicle_type_id":"4","last_reported":1708027552,"current_range_meters":11200,"station_id":"ce4bgt92rcd13ifvqcg0","pricing_plan_id":"cebpf4jnsgd1na2vs0mg"},{"bike_id":"2310521f-5a72-4cf9-afbb-bbad32566817","system_id":"levelo_inurba_marseille","lat":43.3112,"lon":5.37774,"is_reserved":false,"is_disabled":false,"rental_uris":{"android":"levelo://app?vid=2310521f-5a72-4cf9-afbb-bbad32566817","ios":"levelo://app?vid=2310521f-5a72-4cf9-afbb-bbad32566817"},"vehicle_type_id":"4","last_reported":1708027552,"current_range_meters":3600,"station_id":"ce4bgt92rcd13ifvqcg0","pricing_plan_id":"cebpf4jnsgd1na2vs0mg"},{"bike_id":"7cf6c0ff-bce6-47f1-b6fe-5ab1236b74db","system_id":"levelo_inurba_marseille","lat":43.31114,"lon":5.37775,"is_reserved":false,"is_disabled":false,"rental_uris":{"android":"levelo://app?vid=7cf6c0ff-bce6-47f1-b6fe-5ab1236b74db","ios":"levelo://app?vid=7cf6c0ff-bce6-47f1-b6fe-5ab1236b74db"},"vehicle_type_id":"4","last_reported":1708027552,"current_range_meters":0,"station_id":"ce4bgt92rcd13ifvqcg0","pricing_plan_id":"cebpf4jnsgd1na2vs0mg"},{"bike_id":"2f90ca67-b810-476d-b989-4de8045ea66b","system_id":"levelo_inurba_marseille","lat":43.311125,"lon":5.377624,"is_reserved":false,"is_disabled":false,"rental_uris":{"android":"levelo://app?vid=2f90ca67-b810-476d-b989-4de8045ea66b","ios":"levelo://app?vid=2f90ca67-b810-476d-b989-4de8045ea66b"},"vehicle_type_id":"4","last_reported":1708027552,"current_range_meters":12800,"station_id":"ce4bgt92rcd13ifvqcg0","pricing_plan_id":"cebpf4jnsgd1na2vs0mg"},{"bike_id":"434ffdf5-bc84-4eff-add8-997207241255","system_id":"levelo_inurba_marseille","lat":43.311131,"lon":5.377651,"is_reserved":false,"is_disabled":false,"rental_uris":{"android":"levelo://app?vid=434ffdf5-bc84-4eff-add8-997207241255","ios":"levelo://app?vid=434ffdf5-bc84-4eff-add8-997207241255"},"vehicle_type_id":"4","last_reported":1708027552,"current_range_meters":10000,"station_id":"ce4bgt92rcd13ifvqcg0","pricing_plan_id":"cebpf4jnsgd1na2vs0mg"},{"bike_id":"1029325e-2bcd-435d-abf5-544ac1240475","system_id":"levelo_inurba_marseille","lat":43.311125,"lon":5.377624,"is_reserved":false,"is_disabled":false,"rental_uris":{"android":"levelo://app?vid=1029325e-2bcd-435d-abf5-544ac1240475","ios":"levelo://app?vid=1029325e-2bcd-435d-abf5-544ac1240475"},"vehicle_type_id":"4","last_reported":1708027552,"current_range_meters":20800,"station_id":"ce4bgt92rcd13ifvqcg0","pricing_plan_id":"cebpf4jnsgd1na2vs0mg"},{"bike_id":"fdda371c-7d00-4513-9ed4-0f28e1c705d0","system_id":"levelo_inurba_marseille","lat":43.311125,"lon":5.377624,"is_reserved":false,"is_disabled":false,"rental_uris":{"android":"levelo://app?vid=fdda371c-7d00-4513-9ed4-0f28e1c705d0","ios":"levelo://app?vid=fdda371c-7d00-4513-9ed4-0f28e1c705d0"},"vehicle_type_id":"4","last_reported":1708027552,"current_range_meters":20800,"station_id":"ce4bgt92rcd13ifvqcg0","pricing_plan_id":"cebpf4jnsgd1na2vs0mg"},{"bike_id":"e408a855-f723-408c-b006-f3e7b332a7ec","system_id":"levelo_inurba_marseille","lat":43.307945,"lon":5.376487,"is_reserved":false,"is_disabled":false,"rental_uris":{"android":"levelo://app?vid=e408a855-f723-408c-b006-f3e7b332a7ec","ios":"levelo://app?vid=e408a855-f723-408c-b006-f3e7b332a7ec"},"vehicle_type_id":"4","last_reported":1708027552,"current_range_meters":5200,"station_id":"ce4bgv92rcd13ifvqcq0","pricing_plan_id":"cebpf4jnsgd1na2vs0mg"},{"bike_id":"6c5c2a59-3c29-480a-b4ed-606f3ff5d440","system_id":"levelo_inurba_marseille","lat":43.307945,"lon":5.376487,"is_reserved":false,"is_disabled":false,"rental_uris":{"android":"levelo://app?vid=6c5c2a59-3c29-480a-b4ed-606f3ff5d440","ios":"levelo://app?vid=6c5c2a59-3c29-480a-b4ed-606f3ff5d440"},"vehicle_type_id":"4","last_reported":1708027552,"current_range_meters":8800,"station_id":"ce4bgv92rcd13ifvqcq0","pricing_plan_id":"cebpf4jnsgd1na2vs0mg"},{"bike_id":"52a3977f-b948-4427-8189-406f5207363e","system_id":"levelo_inurba_marseille","lat":43.307945,"lon":5.376487,"is_reserved":false,"is_disabled":false,"rental_uris":{"android":"levelo://app?vid=52a3977f-b948-4427-8189-406f5207363e","ios":"levelo://app?vid=52a3977f-b948-4427-8189-406f5207363e"},"vehicle_type_id":"4","last_reported":1708027552,"current_range_meters":4000,"station_id":"ce4bgv92rcd13ifvqcq0","pricing_plan_id":"cebpf4jnsgd1na2vs0mg"},{"bike_id":"675e8e6e-3c5a-402c-a789-48ab73907593","system_id":"levelo_inurba_marseille","lat":43.307945,"lon":5.376487,"is_reserved":false,"is_disabled":false,"rental_uris":{"android":"levelo://app?vid=675e8e6e-3c5a-402c-a789-48ab73907593","ios":"levelo://app?vid=675e8e6e-3c5a-402c-a789-48ab73907593"},"vehicle_type_id":"4","last_reported":1708027552,"current_range_meters":14800,"station_id":"ce4bgv92rcd13ifvqcq0","pricing_plan_id":"cebpf4jnsgd1na2vs0mg"},{"bike_id":"2fca39f8-6a10-42b9-80c8-ff25bebc9e9e","system_id":"levelo_inurba_marseille","lat":43.307945,"lon":5.376487,"is_reserved":false,"is_disabled":false,"rental_uris":{"android":"levelo://app?vid=2fca39f8-6a10-42b9-80c8-ff25bebc9e9e","ios":"levelo://app?vid=2fca39f8-6a10-42b9-80c8-ff25bebc9e9e"},"vehicle_type_id":"4","last_reported":1708027552,"current_range_meters":29600,"station_id":"ce4bgv92rcd13ifvqcq0","pricing_plan_id":"cebpf4jnsgd1na2vs0mg"},{"bike_id":"8cb41064-3034-4717-aacf-23a6ca92ef32","system_id":"levelo_inurba_marseille","lat":43.307945,"lon":5.376487,"is_reserved":false,"is_disabled":false,"rental_uris":{"android":"levelo://app?vid=8cb41064-3034-4717-aacf-23a6ca92ef32","ios":"levelo://app?vid=8cb41064-3034-4717-aacf-23a6ca92ef32"},"vehicle_type_id":"4","last_reported":1708027552,"current_range_meters":30400,"station_id":"ce4bgv92rcd13ifvqcq0","pricing_plan_id":"cebpf4jnsgd1na2vs0mg"},{"bike_id":"9469c041-66ab-4b66-9f58-9f59a1dbf7f9","system_id":"levelo_inurba_marseille","lat":43.307945,"lon":5.376487,"is_reserved":false,"is_disabled":false,"rental_uris":{"android":"levelo://app?vid=9469c041-66ab-4b66-9f58-9f59a1dbf7f9","ios":"levelo://app?vid=9469c041-66ab-4b66-9f58-9f59a1dbf7f9"},"vehicle_type_id":"4","last_reported":1708027552,"current_range_meters":30000,"station_id":"ce4bgv92rcd13ifvqcq0","pricing_plan_id":"cebpf4jnsgd1na2vs0mg"},{"bike_id":"b2c811a1-c001-4830-b6b2-bc5412a16dd8","system_id":"levelo_inurba_marseille","lat":43.307945,"lon":5.376487,"is_reserved":false,"is_disabled":false,"rental_uris":{"android":"levelo://app?vid=b2c811a1-c001-4830-b6b2-bc5412a16dd8","ios":"levelo://app?vid=b2c811a1-c001-4830-b6b2-bc5412a16dd8"},"vehicle_type_id":"4","last_reported":1708027552,"current_range_meters":24800,"station_id":"ce4bgv92rcd13ifvqcq0","pricing_plan_id":"cebpf4jnsgd1na2vs0mg"},{"bike_id":"32026692-5527-40f2-a535-e55bf2d47370","system_id":"levelo_inurba_marseille","lat":43.317075,"lon":5.377367,"is_reserved":false,"is_disabled":false,"rental_uris":{"android":"levelo://app?vid=32026692-5527-40f2-a535-e55bf2d47370","ios":"levelo://app?vid=32026692-5527-40f2-a535-e55bf2d47370"},"vehicle_type_id":"4","last_reported":1708027552,"current_range_meters":8800,"station_id":"ce4bgth2rcd13ifvqch0","pricing_plan_id":"cebpf4jnsgd1na2vs0mg"},{"bike_id":"8c2d62e3-3ad7-4140-9a67-65fa03190e2f","system_id":"levelo_inurba_marseille","lat":43.317075,"lon":5.377367,"is_reserved":false,"is_disabled":false,"rental_uris":{"android":"levelo://app?vid=8c2d62e3-3ad7-4140-9a67-65fa03190e2f","ios":"levelo://app?vid=8c2d62e3-3ad7-4140-9a67-65fa03190e2f"},"vehicle_type_id":"4","last_reported":1708027552,"current_range_meters":23200,"station_id":"ce4bgth2rcd13ifvqch0","pricing_plan_id":"cebpf4jnsgd1na2vs0mg"},{"bike_id":"aa533a6f-0dc9-4d7d-8582-0387547a46a5","system_id":"levelo_inurba_marseille","lat":43.317075,"lon":5.377367,"is_reserved":false,"is_disabled":false,"rental_uris":{"android":"levelo://app?vid=aa533a6f-0dc9-4d7d-8582-0387547a46a5","ios":"levelo://app?vid=aa533a6f-0dc9-4d7d-8582-0387547a46a5"},"vehicle_type_id":"4","last_reported":1708027552,"current_range_meters":4800,"station_id":"ce4bgth2rcd13ifvqch0","pricing_plan_id":"cebpf4jnsgd1na2vs0mg"},{"bike_id":"5b659e98-29c6-4123-956f-a6ec82278506","system_id":"levelo_inurba_marseille","lat":43.309034,"lon":5.371783,"is_reserved":false,"is_disabled":false,"rental_uris":{"android":"levelo://app?vid=5b659e98-29c6-4123-956f-a6ec82278506","ios":"levelo://app?vid=5b659e98-29c6-4123-956f-a6ec82278506"},"vehicle_type_id":"4","last_reported":1708027552,"current_range_meters":9200,"station_id":"ce4bguh2rcd13ifvqckg","pricing_plan_id":"cebpf4jnsgd1na2vs0mg"},{"bike_id":"e8396d9b-01ad-42aa-ae6a-25e7361077f6","system_id":"levelo_inurba_marseille","lat":43.317075,"lon":5.377367,"is_reserved":false,"is_disabled":false,"rental_uris":{"android":"levelo://app?vid=e8396d9b-01ad-42aa-ae6a-25e7361077f6","ios":"levelo://app?vid=e8396d9b-01ad-42aa-ae6a-25e7361077f6"},"vehicle_type_id":"4","last_reported":1708027552,"current_range_meters":31200,"station_id":"ce4bgth2rcd13ifvqch0","pricing_plan_id":"cebpf4jnsgd1na2vs0mg"},{"bike_id":"e0ab11de-fc9c-4d4b-971a-3b2ba2a23340","system_id":"levelo_inurba_marseille","lat":43.317075,"lon":5.377367,"is_reserved":false,"is_disabled":false,"rental_uris":{"android":"levelo://app?vid=e0ab11de-fc9c-4d4b-971a-3b2ba2a23340","ios":"levelo://app?vid=e0ab11de-fc9c-4d4b-971a-3b2ba2a23340"},"vehicle_type_id":"4","last_reported":1708027552,"current_range_meters":31200,"station_id":"ce4bgth2rcd13ifvqch0","pricing_plan_id":"cebpf4jnsgd1na2vs0mg"},{"bike_id":"6f39090b-b91e-4eaa-81f6-ef24a66149be","system_id":"levelo_inurba_marseille","lat":43.317075,"lon":5.377367,"is_reserved":false,"is_disabled":false,"rental_uris":{"android":"levelo://app?vid=6f39090b-b91e-4eaa-81f6-ef24a66149be","ios":"levelo://app?vid=6f39090b-b91e-4eaa-81f6-ef24a66149be"},"vehicle_type_id":"4","last_reported":1708027552,"current_range_meters":20400,"station_id":"ce4bgth2rcd13ifvqch0","pricing_plan_id":"cebpf4jnsgd1na2vs0mg"},{"bike_id":"f6f9b441-7593-409a-9807-af19f9477457","system_id":"levelo_inurba_marseille","lat":43.30314,"lon":5.36894,"is_reserved":false,"is_disabled":false,"rental_uris":{"android":"levelo://app?vid=f6f9b441-7593-409a-9807-af19f9477457","ios":"levelo://app?vid=f6f9b441-7593-409a-9807-af19f9477457"},"vehicle_type_id":"4","last_reported":1708027552,"current_range_meters":25600,"station_id":"ce4bgqh2rcd13ifvqc5g","pricing_plan_id":"cebpf4jnsgd1na2vs0mg"},{"bike_id":"e48eafa2-25f1-4367-910a-9c1c68d594ca","system_id":"levelo_inurba_marseille","lat":43.315293,"lon":5.380349,"is_reserved":false,"is_disabled":false,"rental_uris":{"android":"levelo://app?vid=e48eafa2-25f1-4367-910a-9c1c68d594ca","ios":"levelo://app?vid=e48eafa2-25f1-4367-910a-9c1c68d594ca"},"vehicle_type_id":"4","last_reported":1708027552,"current_range_meters":27200,"station_id":"ce4bhsp2rcd13ifvqi50","pricing_plan_id":"cebpf4jnsgd1na2vs0mg"},{"bike_id":"3bae3dab-cd23-477a-b620-83cccc8f7249","system_id":"levelo_inurba_marseille","lat":43.308012,"lon":5.381511,"is_reserved":false,"is_disabled":false,"rental_uris":{"android":"levelo://app?vid=3bae3dab-cd23-477a-b620-83cccc8f7249","ios":"levelo://app?vid=3bae3dab-cd23-477a-b620-83cccc8f7249"},"vehicle_type_id":"4","last_reported":1708027552,"current_range_meters":21200,"station_id":"ce4bgt12rcd13ifvqce0","pricing_plan_id":"cebpf4jnsgd1na2vs0mg"},{"bike_id":"d6aa074a-2e33-4090-b89d-71a2fab79067","system_id":"levelo_inurba_marseille","lat":43.308012,"lon":5.381511,"is_reserved":false,"is_disabled":false,"rental_uris":{"android":"levelo://app?vid=d6aa074a-2e33-4090-b89d-71a2fab79067","ios":"levelo://app?vid=d6aa074a-2e33-4090-b89d-71a2fab79067"},"vehicle_type_id":"4","last_reported":1708027552,"current_range_meters":22800,"station_id":"ce4bgt12rcd13ifvqce0","pricing_plan_id":"cebpf4jnsgd1na2vs0mg"},{"bike_id":"6d0d686b-3e0d-4360-9de0-488987a7c8e9","system_id":"levelo_inurba_marseille","lat":43.308012,"lon":5.381511,"is_reserved":false,"is_disabled":false,"rental_uris":{"android":"levelo://app?vid=6d0d686b-3e0d-4360-9de0-488987a7c8e9","ios":"levelo://app?vid=6d0d686b-3e0d-4360-9de0-488987a7c8e9"},"vehicle_type_id":"4","last_reported":1708027552,"current_range_meters":22400,"station_id":"ce4bgt12rcd13ifvqce0","pricing_plan_id":"cebpf4jnsgd1na2vs0mg"},{"bike_id":"f9595e15-943e-42b8-a988-14ff7ed8c44c","system_id":"levelo_inurba_marseille","lat":43.308012,"lon":5.381511,"is_reserved":false,"is_disabled":false,"rental_uris":{"android":"levelo://app?vid=f9595e15-943e-42b8-a988-14ff7ed8c44c","ios":"levelo://app?vid=f9595e15-943e-42b8-a988-14ff7ed8c44c"},"vehicle_type_id":"4","last_reported":1708027552,"current_range_meters":2800,"station_id":"ce4bgt12rcd13ifvqce0","pricing_plan_id":"cebpf4jnsgd1na2vs0mg"},{"bike_id":"e7ee0a9f-d478-464e-a6ba-c17811eeb33f","system_id":"levelo_inurba_marseille","lat":43.304606,"lon":5.379026,"is_reserved":false,"is_disabled":false,"rental_uris":{"android":"levelo://app?vid=e7ee0a9f-d478-464e-a6ba-c17811eeb33f","ios":"levelo://app?vid=e7ee0a9f-d478-464e-a6ba-c17811eeb33f"},"vehicle_type_id":"4","last_reported":1708027552,"current_range_meters":3200,"station_id":"ce4bgup2rcd13ifvqcn0","pricing_plan_id":"cebpf4jnsgd1na2vs0mg"},{"bike_id":"31f19453-a181-4be0-a76a-c46d7aa41172","system_id":"levelo_inurba_marseille","lat":43.304606,"lon":5.379026,"is_reserved":false,"is_disabled":false,"rental_uris":{"android":"levelo://app?vid=31f19453-a181-4be0-a76a-c46d7aa41172","ios":"levelo://app?vid=31f19453-a181-4be0-a76a-c46d7aa41172"},"vehicle_type_id":"4","last_reported":1708027552,"current_range_meters":22400,"station_id":"ce4bgup2rcd13ifvqcn0","pricing_plan_id":"cebpf4jnsgd1na2vs0mg"},{"bike_id":"74040d89-d5b2-4f31-8c52-790dda89ed07","system_id":"levelo_inurba_marseille","lat":43.324771,"lon":5.36557,"is_reserved":false,"is_disabled":false,"rental_uris":{"android":"levelo://app?vid=74040d89-d5b2-4f31-8c52-790dda89ed07","ios":"levelo://app?vid=74040d89-d5b2-4f31-8c52-790dda89ed07"},"vehicle_type_id":"4","last_reported":1708027552,"current_range_meters":12400,"station_id":"ce4bhs12rcd13ifvqhvg","pricing_plan_id":"cebpf4jnsgd1na2vs0mg"},{"bike_id":"67079a29-f28c-4d70-8856-b0af88c8d642","system_id":"levelo_inurba_marseille","lat":43.324771,"lon":5.36557,"is_reserved":false,"is_disabled":false,"rental_uris":{"android":"levelo://app?vid=67079a29-f28c-4d70-8856-b0af88c8d642","ios":"levelo://app?vid=67079a29-f28c-4d70-8856-b0af88c8d642"},"vehicle_type_id":"4","last_reported":1708027552,"current_range_meters":24000,"station_id":"ce4bhs12rcd13ifvqhvg","pricing_plan_id":"cebpf4jnsgd1na2vs0mg"},{"bike_id":"5ed0a109-9ca7-4876-adad-41d58d377d1a","system_id":"levelo_inurba_marseille","lat":43.324771,"lon":5.36557,"is_reserved":false,"is_disabled":false,"rental_uris":{"android":"levelo://app?vid=5ed0a109-9ca7-4876-adad-41d58d377d1a","ios":"levelo://app?vid=5ed0a109-9ca7-4876-adad-41d58d377d1a"},"vehicle_type_id":"4","last_reported":1708027552,"current_range_meters":4800,"station_id":"ce4bhs12rcd13ifvqhvg","pricing_plan_id":"cebpf4jnsgd1na2vs0mg"},{"bike_id":"eb331c1c-770d-4ab0-8716-5793c3e19a18","system_id":"levelo_inurba_marseille","lat":43.324771,"lon":5.36557,"is_reserved":false,"is_disabled":false,"rental_uris":{"android":"levelo://app?vid=eb331c1c-770d-4ab0-8716-5793c3e19a18","ios":"levelo://app?vid=eb331c1c-770d-4ab0-8716-5793c3e19a18"},"vehicle_type_id":"4","last_reported":1708027552,"current_range_meters":11200,"station_id":"ce4bhs12rcd13ifvqhvg","pricing_plan_id":"cebpf4jnsgd1na2vs0mg"},{"bike_id":"7eac1002-a816-4569-b798-3a3a62c5a4d3","system_id":"levelo_inurba_marseille","lat":43.324771,"lon":5.36557,"is_reserved":false,"is_disabled":false,"rental_uris":{"android":"levelo://app?vid=7eac1002-a816-4569-b798-3a3a62c5a4d3","ios":"levelo://app?vid=7eac1002-a816-4569-b798-3a3a62c5a4d3"},"vehicle_type_id":"4","last_reported":1708027552,"current_range_meters":7200,"station_id":"ce4bhs12rcd13ifvqhvg","pricing_plan_id":"cebpf4jnsgd1na2vs0mg"},{"bike_id":"8cc61c4a-5302-4b6c-a32c-54803363c1d2","system_id":"levelo_inurba_marseille","lat":43.31072,"lon":5.38348,"is_reserved":false,"is_disabled":false,"rental_uris":{"android":"levelo://app?vid=8cc61c4a-5302-4b6c-a32c-54803363c1d2","ios":"levelo://app?vid=8cc61c4a-5302-4b6c-a32c-54803363c1d2"},"vehicle_type_id":"4","last_reported":1708027552,"current_range_meters":30400,"station_id":"ce4bgv92rcd13ifvqcr0","pricing_plan_id":"cebpf4jnsgd1na2vs0mg"},{"bike_id":"38716a6a-d578-4748-ad61-d6ef7efd9f5c","system_id":"levelo_inurba_marseille","lat":43.31071,"lon":5.38349,"is_reserved":false,"is_disabled":false,"rental_uris":{"android":"levelo://app?vid=38716a6a-d578-4748-ad61-d6ef7efd9f5c","ios":"levelo://app?vid=38716a6a-d578-4748-ad61-d6ef7efd9f5c"},"vehicle_type_id":"4","last_reported":1708027552,"current_range_meters":17600,"station_id":"ce4bgv92rcd13ifvqcr0","pricing_plan_id":"cebpf4jnsgd1na2vs0mg"},{"bike_id":"9a29bd98-7765-4199-8212-1ef4fe8ca9fe","system_id":"levelo_inurba_marseille","lat":43.31069,"lon":5.38349,"is_reserved":false,"is_disabled":false,"rental_uris":{"android":"levelo://app?vid=9a29bd98-7765-4199-8212-1ef4fe8ca9fe","ios":"levelo://app?vid=9a29bd98-7765-4199-8212-1ef4fe8ca9fe"},"vehicle_type_id":"4","last_reported":1708027552,"current_range_meters":1600,"station_id":"ce4bgv92rcd13ifvqcr0","pricing_plan_id":"cebpf4jnsgd1na2vs0mg"},{"bike_id":"da4fadf5-3e37-4933-b2d3-0de431b1409d","system_id":"levelo_inurba_marseille","lat":43.310769,"lon":5.383511,"is_reserved":false,"is_disabled":false,"rental_uris":{"android":"levelo://app?vid=da4fadf5-3e37-4933-b2d3-0de431b1409d","ios":"levelo://app?vid=da4fadf5-3e37-4933-b2d3-0de431b1409d"},"vehicle_type_id":"4","last_reported":1708027552,"current_range_meters":0,"station_id":"ce4bgv92rcd13ifvqcr0","pricing_plan_id":"cebpf4jnsgd1na2vs0mg"},{"bike_id":"c4a33b3a-50c1-4e50-8d7e-e5f5ec04e441","system_id":"levelo_inurba_marseille","lat":43.310804,"lon":5.38359,"is_reserved":false,"is_disabled":false,"rental_uris":{"android":"levelo://app?vid=c4a33b3a-50c1-4e50-8d7e-e5f5ec04e441","ios":"levelo://app?vid=c4a33b3a-50c1-4e50-8d7e-e5f5ec04e441"},"vehicle_type_id":"4","last_reported":1708027552,"current_range_meters":4000,"station_id":"ce4bgv92rcd13ifvqcr0","pricing_plan_id":"cebpf4jnsgd1na2vs0mg"},{"bike_id":"95b61e15-0903-409d-b8d3-dbad50f8c96a","system_id":"levelo_inurba_marseille","lat":43.3107,"lon":5.38359,"is_reserved":false,"is_disabled":false,"rental_uris":{"android":"levelo://app?vid=95b61e15-0903-409d-b8d3-dbad50f8c96a","ios":"levelo://app?vid=95b61e15-0903-409d-b8d3-dbad50f8c96a"},"vehicle_type_id":"4","last_reported":1708027552,"current_range_meters":22000,"station_id":"ce4bgv92rcd13ifvqcr0","pricing_plan_id":"cebpf4jnsgd1na2vs0mg"},{"bike_id":"94ccd055-ac62-4dce-b15d-a257bbe9b731","system_id":"levelo_inurba_marseille","lat":43.310804,"lon":5.38359,"is_reserved":false,"is_disabled":false,"rental_uris":{"android":"levelo://app?vid=94ccd055-ac62-4dce-b15d-a257bbe9b731","ios":"levelo://app?vid=94ccd055-ac62-4dce-b15d-a257bbe9b731"},"vehicle_type_id":"4","last_reported":1708027552,"current_range_meters":3200,"station_id":"ce4bgv92rcd13ifvqcr0","pricing_plan_id":"cebpf4jnsgd1na2vs0mg"},{"bike_id":"2d834dbd-16b5-4e7f-8b94-a3c26253ebd1","system_id":"levelo_inurba_marseille","lat":43.310804,"lon":5.38359,"is_reserved":false,"is_disabled":false,"rental_uris":{"android":"levelo://app?vid=2d834dbd-16b5-4e7f-8b94-a3c26253ebd1","ios":"levelo://app?vid=2d834dbd-16b5-4e7f-8b94-a3c26253ebd1"},"vehicle_type_id":"4","last_reported":1708027552,"current_range_meters":6800,"station_id":"ce4bgv92rcd13ifvqcr0","pricing_plan_id":"cebpf4jnsgd1na2vs0mg"},{"bike_id":"0e53949d-06ed-45b7-8a87-fdca71c413b2","system_id":"levelo_inurba_marseille","lat":43.302784,"lon":5.377158,"is_reserved":false,"is_disabled":false,"rental_uris":{"android":"levelo://app?vid=0e53949d-06ed-45b7-8a87-fdca71c413b2","ios":"levelo://app?vid=0e53949d-06ed-45b7-8a87-fdca71c413b2"},"vehicle_type_id":"4","last_reported":1708027552,"current_range_meters":16400,"station_id":"ce4bguh2rcd13ifvqcj0","pricing_plan_id":"cebpf4jnsgd1na2vs0mg"},{"bike_id":"3ba45bb5-5c20-4d90-aa8a-70a65b3bc284","system_id":"levelo_inurba_marseille","lat":43.302784,"lon":5.377158,"is_reserved":false,"is_disabled":false,"rental_uris":{"android":"levelo://app?vid=3ba45bb5-5c20-4d90-aa8a-70a65b3bc284","ios":"levelo://app?vid=3ba45bb5-5c20-4d90-aa8a-70a65b3bc284"},"vehicle_type_id":"4","last_reported":1708027552,"current_range_meters":17600,"station_id":"ce4bguh2rcd13ifvqcj0","pricing_plan_id":"cebpf4jnsgd1na2vs0mg"},{"bike_id":"86d438c2-740b-4c96-8dfb-0664e1104c1b","system_id":"levelo_inurba_marseille","lat":43.302587,"lon":5.37695,"is_reserved":false,"is_disabled":false,"rental_uris":{"android":"levelo://app?vid=86d438c2-740b-4c96-8dfb-0664e1104c1b","ios":"levelo://app?vid=86d438c2-740b-4c96-8dfb-0664e1104c1b"},"vehicle_type_id":"4","last_reported":1708027552,"current_range_meters":0,"station_id":"ce4bguh2rcd13ifvqcj0","pricing_plan_id":"cebpf4jnsgd1na2vs0mg"},{"bike_id":"c4f3a2cc-5e97-4f44-8d5e-f1dc56798a09","system_id":"levelo_inurba_marseille","lat":43.319935,"lon":5.381699,"is_reserved":false,"is_disabled":false,"rental_uris":{"android":"levelo://app?vid=c4f3a2cc-5e97-4f44-8d5e-f1dc56798a09","ios":"levelo://app?vid=c4f3a2cc-5e97-4f44-8d5e-f1dc56798a09"},"vehicle_type_id":"4","last_reported":1708027552,"current_range_meters":3600,"station_id":"ce4bhr12rcd13ifvqhpg","pricing_plan_id":"cebpf4jnsgd1na2vs0mg"},{"bike_id":"470fde00-3503-4c79-922c-c4e020e38520","system_id":"levelo_inurba_marseille","lat":43.319935,"lon":5.381699,"is_reserved":false,"is_disabled":false,"rental_uris":{"android":"levelo://app?vid=470fde00-3503-4c79-922c-c4e020e38520","ios":"levelo://app?vid=470fde00-3503-4c79-922c-c4e020e38520"},"vehicle_type_id":"4","last_reported":1708027552,"current_range_meters":31200,"station_id":"ce4bhr12rcd13ifvqhpg","pricing_plan_id":"cebpf4jnsgd1na2vs0mg"},{"bike_id":"1524caed-e036-4a1d-90f3-0fb3698ebab1","system_id":"levelo_inurba_marseille","lat":43.319935,"lon":5.381699,"is_reserved":false,"is_disabled":false,"rental_uris":{"android":"levelo://app?vid=1524caed-e036-4a1d-90f3-0fb3698ebab1","ios":"levelo://app?vid=1524caed-e036-4a1d-90f3-0fb3698ebab1"},"vehicle_type_id":"4","last_reported":1708027552,"current_range_meters":3200,"station_id":"ce4bhr12rcd13ifvqhpg","pricing_plan_id":"cebpf4jnsgd1na2vs0mg"},{"bike_id":"63b59323-1af8-47b2-ac5d-c0b1f0cc603b","system_id":"levelo_inurba_marseille","lat":43.313571,"lon":5.384829,"is_reserved":false,"is_disabled":false,"rental_uris":{"android":"levelo://app?vid=63b59323-1af8-47b2-ac5d-c0b1f0cc603b","ios":"levelo://app?vid=63b59323-1af8-47b2-ac5d-c0b1f0cc603b"},"vehicle_type_id":"4","last_reported":1708027552,"current_range_meters":26800,"station_id":"ce4bgt92rcd13ifvqcf0","pricing_plan_id":"cebpf4jnsgd1na2vs0mg"},{"bike_id":"731f5bf0-7787-43ab-bacc-734e0a965b78","system_id":"levelo_inurba_marseille","lat":43.313571,"lon":5.384829,"is_reserved":false,"is_disabled":false,"rental_uris":{"android":"levelo://app?vid=731f5bf0-7787-43ab-bacc-734e0a965b78","ios":"levelo://app?vid=731f5bf0-7787-43ab-bacc-734e0a965b78"},"vehicle_type_id":"4","last_reported":1708027552,"current_range_meters":1600,"station_id":"ce4bgt92rcd13ifvqcf0","pricing_plan_id":"cebpf4jnsgd1na2vs0mg"},{"bike_id":"e5b43d95-2687-4a17-a25b-bfeda59c6be2","system_id":"levelo_inurba_marseille","lat":43.31355,"lon":5.38506,"is_reserved":false,"is_disabled":false,"rental_uris":{"android":"levelo://app?vid=e5b43d95-2687-4a17-a25b-bfeda59c6be2","ios":"levelo://app?vid=e5b43d95-2687-4a17-a25b-bfeda59c6be2"},"vehicle_type_id":"4","last_reported":1708027552,"current_range_meters":24400,"station_id":"ce4bgt92rcd13ifvqcf0","pricing_plan_id":"cebpf4jnsgd1na2vs0mg"},{"bike_id":"31b0c65d-b4fc-4ac5-9610-834e3115cb29","system_id":"levelo_inurba_marseille","lat":43.299724,"lon":5.371829,"is_reserved":false,"is_disabled":false,"rental_uris":{"android":"levelo://app?vid=31b0c65d-b4fc-4ac5-9610-834e3115cb29","ios":"levelo://app?vid=31b0c65d-b4fc-4ac5-9610-834e3115cb29"},"vehicle_type_id":"4","last_reported":1708027552,"current_range_meters":0,"station_id":"ce4bgr92rcd13ifvqc7g","pricing_plan_id":"cebpf4jnsgd1na2vs0mg"},{"bike_id":"ea3fcd07-5287-4bdc-ae6c-b74aca4f42f2","system_id":"levelo_inurba_marseille","lat":43.299222,"lon":5.365554,"is_reserved":false,"is_disabled":false,"rental_uris":{"android":"levelo://app?vid=ea3fcd07-5287-4bdc-ae6c-b74aca4f42f2","ios":"levelo://app?vid=ea3fcd07-5287-4bdc-ae6c-b74aca4f42f2"},"vehicle_type_id":"4","last_reported":1708027552,"current_range_meters":8400,"station_id":"ce4bgm92rcd13ifvqbr0","pricing_plan_id":"cebpf4jnsgd1na2vs0mg"},{"bike_id":"0c967a90-d95b-46f0-bdf3-21b91670fbd3","system_id":"levelo_inurba_marseille","lat":43.299222,"lon":5.365554,"is_reserved":false,"is_disabled":false,"rental_uris":{"android":"levelo://app?vid=0c967a90-d95b-46f0-bdf3-21b91670fbd3","ios":"levelo://app?vid=0c967a90-d95b-46f0-bdf3-21b91670fbd3"},"vehicle_type_id":"4","last_reported":1708027552,"current_range_meters":22800,"station_id":"ce4bgm92rcd13ifvqbr0","pricing_plan_id":"cebpf4jnsgd1na2vs0mg"},{"bike_id":"cc8a9e03-1f39-407d-aa70-25aed66f3641","system_id":"levelo_inurba_marseille","lat":43.299222,"lon":5.365554,"is_reserved":false,"is_disabled":false,"rental_uris":{"android":"levelo://app?vid=cc8a9e03-1f39-407d-aa70-25aed66f3641","ios":"levelo://app?vid=cc8a9e03-1f39-407d-aa70-25aed66f3641"},"vehicle_type_id":"4","last_reported":1708027552,"current_range_meters":21600,"station_id":"ce4bgm92rcd13ifvqbr0","pricing_plan_id":"cebpf4jnsgd1na2vs0mg"},{"bike_id":"d950ea33-3562-462c-9821-f04f0e7ecdc4","system_id":"levelo_inurba_marseille","lat":43.298433,"lon":5.362774,"is_reserved":false,"is_disabled":false,"rental_uris":{"android":"levelo://app?vid=d950ea33-3562-462c-9821-f04f0e7ecdc4","ios":"levelo://app?vid=d950ea33-3562-462c-9821-f04f0e7ecdc4"},"vehicle_type_id":"4","last_reported":1708027552,"current_range_meters":13600,"station_id":"ce4bgpp2rcd13ifvqc3g","pricing_plan_id":"cebpf4jnsgd1na2vs0mg"},{"bike_id":"64b1d29b-4da8-40e1-95c1-50ea0e17103b","system_id":"levelo_inurba_marseille","lat":43.305364,"lon":5.384119,"is_reserved":false,"is_disabled":false,"rental_uris":{"android":"levelo://app?vid=64b1d29b-4da8-40e1-95c1-50ea0e17103b","ios":"levelo://app?vid=64b1d29b-4da8-40e1-95c1-50ea0e17103b"},"vehicle_type_id":"4","last_reported":1708027552,"current_range_meters":14400,"station_id":"ce4bgg92rcd13ifvqb30","pricing_plan_id":"cebpf4jnsgd1na2vs0mg"},{"bike_id":"1fc07a73-17e0-4d89-aa87-10ead001b92e","system_id":"levelo_inurba_marseille","lat":43.305364,"lon":5.384119,"is_reserved":false,"is_disabled":false,"rental_uris":{"android":"levelo://app?vid=1fc07a73-17e0-4d89-aa87-10ead001b92e","ios":"levelo://app?vid=1fc07a73-17e0-4d89-aa87-10ead001b92e"},"vehicle_type_id":"4","last_reported":1708027552,"current_range_meters":8000,"station_id":"ce4bgg92rcd13ifvqb30","pricing_plan_id":"cebpf4jnsgd1na2vs0mg"},{"bike_id":"1a44f484-d40e-41a0-a830-8ee03f2f97cd","system_id":"levelo_inurba_marseille","lat":43.298433,"lon":5.362774,"is_reserved":false,"is_disabled":false,"rental_uris":{"android":"levelo://app?vid=1a44f484-d40e-41a0-a830-8ee03f2f97cd","ios":"levelo://app?vid=1a44f484-d40e-41a0-a830-8ee03f2f97cd"},"vehicle_type_id":"4","last_reported":1708027552,"current_range_meters":11600,"station_id":"ce4bgpp2rcd13ifvqc3g","pricing_plan_id":"cebpf4jnsgd1na2vs0mg"},{"bike_id":"b353ccdd-d8a9-4d93-96df-74745f7b3cbc","system_id":"levelo_inurba_marseille","lat":43.31174,"lon":5.38709,"is_reserved":false,"is_disabled":false,"rental_uris":{"android":"levelo://app?vid=b353ccdd-d8a9-4d93-96df-74745f7b3cbc","ios":"levelo://app?vid=b353ccdd-d8a9-4d93-96df-74745f7b3cbc"},"vehicle_type_id":"4","last_reported":1708027552,"current_range_meters":12400,"station_id":"ce4bgv12rcd13ifvqcp0","pricing_plan_id":"cebpf4jnsgd1na2vs0mg"},{"bike_id":"77925492-e52a-4eef-b997-70d0f6442e06","system_id":"levelo_inurba_marseille","lat":43.3117,"lon":5.3871,"is_reserved":false,"is_disabled":false,"rental_uris":{"android":"levelo://app?vid=77925492-e52a-4eef-b997-70d0f6442e06","ios":"levelo://app?vid=77925492-e52a-4eef-b997-70d0f6442e06"},"vehicle_type_id":"4","last_reported":1708027552,"current_range_meters":8000,"station_id":"ce4bgv12rcd13ifvqcp0","pricing_plan_id":"cebpf4jnsgd1na2vs0mg"},{"bike_id":"6b488927-ab5b-4348-9762-600050176797","system_id":"levelo_inurba_marseille","lat":43.311722,"lon":5.387247,"is_reserved":false,"is_disabled":false,"rental_uris":{"android":"levelo://app?vid=6b488927-ab5b-4348-9762-600050176797","ios":"levelo://app?vid=6b488927-ab5b-4348-9762-600050176797"},"vehicle_type_id":"4","last_reported":1708027552,"current_range_meters":1600,"station_id":"ce4bgv12rcd13ifvqcp0","pricing_plan_id":"cebpf4jnsgd1na2vs0mg"},{"bike_id":"94f61cf9-ebca-47e5-a284-a233fe291851","system_id":"levelo_inurba_marseille","lat":43.31187,"lon":5.38718,"is_reserved":false,"is_disabled":false,"rental_uris":{"android":"levelo://app?vid=94f61cf9-ebca-47e5-a284-a233fe291851","ios":"levelo://app?vid=94f61cf9-ebca-47e5-a284-a233fe291851"},"vehicle_type_id":"4","last_reported":1708027552,"current_range_meters":8000,"station_id":"ce4bgv12rcd13ifvqcp0","pricing_plan_id":"cebpf4jnsgd1na2vs0mg"},{"bike_id":"1ac8206f-4d74-40a6-bc36-14ab1c6bca5b","system_id":"levelo_inurba_marseille","lat":43.311722,"lon":5.387247,"is_reserved":false,"is_disabled":false,"rental_uris":{"android":"levelo://app?vid=1ac8206f-4d74-40a6-bc36-14ab1c6bca5b","ios":"levelo://app?vid=1ac8206f-4d74-40a6-bc36-14ab1c6bca5b"},"vehicle_type_id":"4","last_reported":1708027552,"current_range_meters":2400,"station_id":"ce4bgv12rcd13ifvqcp0","pricing_plan_id":"cebpf4jnsgd1na2vs0mg"},{"bike_id":"2abddd79-63fa-4db9-a4e3-66d79e15ffa8","system_id":"levelo_inurba_marseille","lat":43.31168,"lon":5.3872,"is_reserved":false,"is_disabled":false,"rental_uris":{"android":"levelo://app?vid=2abddd79-63fa-4db9-a4e3-66d79e15ffa8","ios":"levelo://app?vid=2abddd79-63fa-4db9-a4e3-66d79e15ffa8"},"vehicle_type_id":"4","last_reported":1708027552,"current_range_meters":5200,"station_id":"ce4bgv12rcd13ifvqcp0","pricing_plan_id":"cebpf4jnsgd1na2vs0mg"},{"bike_id":"5b12ad66-370d-411f-8a89-1045f139e107","system_id":"levelo_inurba_marseille","lat":43.322872,"lon":5.382756,"is_reserved":false,"is_disabled":false,"rental_uris":{"android":"levelo://app?vid=5b12ad66-370d-411f-8a89-1045f139e107","ios":"levelo://app?vid=5b12ad66-370d-411f-8a89-1045f139e107"},"vehicle_type_id":"4","last_reported":1708027552,"current_range_meters":15600,"station_id":"ce4bhr12rcd13ifvqhqg","pricing_plan_id":"cebpf4jnsgd1na2vs0mg"},{"bike_id":"e674677d-7bc1-48fa-80fb-1e56b1f01f35","system_id":"levelo_inurba_marseille","lat":43.322872,"lon":5.382756,"is_reserved":false,"is_disabled":false,"rental_uris":{"android":"levelo://app?vid=e674677d-7bc1-48fa-80fb-1e56b1f01f35","ios":"levelo://app?vid=e674677d-7bc1-48fa-80fb-1e56b1f01f35"},"vehicle_type_id":"4","last_reported":1708027552,"current_range_meters":22800,"station_id":"ce4bhr12rcd13ifvqhqg","pricing_plan_id":"cebpf4jnsgd1na2vs0mg"},{"bike_id":"e7ddac79-3e05-4879-8044-19bc4cd52fa1","system_id":"levelo_inurba_marseille","lat":43.322872,"lon":5.382756,"is_reserved":false,"is_disabled":false,"rental_uris":{"android":"levelo://app?vid=e7ddac79-3e05-4879-8044-19bc4cd52fa1","ios":"levelo://app?vid=e7ddac79-3e05-4879-8044-19bc4cd52fa1"},"vehicle_type_id":"4","last_reported":1708027552,"current_range_meters":5200,"station_id":"ce4bhr12rcd13ifvqhqg","pricing_plan_id":"cebpf4jnsgd1na2vs0mg"},{"bike_id":"466a0b3c-d73b-4507-b8b6-683f9244ed96","system_id":"levelo_inurba_marseille","lat":43.322872,"lon":5.382756,"is_reserved":false,"is_disabled":false,"rental_uris":{"android":"levelo://app?vid=466a0b3c-d73b-4507-b8b6-683f9244ed96","ios":"levelo://app?vid=466a0b3c-d73b-4507-b8b6-683f9244ed96"},"vehicle_type_id":"4","last_reported":1708027552,"current_range_meters":30000,"station_id":"ce4bhr12rcd13ifvqhqg","pricing_plan_id":"cebpf4jnsgd1na2vs0mg"},{"bike_id":"aed9e4ad-9c1a-4a51-8095-58a12f0b44f4","system_id":"levelo_inurba_marseille","lat":43.322872,"lon":5.382756,"is_reserved":false,"is_disabled":false,"rental_uris":{"android":"levelo://app?vid=aed9e4ad-9c1a-4a51-8095-58a12f0b44f4","ios":"levelo://app?vid=aed9e4ad-9c1a-4a51-8095-58a12f0b44f4"},"vehicle_type_id":"4","last_reported":1708027552,"current_range_meters":30800,"station_id":"ce4bhr12rcd13ifvqhqg","pricing_plan_id":"cebpf4jnsgd1na2vs0mg"},{"bike_id":"cce45d5b-b827-4599-8137-34ad81fdf112","system_id":"levelo_inurba_marseille","lat":43.322872,"lon":5.382756,"is_reserved":false,"is_disabled":false,"rental_uris":{"android":"levelo://app?vid=cce45d5b-b827-4599-8137-34ad81fdf112","ios":"levelo://app?vid=cce45d5b-b827-4599-8137-34ad81fdf112"},"vehicle_type_id":"4","last_reported":1708027552,"current_range_meters":5600,"station_id":"ce4bhr12rcd13ifvqhqg","pricing_plan_id":"cebpf4jnsgd1na2vs0mg"},{"bike_id":"f4b6c96f-f863-415f-916a-aff3ff7977d0","system_id":"levelo_inurba_marseille","lat":43.322872,"lon":5.382756,"is_reserved":false,"is_disabled":false,"rental_uris":{"android":"levelo://app?vid=f4b6c96f-f863-415f-916a-aff3ff7977d0","ios":"levelo://app?vid=f4b6c96f-f863-415f-916a-aff3ff7977d0"},"vehicle_type_id":"4","last_reported":1708027552,"current_range_meters":30800,"station_id":"ce4bhr12rcd13ifvqhqg","pricing_plan_id":"cebpf4jnsgd1na2vs0mg"},{"bike_id":"c3544a8b-3b2b-43d9-8c06-a1e4cd30f44c","system_id":"levelo_inurba_marseille","lat":43.29985,"lon":5.37852,"is_reserved":false,"is_disabled":false,"rental_uris":{"android":"levelo://app?vid=c3544a8b-3b2b-43d9-8c06-a1e4cd30f44c","ios":"levelo://app?vid=c3544a8b-3b2b-43d9-8c06-a1e4cd30f44c"},"vehicle_type_id":"4","last_reported":1708027552,"current_range_meters":800,"station_id":"","pricing_plan_id":"cebpf4jnsgd1na2vs0mg"},{"bike_id":"d059372d-713e-4306-a0dc-ef5b2b5ad059","system_id":"levelo_inurba_marseille","lat":43.32823,"lon":5.36682,"is_reserved":false,"is_disabled":false,"rental_uris":{"android":"levelo://app?vid=d059372d-713e-4306-a0dc-ef5b2b5ad059","ios":"levelo://app?vid=d059372d-713e-4306-a0dc-ef5b2b5ad059"},"vehicle_type_id":"4","last_reported":1708027552,"current_range_meters":0,"station_id":"ce4bhs92rcd13ifvqi0g","pricing_plan_id":"cebpf4jnsgd1na2vs0mg"},{"bike_id":"ec21c626-faeb-41e5-9192-4d2bef3ee4d3","system_id":"levelo_inurba_marseille","lat":43.32824,"lon":5.366817,"is_reserved":false,"is_disabled":false,"rental_uris":{"android":"levelo://app?vid=ec21c626-faeb-41e5-9192-4d2bef3ee4d3","ios":"levelo://app?vid=ec21c626-faeb-41e5-9192-4d2bef3ee4d3"},"vehicle_type_id":"4","last_reported":1708027552,"current_range_meters":4400,"station_id":"ce4bhs92rcd13ifvqi0g","pricing_plan_id":"cebpf4jnsgd1na2vs0mg"},{"bike_id":"c579bad3-e2d0-4712-a783-f41c065e4e3f","system_id":"levelo_inurba_marseille","lat":43.328248,"lon":5.366725,"is_reserved":false,"is_disabled":false,"rental_uris":{"android":"levelo://app?vid=c579bad3-e2d0-4712-a783-f41c065e4e3f","ios":"levelo://app?vid=c579bad3-e2d0-4712-a783-f41c065e4e3f"},"vehicle_type_id":"4","last_reported":1708027552,"current_range_meters":5200,"station_id":"ce4bhs92rcd13ifvqi0g","pricing_plan_id":"cebpf4jnsgd1na2vs0mg"},{"bike_id":"24cbb04a-c763-4b6c-91c7-7ce4ce9a6969","system_id":"levelo_inurba_marseille","lat":43.32826,"lon":5.36684,"is_reserved":false,"is_disabled":false,"rental_uris":{"android":"levelo://app?vid=24cbb04a-c763-4b6c-91c7-7ce4ce9a6969","ios":"levelo://app?vid=24cbb04a-c763-4b6c-91c7-7ce4ce9a6969"},"vehicle_type_id":"4","last_reported":1708027552,"current_range_meters":12000,"station_id":"ce4bhs92rcd13ifvqi0g","pricing_plan_id":"cebpf4jnsgd1na2vs0mg"},{"bike_id":"e4cc1337-7654-41c0-8296-b1f3b25edb39","system_id":"levelo_inurba_marseille","lat":43.32826,"lon":5.36681,"is_reserved":false,"is_disabled":false,"rental_uris":{"android":"levelo://app?vid=e4cc1337-7654-41c0-8296-b1f3b25edb39","ios":"levelo://app?vid=e4cc1337-7654-41c0-8296-b1f3b25edb39"},"vehicle_type_id":"4","last_reported":1708027552,"current_range_meters":12000,"station_id":"ce4bhs92rcd13ifvqi0g","pricing_plan_id":"cebpf4jnsgd1na2vs0mg"},{"bike_id":"b354d40e-f748-45df-b8a4-085ee0f39b31","system_id":"levelo_inurba_marseille","lat":43.32827,"lon":5.36682,"is_reserved":false,"is_disabled":false,"rental_uris":{"android":"levelo://app?vid=b354d40e-f748-45df-b8a4-085ee0f39b31","ios":"levelo://app?vid=b354d40e-f748-45df-b8a4-085ee0f39b31"},"vehicle_type_id":"4","last_reported":1708027552,"current_range_meters":20000,"station_id":"ce4bhs92rcd13ifvqi0g","pricing_plan_id":"cebpf4jnsgd1na2vs0mg"},{"bike_id":"4a0314a3-53ac-4faf-a81a-365240b15a43","system_id":"levelo_inurba_marseille","lat":43.32828,"lon":5.36682,"is_reserved":false,"is_disabled":false,"rental_uris":{"android":"levelo://app?vid=4a0314a3-53ac-4faf-a81a-365240b15a43","ios":"levelo://app?vid=4a0314a3-53ac-4faf-a81a-365240b15a43"},"vehicle_type_id":"4","last_reported":1708027552,"current_range_meters":26000,"station_id":"ce4bhs92rcd13ifvqi0g","pricing_plan_id":"cebpf4jnsgd1na2vs0mg"},{"bike_id":"e53477e0-6f81-44d0-bf92-8c0c4ae8ef5b","system_id":"levelo_inurba_marseille","lat":43.32828,"lon":5.3668,"is_reserved":false,"is_disabled":false,"rental_uris":{"android":"levelo://app?vid=e53477e0-6f81-44d0-bf92-8c0c4ae8ef5b","ios":"levelo://app?vid=e53477e0-6f81-44d0-bf92-8c0c4ae8ef5b"},"vehicle_type_id":"4","last_reported":1708027552,"current_range_meters":13200,"station_id":"ce4bhs92rcd13ifvqi0g","pricing_plan_id":"cebpf4jnsgd1na2vs0mg"},{"bike_id":"ecc597d3-f2ea-41b5-b374-bc2279e4f21f","system_id":"levelo_inurba_marseille","lat":43.32828,"lon":5.3668,"is_reserved":false,"is_disabled":false,"rental_uris":{"android":"levelo://app?vid=ecc597d3-f2ea-41b5-b374-bc2279e4f21f","ios":"levelo://app?vid=ecc597d3-f2ea-41b5-b374-bc2279e4f21f"},"vehicle_type_id":"4","last_reported":1708027552,"current_range_meters":6400,"station_id":"ce4bhs92rcd13ifvqi0g","pricing_plan_id":"cebpf4jnsgd1na2vs0mg"},{"bike_id":"cba05e70-e0bd-44a4-939c-447adab5adfd","system_id":"levelo_inurba_marseille","lat":43.32829,"lon":5.36679,"is_reserved":false,"is_disabled":false,"rental_uris":{"android":"levelo://app?vid=cba05e70-e0bd-44a4-939c-447adab5adfd","ios":"levelo://app?vid=cba05e70-e0bd-44a4-939c-447adab5adfd"},"vehicle_type_id":"4","last_reported":1708027552,"current_range_meters":4400,"station_id":"ce4bhs92rcd13ifvqi0g","pricing_plan_id":"cebpf4jnsgd1na2vs0mg"},{"bike_id":"20747a73-3ec2-4ec7-9c3a-f0ad85525260","system_id":"levelo_inurba_marseille","lat":43.32829,"lon":5.36678,"is_reserved":false,"is_disabled":false,"rental_uris":{"android":"levelo://app?vid=20747a73-3ec2-4ec7-9c3a-f0ad85525260","ios":"levelo://app?vid=20747a73-3ec2-4ec7-9c3a-f0ad85525260"},"vehicle_type_id":"4","last_reported":1708027552,"current_range_meters":0,"station_id":"ce4bhs92rcd13ifvqi0g","pricing_plan_id":"cebpf4jnsgd1na2vs0mg"},{"bike_id":"57f57f96-aa15-40ae-a761-f5242a8c30b7","system_id":"levelo_inurba_marseille","lat":43.328293,"lon":5.366806,"is_reserved":false,"is_disabled":false,"rental_uris":{"android":"levelo://app?vid=57f57f96-aa15-40ae-a761-f5242a8c30b7","ios":"levelo://app?vid=57f57f96-aa15-40ae-a761-f5242a8c30b7"},"vehicle_type_id":"4","last_reported":1708027552,"current_range_meters":10800,"station_id":"ce4bhs92rcd13ifvqi0g","pricing_plan_id":"cebpf4jnsgd1na2vs0mg"},{"bike_id":"88a6f283-ebdc-4116-9bbe-c490469db988","system_id":"levelo_inurba_marseille","lat":43.297163,"lon":5.365866,"is_reserved":false,"is_disabled":false,"rental_uris":{"android":"levelo://app?vid=88a6f283-ebdc-4116-9bbe-c490469db988","ios":"levelo://app?vid=88a6f283-ebdc-4116-9bbe-c490469db988"},"vehicle_type_id":"4","last_reported":1708027552,"current_range_meters":18400,"station_id":"ce4bgn12rcd13ifvqbt0","pricing_plan_id":"cebpf4jnsgd1na2vs0mg"},{"bike_id":"7c47e388-9433-4092-857a-2e1a28e7faaa","system_id":"levelo_inurba_marseille","lat":43.3283,"lon":5.36676,"is_reserved":false,"is_disabled":false,"rental_uris":{"android":"levelo://app?vid=7c47e388-9433-4092-857a-2e1a28e7faaa","ios":"levelo://app?vid=7c47e388-9433-4092-857a-2e1a28e7faaa"},"vehicle_type_id":"4","last_reported":1708027552,"current_range_meters":22400,"station_id":"ce4bhs92rcd13ifvqi0g","pricing_plan_id":"cebpf4jnsgd1na2vs0mg"},{"bike_id":"c9b88aad-86c2-4a51-9436-08e8586a0048","system_id":"levelo_inurba_marseille","lat":43.32831,"lon":5.36681,"is_reserved":false,"is_disabled":false,"rental_uris":{"android":"levelo://app?vid=c9b88aad-86c2-4a51-9436-08e8586a0048","ios":"levelo://app?vid=c9b88aad-86c2-4a51-9436-08e8586a0048"},"vehicle_type_id":"4","last_reported":1708027552,"current_range_meters":14800,"station_id":"ce4bhs92rcd13ifvqi0g","pricing_plan_id":"cebpf4jnsgd1na2vs0mg"},{"bike_id":"8b36ce43-3bc7-4f8a-bb1e-1f87c12ac26a","system_id":"levelo_inurba_marseille","lat":43.32831,"lon":5.36674,"is_reserved":false,"is_disabled":false,"rental_uris":{"android":"levelo://app?vid=8b36ce43-3bc7-4f8a-bb1e-1f87c12ac26a","ios":"levelo://app?vid=8b36ce43-3bc7-4f8a-bb1e-1f87c12ac26a"},"vehicle_type_id":"4","last_reported":1708027552,"current_range_meters":4800,"station_id":"ce4bhs92rcd13ifvqi0g","pricing_plan_id":"cebpf4jnsgd1na2vs0mg"},{"bike_id":"8d4d4aba-3495-4235-ada7-809a0bcb5c57","system_id":"levelo_inurba_marseille","lat":43.328317,"lon":5.366759,"is_reserved":false,"is_disabled":false,"rental_uris":{"android":"levelo://app?vid=8d4d4aba-3495-4235-ada7-809a0bcb5c57","ios":"levelo://app?vid=8d4d4aba-3495-4235-ada7-809a0bcb5c57"},"vehicle_type_id":"4","last_reported":1708027552,"current_range_meters":18000,"station_id":"ce4bhs92rcd13ifvqi0g","pricing_plan_id":"cebpf4jnsgd1na2vs0mg"},{"bike_id":"f6fd5bcb-70c3-4075-907f-89cd05fc7584","system_id":"levelo_inurba_marseille","lat":43.32832,"lon":5.36688,"is_reserved":false,"is_disabled":false,"rental_uris":{"android":"levelo://app?vid=f6fd5bcb-70c3-4075-907f-89cd05fc7584","ios":"levelo://app?vid=f6fd5bcb-70c3-4075-907f-89cd05fc7584"},"vehicle_type_id":"4","last_reported":1708027552,"current_range_meters":0,"station_id":"ce4bhs92rcd13ifvqi0g","pricing_plan_id":"cebpf4jnsgd1na2vs0mg"},{"bike_id":"00c486e2-5b6f-4240-9c00-f34f4cd392e2","system_id":"levelo_inurba_marseille","lat":43.32833,"lon":5.36682,"is_reserved":false,"is_disabled":false,"rental_uris":{"android":"levelo://app?vid=00c486e2-5b6f-4240-9c00-f34f4cd392e2","ios":"levelo://app?vid=00c486e2-5b6f-4240-9c00-f34f4cd392e2"},"vehicle_type_id":"4","last_reported":1708027552,"current_range_meters":12000,"station_id":"ce4bhs92rcd13ifvqi0g","pricing_plan_id":"cebpf4jnsgd1na2vs0mg"},{"bike_id":"78be67a2-342c-453a-88c1-566ae1ae49d2","system_id":"levelo_inurba_marseille","lat":43.29715,"lon":5.36608,"is_reserved":false,"is_disabled":false,"rental_uris":{"android":"levelo://app?vid=78be67a2-342c-453a-88c1-566ae1ae49d2","ios":"levelo://app?vid=78be67a2-342c-453a-88c1-566ae1ae49d2"},"vehicle_type_id":"4","last_reported":1708027552,"current_range_meters":5600,"station_id":"ce4bgn12rcd13ifvqbt0","pricing_plan_id":"cebpf4jnsgd1na2vs0mg"},{"bike_id":"01ef1e87-7b88-4771-aca4-bf0407485e75","system_id":"levelo_inurba_marseille","lat":43.297163,"lon":5.365866,"is_reserved":false,"is_disabled":false,"rental_uris":{"android":"levelo://app?vid=01ef1e87-7b88-4771-aca4-bf0407485e75","ios":"levelo://app?vid=01ef1e87-7b88-4771-aca4-bf0407485e75"},"vehicle_type_id":"4","last_reported":1708027552,"current_range_meters":26400,"station_id":"ce4bgn12rcd13ifvqbt0","pricing_plan_id":"cebpf4jnsgd1na2vs0mg"},{"bike_id":"ab142448-ffed-49e3-bc9a-32006e08dccc","system_id":"levelo_inurba_marseille","lat":43.297114,"lon":5.36591,"is_reserved":false,"is_disabled":false,"rental_uris":{"android":"levelo://app?vid=ab142448-ffed-49e3-bc9a-32006e08dccc","ios":"levelo://app?vid=ab142448-ffed-49e3-bc9a-32006e08dccc"},"vehicle_type_id":"4","last_reported":1708027552,"current_range_meters":12800,"station_id":"ce4bgn12rcd13ifvqbt0","pricing_plan_id":"cebpf4jnsgd1na2vs0mg"},{"bike_id":"6683842f-a6f1-429e-8ef0-9530f8f45a09","system_id":"levelo_inurba_marseille","lat":43.297163,"lon":5.365866,"is_reserved":false,"is_disabled":false,"rental_uris":{"android":"levelo://app?vid=6683842f-a6f1-429e-8ef0-9530f8f45a09","ios":"levelo://app?vid=6683842f-a6f1-429e-8ef0-9530f8f45a09"},"vehicle_type_id":"4","last_reported":1708027552,"current_range_meters":22400,"station_id":"ce4bgn12rcd13ifvqbt0","pricing_plan_id":"cebpf4jnsgd1na2vs0mg"},{"bike_id":"9d7784e4-fdd2-4fa1-ba7c-236cc8eb1c32","system_id":"levelo_inurba_marseille","lat":43.297104,"lon":5.366036,"is_reserved":false,"is_disabled":false,"rental_uris":{"android":"levelo://app?vid=9d7784e4-fdd2-4fa1-ba7c-236cc8eb1c32","ios":"levelo://app?vid=9d7784e4-fdd2-4fa1-ba7c-236cc8eb1c32"},"vehicle_type_id":"4","last_reported":1708027552,"current_range_meters":0,"station_id":"ce4bgn12rcd13ifvqbt0","pricing_plan_id":"cebpf4jnsgd1na2vs0mg"},{"bike_id":"b3bfa99e-7b4d-497b-94ef-3442263afaf4","system_id":"levelo_inurba_marseille","lat":43.297163,"lon":5.365866,"is_reserved":false,"is_disabled":false,"rental_uris":{"android":"levelo://app?vid=b3bfa99e-7b4d-497b-94ef-3442263afaf4","ios":"levelo://app?vid=b3bfa99e-7b4d-497b-94ef-3442263afaf4"},"vehicle_type_id":"4","last_reported":1708027552,"current_range_meters":1200,"station_id":"ce4bgn12rcd13ifvqbt0","pricing_plan_id":"cebpf4jnsgd1na2vs0mg"},{"bike_id":"cc4ce816-decb-4e5e-8ea3-540d91db8d62","system_id":"levelo_inurba_marseille","lat":43.297163,"lon":5.365866,"is_reserved":false,"is_disabled":false,"rental_uris":{"android":"levelo://app?vid=cc4ce816-decb-4e5e-8ea3-540d91db8d62","ios":"levelo://app?vid=cc4ce816-decb-4e5e-8ea3-540d91db8d62"},"vehicle_type_id":"4","last_reported":1708027552,"current_range_meters":21200,"station_id":"ce4bgn12rcd13ifvqbt0","pricing_plan_id":"cebpf4jnsgd1na2vs0mg"},{"bike_id":"1d5a721a-ff55-453f-a940-47eadee44d7e","system_id":"levelo_inurba_marseille","lat":43.297163,"lon":5.365866,"is_reserved":false,"is_disabled":false,"rental_uris":{"android":"levelo://app?vid=1d5a721a-ff55-453f-a940-47eadee44d7e","ios":"levelo://app?vid=1d5a721a-ff55-453f-a940-47eadee44d7e"},"vehicle_type_id":"4","last_reported":1708027552,"current_range_meters":11200,"station_id":"ce4bgn12rcd13ifvqbt0","pricing_plan_id":"cebpf4jnsgd1na2vs0mg"},{"bike_id":"7c5cc08f-b03f-4484-b32c-8d41b0218b56","system_id":"levelo_inurba_marseille","lat":43.296129,"lon":5.370777,"is_reserved":false,"is_disabled":false,"rental_uris":{"android":"levelo://app?vid=7c5cc08f-b03f-4484-b32c-8d41b0218b56","ios":"levelo://app?vid=7c5cc08f-b03f-4484-b32c-8d41b0218b56"},"vehicle_type_id":"4","last_reported":1708027552,"current_range_meters":23200,"station_id":"ce4bgnh2rcd13ifvqc0g","pricing_plan_id":"cebpf4jnsgd1na2vs0mg"},{"bike_id":"5c642904-eb14-4159-9e5d-c64f03260fff","system_id":"levelo_inurba_marseille","lat":43.296131,"lon":5.370791,"is_reserved":false,"is_disabled":false,"rental_uris":{"android":"levelo://app?vid=5c642904-eb14-4159-9e5d-c64f03260fff","ios":"levelo://app?vid=5c642904-eb14-4159-9e5d-c64f03260fff"},"vehicle_type_id":"4","last_reported":1708027552,"current_range_meters":16400,"station_id":"ce4bgnh2rcd13ifvqc0g","pricing_plan_id":"cebpf4jnsgd1na2vs0mg"},{"bike_id":"0f5c583a-ce23-425b-b75e-b32bf6a87736","system_id":"levelo_inurba_marseille","lat":43.296935,"lon":5.376544,"is_reserved":false,"is_disabled":false,"rental_uris":{"android":"levelo://app?vid=0f5c583a-ce23-425b-b75e-b32bf6a87736","ios":"levelo://app?vid=0f5c583a-ce23-425b-b75e-b32bf6a87736"},"vehicle_type_id":"4","last_reported":1708027552,"current_range_meters":0,"station_id":"ce4bgkh2rcd13ifvqbl0","pricing_plan_id":"cebpf4jnsgd1na2vs0mg"},{"bike_id":"696649f6-08f1-41dc-aaaf-61189d9acabd","system_id":"levelo_inurba_marseille","lat":43.299028,"lon":5.381509,"is_reserved":false,"is_disabled":false,"rental_uris":{"android":"levelo://app?vid=696649f6-08f1-41dc-aaaf-61189d9acabd","ios":"levelo://app?vid=696649f6-08f1-41dc-aaaf-61189d9acabd"},"vehicle_type_id":"4","last_reported":1708027552,"current_range_meters":2400,"station_id":"ce4bgj12rcd13ifvqbc0","pricing_plan_id":"cebpf4jnsgd1na2vs0mg"},{"bike_id":"889be071-3287-4b4b-b872-eab0c0351509","system_id":"levelo_inurba_marseille","lat":43.299028,"lon":5.381509,"is_reserved":false,"is_disabled":false,"rental_uris":{"android":"levelo://app?vid=889be071-3287-4b4b-b872-eab0c0351509","ios":"levelo://app?vid=889be071-3287-4b4b-b872-eab0c0351509"},"vehicle_type_id":"4","last_reported":1708027552,"current_range_meters":13600,"station_id":"ce4bgj12rcd13ifvqbc0","pricing_plan_id":"cebpf4jnsgd1na2vs0mg"},{"bike_id":"f0c70a5f-b0c3-4df4-9f2f-b2d519a459b6","system_id":"levelo_inurba_marseille","lat":43.3096,"lon":5.3903,"is_reserved":false,"is_disabled":false,"rental_uris":{"android":"levelo://app?vid=f0c70a5f-b0c3-4df4-9f2f-b2d519a459b6","ios":"levelo://app?vid=f0c70a5f-b0c3-4df4-9f2f-b2d519a459b6"},"vehicle_type_id":"4","last_reported":1708027552,"current_range_meters":0,"station_id":"ce4bgup2rcd13ifvqco0","pricing_plan_id":"cebpf4jnsgd1na2vs0mg"},{"bike_id":"04a263cc-f7fb-40e2-9889-8225f7c983b8","system_id":"levelo_inurba_marseille","lat":43.31757,"lon":5.3901,"is_reserved":false,"is_disabled":false,"rental_uris":{"android":"levelo://app?vid=04a263cc-f7fb-40e2-9889-8225f7c983b8","ios":"levelo://app?vid=04a263cc-f7fb-40e2-9889-8225f7c983b8"},"vehicle_type_id":"4","last_reported":1708027552,"current_range_meters":800,"station_id":"ce4bhqp2rcd13ifvqhng","pricing_plan_id":"cebpf4jnsgd1na2vs0mg"},{"bike_id":"5615b1b1-8ed0-4dab-be0f-5a22c7f9240d","system_id":"levelo_inurba_marseille","lat":43.317443,"lon":5.390165,"is_reserved":false,"is_disabled":false,"rental_uris":{"android":"levelo://app?vid=5615b1b1-8ed0-4dab-be0f-5a22c7f9240d","ios":"levelo://app?vid=5615b1b1-8ed0-4dab-be0f-5a22c7f9240d"},"vehicle_type_id":"4","last_reported":1708027552,"current_range_meters":0,"station_id":"ce4bhqp2rcd13ifvqhng","pricing_plan_id":"cebpf4jnsgd1na2vs0mg"},{"bike_id":"12fde8e2-7aff-44e5-b0cb-316b4dfe9ecf","system_id":"levelo_inurba_marseille","lat":43.317557,"lon":5.390173,"is_reserved":false,"is_disabled":false,"rental_uris":{"android":"levelo://app?vid=12fde8e2-7aff-44e5-b0cb-316b4dfe9ecf","ios":"levelo://app?vid=12fde8e2-7aff-44e5-b0cb-316b4dfe9ecf"},"vehicle_type_id":"4","last_reported":1708027552,"current_range_meters":28400,"station_id":"ce4bhqp2rcd13ifvqhng","pricing_plan_id":"cebpf4jnsgd1na2vs0mg"},{"bike_id":"b3dcb9ba-bf07-48c1-aada-2fbdb761a352","system_id":"levelo_inurba_marseille","lat":43.317557,"lon":5.390173,"is_reserved":false,"is_disabled":false,"rental_uris":{"android":"levelo://app?vid=b3dcb9ba-bf07-48c1-aada-2fbdb761a352","ios":"levelo://app?vid=b3dcb9ba-bf07-48c1-aada-2fbdb761a352"},"vehicle_type_id":"4","last_reported":1708027552,"current_range_meters":31200,"station_id":"ce4bhqp2rcd13ifvqhng","pricing_plan_id":"cebpf4jnsgd1na2vs0mg"},{"bike_id":"27aaf622-ad2c-42b5-9690-9fff0a27e24d","system_id":"levelo_inurba_marseille","lat":43.317557,"lon":5.390173,"is_reserved":false,"is_disabled":false,"rental_uris":{"android":"levelo://app?vid=27aaf622-ad2c-42b5-9690-9fff0a27e24d","ios":"levelo://app?vid=27aaf622-ad2c-42b5-9690-9fff0a27e24d"},"vehicle_type_id":"4","last_reported":1708027552,"current_range_meters":29200,"station_id":"ce4bhqp2rcd13ifvqhng","pricing_plan_id":"cebpf4jnsgd1na2vs0mg"},{"bike_id":"3c38ba32-70ff-4337-9a08-60dfc7c379b5","system_id":"levelo_inurba_marseille","lat":43.31748,"lon":5.390193,"is_reserved":false,"is_disabled":false,"rental_uris":{"android":"levelo://app?vid=3c38ba32-70ff-4337-9a08-60dfc7c379b5","ios":"levelo://app?vid=3c38ba32-70ff-4337-9a08-60dfc7c379b5"},"vehicle_type_id":"4","last_reported":1708027552,"current_range_meters":19600,"station_id":"ce4bhqp2rcd13ifvqhng","pricing_plan_id":"cebpf4jnsgd1na2vs0mg"},{"bike_id":"4d1fc426-76ca-4e7f-b775-e8d4d4862683","system_id":"levelo_inurba_marseille","lat":43.317557,"lon":5.390173,"is_reserved":false,"is_disabled":false,"rental_uris":{"android":"levelo://app?vid=4d1fc426-76ca-4e7f-b775-e8d4d4862683","ios":"levelo://app?vid=4d1fc426-76ca-4e7f-b775-e8d4d4862683"},"vehicle_type_id":"4","last_reported":1708027552,"current_range_meters":31200,"station_id":"ce4bhqp2rcd13ifvqhng","pricing_plan_id":"cebpf4jnsgd1na2vs0mg"},{"bike_id":"0d568f49-9e25-417a-91e9-babe78949eca","system_id":"levelo_inurba_marseille","lat":43.317557,"lon":5.390173,"is_reserved":false,"is_disabled":false,"rental_uris":{"android":"levelo://app?vid=0d568f49-9e25-417a-91e9-babe78949eca","ios":"levelo://app?vid=0d568f49-9e25-417a-91e9-babe78949eca"},"vehicle_type_id":"4","last_reported":1708027552,"current_range_meters":31200,"station_id":"ce4bhqp2rcd13ifvqhng","pricing_plan_id":"cebpf4jnsgd1na2vs0mg"},{"bike_id":"b38bbca5-1482-40ad-8405-56dac9cba366","system_id":"levelo_inurba_marseille","lat":43.317557,"lon":5.390173,"is_reserved":false,"is_disabled":false,"rental_uris":{"android":"levelo://app?vid=b38bbca5-1482-40ad-8405-56dac9cba366","ios":"levelo://app?vid=b38bbca5-1482-40ad-8405-56dac9cba366"},"vehicle_type_id":"4","last_reported":1708027552,"current_range_meters":26400,"station_id":"ce4bhqp2rcd13ifvqhng","pricing_plan_id":"cebpf4jnsgd1na2vs0mg"},{"bike_id":"cece8118-751e-4704-b260-95811fc140db","system_id":"levelo_inurba_marseille","lat":43.317557,"lon":5.390173,"is_reserved":false,"is_disabled":false,"rental_uris":{"android":"levelo://app?vid=cece8118-751e-4704-b260-95811fc140db","ios":"levelo://app?vid=cece8118-751e-4704-b260-95811fc140db"},"vehicle_type_id":"4","last_reported":1708027552,"current_range_meters":30400,"station_id":"ce4bhqp2rcd13ifvqhng","pricing_plan_id":"cebpf4jnsgd1na2vs0mg"},{"bike_id":"99a7952a-5e76-4d5b-ad59-e7eef185922b","system_id":"levelo_inurba_marseille","lat":43.298037,"lon":5.381066,"is_reserved":false,"is_disabled":false,"rental_uris":{"android":"levelo://app?vid=99a7952a-5e76-4d5b-ad59-e7eef185922b","ios":"levelo://app?vid=99a7952a-5e76-4d5b-ad59-e7eef185922b"},"vehicle_type_id":"4","last_reported":1708027552,"current_range_meters":18400,"station_id":"ce4bgip2rcd13ifvqbb0","pricing_plan_id":"cebpf4jnsgd1na2vs0mg"},{"bike_id":"649d0103-8b16-4e59-a312-377cf528357b","system_id":"levelo_inurba_marseille","lat":43.304274,"lon":5.388873,"is_reserved":false,"is_disabled":false,"rental_uris":{"android":"levelo://app?vid=649d0103-8b16-4e59-a312-377cf528357b","ios":"levelo://app?vid=649d0103-8b16-4e59-a312-377cf528357b"},"vehicle_type_id":"4","last_reported":1708027552,"current_range_meters":27200,"station_id":"ce4bgk12rcd13ifvqbi0","pricing_plan_id":"cebpf4jnsgd1na2vs0mg"},{"bike_id":"aff7d24a-a584-4a7f-b719-8c2cc557f24a","system_id":"levelo_inurba_marseille","lat":43.298037,"lon":5.381066,"is_reserved":false,"is_disabled":false,"rental_uris":{"android":"levelo://app?vid=aff7d24a-a584-4a7f-b719-8c2cc557f24a","ios":"levelo://app?vid=aff7d24a-a584-4a7f-b719-8c2cc557f24a"},"vehicle_type_id":"4","last_reported":1708027552,"current_range_meters":9600,"station_id":"ce4bgip2rcd13ifvqbb0","pricing_plan_id":"cebpf4jnsgd1na2vs0mg"},{"bike_id":"4a794ffe-f74f-429b-b6e7-d6bd3c655303","system_id":"levelo_inurba_marseille","lat":43.299707,"lon":5.384859,"is_reserved":false,"is_disabled":false,"rental_uris":{"android":"levelo://app?vid=4a794ffe-f74f-429b-b6e7-d6bd3c655303","ios":"levelo://app?vid=4a794ffe-f74f-429b-b6e7-d6bd3c655303"},"vehicle_type_id":"4","last_reported":1708027552,"current_range_meters":22000,"station_id":"ce4bgj92rcd13ifvqbd0","pricing_plan_id":"cebpf4jnsgd1na2vs0mg"},{"bike_id":"28127f74-97ae-4515-99ed-dfdd77eedf7f","system_id":"levelo_inurba_marseille","lat":43.295279,"lon":5.375048,"is_reserved":false,"is_disabled":false,"rental_uris":{"android":"levelo://app?vid=28127f74-97ae-4515-99ed-dfdd77eedf7f","ios":"levelo://app?vid=28127f74-97ae-4515-99ed-dfdd77eedf7f"},"vehicle_type_id":"4","last_reported":1708027552,"current_range_meters":6000,"station_id":"ce4bgkp2rcd13ifvqbmg","pricing_plan_id":"cebpf4jnsgd1na2vs0mg"},{"bike_id":"c305863f-6ebc-40c5-9acb-35e44ab49e85","system_id":"levelo_inurba_marseille","lat":43.299707,"lon":5.384859,"is_reserved":false,"is_disabled":false,"rental_uris":{"android":"levelo://app?vid=c305863f-6ebc-40c5-9acb-35e44ab49e85","ios":"levelo://app?vid=c305863f-6ebc-40c5-9acb-35e44ab49e85"},"vehicle_type_id":"4","last_reported":1708027552,"current_range_meters":31200,"station_id":"ce4bgj92rcd13ifvqbd0","pricing_plan_id":"cebpf4jnsgd1na2vs0mg"},{"bike_id":"32fcfdc2-31e5-4f4c-ad23-4553babcbd2b","system_id":"levelo_inurba_marseille","lat":43.299707,"lon":5.384859,"is_reserved":false,"is_disabled":false,"rental_uris":{"android":"levelo://app?vid=32fcfdc2-31e5-4f4c-ad23-4553babcbd2b","ios":"levelo://app?vid=32fcfdc2-31e5-4f4c-ad23-4553babcbd2b"},"vehicle_type_id":"4","last_reported":1708027552,"current_range_meters":4000,"station_id":"ce4bgj92rcd13ifvqbd0","pricing_plan_id":"cebpf4jnsgd1na2vs0mg"},{"bike_id":"7fa3d769-ad1b-421b-b45c-94c8825ebd37","system_id":"levelo_inurba_marseille","lat":43.299707,"lon":5.384859,"is_reserved":false,"is_disabled":false,"rental_uris":{"android":"levelo://app?vid=7fa3d769-ad1b-421b-b45c-94c8825ebd37","ios":"levelo://app?vid=7fa3d769-ad1b-421b-b45c-94c8825ebd37"},"vehicle_type_id":"4","last_reported":1708027552,"current_range_meters":19200,"station_id":"ce4bgj92rcd13ifvqbd0","pricing_plan_id":"cebpf4jnsgd1na2vs0mg"},{"bike_id":"0a32167d-9eb0-40df-ba33-8a806e86b061","system_id":"levelo_inurba_marseille","lat":43.299724,"lon":5.384848,"is_reserved":false,"is_disabled":false,"rental_uris":{"android":"levelo://app?vid=0a32167d-9eb0-40df-ba33-8a806e86b061","ios":"levelo://app?vid=0a32167d-9eb0-40df-ba33-8a806e86b061"},"vehicle_type_id":"4","last_reported":1708027552,"current_range_meters":24800,"station_id":"ce4bgj92rcd13ifvqbd0","pricing_plan_id":"cebpf4jnsgd1na2vs0mg"},{"bike_id":"422ae9dd-c1bf-4018-9c83-03ec266b91e5","system_id":"levelo_inurba_marseille","lat":43.299724,"lon":5.384848,"is_reserved":false,"is_disabled":false,"rental_uris":{"android":"levelo://app?vid=422ae9dd-c1bf-4018-9c83-03ec266b91e5","ios":"levelo://app?vid=422ae9dd-c1bf-4018-9c83-03ec266b91e5"},"vehicle_type_id":"4","last_reported":1708027552,"current_range_meters":8800,"station_id":"ce4bgj92rcd13ifvqbd0","pricing_plan_id":"cebpf4jnsgd1na2vs0mg"},{"bike_id":"f1a530a1-c6b1-48dd-9694-bf3f39cf1bae","system_id":"levelo_inurba_marseille","lat":43.29971,"lon":5.38495,"is_reserved":false,"is_disabled":false,"rental_uris":{"android":"levelo://app?vid=f1a530a1-c6b1-48dd-9694-bf3f39cf1bae","ios":"levelo://app?vid=f1a530a1-c6b1-48dd-9694-bf3f39cf1bae"},"vehicle_type_id":"4","last_reported":1708027552,"current_range_meters":3200,"station_id":"ce4bgj92rcd13ifvqbd0","pricing_plan_id":"cebpf4jnsgd1na2vs0mg"},{"bike_id":"98dace74-5b72-45a5-952c-188256c91f4b","system_id":"levelo_inurba_marseille","lat":43.299717,"lon":5.384845,"is_reserved":false,"is_disabled":false,"rental_uris":{"android":"levelo://app?vid=98dace74-5b72-45a5-952c-188256c91f4b","ios":"levelo://app?vid=98dace74-5b72-45a5-952c-188256c91f4b"},"vehicle_type_id":"4","last_reported":1708027552,"current_range_meters":10000,"station_id":"ce4bgj92rcd13ifvqbd0","pricing_plan_id":"cebpf4jnsgd1na2vs0mg"},{"bike_id":"30dd40a2-dc6b-4af8-a5cb-2bc30fdc0cc0","system_id":"levelo_inurba_marseille","lat":43.29965,"lon":5.38491,"is_reserved":false,"is_disabled":false,"rental_uris":{"android":"levelo://app?vid=30dd40a2-dc6b-4af8-a5cb-2bc30fdc0cc0","ios":"levelo://app?vid=30dd40a2-dc6b-4af8-a5cb-2bc30fdc0cc0"},"vehicle_type_id":"4","last_reported":1708027552,"current_range_meters":12800,"station_id":"ce4bgj92rcd13ifvqbd0","pricing_plan_id":"cebpf4jnsgd1na2vs0mg"},{"bike_id":"d6b1daac-43c9-4eb8-8878-e160d352ad2b","system_id":"levelo_inurba_marseille","lat":43.299724,"lon":5.384848,"is_reserved":false,"is_disabled":false,"rental_uris":{"android":"levelo://app?vid=d6b1daac-43c9-4eb8-8878-e160d352ad2b","ios":"levelo://app?vid=d6b1daac-43c9-4eb8-8878-e160d352ad2b"},"vehicle_type_id":"4","last_reported":1708027552,"current_range_meters":15200,"station_id":"ce4bgj92rcd13ifvqbd0","pricing_plan_id":"cebpf4jnsgd1na2vs0mg"},{"bike_id":"82619410-542c-4304-b531-de5dcbc0d470","system_id":"levelo_inurba_marseille","lat":43.29966,"lon":5.38493,"is_reserved":false,"is_disabled":false,"rental_uris":{"android":"levelo://app?vid=82619410-542c-4304-b531-de5dcbc0d470","ios":"levelo://app?vid=82619410-542c-4304-b531-de5dcbc0d470"},"vehicle_type_id":"4","last_reported":1708027552,"current_range_meters":13200,"station_id":"ce4bgj92rcd13ifvqbd0","pricing_plan_id":"cebpf4jnsgd1na2vs0mg"},{"bike_id":"88561390-3c6e-47ec-879a-90250bebe726","system_id":"levelo_inurba_marseille","lat":43.299707,"lon":5.384859,"is_reserved":false,"is_disabled":false,"rental_uris":{"android":"levelo://app?vid=88561390-3c6e-47ec-879a-90250bebe726","ios":"levelo://app?vid=88561390-3c6e-47ec-879a-90250bebe726"},"vehicle_type_id":"4","last_reported":1708027552,"current_range_meters":2800,"station_id":"ce4bgj92rcd13ifvqbd0","pricing_plan_id":"cebpf4jnsgd1na2vs0mg"},{"bike_id":"7b8eb90b-c903-40b2-aef6-6e346453d38b","system_id":"levelo_inurba_marseille","lat":43.29954,"lon":5.38479,"is_reserved":false,"is_disabled":false,"rental_uris":{"android":"levelo://app?vid=7b8eb90b-c903-40b2-aef6-6e346453d38b","ios":"levelo://app?vid=7b8eb90b-c903-40b2-aef6-6e346453d38b"},"vehicle_type_id":"4","last_reported":1708027552,"current_range_meters":8000,"station_id":"ce4bgj92rcd13ifvqbd0","pricing_plan_id":"cebpf4jnsgd1na2vs0mg"},{"bike_id":"db5a62d4-f9ba-40ff-9ae3-5d05cc8e7704","system_id":"levelo_inurba_marseille","lat":43.32367,"lon":5.388836,"is_reserved":false,"is_disabled":false,"rental_uris":{"android":"levelo://app?vid=db5a62d4-f9ba-40ff-9ae3-5d05cc8e7704","ios":"levelo://app?vid=db5a62d4-f9ba-40ff-9ae3-5d05cc8e7704"},"vehicle_type_id":"4","last_reported":1708027552,"current_range_meters":7200,"station_id":"ce4bhqp2rcd13ifvqhog","pricing_plan_id":"cebpf4jnsgd1na2vs0mg"},{"bike_id":"6b32b9df-9405-4269-9cf5-822f31cada6a","system_id":"levelo_inurba_marseille","lat":43.32367,"lon":5.388836,"is_reserved":false,"is_disabled":false,"rental_uris":{"android":"levelo://app?vid=6b32b9df-9405-4269-9cf5-822f31cada6a","ios":"levelo://app?vid=6b32b9df-9405-4269-9cf5-822f31cada6a"},"vehicle_type_id":"4","last_reported":1708027552,"current_range_meters":22400,"station_id":"ce4bhqp2rcd13ifvqhog","pricing_plan_id":"cebpf4jnsgd1na2vs0mg"},{"bike_id":"9a785585-c85b-4fa3-85aa-80d29ca57d9f","system_id":"levelo_inurba_marseille","lat":43.32367,"lon":5.388836,"is_reserved":false,"is_disabled":false,"rental_uris":{"android":"levelo://app?vid=9a785585-c85b-4fa3-85aa-80d29ca57d9f","ios":"levelo://app?vid=9a785585-c85b-4fa3-85aa-80d29ca57d9f"},"vehicle_type_id":"4","last_reported":1708027552,"current_range_meters":7600,"station_id":"ce4bhqp2rcd13ifvqhog","pricing_plan_id":"cebpf4jnsgd1na2vs0mg"},{"bike_id":"b990bd33-11fa-4194-a071-8e5a2381ab47","system_id":"levelo_inurba_marseille","lat":43.32367,"lon":5.388836,"is_reserved":false,"is_disabled":false,"rental_uris":{"android":"levelo://app?vid=b990bd33-11fa-4194-a071-8e5a2381ab47","ios":"levelo://app?vid=b990bd33-11fa-4194-a071-8e5a2381ab47"},"vehicle_type_id":"4","last_reported":1708027552,"current_range_meters":6400,"station_id":"ce4bhqp2rcd13ifvqhog","pricing_plan_id":"cebpf4jnsgd1na2vs0mg"},{"bike_id":"41305819-44f5-40af-827b-218028eee8ba","system_id":"levelo_inurba_marseille","lat":43.32367,"lon":5.388836,"is_reserved":false,"is_disabled":false,"rental_uris":{"android":"levelo://app?vid=41305819-44f5-40af-827b-218028eee8ba","ios":"levelo://app?vid=41305819-44f5-40af-827b-218028eee8ba"},"vehicle_type_id":"4","last_reported":1708027552,"current_range_meters":0,"station_id":"ce4bhqp2rcd13ifvqhog","pricing_plan_id":"cebpf4jnsgd1na2vs0mg"},{"bike_id":"a8c7fcf6-2476-48b4-a2a7-391dc6d39d14","system_id":"levelo_inurba_marseille","lat":43.32367,"lon":5.388836,"is_reserved":false,"is_disabled":false,"rental_uris":{"android":"levelo://app?vid=a8c7fcf6-2476-48b4-a2a7-391dc6d39d14","ios":"levelo://app?vid=a8c7fcf6-2476-48b4-a2a7-391dc6d39d14"},"vehicle_type_id":"4","last_reported":1708027552,"current_range_meters":0,"station_id":"ce4bhqp2rcd13ifvqhog","pricing_plan_id":"cebpf4jnsgd1na2vs0mg"},{"bike_id":"7b8ae2a5-fea4-420f-9e1d-5f67a20c6887","system_id":"levelo_inurba_marseille","lat":43.32367,"lon":5.388836,"is_reserved":false,"is_disabled":false,"rental_uris":{"android":"levelo://app?vid=7b8ae2a5-fea4-420f-9e1d-5f67a20c6887","ios":"levelo://app?vid=7b8ae2a5-fea4-420f-9e1d-5f67a20c6887"},"vehicle_type_id":"4","last_reported":1708027552,"current_range_meters":20000,"station_id":"ce4bhqp2rcd13ifvqhog","pricing_plan_id":"cebpf4jnsgd1na2vs0mg"},{"bike_id":"db2bc009-1b6b-43a5-9572-4ba46f979c16","system_id":"levelo_inurba_marseille","lat":43.32367,"lon":5.388836,"is_reserved":false,"is_disabled":false,"rental_uris":{"android":"levelo://app?vid=db2bc009-1b6b-43a5-9572-4ba46f979c16","ios":"levelo://app?vid=db2bc009-1b6b-43a5-9572-4ba46f979c16"},"vehicle_type_id":"4","last_reported":1708027552,"current_range_meters":18800,"station_id":"ce4bhqp2rcd13ifvqhog","pricing_plan_id":"cebpf4jnsgd1na2vs0mg"},{"bike_id":"1f1a9e35-80a0-4159-ad47-0c4df4da8f1c","system_id":"levelo_inurba_marseille","lat":43.29602,"lon":5.381084,"is_reserved":false,"is_disabled":false,"rental_uris":{"android":"levelo://app?vid=1f1a9e35-80a0-4159-ad47-0c4df4da8f1c","ios":"levelo://app?vid=1f1a9e35-80a0-4159-ad47-0c4df4da8f1c"},"vehicle_type_id":"4","last_reported":1708027552,"current_range_meters":5600,"station_id":"ce4bgl12rcd13ifvqbo0","pricing_plan_id":"cebpf4jnsgd1na2vs0mg"},{"bike_id":"b5ebd42d-5a95-4dcb-9a10-5498b7f838c8","system_id":"levelo_inurba_marseille","lat":43.29602,"lon":5.381084,"is_reserved":false,"is_disabled":false,"rental_uris":{"android":"levelo://app?vid=b5ebd42d-5a95-4dcb-9a10-5498b7f838c8","ios":"levelo://app?vid=b5ebd42d-5a95-4dcb-9a10-5498b7f838c8"},"vehicle_type_id":"4","last_reported":1708027552,"current_range_meters":9200,"station_id":"ce4bgl12rcd13ifvqbo0","pricing_plan_id":"cebpf4jnsgd1na2vs0mg"},{"bike_id":"ee02a5ae-421b-4e8f-b2a5-a876bc9b77e9","system_id":"levelo_inurba_marseille","lat":43.293259,"lon":5.371586,"is_reserved":false,"is_disabled":false,"rental_uris":{"android":"levelo://app?vid=ee02a5ae-421b-4e8f-b2a5-a876bc9b77e9","ios":"levelo://app?vid=ee02a5ae-421b-4e8f-b2a5-a876bc9b77e9"},"vehicle_type_id":"4","last_reported":1708027552,"current_range_meters":3600,"station_id":"ce4bgh92rcd13ifvqb40","pricing_plan_id":"cebpf4jnsgd1na2vs0mg"},{"bike_id":"9af97de2-7b94-41e3-986e-e96efc24a990","system_id":"levelo_inurba_marseille","lat":43.292749,"lon":5.368402,"is_reserved":false,"is_disabled":false,"rental_uris":{"android":"levelo://app?vid=9af97de2-7b94-41e3-986e-e96efc24a990","ios":"levelo://app?vid=9af97de2-7b94-41e3-986e-e96efc24a990"},"vehicle_type_id":"4","last_reported":1708027552,"current_range_meters":10000,"station_id":"ce4bhbp2rcd13ifvqesg","pricing_plan_id":"cebpf4jnsgd1na2vs0mg"},{"bike_id":"8c005ce0-2a55-439d-bcba-9ab023421d9d","system_id":"levelo_inurba_marseille","lat":43.292749,"lon":5.368402,"is_reserved":false,"is_disabled":false,"rental_uris":{"android":"levelo://app?vid=8c005ce0-2a55-439d-bcba-9ab023421d9d","ios":"levelo://app?vid=8c005ce0-2a55-439d-bcba-9ab023421d9d"},"vehicle_type_id":"4","last_reported":1708027552,"current_range_meters":12000,"station_id":"ce4bhbp2rcd13ifvqesg","pricing_plan_id":"cebpf4jnsgd1na2vs0mg"},{"bike_id":"471185d6-146c-4a55-a5f6-192c25f400c0","system_id":"levelo_inurba_marseille","lat":43.292749,"lon":5.368402,"is_reserved":false,"is_disabled":false,"rental_uris":{"android":"levelo://app?vid=471185d6-146c-4a55-a5f6-192c25f400c0","ios":"levelo://app?vid=471185d6-146c-4a55-a5f6-192c25f400c0"},"vehicle_type_id":"4","last_reported":1708027552,"current_range_meters":15200,"station_id":"ce4bhbp2rcd13ifvqesg","pricing_plan_id":"cebpf4jnsgd1na2vs0mg"},{"bike_id":"015b44ff-ac48-4e77-b21b-1b1c03c0e4ba","system_id":"levelo_inurba_marseille","lat":43.293259,"lon":5.371586,"is_reserved":false,"is_disabled":false,"rental_uris":{"android":"levelo://app?vid=015b44ff-ac48-4e77-b21b-1b1c03c0e4ba","ios":"levelo://app?vid=015b44ff-ac48-4e77-b21b-1b1c03c0e4ba"},"vehicle_type_id":"4","last_reported":1708027552,"current_range_meters":6400,"station_id":"ce4bgh92rcd13ifvqb40","pricing_plan_id":"cebpf4jnsgd1na2vs0mg"},{"bike_id":"414e3f3f-ad1d-41c5-80e7-ef436bc5d04e","system_id":"levelo_inurba_marseille","lat":43.293259,"lon":5.371586,"is_reserved":false,"is_disabled":false,"rental_uris":{"android":"levelo://app?vid=414e3f3f-ad1d-41c5-80e7-ef436bc5d04e","ios":"levelo://app?vid=414e3f3f-ad1d-41c5-80e7-ef436bc5d04e"},"vehicle_type_id":"4","last_reported":1708027552,"current_range_meters":0,"station_id":"ce4bgh92rcd13ifvqb40","pricing_plan_id":"cebpf4jnsgd1na2vs0mg"},{"bike_id":"1f161b07-631e-4445-8d1e-378b5d9587d0","system_id":"levelo_inurba_marseille","lat":43.293259,"lon":5.371586,"is_reserved":false,"is_disabled":false,"rental_uris":{"android":"levelo://app?vid=1f161b07-631e-4445-8d1e-378b5d9587d0","ios":"levelo://app?vid=1f161b07-631e-4445-8d1e-378b5d9587d0"},"vehicle_type_id":"4","last_reported":1708027552,"current_range_meters":23200,"station_id":"ce4bgh92rcd13ifvqb40","pricing_plan_id":"cebpf4jnsgd1na2vs0mg"},{"bike_id":"24dbd017-e002-4304-ba52-a44060b64f07","system_id":"levelo_inurba_marseille","lat":43.29301,"lon":5.37164,"is_reserved":false,"is_disabled":false,"rental_uris":{"android":"levelo://app?vid=24dbd017-e002-4304-ba52-a44060b64f07","ios":"levelo://app?vid=24dbd017-e002-4304-ba52-a44060b64f07"},"vehicle_type_id":"4","last_reported":1708027552,"current_range_meters":0,"station_id":"ce4bgh92rcd13ifvqb40","pricing_plan_id":"cebpf4jnsgd1na2vs0mg"},{"bike_id":"c759bff9-b962-4ceb-9d7f-3f743bd1577a","system_id":"levelo_inurba_marseille","lat":43.292749,"lon":5.368402,"is_reserved":false,"is_disabled":false,"rental_uris":{"android":"levelo://app?vid=c759bff9-b962-4ceb-9d7f-3f743bd1577a","ios":"levelo://app?vid=c759bff9-b962-4ceb-9d7f-3f743bd1577a"},"vehicle_type_id":"4","last_reported":1708027552,"current_range_meters":12400,"station_id":"ce4bhbp2rcd13ifvqesg","pricing_plan_id":"cebpf4jnsgd1na2vs0mg"},{"bike_id":"43495e77-eec1-482c-9fea-34d58b39199f","system_id":"levelo_inurba_marseille","lat":43.292749,"lon":5.368402,"is_reserved":false,"is_disabled":false,"rental_uris":{"android":"levelo://app?vid=43495e77-eec1-482c-9fea-34d58b39199f","ios":"levelo://app?vid=43495e77-eec1-482c-9fea-34d58b39199f"},"vehicle_type_id":"4","last_reported":1708027552,"current_range_meters":18400,"station_id":"ce4bhbp2rcd13ifvqesg","pricing_plan_id":"cebpf4jnsgd1na2vs0mg"},{"bike_id":"c75de4dc-3371-4312-bc39-1b5789663a34","system_id":"levelo_inurba_marseille","lat":43.292749,"lon":5.368402,"is_reserved":false,"is_disabled":false,"rental_uris":{"android":"levelo://app?vid=c75de4dc-3371-4312-bc39-1b5789663a34","ios":"levelo://app?vid=c75de4dc-3371-4312-bc39-1b5789663a34"},"vehicle_type_id":"4","last_reported":1708027552,"current_range_meters":0,"station_id":"ce4bhbp2rcd13ifvqesg","pricing_plan_id":"cebpf4jnsgd1na2vs0mg"},{"bike_id":"8f795d00-eb66-4272-baa0-530010bec413","system_id":"levelo_inurba_marseille","lat":43.292617,"lon":5.36851,"is_reserved":false,"is_disabled":false,"rental_uris":{"android":"levelo://app?vid=8f795d00-eb66-4272-baa0-530010bec413","ios":"levelo://app?vid=8f795d00-eb66-4272-baa0-530010bec413"},"vehicle_type_id":"4","last_reported":1708027552,"current_range_meters":0,"station_id":"ce4bhbp2rcd13ifvqesg","pricing_plan_id":"cebpf4jnsgd1na2vs0mg"},{"bike_id":"732fc274-0496-4279-9421-238e1d9223a0","system_id":"levelo_inurba_marseille","lat":43.293009,"lon":5.374584,"is_reserved":false,"is_disabled":false,"rental_uris":{"android":"levelo://app?vid=732fc274-0496-4279-9421-238e1d9223a0","ios":"levelo://app?vid=732fc274-0496-4279-9421-238e1d9223a0"},"vehicle_type_id":"4","last_reported":1708027552,"current_range_meters":26000,"station_id":"ce4bgi12rcd13ifvqb70","pricing_plan_id":"cebpf4jnsgd1na2vs0mg"},{"bike_id":"980baa9a-2f80-4d51-b52e-4e6c18b6ca61","system_id":"levelo_inurba_marseille","lat":43.29296,"lon":5.37437,"is_reserved":false,"is_disabled":false,"rental_uris":{"android":"levelo://app?vid=980baa9a-2f80-4d51-b52e-4e6c18b6ca61","ios":"levelo://app?vid=980baa9a-2f80-4d51-b52e-4e6c18b6ca61"},"vehicle_type_id":"4","last_reported":1708027552,"current_range_meters":8000,"station_id":"ce4bgi12rcd13ifvqb70","pricing_plan_id":"cebpf4jnsgd1na2vs0mg"},{"bike_id":"6990eaa5-6d74-4bf4-9c02-9f7d1ffe8fc3","system_id":"levelo_inurba_marseille","lat":43.305994,"lon":5.393687,"is_reserved":false,"is_disabled":false,"rental_uris":{"android":"levelo://app?vid=6990eaa5-6d74-4bf4-9c02-9f7d1ffe8fc3","ios":"levelo://app?vid=6990eaa5-6d74-4bf4-9c02-9f7d1ffe8fc3"},"vehicle_type_id":"4","last_reported":1708027552,"current_range_meters":16000,"station_id":"ce4bh0p2rcd13ifvqd80","pricing_plan_id":"cebpf4jnsgd1na2vs0mg"},{"bike_id":"8a204f25-0364-4385-83cf-3f2c72a874ac","system_id":"levelo_inurba_marseille","lat":43.303002,"lon":5.392142,"is_reserved":false,"is_disabled":false,"rental_uris":{"android":"levelo://app?vid=8a204f25-0364-4385-83cf-3f2c72a874ac","ios":"levelo://app?vid=8a204f25-0364-4385-83cf-3f2c72a874ac"},"vehicle_type_id":"4","last_reported":1708027552,"current_range_meters":10000,"station_id":"ce4bgkh2rcd13ifvqbk0","pricing_plan_id":"cebpf4jnsgd1na2vs0mg"},{"bike_id":"58bbb622-d131-4c91-af06-c765f6c409c9","system_id":"levelo_inurba_marseille","lat":43.30305,"lon":5.39202,"is_reserved":false,"is_disabled":false,"rental_uris":{"android":"levelo://app?vid=58bbb622-d131-4c91-af06-c765f6c409c9","ios":"levelo://app?vid=58bbb622-d131-4c91-af06-c765f6c409c9"},"vehicle_type_id":"4","last_reported":1708027552,"current_range_meters":15600,"station_id":"ce4bgkh2rcd13ifvqbk0","pricing_plan_id":"cebpf4jnsgd1na2vs0mg"},{"bike_id":"0b2c9bde-e1d9-4637-85ad-82e704b8600b","system_id":"levelo_inurba_marseille","lat":43.303002,"lon":5.392142,"is_reserved":false,"is_disabled":false,"rental_uris":{"android":"levelo://app?vid=0b2c9bde-e1d9-4637-85ad-82e704b8600b","ios":"levelo://app?vid=0b2c9bde-e1d9-4637-85ad-82e704b8600b"},"vehicle_type_id":"4","last_reported":1708027552,"current_range_meters":0,"station_id":"ce4bgkh2rcd13ifvqbk0","pricing_plan_id":"cebpf4jnsgd1na2vs0mg"},{"bike_id":"814a0711-385d-44f7-a692-d81527f73fe8","system_id":"levelo_inurba_marseille","lat":43.302992,"lon":5.392136,"is_reserved":false,"is_disabled":false,"rental_uris":{"android":"levelo://app?vid=814a0711-385d-44f7-a692-d81527f73fe8","ios":"levelo://app?vid=814a0711-385d-44f7-a692-d81527f73fe8"},"vehicle_type_id":"4","last_reported":1708027552,"current_range_meters":24800,"station_id":"ce4bgkh2rcd13ifvqbk0","pricing_plan_id":"cebpf4jnsgd1na2vs0mg"},{"bike_id":"63bd05ce-5952-493b-ac58-0c0fed69f87e","system_id":"levelo_inurba_marseille","lat":43.303002,"lon":5.392142,"is_reserved":false,"is_disabled":false,"rental_uris":{"android":"levelo://app?vid=63bd05ce-5952-493b-ac58-0c0fed69f87e","ios":"levelo://app?vid=63bd05ce-5952-493b-ac58-0c0fed69f87e"},"vehicle_type_id":"4","last_reported":1708027552,"current_range_meters":11600,"station_id":"ce4bgkh2rcd13ifvqbk0","pricing_plan_id":"cebpf4jnsgd1na2vs0mg"},{"bike_id":"70babb4c-618c-4d31-a698-e01f793dc092","system_id":"levelo_inurba_marseille","lat":43.30303,"lon":5.39207,"is_reserved":false,"is_disabled":false,"rental_uris":{"android":"levelo://app?vid=70babb4c-618c-4d31-a698-e01f793dc092","ios":"levelo://app?vid=70babb4c-618c-4d31-a698-e01f793dc092"},"vehicle_type_id":"4","last_reported":1708027552,"current_range_meters":0,"station_id":"ce4bgkh2rcd13ifvqbk0","pricing_plan_id":"cebpf4jnsgd1na2vs0mg"},{"bike_id":"70a29a34-b86a-448f-9a23-7d10f1fd66d0","system_id":"levelo_inurba_marseille","lat":43.302992,"lon":5.392136,"is_reserved":false,"is_disabled":false,"rental_uris":{"android":"levelo://app?vid=70a29a34-b86a-448f-9a23-7d10f1fd66d0","ios":"levelo://app?vid=70a29a34-b86a-448f-9a23-7d10f1fd66d0"},"vehicle_type_id":"4","last_reported":1708027552,"current_range_meters":400,"station_id":"ce4bgkh2rcd13ifvqbk0","pricing_plan_id":"cebpf4jnsgd1na2vs0mg"},{"bike_id":"fbb00886-cfa3-4aa4-a38d-2c75f73ad24c","system_id":"levelo_inurba_marseille","lat":43.302992,"lon":5.392136,"is_reserved":false,"is_disabled":false,"rental_uris":{"android":"levelo://app?vid=fbb00886-cfa3-4aa4-a38d-2c75f73ad24c","ios":"levelo://app?vid=fbb00886-cfa3-4aa4-a38d-2c75f73ad24c"},"vehicle_type_id":"4","last_reported":1708027552,"current_range_meters":12800,"station_id":"ce4bgkh2rcd13ifvqbk0","pricing_plan_id":"cebpf4jnsgd1na2vs0mg"},{"bike_id":"bbe5a2a3-a018-41da-8203-fd1546b0cb39","system_id":"levelo_inurba_marseille","lat":43.302992,"lon":5.392136,"is_reserved":false,"is_disabled":false,"rental_uris":{"android":"levelo://app?vid=bbe5a2a3-a018-41da-8203-fd1546b0cb39","ios":"levelo://app?vid=bbe5a2a3-a018-41da-8203-fd1546b0cb39"},"vehicle_type_id":"4","last_reported":1708027552,"current_range_meters":0,"station_id":"ce4bgkh2rcd13ifvqbk0","pricing_plan_id":"cebpf4jnsgd1na2vs0mg"},{"bike_id":"787d4a11-70bc-4f7e-90cb-2c1cecaed81e","system_id":"levelo_inurba_marseille","lat":43.2936,"lon":5.37835,"is_reserved":false,"is_disabled":false,"rental_uris":{"android":"levelo://app?vid=787d4a11-70bc-4f7e-90cb-2c1cecaed81e","ios":"levelo://app?vid=787d4a11-70bc-4f7e-90cb-2c1cecaed81e"},"vehicle_type_id":"4","last_reported":1708027552,"current_range_meters":2800,"station_id":"ce4bgjh2rcd13ifvqbf0","pricing_plan_id":"cebpf4jnsgd1na2vs0mg"},{"bike_id":"e2e52467-2f48-476f-9e7f-c84b5976d602","system_id":"levelo_inurba_marseille","lat":43.300852,"lon":5.390859,"is_reserved":false,"is_disabled":false,"rental_uris":{"android":"levelo://app?vid=e2e52467-2f48-476f-9e7f-c84b5976d602","ios":"levelo://app?vid=e2e52467-2f48-476f-9e7f-c84b5976d602"},"vehicle_type_id":"4","last_reported":1708027552,"current_range_meters":24400,"station_id":"ce4bh192rcd13ifvqdb0","pricing_plan_id":"cebpf4jnsgd1na2vs0mg"},{"bike_id":"e93afc32-ffb2-4725-81fb-9d33606f1d31","system_id":"levelo_inurba_marseille","lat":43.298764,"lon":5.388973,"is_reserved":false,"is_disabled":false,"rental_uris":{"android":"levelo://app?vid=e93afc32-ffb2-4725-81fb-9d33606f1d31","ios":"levelo://app?vid=e93afc32-ffb2-4725-81fb-9d33606f1d31"},"vehicle_type_id":"4","last_reported":1708027552,"current_range_meters":1200,"station_id":"ce4bh392rcd13ifvqdl0","pricing_plan_id":"cebpf4jnsgd1na2vs0mg"},{"bike_id":"ea2dcd2b-03e8-44d3-a2d4-1cbc0417fb38","system_id":"levelo_inurba_marseille","lat":43.299105,"lon":5.389005,"is_reserved":false,"is_disabled":false,"rental_uris":{"android":"levelo://app?vid=ea2dcd2b-03e8-44d3-a2d4-1cbc0417fb38","ios":"levelo://app?vid=ea2dcd2b-03e8-44d3-a2d4-1cbc0417fb38"},"vehicle_type_id":"4","last_reported":1708027552,"current_range_meters":9200,"station_id":"","pricing_plan_id":"cebpf4jnsgd1na2vs0mg"},{"bike_id":"236576a4-dad6-4c50-b8da-14e56bdbc875","system_id":"levelo_inurba_marseille","lat":43.30085,"lon":5.390856,"is_reserved":false,"is_disabled":false,"rental_uris":{"android":"levelo://app?vid=236576a4-dad6-4c50-b8da-14e56bdbc875","ios":"levelo://app?vid=236576a4-dad6-4c50-b8da-14e56bdbc875"},"vehicle_type_id":"4","last_reported":1708027552,"current_range_meters":16800,"station_id":"ce4bh192rcd13ifvqdb0","pricing_plan_id":"cebpf4jnsgd1na2vs0mg"},{"bike_id":"ea416479-6712-469a-863a-88d674e7b44b","system_id":"levelo_inurba_marseille","lat":43.298764,"lon":5.388973,"is_reserved":false,"is_disabled":false,"rental_uris":{"android":"levelo://app?vid=ea416479-6712-469a-863a-88d674e7b44b","ios":"levelo://app?vid=ea416479-6712-469a-863a-88d674e7b44b"},"vehicle_type_id":"4","last_reported":1708027552,"current_range_meters":27600,"station_id":"ce4bh392rcd13ifvqdl0","pricing_plan_id":"cebpf4jnsgd1na2vs0mg"},{"bike_id":"f618a93e-2e65-4cb3-ad02-29aac37bbe03","system_id":"levelo_inurba_marseille","lat":43.298764,"lon":5.388973,"is_reserved":false,"is_disabled":false,"rental_uris":{"android":"levelo://app?vid=f618a93e-2e65-4cb3-ad02-29aac37bbe03","ios":"levelo://app?vid=f618a93e-2e65-4cb3-ad02-29aac37bbe03"},"vehicle_type_id":"4","last_reported":1708027552,"current_range_meters":25200,"station_id":"ce4bh392rcd13ifvqdl0","pricing_plan_id":"cebpf4jnsgd1na2vs0mg"},{"bike_id":"da5f3083-7238-4c51-a48a-e89366c02bd3","system_id":"levelo_inurba_marseille","lat":43.298764,"lon":5.388973,"is_reserved":false,"is_disabled":false,"rental_uris":{"android":"levelo://app?vid=da5f3083-7238-4c51-a48a-e89366c02bd3","ios":"levelo://app?vid=da5f3083-7238-4c51-a48a-e89366c02bd3"},"vehicle_type_id":"4","last_reported":1708027552,"current_range_meters":17200,"station_id":"ce4bh392rcd13ifvqdl0","pricing_plan_id":"cebpf4jnsgd1na2vs0mg"},{"bike_id":"25ae4d79-99d4-4d70-bf6a-37ff011727e8","system_id":"levelo_inurba_marseille","lat":43.298764,"lon":5.388973,"is_reserved":false,"is_disabled":false,"rental_uris":{"android":"levelo://app?vid=25ae4d79-99d4-4d70-bf6a-37ff011727e8","ios":"levelo://app?vid=25ae4d79-99d4-4d70-bf6a-37ff011727e8"},"vehicle_type_id":"4","last_reported":1708027552,"current_range_meters":10400,"station_id":"ce4bh392rcd13ifvqdl0","pricing_plan_id":"cebpf4jnsgd1na2vs0mg"},{"bike_id":"f4423796-ae47-4166-883b-f60cf33c6836","system_id":"levelo_inurba_marseille","lat":43.29193,"lon":5.35814,"is_reserved":false,"is_disabled":false,"rental_uris":{"android":"levelo://app?vid=f4423796-ae47-4166-883b-f60cf33c6836","ios":"levelo://app?vid=f4423796-ae47-4166-883b-f60cf33c6836"},"vehicle_type_id":"4","last_reported":1708027552,"current_range_meters":6000,"station_id":"ce4bhb12rcd13ifvqel0","pricing_plan_id":"cebpf4jnsgd1na2vs0mg"},{"bike_id":"335315e2-db4c-40db-858f-d69afeaf1210","system_id":"levelo_inurba_marseille","lat":43.313291,"lon":5.396838,"is_reserved":false,"is_disabled":false,"rental_uris":{"android":"levelo://app?vid=335315e2-db4c-40db-858f-d69afeaf1210","ios":"levelo://app?vid=335315e2-db4c-40db-858f-d69afeaf1210"},"vehicle_type_id":"4","last_reported":1708027552,"current_range_meters":9600,"station_id":"ce4bgvp2rcd13ifvqcu0","pricing_plan_id":"cebpf4jnsgd1na2vs0mg"},{"bike_id":"911fa793-fca7-4d5e-8781-8410f2ef3c5b","system_id":"levelo_inurba_marseille","lat":43.309038,"lon":5.396546,"is_reserved":false,"is_disabled":false,"rental_uris":{"android":"levelo://app?vid=911fa793-fca7-4d5e-8781-8410f2ef3c5b","ios":"levelo://app?vid=911fa793-fca7-4d5e-8781-8410f2ef3c5b"},"vehicle_type_id":"4","last_reported":1708027552,"current_range_meters":30400,"station_id":"ce4bh012rcd13ifvqcv0","pricing_plan_id":"cebpf4jnsgd1na2vs0mg"},{"bike_id":"bb2d334a-4a7e-42b6-b66e-bd0010175de1","system_id":"levelo_inurba_marseille","lat":43.313291,"lon":5.396838,"is_reserved":false,"is_disabled":false,"rental_uris":{"android":"levelo://app?vid=bb2d334a-4a7e-42b6-b66e-bd0010175de1","ios":"levelo://app?vid=bb2d334a-4a7e-42b6-b66e-bd0010175de1"},"vehicle_type_id":"4","last_reported":1708027552,"current_range_meters":14400,"station_id":"ce4bgvp2rcd13ifvqcu0","pricing_plan_id":"cebpf4jnsgd1na2vs0mg"},{"bike_id":"843b637f-e1f4-4300-8028-63a66c17e13a","system_id":"levelo_inurba_marseille","lat":43.313291,"lon":5.396838,"is_reserved":false,"is_disabled":false,"rental_uris":{"android":"levelo://app?vid=843b637f-e1f4-4300-8028-63a66c17e13a","ios":"levelo://app?vid=843b637f-e1f4-4300-8028-63a66c17e13a"},"vehicle_type_id":"4","last_reported":1708027552,"current_range_meters":24000,"station_id":"ce4bgvp2rcd13ifvqcu0","pricing_plan_id":"cebpf4jnsgd1na2vs0mg"},{"bike_id":"87176621-f4f6-4010-a772-88276621d92c","system_id":"levelo_inurba_marseille","lat":43.313291,"lon":5.396838,"is_reserved":false,"is_disabled":false,"rental_uris":{"android":"levelo://app?vid=87176621-f4f6-4010-a772-88276621d92c","ios":"levelo://app?vid=87176621-f4f6-4010-a772-88276621d92c"},"vehicle_type_id":"4","last_reported":1708027552,"current_range_meters":24800,"station_id":"ce4bgvp2rcd13ifvqcu0","pricing_plan_id":"cebpf4jnsgd1na2vs0mg"},{"bike_id":"ac5d0d15-675d-4752-9cc0-085be4de0d26","system_id":"levelo_inurba_marseille","lat":43.313291,"lon":5.396838,"is_reserved":false,"is_disabled":false,"rental_uris":{"android":"levelo://app?vid=ac5d0d15-675d-4752-9cc0-085be4de0d26","ios":"levelo://app?vid=ac5d0d15-675d-4752-9cc0-085be4de0d26"},"vehicle_type_id":"4","last_reported":1708027552,"current_range_meters":0,"station_id":"ce4bgvp2rcd13ifvqcu0","pricing_plan_id":"cebpf4jnsgd1na2vs0mg"},{"bike_id":"09f323f2-d644-4df6-9aa8-5c0ab461ef25","system_id":"levelo_inurba_marseille","lat":43.309038,"lon":5.396546,"is_reserved":false,"is_disabled":false,"rental_uris":{"android":"levelo://app?vid=09f323f2-d644-4df6-9aa8-5c0ab461ef25","ios":"levelo://app?vid=09f323f2-d644-4df6-9aa8-5c0ab461ef25"},"vehicle_type_id":"4","last_reported":1708027552,"current_range_meters":30400,"station_id":"ce4bh012rcd13ifvqcv0","pricing_plan_id":"cebpf4jnsgd1na2vs0mg"},{"bike_id":"ca31d44c-4daf-4dd8-b752-9988b012f9eb","system_id":"levelo_inurba_marseille","lat":43.29542,"lon":5.38542,"is_reserved":false,"is_disabled":false,"rental_uris":{"android":"levelo://app?vid=ca31d44c-4daf-4dd8-b752-9988b012f9eb","ios":"levelo://app?vid=ca31d44c-4daf-4dd8-b752-9988b012f9eb"},"vehicle_type_id":"4","last_reported":1708027552,"current_range_meters":1600,"station_id":"ce4bgih2rcd13ifvqba0","pricing_plan_id":"cebpf4jnsgd1na2vs0mg"},{"bike_id":"93c6d843-76dd-4947-987d-24a1d11a498e","system_id":"levelo_inurba_marseille","lat":43.29529,"lon":5.385581,"is_reserved":false,"is_disabled":false,"rental_uris":{"android":"levelo://app?vid=93c6d843-76dd-4947-987d-24a1d11a498e","ios":"levelo://app?vid=93c6d843-76dd-4947-987d-24a1d11a498e"},"vehicle_type_id":"4","last_reported":1708027552,"current_range_meters":4400,"station_id":"ce4bgih2rcd13ifvqba0","pricing_plan_id":"cebpf4jnsgd1na2vs0mg"},{"bike_id":"677d8713-0085-4a5a-9e57-998b59bfc774","system_id":"levelo_inurba_marseille","lat":43.29535,"lon":5.38537,"is_reserved":false,"is_disabled":false,"rental_uris":{"android":"levelo://app?vid=677d8713-0085-4a5a-9e57-998b59bfc774","ios":"levelo://app?vid=677d8713-0085-4a5a-9e57-998b59bfc774"},"vehicle_type_id":"4","last_reported":1708027552,"current_range_meters":18400,"station_id":"ce4bgih2rcd13ifvqba0","pricing_plan_id":"cebpf4jnsgd1na2vs0mg"},