{"last_updated":1703679146,"ttl":30,"version":"2.2","data":{"bikes":[{"bike_id":"b5ae4fd0-6cfb-4d70-aa1a-069e3d88a0d7","system_id":"levelo_inurba_marseille","lat":43.313391,"lon":5.36706,"is_reserved":false,"is_disabled":false,"rental_uris":{"android":"levelo://app?vid=b5ae4fd0-6cfb-4d70-aa1a-069e3d88a0d7","ios":"levelo://app?vid=b5ae4fd0-6cfb-4d70-aa1a-069e3d88a0d7"},"vehicle_type_id":"4","last_reported":1703679146,"current_range_meters":29600,"station_id":"ce4bgr92rcd13ifvqc6g","pricing_plan_id":"free"},{"bike_id":"fec82d17-80f9-41a0-b057-c05695af3d9d","system_id":"levelo_inurba_marseille","lat":43.31341,"lon":5.367098,"is_reserved":false,"is_disabled":false,"rental_uris":{"android":"levelo://app?vid=fec82d17-80f9-41a0-b057-c05695af3d9d","ios":"levelo://app?vid=fec82d17-80f9-41a0-b057-c05695af3d9d"},"vehicle_type_id":"4","last_reported":1703679146,"current_range_meters":30800,"station_id":"ce4bgr92rcd13ifvqc6g","pricing_plan_id":"free"},{"bike_id":"1ec746ac-97c1-4ee8-af22-7127d9546824","system_id":"levelo_inurba_marseille","lat":43.31341,"lon":5.367098,"is_reserved":false,"is_disabled":false,"rental_uris":{"android":"levelo://app?vid=1ec746ac-97c1-4ee8-af22-7127d9546824","ios":"levelo://app?vid=1ec746ac-97c1-4ee8-af22-7127d9546824"},"vehicle_type_id":"4","last_reported":1703679146,"current_range_meters":25600,"station_id":"ce4bgr92rcd13ifvqc6g","pricing_plan_id":"free"},{"bike_id":"02e1d662-ff29-46f4-a4e6-fe710da7bd5a","system_id":"levelo_inurba_marseille","lat":43.31341,"lon":5.367098,"is_reserved":false,"is_disabled":false,"rental_uris":{"android":"levelo://app?vid=02e1d662-ff29-46f4-a4e6-fe710da7bd5a","ios":"levelo://app?vid=02e1d662-ff29-46f4-a4e6-fe710da7bd5a"},"vehicle_type_id":"4","last_reported":1703679146,"current_range_meters":31200,"station_id":"ce4bgr92rcd13ifvqc6g","pricing_plan_id":"free"},{"bike_id":"918d1ee6-ccef-43f1-a78b-6eb4343b5867","system_id":"levelo_inurba_marseille","lat":43.312239,"lon":5.368562,"is_reserved":false,"is_disabled":false,"rental_uris":{"android":"levelo://app?vid=918d1ee6-ccef-43f1-a78b-6eb4343b5867","ios":"levelo://app?vid=918d1ee6-ccef-43f1-a78b-6eb4343b5867"},"vehicle_type_id":"4","last_reported":1703679146,"current_range_meters":28400,"station_id":"ce4bgl92rcd13ifvqbq0","pricing_plan_id":"free"},{"bike_id":"f4922aeb-99d7-4aa9-9639-9baf2e0c0e56","system_id":"levelo_inurba_marseille","lat":43.312239,"lon":5.368562,"is_reserved":false,"is_disabled":false,"rental_uris":{"android":"levelo://app?vid=f4922aeb-99d7-4aa9-9639-9baf2e0c0e56","ios":"levelo://app?vid=f4922aeb-99d7-4aa9-9639-9baf2e0c0e56"},"vehicle_type_id":"4","last_reported":1703679146,"current_range_meters":14400,"station_id":"ce4bgl92rcd13ifvqbq0","pricing_plan_id":"free"},{"bike_id":"484e5100-b5df-4b81-b3a4-b251959e010c","system_id":"levelo_inurba_marseille","lat":43.309076,"lon":5.368465,"is_reserved":false,"is_disabled":false,"rental_uris":{"android":"levelo://app?vid=484e5100-b5df-4b81-b3a4-b251959e010c","ios":"levelo://app?vid=484e5100-b5df-4b81-b3a4-b251959e010c"},"vehicle_type_id":"4","last_reported":1703679146,"current_range_meters":31600,"station_id":"ce4bgn92rcd13ifvqbvg","pricing_plan_id":"free"},{"bike_id":"60e6c787-fc2b-4a8a-8bbf-c307acfbf39e","system_id":"levelo_inurba_marseille","lat":43.309076,"lon":5.368465,"is_reserved":false,"is_disabled":false,"rental_uris":{"android":"levelo://app?vid=60e6c787-fc2b-4a8a-8bbf-c307acfbf39e","ios":"levelo://app?vid=60e6c787-fc2b-4a8a-8bbf-c307acfbf39e"},"vehicle_type_id":"4","last_reported":1703679146,"current_range_meters":31600,"station_id":"ce4bgn92rcd13ifvqbvg","pricing_plan_id":"free"},{"bike_id":"97502ab0-b074-477a-8e64-8e12ca35fa4b","system_id":"levelo_inurba_marseille","lat":43.314811,"lon":5.373104,"is_reserved":false,"is_disabled":false,"rental_uris":{"android":"levelo://app?vid=97502ab0-b074-477a-8e64-8e12ca35fa4b","ios":"levelo://app?vid=97502ab0-b074-477a-8e64-8e12ca35fa4b"},"vehicle_type_id":"4","last_reported":1703679146,"current_range_meters":26400,"station_id":"ce4bgt12rcd13ifvqcd0","pricing_plan_id":"free"},{"bike_id":"d8b4dbd9-29db-4f01-ac43-ec2b455183f5","system_id":"levelo_inurba_marseille","lat":43.314811,"lon":5.373103,"is_reserved":false,"is_disabled":false,"rental_uris":{"android":"levelo://app?vid=d8b4dbd9-29db-4f01-ac43-ec2b455183f5","ios":"levelo://app?vid=d8b4dbd9-29db-4f01-ac43-ec2b455183f5"},"vehicle_type_id":"4","last_reported":1703679146,"current_range_meters":28000,"station_id":"ce4bgt12rcd13ifvqcd0","pricing_plan_id":"free"},{"bike_id":"a0adbac7-5606-441f-a7a6-25965f3f73f6","system_id":"levelo_inurba_marseille","lat":43.314811,"lon":5.373103,"is_reserved":false,"is_disabled":false,"rental_uris":{"android":"levelo://app?vid=a0adbac7-5606-441f-a7a6-25965f3f73f6","ios":"levelo://app?vid=a0adbac7-5606-441f-a7a6-25965f3f73f6"},"vehicle_type_id":"4","last_reported":1703679146,"current_range_meters":30400,"station_id":"ce4bgt12rcd13ifvqcd0","pricing_plan_id":"free"},{"bike_id":"08fb4912-7295-4c63-b4a4-a043fa0ef135","system_id":"levelo_inurba_marseille","lat":43.314811,"lon":5.373103,"is_reserved":false,"is_disabled":false,"rental_uris":{"android":"levelo://app?vid=08fb4912-7295-4c63-b4a4-a043fa0ef135","ios":"levelo://app?vid=08fb4912-7295-4c63-b4a4-a043fa0ef135"},"vehicle_type_id":"4","last_reported":1703679146,"current_range_meters":18000,"station_id":"ce4bgt12rcd13ifvqcd0","pricing_plan_id":"free"},{"bike_id":"3ec03909-a8c7-4b40-a5b4-1217f4795fba","system_id":"levelo_inurba_marseille","lat":43.314811,"lon":5.373104,"is_reserved":false,"is_disabled":false,"rental_uris":{"android":"levelo://app?vid=3ec03909-a8c7-4b40-a5b4-1217f4795fba","ios":"levelo://app?vid=3ec03909-a8c7-4b40-a5b4-1217f4795fba"},"vehicle_type_id":"4","last_reported":1703679146,"current_range_meters":2800,"station_id":"ce4bgt12rcd13ifvqcd0","pricing_plan_id":"free"},{"bike_id":"24dffc30-9dba-4666-8749-0888e7d068a9","system_id":"levelo_inurba_marseille","lat":43.314811,"lon":5.373104,"is_reserved":false,"is_disabled":false,"rental_uris":{"android":"levelo://app?vid=24dffc30-9dba-4666-8749-0888e7d068a9","ios":"levelo://app?vid=24dffc30-9dba-4666-8749-0888e7d068a9"},"vehicle_type_id":"4","last_reported":1703679146,"current_range_meters":8000,"station_id":"ce4bgt12rcd13ifvqcd0","pricing_plan_id":"free"},{"bike_id":"754ed069-ebb9-4acc-a88a-4983aaed9cfe","system_id":"levelo_inurba_marseille","lat":43.314811,"lon":5.373104,"is_reserved":false,"is_disabled":false,"rental_uris":{"android":"levelo://app?vid=754ed069-ebb9-4acc-a88a-4983aaed9cfe","ios":"levelo://app?vid=754ed069-ebb9-4acc-a88a-4983aaed9cfe"},"vehicle_type_id":"4","last_reported":1703679146,"current_range_meters":27600,"station_id":"ce4bgt12rcd13ifvqcd0","pricing_plan_id":"free"},{"bike_id":"d937c6ad-50a2-4900-b30c-d51bf528dd0d","system_id":"levelo_inurba_marseille","lat":43.309039,"lon":5.371797,"is_reserved":false,"is_disabled":false,"rental_uris":{"android":"levelo://app?vid=d937c6ad-50a2-4900-b30c-d51bf528dd0d","ios":"levelo://app?vid=d937c6ad-50a2-4900-b30c-d51bf528dd0d"},"vehicle_type_id":"4","last_reported":1703679146,"current_range_meters":29600,"station_id":"ce4bguh2rcd13ifvqckg","pricing_plan_id":"free"},{"bike_id":"94d95998-ccd6-4a91-8e8c-66895ed3b333","system_id":"levelo_inurba_marseille","lat":43.309039,"lon":5.371797,"is_reserved":false,"is_disabled":false,"rental_uris":{"android":"levelo://app?vid=94d95998-ccd6-4a91-8e8c-66895ed3b333","ios":"levelo://app?vid=94d95998-ccd6-4a91-8e8c-66895ed3b333"},"vehicle_type_id":"4","last_reported":1703679146,"current_range_meters":31600,"station_id":"ce4bguh2rcd13ifvqckg","pricing_plan_id":"free"},{"bike_id":"b188ea05-75d2-48e4-9a1d-c00cacf47457","system_id":"levelo_inurba_marseille","lat":43.309039,"lon":5.371797,"is_reserved":false,"is_disabled":false,"rental_uris":{"android":"levelo://app?vid=b188ea05-75d2-48e4-9a1d-c00cacf47457","ios":"levelo://app?vid=b188ea05-75d2-48e4-9a1d-c00cacf47457"},"vehicle_type_id":"4","last_reported":1703679146,"current_range_meters":28800,"station_id":"ce4bguh2rcd13ifvqckg","pricing_plan_id":"free"},{"bike_id":"e07503da-2eec-4d62-af1d-4d98cdd88536","system_id":"levelo_inurba_marseille","lat":43.309039,"lon":5.371797,"is_reserved":false,"is_disabled":false,"rental_uris":{"android":"levelo://app?vid=e07503da-2eec-4d62-af1d-4d98cdd88536","ios":"levelo://app?vid=e07503da-2eec-4d62-af1d-4d98cdd88536"},"vehicle_type_id":"4","last_reported":1703679146,"current_range_meters":22800,"station_id":"ce4bguh2rcd13ifvqckg","pricing_plan_id":"free"},{"bike_id":"01df2a63-1911-492c-9b86-ac13168e1521","system_id":"levelo_inurba_marseille","lat":43.309039,"lon":5.371797,"is_reserved":false,"is_disabled":false,"rental_uris":{"android":"levelo://app?vid=01df2a63-1911-492c-9b86-ac13168e1521","ios":"levelo://app?vid=01df2a63-1911-492c-9b86-ac13168e1521"},"vehicle_type_id":"4","last_reported":1703679146,"current_range_meters":21200,"station_id":"ce4bguh2rcd13ifvqckg","pricing_plan_id":"free"},{"bike_id":"437be774-9347-4f56-865e-861017296255","system_id":"levelo_inurba_marseille","lat":43.318964,"lon":5.36877,"is_reserved":false,"is_disabled":false,"rental_uris":{"android":"levelo://app?vid=437be774-9347-4f56-865e-861017296255","ios":"levelo://app?vid=437be774-9347-4f56-865e-861017296255"},"vehicle_type_id":"4","last_reported":1703679146,"current_range_meters":8400,"station_id":"","pricing_plan_id":"free"},{"bike_id":"23080e11-99f0-474f-83b0-409566e690a7","system_id":"levelo_inurba_marseille","lat":43.30555,"lon":5.36698,"is_reserved":false,"is_disabled":false,"rental_uris":{"android":"levelo://app?vid=23080e11-99f0-474f-83b0-409566e690a7","ios":"levelo://app?vid=23080e11-99f0-474f-83b0-409566e690a7"},"vehicle_type_id":"4","last_reported":1703679146,"current_range_meters":7600,"station_id":"ce4bgrp2rcd13ifvqc9g","pricing_plan_id":"free"},{"bike_id":"86291a32-4dca-442f-8094-05de492b1f27","system_id":"levelo_inurba_marseille","lat":43.305712,"lon":5.365641,"is_reserved":false,"is_disabled":false,"rental_uris":{"android":"levelo://app?vid=86291a32-4dca-442f-8094-05de492b1f27","ios":"levelo://app?vid=86291a32-4dca-442f-8094-05de492b1f27"},"vehicle_type_id":"4","last_reported":1703679146,"current_range_meters":29600,"station_id":"ce4bgs12rcd13ifvqcag","pricing_plan_id":"free"},{"bike_id":"5d7049f3-2163-4dcf-bd79-6c1b3f34c0aa","system_id":"levelo_inurba_marseille","lat":43.305368,"lon":5.367343,"is_reserved":false,"is_disabled":false,"rental_uris":{"android":"levelo://app?vid=5d7049f3-2163-4dcf-bd79-6c1b3f34c0aa","ios":"levelo://app?vid=5d7049f3-2163-4dcf-bd79-6c1b3f34c0aa"},"vehicle_type_id":"4","last_reported":1703679146,"current_range_meters":10400,"station_id":"ce4bgrp2rcd13ifvqc9g","pricing_plan_id":"free"},{"bike_id":"cbbcca96-7ac2-40a1-840a-666a5ce23167","system_id":"levelo_inurba_marseille","lat":43.305712,"lon":5.365641,"is_reserved":false,"is_disabled":false,"rental_uris":{"android":"levelo://app?vid=cbbcca96-7ac2-40a1-840a-666a5ce23167","ios":"levelo://app?vid=cbbcca96-7ac2-40a1-840a-666a5ce23167"},"vehicle_type_id":"4","last_reported":1703679146,"current_range_meters":26000,"station_id":"ce4bgs12rcd13ifvqcag","pricing_plan_id":"free"},{"bike_id":"95f35649-c5ff-426b-927f-6ea500caf11d","system_id":"levelo_inurba_marseille","lat":43.30537,"lon":5.367345,"is_reserved":false,"is_disabled":false,"rental_uris":{"android":"levelo://app?vid=95f35649-c5ff-426b-927f-6ea500caf11d","ios":"levelo://app?vid=95f35649-c5ff-426b-927f-6ea500caf11d"},"vehicle_type_id":"4","last_reported":1703679146,"current_range_meters":13600,"station_id":"ce4bgrp2rcd13ifvqc9g","pricing_plan_id":"free"},{"bike_id":"e65a2858-3bdd-448d-8218-902c01daa429","system_id":"levelo_inurba_marseille","lat":43.30537,"lon":5.367345,"is_reserved":false,"is_disabled":false,"rental_uris":{"android":"levelo://app?vid=e65a2858-3bdd-448d-8218-902c01daa429","ios":"levelo://app?vid=e65a2858-3bdd-448d-8218-902c01daa429"},"vehicle_type_id":"4","last_reported":1703679146,"current_range_meters":31200,"station_id":"ce4bgrp2rcd13ifvqc9g","pricing_plan_id":"free"},{"bike_id":"4d973bd6-70df-43c1-92b0-911cb77aa873","system_id":"levelo_inurba_marseille","lat":43.30537,"lon":5.367345,"is_reserved":false,"is_disabled":false,"rental_uris":{"android":"levelo://app?vid=4d973bd6-70df-43c1-92b0-911cb77aa873","ios":"levelo://app?vid=4d973bd6-70df-43c1-92b0-911cb77aa873"},"vehicle_type_id":"4","last_reported":1703679146,"current_range_meters":22400,"station_id":"ce4bgrp2rcd13ifvqc9g","pricing_plan_id":"free"},{"bike_id":"b3c87acb-d0ca-448f-bd14-eb84d28124d6","system_id":"levelo_inurba_marseille","lat":43.305368,"lon":5.367343,"is_reserved":false,"is_disabled":false,"rental_uris":{"android":"levelo://app?vid=b3c87acb-d0ca-448f-bd14-eb84d28124d6","ios":"levelo://app?vid=b3c87acb-d0ca-448f-bd14-eb84d28124d6"},"vehicle_type_id":"4","last_reported":1703679146,"current_range_meters":18400,"station_id":"ce4bgrp2rcd13ifvqc9g","pricing_plan_id":"free"},{"bike_id":"08e924f2-712e-4bf2-9429-cd47f7071929","system_id":"levelo_inurba_marseille","lat":43.305368,"lon":5.367343,"is_reserved":false,"is_disabled":false,"rental_uris":{"android":"levelo://app?vid=08e924f2-712e-4bf2-9429-cd47f7071929","ios":"levelo://app?vid=08e924f2-712e-4bf2-9429-cd47f7071929"},"vehicle_type_id":"4","last_reported":1703679146,"current_range_meters":28800,"station_id":"ce4bgrp2rcd13ifvqc9g","pricing_plan_id":"free"},{"bike_id":"0f2e4b17-bc08-4785-9ac4-32d02dd3db3e","system_id":"levelo_inurba_marseille","lat":43.305368,"lon":5.367343,"is_reserved":false,"is_disabled":false,"rental_uris":{"android":"levelo://app?vid=0f2e4b17-bc08-4785-9ac4-32d02dd3db3e","ios":"levelo://app?vid=0f2e4b17-bc08-4785-9ac4-32d02dd3db3e"},"vehicle_type_id":"4","last_reported":1703679146,"current_range_meters":18400,"station_id":"ce4bgrp2rcd13ifvqc9g","pricing_plan_id":"free"},{"bike_id":"5692ae63-80c6-4f0b-a66b-9feb745ce256","system_id":"levelo_inurba_marseille","lat":43.30544,"lon":5.36532,"is_reserved":false,"is_disabled":false,"rental_uris":{"android":"levelo://app?vid=5692ae63-80c6-4f0b-a66b-9feb745ce256","ios":"levelo://app?vid=5692ae63-80c6-4f0b-a66b-9feb745ce256"},"vehicle_type_id":"4","last_reported":1703679146,"current_range_meters":27600,"station_id":"ce4bgs12rcd13ifvqcag","pricing_plan_id":"free"},{"bike_id":"a6caf4e2-87ff-4b49-b9cf-8b755a13ff89","system_id":"levelo_inurba_marseille","lat":43.305368,"lon":5.367343,"is_reserved":false,"is_disabled":false,"rental_uris":{"android":"levelo://app?vid=a6caf4e2-87ff-4b49-b9cf-8b755a13ff89","ios":"levelo://app?vid=a6caf4e2-87ff-4b49-b9cf-8b755a13ff89"},"vehicle_type_id":"4","last_reported":1703679146,"current_range_meters":0,"station_id":"ce4bgrp2rcd13ifvqc9g","pricing_plan_id":"free"},{"bike_id":"fe3091c2-0d6d-4ae0-a3c3-25b163d6c0fa","system_id":"levelo_inurba_marseille","lat":43.305413,"lon":5.365357,"is_reserved":false,"is_disabled":false,"rental_uris":{"android":"levelo://app?vid=fe3091c2-0d6d-4ae0-a3c3-25b163d6c0fa","ios":"levelo://app?vid=fe3091c2-0d6d-4ae0-a3c3-25b163d6c0fa"},"vehicle_type_id":"4","last_reported":1703679146,"current_range_meters":22000,"station_id":"ce4bgs12rcd13ifvqcag","pricing_plan_id":"free"},{"bike_id":"29ae4f92-56fa-483f-95bb-914e03f23743","system_id":"levelo_inurba_marseille","lat":43.305706,"lon":5.365654,"is_reserved":false,"is_disabled":false,"rental_uris":{"android":"levelo://app?vid=29ae4f92-56fa-483f-95bb-914e03f23743","ios":"levelo://app?vid=29ae4f92-56fa-483f-95bb-914e03f23743"},"vehicle_type_id":"4","last_reported":1703679146,"current_range_meters":21200,"station_id":"ce4bgs12rcd13ifvqcag","pricing_plan_id":"free"},{"bike_id":"654faa5c-8166-4b19-a214-21386734fe34","system_id":"levelo_inurba_marseille","lat":43.30532,"lon":5.36721,"is_reserved":false,"is_disabled":false,"rental_uris":{"android":"levelo://app?vid=654faa5c-8166-4b19-a214-21386734fe34","ios":"levelo://app?vid=654faa5c-8166-4b19-a214-21386734fe34"},"vehicle_type_id":"4","last_reported":1703679146,"current_range_meters":21600,"station_id":"ce4bgrp2rcd13ifvqc9g","pricing_plan_id":"free"},{"bike_id":"4d00a7ff-7a52-4696-8dcb-f0cbb4b34bd1","system_id":"levelo_inurba_marseille","lat":43.305368,"lon":5.367343,"is_reserved":false,"is_disabled":false,"rental_uris":{"android":"levelo://app?vid=4d00a7ff-7a52-4696-8dcb-f0cbb4b34bd1","ios":"levelo://app?vid=4d00a7ff-7a52-4696-8dcb-f0cbb4b34bd1"},"vehicle_type_id":"4","last_reported":1703679146,"current_range_meters":14800,"station_id":"ce4bgrp2rcd13ifvqc9g","pricing_plan_id":"free"},{"bike_id":"9b37eff2-acfe-41c1-811b-93fe1b384cd7","system_id":"levelo_inurba_marseille","lat":43.305706,"lon":5.365654,"is_reserved":false,"is_disabled":false,"rental_uris":{"android":"levelo://app?vid=9b37eff2-acfe-41c1-811b-93fe1b384cd7","ios":"levelo://app?vid=9b37eff2-acfe-41c1-811b-93fe1b384cd7"},"vehicle_type_id":"4","last_reported":1703679146,"current_range_meters":29600,"station_id":"ce4bgs12rcd13ifvqcag","pricing_plan_id":"free"},{"bike_id":"fff16be8-883e-43cd-aef3-c03772c120a8","system_id":"levelo_inurba_marseille","lat":43.305706,"lon":5.365654,"is_reserved":false,"is_disabled":false,"rental_uris":{"android":"levelo://app?vid=fff16be8-883e-43cd-aef3-c03772c120a8","ios":"levelo://app?vid=fff16be8-883e-43cd-aef3-c03772c120a8"},"vehicle_type_id":"4","last_reported":1703679146,"current_range_meters":31200,"station_id":"ce4bgs12rcd13ifvqcag","pricing_plan_id":"free"},{"bike_id":"52c464d7-fe66-4257-bdd4-da7f09d0632b","system_id":"levelo_inurba_marseille","lat":43.30615,"lon":5.37178,"is_reserved":false,"is_disabled":false,"rental_uris":{"android":"levelo://app?vid=52c464d7-fe66-4257-bdd4-da7f09d0632b","ios":"levelo://app?vid=52c464d7-fe66-4257-bdd4-da7f09d0632b"},"vehicle_type_id":"4","last_reported":1703679146,"current_range_meters":30800,"station_id":"ce4bgqh2rcd13ifvqc4g","pricing_plan_id":"free"},{"bike_id":"15e0bc0c-3f20-4972-8a1c-a6b2a2cc89e5","system_id":"levelo_inurba_marseille","lat":43.305706,"lon":5.365654,"is_reserved":false,"is_disabled":false,"rental_uris":{"android":"levelo://app?vid=15e0bc0c-3f20-4972-8a1c-a6b2a2cc89e5","ios":"levelo://app?vid=15e0bc0c-3f20-4972-8a1c-a6b2a2cc89e5"},"vehicle_type_id":"4","last_reported":1703679146,"current_range_meters":25200,"station_id":"ce4bgs12rcd13ifvqcag","pricing_plan_id":"free"},{"bike_id":"e91243af-7bb7-4de7-a9e2-268acebb3db5","system_id":"levelo_inurba_marseille","lat":43.305706,"lon":5.365654,"is_reserved":false,"is_disabled":false,"rental_uris":{"android":"levelo://app?vid=e91243af-7bb7-4de7-a9e2-268acebb3db5","ios":"levelo://app?vid=e91243af-7bb7-4de7-a9e2-268acebb3db5"},"vehicle_type_id":"4","last_reported":1703679146,"current_range_meters":16800,"station_id":"ce4bgs12rcd13ifvqcag","pricing_plan_id":"free"},{"bike_id":"132f30dc-50ba-4eb7-a01e-21cf3379f689","system_id":"levelo_inurba_marseille","lat":43.305706,"lon":5.365654,"is_reserved":false,"is_disabled":false,"rental_uris":{"android":"levelo://app?vid=132f30dc-50ba-4eb7-a01e-21cf3379f689","ios":"levelo://app?vid=132f30dc-50ba-4eb7-a01e-21cf3379f689"},"vehicle_type_id":"4","last_reported":1703679146,"current_range_meters":23600,"station_id":"ce4bgs12rcd13ifvqcag","pricing_plan_id":"free"},{"bike_id":"a20a198a-322e-4f13-924c-07adcac0ab7f","system_id":"levelo_inurba_marseille","lat":43.305714,"lon":5.365633,"is_reserved":false,"is_disabled":false,"rental_uris":{"android":"levelo://app?vid=a20a198a-322e-4f13-924c-07adcac0ab7f","ios":"levelo://app?vid=a20a198a-322e-4f13-924c-07adcac0ab7f"},"vehicle_type_id":"4","last_reported":1703679146,"current_range_meters":30400,"station_id":"ce4bgs12rcd13ifvqcag","pricing_plan_id":"free"},{"bike_id":"9a250c46-26f9-4cd7-875f-087addca6455","system_id":"levelo_inurba_marseille","lat":43.305368,"lon":5.367343,"is_reserved":false,"is_disabled":false,"rental_uris":{"android":"levelo://app?vid=9a250c46-26f9-4cd7-875f-087addca6455","ios":"levelo://app?vid=9a250c46-26f9-4cd7-875f-087addca6455"},"vehicle_type_id":"4","last_reported":1703679146,"current_range_meters":13200,"station_id":"ce4bgrp2rcd13ifvqc9g","pricing_plan_id":"free"},{"bike_id":"b8a0a6c4-cae7-48f6-98c4-ed3156645f67","system_id":"levelo_inurba_marseille","lat":43.305368,"lon":5.367343,"is_reserved":false,"is_disabled":false,"rental_uris":{"android":"levelo://app?vid=b8a0a6c4-cae7-48f6-98c4-ed3156645f67","ios":"levelo://app?vid=b8a0a6c4-cae7-48f6-98c4-ed3156645f67"},"vehicle_type_id":"4","last_reported":1703679146,"current_range_meters":21200,"station_id":"ce4bgrp2rcd13ifvqc9g","pricing_plan_id":"free"},{"bike_id":"d1a05984-5484-40db-bf2e-1373b1705ee3","system_id":"levelo_inurba_marseille","lat":43.305706,"lon":5.365654,"is_reserved":false,"is_disabled":false,"rental_uris":{"android":"levelo://app?vid=d1a05984-5484-40db-bf2e-1373b1705ee3","ios":"levelo://app?vid=d1a05984-5484-40db-bf2e-1373b1705ee3"},"vehicle_type_id":"4","last_reported":1703679146,"current_range_meters":29200,"station_id":"ce4bgs12rcd13ifvqcag","pricing_plan_id":"free"},{"bike_id":"545df49f-4c64-4222-90da-0d520ea6148f","system_id":"levelo_inurba_marseille","lat":43.305989,"lon":5.37225,"is_reserved":false,"is_disabled":false,"rental_uris":{"android":"levelo://app?vid=545df49f-4c64-4222-90da-0d520ea6148f","ios":"levelo://app?vid=545df49f-4c64-4222-90da-0d520ea6148f"},"vehicle_type_id":"4","last_reported":1703679146,"current_range_meters":31600,"station_id":"ce4bgqh2rcd13ifvqc4g","pricing_plan_id":"free"},{"bike_id":"12de8f02-c3f8-4577-afbd-9bb8e20d2e5b","system_id":"levelo_inurba_marseille","lat":43.317075,"lon":5.377367,"is_reserved":false,"is_disabled":false,"rental_uris":{"android":"levelo://app?vid=12de8f02-c3f8-4577-afbd-9bb8e20d2e5b","ios":"levelo://app?vid=12de8f02-c3f8-4577-afbd-9bb8e20d2e5b"},"vehicle_type_id":"4","last_reported":1703679146,"current_range_meters":29200,"station_id":"ce4bgth2rcd13ifvqch0","pricing_plan_id":"free"},{"bike_id":"1ab5911d-6cd6-464c-a122-7a3cb9e10e72","system_id":"levelo_inurba_marseille","lat":43.317075,"lon":5.377367,"is_reserved":false,"is_disabled":false,"rental_uris":{"android":"levelo://app?vid=1ab5911d-6cd6-464c-a122-7a3cb9e10e72","ios":"levelo://app?vid=1ab5911d-6cd6-464c-a122-7a3cb9e10e72"},"vehicle_type_id":"4","last_reported":1703679146,"current_range_meters":30000,"station_id":"ce4bgth2rcd13ifvqch0","pricing_plan_id":"free"},{"bike_id":"35cf0cd9-a2e3-4422-ab22-54ecba1f4397","system_id":"levelo_inurba_marseille","lat":43.30304,"lon":5.368987,"is_reserved":false,"is_disabled":false,"rental_uris":{"android":"levelo://app?vid=35cf0cd9-a2e3-4422-ab22-54ecba1f4397","ios":"levelo://app?vid=35cf0cd9-a2e3-4422-ab22-54ecba1f4397"},"vehicle_type_id":"4","last_reported":1703679146,"current_range_meters":31600,"station_id":"ce4bgqh2rcd13ifvqc5g","pricing_plan_id":"free"},{"bike_id":"42260f7e-784b-4e72-b495-be64e75c1d35","system_id":"levelo_inurba_marseille","lat":43.303046,"lon":5.368981,"is_reserved":false,"is_disabled":false,"rental_uris":{"android":"levelo://app?vid=42260f7e-784b-4e72-b495-be64e75c1d35","ios":"levelo://app?vid=42260f7e-784b-4e72-b495-be64e75c1d35"},"vehicle_type_id":"4","last_reported":1703679146,"current_range_meters":15200,"station_id":"ce4bgqh2rcd13ifvqc5g","pricing_plan_id":"free"},{"bike_id":"45aa06a4-6207-41c0-90de-ff3c39911319","system_id":"levelo_inurba_marseille","lat":43.31527,"lon":5.38026,"is_reserved":false,"is_disabled":false,"rental_uris":{"android":"levelo://app?vid=45aa06a4-6207-41c0-90de-ff3c39911319","ios":"levelo://app?vid=45aa06a4-6207-41c0-90de-ff3c39911319"},"vehicle_type_id":"4","last_reported":1703679146,"current_range_meters":24800,"station_id":"ce4bhsp2rcd13ifvqi50","pricing_plan_id":"free"},{"bike_id":"4c52c6e3-56e1-4e83-afa2-29fe3d9cca02","system_id":"levelo_inurba_marseille","lat":43.301939,"lon":5.366286,"is_reserved":false,"is_disabled":false,"rental_uris":{"android":"levelo://app?vid=4c52c6e3-56e1-4e83-afa2-29fe3d9cca02","ios":"levelo://app?vid=4c52c6e3-56e1-4e83-afa2-29fe3d9cca02"},"vehicle_type_id":"4","last_reported":1703679146,"current_range_meters":25200,"station_id":"ce4bgrh2rcd13ifvqc8g","pricing_plan_id":"free"},{"bike_id":"0a14447f-bce8-4eca-bd13-d41be190a313","system_id":"levelo_inurba_marseille","lat":43.308012,"lon":5.381511,"is_reserved":false,"is_disabled":false,"rental_uris":{"android":"levelo://app?vid=0a14447f-bce8-4eca-bd13-d41be190a313","ios":"levelo://app?vid=0a14447f-bce8-4eca-bd13-d41be190a313"},"vehicle_type_id":"4","last_reported":1703679146,"current_range_meters":28000,"station_id":"ce4bgt12rcd13ifvqce0","pricing_plan_id":"free"},{"bike_id":"304c09d4-a1d7-4650-8e98-e7e7cf0bee66","system_id":"levelo_inurba_marseille","lat":43.308012,"lon":5.381511,"is_reserved":false,"is_disabled":false,"rental_uris":{"android":"levelo://app?vid=304c09d4-a1d7-4650-8e98-e7e7cf0bee66","ios":"levelo://app?vid=304c09d4-a1d7-4650-8e98-e7e7cf0bee66"},"vehicle_type_id":"4","last_reported":1703679146,"current_range_meters":9200,"station_id":"ce4bgt12rcd13ifvqce0","pricing_plan_id":"free"},{"bike_id":"5c3120fc-3167-462a-8b40-58c57a05850b","system_id":"levelo_inurba_marseille","lat":43.304606,"lon":5.379026,"is_reserved":false,"is_disabled":false,"rental_uris":{"android":"levelo://app?vid=5c3120fc-3167-462a-8b40-58c57a05850b","ios":"levelo://app?vid=5c3120fc-3167-462a-8b40-58c57a05850b"},"vehicle_type_id":"4","last_reported":1703679146,"current_range_meters":24800,"station_id":"ce4bgup2rcd13ifvqcn0","pricing_plan_id":"free"},{"bike_id":"adbd0521-5319-4c26-b88b-64e65385a019","system_id":"levelo_inurba_marseille","lat":43.304606,"lon":5.379026,"is_reserved":false,"is_disabled":false,"rental_uris":{"android":"levelo://app?vid=adbd0521-5319-4c26-b88b-64e65385a019","ios":"levelo://app?vid=adbd0521-5319-4c26-b88b-64e65385a019"},"vehicle_type_id":"4","last_reported":1703679146,"current_range_meters":8400,"station_id":"ce4bgup2rcd13ifvqcn0","pricing_plan_id":"free"},{"bike_id":"993f8bbc-e889-4f3e-b207-5281d20a3ebb","system_id":"levelo_inurba_marseille","lat":43.304606,"lon":5.379026,"is_reserved":false,"is_disabled":false,"rental_uris":{"android":"levelo://app?vid=993f8bbc-e889-4f3e-b207-5281d20a3ebb","ios":"levelo://app?vid=993f8bbc-e889-4f3e-b207-5281d20a3ebb"},"vehicle_type_id":"4","last_reported":1703679146,"current_range_meters":21600,"station_id":"ce4bgup2rcd13ifvqcn0","pricing_plan_id":"free"},{"bike_id":"bea53d04-e229-4f19-a7f6-8945b3a45f4f","system_id":"levelo_inurba_marseille","lat":43.304606,"lon":5.379026,"is_reserved":false,"is_disabled":false,"rental_uris":{"android":"levelo://app?vid=bea53d04-e229-4f19-a7f6-8945b3a45f4f","ios":"levelo://app?vid=bea53d04-e229-4f19-a7f6-8945b3a45f4f"},"vehicle_type_id":"4","last_reported":1703679146,"current_range_meters":12800,"station_id":"ce4bgup2rcd13ifvqcn0","pricing_plan_id":"free"},{"bike_id":"bd1dba45-31eb-4468-90ae-db0eb19fde7f","system_id":"levelo_inurba_marseille","lat":43.304606,"lon":5.379026,"is_reserved":false,"is_disabled":false,"rental_uris":{"android":"levelo://app?vid=bd1dba45-31eb-4468-90ae-db0eb19fde7f","ios":"levelo://app?vid=bd1dba45-31eb-4468-90ae-db0eb19fde7f"},"vehicle_type_id":"4","last_reported":1703679146,"current_range_meters":26800,"station_id":"ce4bgup2rcd13ifvqcn0","pricing_plan_id":"free"},{"bike_id":"a92a8f32-1532-4c71-8a2d-27536651c6b6","system_id":"levelo_inurba_marseille","lat":43.304606,"lon":5.379026,"is_reserved":false,"is_disabled":false,"rental_uris":{"android":"levelo://app?vid=a92a8f32-1532-4c71-8a2d-27536651c6b6","ios":"levelo://app?vid=a92a8f32-1532-4c71-8a2d-27536651c6b6"},"vehicle_type_id":"4","last_reported":1703679146,"current_range_meters":29200,"station_id":"ce4bgup2rcd13ifvqcn0","pricing_plan_id":"free"},{"bike_id":"4116ae37-4f5a-45e9-909c-2141949d5a4d","system_id":"levelo_inurba_marseille","lat":43.304606,"lon":5.379026,"is_reserved":false,"is_disabled":false,"rental_uris":{"android":"levelo://app?vid=4116ae37-4f5a-45e9-909c-2141949d5a4d","ios":"levelo://app?vid=4116ae37-4f5a-45e9-909c-2141949d5a4d"},"vehicle_type_id":"4","last_reported":1703679146,"current_range_meters":26400,"station_id":"ce4bgup2rcd13ifvqcn0","pricing_plan_id":"free"},{"bike_id":"310db758-48a1-4d78-827e-4598dfee7cff","system_id":"levelo_inurba_marseille","lat":43.304606,"lon":5.379026,"is_reserved":false,"is_disabled":false,"rental_uris":{"android":"levelo://app?vid=310db758-48a1-4d78-827e-4598dfee7cff","ios":"levelo://app?vid=310db758-48a1-4d78-827e-4598dfee7cff"},"vehicle_type_id":"4","last_reported":1703679146,"current_range_meters":24800,"station_id":"ce4bgup2rcd13ifvqcn0","pricing_plan_id":"free"},{"bike_id":"adc77167-51ba-4a22-8ff4-4322f4ba9286","system_id":"levelo_inurba_marseille","lat":43.304606,"lon":5.379026,"is_reserved":false,"is_disabled":false,"rental_uris":{"android":"levelo://app?vid=adc77167-51ba-4a22-8ff4-4322f4ba9286","ios":"levelo://app?vid=adc77167-51ba-4a22-8ff4-4322f4ba9286"},"vehicle_type_id":"4","last_reported":1703679146,"current_range_meters":28800,"station_id":"ce4bgup2rcd13ifvqcn0","pricing_plan_id":"free"},{"bike_id":"3fefeef5-9b17-4a83-a2e9-b676e3c9b179","system_id":"levelo_inurba_marseille","lat":43.304606,"lon":5.379026,"is_reserved":false,"is_disabled":false,"rental_uris":{"android":"levelo://app?vid=3fefeef5-9b17-4a83-a2e9-b676e3c9b179","ios":"levelo://app?vid=3fefeef5-9b17-4a83-a2e9-b676e3c9b179"},"vehicle_type_id":"4","last_reported":1703679146,"current_range_meters":18000,"station_id":"ce4bgup2rcd13ifvqcn0","pricing_plan_id":"free"},{"bike_id":"5e54e82b-5eb6-407d-97c2-51498b120d4b","system_id":"levelo_inurba_marseille","lat":43.304606,"lon":5.379026,"is_reserved":false,"is_disabled":false,"rental_uris":{"android":"levelo://app?vid=5e54e82b-5eb6-407d-97c2-51498b120d4b","ios":"levelo://app?vid=5e54e82b-5eb6-407d-97c2-51498b120d4b"},"vehicle_type_id":"4","last_reported":1703679146,"current_range_meters":12800,"station_id":"ce4bgup2rcd13ifvqcn0","pricing_plan_id":"free"},{"bike_id":"d3df8c1f-09c9-448d-97d6-daf6e6951a61","system_id":"levelo_inurba_marseille","lat":43.302784,"lon":5.377158,"is_reserved":false,"is_disabled":false,"rental_uris":{"android":"levelo://app?vid=d3df8c1f-09c9-448d-97d6-daf6e6951a61","ios":"levelo://app?vid=d3df8c1f-09c9-448d-97d6-daf6e6951a61"},"vehicle_type_id":"4","last_reported":1703679146,"current_range_meters":25200,"station_id":"ce4bguh2rcd13ifvqcj0","pricing_plan_id":"free"},{"bike_id":"b4b21e72-2e3a-4531-8f6e-e3b8e1b435b1","system_id":"levelo_inurba_marseille","lat":43.301429,"lon":5.37413,"is_reserved":false,"is_disabled":false,"rental_uris":{"android":"levelo://app?vid=b4b21e72-2e3a-4531-8f6e-e3b8e1b435b1","ios":"levelo://app?vid=b4b21e72-2e3a-4531-8f6e-e3b8e1b435b1"},"vehicle_type_id":"4","last_reported":1703679146,"current_range_meters":29600,"station_id":"ce4bgs92rcd13ifvqcc0","pricing_plan_id":"free"},{"bike_id":"422f048e-8e72-4fee-b565-b5e05701ac60","system_id":"levelo_inurba_marseille","lat":43.301453,"lon":5.37416,"is_reserved":false,"is_disabled":false,"rental_uris":{"android":"levelo://app?vid=422f048e-8e72-4fee-b565-b5e05701ac60","ios":"levelo://app?vid=422f048e-8e72-4fee-b565-b5e05701ac60"},"vehicle_type_id":"4","last_reported":1703679146,"current_range_meters":9600,"station_id":"","pricing_plan_id":"free"},{"bike_id":"eec999d6-9128-405e-95a0-18d1c0f9a51b","system_id":"levelo_inurba_marseille","lat":43.302784,"lon":5.377158,"is_reserved":false,"is_disabled":false,"rental_uris":{"android":"levelo://app?vid=eec999d6-9128-405e-95a0-18d1c0f9a51b","ios":"levelo://app?vid=eec999d6-9128-405e-95a0-18d1c0f9a51b"},"vehicle_type_id":"4","last_reported":1703679146,"current_range_meters":29200,"station_id":"ce4bguh2rcd13ifvqcj0","pricing_plan_id":"free"},{"bike_id":"275ebf1a-d6a9-4ca3-a581-6d7a84bf1a24","system_id":"levelo_inurba_marseille","lat":43.302784,"lon":5.377158,"is_reserved":false,"is_disabled":false,"rental_uris":{"android":"levelo://app?vid=275ebf1a-d6a9-4ca3-a581-6d7a84bf1a24","ios":"levelo://app?vid=275ebf1a-d6a9-4ca3-a581-6d7a84bf1a24"},"vehicle_type_id":"4","last_reported":1703679146,"current_range_meters":26400,"station_id":"ce4bguh2rcd13ifvqcj0","pricing_plan_id":"free"},{"bike_id":"d5219808-27fb-44a2-8cf4-51d1ae3ecab8","system_id":"levelo_inurba_marseille","lat":43.301429,"lon":5.37413,"is_reserved":false,"is_disabled":false,"rental_uris":{"android":"levelo://app?vid=d5219808-27fb-44a2-8cf4-51d1ae3ecab8","ios":"levelo://app?vid=d5219808-27fb-44a2-8cf4-51d1ae3ecab8"},"vehicle_type_id":"4","last_reported":1703679146,"current_range_meters":31600,"station_id":"ce4bgs92rcd13ifvqcc0","pricing_plan_id":"free"},{"bike_id":"83b0f91b-97db-4bf5-9882-f1380f56a7ab","system_id":"levelo_inurba_marseille","lat":43.301429,"lon":5.37413,"is_reserved":false,"is_disabled":false,"rental_uris":{"android":"levelo://app?vid=83b0f91b-97db-4bf5-9882-f1380f56a7ab","ios":"levelo://app?vid=83b0f91b-97db-4bf5-9882-f1380f56a7ab"},"vehicle_type_id":"4","last_reported":1703679146,"current_range_meters":26400,"station_id":"ce4bgs92rcd13ifvqcc0","pricing_plan_id":"free"},{"bike_id":"dafe1419-f6a8-4758-8253-af1c7815f73d","system_id":"levelo_inurba_marseille","lat":43.313571,"lon":5.384829,"is_reserved":false,"is_disabled":false,"rental_uris":{"android":"levelo://app?vid=dafe1419-f6a8-4758-8253-af1c7815f73d","ios":"levelo://app?vid=dafe1419-f6a8-4758-8253-af1c7815f73d"},"vehicle_type_id":"4","last_reported":1703679146,"current_range_meters":18800,"station_id":"ce4bgt92rcd13ifvqcf0","pricing_plan_id":"free"},{"bike_id":"7d5fd1e7-16b9-4b94-a726-dc90747fa958","system_id":"levelo_inurba_marseille","lat":43.313571,"lon":5.384829,"is_reserved":false,"is_disabled":false,"rental_uris":{"android":"levelo://app?vid=7d5fd1e7-16b9-4b94-a726-dc90747fa958","ios":"levelo://app?vid=7d5fd1e7-16b9-4b94-a726-dc90747fa958"},"vehicle_type_id":"4","last_reported":1703679146,"current_range_meters":30400,"station_id":"ce4bgt92rcd13ifvqcf0","pricing_plan_id":"free"},{"bike_id":"404ecbfb-0edf-4221-b534-a6bdaa7ea65b","system_id":"levelo_inurba_marseille","lat":43.299724,"lon":5.371829,"is_reserved":false,"is_disabled":false,"rental_uris":{"android":"levelo://app?vid=404ecbfb-0edf-4221-b534-a6bdaa7ea65b","ios":"levelo://app?vid=404ecbfb-0edf-4221-b534-a6bdaa7ea65b"},"vehicle_type_id":"4","last_reported":1703679146,"current_range_meters":28800,"station_id":"ce4bgr92rcd13ifvqc7g","pricing_plan_id":"free"},{"bike_id":"458bce4e-6a30-40a6-8342-96651f4a43a5","system_id":"levelo_inurba_marseille","lat":43.30559,"lon":5.384,"is_reserved":false,"is_disabled":false,"rental_uris":{"android":"levelo://app?vid=458bce4e-6a30-40a6-8342-96651f4a43a5","ios":"levelo://app?vid=458bce4e-6a30-40a6-8342-96651f4a43a5"},"vehicle_type_id":"4","last_reported":1703679146,"current_range_meters":17200,"station_id":"","pricing_plan_id":"free"},{"bike_id":"3d1d0ecd-6942-4ff1-b835-ddb70847c443","system_id":"levelo_inurba_marseille","lat":43.31159,"lon":5.3869,"is_reserved":false,"is_disabled":false,"rental_uris":{"android":"levelo://app?vid=3d1d0ecd-6942-4ff1-b835-ddb70847c443","ios":"levelo://app?vid=3d1d0ecd-6942-4ff1-b835-ddb70847c443"},"vehicle_type_id":"4","last_reported":1703679146,"current_range_meters":22800,"station_id":"ce4bgv12rcd13ifvqcp0","pricing_plan_id":"free"},{"bike_id":"1c2f7f54-9a72-4154-8652-e43885870456","system_id":"levelo_inurba_marseille","lat":43.312117,"lon":5.387127,"is_reserved":false,"is_disabled":false,"rental_uris":{"android":"levelo://app?vid=1c2f7f54-9a72-4154-8652-e43885870456","ios":"levelo://app?vid=1c2f7f54-9a72-4154-8652-e43885870456"},"vehicle_type_id":"4","last_reported":1703679146,"current_range_meters":31200,"station_id":"ce4bgv12rcd13ifvqcp0","pricing_plan_id":"free"},{"bike_id":"7dc5ff3c-1e2a-42f8-bb5e-fd8acaae6c9f","system_id":"levelo_inurba_marseille","lat":43.299243,"lon":5.374807,"is_reserved":false,"is_disabled":false,"rental_uris":{"android":"levelo://app?vid=7dc5ff3c-1e2a-42f8-bb5e-fd8acaae6c9f","ios":"levelo://app?vid=7dc5ff3c-1e2a-42f8-bb5e-fd8acaae6c9f"},"vehicle_type_id":"4","last_reported":1703679146,"current_range_meters":31600,"station_id":"ce4bgjh2rcd13ifvqbg0","pricing_plan_id":"free"},{"bike_id":"5958554e-51a1-44a2-99c6-91757907a941","system_id":"levelo_inurba_marseille","lat":43.297794,"lon":5.370888,"is_reserved":false,"is_disabled":false,"rental_uris":{"android":"levelo://app?vid=5958554e-51a1-44a2-99c6-91757907a941","ios":"levelo://app?vid=5958554e-51a1-44a2-99c6-91757907a941"},"vehicle_type_id":"4","last_reported":1703679146,"current_range_meters":27200,"station_id":"ce4bgop2rcd13ifvqc1g","pricing_plan_id":"free"},{"bike_id":"1cecd7ec-d453-43c5-a38d-0ee14477aaf1","system_id":"levelo_inurba_marseille","lat":43.322863,"lon":5.382763,"is_reserved":false,"is_disabled":false,"rental_uris":{"android":"levelo://app?vid=1cecd7ec-d453-43c5-a38d-0ee14477aaf1","ios":"levelo://app?vid=1cecd7ec-d453-43c5-a38d-0ee14477aaf1"},"vehicle_type_id":"4","last_reported":1703679146,"current_range_meters":26000,"station_id":"ce4bhr12rcd13ifvqhqg","pricing_plan_id":"free"},{"bike_id":"9f5a96a2-0db8-4b1c-8450-c51d03940f00","system_id":"levelo_inurba_marseille","lat":43.322872,"lon":5.382756,"is_reserved":false,"is_disabled":false,"rental_uris":{"android":"levelo://app?vid=9f5a96a2-0db8-4b1c-8450-c51d03940f00","ios":"levelo://app?vid=9f5a96a2-0db8-4b1c-8450-c51d03940f00"},"vehicle_type_id":"4","last_reported":1703679146,"current_range_meters":29200,"station_id":"ce4bhr12rcd13ifvqhqg","pricing_plan_id":"free"},{"bike_id":"903f6556-f208-46ac-9e7a-3b25678aa613","system_id":"levelo_inurba_marseille","lat":43.297774,"lon":5.370875,"is_reserved":false,"is_disabled":false,"rental_uris":{"android":"levelo://app?vid=903f6556-f208-46ac-9e7a-3b25678aa613","ios":"levelo://app?vid=903f6556-f208-46ac-9e7a-3b25678aa613"},"vehicle_type_id":"4","last_reported":1703679146,"current_range_meters":23600,"station_id":"ce4bgop2rcd13ifvqc1g","pricing_plan_id":"free"},{"bike_id":"a677cd10-a09b-4b2e-bffd-45b05d2c9229","system_id":"levelo_inurba_marseille","lat":43.32824,"lon":5.36691,"is_reserved":false,"is_disabled":false,"rental_uris":{"android":"levelo://app?vid=a677cd10-a09b-4b2e-bffd-45b05d2c9229","ios":"levelo://app?vid=a677cd10-a09b-4b2e-bffd-45b05d2c9229"},"vehicle_type_id":"4","last_reported":1703679146,"current_range_meters":30800,"station_id":"ce4bhs92rcd13ifvqi0g","pricing_plan_id":"free"},{"bike_id":"51714c4a-3132-4951-88ec-80e85fa125e8","system_id":"levelo_inurba_marseille","lat":43.328245,"lon":5.366799,"is_reserved":false,"is_disabled":false,"rental_uris":{"android":"levelo://app?vid=51714c4a-3132-4951-88ec-80e85fa125e8","ios":"levelo://app?vid=51714c4a-3132-4951-88ec-80e85fa125e8"},"vehicle_type_id":"4","last_reported":1703679146,"current_range_meters":24000,"station_id":"ce4bhs92rcd13ifvqi0g","pricing_plan_id":"free"},{"bike_id":"1ea82e61-37ea-4b15-a6ef-01d29683b9fd","system_id":"levelo_inurba_marseille","lat":43.32825,"lon":5.36683,"is_reserved":false,"is_disabled":false,"rental_uris":{"android":"levelo://app?vid=1ea82e61-37ea-4b15-a6ef-01d29683b9fd","ios":"levelo://app?vid=1ea82e61-37ea-4b15-a6ef-01d29683b9fd"},"vehicle_type_id":"4","last_reported":1703679146,"current_range_meters":26400,"station_id":"ce4bhs92rcd13ifvqi0g","pricing_plan_id":"free"},{"bike_id":"5c89eee7-6e83-42b4-bd81-efdcf68f6666","system_id":"levelo_inurba_marseille","lat":43.32827,"lon":5.36685,"is_reserved":false,"is_disabled":false,"rental_uris":{"android":"levelo://app?vid=5c89eee7-6e83-42b4-bd81-efdcf68f6666","ios":"levelo://app?vid=5c89eee7-6e83-42b4-bd81-efdcf68f6666"},"vehicle_type_id":"4","last_reported":1703679146,"current_range_meters":28000,"station_id":"ce4bhs92rcd13ifvqi0g","pricing_plan_id":"free"},{"bike_id":"6f67326a-1664-406f-9978-902e013e2357","system_id":"levelo_inurba_marseille","lat":43.32829,"lon":5.36675,"is_reserved":false,"is_disabled":false,"rental_uris":{"android":"levelo://app?vid=6f67326a-1664-406f-9978-902e013e2357","ios":"levelo://app?vid=6f67326a-1664-406f-9978-902e013e2357"},"vehicle_type_id":"4","last_reported":1703679146,"current_range_meters":27600,"station_id":"ce4bhs92rcd13ifvqi0g","pricing_plan_id":"free"},{"bike_id":"904f83aa-e9ab-401d-84c1-9edfed82b884","system_id":"levelo_inurba_marseille","lat":43.328371,"lon":5.366909,"is_reserved":false,"is_disabled":false,"rental_uris":{"android":"levelo://app?vid=904f83aa-e9ab-401d-84c1-9edfed82b884","ios":"levelo://app?vid=904f83aa-e9ab-401d-84c1-9edfed82b884"},"vehicle_type_id":"4","last_reported":1703679146,"current_range_meters":14800,"station_id":"ce4bhs92rcd13ifvqi0g","pricing_plan_id":"free"},{"bike_id":"a448ca86-2b35-41e1-89c4-32a99bab0563","system_id":"levelo_inurba_marseille","lat":43.328371,"lon":5.366912,"is_reserved":false,"is_disabled":false,"rental_uris":{"android":"levelo://app?vid=a448ca86-2b35-41e1-89c4-32a99bab0563","ios":"levelo://app?vid=a448ca86-2b35-41e1-89c4-32a99bab0563"},"vehicle_type_id":"4","last_reported":1703679146,"current_range_meters":28400,"station_id":"ce4bhs92rcd13ifvqi0g","pricing_plan_id":"free"},{"bike_id":"de708f00-7118-4d7c-9021-d7dcbd798473","system_id":"levelo_inurba_marseille","lat":43.328371,"lon":5.366909,"is_reserved":false,"is_disabled":false,"rental_uris":{"android":"levelo://app?vid=de708f00-7118-4d7c-9021-d7dcbd798473","ios":"levelo://app?vid=de708f00-7118-4d7c-9021-d7dcbd798473"},"vehicle_type_id":"4","last_reported":1703679146,"current_range_meters":21200,"station_id":"ce4bhs92rcd13ifvqi0g","pricing_plan_id":"free"},{"bike_id":"b33e79d7-85bd-413c-801b-bcd1df69d847","system_id":"levelo_inurba_marseille","lat":43.32833,"lon":5.36669,"is_reserved":false,"is_disabled":false,"rental_uris":{"android":"levelo://app?vid=b33e79d7-85bd-413c-801b-bcd1df69d847","ios":"levelo://app?vid=b33e79d7-85bd-413c-801b-bcd1df69d847"},"vehicle_type_id":"4","last_reported":1703679146,"current_range_meters":22000,"station_id":"ce4bhs92rcd13ifvqi0g","pricing_plan_id":"free"},{"bike_id":"be72c8fa-57ca-4b39-a06f-106528121e53","system_id":"levelo_inurba_marseille","lat":43.32835,"lon":5.36681,"is_reserved":false,"is_disabled":false,"rental_uris":{"android":"levelo://app?vid=be72c8fa-57ca-4b39-a06f-106528121e53","ios":"levelo://app?vid=be72c8fa-57ca-4b39-a06f-106528121e53"},"vehicle_type_id":"4","last_reported":1703679146,"current_range_meters":4800,"station_id":"ce4bhs92rcd13ifvqi0g","pricing_plan_id":"free"},{"bike_id":"e0d76087-a873-49a9-bf8c-f779cae0869a","system_id":"levelo_inurba_marseille","lat":43.297163,"lon":5.365866,"is_reserved":false,"is_disabled":false,"rental_uris":{"android":"levelo://app?vid=e0d76087-a873-49a9-bf8c-f779cae0869a","ios":"levelo://app?vid=e0d76087-a873-49a9-bf8c-f779cae0869a"},"vehicle_type_id":"4","last_reported":1703679146,"current_range_meters":18400,"station_id":"ce4bgn12rcd13ifvqbt0","pricing_plan_id":"free"},{"bike_id":"ea7074d7-b7c9-4941-82c2-dff391bae9cb","system_id":"levelo_inurba_marseille","lat":43.328361,"lon":5.366745,"is_reserved":false,"is_disabled":false,"rental_uris":{"android":"levelo://app?vid=ea7074d7-b7c9-4941-82c2-dff391bae9cb","ios":"levelo://app?vid=ea7074d7-b7c9-4941-82c2-dff391bae9cb"},"vehicle_type_id":"4","last_reported":1703679146,"current_range_meters":20000,"station_id":"ce4bhs92rcd13ifvqi0g","pricing_plan_id":"free"},{"bike_id":"0f98ad1f-98c5-4216-be21-1053c941867e","system_id":"levelo_inurba_marseille","lat":43.2968,"lon":5.37291,"is_reserved":false,"is_disabled":false,"rental_uris":{"android":"levelo://app?vid=0f98ad1f-98c5-4216-be21-1053c941867e","ios":"levelo://app?vid=0f98ad1f-98c5-4216-be21-1053c941867e"},"vehicle_type_id":"4","last_reported":1703679146,"current_range_meters":23600,"station_id":"ce4bgk12rcd13ifvqbj0","pricing_plan_id":"free"},{"bike_id":"921b424d-ad0d-4c7a-9d74-66e3a49bfa19","system_id":"levelo_inurba_marseille","lat":43.32934,"lon":5.36612,"is_reserved":false,"is_disabled":false,"rental_uris":{"android":"levelo://app?vid=921b424d-ad0d-4c7a-9d74-66e3a49bfa19","ios":"levelo://app?vid=921b424d-ad0d-4c7a-9d74-66e3a49bfa19"},"vehicle_type_id":"4","last_reported":1703679146,"current_range_meters":17600,"station_id":"","pricing_plan_id":"free"},{"bike_id":"bb7efdbe-8649-4a12-a0e6-9e3efb90f6bf","system_id":"levelo_inurba_marseille","lat":43.29573,"lon":5.367355,"is_reserved":false,"is_disabled":false,"rental_uris":{"android":"levelo://app?vid=bb7efdbe-8649-4a12-a0e6-9e3efb90f6bf","ios":"levelo://app?vid=bb7efdbe-8649-4a12-a0e6-9e3efb90f6bf"},"vehicle_type_id":"4","last_reported":1703679146,"current_range_meters":28400,"station_id":"ce4bgph2rcd13ifvqc2g","pricing_plan_id":"free"},{"bike_id":"fbaa4afa-c671-48c6-b0f2-6265e18fd7ed","system_id":"levelo_inurba_marseille","lat":43.29573,"lon":5.367355,"is_reserved":false,"is_disabled":false,"rental_uris":{"android":"levelo://app?vid=fbaa4afa-c671-48c6-b0f2-6265e18fd7ed","ios":"levelo://app?vid=fbaa4afa-c671-48c6-b0f2-6265e18fd7ed"},"vehicle_type_id":"4","last_reported":1703679146,"current_range_meters":24000,"station_id":"ce4bgph2rcd13ifvqc2g","pricing_plan_id":"free"},{"bike_id":"ac91803b-c426-459f-934b-4cde73ff829e","system_id":"levelo_inurba_marseille","lat":43.29573,"lon":5.367355,"is_reserved":false,"is_disabled":false,"rental_uris":{"android":"levelo://app?vid=ac91803b-c426-459f-934b-4cde73ff829e","ios":"levelo://app?vid=ac91803b-c426-459f-934b-4cde73ff829e"},"vehicle_type_id":"4","last_reported":1703679146,"current_range_meters":17600,"station_id":"ce4bgph2rcd13ifvqc2g","pricing_plan_id":"free"},{"bike_id":"e6aed875-11ba-42d1-b0e1-ef672c24acd0","system_id":"levelo_inurba_marseille","lat":43.29573,"lon":5.367355,"is_reserved":false,"is_disabled":false,"rental_uris":{"android":"levelo://app?vid=e6aed875-11ba-42d1-b0e1-ef672c24acd0","ios":"levelo://app?vid=e6aed875-11ba-42d1-b0e1-ef672c24acd0"},"vehicle_type_id":"4","last_reported":1703679146,"current_range_meters":24400,"station_id":"ce4bgph2rcd13ifvqc2g","pricing_plan_id":"free"},{"bike_id":"fec4de43-de21-45e7-be1a-257ea9b6ec6f","system_id":"levelo_inurba_marseille","lat":43.29573,"lon":5.367355,"is_reserved":false,"is_disabled":false,"rental_uris":{"android":"levelo://app?vid=fec4de43-de21-45e7-be1a-257ea9b6ec6f","ios":"levelo://app?vid=fec4de43-de21-45e7-be1a-257ea9b6ec6f"},"vehicle_type_id":"4","last_reported":1703679146,"current_range_meters":10000,"station_id":"ce4bgph2rcd13ifvqc2g","pricing_plan_id":"free"},{"bike_id":"3b67c9fd-7511-4d6d-ac6e-d065b3a9a66c","system_id":"levelo_inurba_marseille","lat":43.29573,"lon":5.367355,"is_reserved":false,"is_disabled":false,"rental_uris":{"android":"levelo://app?vid=3b67c9fd-7511-4d6d-ac6e-d065b3a9a66c","ios":"levelo://app?vid=3b67c9fd-7511-4d6d-ac6e-d065b3a9a66c"},"vehicle_type_id":"4","last_reported":1703679146,"current_range_meters":21600,"station_id":"ce4bgph2rcd13ifvqc2g","pricing_plan_id":"free"},{"bike_id":"2f169f59-d1e7-4c2d-ab91-5d3e0255a6b1","system_id":"levelo_inurba_marseille","lat":43.29573,"lon":5.367355,"is_reserved":false,"is_disabled":false,"rental_uris":{"android":"levelo://app?vid=2f169f59-d1e7-4c2d-ab91-5d3e0255a6b1","ios":"levelo://app?vid=2f169f59-d1e7-4c2d-ab91-5d3e0255a6b1"},"vehicle_type_id":"4","last_reported":1703679146,"current_range_meters":21600,"station_id":"ce4bgph2rcd13ifvqc2g","pricing_plan_id":"free"},{"bike_id":"8c4db49c-db33-444d-b6af-4c68f090bcad","system_id":"levelo_inurba_marseille","lat":43.29573,"lon":5.367355,"is_reserved":false,"is_disabled":false,"rental_uris":{"android":"levelo://app?vid=8c4db49c-db33-444d-b6af-4c68f090bcad","ios":"levelo://app?vid=8c4db49c-db33-444d-b6af-4c68f090bcad"},"vehicle_type_id":"4","last_reported":1703679146,"current_range_meters":19200,"station_id":"ce4bgph2rcd13ifvqc2g","pricing_plan_id":"free"},{"bike_id":"44027694-8bf3-4d42-9cb2-21508a7e565f","system_id":"levelo_inurba_marseille","lat":43.296921,"lon":5.376579,"is_reserved":false,"is_disabled":false,"rental_uris":{"android":"levelo://app?vid=44027694-8bf3-4d42-9cb2-21508a7e565f","ios":"levelo://app?vid=44027694-8bf3-4d42-9cb2-21508a7e565f"},"vehicle_type_id":"4","last_reported":1703679146,"current_range_meters":31600,"station_id":"ce4bgkh2rcd13ifvqbl0","pricing_plan_id":"free"},{"bike_id":"16c327ec-9478-45d4-8ea5-00cfa7427a14","system_id":"levelo_inurba_marseille","lat":43.296921,"lon":5.376579,"is_reserved":false,"is_disabled":false,"rental_uris":{"android":"levelo://app?vid=16c327ec-9478-45d4-8ea5-00cfa7427a14","ios":"levelo://app?vid=16c327ec-9478-45d4-8ea5-00cfa7427a14"},"vehicle_type_id":"4","last_reported":1703679146,"current_range_meters":26000,"station_id":"ce4bgkh2rcd13ifvqbl0","pricing_plan_id":"free"},{"bike_id":"166574d9-e9f2-42de-b289-c5a2560b220b","system_id":"levelo_inurba_marseille","lat":43.309589,"lon":5.390258,"is_reserved":false,"is_disabled":false,"rental_uris":{"android":"levelo://app?vid=166574d9-e9f2-42de-b289-c5a2560b220b","ios":"levelo://app?vid=166574d9-e9f2-42de-b289-c5a2560b220b"},"vehicle_type_id":"4","last_reported":1703679146,"current_range_meters":17600,"station_id":"ce4bgup2rcd13ifvqco0","pricing_plan_id":"free"},{"bike_id":"83d8cd4d-73f8-4361-856c-df2e332f98e2","system_id":"levelo_inurba_marseille","lat":43.295748,"lon":5.37522,"is_reserved":false,"is_disabled":false,"rental_uris":{"android":"levelo://app?vid=83d8cd4d-73f8-4361-856c-df2e332f98e2","ios":"levelo://app?vid=83d8cd4d-73f8-4361-856c-df2e332f98e2"},"vehicle_type_id":"4","last_reported":1703679146,"current_range_meters":23200,"station_id":"ce4bgh92rcd13ifvqb50","pricing_plan_id":"free"},{"bike_id":"ac10d2fb-a92e-4dde-befe-4b8b9616d323","system_id":"levelo_inurba_marseille","lat":43.295748,"lon":5.37522,"is_reserved":false,"is_disabled":false,"rental_uris":{"android":"levelo://app?vid=ac10d2fb-a92e-4dde-befe-4b8b9616d323","ios":"levelo://app?vid=ac10d2fb-a92e-4dde-befe-4b8b9616d323"},"vehicle_type_id":"4","last_reported":1703679146,"current_range_meters":31200,"station_id":"ce4bgh92rcd13ifvqb50","pricing_plan_id":"free"},{"bike_id":"a8122ca6-8a5e-4e2d-8684-f561dd9a327b","system_id":"levelo_inurba_marseille","lat":43.298037,"lon":5.381066,"is_reserved":false,"is_disabled":false,"rental_uris":{"android":"levelo://app?vid=a8122ca6-8a5e-4e2d-8684-f561dd9a327b","ios":"levelo://app?vid=a8122ca6-8a5e-4e2d-8684-f561dd9a327b"},"vehicle_type_id":"4","last_reported":1703679146,"current_range_meters":22400,"station_id":"ce4bgip2rcd13ifvqbb0","pricing_plan_id":"free"},{"bike_id":"883c8586-69c2-43ff-844b-8bf52d2cd244","system_id":"levelo_inurba_marseille","lat":43.298037,"lon":5.381066,"is_reserved":false,"is_disabled":false,"rental_uris":{"android":"levelo://app?vid=883c8586-69c2-43ff-844b-8bf52d2cd244","ios":"levelo://app?vid=883c8586-69c2-43ff-844b-8bf52d2cd244"},"vehicle_type_id":"4","last_reported":1703679146,"current_range_meters":20800,"station_id":"ce4bgip2rcd13ifvqbb0","pricing_plan_id":"free"},{"bike_id":"2ee7da06-66d5-48eb-9759-ed65ac5b12b1","system_id":"levelo_inurba_marseille","lat":43.296263,"lon":5.377094,"is_reserved":false,"is_disabled":false,"rental_uris":{"android":"levelo://app?vid=2ee7da06-66d5-48eb-9759-ed65ac5b12b1","ios":"levelo://app?vid=2ee7da06-66d5-48eb-9759-ed65ac5b12b1"},"vehicle_type_id":"4","last_reported":1703679146,"current_range_meters":25600,"station_id":"ce4bgi92rcd13ifvqb90","pricing_plan_id":"free"},{"bike_id":"e376a0de-31e2-4ee0-a0c9-1f84231b512e","system_id":"levelo_inurba_marseille","lat":43.296277,"lon":5.377108,"is_reserved":false,"is_disabled":false,"rental_uris":{"android":"levelo://app?vid=e376a0de-31e2-4ee0-a0c9-1f84231b512e","ios":"levelo://app?vid=e376a0de-31e2-4ee0-a0c9-1f84231b512e"},"vehicle_type_id":"4","last_reported":1703679146,"current_range_meters":26400,"station_id":"ce4bgi92rcd13ifvqb90","pricing_plan_id":"free"},{"bike_id":"3c1e257d-5cbd-49be-885f-b505fe31c015","system_id":"levelo_inurba_marseille","lat":43.296277,"lon":5.377108,"is_reserved":false,"is_disabled":false,"rental_uris":{"android":"levelo://app?vid=3c1e257d-5cbd-49be-885f-b505fe31c015","ios":"levelo://app?vid=3c1e257d-5cbd-49be-885f-b505fe31c015"},"vehicle_type_id":"4","last_reported":1703679146,"current_range_meters":22800,"station_id":"ce4bgi92rcd13ifvqb90","pricing_plan_id":"free"},{"bike_id":"2b74820d-2348-46d4-83a5-1169ee4f7dec","system_id":"levelo_inurba_marseille","lat":43.304278,"lon":5.388868,"is_reserved":false,"is_disabled":false,"rental_uris":{"android":"levelo://app?vid=2b74820d-2348-46d4-83a5-1169ee4f7dec","ios":"levelo://app?vid=2b74820d-2348-46d4-83a5-1169ee4f7dec"},"vehicle_type_id":"4","last_reported":1703679146,"current_range_meters":22800,"station_id":"ce4bgk12rcd13ifvqbi0","pricing_plan_id":"free"},{"bike_id":"ce8a0cf8-30f1-41db-a10c-c3ee6075a18b","system_id":"levelo_inurba_marseille","lat":43.296277,"lon":5.377108,"is_reserved":false,"is_disabled":false,"rental_uris":{"android":"levelo://app?vid=ce8a0cf8-30f1-41db-a10c-c3ee6075a18b","ios":"levelo://app?vid=ce8a0cf8-30f1-41db-a10c-c3ee6075a18b"},"vehicle_type_id":"4","last_reported":1703679146,"current_range_meters":13200,"station_id":"ce4bgi92rcd13ifvqb90","pricing_plan_id":"free"},{"bike_id":"b9ee4aed-b96e-45eb-bf11-1ee02a2d1de2","system_id":"levelo_inurba_marseille","lat":43.295279,"lon":5.375048,"is_reserved":false,"is_disabled":false,"rental_uris":{"android":"levelo://app?vid=b9ee4aed-b96e-45eb-bf11-1ee02a2d1de2","ios":"levelo://app?vid=b9ee4aed-b96e-45eb-bf11-1ee02a2d1de2"},"vehicle_type_id":"4","last_reported":1703679146,"current_range_meters":11600,"station_id":"ce4bgkp2rcd13ifvqbmg","pricing_plan_id":"free"},{"bike_id":"59d2577f-1cde-425b-aa1b-de3b8aabb29a","system_id":"levelo_inurba_marseille","lat":43.295279,"lon":5.375048,"is_reserved":false,"is_disabled":false,"rental_uris":{"android":"levelo://app?vid=59d2577f-1cde-425b-aa1b-de3b8aabb29a","ios":"levelo://app?vid=59d2577f-1cde-425b-aa1b-de3b8aabb29a"},"vehicle_type_id":"4","last_reported":1703679146,"current_range_meters":31600,"station_id":"ce4bgkp2rcd13ifvqbmg","pricing_plan_id":"free"},{"bike_id":"99dab0ee-94ad-450b-a4c8-cd99a99e2af6","system_id":"levelo_inurba_marseille","lat":43.299717,"lon":5.384845,"is_reserved":false,"is_disabled":false,"rental_uris":{"android":"levelo://app?vid=99dab0ee-94ad-450b-a4c8-cd99a99e2af6","ios":"levelo://app?vid=99dab0ee-94ad-450b-a4c8-cd99a99e2af6"},"vehicle_type_id":"4","last_reported":1703679146,"current_range_meters":26800,"station_id":"ce4bgj92rcd13ifvqbd0","pricing_plan_id":"free"},{"bike_id":"f960af57-296b-4edc-9858-9723df75cb77","system_id":"levelo_inurba_marseille","lat":43.299724,"lon":5.384848,"is_reserved":false,"is_disabled":false,"rental_uris":{"android":"levelo://app?vid=f960af57-296b-4edc-9858-9723df75cb77","ios":"levelo://app?vid=f960af57-296b-4edc-9858-9723df75cb77"},"vehicle_type_id":"4","last_reported":1703679146,"current_range_meters":26400,"station_id":"ce4bgj92rcd13ifvqbd0","pricing_plan_id":"free"},{"bike_id":"c2156fd8-88e6-4b40-8835-ad917c646ab6","system_id":"levelo_inurba_marseille","lat":43.32363,"lon":5.38882,"is_reserved":false,"is_disabled":false,"rental_uris":{"android":"levelo://app?vid=c2156fd8-88e6-4b40-8835-ad917c646ab6","ios":"levelo://app?vid=c2156fd8-88e6-4b40-8835-ad917c646ab6"},"vehicle_type_id":"4","last_reported":1703679146,"current_range_meters":17600,"station_id":"ce4bhqp2rcd13ifvqhog","pricing_plan_id":"free"},{"bike_id":"382c4cfa-6874-4a44-a4c4-4277cc22ec8b","system_id":"levelo_inurba_marseille","lat":43.32367,"lon":5.388836,"is_reserved":false,"is_disabled":false,"rental_uris":{"android":"levelo://app?vid=382c4cfa-6874-4a44-a4c4-4277cc22ec8b","ios":"levelo://app?vid=382c4cfa-6874-4a44-a4c4-4277cc22ec8b"},"vehicle_type_id":"4","last_reported":1703679146,"current_range_meters":8800,"station_id":"ce4bhqp2rcd13ifvqhog","pricing_plan_id":"free"},{"bike_id":"94a70657-973e-4a4a-8e5f-48624fa95146","system_id":"levelo_inurba_marseille","lat":43.32371,"lon":5.38877,"is_reserved":false,"is_disabled":false,"rental_uris":{"android":"levelo://app?vid=94a70657-973e-4a4a-8e5f-48624fa95146","ios":"levelo://app?vid=94a70657-973e-4a4a-8e5f-48624fa95146"},"vehicle_type_id":"4","last_reported":1703679146,"current_range_meters":12800,"station_id":"ce4bhqp2rcd13ifvqhog","pricing_plan_id":"free"},{"bike_id":"0aeff03b-c088-4633-a9b9-ca0ac8a59c2c","system_id":"levelo_inurba_marseille","lat":43.32367,"lon":5.388836,"is_reserved":false,"is_disabled":false,"rental_uris":{"android":"levelo://app?vid=0aeff03b-c088-4633-a9b9-ca0ac8a59c2c","ios":"levelo://app?vid=0aeff03b-c088-4633-a9b9-ca0ac8a59c2c"},"vehicle_type_id":"4","last_reported":1703679146,"current_range_meters":28000,"station_id":"ce4bhqp2rcd13ifvqhog","pricing_plan_id":"free"},{"bike_id":"4869b9ec-c725-48aa-bedf-96a45a7a549d","system_id":"levelo_inurba_marseille","lat":43.32367,"lon":5.388836,"is_reserved":false,"is_disabled":false,"rental_uris":{"android":"levelo://app?vid=4869b9ec-c725-48aa-bedf-96a45a7a549d","ios":"levelo://app?vid=4869b9ec-c725-48aa-bedf-96a45a7a549d"},"vehicle_type_id":"4","last_reported":1703679146,"current_range_meters":28000,"station_id":"ce4bhqp2rcd13ifvqhog","pricing_plan_id":"free"},{"bike_id":"1a11c6f0-e178-40a8-a655-0aac92d7d593","system_id":"levelo_inurba_marseille","lat":43.292749,"lon":5.368398,"is_reserved":false,"is_disabled":false,"rental_uris":{"android":"levelo://app?vid=1a11c6f0-e178-40a8-a655-0aac92d7d593","ios":"levelo://app?vid=1a11c6f0-e178-40a8-a655-0aac92d7d593"},"vehicle_type_id":"4","last_reported":1703679146,"current_range_meters":30800,"station_id":"ce4bhbp2rcd13ifvqesg","pricing_plan_id":"free"},{"bike_id":"fe9599f5-e740-44eb-ac74-43eda0e32191","system_id":"levelo_inurba_marseille","lat":43.29307,"lon":5.37181,"is_reserved":false,"is_disabled":false,"rental_uris":{"android":"levelo://app?vid=fe9599f5-e740-44eb-ac74-43eda0e32191","ios":"levelo://app?vid=fe9599f5-e740-44eb-ac74-43eda0e32191"},"vehicle_type_id":"4","last_reported":1703679146,"current_range_meters":10400,"station_id":"ce4bgh92rcd13ifvqb40","pricing_plan_id":"free"},{"bike_id":"dcb5ca07-daac-439c-ae66-a69e825affc9","system_id":"levelo_inurba_marseille","lat":43.292749,"lon":5.368402,"is_reserved":false,"is_disabled":false,"rental_uris":{"android":"levelo://app?vid=dcb5ca07-daac-439c-ae66-a69e825affc9","ios":"levelo://app?vid=dcb5ca07-daac-439c-ae66-a69e825affc9"},"vehicle_type_id":"4","last_reported":1703679146,"current_range_meters":20400,"station_id":"ce4bhbp2rcd13ifvqesg","pricing_plan_id":"free"},{"bike_id":"544ccd29-e682-4589-928e-39cc0e11024e","system_id":"levelo_inurba_marseille","lat":43.293259,"lon":5.371586,"is_reserved":false,"is_disabled":false,"rental_uris":{"android":"levelo://app?vid=544ccd29-e682-4589-928e-39cc0e11024e","ios":"levelo://app?vid=544ccd29-e682-4589-928e-39cc0e11024e"},"vehicle_type_id":"4","last_reported":1703679146,"current_range_meters":30800,"station_id":"ce4bgh92rcd13ifvqb40","pricing_plan_id":"free"},{"bike_id":"993967f1-1aaa-45f1-b94e-1b86f8614d8c","system_id":"levelo_inurba_marseille","lat":43.292749,"lon":5.368402,"is_reserved":false,"is_disabled":false,"rental_uris":{"android":"levelo://app?vid=993967f1-1aaa-45f1-b94e-1b86f8614d8c","ios":"levelo://app?vid=993967f1-1aaa-45f1-b94e-1b86f8614d8c"},"vehicle_type_id":"4","last_reported":1703679146,"current_range_meters":3600,"station_id":"ce4bhbp2rcd13ifvqesg","pricing_plan_id":"free"},{"bike_id":"7cf320e6-44c1-46e2-8fe3-0df1afa38f15","system_id":"levelo_inurba_marseille","lat":43.292749,"lon":5.368402,"is_reserved":false,"is_disabled":false,"rental_uris":{"android":"levelo://app?vid=7cf320e6-44c1-46e2-8fe3-0df1afa38f15","ios":"levelo://app?vid=7cf320e6-44c1-46e2-8fe3-0df1afa38f15"},"vehicle_type_id":"4","last_reported":1703679146,"current_range_meters":14400,"station_id":"ce4bhbp2rcd13ifvqesg","pricing_plan_id":"free"},{"bike_id":"08e0ecfb-e841-457d-a92d-6d354a939315","system_id":"levelo_inurba_marseille","lat":43.293249,"lon":5.371578,"is_reserved":false,"is_disabled":false,"rental_uris":{"android":"levelo://app?vid=08e0ecfb-e841-457d-a92d-6d354a939315","ios":"levelo://app?vid=08e0ecfb-e841-457d-a92d-6d354a939315"},"vehicle_type_id":"4","last_reported":1703679146,"current_range_meters":17200,"station_id":"ce4bgh92rcd13ifvqb40","pricing_plan_id":"free"},{"bike_id":"b22a7e48-e22d-4843-849b-55fecd80c042","system_id":"levelo_inurba_marseille","lat":43.293009,"lon":5.374584,"is_reserved":false,"is_disabled":false,"rental_uris":{"android":"levelo://app?vid=b22a7e48-e22d-4843-849b-55fecd80c042","ios":"levelo://app?vid=b22a7e48-e22d-4843-849b-55fecd80c042"},"vehicle_type_id":"4","last_reported":1703679146,"current_range_meters":24000,"station_id":"ce4bgi12rcd13ifvqb70","pricing_plan_id":"free"},{"bike_id":"6f6863dd-6176-4ef1-83ea-669d71edfa6b","system_id":"levelo_inurba_marseille","lat":43.305994,"lon":5.393687,"is_reserved":false,"is_disabled":false,"rental_uris":{"android":"levelo://app?vid=6f6863dd-6176-4ef1-83ea-669d71edfa6b","ios":"levelo://app?vid=6f6863dd-6176-4ef1-83ea-669d71edfa6b"},"vehicle_type_id":"4","last_reported":1703679146,"current_range_meters":16800,"station_id":"ce4bh0p2rcd13ifvqd80","pricing_plan_id":"free"},{"bike_id":"73d9c30e-c317-43c6-80b1-67dccb9a3177","system_id":"levelo_inurba_marseille","lat":43.2936,"lon":5.37835,"is_reserved":false,"is_disabled":false,"rental_uris":{"android":"levelo://app?vid=73d9c30e-c317-43c6-80b1-67dccb9a3177","ios":"levelo://app?vid=73d9c30e-c317-43c6-80b1-67dccb9a3177"},"vehicle_type_id":"4","last_reported":1703679146,"current_range_meters":24800,"station_id":"ce4bgjh2rcd13ifvqbf0","pricing_plan_id":"free"},{"bike_id":"b986daa5-ac74-431c-bbf2-1a1d5423b015","system_id":"levelo_inurba_marseille","lat":43.29272,"lon":5.37631,"is_reserved":false,"is_disabled":false,"rental_uris":{"android":"levelo://app?vid=b986daa5-ac74-431c-bbf2-1a1d5423b015","ios":"levelo://app?vid=b986daa5-ac74-431c-bbf2-1a1d5423b015"},"vehicle_type_id":"4","last_reported":1703679146,"current_range_meters":30800,"station_id":"","pricing_plan_id":"free"},{"bike_id":"f8ad87fb-faf9-4310-8434-bc415fdf4816","system_id":"levelo_inurba_marseille","lat":43.29869,"lon":5.38911,"is_reserved":false,"is_disabled":false,"rental_uris":{"android":"levelo://app?vid=f8ad87fb-faf9-4310-8434-bc415fdf4816","ios":"levelo://app?vid=f8ad87fb-faf9-4310-8434-bc415fdf4816"},"vehicle_type_id":"4","last_reported":1703679146,"current_range_meters":18000,"station_id":"","pricing_plan_id":"free"},{"bike_id":"89b721d3-b929-47a1-8328-f42a4c8682b1","system_id":"levelo_inurba_marseille","lat":43.291994,"lon":5.357886,"is_reserved":false,"is_disabled":false,"rental_uris":{"android":"levelo://app?vid=89b721d3-b929-47a1-8328-f42a4c8682b1","ios":"levelo://app?vid=89b721d3-b929-47a1-8328-f42a4c8682b1"},"vehicle_type_id":"4","last_reported":1703679146,"current_range_meters":12400,"station_id":"ce4bhb12rcd13ifvqel0","pricing_plan_id":"free"},{"bike_id":"93f95f9e-1e97-4039-9bbb-c694391343ef","system_id":"levelo_inurba_marseille","lat":43.291994,"lon":5.357886,"is_reserved":false,"is_disabled":false,"rental_uris":{"android":"levelo://app?vid=93f95f9e-1e97-4039-9bbb-c694391343ef","ios":"levelo://app?vid=93f95f9e-1e97-4039-9bbb-c694391343ef"},"vehicle_type_id":"4","last_reported":1703679146,"current_range_meters":0,"station_id":"ce4bhb12rcd13ifvqel0","pricing_plan_id":"free"},{"bike_id":"db65770f-6dd6-45b6-8b53-096defcb39c4","system_id":"levelo_inurba_marseille","lat":43.290779,"lon":5.371482,"is_reserved":false,"is_disabled":false,"rental_uris":{"android":"levelo://app?vid=db65770f-6dd6-45b6-8b53-096defcb39c4","ios":"levelo://app?vid=db65770f-6dd6-45b6-8b53-096defcb39c4"},"vehicle_type_id":"4","last_reported":1703679146,"current_range_meters":30400,"station_id":"ce4bh5p2rcd13ifvqe4g","pricing_plan_id":"free"},{"bike_id":"70513b3e-29d9-4f0b-a974-cbd48816e33c","system_id":"levelo_inurba_marseille","lat":43.294162,"lon":5.386292,"is_reserved":false,"is_disabled":false,"rental_uris":{"android":"levelo://app?vid=70513b3e-29d9-4f0b-a974-cbd48816e33c","ios":"levelo://app?vid=70513b3e-29d9-4f0b-a974-cbd48816e33c"},"vehicle_type_id":"4","last_reported":1703679146,"current_range_meters":25600,"station_id":"ce4bh2h2rcd13ifvqdh0","pricing_plan_id":"free"},{"bike_id":"845e06f0-7ade-4c19-ae83-016d1ae65b00","system_id":"levelo_inurba_marseille","lat":43.289184,"lon":5.366408,"is_reserved":false,"is_disabled":false,"rental_uris":{"android":"levelo://app?vid=845e06f0-7ade-4c19-ae83-016d1ae65b00","ios":"levelo://app?vid=845e06f0-7ade-4c19-ae83-016d1ae65b00"},"vehicle_type_id":"4","last_reported":1703679146,"current_range_meters":30400,"station_id":"ce4bhap2rcd13ifvqek0","pricing_plan_id":"free"},{"bike_id":"ef4d3f97-1118-4c92-99ae-81db773494be","system_id":"levelo_inurba_marseille","lat":43.289468,"lon":5.363719,"is_reserved":false,"is_disabled":false,"rental_uris":{"android":"levelo://app?vid=ef4d3f97-1118-4c92-99ae-81db773494be","ios":"levelo://app?vid=ef4d3f97-1118-4c92-99ae-81db773494be"},"vehicle_type_id":"4","last_reported":1703679146,"current_range_meters":22800,"station_id":"ce4bhc92rcd13ifvqetg","pricing_plan_id":"free"},{"bike_id":"73776197-b7f0-4e30-8b39-05f28798cc7f","system_id":"levelo_inurba_marseille","lat":43.289184,"lon":5.366408,"is_reserved":false,"is_disabled":false,"rental_uris":{"android":"levelo://app?vid=73776197-b7f0-4e30-8b39-05f28798cc7f","ios":"levelo://app?vid=73776197-b7f0-4e30-8b39-05f28798cc7f"},"vehicle_type_id":"4","last_reported":1703679146,"current_range_meters":28000,"station_id":"ce4bhap2rcd13ifvqek0","pricing_plan_id":"free"},{"bike_id":"85fb9c45-4e80-4424-ab66-336c32e17d42","system_id":"levelo_inurba_marseille","lat":43.292644,"lon":5.384257,"is_reserved":false,"is_disabled":false,"rental_uris":{"android":"levelo://app?vid=85fb9c45-4e80-4424-ab66-336c32e17d42","ios":"levelo://app?vid=85fb9c45-4e80-4424-ab66-336c32e17d42"},"vehicle_type_id":"4","last_reported":1703679146,"current_range_meters":17200,"station_id":"ce4bh692rcd13ifvqea0","pricing_plan_id":"free"},{"bike_id":"ba9ff484-22c9-4de9-9832-2d07c68350a3","system_id":"levelo_inurba_marseille","lat":43.292628,"lon":5.384444,"is_reserved":false,"is_disabled":false,"rental_uris":{"android":"levelo://app?vid=ba9ff484-22c9-4de9-9832-2d07c68350a3","ios":"levelo://app?vid=ba9ff484-22c9-4de9-9832-2d07c68350a3"},"vehicle_type_id":"4","last_reported":1703679146,"current_range_meters":7200,"station_id":"ce4bh3p2rcd13ifvqdq0","pricing_plan_id":"free"},{"bike_id":"70e2c831-1479-46a4-8e84-67188b3e809f","system_id":"levelo_inurba_marseille","lat":43.290104,"lon":5.356111,"is_reserved":false,"is_disabled":false,"rental_uris":{"android":"levelo://app?vid=70e2c831-1479-46a4-8e84-67188b3e809f","ios":"levelo://app?vid=70e2c831-1479-46a4-8e84-67188b3e809f"},"vehicle_type_id":"4","last_reported":1703679146,"current_range_meters":30800,"station_id":"ce4bhb92rcd13ifvqen0","pricing_plan_id":"free"},{"bike_id":"fa9c35c5-0685-4be6-bc85-96f1f86d0499","system_id":"levelo_inurba_marseille","lat":43.290103,"lon":5.356114,"is_reserved":false,"is_disabled":false,"rental_uris":{"android":"levelo://app?vid=fa9c35c5-0685-4be6-bc85-96f1f86d0499","ios":"levelo://app?vid=fa9c35c5-0685-4be6-bc85-96f1f86d0499"},"vehicle_type_id":"4","last_reported":1703679146,"current_range_meters":19200,"station_id":"ce4bhb92rcd13ifvqen0","pricing_plan_id":"free"},{"bike_id":"b18f7799-bc04-4cb3-8c55-83e2d16c9b49","system_id":"levelo_inurba_marseille","lat":43.29,"lon":5.35619,"is_reserved":false,"is_disabled":false,"rental_uris":{"android":"levelo://app?vid=b18f7799-bc04-4cb3-8c55-83e2d16c9b49","ios":"levelo://app?vid=b18f7799-bc04-4cb3-8c55-83e2d16c9b49"},"vehicle_type_id":"4","last_reported":1703679146,"current_range_meters":18800,"station_id":"ce4bhb92rcd13ifvqen0","pricing_plan_id":"free"},{"bike_id":"eedd5f20-57c8-4734-8eec-425f7c8625e3","system_id":"levelo_inurba_marseille","lat":43.290995,"lon":5.381361,"is_reserved":false,"is_disabled":false,"rental_uris":{"android":"levelo://app?vid=eedd5f20-57c8-4734-8eec-425f7c8625e3","ios":"levelo://app?vid=eedd5f20-57c8-4734-8eec-425f7c8625e3"},"vehicle_type_id":"4","last_reported":1703679146,"current_range_meters":28000,"station_id":"ce4bh512rcd13ifvqe2g","pricing_plan_id":"free"},{"bike_id":"38625b4d-47d0-4df6-b214-9eb5eae0e53d","system_id":"levelo_inurba_marseille","lat":43.297887,"lon":5.393383,"is_reserved":false,"is_disabled":false,"rental_uris":{"android":"levelo://app?vid=38625b4d-47d0-4df6-b214-9eb5eae0e53d","ios":"levelo://app?vid=38625b4d-47d0-4df6-b214-9eb5eae0e53d"},"vehicle_type_id":"4","last_reported":1703679146,"current_range_meters":20400,"station_id":"chh1huq6cuj3fo74tm60","pricing_plan_id":"free"},{"bike_id":"276c5078-d675-47e0-b191-46dd933c8038","system_id":"levelo_inurba_marseille","lat":43.330442,"lon":5.389148,"is_reserved":false,"is_disabled":false,"rental_uris":{"android":"levelo://app?vid=276c5078-d675-47e0-b191-46dd933c8038","ios":"levelo://app?vid=276c5078-d675-47e0-b191-46dd933c8038"},"vehicle_type_id":"4","last_reported":1703679146,"current_range_meters":27600,"station_id":"ce4bhr92rcd13ifvqhrg","pricing_plan_id":"free"},{"bike_id":"495faf64-a935-4c6e-b77f-2b296d14493a","system_id":"levelo_inurba_marseille","lat":43.331017,"lon":5.389194,"is_reserved":false,"is_disabled":false,"rental_uris":{"android":"levelo://app?vid=495faf64-a935-4c6e-b77f-2b296d14493a","ios":"levelo://app?vid=495faf64-a935-4c6e-b77f-2b296d14493a"},"vehicle_type_id":"4","last_reported":1703679146,"current_range_meters":16800,"station_id":"","pricing_plan_id":"free"},{"bike_id":"1f35156d-0504-4380-9e27-573fecb4657e","system_id":"levelo_inurba_marseille","lat":43.284538,"lon":5.358657,"is_reserved":false,"is_disabled":false,"rental_uris":{"android":"levelo://app?vid=1f35156d-0504-4380-9e27-573fecb4657e","ios":"levelo://app?vid=1f35156d-0504-4380-9e27-573fecb4657e"},"vehicle_type_id":"4","last_reported":1703679146,"current_range_meters":24000,"station_id":"ce4bhah2rcd13ifvqei0","pricing_plan_id":"free"},{"bike_id":"2418cd1b-27db-4860-a50e-00e8583e98e3","system_id":"levelo_inurba_marseille","lat":43.295169,"lon":5.390426,"is_reserved":false,"is_disabled":false,"rental_uris":{"android":"levelo://app?vid=2418cd1b-27db-4860-a50e-00e8583e98e3","ios":"levelo://app?vid=2418cd1b-27db-4860-a50e-00e8583e98e3"},"vehicle_type_id":"4","last_reported":1703679146,"current_range_meters":19600,"station_id":"ce4bh3p2rcd13ifvqdp0","pricing_plan_id":"free"},{"bike_id":"9f75a46c-856c-430c-945a-ee2f32330eb6","system_id":"levelo_inurba_marseille","lat":43.295169,"lon":5.390426,"is_reserved":false,"is_disabled":false,"rental_uris":{"android":"levelo://app?vid=9f75a46c-856c-430c-945a-ee2f32330eb6","ios":"levelo://app?vid=9f75a46c-856c-430c-945a-ee2f32330eb6"},"vehicle_type_id":"4","last_reported":1703679146,"current_range_meters":14400,"station_id":"ce4bh3p2rcd13ifvqdp0","pricing_plan_id":"free"},{"bike_id":"370cccf7-c9ba-46c2-819b-c8e8cacc4c21","system_id":"levelo_inurba_marseille","lat":43.33131,"lon":5.389267,"is_reserved":false,"is_disabled":false,"rental_uris":{"android":"levelo://app?vid=370cccf7-c9ba-46c2-819b-c8e8cacc4c21","ios":"levelo://app?vid=370cccf7-c9ba-46c2-819b-c8e8cacc4c21"},"vehicle_type_id":"4","last_reported":1703679146,"current_range_meters":16000,"station_id":"","pricing_plan_id":"free"},{"bike_id":"2049ee9c-17d1-46a8-bbf5-13a3f9ce9d7c","system_id":"levelo_inurba_marseille","lat":43.29024,"lon":5.38136,"is_reserved":false,"is_disabled":false,"rental_uris":{"android":"levelo://app?vid=2049ee9c-17d1-46a8-bbf5-13a3f9ce9d7c","ios":"levelo://app?vid=2049ee9c-17d1-46a8-bbf5-13a3f9ce9d7c"},"vehicle_type_id":"4","last_reported":1703679146,"current_range_meters":14400,"station_id":"ce4bh4p2rcd13ifvqe1g","pricing_plan_id":"free"},{"bike_id":"fe8cc8aa-41e4-4e06-bf04-a8c847002073","system_id":"levelo_inurba_marseille","lat":43.28856,"lon":5.358371,"is_reserved":false,"is_disabled":false,"rental_uris":{"android":"levelo://app?vid=fe8cc8aa-41e4-4e06-bf04-a8c847002073","ios":"levelo://app?vid=fe8cc8aa-41e4-4e06-bf04-a8c847002073"},"vehicle_type_id":"4","last_reported":1703679146,"current_range_meters":31600,"station_id":"ce4bhb12rcd13ifvqem0","pricing_plan_id":"free"},{"bike_id":"2016b8ff-3ed7-451c-a1cd-e96e03c24a4a","system_id":"levelo_inurba_marseille","lat":43.28856,"lon":5.358371,"is_reserved":false,"is_disabled":false,"rental_uris":{"android":"levelo://app?vid=2016b8ff-3ed7-451c-a1cd-e96e03c24a4a","ios":"levelo://app?vid=2016b8ff-3ed7-451c-a1cd-e96e03c24a4a"},"vehicle_type_id":"4","last_reported":1703679146,"current_range_meters":28000,"station_id":"ce4bhb12rcd13ifvqem0","pricing_plan_id":"free"},{"bike_id":"7a543b19-90cd-4a87-b80d-37f423d89307","system_id":"levelo_inurba_marseille","lat":43.330384,"lon":5.391221,"is_reserved":false,"is_disabled":false,"rental_uris":{"android":"levelo://app?vid=7a543b19-90cd-4a87-b80d-37f423d89307","ios":"levelo://app?vid=7a543b19-90cd-4a87-b80d-37f423d89307"},"vehicle_type_id":"4","last_reported":1703679146,"current_range_meters":4400,"station_id":"","pricing_plan_id":"free"},{"bike_id":"13f982e6-b934-4f43-9b9e-0287ad5464bd","system_id":"levelo_inurba_marseille","lat":43.28856,"lon":5.358371,"is_reserved":false,"is_disabled":false,"rental_uris":{"android":"levelo://app?vid=13f982e6-b934-4f43-9b9e-0287ad5464bd","ios":"levelo://app?vid=13f982e6-b934-4f43-9b9e-0287ad5464bd"},"vehicle_type_id":"4","last_reported":1703679146,"current_range_meters":21200,"station_id":"ce4bhb12rcd13ifvqem0","pricing_plan_id":"free"},{"bike_id":"22a29066-37c3-4e34-8ca0-993675fc60a7","system_id":"levelo_inurba_marseille","lat":43.28856,"lon":5.358371,"is_reserved":false,"is_disabled":false,"rental_uris":{"android":"levelo://app?vid=22a29066-37c3-4e34-8ca0-993675fc60a7","ios":"levelo://app?vid=22a29066-37c3-4e34-8ca0-993675fc60a7"},"vehicle_type_id":"4","last_reported":1703679146,"current_range_meters":20800,"station_id":"ce4bhb12rcd13ifvqem0","pricing_plan_id":"free"},{"bike_id":"b8ad220d-c11d-4378-a8cf-420aaf9df86f","system_id":"levelo_inurba_marseille","lat":43.337379,"lon":5.374553,"is_reserved":false,"is_disabled":false,"rental_uris":{"android":"levelo://app?vid=b8ad220d-c11d-4378-a8cf-420aaf9df86f","ios":"levelo://app?vid=b8ad220d-c11d-4378-a8cf-420aaf9df86f"},"vehicle_type_id":"4","last_reported":1703679146,"current_range_meters":29600,"station_id":"","pricing_plan_id":"free"},{"bike_id":"e80f0ed0-6a4e-405a-8da1-244c0c09f819","system_id":"levelo_inurba_marseille","lat":43.312609,"lon":5.401662,"is_reserved":false,"is_disabled":false,"rental_uris":{"android":"levelo://app?vid=e80f0ed0-6a4e-405a-8da1-244c0c09f819","ios":"levelo://app?vid=e80f0ed0-6a4e-405a-8da1-244c0c09f819"},"vehicle_type_id":"4","last_reported":1703679146,"current_range_meters":19200,"station_id":"ce4bh092rcd13ifvqd30","pricing_plan_id":"free"},{"bike_id":"3de2d39a-8d21-4ad8-8db1-706219f7d669","system_id":"levelo_inurba_marseille","lat":43.31271,"lon":5.40175,"is_reserved":false,"is_disabled":false,"rental_uris":{"android":"levelo://app?vid=3de2d39a-8d21-4ad8-8db1-706219f7d669","ios":"levelo://app?vid=3de2d39a-8d21-4ad8-8db1-706219f7d669"},"vehicle_type_id":"4","last_reported":1703679146,"current_range_meters":7200,"station_id":"ce4bh092rcd13ifvqd30","pricing_plan_id":"free"},{"bike_id":"92e0cb9d-dcf5-48a5-ac6d-455c6f38dbc4","system_id":"levelo_inurba_marseille","lat":43.337543,"lon":5.374476,"is_reserved":false,"is_disabled":false,"rental_uris":{"android":"levelo://app?vid=92e0cb9d-dcf5-48a5-ac6d-455c6f38dbc4","ios":"levelo://app?vid=92e0cb9d-dcf5-48a5-ac6d-455c6f38dbc4"},"vehicle_type_id":"4","last_reported":1703679146,"current_range_meters":27600,"station_id":"","pricing_plan_id":"free"},{"bike_id":"fc15c8d0-e517-4abe-84e5-8b5edbd6104d","system_id":"levelo_inurba_marseille","lat":43.30642,"lon":5.401031,"is_reserved":false,"is_disabled":false,"rental_uris":{"android":"levelo://app?vid=fc15c8d0-e517-4abe-84e5-8b5edbd6104d","ios":"levelo://app?vid=fc15c8d0-e517-4abe-84e5-8b5edbd6104d"},"vehicle_type_id":"4","last_reported":1703679146,"current_range_meters":31600,"station_id":"ce4bh112rcd13ifvqda0","pricing_plan_id":"free"},{"bike_id":"5810a51d-900e-4f21-b011-504985336ccb","system_id":"levelo_inurba_marseille","lat":43.33767,"lon":5.37446,"is_reserved":false,"is_disabled":false,"rental_uris":{"android":"levelo://app?vid=5810a51d-900e-4f21-b011-504985336ccb","ios":"levelo://app?vid=5810a51d-900e-4f21-b011-504985336ccb"},"vehicle_type_id":"4","last_reported":1703679146,"current_range_meters":28800,"station_id":"ce4rr2p2rcd13i802rgg","pricing_plan_id":"free"},{"bike_id":"826abd1d-bc35-4575-9999-e9326c258f87","system_id":"levelo_inurba_marseille","lat":43.30642,"lon":5.401031,"is_reserved":false,"is_disabled":false,"rental_uris":{"android":"levelo://app?vid=826abd1d-bc35-4575-9999-e9326c258f87","ios":"levelo://app?vid=826abd1d-bc35-4575-9999-e9326c258f87"},"vehicle_type_id":"4","last_reported":1703679146,"current_range_meters":9200,"station_id":"ce4bh112rcd13ifvqda0","pricing_plan_id":"free"},{"bike_id":"02b31deb-8d27-47bf-bbf0-4ae52b237d44","system_id":"levelo_inurba_marseille","lat":43.33769,"lon":5.37481,"is_reserved":false,"is_disabled":false,"rental_uris":{"android":"levelo://app?vid=02b31deb-8d27-47bf-bbf0-4ae52b237d44","ios":"levelo://app?vid=02b31deb-8d27-47bf-bbf0-4ae52b237d44"},"vehicle_type_id":"4","last_reported":1703679146,"current_range_meters":12800,"station_id":"","pricing_plan_id":"free"},{"bike_id":"37f393d5-4883-4913-b6d6-0803f69c37ee","system_id":"levelo_inurba_marseille","lat":43.301117,"lon":5.398795,"is_reserved":false,"is_disabled":false,"rental_uris":{"android":"levelo://app?vid=37f393d5-4883-4913-b6d6-0803f69c37ee","ios":"levelo://app?vid=37f393d5-4883-4913-b6d6-0803f69c37ee"},"vehicle_type_id":"4","last_reported":1703679146,"current_range_meters":23600,"station_id":"ce4bh0h2rcd13ifvqd40","pricing_plan_id":"free"},{"bike_id":"aa743935-8558-45a1-aa4e-06dd50e5fa89","system_id":"levelo_inurba_marseille","lat":43.28727,"lon":5.36078,"is_reserved":false,"is_disabled":false,"rental_uris":{"android":"levelo://app?vid=aa743935-8558-45a1-aa4e-06dd50e5fa89","ios":"levelo://app?vid=aa743935-8558-45a1-aa4e-06dd50e5fa89"},"vehicle_type_id":"4","last_reported":1703679146,"current_range_meters":31600,"station_id":"cki0cbj6b192h4jlfktg","pricing_plan_id":"free"},{"bike_id":"395b4c6b-2846-48f8-adf3-a7b6e4defa20","system_id":"levelo_inurba_marseille","lat":43.28727,"lon":5.36078,"is_reserved":false,"is_disabled":false,"rental_uris":{"android":"levelo://app?vid=395b4c6b-2846-48f8-adf3-a7b6e4defa20","ios":"levelo://app?vid=395b4c6b-2846-48f8-adf3-a7b6e4defa20"},"vehicle_type_id":"4","last_reported":1703679146,"current_range_meters":31600,"station_id":"cki0cbj6b192h4jlfktg","pricing_plan_id":"free"},{"bike_id":"c7abd197-060e-4387-a0ee-40a79ce95a21","system_id":"levelo_inurba_marseille","lat":43.286685,"lon":5.36726,"is_reserved":false,"is_disabled":false,"rental_uris":{"android":"levelo://app?vid=c7abd197-060e-4387-a0ee-40a79ce95a21","ios":"levelo://app?vid=c7abd197-060e-4387-a0ee-40a79ce95a21"},"vehicle_type_id":"4","last_reported":1703679146,"current_range_meters":0,"station_id":"ce4bhbh2rcd13ifvqeo0","pricing_plan_id":"free"},{"bike_id":"f83be81c-f1ee-4846-8b42-41d98aa8a175","system_id":"levelo_inurba_marseille","lat":43.286039,"lon":5.370681,"is_reserved":false,"is_disabled":false,"rental_uris":{"android":"levelo://app?vid=f83be81c-f1ee-4846-8b42-41d98aa8a175","ios":"levelo://app?vid=f83be81c-f1ee-4846-8b42-41d98aa8a175"},"vehicle_type_id":"4","last_reported":1703679146,"current_range_meters":6800,"station_id":"ce4bht12rcd13ifvqi60","pricing_plan_id":"free"},{"bike_id":"2b215a12-ce08-48b3-98e3-5f8a5fbc807d","system_id":"levelo_inurba_marseille","lat":43.316821,"lon":5.404737,"is_reserved":false,"is_disabled":false,"rental_uris":{"android":"levelo://app?vid=2b215a12-ce08-48b3-98e3-5f8a5fbc807d","ios":"levelo://app?vid=2b215a12-ce08-48b3-98e3-5f8a5fbc807d"},"vehicle_type_id":"4","last_reported":1703679146,"current_range_meters":21600,"station_id":"ce4bh012rcd13ifvqd00","pricing_plan_id":"free"},{"bike_id":"e2adfa7c-882e-48a1-9ee4-b36e6186ebbf","system_id":"levelo_inurba_marseille","lat":43.330912,"lon":5.396935,"is_reserved":false,"is_disabled":false,"rental_uris":{"android":"levelo://app?vid=e2adfa7c-882e-48a1-9ee4-b36e6186ebbf","ios":"levelo://app?vid=e2adfa7c-882e-48a1-9ee4-b36e6186ebbf"},"vehicle_type_id":"4","last_reported":1703679146,"current_range_meters":0,"station_id":"","pricing_plan_id":"free"},{"bike_id":"9766f81c-915b-4787-994d-ddbcb5bd8c99","system_id":"levelo_inurba_marseille","lat":43.284538,"lon":5.358657,"is_reserved":false,"is_disabled":false,"rental_uris":{"android":"levelo://app?vid=9766f81c-915b-4787-994d-ddbcb5bd8c99","ios":"levelo://app?vid=9766f81c-915b-4787-994d-ddbcb5bd8c99"},"vehicle_type_id":"4","last_reported":1703679146,"current_range_meters":20400,"station_id":"ce4bhah2rcd13ifvqei0","pricing_plan_id":"free"},{"bike_id":"8e42a842-8089-4285-adcd-bb682c3ed19c","system_id":"levelo_inurba_marseille","lat":43.284538,"lon":5.358657,"is_reserved":false,"is_disabled":false,"rental_uris":{"android":"levelo://app?vid=8e42a842-8089-4285-adcd-bb682c3ed19c","ios":"levelo://app?vid=8e42a842-8089-4285-adcd-bb682c3ed19c"},"vehicle_type_id":"4","last_reported":1703679146,"current_range_meters":28800,"station_id":"ce4bhah2rcd13ifvqei0","pricing_plan_id":"free"},{"bike_id":"a3765d9c-3a14-4385-bd57-ab5a4d82120e","system_id":"levelo_inurba_marseille","lat":43.284538,"lon":5.358657,"is_reserved":false,"is_disabled":false,"rental_uris":{"android":"levelo://app?vid=a3765d9c-3a14-4385-bd57-ab5a4d82120e","ios":"levelo://app?vid=a3765d9c-3a14-4385-bd57-ab5a4d82120e"},"vehicle_type_id":"4","last_reported":1703679146,"current_range_meters":21200,"station_id":"ce4bhah2rcd13ifvqei0","pricing_plan_id":"free"},{"bike_id":"e8461375-0f60-40d6-a4f2-f82cbfa959ea","system_id":"levelo_inurba_marseille","lat":43.284587,"lon":5.358914,"is_reserved":false,"is_disabled":false,"rental_uris":{"android":"levelo://app?vid=e8461375-0f60-40d6-a4f2-f82cbfa959ea","ios":"levelo://app?vid=e8461375-0f60-40d6-a4f2-f82cbfa959ea"},"vehicle_type_id":"4","last_reported":1703679146,"current_range_meters":14000,"station_id":"ce4bhah2rcd13ifvqei0","pricing_plan_id":"free"},{"bike_id":"6e2f050e-f189-4eec-9361-bc1a26638747","system_id":"levelo_inurba_marseille","lat":43.284534,"lon":5.358662,"is_reserved":false,"is_disabled":false,"rental_uris":{"android":"levelo://app?vid=6e2f050e-f189-4eec-9361-bc1a26638747","ios":"levelo://app?vid=6e2f050e-f189-4eec-9361-bc1a26638747"},"vehicle_type_id":"4","last_reported":1703679146,"current_range_meters":31600,"station_id":"ce4bhah2rcd13ifvqei0","pricing_plan_id":"free"},{"bike_id":"ec5235d9-7d6f-4082-8172-2e3bfe7b18e3","system_id":"levelo_inurba_marseille","lat":43.284538,"lon":5.358657,"is_reserved":false,"is_disabled":false,"rental_uris":{"android":"levelo://app?vid=ec5235d9-7d6f-4082-8172-2e3bfe7b18e3","ios":"levelo://app?vid=ec5235d9-7d6f-4082-8172-2e3bfe7b18e3"},"vehicle_type_id":"4","last_reported":1703679146,"current_range_meters":30800,"station_id":"ce4bhah2rcd13ifvqei0","pricing_plan_id":"free"},{"bike_id":"42c6fc78-b942-49d1-a3b4-968d10cf8847","system_id":"levelo_inurba_marseille","lat":43.284538,"lon":5.358657,"is_reserved":false,"is_disabled":false,"rental_uris":{"android":"levelo://app?vid=42c6fc78-b942-49d1-a3b4-968d10cf8847","ios":"levelo://app?vid=42c6fc78-b942-49d1-a3b4-968d10cf8847"},"vehicle_type_id":"4","last_reported":1703679146,"current_range_meters":31200,"station_id":"ce4bhah2rcd13ifvqei0","pricing_plan_id":"free"},{"bike_id":"cfcd836b-758d-4dee-87f0-fccba7abc5b9","system_id":"levelo_inurba_marseille","lat":43.284534,"lon":5.358662,"is_reserved":false,"is_disabled":false,"rental_uris":{"android":"levelo://app?vid=cfcd836b-758d-4dee-87f0-fccba7abc5b9","ios":"levelo://app?vid=cfcd836b-758d-4dee-87f0-fccba7abc5b9"},"vehicle_type_id":"4","last_reported":1703679146,"current_range_meters":26000,"station_id":"ce4bhah2rcd13ifvqei0","pricing_plan_id":"free"},{"bike_id":"2c19d3c9-4607-4f7c-a824-53ba2d2ee0b5","system_id":"levelo_inurba_marseille","lat":43.319179,"lon":5.407725,"is_reserved":false,"is_disabled":false,"rental_uris":{"android":"levelo://app?vid=2c19d3c9-4607-4f7c-a824-53ba2d2ee0b5","ios":"levelo://app?vid=2c19d3c9-4607-4f7c-a824-53ba2d2ee0b5"},"vehicle_type_id":"4","last_reported":1703679146,"current_range_meters":28000,"station_id":"ce4bhq12rcd13ifvqhig","pricing_plan_id":"free"},{"bike_id":"769019c4-eb9e-4a31-95b4-3ef192cc753f","system_id":"levelo_inurba_marseille","lat":43.28741,"lon":5.38986,"is_reserved":false,"is_disabled":false,"rental_uris":{"android":"levelo://app?vid=769019c4-eb9e-4a31-95b4-3ef192cc753f","ios":"levelo://app?vid=769019c4-eb9e-4a31-95b4-3ef192cc753f"},"vehicle_type_id":"4","last_reported":1703679146,"current_range_meters":3200,"station_id":"","pricing_plan_id":"free"},{"bike_id":"34552b8f-c7bb-4791-a358-f93b93898df9","system_id":"levelo_inurba_marseille","lat":43.323464,"lon":5.406297,"is_reserved":false,"is_disabled":false,"rental_uris":{"android":"levelo://app?vid=34552b8f-c7bb-4791-a358-f93b93898df9","ios":"levelo://app?vid=34552b8f-c7bb-4791-a358-f93b93898df9"},"vehicle_type_id":"4","last_reported":1703679146,"current_range_meters":31600,"station_id":"ce4bhq92rcd13ifvqhjg","pricing_plan_id":"free"},{"bike_id":"fdbbfd13-a35d-4174-8ff7-eda61486c3fd","system_id":"levelo_inurba_marseille","lat":43.323464,"lon":5.406297,"is_reserved":false,"is_disabled":false,"rental_uris":{"android":"levelo://app?vid=fdbbfd13-a35d-4174-8ff7-eda61486c3fd","ios":"levelo://app?vid=fdbbfd13-a35d-4174-8ff7-eda61486c3fd"},"vehicle_type_id":"4","last_reported":1703679146,"current_range_meters":31600,"station_id":"ce4bhq92rcd13ifvqhjg","pricing_plan_id":"free"},{"bike_id":"cb4aac4a-2fe5-49de-b43d-9a679f709268","system_id":"levelo_inurba_marseille","lat":43.323464,"lon":5.406297,"is_reserved":false,"is_disabled":false,"rental_uris":{"android":"levelo://app?vid=cb4aac4a-2fe5-49de-b43d-9a679f709268","ios":"levelo://app?vid=cb4aac4a-2fe5-49de-b43d-9a679f709268"},"vehicle_type_id":"4","last_reported":1703679146,"current_range_meters":6800,"station_id":"ce4bhq92rcd13ifvqhjg","pricing_plan_id":"free"},{"bike_id":"4fa01bdd-5629-4c59-b63e-c36dfa4d80f6","system_id":"levelo_inurba_marseille","lat":43.323464,"lon":5.406297,"is_reserved":false,"is_disabled":false,"rental_uris":{"android":"levelo://app?vid=4fa01bdd-5629-4c59-b63e-c36dfa4d80f6","ios":"levelo://app?vid=4fa01bdd-5629-4c59-b63e-c36dfa4d80f6"},"vehicle_type_id":"4","last_reported":1703679146,"current_range_meters":30400,"station_id":"ce4bhq92rcd13ifvqhjg","pricing_plan_id":"free"},{"bike_id":"70fc5a2a-0321-4e12-b500-67a3fdd07cf0","system_id":"levelo_inurba_marseille","lat":43.323464,"lon":5.406297,"is_reserved":false,"is_disabled":false,"rental_uris":{"android":"levelo://app?vid=70fc5a2a-0321-4e12-b500-67a3fdd07cf0","ios":"levelo://app?vid=70fc5a2a-0321-4e12-b500-67a3fdd07cf0"},"vehicle_type_id":"4","last_reported":1703679146,"current_range_meters":17600,"station_id":"ce4bhq92rcd13ifvqhjg","pricing_plan_id":"free"},{"bike_id":"e485450b-2736-4f4c-b94b-0da5a69b88aa","system_id":"levelo_inurba_marseille","lat":43.33385,"lon":5.39822,"is_reserved":false,"is_disabled":false,"rental_uris":{"android":"levelo://app?vid=e485450b-2736-4f4c-b94b-0da5a69b88aa","ios":"levelo://app?vid=e485450b-2736-4f4c-b94b-0da5a69b88aa"},"vehicle_type_id":"4","last_reported":1703679146,"current_range_meters":18800,"station_id":"","pricing_plan_id":"free"},{"bike_id":"d60802d6-4f47-444a-b234-883690eec05b","system_id":"levelo_inurba_marseille","lat":43.33409,"lon":5.39792,"is_reserved":false,"is_disabled":false,"rental_uris":{"android":"levelo://app?vid=d60802d6-4f47-444a-b234-883690eec05b","ios":"levelo://app?vid=d60802d6-4f47-444a-b234-883690eec05b"},"vehicle_type_id":"4","last_reported":1703679146,"current_range_meters":31200,"station_id":"","pricing_plan_id":"free"},{"bike_id":"7c3b8000-f195-455e-89c3-1f841de4709d","system_id":"levelo_inurba_marseille","lat":43.284219,"lon":5.3497,"is_reserved":false,"is_disabled":false,"rental_uris":{"android":"levelo://app?vid=7c3b8000-f195-455e-89c3-1f841de4709d","ios":"levelo://app?vid=7c3b8000-f195-455e-89c3-1f841de4709d"},"vehicle_type_id":"4","last_reported":1703679146,"current_range_meters":10400,"station_id":"ce4bhbh2rcd13ifvqepg","pricing_plan_id":"free"},{"bike_id":"3f7d4fa4-2b1c-4f92-bab8-cd28eadc4f99","system_id":"levelo_inurba_marseille","lat":43.284219,"lon":5.3497,"is_reserved":false,"is_disabled":false,"rental_uris":{"android":"levelo://app?vid=3f7d4fa4-2b1c-4f92-bab8-cd28eadc4f99","ios":"levelo://app?vid=3f7d4fa4-2b1c-4f92-bab8-cd28eadc4f99"},"vehicle_type_id":"4","last_reported":1703679146,"current_range_meters":3200,"station_id":"ce4bhbh2rcd13ifvqepg","pricing_plan_id":"free"},{"bike_id":"b656be9b-a244-4c51-8a52-54c1000fd10f","system_id":"levelo_inurba_marseille","lat":43.283498,"lon":5.380948,"is_reserved":false,"is_disabled":false,"rental_uris":{"android":"levelo://app?vid=b656be9b-a244-4c51-8a52-54c1000fd10f","ios":"levelo://app?vid=b656be9b-a244-4c51-8a52-54c1000fd10f"},"vehicle_type_id":"4","last_reported":1703679146,"current_range_meters":12800,"station_id":"ce4bh412rcd13ifvqdr0","pricing_plan_id":"free"},{"bike_id":"b0e1f36c-64ef-4fe2-891a-fc0ece042da8","system_id":"levelo_inurba_marseille","lat":43.284219,"lon":5.3497,"is_reserved":false,"is_disabled":false,"rental_uris":{"android":"levelo://app?vid=b0e1f36c-64ef-4fe2-891a-fc0ece042da8","ios":"levelo://app?vid=b0e1f36c-64ef-4fe2-891a-fc0ece042da8"},"vehicle_type_id":"4","last_reported":1703679146,"current_range_meters":10800,"station_id":"ce4bhbh2rcd13ifvqepg","pricing_plan_id":"free"},{"bike_id":"868b925f-3b74-4f5c-a417-1d51d9f20888","system_id":"levelo_inurba_marseille","lat":43.284217,"lon":5.349697,"is_reserved":false,"is_disabled":false,"rental_uris":{"android":"levelo://app?vid=868b925f-3b74-4f5c-a417-1d51d9f20888","ios":"levelo://app?vid=868b925f-3b74-4f5c-a417-1d51d9f20888"},"vehicle_type_id":"4","last_reported":1703679146,"current_range_meters":17200,"station_id":"ce4bhbh2rcd13ifvqepg","pricing_plan_id":"free"},{"bike_id":"67731b66-5f16-4218-aa2d-c0f2541c356e","system_id":"levelo_inurba_marseille","lat":43.284217,"lon":5.349697,"is_reserved":false,"is_disabled":false,"rental_uris":{"android":"levelo://app?vid=67731b66-5f16-4218-aa2d-c0f2541c356e","ios":"levelo://app?vid=67731b66-5f16-4218-aa2d-c0f2541c356e"},"vehicle_type_id":"4","last_reported":1703679146,"current_range_meters":13600,"station_id":"ce4bhbh2rcd13ifvqepg","pricing_plan_id":"free"},{"bike_id":"41879d29-7ec6-4ac3-bccb-b3b33c5addaa","system_id":"levelo_inurba_marseille","lat":43.292724,"lon":5.401131,"is_reserved":false,"is_disabled":false,"rental_uris":{"android":"levelo://app?vid=41879d29-7ec6-4ac3-bccb-b3b33c5addaa","ios":"levelo://app?vid=41879d29-7ec6-4ac3-bccb-b3b33c5addaa"},"vehicle_type_id":"4","last_reported":1703679146,"current_range_meters":29600,"station_id":"ce4bh312rcd13ifvqdk0","pricing_plan_id":"free"},{"bike_id":"1336a0c8-fe1a-4259-bb6e-bca7ca3a6fee","system_id":"levelo_inurba_marseille","lat":43.283502,"lon":5.386471,"is_reserved":false,"is_disabled":false,"rental_uris":{"android":"levelo://app?vid=1336a0c8-fe1a-4259-bb6e-bca7ca3a6fee","ios":"levelo://app?vid=1336a0c8-fe1a-4259-bb6e-bca7ca3a6fee"},"vehicle_type_id":"4","last_reported":1703679146,"current_range_meters":28800,"station_id":"ce4bh492rcd13ifvqdvg","pricing_plan_id":"free"},{"bike_id":"e0c17d40-7f47-4199-9c6d-c439dc999645","system_id":"levelo_inurba_marseille","lat":43.280382,"lon":5.369291,"is_reserved":false,"is_disabled":false,"rental_uris":{"android":"levelo://app?vid=e0c17d40-7f47-4199-9c6d-c439dc999645","ios":"levelo://app?vid=e0c17d40-7f47-4199-9c6d-c439dc999645"},"vehicle_type_id":"4","last_reported":1703679146,"current_range_meters":22000,"station_id":"ce4bha12rcd13ifvqef0","pricing_plan_id":"free"},{"bike_id":"24e2c243-d810-4cb0-bf16-4757ab160c8b","system_id":"levelo_inurba_marseille","lat":43.280331,"lon":5.369499,"is_reserved":false,"is_disabled":false,"rental_uris":{"android":"levelo://app?vid=24e2c243-d810-4cb0-bf16-4757ab160c8b","ios":"levelo://app?vid=24e2c243-d810-4cb0-bf16-4757ab160c8b"},"vehicle_type_id":"4","last_reported":1703679146,"current_range_meters":31200,"station_id":"ce4bha12rcd13ifvqef0","pricing_plan_id":"free"},{"bike_id":"4e70ae68-e551-4eb5-9702-90a67b5bce50","system_id":"levelo_inurba_marseille","lat":43.296263,"lon":5.40601,"is_reserved":false,"is_disabled":false,"rental_uris":{"android":"levelo://app?vid=4e70ae68-e551-4eb5-9702-90a67b5bce50","ios":"levelo://app?vid=4e70ae68-e551-4eb5-9702-90a67b5bce50"},"vehicle_type_id":"4","last_reported":1703679146,"current_range_meters":29600,"station_id":"ce4bh0h2rcd13ifvqd60","pricing_plan_id":"free"},{"bike_id":"61664b73-34a4-42d0-ad72-4de632914dfa","system_id":"levelo_inurba_marseille","lat":43.284462,"lon":5.392121,"is_reserved":false,"is_disabled":false,"rental_uris":{"android":"levelo://app?vid=61664b73-34a4-42d0-ad72-4de632914dfa","ios":"levelo://app?vid=61664b73-34a4-42d0-ad72-4de632914dfa"},"vehicle_type_id":"4","last_reported":1703679146,"current_range_meters":25200,"station_id":"ce4bhoh2rcd13ifvqh5g","pricing_plan_id":"free"},{"bike_id":"c1c0a5a5-ee88-4e7f-8342-e4ef1b8b65fb","system_id":"levelo_inurba_marseille","lat":43.28573,"lon":5.394992,"is_reserved":false,"is_disabled":false,"rental_uris":{"android":"levelo://app?vid=c1c0a5a5-ee88-4e7f-8342-e4ef1b8b65fb","ios":"levelo://app?vid=c1c0a5a5-ee88-4e7f-8342-e4ef1b8b65fb"},"vehicle_type_id":"4","last_reported":1703679146,"current_range_meters":29600,"station_id":"ce4bh292rcd13ifvqdg0","pricing_plan_id":"free"},{"bike_id":"7d0079b4-ef39-4cb7-848f-20b3ea99e607","system_id":"levelo_inurba_marseille","lat":43.304188,"lon":5.412904,"is_reserved":false,"is_disabled":false,"rental_uris":{"android":"levelo://app?vid=7d0079b4-ef39-4cb7-848f-20b3ea99e607","ios":"levelo://app?vid=7d0079b4-ef39-4cb7-848f-20b3ea99e607"},"vehicle_type_id":"4","last_reported":1703679146,"current_range_meters":29200,"station_id":"ce4bhop2rcd13ifvqh8g","pricing_plan_id":"free"},{"bike_id":"c9d73eed-5888-4e39-be0e-da9a3b48d0b3","system_id":"levelo_inurba_marseille","lat":43.283633,"lon":5.392028,"is_reserved":false,"is_disabled":false,"rental_uris":{"android":"levelo://app?vid=c9d73eed-5888-4e39-be0e-da9a3b48d0b3","ios":"levelo://app?vid=c9d73eed-5888-4e39-be0e-da9a3b48d0b3"},"vehicle_type_id":"4","last_reported":1703679146,"current_range_meters":23200,"station_id":"","pricing_plan_id":"free"},{"bike_id":"1e70e276-d5ca-43cb-9b38-debd95a2458f","system_id":"levelo_inurba_marseille","lat":43.304188,"lon":5.412904,"is_reserved":false,"is_disabled":false,"rental_uris":{"android":"levelo://app?vid=1e70e276-d5ca-43cb-9b38-debd95a2458f","ios":"levelo://app?vid=1e70e276-d5ca-43cb-9b38-debd95a2458f"},"vehicle_type_id":"4","last_reported":1703679146,"current_range_meters":25200,"station_id":"ce4bhop2rcd13ifvqh8g","pricing_plan_id":"free"},{"bike_id":"382817f5-305b-4a2e-9b98-6727492e26f7","system_id":"levelo_inurba_marseille","lat":43.304188,"lon":5.412904,"is_reserved":false,"is_disabled":false,"rental_uris":{"android":"levelo://app?vid=382817f5-305b-4a2e-9b98-6727492e26f7","ios":"levelo://app?vid=382817f5-305b-4a2e-9b98-6727492e26f7"},"vehicle_type_id":"4","last_reported":1703679146,"current_range_meters":15600,"station_id":"ce4bhop2rcd13ifvqh8g","pricing_plan_id":"free"},{"bike_id":"67faecc4-9a22-4583-bdb1-f4c053f949fd","system_id":"levelo_inurba_marseille","lat":43.304188,"lon":5.412904,"is_reserved":false,"is_disabled":false,"rental_uris":{"android":"levelo://app?vid=67faecc4-9a22-4583-bdb1-f4c053f949fd","ios":"levelo://app?vid=67faecc4-9a22-4583-bdb1-f4c053f949fd"},"vehicle_type_id":"4","last_reported":1703679146,"current_range_meters":28400,"station_id":"ce4bhop2rcd13ifvqh8g","pricing_plan_id":"free"},{"bike_id":"4d9079b9-2d8c-4812-ae20-a4ba2dbde18d","system_id":"levelo_inurba_marseille","lat":43.326605,"lon":5.409903,"is_reserved":false,"is_disabled":false,"rental_uris":{"android":"levelo://app?vid=4d9079b9-2d8c-4812-ae20-a4ba2dbde18d","ios":"levelo://app?vid=4d9079b9-2d8c-4812-ae20-a4ba2dbde18d"},"vehicle_type_id":"4","last_reported":1703679146,"current_range_meters":24400,"station_id":"ce4bhpp2rcd13ifvqhgg","pricing_plan_id":"free"},{"bike_id":"a4a5ccde-62af-4c28-95c1-d68b50703509","system_id":"levelo_inurba_marseille","lat":43.32672,"lon":5.41035,"is_reserved":false,"is_disabled":false,"rental_uris":{"android":"levelo://app?vid=a4a5ccde-62af-4c28-95c1-d68b50703509","ios":"levelo://app?vid=a4a5ccde-62af-4c28-95c1-d68b50703509"},"vehicle_type_id":"4","last_reported":1703679146,"current_range_meters":27200,"station_id":"ce4bhpp2rcd13ifvqhgg","pricing_plan_id":"free"},{"bike_id":"b5b69104-6aec-4c7b-af23-1c6fe1e73660","system_id":"levelo_inurba_marseille","lat":43.292569,"lon":5.409107,"is_reserved":false,"is_disabled":false,"rental_uris":{"android":"levelo://app?vid=b5b69104-6aec-4c7b-af23-1c6fe1e73660","ios":"levelo://app?vid=b5b69104-6aec-4c7b-af23-1c6fe1e73660"},"vehicle_type_id":"4","last_reported":1703679146,"current_range_meters":30400,"station_id":"ce4bh192rcd13ifvqdc0","pricing_plan_id":"free"},{"bike_id":"217b8b71-622d-4a79-8e31-7d674a18683a","system_id":"levelo_inurba_marseille","lat":43.29254,"lon":5.409123,"is_reserved":false,"is_disabled":false,"rental_uris":{"android":"levelo://app?vid=217b8b71-622d-4a79-8e31-7d674a18683a","ios":"levelo://app?vid=217b8b71-622d-4a79-8e31-7d674a18683a"},"vehicle_type_id":"4","last_reported":1703679146,"current_range_meters":8800,"station_id":"ce4bh192rcd13ifvqdc0","pricing_plan_id":"free"},{"bike_id":"e0218d20-9552-4779-a19f-f85e36cf46c5","system_id":"levelo_inurba_marseille","lat":43.280784,"lon":5.396622,"is_reserved":false,"is_disabled":false,"rental_uris":{"android":"levelo://app?vid=e0218d20-9552-4779-a19f-f85e36cf46c5","ios":"levelo://app?vid=e0218d20-9552-4779-a19f-f85e36cf46c5"},"vehicle_type_id":"4","last_reported":1703679146,"current_range_meters":16000,"station_id":"ce4bho12rcd13ifvqh2g","pricing_plan_id":"free"},{"bike_id":"336ff731-6412-41d4-8e71-f00519b2011f","system_id":"levelo_inurba_marseille","lat":43.280784,"lon":5.396622,"is_reserved":false,"is_disabled":false,"rental_uris":{"android":"levelo://app?vid=336ff731-6412-41d4-8e71-f00519b2011f","ios":"levelo://app?vid=336ff731-6412-41d4-8e71-f00519b2011f"},"vehicle_type_id":"4","last_reported":1703679146,"current_range_meters":20400,"station_id":"ce4bho12rcd13ifvqh2g","pricing_plan_id":"free"},{"bike_id":"04b05ee7-7ca4-4ee5-a7f9-08328d2bad4a","system_id":"levelo_inurba_marseille","lat":43.303837,"lon":5.418724,"is_reserved":false,"is_disabled":false,"rental_uris":{"android":"levelo://app?vid=04b05ee7-7ca4-4ee5-a7f9-08328d2bad4a","ios":"levelo://app?vid=04b05ee7-7ca4-4ee5-a7f9-08328d2bad4a"},"vehicle_type_id":"4","last_reported":1703679146,"current_range_meters":30000,"station_id":"ce4bhop2rcd13ifvqh7g","pricing_plan_id":"free"},{"bike_id":"540d184b-98af-48e8-8a62-dcee3f1fd80e","system_id":"levelo_inurba_marseille","lat":43.278401,"lon":5.392152,"is_reserved":false,"is_disabled":false,"rental_uris":{"android":"levelo://app?vid=540d184b-98af-48e8-8a62-dcee3f1fd80e","ios":"levelo://app?vid=540d184b-98af-48e8-8a62-dcee3f1fd80e"},"vehicle_type_id":"4","last_reported":1703679146,"current_range_meters":12400,"station_id":"ce4bhjp2rcd13ifvqga0","pricing_plan_id":"free"},{"bike_id":"f4ef48f5-0601-456e-8177-bd9ee85e538d","system_id":"levelo_inurba_marseille","lat":43.2738,"lon":5.36259,"is_reserved":false,"is_disabled":false,"rental_uris":{"android":"levelo://app?vid=f4ef48f5-0601-456e-8177-bd9ee85e538d","ios":"levelo://app?vid=f4ef48f5-0601-456e-8177-bd9ee85e538d"},"vehicle_type_id":"4","last_reported":1703679146,"current_range_meters":20800,"station_id":"ce4bhbh2rcd13ifvqeo0","pricing_plan_id":"free"},{"bike_id":"4836c4ae-a253-4006-beb2-5f35bf09e36d","system_id":"levelo_inurba_marseille","lat":43.273613,"lon":5.362705,"is_reserved":false,"is_disabled":false,"rental_uris":{"android":"levelo://app?vid=4836c4ae-a253-4006-beb2-5f35bf09e36d","ios":"levelo://app?vid=4836c4ae-a253-4006-beb2-5f35bf09e36d"},"vehicle_type_id":"4","last_reported":1703679146,"current_range_meters":17200,"station_id":"ce4bhbh2rcd13ifvqeo0","pricing_plan_id":"free"},{"bike_id":"1d6eb9f9-ec26-4ef1-b6c2-90d9500b565e","system_id":"levelo_inurba_marseille","lat":43.273613,"lon":5.362705,"is_reserved":false,"is_disabled":false,"rental_uris":{"android":"levelo://app?vid=1d6eb9f9-ec26-4ef1-b6c2-90d9500b565e","ios":"levelo://app?vid=1d6eb9f9-ec26-4ef1-b6c2-90d9500b565e"},