{"last_updated":1689109598,"ttl":30,"version":"2.2","data":{"bikes":[{"bike_id":"b1214470-3da6-4b54-8cde-4f5cd636477e","system_id":"levelo_inurba_marseille","lat":43.313391,"lon":5.36706,"is_reserved":false,"is_disabled":false,"rental_uris":{"android":"levelo://app?vid=b1214470-3da6-4b54-8cde-4f5cd636477e","ios":"levelo://app?vid=b1214470-3da6-4b54-8cde-4f5cd636477e"},"vehicle_type_id":"4","last_reported":1689109598,"current_range_meters":18800,"station_id":"ce4bgr92rcd13ifvqc6g","pricing_plan_id":"free"},{"bike_id":"113f113c-be8b-43bc-b9aa-fc6c7797c506","system_id":"levelo_inurba_marseille","lat":43.312239,"lon":5.368562,"is_reserved":false,"is_disabled":false,"rental_uris":{"android":"levelo://app?vid=113f113c-be8b-43bc-b9aa-fc6c7797c506","ios":"levelo://app?vid=113f113c-be8b-43bc-b9aa-fc6c7797c506"},"vehicle_type_id":"4","last_reported":1689109598,"current_range_meters":15600,"station_id":"ce4bgl92rcd13ifvqbq0","pricing_plan_id":"free"},{"bike_id":"b2f26df7-b783-41c4-a2a6-a61274785247","system_id":"levelo_inurba_marseille","lat":43.3126,"lon":5.36873,"is_reserved":false,"is_disabled":false,"rental_uris":{"android":"levelo://app?vid=b2f26df7-b783-41c4-a2a6-a61274785247","ios":"levelo://app?vid=b2f26df7-b783-41c4-a2a6-a61274785247"},"vehicle_type_id":"4","last_reported":1689109598,"current_range_meters":25600,"station_id":"ce4bgl92rcd13ifvqbq0","pricing_plan_id":"free"},{"bike_id":"a0963139-6a35-45a1-8102-cc0866a14bfc","system_id":"levelo_inurba_marseille","lat":43.309076,"lon":5.368465,"is_reserved":false,"is_disabled":false,"rental_uris":{"android":"levelo://app?vid=a0963139-6a35-45a1-8102-cc0866a14bfc","ios":"levelo://app?vid=a0963139-6a35-45a1-8102-cc0866a14bfc"},"vehicle_type_id":"4","last_reported":1689109598,"current_range_meters":27600,"station_id":"ce4bgn92rcd13ifvqbvg","pricing_plan_id":"free"},{"bike_id":"8aba9601-21e2-4fb6-8db1-6eeb24d177e7","system_id":"levelo_inurba_marseille","lat":43.314811,"lon":5.373103,"is_reserved":false,"is_disabled":false,"rental_uris":{"android":"levelo://app?vid=8aba9601-21e2-4fb6-8db1-6eeb24d177e7","ios":"levelo://app?vid=8aba9601-21e2-4fb6-8db1-6eeb24d177e7"},"vehicle_type_id":"4","last_reported":1689109598,"current_range_meters":26400,"station_id":"ce4bgt12rcd13ifvqcd0","pricing_plan_id":"free"},{"bike_id":"6b37550f-6bbc-40eb-bbcf-81d8bdd0b371","system_id":"levelo_inurba_marseille","lat":43.314811,"lon":5.373103,"is_reserved":false,"is_disabled":false,"rental_uris":{"android":"levelo://app?vid=6b37550f-6bbc-40eb-bbcf-81d8bdd0b371","ios":"levelo://app?vid=6b37550f-6bbc-40eb-bbcf-81d8bdd0b371"},"vehicle_type_id":"4","last_reported":1689109598,"current_range_meters":8000,"station_id":"ce4bgt12rcd13ifvqcd0","pricing_plan_id":"free"},{"bike_id":"dfa1387b-ba8f-472c-9c8d-da1783e86029","system_id":"levelo_inurba_marseille","lat":43.314811,"lon":5.373104,"is_reserved":false,"is_disabled":false,"rental_uris":{"android":"levelo://app?vid=dfa1387b-ba8f-472c-9c8d-da1783e86029","ios":"levelo://app?vid=dfa1387b-ba8f-472c-9c8d-da1783e86029"},"vehicle_type_id":"4","last_reported":1689109598,"current_range_meters":22800,"station_id":"ce4bgt12rcd13ifvqcd0","pricing_plan_id":"free"},{"bike_id":"fac45d28-28fc-4bbb-9a1e-c707f38cadc3","system_id":"levelo_inurba_marseille","lat":43.314811,"lon":5.373104,"is_reserved":false,"is_disabled":false,"rental_uris":{"android":"levelo://app?vid=fac45d28-28fc-4bbb-9a1e-c707f38cadc3","ios":"levelo://app?vid=fac45d28-28fc-4bbb-9a1e-c707f38cadc3"},"vehicle_type_id":"4","last_reported":1689109598,"current_range_meters":20400,"station_id":"ce4bgt12rcd13ifvqcd0","pricing_plan_id":"free"},{"bike_id":"fa05da48-86d0-4ace-90e2-c8b6114abba6","system_id":"levelo_inurba_marseille","lat":43.309039,"lon":5.371797,"is_reserved":false,"is_disabled":false,"rental_uris":{"android":"levelo://app?vid=fa05da48-86d0-4ace-90e2-c8b6114abba6","ios":"levelo://app?vid=fa05da48-86d0-4ace-90e2-c8b6114abba6"},"vehicle_type_id":"4","last_reported":1689109598,"current_range_meters":4000,"station_id":"ce4bguh2rcd13ifvqckg","pricing_plan_id":"free"},{"bike_id":"b0f75cb4-0e74-478f-a2de-d774f3a844b0","system_id":"levelo_inurba_marseille","lat":43.309039,"lon":5.371797,"is_reserved":false,"is_disabled":false,"rental_uris":{"android":"levelo://app?vid=b0f75cb4-0e74-478f-a2de-d774f3a844b0","ios":"levelo://app?vid=b0f75cb4-0e74-478f-a2de-d774f3a844b0"},"vehicle_type_id":"4","last_reported":1689109598,"current_range_meters":400,"station_id":"ce4bguh2rcd13ifvqckg","pricing_plan_id":"free"},{"bike_id":"38df26a7-c216-447d-97d0-0a5dfba2e471","system_id":"levelo_inurba_marseille","lat":43.305368,"lon":5.367343,"is_reserved":false,"is_disabled":false,"rental_uris":{"android":"levelo://app?vid=38df26a7-c216-447d-97d0-0a5dfba2e471","ios":"levelo://app?vid=38df26a7-c216-447d-97d0-0a5dfba2e471"},"vehicle_type_id":"4","last_reported":1689109598,"current_range_meters":24800,"station_id":"ce4bgrp2rcd13ifvqc9g","pricing_plan_id":"free"},{"bike_id":"ba9d5835-db6e-4eec-8e59-77aaaeaebc91","system_id":"levelo_inurba_marseille","lat":43.30545,"lon":5.36523,"is_reserved":false,"is_disabled":false,"rental_uris":{"android":"levelo://app?vid=ba9d5835-db6e-4eec-8e59-77aaaeaebc91","ios":"levelo://app?vid=ba9d5835-db6e-4eec-8e59-77aaaeaebc91"},"vehicle_type_id":"4","last_reported":1689109598,"current_range_meters":2400,"station_id":"","pricing_plan_id":"free"},{"bike_id":"8f7e643a-6f4f-49b7-b714-1bb822b3005a","system_id":"levelo_inurba_marseille","lat":43.30541,"lon":5.36535,"is_reserved":false,"is_disabled":false,"rental_uris":{"android":"levelo://app?vid=8f7e643a-6f4f-49b7-b714-1bb822b3005a","ios":"levelo://app?vid=8f7e643a-6f4f-49b7-b714-1bb822b3005a"},"vehicle_type_id":"4","last_reported":1689109598,"current_range_meters":23600,"station_id":"ce4bgs12rcd13ifvqcag","pricing_plan_id":"free"},{"bike_id":"85ff5f57-99fb-4875-b783-ba0d73ae72b3","system_id":"levelo_inurba_marseille","lat":43.305989,"lon":5.37225,"is_reserved":false,"is_disabled":false,"rental_uris":{"android":"levelo://app?vid=85ff5f57-99fb-4875-b783-ba0d73ae72b3","ios":"levelo://app?vid=85ff5f57-99fb-4875-b783-ba0d73ae72b3"},"vehicle_type_id":"4","last_reported":1689109598,"current_range_meters":22800,"station_id":"ce4bgqh2rcd13ifvqc4g","pricing_plan_id":"free"},{"bike_id":"a8e9cae7-2ef5-4bbf-9d04-8850b6aaa478","system_id":"levelo_inurba_marseille","lat":43.305989,"lon":5.37225,"is_reserved":false,"is_disabled":false,"rental_uris":{"android":"levelo://app?vid=a8e9cae7-2ef5-4bbf-9d04-8850b6aaa478","ios":"levelo://app?vid=a8e9cae7-2ef5-4bbf-9d04-8850b6aaa478"},"vehicle_type_id":"4","last_reported":1689109598,"current_range_meters":14800,"station_id":"ce4bgqh2rcd13ifvqc4g","pricing_plan_id":"free"},{"bike_id":"87e02847-b6c7-4835-b57d-a1d4a4c85d19","system_id":"levelo_inurba_marseille","lat":43.305989,"lon":5.37225,"is_reserved":false,"is_disabled":false,"rental_uris":{"android":"levelo://app?vid=87e02847-b6c7-4835-b57d-a1d4a4c85d19","ios":"levelo://app?vid=87e02847-b6c7-4835-b57d-a1d4a4c85d19"},"vehicle_type_id":"4","last_reported":1689109598,"current_range_meters":6000,"station_id":"ce4bgqh2rcd13ifvqc4g","pricing_plan_id":"free"},{"bike_id":"5e927300-a108-4065-b28c-38de1e6a87d4","system_id":"levelo_inurba_marseille","lat":43.305989,"lon":5.37225,"is_reserved":false,"is_disabled":false,"rental_uris":{"android":"levelo://app?vid=5e927300-a108-4065-b28c-38de1e6a87d4","ios":"levelo://app?vid=5e927300-a108-4065-b28c-38de1e6a87d4"},"vehicle_type_id":"4","last_reported":1689109598,"current_range_meters":16000,"station_id":"ce4bgqh2rcd13ifvqc4g","pricing_plan_id":"free"},{"bike_id":"67f6fab6-4ab2-4c2c-ac68-81b67bc494ca","system_id":"levelo_inurba_marseille","lat":43.305989,"lon":5.37225,"is_reserved":false,"is_disabled":false,"rental_uris":{"android":"levelo://app?vid=67f6fab6-4ab2-4c2c-ac68-81b67bc494ca","ios":"levelo://app?vid=67f6fab6-4ab2-4c2c-ac68-81b67bc494ca"},"vehicle_type_id":"4","last_reported":1689109598,"current_range_meters":11200,"station_id":"ce4bgqh2rcd13ifvqc4g","pricing_plan_id":"free"},{"bike_id":"4017a5e7-8de9-4548-9859-3658bb9b426c","system_id":"levelo_inurba_marseille","lat":43.305989,"lon":5.37225,"is_reserved":false,"is_disabled":false,"rental_uris":{"android":"levelo://app?vid=4017a5e7-8de9-4548-9859-3658bb9b426c","ios":"levelo://app?vid=4017a5e7-8de9-4548-9859-3658bb9b426c"},"vehicle_type_id":"4","last_reported":1689109598,"current_range_meters":24000,"station_id":"ce4bgqh2rcd13ifvqc4g","pricing_plan_id":"free"},{"bike_id":"8fc5755f-2cd5-4cc9-9696-ab20aefb3246","system_id":"levelo_inurba_marseille","lat":43.305989,"lon":5.37225,"is_reserved":false,"is_disabled":false,"rental_uris":{"android":"levelo://app?vid=8fc5755f-2cd5-4cc9-9696-ab20aefb3246","ios":"levelo://app?vid=8fc5755f-2cd5-4cc9-9696-ab20aefb3246"},"vehicle_type_id":"4","last_reported":1689109598,"current_range_meters":24400,"station_id":"ce4bgqh2rcd13ifvqc4g","pricing_plan_id":"free"},{"bike_id":"7402acde-c767-4d79-92e9-fc39fb2966ee","system_id":"levelo_inurba_marseille","lat":43.305989,"lon":5.37225,"is_reserved":false,"is_disabled":false,"rental_uris":{"android":"levelo://app?vid=7402acde-c767-4d79-92e9-fc39fb2966ee","ios":"levelo://app?vid=7402acde-c767-4d79-92e9-fc39fb2966ee"},"vehicle_type_id":"4","last_reported":1689109598,"current_range_meters":29600,"station_id":"ce4bgqh2rcd13ifvqc4g","pricing_plan_id":"free"},{"bike_id":"336fc6ea-ef55-4d69-a662-7ab3e1b2b598","system_id":"levelo_inurba_marseille","lat":43.311125,"lon":5.377624,"is_reserved":false,"is_disabled":false,"rental_uris":{"android":"levelo://app?vid=336fc6ea-ef55-4d69-a662-7ab3e1b2b598","ios":"levelo://app?vid=336fc6ea-ef55-4d69-a662-7ab3e1b2b598"},"vehicle_type_id":"4","last_reported":1689109598,"current_range_meters":7600,"station_id":"ce4bgt92rcd13ifvqcg0","pricing_plan_id":"free"},{"bike_id":"ce34c903-8e91-491b-8bfe-584473801e66","system_id":"levelo_inurba_marseille","lat":43.317075,"lon":5.377367,"is_reserved":false,"is_disabled":false,"rental_uris":{"android":"levelo://app?vid=ce34c903-8e91-491b-8bfe-584473801e66","ios":"levelo://app?vid=ce34c903-8e91-491b-8bfe-584473801e66"},"vehicle_type_id":"4","last_reported":1689109598,"current_range_meters":4000,"station_id":"ce4bgth2rcd13ifvqch0","pricing_plan_id":"free"},{"bike_id":"598c7083-abea-4778-90a4-c36f5d5edc17","system_id":"levelo_inurba_marseille","lat":43.317075,"lon":5.377367,"is_reserved":false,"is_disabled":false,"rental_uris":{"android":"levelo://app?vid=598c7083-abea-4778-90a4-c36f5d5edc17","ios":"levelo://app?vid=598c7083-abea-4778-90a4-c36f5d5edc17"},"vehicle_type_id":"4","last_reported":1689109598,"current_range_meters":18400,"station_id":"ce4bgth2rcd13ifvqch0","pricing_plan_id":"free"},{"bike_id":"6fa23e0d-fedd-409f-b3e1-5e666618e6cb","system_id":"levelo_inurba_marseille","lat":43.303046,"lon":5.368981,"is_reserved":false,"is_disabled":false,"rental_uris":{"android":"levelo://app?vid=6fa23e0d-fedd-409f-b3e1-5e666618e6cb","ios":"levelo://app?vid=6fa23e0d-fedd-409f-b3e1-5e666618e6cb"},"vehicle_type_id":"4","last_reported":1689109598,"current_range_meters":15200,"station_id":"ce4bgqh2rcd13ifvqc5g","pricing_plan_id":"free"},{"bike_id":"5383fe00-b4f8-42c7-8265-85b19014e09d","system_id":"levelo_inurba_marseille","lat":43.303046,"lon":5.368981,"is_reserved":false,"is_disabled":false,"rental_uris":{"android":"levelo://app?vid=5383fe00-b4f8-42c7-8265-85b19014e09d","ios":"levelo://app?vid=5383fe00-b4f8-42c7-8265-85b19014e09d"},"vehicle_type_id":"4","last_reported":1689109598,"current_range_meters":21600,"station_id":"ce4bgqh2rcd13ifvqc5g","pricing_plan_id":"free"},{"bike_id":"66a8f376-6bec-4856-b23b-48043b354c66","system_id":"levelo_inurba_marseille","lat":43.303046,"lon":5.368981,"is_reserved":false,"is_disabled":false,"rental_uris":{"android":"levelo://app?vid=66a8f376-6bec-4856-b23b-48043b354c66","ios":"levelo://app?vid=66a8f376-6bec-4856-b23b-48043b354c66"},"vehicle_type_id":"4","last_reported":1689109598,"current_range_meters":19200,"station_id":"ce4bgqh2rcd13ifvqc5g","pricing_plan_id":"free"},{"bike_id":"1a2e10de-7f31-4bc4-8099-5f3ff33a0633","system_id":"levelo_inurba_marseille","lat":43.31539,"lon":5.38025,"is_reserved":false,"is_disabled":false,"rental_uris":{"android":"levelo://app?vid=1a2e10de-7f31-4bc4-8099-5f3ff33a0633","ios":"levelo://app?vid=1a2e10de-7f31-4bc4-8099-5f3ff33a0633"},"vehicle_type_id":"4","last_reported":1689109598,"current_range_meters":6400,"station_id":"ce4bhsp2rcd13ifvqi50","pricing_plan_id":"free"},{"bike_id":"f3343058-b746-4899-a1e1-e409d00a259d","system_id":"levelo_inurba_marseille","lat":43.315293,"lon":5.380349,"is_reserved":false,"is_disabled":false,"rental_uris":{"android":"levelo://app?vid=f3343058-b746-4899-a1e1-e409d00a259d","ios":"levelo://app?vid=f3343058-b746-4899-a1e1-e409d00a259d"},"vehicle_type_id":"4","last_reported":1689109598,"current_range_meters":19600,"station_id":"ce4bhsp2rcd13ifvqi50","pricing_plan_id":"free"},{"bike_id":"4ea5eff1-914d-4c0a-8f97-16098655b658","system_id":"levelo_inurba_marseille","lat":43.315293,"lon":5.380349,"is_reserved":false,"is_disabled":false,"rental_uris":{"android":"levelo://app?vid=4ea5eff1-914d-4c0a-8f97-16098655b658","ios":"levelo://app?vid=4ea5eff1-914d-4c0a-8f97-16098655b658"},"vehicle_type_id":"4","last_reported":1689109598,"current_range_meters":15200,"station_id":"ce4bhsp2rcd13ifvqi50","pricing_plan_id":"free"},{"bike_id":"b34060d4-4505-48ce-b7b6-2e56eba06aa6","system_id":"levelo_inurba_marseille","lat":43.315293,"lon":5.380349,"is_reserved":false,"is_disabled":false,"rental_uris":{"android":"levelo://app?vid=b34060d4-4505-48ce-b7b6-2e56eba06aa6","ios":"levelo://app?vid=b34060d4-4505-48ce-b7b6-2e56eba06aa6"},"vehicle_type_id":"4","last_reported":1689109598,"current_range_meters":24000,"station_id":"ce4bhsp2rcd13ifvqi50","pricing_plan_id":"free"},{"bike_id":"44354a85-2bb4-4f9d-b259-1b108e151ddf","system_id":"levelo_inurba_marseille","lat":43.31542,"lon":5.3803,"is_reserved":false,"is_disabled":false,"rental_uris":{"android":"levelo://app?vid=44354a85-2bb4-4f9d-b259-1b108e151ddf","ios":"levelo://app?vid=44354a85-2bb4-4f9d-b259-1b108e151ddf"},"vehicle_type_id":"4","last_reported":1689109598,"current_range_meters":0,"station_id":"ce4bhsp2rcd13ifvqi50","pricing_plan_id":"free"},{"bike_id":"e873c620-e79e-41f2-bd5a-d71b831eacef","system_id":"levelo_inurba_marseille","lat":43.315277,"lon":5.380372,"is_reserved":false,"is_disabled":false,"rental_uris":{"android":"levelo://app?vid=e873c620-e79e-41f2-bd5a-d71b831eacef","ios":"levelo://app?vid=e873c620-e79e-41f2-bd5a-d71b831eacef"},"vehicle_type_id":"4","last_reported":1689109598,"current_range_meters":15600,"station_id":"","pricing_plan_id":"free"},{"bike_id":"a1e96ad9-efe7-45cd-8a3b-581ace1469c9","system_id":"levelo_inurba_marseille","lat":43.31553,"lon":5.38051,"is_reserved":false,"is_disabled":false,"rental_uris":{"android":"levelo://app?vid=a1e96ad9-efe7-45cd-8a3b-581ace1469c9","ios":"levelo://app?vid=a1e96ad9-efe7-45cd-8a3b-581ace1469c9"},"vehicle_type_id":"4","last_reported":1689109598,"current_range_meters":2400,"station_id":"ce4bhsp2rcd13ifvqi50","pricing_plan_id":"free"},{"bike_id":"c794df5e-31de-4011-a4d1-e769f9a6d559","system_id":"levelo_inurba_marseille","lat":43.301939,"lon":5.366286,"is_reserved":false,"is_disabled":false,"rental_uris":{"android":"levelo://app?vid=c794df5e-31de-4011-a4d1-e769f9a6d559","ios":"levelo://app?vid=c794df5e-31de-4011-a4d1-e769f9a6d559"},"vehicle_type_id":"4","last_reported":1689109598,"current_range_meters":24400,"station_id":"ce4bgrh2rcd13ifvqc8g","pricing_plan_id":"free"},{"bike_id":"03381a52-8b42-4f43-8799-2410a4f3ac4d","system_id":"levelo_inurba_marseille","lat":43.301939,"lon":5.366286,"is_reserved":false,"is_disabled":false,"rental_uris":{"android":"levelo://app?vid=03381a52-8b42-4f43-8799-2410a4f3ac4d","ios":"levelo://app?vid=03381a52-8b42-4f43-8799-2410a4f3ac4d"},"vehicle_type_id":"4","last_reported":1689109598,"current_range_meters":6400,"station_id":"ce4bgrh2rcd13ifvqc8g","pricing_plan_id":"free"},{"bike_id":"de29f6d2-a418-4e0c-b495-50a24fdcd41f","system_id":"levelo_inurba_marseille","lat":43.301939,"lon":5.366286,"is_reserved":false,"is_disabled":false,"rental_uris":{"android":"levelo://app?vid=de29f6d2-a418-4e0c-b495-50a24fdcd41f","ios":"levelo://app?vid=de29f6d2-a418-4e0c-b495-50a24fdcd41f"},"vehicle_type_id":"4","last_reported":1689109598,"current_range_meters":23200,"station_id":"ce4bgrh2rcd13ifvqc8g","pricing_plan_id":"free"},{"bike_id":"40808a37-5e28-42fa-acda-95169036e5e0","system_id":"levelo_inurba_marseille","lat":43.301939,"lon":5.366286,"is_reserved":false,"is_disabled":false,"rental_uris":{"android":"levelo://app?vid=40808a37-5e28-42fa-acda-95169036e5e0","ios":"levelo://app?vid=40808a37-5e28-42fa-acda-95169036e5e0"},"vehicle_type_id":"4","last_reported":1689109598,"current_range_meters":0,"station_id":"ce4bgrh2rcd13ifvqc8g","pricing_plan_id":"free"},{"bike_id":"dee5e94b-7c96-40f1-9397-ae41ca0a8b0d","system_id":"levelo_inurba_marseille","lat":43.301939,"lon":5.366286,"is_reserved":false,"is_disabled":false,"rental_uris":{"android":"levelo://app?vid=dee5e94b-7c96-40f1-9397-ae41ca0a8b0d","ios":"levelo://app?vid=dee5e94b-7c96-40f1-9397-ae41ca0a8b0d"},"vehicle_type_id":"4","last_reported":1689109598,"current_range_meters":23200,"station_id":"ce4bgrh2rcd13ifvqc8g","pricing_plan_id":"free"},{"bike_id":"ea024392-eda5-41bf-a391-79dd53fe1568","system_id":"levelo_inurba_marseille","lat":43.301939,"lon":5.366286,"is_reserved":false,"is_disabled":false,"rental_uris":{"android":"levelo://app?vid=ea024392-eda5-41bf-a391-79dd53fe1568","ios":"levelo://app?vid=ea024392-eda5-41bf-a391-79dd53fe1568"},"vehicle_type_id":"4","last_reported":1689109598,"current_range_meters":24000,"station_id":"ce4bgrh2rcd13ifvqc8g","pricing_plan_id":"free"},{"bike_id":"2757b98a-4683-4d70-9871-2cb485732898","system_id":"levelo_inurba_marseille","lat":43.308012,"lon":5.381511,"is_reserved":false,"is_disabled":false,"rental_uris":{"android":"levelo://app?vid=2757b98a-4683-4d70-9871-2cb485732898","ios":"levelo://app?vid=2757b98a-4683-4d70-9871-2cb485732898"},"vehicle_type_id":"4","last_reported":1689109598,"current_range_meters":26800,"station_id":"ce4bgt12rcd13ifvqce0","pricing_plan_id":"free"},{"bike_id":"a4c6839f-1f0b-490d-82cb-1ce61b83682e","system_id":"levelo_inurba_marseille","lat":43.308012,"lon":5.381511,"is_reserved":false,"is_disabled":false,"rental_uris":{"android":"levelo://app?vid=a4c6839f-1f0b-490d-82cb-1ce61b83682e","ios":"levelo://app?vid=a4c6839f-1f0b-490d-82cb-1ce61b83682e"},"vehicle_type_id":"4","last_reported":1689109598,"current_range_meters":5200,"station_id":"ce4bgt12rcd13ifvqce0","pricing_plan_id":"free"},{"bike_id":"342c5011-0779-48c0-9c4e-a0f493d969c3","system_id":"levelo_inurba_marseille","lat":43.308012,"lon":5.381511,"is_reserved":false,"is_disabled":false,"rental_uris":{"android":"levelo://app?vid=342c5011-0779-48c0-9c4e-a0f493d969c3","ios":"levelo://app?vid=342c5011-0779-48c0-9c4e-a0f493d969c3"},"vehicle_type_id":"4","last_reported":1689109598,"current_range_meters":12000,"station_id":"ce4bgt12rcd13ifvqce0","pricing_plan_id":"free"},{"bike_id":"c1029bca-9004-4560-bed4-b14ad531be6a","system_id":"levelo_inurba_marseille","lat":43.302784,"lon":5.377158,"is_reserved":false,"is_disabled":false,"rental_uris":{"android":"levelo://app?vid=c1029bca-9004-4560-bed4-b14ad531be6a","ios":"levelo://app?vid=c1029bca-9004-4560-bed4-b14ad531be6a"},"vehicle_type_id":"4","last_reported":1689109598,"current_range_meters":29600,"station_id":"ce4bguh2rcd13ifvqcj0","pricing_plan_id":"free"},{"bike_id":"5771a911-b1af-4911-921d-b4a90a780b45","system_id":"levelo_inurba_marseille","lat":43.302784,"lon":5.377158,"is_reserved":false,"is_disabled":false,"rental_uris":{"android":"levelo://app?vid=5771a911-b1af-4911-921d-b4a90a780b45","ios":"levelo://app?vid=5771a911-b1af-4911-921d-b4a90a780b45"},"vehicle_type_id":"4","last_reported":1689109598,"current_range_meters":27600,"station_id":"ce4bguh2rcd13ifvqcj0","pricing_plan_id":"free"},{"bike_id":"80e823e6-0424-4c5f-82c5-b696057d1c90","system_id":"levelo_inurba_marseille","lat":43.30148,"lon":5.37423,"is_reserved":false,"is_disabled":false,"rental_uris":{"android":"levelo://app?vid=80e823e6-0424-4c5f-82c5-b696057d1c90","ios":"levelo://app?vid=80e823e6-0424-4c5f-82c5-b696057d1c90"},"vehicle_type_id":"4","last_reported":1689109598,"current_range_meters":14000,"station_id":"ce4bgs92rcd13ifvqcc0","pricing_plan_id":"free"},{"bike_id":"4960b54e-fec2-4738-b704-f08b50c0cd41","system_id":"levelo_inurba_marseille","lat":43.319935,"lon":5.381699,"is_reserved":false,"is_disabled":false,"rental_uris":{"android":"levelo://app?vid=4960b54e-fec2-4738-b704-f08b50c0cd41","ios":"levelo://app?vid=4960b54e-fec2-4738-b704-f08b50c0cd41"},"vehicle_type_id":"4","last_reported":1689109598,"current_range_meters":14000,"station_id":"ce4bhr12rcd13ifvqhpg","pricing_plan_id":"free"},{"bike_id":"20da19a1-51f4-4f7f-b13e-c936c2633e29","system_id":"levelo_inurba_marseille","lat":43.31995,"lon":5.38142,"is_reserved":false,"is_disabled":false,"rental_uris":{"android":"levelo://app?vid=20da19a1-51f4-4f7f-b13e-c936c2633e29","ios":"levelo://app?vid=20da19a1-51f4-4f7f-b13e-c936c2633e29"},"vehicle_type_id":"4","last_reported":1689109598,"current_range_meters":8400,"station_id":"ce4bhr12rcd13ifvqhpg","pricing_plan_id":"free"},{"bike_id":"bb9249b0-2e94-411b-924f-7dea24d43fa1","system_id":"levelo_inurba_marseille","lat":43.319935,"lon":5.381699,"is_reserved":false,"is_disabled":false,"rental_uris":{"android":"levelo://app?vid=bb9249b0-2e94-411b-924f-7dea24d43fa1","ios":"levelo://app?vid=bb9249b0-2e94-411b-924f-7dea24d43fa1"},"vehicle_type_id":"4","last_reported":1689109598,"current_range_meters":21200,"station_id":"ce4bhr12rcd13ifvqhpg","pricing_plan_id":"free"},{"bike_id":"c799b661-15e1-44d3-94b7-3b1dd858c869","system_id":"levelo_inurba_marseille","lat":43.319935,"lon":5.381699,"is_reserved":false,"is_disabled":false,"rental_uris":{"android":"levelo://app?vid=c799b661-15e1-44d3-94b7-3b1dd858c869","ios":"levelo://app?vid=c799b661-15e1-44d3-94b7-3b1dd858c869"},"vehicle_type_id":"4","last_reported":1689109598,"current_range_meters":18000,"station_id":"ce4bhr12rcd13ifvqhpg","pricing_plan_id":"free"},{"bike_id":"55998a11-4423-4004-9936-dc1ed0fc8271","system_id":"levelo_inurba_marseille","lat":43.319935,"lon":5.381699,"is_reserved":false,"is_disabled":false,"rental_uris":{"android":"levelo://app?vid=55998a11-4423-4004-9936-dc1ed0fc8271","ios":"levelo://app?vid=55998a11-4423-4004-9936-dc1ed0fc8271"},"vehicle_type_id":"4","last_reported":1689109598,"current_range_meters":25200,"station_id":"ce4bhr12rcd13ifvqhpg","pricing_plan_id":"free"},{"bike_id":"f61916fb-50af-4551-8893-5b9ccc500fb2","system_id":"levelo_inurba_marseille","lat":43.319935,"lon":5.381699,"is_reserved":false,"is_disabled":false,"rental_uris":{"android":"levelo://app?vid=f61916fb-50af-4551-8893-5b9ccc500fb2","ios":"levelo://app?vid=f61916fb-50af-4551-8893-5b9ccc500fb2"},"vehicle_type_id":"4","last_reported":1689109598,"current_range_meters":30400,"station_id":"ce4bhr12rcd13ifvqhpg","pricing_plan_id":"free"},{"bike_id":"2e336d56-af33-4c68-b50d-2de2fe01a10f","system_id":"levelo_inurba_marseille","lat":43.319935,"lon":5.381699,"is_reserved":false,"is_disabled":false,"rental_uris":{"android":"levelo://app?vid=2e336d56-af33-4c68-b50d-2de2fe01a10f","ios":"levelo://app?vid=2e336d56-af33-4c68-b50d-2de2fe01a10f"},"vehicle_type_id":"4","last_reported":1689109598,"current_range_meters":24800,"station_id":"ce4bhr12rcd13ifvqhpg","pricing_plan_id":"free"},{"bike_id":"593dd702-df39-4fb8-a370-781321b1b16d","system_id":"levelo_inurba_marseille","lat":43.319935,"lon":5.381699,"is_reserved":false,"is_disabled":false,"rental_uris":{"android":"levelo://app?vid=593dd702-df39-4fb8-a370-781321b1b16d","ios":"levelo://app?vid=593dd702-df39-4fb8-a370-781321b1b16d"},"vehicle_type_id":"4","last_reported":1689109598,"current_range_meters":24400,"station_id":"ce4bhr12rcd13ifvqhpg","pricing_plan_id":"free"},{"bike_id":"14c34846-37e4-4770-be76-9393ad06b814","system_id":"levelo_inurba_marseille","lat":43.319935,"lon":5.381699,"is_reserved":false,"is_disabled":false,"rental_uris":{"android":"levelo://app?vid=14c34846-37e4-4770-be76-9393ad06b814","ios":"levelo://app?vid=14c34846-37e4-4770-be76-9393ad06b814"},"vehicle_type_id":"4","last_reported":1689109598,"current_range_meters":24800,"station_id":"ce4bhr12rcd13ifvqhpg","pricing_plan_id":"free"},{"bike_id":"7bf3f968-df70-4a20-8fa3-b3af2a4e3dc3","system_id":"levelo_inurba_marseille","lat":43.319935,"lon":5.381699,"is_reserved":false,"is_disabled":false,"rental_uris":{"android":"levelo://app?vid=7bf3f968-df70-4a20-8fa3-b3af2a4e3dc3","ios":"levelo://app?vid=7bf3f968-df70-4a20-8fa3-b3af2a4e3dc3"},"vehicle_type_id":"4","last_reported":1689109598,"current_range_meters":24400,"station_id":"ce4bhr12rcd13ifvqhpg","pricing_plan_id":"free"},{"bike_id":"e00e3cc5-f997-485c-8b56-e530a479a988","system_id":"levelo_inurba_marseille","lat":43.319935,"lon":5.381699,"is_reserved":false,"is_disabled":false,"rental_uris":{"android":"levelo://app?vid=e00e3cc5-f997-485c-8b56-e530a479a988","ios":"levelo://app?vid=e00e3cc5-f997-485c-8b56-e530a479a988"},"vehicle_type_id":"4","last_reported":1689109598,"current_range_meters":23200,"station_id":"ce4bhr12rcd13ifvqhpg","pricing_plan_id":"free"},{"bike_id":"54a23450-26ac-4cfe-a525-ac7f4da9d86e","system_id":"levelo_inurba_marseille","lat":43.319935,"lon":5.381699,"is_reserved":false,"is_disabled":false,"rental_uris":{"android":"levelo://app?vid=54a23450-26ac-4cfe-a525-ac7f4da9d86e","ios":"levelo://app?vid=54a23450-26ac-4cfe-a525-ac7f4da9d86e"},"vehicle_type_id":"4","last_reported":1689109598,"current_range_meters":19200,"station_id":"ce4bhr12rcd13ifvqhpg","pricing_plan_id":"free"},{"bike_id":"eace4928-f2c5-48b5-a254-6946e66fd3e9","system_id":"levelo_inurba_marseille","lat":43.319935,"lon":5.381699,"is_reserved":false,"is_disabled":false,"rental_uris":{"android":"levelo://app?vid=eace4928-f2c5-48b5-a254-6946e66fd3e9","ios":"levelo://app?vid=eace4928-f2c5-48b5-a254-6946e66fd3e9"},"vehicle_type_id":"4","last_reported":1689109598,"current_range_meters":7600,"station_id":"ce4bhr12rcd13ifvqhpg","pricing_plan_id":"free"},{"bike_id":"a19f7485-91af-428f-88f9-b30a7b58e371","system_id":"levelo_inurba_marseille","lat":43.313571,"lon":5.384829,"is_reserved":false,"is_disabled":false,"rental_uris":{"android":"levelo://app?vid=a19f7485-91af-428f-88f9-b30a7b58e371","ios":"levelo://app?vid=a19f7485-91af-428f-88f9-b30a7b58e371"},"vehicle_type_id":"4","last_reported":1689109598,"current_range_meters":15200,"station_id":"ce4bgt92rcd13ifvqcf0","pricing_plan_id":"free"},{"bike_id":"a50a1e95-b1f1-4ff4-a7c9-6b4e1487d635","system_id":"levelo_inurba_marseille","lat":43.299222,"lon":5.365554,"is_reserved":false,"is_disabled":false,"rental_uris":{"android":"levelo://app?vid=a50a1e95-b1f1-4ff4-a7c9-6b4e1487d635","ios":"levelo://app?vid=a50a1e95-b1f1-4ff4-a7c9-6b4e1487d635"},"vehicle_type_id":"4","last_reported":1689109598,"current_range_meters":12800,"station_id":"ce4bgm92rcd13ifvqbr0","pricing_plan_id":"free"},{"bike_id":"c7658932-7b18-49d1-bd2b-b6706fdf2aab","system_id":"levelo_inurba_marseille","lat":43.299222,"lon":5.365554,"is_reserved":false,"is_disabled":false,"rental_uris":{"android":"levelo://app?vid=c7658932-7b18-49d1-bd2b-b6706fdf2aab","ios":"levelo://app?vid=c7658932-7b18-49d1-bd2b-b6706fdf2aab"},"vehicle_type_id":"4","last_reported":1689109598,"current_range_meters":14800,"station_id":"ce4bgm92rcd13ifvqbr0","pricing_plan_id":"free"},{"bike_id":"572a7805-c23e-4f10-a6e5-240a46cd2d99","system_id":"levelo_inurba_marseille","lat":43.299222,"lon":5.365554,"is_reserved":false,"is_disabled":false,"rental_uris":{"android":"levelo://app?vid=572a7805-c23e-4f10-a6e5-240a46cd2d99","ios":"levelo://app?vid=572a7805-c23e-4f10-a6e5-240a46cd2d99"},"vehicle_type_id":"4","last_reported":1689109598,"current_range_meters":28400,"station_id":"ce4bgm92rcd13ifvqbr0","pricing_plan_id":"free"},{"bike_id":"28adfe04-f21c-454d-9159-c6d70db5c890","system_id":"levelo_inurba_marseille","lat":43.299222,"lon":5.365554,"is_reserved":false,"is_disabled":false,"rental_uris":{"android":"levelo://app?vid=28adfe04-f21c-454d-9159-c6d70db5c890","ios":"levelo://app?vid=28adfe04-f21c-454d-9159-c6d70db5c890"},"vehicle_type_id":"4","last_reported":1689109598,"current_range_meters":24000,"station_id":"ce4bgm92rcd13ifvqbr0","pricing_plan_id":"free"},{"bike_id":"ed9a52cb-a4b3-41b5-8e8f-f1d658c7cb8d","system_id":"levelo_inurba_marseille","lat":43.30241,"lon":5.37966,"is_reserved":false,"is_disabled":false,"rental_uris":{"android":"levelo://app?vid=ed9a52cb-a4b3-41b5-8e8f-f1d658c7cb8d","ios":"levelo://app?vid=ed9a52cb-a4b3-41b5-8e8f-f1d658c7cb8d"},"vehicle_type_id":"4","last_reported":1689109598,"current_range_meters":19200,"station_id":"","pricing_plan_id":"free"},{"bike_id":"dcaae471-f213-4bf5-ad81-b0e9e455f552","system_id":"levelo_inurba_marseille","lat":43.309039,"lon":5.371797,"is_reserved":false,"is_disabled":false,"rental_uris":{"android":"levelo://app?vid=dcaae471-f213-4bf5-ad81-b0e9e455f552","ios":"levelo://app?vid=dcaae471-f213-4bf5-ad81-b0e9e455f552"},"vehicle_type_id":"4","last_reported":1689109598,"current_range_meters":28800,"station_id":"ce4bguh2rcd13ifvqckg","pricing_plan_id":"free"},{"bike_id":"22f05059-5e0b-4d42-8c51-d5ec9db3b792","system_id":"levelo_inurba_marseille","lat":43.299243,"lon":5.374807,"is_reserved":false,"is_disabled":false,"rental_uris":{"android":"levelo://app?vid=22f05059-5e0b-4d42-8c51-d5ec9db3b792","ios":"levelo://app?vid=22f05059-5e0b-4d42-8c51-d5ec9db3b792"},"vehicle_type_id":"4","last_reported":1689109598,"current_range_meters":23600,"station_id":"ce4bgjh2rcd13ifvqbg0","pricing_plan_id":"free"},{"bike_id":"057ede1f-247c-450e-bc18-51deb2f9c061","system_id":"levelo_inurba_marseille","lat":43.30254,"lon":5.38154,"is_reserved":false,"is_disabled":false,"rental_uris":{"android":"levelo://app?vid=057ede1f-247c-450e-bc18-51deb2f9c061","ios":"levelo://app?vid=057ede1f-247c-450e-bc18-51deb2f9c061"},"vehicle_type_id":"4","last_reported":1689109598,"current_range_meters":10000,"station_id":"","pricing_plan_id":"free"},{"bike_id":"40ae1359-3003-47e4-bd84-07b470040d56","system_id":"levelo_inurba_marseille","lat":43.299243,"lon":5.374807,"is_reserved":false,"is_disabled":false,"rental_uris":{"android":"levelo://app?vid=40ae1359-3003-47e4-bd84-07b470040d56","ios":"levelo://app?vid=40ae1359-3003-47e4-bd84-07b470040d56"},"vehicle_type_id":"4","last_reported":1689109598,"current_range_meters":18800,"station_id":"ce4bgjh2rcd13ifvqbg0","pricing_plan_id":"free"},{"bike_id":"e96c7530-7e7e-455a-aa56-da8060aff38b","system_id":"levelo_inurba_marseille","lat":43.299243,"lon":5.374807,"is_reserved":false,"is_disabled":false,"rental_uris":{"android":"levelo://app?vid=e96c7530-7e7e-455a-aa56-da8060aff38b","ios":"levelo://app?vid=e96c7530-7e7e-455a-aa56-da8060aff38b"},"vehicle_type_id":"4","last_reported":1689109598,"current_range_meters":25200,"station_id":"ce4bgjh2rcd13ifvqbg0","pricing_plan_id":"free"},{"bike_id":"3ebd437d-9892-45ce-88b6-a055b3f9a607","system_id":"levelo_inurba_marseille","lat":43.29789,"lon":5.37096,"is_reserved":false,"is_disabled":false,"rental_uris":{"android":"levelo://app?vid=3ebd437d-9892-45ce-88b6-a055b3f9a607","ios":"levelo://app?vid=3ebd437d-9892-45ce-88b6-a055b3f9a607"},"vehicle_type_id":"4","last_reported":1689109598,"current_range_meters":30400,"station_id":"ce4bgop2rcd13ifvqc1g","pricing_plan_id":"free"},{"bike_id":"3dc84dfd-a57a-4e9f-82cf-e7733b516571","system_id":"levelo_inurba_marseille","lat":43.297774,"lon":5.370875,"is_reserved":false,"is_disabled":false,"rental_uris":{"android":"levelo://app?vid=3dc84dfd-a57a-4e9f-82cf-e7733b516571","ios":"levelo://app?vid=3dc84dfd-a57a-4e9f-82cf-e7733b516571"},"vehicle_type_id":"4","last_reported":1689109598,"current_range_meters":26000,"station_id":"ce4bgop2rcd13ifvqc1g","pricing_plan_id":"free"},{"bike_id":"b83fafed-0f8c-414c-ae58-83086118ef50","system_id":"levelo_inurba_marseille","lat":43.29786,"lon":5.37096,"is_reserved":false,"is_disabled":false,"rental_uris":{"android":"levelo://app?vid=b83fafed-0f8c-414c-ae58-83086118ef50","ios":"levelo://app?vid=b83fafed-0f8c-414c-ae58-83086118ef50"},"vehicle_type_id":"4","last_reported":1689109598,"current_range_meters":0,"station_id":"ce4bgop2rcd13ifvqc1g","pricing_plan_id":"free"},{"bike_id":"9879ac14-a4c2-441d-8931-df89fe6ecd38","system_id":"levelo_inurba_marseille","lat":43.29781,"lon":5.3709,"is_reserved":false,"is_disabled":false,"rental_uris":{"android":"levelo://app?vid=9879ac14-a4c2-441d-8931-df89fe6ecd38","ios":"levelo://app?vid=9879ac14-a4c2-441d-8931-df89fe6ecd38"},"vehicle_type_id":"4","last_reported":1689109598,"current_range_meters":26000,"station_id":"ce4bgop2rcd13ifvqc1g","pricing_plan_id":"free"},{"bike_id":"07d209ff-47b1-4e6f-8280-cf1ef248b30a","system_id":"levelo_inurba_marseille","lat":43.29781,"lon":5.37093,"is_reserved":false,"is_disabled":false,"rental_uris":{"android":"levelo://app?vid=07d209ff-47b1-4e6f-8280-cf1ef248b30a","ios":"levelo://app?vid=07d209ff-47b1-4e6f-8280-cf1ef248b30a"},"vehicle_type_id":"4","last_reported":1689109598,"current_range_meters":31200,"station_id":"ce4bgop2rcd13ifvqc1g","pricing_plan_id":"free"},{"bike_id":"f7a14acd-c9ab-4a6b-b5c2-053aafc36b72","system_id":"levelo_inurba_marseille","lat":43.297774,"lon":5.370875,"is_reserved":false,"is_disabled":false,"rental_uris":{"android":"levelo://app?vid=f7a14acd-c9ab-4a6b-b5c2-053aafc36b72","ios":"levelo://app?vid=f7a14acd-c9ab-4a6b-b5c2-053aafc36b72"},"vehicle_type_id":"4","last_reported":1689109598,"current_range_meters":31200,"station_id":"ce4bgop2rcd13ifvqc1g","pricing_plan_id":"free"},{"bike_id":"35b68868-1277-4654-99f3-e3830defa965","system_id":"levelo_inurba_marseille","lat":43.297774,"lon":5.370875,"is_reserved":false,"is_disabled":false,"rental_uris":{"android":"levelo://app?vid=35b68868-1277-4654-99f3-e3830defa965","ios":"levelo://app?vid=35b68868-1277-4654-99f3-e3830defa965"},"vehicle_type_id":"4","last_reported":1689109598,"current_range_meters":24800,"station_id":"ce4bgop2rcd13ifvqc1g","pricing_plan_id":"free"},{"bike_id":"fe60ac76-0b1b-4d4f-b715-ae8878e61f90","system_id":"levelo_inurba_marseille","lat":43.328371,"lon":5.366909,"is_reserved":false,"is_disabled":false,"rental_uris":{"android":"levelo://app?vid=fe60ac76-0b1b-4d4f-b715-ae8878e61f90","ios":"levelo://app?vid=fe60ac76-0b1b-4d4f-b715-ae8878e61f90"},"vehicle_type_id":"4","last_reported":1689109598,"current_range_meters":5600,"station_id":"ce4bhs92rcd13ifvqi0g","pricing_plan_id":"free"},{"bike_id":"dd3846f3-ff6b-4b88-92a4-1d7ff732aedf","system_id":"levelo_inurba_marseille","lat":43.328371,"lon":5.366909,"is_reserved":false,"is_disabled":false,"rental_uris":{"android":"levelo://app?vid=dd3846f3-ff6b-4b88-92a4-1d7ff732aedf","ios":"levelo://app?vid=dd3846f3-ff6b-4b88-92a4-1d7ff732aedf"},"vehicle_type_id":"4","last_reported":1689109598,"current_range_meters":19200,"station_id":"ce4bhs92rcd13ifvqi0g","pricing_plan_id":"free"},{"bike_id":"82c0663d-b10b-41e9-a3f9-9ee62ea8c128","system_id":"levelo_inurba_marseille","lat":43.328371,"lon":5.366909,"is_reserved":false,"is_disabled":false,"rental_uris":{"android":"levelo://app?vid=82c0663d-b10b-41e9-a3f9-9ee62ea8c128","ios":"levelo://app?vid=82c0663d-b10b-41e9-a3f9-9ee62ea8c128"},"vehicle_type_id":"4","last_reported":1689109598,"current_range_meters":19200,"station_id":"ce4bhs92rcd13ifvqi0g","pricing_plan_id":"free"},{"bike_id":"74407244-ba39-462d-88fc-a473c2c49845","system_id":"levelo_inurba_marseille","lat":43.328371,"lon":5.366909,"is_reserved":false,"is_disabled":false,"rental_uris":{"android":"levelo://app?vid=74407244-ba39-462d-88fc-a473c2c49845","ios":"levelo://app?vid=74407244-ba39-462d-88fc-a473c2c49845"},"vehicle_type_id":"4","last_reported":1689109598,"current_range_meters":20400,"station_id":"ce4bhs92rcd13ifvqi0g","pricing_plan_id":"free"},{"bike_id":"9ab6acd3-36c0-40d7-a8cb-2e2f800b400f","system_id":"levelo_inurba_marseille","lat":43.328371,"lon":5.366909,"is_reserved":false,"is_disabled":false,"rental_uris":{"android":"levelo://app?vid=9ab6acd3-36c0-40d7-a8cb-2e2f800b400f","ios":"levelo://app?vid=9ab6acd3-36c0-40d7-a8cb-2e2f800b400f"},"vehicle_type_id":"4","last_reported":1689109598,"current_range_meters":5600,"station_id":"ce4bhs92rcd13ifvqi0g","pricing_plan_id":"free"},{"bike_id":"7cc51e05-826e-4bad-9cfe-c17287decf29","system_id":"levelo_inurba_marseille","lat":43.29721,"lon":5.36618,"is_reserved":false,"is_disabled":false,"rental_uris":{"android":"levelo://app?vid=7cc51e05-826e-4bad-9cfe-c17287decf29","ios":"levelo://app?vid=7cc51e05-826e-4bad-9cfe-c17287decf29"},"vehicle_type_id":"4","last_reported":1689109598,"current_range_meters":18800,"station_id":"ce4bgn12rcd13ifvqbt0","pricing_plan_id":"free"},{"bike_id":"a54240bd-886a-40d8-b179-983d41370a19","system_id":"levelo_inurba_marseille","lat":43.32828,"lon":5.3668,"is_reserved":false,"is_disabled":false,"rental_uris":{"android":"levelo://app?vid=a54240bd-886a-40d8-b179-983d41370a19","ios":"levelo://app?vid=a54240bd-886a-40d8-b179-983d41370a19"},"vehicle_type_id":"4","last_reported":1689109598,"current_range_meters":4400,"station_id":"ce4bhs92rcd13ifvqi0g","pricing_plan_id":"free"},{"bike_id":"ac0ab414-c38e-4625-b276-0d829fe79721","system_id":"levelo_inurba_marseille","lat":43.328371,"lon":5.366909,"is_reserved":false,"is_disabled":false,"rental_uris":{"android":"levelo://app?vid=ac0ab414-c38e-4625-b276-0d829fe79721","ios":"levelo://app?vid=ac0ab414-c38e-4625-b276-0d829fe79721"},"vehicle_type_id":"4","last_reported":1689109598,"current_range_meters":29600,"station_id":"ce4bhs92rcd13ifvqi0g","pricing_plan_id":"free"},{"bike_id":"468a6bf3-4a4d-4f8d-84d5-ac3c41d2af16","system_id":"levelo_inurba_marseille","lat":43.299243,"lon":5.374807,"is_reserved":false,"is_disabled":false,"rental_uris":{"android":"levelo://app?vid=468a6bf3-4a4d-4f8d-84d5-ac3c41d2af16","ios":"levelo://app?vid=468a6bf3-4a4d-4f8d-84d5-ac3c41d2af16"},"vehicle_type_id":"4","last_reported":1689109598,"current_range_meters":4000,"station_id":"ce4bgjh2rcd13ifvqbg0","pricing_plan_id":"free"},{"bike_id":"2b2b20b4-9870-452f-ad55-ac59eb44abe0","system_id":"levelo_inurba_marseille","lat":43.29784,"lon":5.37302,"is_reserved":false,"is_disabled":false,"rental_uris":{"android":"levelo://app?vid=2b2b20b4-9870-452f-ad55-ac59eb44abe0","ios":"levelo://app?vid=2b2b20b4-9870-452f-ad55-ac59eb44abe0"},"vehicle_type_id":"4","last_reported":1689109598,"current_range_meters":5600,"station_id":"","pricing_plan_id":"free"},{"bike_id":"c4f05027-afdf-4955-8415-7bbeb3c9b318","system_id":"levelo_inurba_marseille","lat":43.328371,"lon":5.366909,"is_reserved":false,"is_disabled":false,"rental_uris":{"android":"levelo://app?vid=c4f05027-afdf-4955-8415-7bbeb3c9b318","ios":"levelo://app?vid=c4f05027-afdf-4955-8415-7bbeb3c9b318"},"vehicle_type_id":"4","last_reported":1689109598,"current_range_meters":4400,"station_id":"ce4bhs92rcd13ifvqi0g","pricing_plan_id":"free"},{"bike_id":"71cff3a3-0a67-4159-8e0c-f10f8ae2b748","system_id":"levelo_inurba_marseille","lat":43.328371,"lon":5.366909,"is_reserved":false,"is_disabled":false,"rental_uris":{"android":"levelo://app?vid=71cff3a3-0a67-4159-8e0c-f10f8ae2b748","ios":"levelo://app?vid=71cff3a3-0a67-4159-8e0c-f10f8ae2b748"},"vehicle_type_id":"4","last_reported":1689109598,"current_range_meters":21200,"station_id":"ce4bhs92rcd13ifvqi0g","pricing_plan_id":"free"},{"bike_id":"98be7db6-8143-41d3-9935-185fe9ab20f3","system_id":"levelo_inurba_marseille","lat":43.3283,"lon":5.36682,"is_reserved":false,"is_disabled":false,"rental_uris":{"android":"levelo://app?vid=98be7db6-8143-41d3-9935-185fe9ab20f3","ios":"levelo://app?vid=98be7db6-8143-41d3-9935-185fe9ab20f3"},"vehicle_type_id":"4","last_reported":1689109598,"current_range_meters":25600,"station_id":"ce4bhs92rcd13ifvqi0g","pricing_plan_id":"free"},{"bike_id":"7026f680-b637-4c29-8ca8-3286106d6c68","system_id":"levelo_inurba_marseille","lat":43.32831,"lon":5.36688,"is_reserved":false,"is_disabled":false,"rental_uris":{"android":"levelo://app?vid=7026f680-b637-4c29-8ca8-3286106d6c68","ios":"levelo://app?vid=7026f680-b637-4c29-8ca8-3286106d6c68"},"vehicle_type_id":"4","last_reported":1689109598,"current_range_meters":22000,"station_id":"ce4bhs92rcd13ifvqi0g","pricing_plan_id":"free"},{"bike_id":"6e84172c-531f-4b24-a0a2-0973f54d26cc","system_id":"levelo_inurba_marseille","lat":43.32831,"lon":5.3668,"is_reserved":false,"is_disabled":false,"rental_uris":{"android":"levelo://app?vid=6e84172c-531f-4b24-a0a2-0973f54d26cc","ios":"levelo://app?vid=6e84172c-531f-4b24-a0a2-0973f54d26cc"},"vehicle_type_id":"4","last_reported":1689109598,"current_range_meters":27600,"station_id":"ce4bhs92rcd13ifvqi0g","pricing_plan_id":"free"},{"bike_id":"cdf9e058-d514-4616-8e03-dea271f0e397","system_id":"levelo_inurba_marseille","lat":43.297163,"lon":5.365866,"is_reserved":false,"is_disabled":false,"rental_uris":{"android":"levelo://app?vid=cdf9e058-d514-4616-8e03-dea271f0e397","ios":"levelo://app?vid=cdf9e058-d514-4616-8e03-dea271f0e397"},"vehicle_type_id":"4","last_reported":1689109598,"current_range_meters":31600,"station_id":"ce4bgn12rcd13ifvqbt0","pricing_plan_id":"free"},{"bike_id":"55c67555-5d61-4676-96da-8e9a73312cc9","system_id":"levelo_inurba_marseille","lat":43.297163,"lon":5.365866,"is_reserved":false,"is_disabled":false,"rental_uris":{"android":"levelo://app?vid=55c67555-5d61-4676-96da-8e9a73312cc9","ios":"levelo://app?vid=55c67555-5d61-4676-96da-8e9a73312cc9"},"vehicle_type_id":"4","last_reported":1689109598,"current_range_meters":16800,"station_id":"ce4bgn12rcd13ifvqbt0","pricing_plan_id":"free"},{"bike_id":"dae73537-ced7-481d-90e5-a224c0c7707b","system_id":"levelo_inurba_marseille","lat":43.32835,"lon":5.36686,"is_reserved":false,"is_disabled":false,"rental_uris":{"android":"levelo://app?vid=dae73537-ced7-481d-90e5-a224c0c7707b","ios":"levelo://app?vid=dae73537-ced7-481d-90e5-a224c0c7707b"},"vehicle_type_id":"4","last_reported":1689109598,"current_range_meters":8800,"station_id":"ce4bhs92rcd13ifvqi0g","pricing_plan_id":"free"},{"bike_id":"bb52540a-5452-40ba-a697-b012ab3b2089","system_id":"levelo_inurba_marseille","lat":43.297163,"lon":5.365866,"is_reserved":false,"is_disabled":false,"rental_uris":{"android":"levelo://app?vid=bb52540a-5452-40ba-a697-b012ab3b2089","ios":"levelo://app?vid=bb52540a-5452-40ba-a697-b012ab3b2089"},"vehicle_type_id":"4","last_reported":1689109598,"current_range_meters":31600,"station_id":"ce4bgn12rcd13ifvqbt0","pricing_plan_id":"free"},{"bike_id":"9f57cb93-34a4-469b-aa35-60194e34c25e","system_id":"levelo_inurba_marseille","lat":43.297163,"lon":5.365866,"is_reserved":false,"is_disabled":false,"rental_uris":{"android":"levelo://app?vid=9f57cb93-34a4-469b-aa35-60194e34c25e","ios":"levelo://app?vid=9f57cb93-34a4-469b-aa35-60194e34c25e"},"vehicle_type_id":"4","last_reported":1689109598,"current_range_meters":31600,"station_id":"ce4bgn12rcd13ifvqbt0","pricing_plan_id":"free"},{"bike_id":"af6d4808-6ca2-422d-8aec-fe3563bb129b","system_id":"levelo_inurba_marseille","lat":43.297163,"lon":5.365866,"is_reserved":false,"is_disabled":false,"rental_uris":{"android":"levelo://app?vid=af6d4808-6ca2-422d-8aec-fe3563bb129b","ios":"levelo://app?vid=af6d4808-6ca2-422d-8aec-fe3563bb129b"},"vehicle_type_id":"4","last_reported":1689109598,"current_range_meters":0,"station_id":"ce4bgn12rcd13ifvqbt0","pricing_plan_id":"free"},{"bike_id":"74e091c8-36c9-4932-b52b-92a60f25a803","system_id":"levelo_inurba_marseille","lat":43.2971,"lon":5.3661,"is_reserved":false,"is_disabled":false,"rental_uris":{"android":"levelo://app?vid=74e091c8-36c9-4932-b52b-92a60f25a803","ios":"levelo://app?vid=74e091c8-36c9-4932-b52b-92a60f25a803"},"vehicle_type_id":"4","last_reported":1689109598,"current_range_meters":23600,"station_id":"ce4bgn12rcd13ifvqbt0","pricing_plan_id":"free"},{"bike_id":"9f2221e7-b787-46f9-a389-00005fa81751","system_id":"levelo_inurba_marseille","lat":43.2971,"lon":5.36608,"is_reserved":false,"is_disabled":false,"rental_uris":{"android":"levelo://app?vid=9f2221e7-b787-46f9-a389-00005fa81751","ios":"levelo://app?vid=9f2221e7-b787-46f9-a389-00005fa81751"},"vehicle_type_id":"4","last_reported":1689109598,"current_range_meters":31200,"station_id":"ce4bgn12rcd13ifvqbt0","pricing_plan_id":"free"},{"bike_id":"51f48678-26d4-4bbc-8f52-5e2b219eda87","system_id":"levelo_inurba_marseille","lat":43.297163,"lon":5.365866,"is_reserved":false,"is_disabled":false,"rental_uris":{"android":"levelo://app?vid=51f48678-26d4-4bbc-8f52-5e2b219eda87","ios":"levelo://app?vid=51f48678-26d4-4bbc-8f52-5e2b219eda87"},"vehicle_type_id":"4","last_reported":1689109598,"current_range_meters":31200,"station_id":"ce4bgn12rcd13ifvqbt0","pricing_plan_id":"free"},{"bike_id":"a6ff18ea-0e6d-4b15-b59a-e00dbea04e33","system_id":"levelo_inurba_marseille","lat":43.29708,"lon":5.36613,"is_reserved":false,"is_disabled":false,"rental_uris":{"android":"levelo://app?vid=a6ff18ea-0e6d-4b15-b59a-e00dbea04e33","ios":"levelo://app?vid=a6ff18ea-0e6d-4b15-b59a-e00dbea04e33"},"vehicle_type_id":"4","last_reported":1689109598,"current_range_meters":19600,"station_id":"ce4bgn12rcd13ifvqbt0","pricing_plan_id":"free"},{"bike_id":"69721170-6860-4950-a441-cae38fd34dd8","system_id":"levelo_inurba_marseille","lat":43.297163,"lon":5.365866,"is_reserved":false,"is_disabled":false,"rental_uris":{"android":"levelo://app?vid=69721170-6860-4950-a441-cae38fd34dd8","ios":"levelo://app?vid=69721170-6860-4950-a441-cae38fd34dd8"},"vehicle_type_id":"4","last_reported":1689109598,"current_range_meters":31600,"station_id":"ce4bgn12rcd13ifvqbt0","pricing_plan_id":"free"},{"bike_id":"a7759df4-1636-4048-8e1f-5e0c100e7d0e","system_id":"levelo_inurba_marseille","lat":43.29706,"lon":5.36616,"is_reserved":false,"is_disabled":false,"rental_uris":{"android":"levelo://app?vid=a7759df4-1636-4048-8e1f-5e0c100e7d0e","ios":"levelo://app?vid=a7759df4-1636-4048-8e1f-5e0c100e7d0e"},"vehicle_type_id":"4","last_reported":1689109598,"current_range_meters":23600,"station_id":"ce4bgn12rcd13ifvqbt0","pricing_plan_id":"free"},{"bike_id":"60a760d6-7e18-4d74-a3ab-bb301ca7f8a8","system_id":"levelo_inurba_marseille","lat":43.29705,"lon":5.36611,"is_reserved":false,"is_disabled":false,"rental_uris":{"android":"levelo://app?vid=60a760d6-7e18-4d74-a3ab-bb301ca7f8a8","ios":"levelo://app?vid=60a760d6-7e18-4d74-a3ab-bb301ca7f8a8"},"vehicle_type_id":"4","last_reported":1689109598,"current_range_meters":10800,"station_id":"ce4bgn12rcd13ifvqbt0","pricing_plan_id":"free"},{"bike_id":"5ea73e21-dcac-447b-9e8f-3a8481eb4313","system_id":"levelo_inurba_marseille","lat":43.29704,"lon":5.36612,"is_reserved":false,"is_disabled":false,"rental_uris":{"android":"levelo://app?vid=5ea73e21-dcac-447b-9e8f-3a8481eb4313","ios":"levelo://app?vid=5ea73e21-dcac-447b-9e8f-3a8481eb4313"},"vehicle_type_id":"4","last_reported":1689109598,"current_range_meters":12000,"station_id":"ce4bgn12rcd13ifvqbt0","pricing_plan_id":"free"},{"bike_id":"867cd6e5-ca6a-4339-a010-4026c18f2a4d","system_id":"levelo_inurba_marseille","lat":43.29703,"lon":5.36614,"is_reserved":false,"is_disabled":false,"rental_uris":{"android":"levelo://app?vid=867cd6e5-ca6a-4339-a010-4026c18f2a4d","ios":"levelo://app?vid=867cd6e5-ca6a-4339-a010-4026c18f2a4d"},"vehicle_type_id":"4","last_reported":1689109598,"current_range_meters":11600,"station_id":"ce4bgn12rcd13ifvqbt0","pricing_plan_id":"free"},{"bike_id":"c0824d4a-9b63-4c22-b433-20b71f3da7b9","system_id":"levelo_inurba_marseille","lat":43.29701,"lon":5.36607,"is_reserved":false,"is_disabled":false,"rental_uris":{"android":"levelo://app?vid=c0824d4a-9b63-4c22-b433-20b71f3da7b9","ios":"levelo://app?vid=c0824d4a-9b63-4c22-b433-20b71f3da7b9"},"vehicle_type_id":"4","last_reported":1689109598,"current_range_meters":13600,"station_id":"ce4bgn12rcd13ifvqbt0","pricing_plan_id":"free"},{"bike_id":"671e6103-749a-44d5-9262-c0380ac8955e","system_id":"levelo_inurba_marseille","lat":43.297163,"lon":5.365866,"is_reserved":false,"is_disabled":false,"rental_uris":{"android":"levelo://app?vid=671e6103-749a-44d5-9262-c0380ac8955e","ios":"levelo://app?vid=671e6103-749a-44d5-9262-c0380ac8955e"},"vehicle_type_id":"4","last_reported":1689109598,"current_range_meters":31600,"station_id":"ce4bgn12rcd13ifvqbt0","pricing_plan_id":"free"},{"bike_id":"11812485-737e-4775-a7b0-c1dbec57bd7f","system_id":"levelo_inurba_marseille","lat":43.297163,"lon":5.365866,"is_reserved":false,"is_disabled":false,"rental_uris":{"android":"levelo://app?vid=11812485-737e-4775-a7b0-c1dbec57bd7f","ios":"levelo://app?vid=11812485-737e-4775-a7b0-c1dbec57bd7f"},"vehicle_type_id":"4","last_reported":1689109598,"current_range_meters":31600,"station_id":"ce4bgn12rcd13ifvqbt0","pricing_plan_id":"free"},{"bike_id":"67fa1867-f1ef-460d-9d2e-06fda947653e","system_id":"levelo_inurba_marseille","lat":43.297163,"lon":5.365866,"is_reserved":false,"is_disabled":false,"rental_uris":{"android":"levelo://app?vid=67fa1867-f1ef-460d-9d2e-06fda947653e","ios":"levelo://app?vid=67fa1867-f1ef-460d-9d2e-06fda947653e"},"vehicle_type_id":"4","last_reported":1689109598,"current_range_meters":30400,"station_id":"ce4bgn12rcd13ifvqbt0","pricing_plan_id":"free"},{"bike_id":"81d9d88c-6f89-475c-9d3c-5d7df2f6a78f","system_id":"levelo_inurba_marseille","lat":43.29653,"lon":5.36256,"is_reserved":false,"is_disabled":false,"rental_uris":{"android":"levelo://app?vid=81d9d88c-6f89-475c-9d3c-5d7df2f6a78f","ios":"levelo://app?vid=81d9d88c-6f89-475c-9d3c-5d7df2f6a78f"},"vehicle_type_id":"4","last_reported":1689109598,"current_range_meters":9600,"station_id":"","pricing_plan_id":"free"},{"bike_id":"7f8d3a55-027d-49de-a32d-fac4824bd9b1","system_id":"levelo_inurba_marseille","lat":43.29629,"lon":5.37168,"is_reserved":false,"is_disabled":false,"rental_uris":{"android":"levelo://app?vid=7f8d3a55-027d-49de-a32d-fac4824bd9b1","ios":"levelo://app?vid=7f8d3a55-027d-49de-a32d-fac4824bd9b1"},"vehicle_type_id":"4","last_reported":1689109598,"current_range_meters":31200,"station_id":"ce4bgnh2rcd13ifvqc0g","pricing_plan_id":"free"},{"bike_id":"02b8081e-7b3b-4ef1-8c58-04de23d6bf05","system_id":"levelo_inurba_marseille","lat":43.29626,"lon":5.37163,"is_reserved":false,"is_disabled":false,"rental_uris":{"android":"levelo://app?vid=02b8081e-7b3b-4ef1-8c58-04de23d6bf05","ios":"levelo://app?vid=02b8081e-7b3b-4ef1-8c58-04de23d6bf05"},"vehicle_type_id":"4","last_reported":1689109598,"current_range_meters":26800,"station_id":"ce4bgnh2rcd13ifvqc0g","pricing_plan_id":"free"},{"bike_id":"746ae8de-7461-4808-a3da-d7e1a9fab1ac","system_id":"levelo_inurba_marseille","lat":43.29624,"lon":5.37152,"is_reserved":false,"is_disabled":false,"rental_uris":{"android":"levelo://app?vid=746ae8de-7461-4808-a3da-d7e1a9fab1ac","ios":"levelo://app?vid=746ae8de-7461-4808-a3da-d7e1a9fab1ac"},"vehicle_type_id":"4","last_reported":1689109598,"current_range_meters":31200,"station_id":"ce4bgnh2rcd13ifvqc0g","pricing_plan_id":"free"},{"bike_id":"06389147-037e-41e6-83c6-6282b72c3bd6","system_id":"levelo_inurba_marseille","lat":43.29625,"lon":5.37163,"is_reserved":false,"is_disabled":false,"rental_uris":{"android":"levelo://app?vid=06389147-037e-41e6-83c6-6282b72c3bd6","ios":"levelo://app?vid=06389147-037e-41e6-83c6-6282b72c3bd6"},"vehicle_type_id":"4","last_reported":1689109598,"current_range_meters":10400,"station_id":"ce4bgnh2rcd13ifvqc0g","pricing_plan_id":"free"},{"bike_id":"8ede39fa-56c4-4058-92e2-a61f06a9122b","system_id":"levelo_inurba_marseille","lat":43.2959,"lon":5.36753,"is_reserved":false,"is_disabled":false,"rental_uris":{"android":"levelo://app?vid=8ede39fa-56c4-4058-92e2-a61f06a9122b","ios":"levelo://app?vid=8ede39fa-56c4-4058-92e2-a61f06a9122b"},"vehicle_type_id":"4","last_reported":1689109598,"current_range_meters":17200,"station_id":"ce4bgph2rcd13ifvqc2g","pricing_plan_id":"free"},{"bike_id":"55ddc4c6-a8c5-40a0-8744-c4984267304a","system_id":"levelo_inurba_marseille","lat":43.29624,"lon":5.3716,"is_reserved":false,"is_disabled":false,"rental_uris":{"android":"levelo://app?vid=55ddc4c6-a8c5-40a0-8744-c4984267304a","ios":"levelo://app?vid=55ddc4c6-a8c5-40a0-8744-c4984267304a"},"vehicle_type_id":"4","last_reported":1689109598,"current_range_meters":24800,"station_id":"ce4bgnh2rcd13ifvqc0g","pricing_plan_id":"free"},{"bike_id":"b8ec00c8-0fbc-41a7-9817-5ad3b5686676","system_id":"levelo_inurba_marseille","lat":43.29624,"lon":5.37161,"is_reserved":false,"is_disabled":false,"rental_uris":{"android":"levelo://app?vid=b8ec00c8-0fbc-41a7-9817-5ad3b5686676","ios":"levelo://app?vid=b8ec00c8-0fbc-41a7-9817-5ad3b5686676"},"vehicle_type_id":"4","last_reported":1689109598,"current_range_meters":20800,"station_id":"ce4bgnh2rcd13ifvqc0g","pricing_plan_id":"free"},{"bike_id":"6e31cbfb-b833-42ba-b677-69362f3c4ba9","system_id":"levelo_inurba_marseille","lat":43.29624,"lon":5.37166,"is_reserved":false,"is_disabled":false,"rental_uris":{"android":"levelo://app?vid=6e31cbfb-b833-42ba-b677-69362f3c4ba9","ios":"levelo://app?vid=6e31cbfb-b833-42ba-b677-69362f3c4ba9"},"vehicle_type_id":"4","last_reported":1689109598,"current_range_meters":31200,"station_id":"ce4bgnh2rcd13ifvqc0g","pricing_plan_id":"free"},{"bike_id":"bcd8ef25-95ee-4d16-95c1-02c42bb4cf39","system_id":"levelo_inurba_marseille","lat":43.29622,"lon":5.37156,"is_reserved":false,"is_disabled":false,"rental_uris":{"android":"levelo://app?vid=bcd8ef25-95ee-4d16-95c1-02c42bb4cf39","ios":"levelo://app?vid=bcd8ef25-95ee-4d16-95c1-02c42bb4cf39"},"vehicle_type_id":"4","last_reported":1689109598,"current_range_meters":26400,"station_id":"ce4bgnh2rcd13ifvqc0g","pricing_plan_id":"free"},{"bike_id":"aafb5165-fe71-419c-9fd9-c94d84f8bc36","system_id":"levelo_inurba_marseille","lat":43.29622,"lon":5.37157,"is_reserved":false,"is_disabled":false,"rental_uris":{"android":"levelo://app?vid=aafb5165-fe71-419c-9fd9-c94d84f8bc36","ios":"levelo://app?vid=aafb5165-fe71-419c-9fd9-c94d84f8bc36"},"vehicle_type_id":"4","last_reported":1689109598,"current_range_meters":31200,"station_id":"ce4bgnh2rcd13ifvqc0g","pricing_plan_id":"free"},{"bike_id":"da69689e-729a-4026-80b3-3f0a5bc94228","system_id":"levelo_inurba_marseille","lat":43.29621,"lon":5.37162,"is_reserved":false,"is_disabled":false,"rental_uris":{"android":"levelo://app?vid=da69689e-729a-4026-80b3-3f0a5bc94228","ios":"levelo://app?vid=da69689e-729a-4026-80b3-3f0a5bc94228"},"vehicle_type_id":"4","last_reported":1689109598,"current_range_meters":30000,"station_id":"ce4bgnh2rcd13ifvqc0g","pricing_plan_id":"free"},{"bike_id":"b0cb3b9b-5fb6-47e4-8c8f-c976075f1daa","system_id":"levelo_inurba_marseille","lat":43.29618,"lon":5.37164,"is_reserved":false,"is_disabled":false,"rental_uris":{"android":"levelo://app?vid=b0cb3b9b-5fb6-47e4-8c8f-c976075f1daa","ios":"levelo://app?vid=b0cb3b9b-5fb6-47e4-8c8f-c976075f1daa"},"vehicle_type_id":"4","last_reported":1689109598,"current_range_meters":8000,"station_id":"ce4bgnh2rcd13ifvqc0g","pricing_plan_id":"free"},{"bike_id":"e3a8a43d-cb13-49f6-b16f-aaa3841605ed","system_id":"levelo_inurba_marseille","lat":43.295822,"lon":5.367442,"is_reserved":false,"is_disabled":false,"rental_uris":{"android":"levelo://app?vid=e3a8a43d-cb13-49f6-b16f-aaa3841605ed","ios":"levelo://app?vid=e3a8a43d-cb13-49f6-b16f-aaa3841605ed"},"vehicle_type_id":"4","last_reported":1689109598,"current_range_meters":7200,"station_id":"","pricing_plan_id":"free"},{"bike_id":"6ca7016d-73f6-4b26-9510-50a55c45de42","system_id":"levelo_inurba_marseille","lat":43.295809,"lon":5.367432,"is_reserved":false,"is_disabled":false,"rental_uris":{"android":"levelo://app?vid=6ca7016d-73f6-4b26-9510-50a55c45de42","ios":"levelo://app?vid=6ca7016d-73f6-4b26-9510-50a55c45de42"},"vehicle_type_id":"4","last_reported":1689109598,"current_range_meters":28800,"station_id":"ce4bgph2rcd13ifvqc2g","pricing_plan_id":"free"},{"bike_id":"918b8881-8ce6-4c2a-9774-bebc733caf4d","system_id":"levelo_inurba_marseille","lat":43.29613,"lon":5.37163,"is_reserved":false,"is_disabled":false,"rental_uris":{"android":"levelo://app?vid=918b8881-8ce6-4c2a-9774-bebc733caf4d","ios":"levelo://app?vid=918b8881-8ce6-4c2a-9774-bebc733caf4d"},"vehicle_type_id":"4","last_reported":1689109598,"current_range_meters":400,"station_id":"ce4bgnh2rcd13ifvqc0g","pricing_plan_id":"free"},{"bike_id":"21a161c6-ca0e-4396-8c2e-4d45cd412a32","system_id":"levelo_inurba_marseille","lat":43.296921,"lon":5.376579,"is_reserved":false,"is_disabled":false,"rental_uris":{"android":"levelo://app?vid=21a161c6-ca0e-4396-8c2e-4d45cd412a32","ios":"levelo://app?vid=21a161c6-ca0e-4396-8c2e-4d45cd412a32"},"vehicle_type_id":"4","last_reported":1689109598,"current_range_meters":18000,"station_id":"ce4bgkh2rcd13ifvqbl0","pricing_plan_id":"free"},{"bike_id":"c6948e23-5e6d-468e-a7d0-65061435d887","system_id":"levelo_inurba_marseille","lat":43.29906,"lon":5.38144,"is_reserved":false,"is_disabled":false,"rental_uris":{"android":"levelo://app?vid=c6948e23-5e6d-468e-a7d0-65061435d887","ios":"levelo://app?vid=c6948e23-5e6d-468e-a7d0-65061435d887"},"vehicle_type_id":"4","last_reported":1689109598,"current_range_meters":30000,"station_id":"","pricing_plan_id":"free"},{"bike_id":"627f8e5a-5db0-4cbb-8c53-3ed6922b563f","system_id":"levelo_inurba_marseille","lat":43.317557,"lon":5.390173,"is_reserved":false,"is_disabled":false,"rental_uris":{"android":"levelo://app?vid=627f8e5a-5db0-4cbb-8c53-3ed6922b563f","ios":"levelo://app?vid=627f8e5a-5db0-4cbb-8c53-3ed6922b563f"},"vehicle_type_id":"4","last_reported":1689109598,"current_range_meters":28800,"station_id":"ce4bhqp2rcd13ifvqhng","pricing_plan_id":"free"},{"bike_id":"e2d808a3-69a3-4ddb-b68d-aeb1e95a8ccf","system_id":"levelo_inurba_marseille","lat":43.317557,"lon":5.390173,"is_reserved":false,"is_disabled":false,"rental_uris":{"android":"levelo://app?vid=e2d808a3-69a3-4ddb-b68d-aeb1e95a8ccf","ios":"levelo://app?vid=e2d808a3-69a3-4ddb-b68d-aeb1e95a8ccf"},"vehicle_type_id":"4","last_reported":1689109598,"current_range_meters":21200,"station_id":"ce4bhqp2rcd13ifvqhng","pricing_plan_id":"free"},{"bike_id":"d4f7cd59-0c2e-4cd9-acc0-d2db61240575","system_id":"levelo_inurba_marseille","lat":43.3176,"lon":5.39012,"is_reserved":false,"is_disabled":false,"rental_uris":{"android":"levelo://app?vid=d4f7cd59-0c2e-4cd9-acc0-d2db61240575","ios":"levelo://app?vid=d4f7cd59-0c2e-4cd9-acc0-d2db61240575"},"vehicle_type_id":"4","last_reported":1689109598,"current_range_meters":23200,"station_id":"ce4bhqp2rcd13ifvqhng","pricing_plan_id":"free"},{"bike_id":"8c61f9ce-bf65-4deb-b624-0867bc7a7907","system_id":"levelo_inurba_marseille","lat":43.317557,"lon":5.390173,"is_reserved":false,"is_disabled":false,"rental_uris":{"android":"levelo://app?vid=8c61f9ce-bf65-4deb-b624-0867bc7a7907","ios":"levelo://app?vid=8c61f9ce-bf65-4deb-b624-0867bc7a7907"},"vehicle_type_id":"4","last_reported":1689109598,"current_range_meters":31200,"station_id":"ce4bhqp2rcd13ifvqhng","pricing_plan_id":"free"},{"bike_id":"7415c422-e609-4b51-a4d0-f6efc7dbe2c7","system_id":"levelo_inurba_marseille","lat":43.31754,"lon":5.39015,"is_reserved":false,"is_disabled":false,"rental_uris":{"android":"levelo://app?vid=7415c422-e609-4b51-a4d0-f6efc7dbe2c7","ios":"levelo://app?vid=7415c422-e609-4b51-a4d0-f6efc7dbe2c7"},"vehicle_type_id":"4","last_reported":1689109598,"current_range_meters":15200,"station_id":"ce4bhqp2rcd13ifvqhng","pricing_plan_id":"free"},{"bike_id":"1edd266f-eaa6-40e1-ae01-31684fa68a82","system_id":"levelo_inurba_marseille","lat":43.31758,"lon":5.39018,"is_reserved":false,"is_disabled":false,"rental_uris":{"android":"levelo://app?vid=1edd266f-eaa6-40e1-ae01-31684fa68a82","ios":"levelo://app?vid=1edd266f-eaa6-40e1-ae01-31684fa68a82"},"vehicle_type_id":"4","last_reported":1689109598,"current_range_meters":16800,"station_id":"ce4bhqp2rcd13ifvqhng","pricing_plan_id":"free"},{"bike_id":"0b94d718-c38b-4f0f-82d3-55a93b41ddee","system_id":"levelo_inurba_marseille","lat":43.31755,"lon":5.3902,"is_reserved":false,"is_disabled":false,"rental_uris":{"android":"levelo://app?vid=0b94d718-c38b-4f0f-82d3-55a93b41ddee","ios":"levelo://app?vid=0b94d718-c38b-4f0f-82d3-55a93b41ddee"},"vehicle_type_id":"4","last_reported":1689109598,"current_range_meters":24000,"station_id":"ce4bhqp2rcd13ifvqhng","pricing_plan_id":"free"},{"bike_id":"d5723717-8f36-4514-bcde-f753dfeebd28","system_id":"levelo_inurba_marseille","lat":43.31763,"lon":5.39017,"is_reserved":false,"is_disabled":false,"rental_uris":{"android":"levelo://app?vid=d5723717-8f36-4514-bcde-f753dfeebd28","ios":"levelo://app?vid=d5723717-8f36-4514-bcde-f753dfeebd28"},"vehicle_type_id":"4","last_reported":1689109598,"current_range_meters":27600,"station_id":"ce4bhqp2rcd13ifvqhng","pricing_plan_id":"free"},{"bike_id":"eb698611-807b-4517-b542-dfac4519c2e4","system_id":"levelo_inurba_marseille","lat":43.317557,"lon":5.390173,"is_reserved":false,"is_disabled":false,"rental_uris":{"android":"levelo://app?vid=eb698611-807b-4517-b542-dfac4519c2e4","ios":"levelo://app?vid=eb698611-807b-4517-b542-dfac4519c2e4"},"vehicle_type_id":"4","last_reported":1689109598,"current_range_meters":32000,"station_id":"ce4bhqp2rcd13ifvqhng","pricing_plan_id":"free"},{"bike_id":"172ad08e-865f-4b89-8698-a1b80b64363b","system_id":"levelo_inurba_marseille","lat":43.31759,"lon":5.39024,"is_reserved":false,"is_disabled":false,"rental_uris":{"android":"levelo://app?vid=172ad08e-865f-4b89-8698-a1b80b64363b","ios":"levelo://app?vid=172ad08e-865f-4b89-8698-a1b80b64363b"},"vehicle_type_id":"4","last_reported":1689109598,"current_range_meters":14400,"station_id":"ce4bhqp2rcd13ifvqhng","pricing_plan_id":"free"},{"bike_id":"d5b8186f-af0d-4df9-a17f-28b78edbb50e","system_id":"levelo_inurba_marseille","lat":43.29575,"lon":5.3752,"is_reserved":false,"is_disabled":false,"rental_uris":{"android":"levelo://app?vid=d5b8186f-af0d-4df9-a17f-28b78edbb50e","ios":"levelo://app?vid=d5b8186f-af0d-4df9-a17f-28b78edbb50e"},"vehicle_type_id":"4","last_reported":1689109598,"current_range_meters":27600,"station_id":"ce4bgh92rcd13ifvqb50","pricing_plan_id":"free"},{"bike_id":"a5ddb7e0-d153-42a8-bf33-b0ce4a172530","system_id":"levelo_inurba_marseille","lat":43.30431,"lon":5.38884,"is_reserved":false,"is_disabled":false,"rental_uris":{"android":"levelo://app?vid=a5ddb7e0-d153-42a8-bf33-b0ce4a172530","ios":"levelo://app?vid=a5ddb7e0-d153-42a8-bf33-b0ce4a172530"},"vehicle_type_id":"4","last_reported":1689109598,"current_range_meters":24800,"station_id":"ce4bgk12rcd13ifvqbi0","pricing_plan_id":"free"},{"bike_id":"12fa73a3-0f83-467b-a401-b026017c44f0","system_id":"levelo_inurba_marseille","lat":43.304278,"lon":5.388868,"is_reserved":false,"is_disabled":false,"rental_uris":{"android":"levelo://app?vid=12fa73a3-0f83-467b-a401-b026017c44f0","ios":"levelo://app?vid=12fa73a3-0f83-467b-a401-b026017c44f0"},"vehicle_type_id":"4","last_reported":1689109598,"current_range_meters":22800,"station_id":"ce4bgk12rcd13ifvqbi0","pricing_plan_id":"free"},{"bike_id":"134eb3d2-9868-4b24-8537-5a13638e21a0","system_id":"levelo_inurba_marseille","lat":43.30424,"lon":5.38881,"is_reserved":false,"is_disabled":false,"rental_uris":{"android":"levelo://app?vid=134eb3d2-9868-4b24-8537-5a13638e21a0","ios":"levelo://app?vid=134eb3d2-9868-4b24-8537-5a13638e21a0"},"vehicle_type_id":"4","last_reported":1689109598,"current_range_meters":22400,"station_id":"ce4bgk12rcd13ifvqbi0","pricing_plan_id":"free"},{"bike_id":"4e9b28de-15b7-411b-abca-9791ef5311ca","system_id":"levelo_inurba_marseille","lat":43.29616,"lon":5.3771,"is_reserved":false,"is_disabled":false,"rental_uris":{"android":"levelo://app?vid=4e9b28de-15b7-411b-abca-9791ef5311ca","ios":"levelo://app?vid=4e9b28de-15b7-411b-abca-9791ef5311ca"},"vehicle_type_id":"4","last_reported":1689109598,"current_range_meters":3600,"station_id":"ce4bgi92rcd13ifvqb90","pricing_plan_id":"free"},{"bike_id":"80c0d206-e368-48dd-8507-728d7f17eb68","system_id":"levelo_inurba_marseille","lat":43.296263,"lon":5.377094,"is_reserved":false,"is_disabled":false,"rental_uris":{"android":"levelo://app?vid=80c0d206-e368-48dd-8507-728d7f17eb68","ios":"levelo://app?vid=80c0d206-e368-48dd-8507-728d7f17eb68"},"vehicle_type_id":"4","last_reported":1689109598,"current_range_meters":20000,"station_id":"ce4bgi92rcd13ifvqb90","pricing_plan_id":"free"},{"bike_id":"a63563e4-6029-4338-b038-d30767d7508b","system_id":"levelo_inurba_marseille","lat":43.299707,"lon":5.384859,"is_reserved":false,"is_disabled":false,"rental_uris":{"android":"levelo://app?vid=a63563e4-6029-4338-b038-d30767d7508b","ios":"levelo://app?vid=a63563e4-6029-4338-b038-d30767d7508b"},"vehicle_type_id":"4","last_reported":1689109598,"current_range_meters":21600,"station_id":"ce4bgj92rcd13ifvqbd0","pricing_plan_id":"free"},{"bike_id":"d659698a-d52b-4260-b3e3-1e4924a4d6df","system_id":"levelo_inurba_marseille","lat":43.299707,"lon":5.384859,"is_reserved":false,"is_disabled":false,"rental_uris":{"android":"levelo://app?vid=d659698a-d52b-4260-b3e3-1e4924a4d6df","ios":"levelo://app?vid=d659698a-d52b-4260-b3e3-1e4924a4d6df"},"vehicle_type_id":"4","last_reported":1689109598,"current_range_meters":6400,"station_id":"ce4bgj92rcd13ifvqbd0","pricing_plan_id":"free"},{"bike_id":"c5bf0b1f-4246-4c27-a0a2-5aaa1707e18a","system_id":"levelo_inurba_marseille","lat":43.299707,"lon":5.384859,"is_reserved":false,"is_disabled":false,"rental_uris":{"android":"levelo://app?vid=c5bf0b1f-4246-4c27-a0a2-5aaa1707e18a","ios":"levelo://app?vid=c5bf0b1f-4246-4c27-a0a2-5aaa1707e18a"},"vehicle_type_id":"4","last_reported":1689109598,"current_range_meters":23600,"station_id":"ce4bgj92rcd13ifvqbd0","pricing_plan_id":"free"},{"bike_id":"ecd20c3a-8d0d-40ef-af30-f6e500c9892c","system_id":"levelo_inurba_marseille","lat":43.299697,"lon":5.384788,"is_reserved":false,"is_disabled":false,"rental_uris":{"android":"levelo://app?vid=ecd20c3a-8d0d-40ef-af30-f6e500c9892c","ios":"levelo://app?vid=ecd20c3a-8d0d-40ef-af30-f6e500c9892c"},"vehicle_type_id":"4","last_reported":1689109598,"current_range_meters":23600,"station_id":"ce4bgj92rcd13ifvqbd0","pricing_plan_id":"free"},{"bike_id":"b98ddf84-192a-482d-a785-fc4665f77a12","system_id":"levelo_inurba_marseille","lat":43.299707,"lon":5.384859,"is_reserved":false,"is_disabled":false,"rental_uris":{"android":"levelo://app?vid=b98ddf84-192a-482d-a785-fc4665f77a12","ios":"levelo://app?vid=b98ddf84-192a-482d-a785-fc4665f77a12"},"vehicle_type_id":"4","last_reported":1689109598,"current_range_meters":19200,"station_id":"ce4bgj92rcd13ifvqbd0","pricing_plan_id":"free"},{"bike_id":"1d896e34-3ebe-46fc-8a6d-534bcb69c504","system_id":"levelo_inurba_marseille","lat":43.299707,"lon":5.384859,"is_reserved":false,"is_disabled":false,"rental_uris":{"android":"levelo://app?vid=1d896e34-3ebe-46fc-8a6d-534bcb69c504","ios":"levelo://app?vid=1d896e34-3ebe-46fc-8a6d-534bcb69c504"},"vehicle_type_id":"4","last_reported":1689109598,"current_range_meters":16000,"station_id":"ce4bgj92rcd13ifvqbd0","pricing_plan_id":"free"},{"bike_id":"d48f3e06-c0c8-49de-887c-8793acffb1f4","system_id":"levelo_inurba_marseille","lat":43.299707,"lon":5.384859,"is_reserved":false,"is_disabled":false,"rental_uris":{"android":"levelo://app?vid=d48f3e06-c0c8-49de-887c-8793acffb1f4","ios":"levelo://app?vid=d48f3e06-c0c8-49de-887c-8793acffb1f4"},"vehicle_type_id":"4","last_reported":1689109598,"current_range_meters":12000,"station_id":"ce4bgj92rcd13ifvqbd0","pricing_plan_id":"free"},{"bike_id":"e9525e4c-2b5a-4387-85ca-9099cc5e7473","system_id":"levelo_inurba_marseille","lat":43.2997,"lon":5.3849,"is_reserved":false,"is_disabled":false,"rental_uris":{"android":"levelo://app?vid=e9525e4c-2b5a-4387-85ca-9099cc5e7473","ios":"levelo://app?vid=e9525e4c-2b5a-4387-85ca-9099cc5e7473"},"vehicle_type_id":"4","last_reported":1689109598,"current_range_meters":11600,"station_id":"ce4bgj92rcd13ifvqbd0","pricing_plan_id":"free"},{"bike_id":"b29b2997-9fd5-46fa-9619-bdbdb91dccea","system_id":"levelo_inurba_marseille","lat":43.299724,"lon":5.384848,"is_reserved":false,"is_disabled":false,"rental_uris":{"android":"levelo://app?vid=b29b2997-9fd5-46fa-9619-bdbdb91dccea","ios":"levelo://app?vid=b29b2997-9fd5-46fa-9619-bdbdb91dccea"},"vehicle_type_id":"4","last_reported":1689109598,"current_range_meters":17200,"station_id":"ce4bgj92rcd13ifvqbd0","pricing_plan_id":"free"},{"bike_id":"1ff13a78-584f-46a2-a126-36c82669e7ed","system_id":"levelo_inurba_marseille","lat":43.299724,"lon":5.384848,"is_reserved":false,"is_disabled":false,"rental_uris":{"android":"levelo://app?vid=1ff13a78-584f-46a2-a126-36c82669e7ed","ios":"levelo://app?vid=1ff13a78-584f-46a2-a126-36c82669e7ed"},"vehicle_type_id":"4","last_reported":1689109598,"current_range_meters":30400,"station_id":"ce4bgj92rcd13ifvqbd0","pricing_plan_id":"free"},{"bike_id":"a191e500-feda-4ef4-8ca9-4d5d3fb44dd4","system_id":"levelo_inurba_marseille","lat":43.299717,"lon":5.384845,"is_reserved":false,"is_disabled":false,"rental_uris":{"android":"levelo://app?vid=a191e500-feda-4ef4-8ca9-4d5d3fb44dd4","ios":"levelo://app?vid=a191e500-feda-4ef4-8ca9-4d5d3fb44dd4"},"vehicle_type_id":"4","last_reported":1689109598,"current_range_meters":9200,"station_id":"ce4bgj92rcd13ifvqbd0","pricing_plan_id":"free"},{"bike_id":"f01c2770-3abb-484d-905a-93f11d695710","system_id":"levelo_inurba_marseille","lat":43.299707,"lon":5.384859,"is_reserved":false,"is_disabled":false,"rental_uris":{"android":"levelo://app?vid=f01c2770-3abb-484d-905a-93f11d695710","ios":"levelo://app?vid=f01c2770-3abb-484d-905a-93f11d695710"},"vehicle_type_id":"4","last_reported":1689109598,"current_range_meters":16000,"station_id":"ce4bgj92rcd13ifvqbd0","pricing_plan_id":"free"},{"bike_id":"5054e37f-3658-4e1f-9b6f-2d94909c7a4a","system_id":"levelo_inurba_marseille","lat":43.29976,"lon":5.38505,"is_reserved":false,"is_disabled":false,"rental_uris":{"android":"levelo://app?vid=5054e37f-3658-4e1f-9b6f-2d94909c7a4a","ios":"levelo://app?vid=5054e37f-3658-4e1f-9b6f-2d94909c7a4a"},"vehicle_type_id":"4","last_reported":1689109598,"current_range_meters":4800,"station_id":"ce4bgj92rcd13ifvqbd0","pricing_plan_id":"free"},{"bike_id":"a4a80885-e51f-4360-aed3-a687743870c2","system_id":"levelo_inurba_marseille","lat":43.29532,"lon":5.37562,"is_reserved":false,"is_disabled":false,"rental_uris":{"android":"levelo://app?vid=a4a80885-e51f-4360-aed3-a687743870c2","ios":"levelo://app?vid=a4a80885-e51f-4360-aed3-a687743870c2"},"vehicle_type_id":"4","last_reported":1689109598,"current_range_meters":8000,"station_id":"","pricing_plan_id":"free"},{"bike_id":"cad64765-9de9-42c9-b2c1-4b14a24f72cf","system_id":"levelo_inurba_marseille","lat":43.29966,"lon":5.38498,"is_reserved":false,"is_disabled":false,"rental_uris":{"android":"levelo://app?vid=cad64765-9de9-42c9-b2c1-4b14a24f72cf","ios":"levelo://app?vid=cad64765-9de9-42c9-b2c1-4b14a24f72cf"},"vehicle_type_id":"4","last_reported":1689109598,"current_range_meters":11600,"station_id":"ce4bgj92rcd13ifvqbd0","pricing_plan_id":"free"},{"bike_id":"4bef1896-4baa-4e28-a837-de629c2f5d50","system_id":"levelo_inurba_marseille","lat":43.29964,"lon":5.38496,"is_reserved":false,"is_disabled":false,"rental_uris":{"android":"levelo://app?vid=4bef1896-4baa-4e28-a837-de629c2f5d50","ios":"levelo://app?vid=4bef1896-4baa-4e28-a837-de629c2f5d50"},"vehicle_type_id":"4","last_reported":1689109598,"current_range_meters":20000,"station_id":"ce4bgj92rcd13ifvqbd0","pricing_plan_id":"free"},{"bike_id":"c7403f56-5c48-47b4-af21-6d07e18fc66b","system_id":"levelo_inurba_marseille","lat":43.2996,"lon":5.38493,"is_reserved":false,"is_disabled":false,"rental_uris":{"android":"levelo://app?vid=c7403f56-5c48-47b4-af21-6d07e18fc66b","ios":"levelo://app?vid=c7403f56-5c48-47b4-af21-6d07e18fc66b"},"vehicle_type_id":"4","last_reported":1689109598,"current_range_meters":0,"station_id":"ce4bgj92rcd13ifvqbd0","pricing_plan_id":"free"},{"bike_id":"8fb5c79f-bb8d-406a-824e-e6b6c5ed283c","system_id":"levelo_inurba_marseille","lat":43.295279,"lon":5.375048,"is_reserved":false,"is_disabled":false,"rental_uris":{"android":"levelo://app?vid=8fb5c79f-bb8d-406a-824e-e6b6c5ed283c","ios":"levelo://app?vid=8fb5c79f-bb8d-406a-824e-e6b6c5ed283c"},"vehicle_type_id":"4","last_reported":1689109598,"current_range_meters":30800,"station_id":"ce4bgkp2rcd13ifvqbmg","pricing_plan_id":"free"},{"bike_id":"585f7991-f7fa-4e36-b10e-37b1bb372c8d","system_id":"levelo_inurba_marseille","lat":43.29962,"lon":5.38497,"is_reserved":false,"is_disabled":false,"rental_uris":{"android":"levelo://app?vid=585f7991-f7fa-4e36-b10e-37b1bb372c8d","ios":"levelo://app?vid=585f7991-f7fa-4e36-b10e-37b1bb372c8d"},"vehicle_type_id":"4","last_reported":1689109598,"current_range_meters":22800,"station_id":"ce4bgj92rcd13ifvqbd0","pricing_plan_id":"free"},{"bike_id":"d4a21e6a-fb36-4b76-a953-da76a8bc5cd0","system_id":"levelo_inurba_marseille","lat":43.32367,"lon":5.388836,"is_reserved":false,"is_disabled":false,"rental_uris":{"android":"levelo://app?vid=d4a21e6a-fb36-4b76-a953-da76a8bc5cd0","ios":"levelo://app?vid=d4a21e6a-fb36-4b76-a953-da76a8bc5cd0"},"vehicle_type_id":"4","last_reported":1689109598,"current_range_meters":20400,"station_id":"ce4bhqp2rcd13ifvqhog","pricing_plan_id":"free"},{"bike_id":"e7a214e7-e874-4cd1-9dd0-9349e66bb712","system_id":"levelo_inurba_marseille","lat":43.32367,"lon":5.388836,"is_reserved":false,"is_disabled":false,"rental_uris":{"android":"levelo://app?vid=e7a214e7-e874-4cd1-9dd0-9349e66bb712","ios":"levelo://app?vid=e7a214e7-e874-4cd1-9dd0-9349e66bb712"},"vehicle_type_id":"4","last_reported":1689109598,"current_range_meters":20400,"station_id":"ce4bhqp2rcd13ifvqhog","pricing_plan_id":"free"},{"bike_id":"dd8b38c4-fd18-4c32-81de-ce06f0dde43f","system_id":"levelo_inurba_marseille","lat":43.29529,"lon":5.385581,"is_reserved":false,"is_disabled":false,"rental_uris":{"android":"levelo://app?vid=dd8b38c4-fd18-4c32-81de-ce06f0dde43f","ios":"levelo://app?vid=dd8b38c4-fd18-4c32-81de-ce06f0dde43f"},"vehicle_type_id":"4","last_reported":1689109598,"current_range_meters":22000,"station_id":"ce4bgih2rcd13ifvqba0","pricing_plan_id":"free"},{"bike_id":"72e13994-6d29-4e0c-9b4d-b6dbf7076ae1","system_id":"levelo_inurba_marseille","lat":43.29601,"lon":5.381084,"is_reserved":false,"is_disabled":false,"rental_uris":{"android":"levelo://app?vid=72e13994-6d29-4e0c-9b4d-b6dbf7076ae1","ios":"levelo://app?vid=72e13994-6d29-4e0c-9b4d-b6dbf7076ae1"},"vehicle_type_id":"4","last_reported":1689109598,"current_range_meters":25200,"station_id":"ce4bgl12rcd13ifvqbo0","pricing_plan_id":"free"},{"bike_id":"0719098b-8836-45cb-b8d4-024c5e5574e4","system_id":"levelo_inurba_marseille","lat":43.286961,"lon":5.373785,"is_reserved":false,"is_disabled":false,"rental_uris":{"android":"levelo://app?vid=0719098b-8836-45cb-b8d4-024c5e5574e4","ios":"levelo://app?vid=0719098b-8836-45cb-b8d4-024c5e5574e4"},"vehicle_type_id":"4","last_reported":1689109598,"current_range_meters":0,"station_id":"ce4bh3p2rcd13ifvqdq0","pricing_plan_id":"free"},{"bike_id":"e6bc1f91-e3f6-4b18-ba23-bd8092cff3e1","system_id":"levelo_inurba_marseille","lat":43.293016,"lon":5.371682,"is_reserved":false,"is_disabled":false,"rental_uris":{"android":"levelo://app?vid=e6bc1f91-e3f6-4b18-ba23-bd8092cff3e1","ios":"levelo://app?vid=e6bc1f91-e3f6-4b18-ba23-bd8092cff3e1"},"vehicle_type_id":"4","last_reported":1689109598,"current_range_meters":22800,"station_id":"ce4bgh92rcd13ifvqb40","pricing_plan_id":"free"},{"bike_id":"24d2f6a7-2237-45dd-a9ec-661c16015ebc","system_id":"levelo_inurba_marseille","lat":43.297415,"lon":5.385339,"is_reserved":false,"is_disabled":false,"rental_uris":{"android":"levelo://app?vid=24d2f6a7-2237-45dd-a9ec-661c16015ebc","ios":"levelo://app?vid=24d2f6a7-2237-45dd-a9ec-661c16015ebc"},"vehicle_type_id":"4","last_reported":1689109598,"current_range_meters":21200,"station_id":"","pricing_plan_id":"free"},{"bike_id":"14552d17-8a5e-4602-81f3-774edeadd800","system_id":"levelo_inurba_marseille","lat":43.30588,"lon":5.39344,"is_reserved":false,"is_disabled":false,"rental_uris":{"android":"levelo://app?vid=14552d17-8a5e-4602-81f3-774edeadd800","ios":"levelo://app?vid=14552d17-8a5e-4602-81f3-774edeadd800"},"vehicle_type_id":"4","last_reported":1689109598,"current_range_meters":6000,"station_id":"ce4bh0p2rcd13ifvqd80","pricing_plan_id":"free"},{"bike_id":"2a5a7d24-8820-4499-8a00-d6c900b03fd7","system_id":"levelo_inurba_marseille","lat":43.302992,"lon":5.392136,"is_reserved":false,"is_disabled":false,"rental_uris":{"android":"levelo://app?vid=2a5a7d24-8820-4499-8a00-d6c900b03fd7","ios":"levelo://app?vid=2a5a7d24-8820-4499-8a00-d6c900b03fd7"},"vehicle_type_id":"4","last_reported":1689109598,"current_range_meters":11200,"station_id":"ce4bgkh2rcd13ifvqbk0","pricing_plan_id":"free"},{"bike_id":"9d1d9b72-74a0-4437-86d5-be23f1f45c29","system_id":"levelo_inurba_marseille","lat":43.303002,"lon":5.392142,"is_reserved":false,"is_disabled":false,"rental_uris":{"android":"levelo://app?vid=9d1d9b72-74a0-4437-86d5-be23f1f45c29","ios":"levelo://app?vid=9d1d9b72-74a0-4437-86d5-be23f1f45c29"},"vehicle_type_id":"4","last_reported":1689109598,"current_range_meters":24400,"station_id":"ce4bgkh2rcd13ifvqbk0","pricing_plan_id":"free"},{"bike_id":"1d730fd0-359c-49d5-a375-207692d20c2b","system_id":"levelo_inurba_marseille","lat":43.30085,"lon":5.390856,"is_reserved":false,"is_disabled":false,"rental_uris":{"android":"levelo://app?vid=1d730fd0-359c-49d5-a375-207692d20c2b","ios":"levelo://app?vid=1d730fd0-359c-49d5-a375-207692d20c2b"},"vehicle_type_id":"4","last_reported":1689109598,"current_range_meters":10800,"station_id":"ce4bh192rcd13ifvqdb0","pricing_plan_id":"free"},{"bike_id":"fe9901c8-3947-4132-b265-8f936fa33d1a","system_id":"levelo_inurba_marseille","lat":43.302992,"lon":5.392136,"is_reserved":false,"is_disabled":false,"rental_uris":{"android":"levelo://app?vid=fe9901c8-3947-4132-b265-8f936fa33d1a","ios":"levelo://app?vid=fe9901c8-3947-4132-b265-8f936fa33d1a"},"vehicle_type_id":"4","last_reported":1689109598,"current_range_meters":22800,"station_id":"ce4bgkh2rcd13ifvqbk0","pricing_plan_id":"free"},{"bike_id":"7dbea451-aa47-47ad-9205-bc038637dd05","system_id":"levelo_inurba_marseille","lat":43.30085,"lon":5.390856,"is_reserved":false,"is_disabled":false,"rental_uris":{"android":"levelo://app?vid=7dbea451-aa47-47ad-9205-bc038637dd05","ios":"levelo://app?vid=7dbea451-aa47-47ad-9205-bc038637dd05"},"vehicle_type_id":"4","last_reported":1689109598,"current_range_meters":8400,"station_id":"ce4bh192rcd13ifvqdb0","pricing_plan_id":"free"},{"bike_id":"9863f805-5732-466e-b569-3b47cd0a1c19","system_id":"levelo_inurba_marseille","lat":43.30087,"lon":5.39084,"is_reserved":false,"is_disabled":false,"rental_uris":{"android":"levelo://app?vid=9863f805-5732-466e-b569-3b47cd0a1c19","ios":"levelo://app?vid=9863f805-5732-466e-b569-3b47cd0a1c19"},"vehicle_type_id":"4","last_reported":1689109598,"current_range_meters":9200,"station_id":"ce4bh192rcd13ifvqdb0","pricing_plan_id":"free"},{"bike_id":"a3fab6c3-fb25-49cc-ab81-b1ef5a55e6d8","system_id":"levelo_inurba_marseille","lat":43.2918,"lon":5.3715,"is_reserved":false,"is_disabled":false,"rental_uris":{"android":"levelo://app?vid=a3fab6c3-fb25-49cc-ab81-b1ef5a55e6d8","ios":"levelo://app?vid=a3fab6c3-fb25-49cc-ab81-b1ef5a55e6d8"},"vehicle_type_id":"4","last_reported":1689109598,"current_range_meters":29200,"station_id":"","pricing_plan_id":"free"},{"bike_id":"bb91de81-7b0c-4777-b8aa-ba5985a3d67f","system_id":"levelo_inurba_marseille","lat":43.291675,"lon":5.371583,"is_reserved":false,"is_disabled":false,"rental_uris":{"android":"levelo://app?vid=bb91de81-7b0c-4777-b8aa-ba5985a3d67f","ios":"levelo://app?vid=bb91de81-7b0c-4777-b8aa-ba5985a3d67f"},"vehicle_type_id":"4","last_reported":1689109598,"current_range_meters":23200,"station_id":"ce4bha92rcd13ifvqeh0","pricing_plan_id":"free"},{"bike_id":"1d4893eb-198b-4536-aab8-30fae8dc9024","system_id":"levelo_inurba_marseille","lat":43.29869,"lon":5.38907,"is_reserved":false,"is_disabled":false,"rental_uris":{"android":"levelo://app?vid=1d4893eb-198b-4536-aab8-30fae8dc9024","ios":"levelo://app?vid=1d4893eb-198b-4536-aab8-30fae8dc9024"},"vehicle_type_id":"4","last_reported":1689109598,"current_range_meters":6400,"station_id":"ce4bh392rcd13ifvqdl0","pricing_plan_id":"free"},{"bike_id":"c52b987c-fce6-4b53-9cf7-0d62796e9591","system_id":"levelo_inurba_marseille","lat":43.309038,"lon":5.396546,"is_reserved":false,"is_disabled":false,"rental_uris":{"android":"levelo://app?vid=c52b987c-fce6-4b53-9cf7-0d62796e9591","ios":"levelo://app?vid=c52b987c-fce6-4b53-9cf7-0d62796e9591"},"vehicle_type_id":"4","last_reported":1689109598,"current_range_meters":22800,"station_id":"ce4bh012rcd13ifvqcv0","pricing_plan_id":"free"},{"bike_id":"0ed8cd50-c6e8-4ebf-8c01-946af589c176","system_id":"levelo_inurba_marseille","lat":43.309038,"lon":5.396546,"is_reserved":false,"is_disabled":false,"rental_uris":{"android":"levelo://app?vid=0ed8cd50-c6e8-4ebf-8c01-946af589c176","ios":"levelo://app?vid=0ed8cd50-c6e8-4ebf-8c01-946af589c176"},"vehicle_type_id":"4","last_reported":1689109598,"current_range_meters":0,"station_id":"ce4bh012rcd13ifvqcv0","pricing_plan_id":"free"},{"bike_id":"915cff38-3fc8-4f1b-808c-029b9808834f","system_id":"levelo_inurba_marseille","lat":43.31329,"lon":5.39688,"is_reserved":false,"is_disabled":false,"rental_uris":{"android":"levelo://app?vid=915cff38-3fc8-4f1b-808c-029b9808834f","ios":"levelo://app?vid=915cff38-3fc8-4f1b-808c-029b9808834f"},"vehicle_type_id":"4","last_reported":1689109598,"current_range_meters":15600,"station_id":"ce4bgvp2rcd13ifvqcu0","pricing_plan_id":"free"},{"bike_id":"4b5b355c-d3b0-43b4-a97a-8420684e37e1","system_id":"levelo_inurba_marseille","lat":43.31327,"lon":5.39693,"is_reserved":false,"is_disabled":false,"rental_uris":{"android":"levelo://app?vid=4b5b355c-d3b0-43b4-a97a-8420684e37e1","ios":"levelo://app?vid=4b5b355c-d3b0-43b4-a97a-8420684e37e1"},"vehicle_type_id":"4","last_reported":1689109598,"current_range_meters":21200,"station_id":"ce4bgvp2rcd13ifvqcu0","pricing_plan_id":"free"},{"bike_id":"2bf82982-d9af-46d7-9976-ba09391a217e","system_id":"levelo_inurba_marseille","lat":43.31327,"lon":5.39694,"is_reserved":false,"is_disabled":false,"rental_uris":{"android":"levelo://app?vid=2bf82982-d9af-46d7-9976-ba09391a217e","ios":"levelo://app?vid=2bf82982-d9af-46d7-9976-ba09391a217e"},"vehicle_type_id":"4","last_reported":1689109598,"current_range_meters":4800,"station_id":"","pricing_plan_id":"free"},{"bike_id":"9fa131c2-b7e2-4f76-9cfe-391a823298d3","system_id":"levelo_inurba_marseille","lat":43.31323,"lon":5.39695,"is_reserved":false,"is_disabled":false,"rental_uris":{"android":"levelo://app?vid=9fa131c2-b7e2-4f76-9cfe-391a823298d3","ios":"levelo://app?vid=9fa131c2-b7e2-4f76-9cfe-391a823298d3"},"vehicle_type_id":"4","last_reported":1689109598,"current_range_meters":18400,"station_id":"ce4bgvp2rcd13ifvqcu0","pricing_plan_id":"free"},{"bike_id":"7a6e4495-6612-49ed-a938-9f261ee9968e","system_id":"levelo_inurba_marseille","lat":43.31329,"lon":5.39695,"is_reserved":false,"is_disabled":false,"rental_uris":{"android":"levelo://app?vid=7a6e4495-6612-49ed-a938-9f261ee9968e","ios":"levelo://app?vid=7a6e4495-6612-49ed-a938-9f261ee9968e"},"vehicle_type_id":"4","last_reported":1689109598,"current_range_meters":22800,"station_id":"ce4bgvp2rcd13ifvqcu0","pricing_plan_id":"free"},{"bike_id":"ec8fae45-4583-498c-b917-0e4c674ca928","system_id":"levelo_inurba_marseille","lat":43.31334,"lon":5.39695,"is_reserved":false,"is_disabled":false,"rental_uris":{"android":"levelo://app?vid=ec8fae45-4583-498c-b917-0e4c674ca928","ios":"levelo://app?vid=ec8fae45-4583-498c-b917-0e4c674ca928"},"vehicle_type_id":"4","last_reported":1689109598,"current_range_meters":22400,"station_id":"ce4bgvp2rcd13ifvqcu0","pricing_plan_id":"free"},{"bike_id":"98126cae-3564-4fd8-81da-d31f3f94b0ae","system_id":"levelo_inurba_marseille","lat":43.31326,"lon":5.39696,"is_reserved":false,"is_disabled":false,"rental_uris":{"android":"levelo://app?vid=98126cae-3564-4fd8-81da-d31f3f94b0ae","ios":"levelo://app?vid=98126cae-3564-4fd8-81da-d31f3f94b0ae"},"vehicle_type_id":"4","last_reported":1689109598,"current_range_meters":8000,"station_id":"","pricing_plan_id":"free"},{"bike_id":"4bab8186-2c97-4c76-9f3f-e32f854ace41","system_id":"levelo_inurba_marseille","lat":43.31328,"lon":5.39696,"is_reserved":false,"is_disabled":false,"rental_uris":{"android":"levelo://app?vid=4bab8186-2c97-4c76-9f3f-e32f854ace41","ios":"levelo://app?vid=4bab8186-2c97-4c76-9f3f-e32f854ace41"},"vehicle_type_id":"4","last_reported":1689109598,"current_range_meters":29600,"station_id":"","pricing_plan_id":"free"},{"bike_id":"f53fa176-0e99-4fd9-b3ba-b339394ff628","system_id":"levelo_inurba_marseille","lat":43.31329,"lon":5.397,"is_reserved":false,"is_disabled":false,"rental_uris":{"android":"levelo://app?vid=f53fa176-0e99-4fd9-b3ba-b339394ff628","ios":"levelo://app?vid=f53fa176-0e99-4fd9-b3ba-b339394ff628"},"vehicle_type_id":"4","last_reported":1689109598,"current_range_meters":29600,"station_id":"ce4bgvp2rcd13ifvqcu0","pricing_plan_id":"free"},{"bike_id":"8723f5df-2358-47f7-8b40-e2a9c7afd798","system_id":"levelo_inurba_marseille","lat":43.30891,"lon":5.39655,"is_reserved":false,"is_disabled":false,"rental_uris":{"android":"levelo://app?vid=8723f5df-2358-47f7-8b40-e2a9c7afd798","ios":"levelo://app?vid=8723f5df-2358-47f7-8b40-e2a9c7afd798"},"vehicle_type_id":"4","last_reported":1689109598,"current_range_meters":25200,"station_id":"ce4bh012rcd13ifvqcv0","pricing_plan_id":"free"},{"bike_id":"3c6e02cd-275b-4a79-9c7e-8ac0aaec9f21","system_id":"levelo_inurba_marseille","lat":43.309038,"lon":5.396546,"is_reserved":false,"is_disabled":false,"rental_uris":{"android":"levelo://app?vid=3c6e02cd-275b-4a79-9c7e-8ac0aaec9f21","ios":"levelo://app?vid=3c6e02cd-275b-4a79-9c7e-8ac0aaec9f21"},"vehicle_type_id":"4","last_reported":1689109598,"current_range_meters":20000,"station_id":"ce4bh012rcd13ifvqcv0","pricing_plan_id":"free"},{"bike_id":"b01fb2d1-8167-4916-8969-df74ea46eb74","system_id":"levelo_inurba_marseille","lat":43.3133,"lon":5.39702,"is_reserved":false,"is_disabled":false,"rental_uris":{"android":"levelo://app?vid=b01fb2d1-8167-4916-8969-df74ea46eb74","ios":"levelo://app?vid=b01fb2d1-8167-4916-8969-df74ea46eb74"},"vehicle_type_id":"4","last_reported":1689109598,"current_range_meters":29600,"station_id":"ce4bgvp2rcd13ifvqcu0","pricing_plan_id":"free"},{"bike_id":"3ec620dc-8eb1-457b-b32d-cc2ca08c863c","system_id":"levelo_inurba_marseille","lat":43.3133,"lon":5.39704,"is_reserved":false,"is_disabled":false,"rental_uris":{"android":"levelo://app?vid=3ec620dc-8eb1-457b-b32d-cc2ca08c863c","ios":"levelo://app?vid=3ec620dc-8eb1-457b-b32d-cc2ca08c863c"},"vehicle_type_id":"4","last_reported":1689109598,"current_range_meters":11600,"station_id":"","pricing_plan_id":"free"},{"bike_id":"625a8a47-f0db-4cf4-a53f-0b1f2827062c","system_id":"levelo_inurba_marseille","lat":43.302008,"lon":5.394694,"is_reserved":false,"is_disabled":false,"rental_uris":{"android":"levelo://app?vid=625a8a47-f0db-4cf4-a53f-0b1f2827062c","ios":"levelo://app?vid=625a8a47-f0db-4cf4-a53f-0b1f2827062c"},"vehicle_type_id":"4","last_reported":1689109598,"current_range_meters":8400,"station_id":"ce4bh0p2rcd13ifvqd70","pricing_plan_id":"free"},{"bike_id":"03ffdf36-7a3f-4f5a-9972-1c63bfc538cd","system_id":"levelo_inurba_marseille","lat":43.29534,"lon":5.38534,"is_reserved":false,"is_disabled":false,"rental_uris":{"android":"levelo://app?vid=03ffdf36-7a3f-4f5a-9972-1c63bfc538cd","ios":"levelo://app?vid=03ffdf36-7a3f-4f5a-9972-1c63bfc538cd"},"vehicle_type_id":"4","last_reported":1689109598,"current_range_meters":18000,"station_id":"ce4bgih2rcd13ifvqba0","pricing_plan_id":"free"},{"bike_id":"f7633b20-e086-48d0-9bfc-c73f1952a3e2","system_id":"levelo_inurba_marseille","lat":43.29529,"lon":5.385581,"is_reserved":false,"is_disabled":false,"rental_uris":{"android":"levelo://app?vid=f7633b20-e086-48d0-9bfc-c73f1952a3e2","ios":"levelo://app?vid=f7633b20-e086-48d0-9bfc-c73f1952a3e2"},"vehicle_type_id":"4","last_reported":1689109598,"current_range_meters":12000,"station_id":"ce4bgih2rcd13ifvqba0","pricing_plan_id":"free"},{"bike_id":"69cf2ab9-e614-428e-817f-37681b13bf46","system_id":"levelo_inurba_marseille","lat":43.29529,"lon":5.385581,"is_reserved":false,"is_disabled":false,"rental_uris":{"android":"levelo://app?vid=69cf2ab9-e614-428e-817f-37681b13bf46","ios":"levelo://app?vid=69cf2ab9-e614-428e-817f-37681b13bf46"},"vehicle_type_id":"4","last_reported":1689109598,"current_range_meters":12800,"station_id":"ce4bgih2rcd13ifvqba0","pricing_plan_id":"free"},{"bike_id":"303de547-61f8-4869-b968-c38e5c25ac08","system_id":"levelo_inurba_marseille","lat":43.29529,"lon":5.385581,"is_reserved":false,"is_disabled":false,"rental_uris":{"android":"levelo://app?vid=303de547-61f8-4869-b968-c38e5c25ac08","ios":"levelo://app?vid=303de547-61f8-4869-b968-c38e5c25ac08"},"vehicle_type_id":"4","last_reported":1689109598,"current_range_meters":7200,"station_id":"ce4bgih2rcd13ifvqba0","pricing_plan_id":"free"},{"bike_id":"1097b665-5b6d-4589-9fa6-b53b833df08f","system_id":"levelo_inurba_marseille","lat":43.29529,"lon":5.385581,"is_reserved":false,"is_disabled":false,"rental_uris":{"android":"levelo://app?vid=1097b665-5b6d-4589-9fa6-b53b833df08f","ios":"levelo://app?vid=1097b665-5b6d-4589-9fa6-b53b833df08f"},"vehicle_type_id":"4","last_reported":1689109598,"current_range_meters":3600,"station_id":"ce4bgih2rcd13ifvqba0","pricing_plan_id":"free"},{"bike_id":"42e4e255-e85d-4920-b0ad-2caee016c71d","system_id":"levelo_inurba_marseille","lat":43.29529,"lon":5.385581,"is_reserved":false,"is_disabled":false,"rental_uris":{"android":"levelo://app?vid=42e4e255-e85d-4920-b0ad-2caee016c71d","ios":"levelo://app?vid=42e4e255-e85d-4920-b0ad-2caee016c71d"},"vehicle_type_id":"4","last_reported":1689109598,"current_range_meters":31600,"station_id":"ce4bgih2rcd13ifvqba0","pricing_plan_id":"free"},{"bike_id":"fe15e926-2769-4cc8-97d7-2d8c5929e3ed","system_id":"levelo_inurba_marseille","lat":43.29529,"lon":5.385581,"is_reserved":false,"is_disabled":false,"rental_uris":{"android":"levelo://app?vid=fe15e926-2769-4cc8-97d7-2d8c5929e3ed","ios":"levelo://app?vid=fe15e926-2769-4cc8-97d7-2d8c5929e3ed"},"vehicle_type_id":"4","last_reported":1689109598,"current_range_meters":11200,"station_id":"ce4bgih2rcd13ifvqba0","pricing_plan_id":"free"},{"bike_id":"5fec2354-7f39-47ef-9f55-2123558f0126","system_id":"levelo_inurba_marseille","lat":43.29529,"lon":5.385581,"is_reserved":false,"is_disabled":false,"rental_uris":{"android":"levelo://app?vid=5fec2354-7f39-47ef-9f55-2123558f0126","ios":"levelo://app?vid=5fec2354-7f39-47ef-9f55-2123558f0126"},"vehicle_type_id":"4","last_reported":1689109598,"current_range_meters":30800,"station_id":"ce4bgih2rcd13ifvqba0","pricing_plan_id":"free"},{"bike_id":"8bd49905-7b7a-40bd-9dde-0b1d5124caa5","system_id":"levelo_inurba_marseille","lat":43.29529,"lon":5.385581,"is_reserved":false,"is_disabled":false,"rental_uris":{"android":"levelo://app?vid=8bd49905-7b7a-40bd-9dde-0b1d5124caa5","ios":"levelo://app?vid=8bd49905-7b7a-40bd-9dde-0b1d5124caa5"},"vehicle_type_id":"4","last_reported":1689109598,"current_range_meters":14800,"station_id":"ce4bgih2rcd13ifvqba0","pricing_plan_id":"free"},{"bike_id":"15981934-95b9-4f6f-b73f-693e46292244","system_id":"levelo_inurba_marseille","lat":43.29529,"lon":5.385581,"is_reserved":false,"is_disabled":false,"rental_uris":{"android":"levelo://app?vid=15981934-95b9-4f6f-b73f-693e46292244","ios":"levelo://app?vid=15981934-95b9-4f6f-b73f-693e46292244"},"vehicle_type_id":"4","last_reported":1689109598,"current_range_meters":28800,"station_id":"ce4bgih2rcd13ifvqba0","pricing_plan_id":"free"},{"bike_id":"640a6a92-c2e9-46b1-bbde-da8bedc994db","system_id":"levelo_inurba_marseille","lat":43.29529,"lon":5.385581,"is_reserved":false,"is_disabled":false,"rental_uris":{"android":"levelo://app?vid=640a6a92-c2e9-46b1-bbde-da8bedc994db","ios":"levelo://app?vid=640a6a92-c2e9-46b1-bbde-da8bedc994db"},"vehicle_type_id":"4","last_reported":1689109598,"current_range_meters":21200,"station_id":"ce4bgih2rcd13ifvqba0","pricing_plan_id":"free"},{"bike_id":"f2a1dadb-1df4-496a-85a9-398c046d26d9","system_id":"levelo_inurba_marseille","lat":43.29529,"lon":5.385581,"is_reserved":false,"is_disabled":false,"rental_uris":{"android":"levelo://app?vid=f2a1dadb-1df4-496a-85a9-398c046d26d9","ios":"levelo://app?vid=f2a1dadb-1df4-496a-85a9-398c046d26d9"},"vehicle_type_id":"4","last_reported":1689109598,"current_range_meters":14800,"station_id":"ce4bgih2rcd13ifvqba0","pricing_plan_id":"free"},{"bike_id":"46b306e3-f68e-4a92-9b47-77bb18349585","system_id":"levelo_inurba_marseille","lat":43.29529,"lon":5.3854,"is_reserved":false,"is_disabled":false,"rental_uris":{"android":"levelo://app?vid=46b306e3-f68e-4a92-9b47-77bb18349585","ios":"levelo://app?vid=46b306e3-f68e-4a92-9b47-77bb18349585"},"vehicle_type_id":"4","last_reported":1689109598,"current_range_meters":400,"station_id":"ce4bgih2rcd13ifvqba0","pricing_plan_id":"free"},{"bike_id":"e72176aa-baca-4222-a5c0-9885110e22a1","system_id":"levelo_inurba_marseille","lat":43.29529,"lon":5.385581,"is_reserved":false,"is_disabled":false,"rental_uris":{"android":"levelo://app?vid=e72176aa-baca-4222-a5c0-9885110e22a1","ios":"levelo://app?vid=e72176aa-baca-4222-a5c0-9885110e22a1"},"vehicle_type_id":"4","last_reported":1689109598,"current_range_meters":28400,"station_id":"ce4bgih2rcd13ifvqba0","pricing_plan_id":"free"},{"bike_id":"50dd51f6-cda8-4bbb-88d1-c61974b4e28c","system_id":"levelo_inurba_marseille","lat":43.29529,"lon":5.385581,"is_reserved":false,"is_disabled":false,"rental_uris":{"android":"levelo://app?vid=50dd51f6-cda8-4bbb-88d1-c61974b4e28c","ios":"levelo://app?vid=50dd51f6-cda8-4bbb-88d1-c61974b4e28c"},"vehicle_type_id":"4","last_reported":1689109598,"current_range_meters":16400,"station_id":"ce4bgih2rcd13ifvqba0","pricing_plan_id":"free"},{"bike_id":"03f4c147-32d8-4d05-9f5b-4bdca1c0466c","system_id":"levelo_inurba_marseille","lat":43.29529,"lon":5.385581,"is_reserved":false,"is_disabled":false,"rental_uris":{"android":"levelo://app?vid=03f4c147-32d8-4d05-9f5b-4bdca1c0466c","ios":"levelo://app?vid=03f4c147-32d8-4d05-9f5b-4bdca1c0466c"},"vehicle_type_id":"4","last_reported":1689109598,"current_range_meters":3200,"station_id":"ce4bgih2rcd13ifvqba0","pricing_plan_id":"free"},{"bike_id":"ffddc38b-578d-4747-8327-a212ea425b8e","system_id":"levelo_inurba_marseille","lat":43.29529,"lon":5.385581,"is_reserved":false,"is_disabled":false,"rental_uris":{"android":"levelo://app?vid=ffddc38b-578d-4747-8327-a212ea425b8e","ios":"levelo://app?vid=ffddc38b-578d-4747-8327-a212ea425b8e"},"vehicle_type_id":"4","last_reported":1689109598,"current_range_meters":23200,"station_id":"ce4bgih2rcd13ifvqba0","pricing_plan_id":"free"},{"bike_id":"fdbcee35-701c-4e8e-8a70-b708d58efe74","system_id":"levelo_inurba_marseille","lat":43.29529,"lon":5.385581,"is_reserved":false,"is_disabled":false,"rental_uris":{"android":"levelo://app?vid=fdbcee35-701c-4e8e-8a70-b708d58efe74","ios":"levelo://app?vid=fdbcee35-701c-4e8e-8a70-b708d58efe74"},"vehicle_type_id":"4","last_reported":1689109598,"current_range_meters":5600,"station_id":"ce4bgih2rcd13ifvqba0","pricing_plan_id":"free"},{"bike_id":"3c3c8f95-b8b5-4a4e-b98d-5fa54daa54c5","system_id":"levelo_inurba_marseille","lat":43.290779,"lon":5.371482,"is_reserved":false,"is_disabled":false,"rental_uris":{"android":"levelo://app?vid=3c3c8f95-b8b5-4a4e-b98d-5fa54daa54c5","ios":"levelo://app?vid=3c3c8f95-b8b5-4a4e-b98d-5fa54daa54c5"},"vehicle_type_id":"4","last_reported":1689109598,"current_range_meters":5200,"station_id":"ce4bh5p2rcd13ifvqe4g","pricing_plan_id":"free"},{"bike_id":"99b79e11-dad6-42bd-bf24-40ea896a5242","system_id":"levelo_inurba_marseille","lat":43.29529,"lon":5.385581,"is_reserved":false,"is_disabled":false,"rental_uris":{"android":"levelo://app?vid=99b79e11-dad6-42bd-bf24-40ea896a5242","ios":"levelo://app?vid=99b79e11-dad6-42bd-bf24-40ea896a5242"},"vehicle_type_id":"4","last_reported":1689109598,"current_range_meters":21600,"station_id":"ce4bgih2rcd13ifvqba0","pricing_plan_id":"free"},{"bike_id":"a3fd8bb5-2c53-4533-ac29-a55164a86795","system_id":"levelo_inurba_marseille","lat":43.290779,"lon":5.371482,"is_reserved":false,"is_disabled":false,"rental_uris":{"android":"levelo://app?vid=a3fd8bb5-2c53-4533-ac29-a55164a86795","ios":"levelo://app?vid=a3fd8bb5-2c53-4533-ac29-a55164a86795"},"vehicle_type_id":"4","last_reported":1689109598,"current_range_meters":30000,"station_id":"ce4bh5p2rcd13ifvqe4g","pricing_plan_id":"free"},{"bike_id":"0c715a42-0067-4914-ad14-fda04259d94b","system_id":"levelo_inurba_marseille","lat":43.302008,"lon":5.394694,"is_reserved":false,"is_disabled":false,"rental_uris":{"android":"levelo://app?vid=0c715a42-0067-4914-ad14-fda04259d94b","ios":"levelo://app?vid=0c715a42-0067-4914-ad14-fda04259d94b"},"vehicle_type_id":"4","last_reported":1689109598,"current_range_meters":22800,"station_id":"ce4bh0p2rcd13ifvqd70","pricing_plan_id":"free"},{"bike_id":"efcd4501-614e-475f-a073-cf82a2a33fb8","system_id":"levelo_inurba_marseille","lat":43.302008,"lon":5.394694,"is_reserved":false,"is_disabled":false,"rental_uris":{"android":"levelo://app?vid=efcd4501-614e-475f-a073-cf82a2a33fb8","ios":"levelo://app?vid=efcd4501-614e-475f-a073-cf82a2a33fb8"},"vehicle_type_id":"4","last_reported":1689109598,"current_range_meters":30000,"station_id":"ce4bh0p2rcd13ifvqd70","pricing_plan_id":"free"},{"bike_id":"0a741ca7-65b5-46ef-b5a0-22356ebdce72","system_id":"levelo_inurba_marseille","lat":43.294153,"lon":5.386305,"is_reserved":false,"is_disabled":false,"rental_uris":{"android":"levelo://app?vid=0a741ca7-65b5-46ef-b5a0-22356ebdce72","ios":"levelo://app?vid=0a741ca7-65b5-46ef-b5a0-22356ebdce72"},"vehicle_type_id":"4","last_reported":1689109598,"current_range_meters":14400,"station_id":"ce4bh2h2rcd13ifvqdh0","pricing_plan_id":"free"},{"bike_id":"f484c98d-61a4-47a0-82a9-396463fbc8a3","system_id":"levelo_inurba_marseille","lat":43.294153,"lon":5.386305,"is_reserved":false,"is_disabled":false,"rental_uris":{"android":"levelo://app?vid=f484c98d-61a4-47a0-82a9-396463fbc8a3","ios":"levelo://app?vid=f484c98d-61a4-47a0-82a9-396463fbc8a3"},"vehicle_type_id":"4","last_reported":1689109598,"current_range_meters":3600,"station_id":"ce4bh2h2rcd13ifvqdh0","pricing_plan_id":"free"},{"bike_id":"ede58b65-690e-4bc8-87f4-f1e228a741bc","system_id":"levelo_inurba_marseille","lat":43.294162,"lon":5.386292,"is_reserved":false,"is_disabled":false,"rental_uris":{"android":"levelo://app?vid=ede58b65-690e-4bc8-87f4-f1e228a741bc","ios":"levelo://app?vid=ede58b65-690e-4bc8-87f4-f1e228a741bc"},"vehicle_type_id":"4","last_reported":1689109598,"current_range_meters":16400,"station_id":"ce4bh2h2rcd13ifvqdh0","pricing_plan_id":"free"},{"bike_id":"0820574b-5cb6-4f3c-a631-237783d57577","system_id":"levelo_inurba_marseille","lat":43.294153,"lon":5.386305,"is_reserved":false,"is_disabled":false,"rental_uris":{"android":"levelo://app?vid=0820574b-5cb6-4f3c-a631-237783d57577","ios":"levelo://app?vid=0820574b-5cb6-4f3c-a631-237783d57577"},"vehicle_type_id":"4","last_reported":1689109598,"current_range_meters":0,"station_id":"ce4bh2h2rcd13ifvqdh0","pricing_plan_id":"free"},{"bike_id":"2053ce3d-37b2-4629-81b9-16b77c2c11f5","system_id":"levelo_inurba_marseille","lat":43.294153,"lon":5.386305,"is_reserved":false,"is_disabled":false,"rental_uris":{"android":"levelo://app?vid=2053ce3d-37b2-4629-81b9-16b77c2c11f5","ios":"levelo://app?vid=2053ce3d-37b2-4629-81b9-16b77c2c11f5"},"vehicle_type_id":"4","last_reported":1689109598,"current_range_meters":11600,"station_id":"ce4bh2h2rcd13ifvqdh0","pricing_plan_id":"free"},{"bike_id":"d0a01c4f-05d8-4664-9894-0f39250b0c18","system_id":"levelo_inurba_marseille","lat":43.294153,"lon":5.386305,"is_reserved":false,"is_disabled":false,"rental_uris":{"android":"levelo://app?vid=d0a01c4f-05d8-4664-9894-0f39250b0c18","ios":"levelo://app?vid=d0a01c4f-05d8-4664-9894-0f39250b0c18"},"vehicle_type_id":"4","last_reported":1689109598,"current_range_meters":20400,"station_id":"ce4bh2h2rcd13ifvqdh0","pricing_plan_id":"free"},{"bike_id":"f06492f7-96af-4492-9f8c-a82517d9b9fc","system_id":"levelo_inurba_marseille","lat":43.294153,"lon":5.386305,"is_reserved":false,"is_disabled":false,"rental_uris":{"android":"levelo://app?vid=f06492f7-96af-4492-9f8c-a82517d9b9fc","ios":"levelo://app?vid=f06492f7-96af-4492-9f8c-a82517d9b9fc"},