{"last_updated":1719346086,"ttl":30,"version":"2.2","data":{"bikes":[{"bike_id":"43e9c0a3-16e8-4082-bbb3-92f881ea24e3","system_id":"levelo_inurba_marseille","lat":43.312239,"lon":5.368562,"is_reserved":false,"is_disabled":false,"rental_uris":{"android":"levelo://app?vid=43e9c0a3-16e8-4082-bbb3-92f881ea24e3","ios":"levelo://app?vid=43e9c0a3-16e8-4082-bbb3-92f881ea24e3"},"vehicle_type_id":"4","last_reported":1719346087,"current_range_meters":2800,"station_id":"ce4bgl92rcd13ifvqbq0","pricing_plan_id":"cebpf4jnsgd1na2vs0mg"},{"bike_id":"bcc3e4e7-49ad-4827-ad72-a8aac5cd29e6","system_id":"levelo_inurba_marseille","lat":43.31509,"lon":5.37089,"is_reserved":false,"is_disabled":false,"rental_uris":{"android":"levelo://app?vid=bcc3e4e7-49ad-4827-ad72-a8aac5cd29e6","ios":"levelo://app?vid=bcc3e4e7-49ad-4827-ad72-a8aac5cd29e6"},"vehicle_type_id":"4","last_reported":1719346087,"current_range_meters":18400,"station_id":"","pricing_plan_id":"cebpf4jnsgd1na2vs0mg"},{"bike_id":"ead18698-b369-4961-a1eb-ff90c633ea77","system_id":"levelo_inurba_marseille","lat":43.308035,"lon":5.373075,"is_reserved":false,"is_disabled":false,"rental_uris":{"android":"levelo://app?vid=ead18698-b369-4961-a1eb-ff90c633ea77","ios":"levelo://app?vid=ead18698-b369-4961-a1eb-ff90c633ea77"},"vehicle_type_id":"4","last_reported":1719346087,"current_range_meters":6000,"station_id":"","pricing_plan_id":"cebpf4jnsgd1na2vs0mg"},{"bike_id":"c41614f6-4c43-400a-a43f-883f59bd2101","system_id":"levelo_inurba_marseille","lat":43.30537,"lon":5.367345,"is_reserved":false,"is_disabled":false,"rental_uris":{"android":"levelo://app?vid=c41614f6-4c43-400a-a43f-883f59bd2101","ios":"levelo://app?vid=c41614f6-4c43-400a-a43f-883f59bd2101"},"vehicle_type_id":"4","last_reported":1719346087,"current_range_meters":3200,"station_id":"ce4bgrp2rcd13ifvqc9g","pricing_plan_id":"cebpf4jnsgd1na2vs0mg"},{"bike_id":"3c7f348b-4685-4360-af3c-7636805afce7","system_id":"levelo_inurba_marseille","lat":43.30537,"lon":5.367345,"is_reserved":false,"is_disabled":false,"rental_uris":{"android":"levelo://app?vid=3c7f348b-4685-4360-af3c-7636805afce7","ios":"levelo://app?vid=3c7f348b-4685-4360-af3c-7636805afce7"},"vehicle_type_id":"4","last_reported":1719346087,"current_range_meters":7200,"station_id":"ce4bgrp2rcd13ifvqc9g","pricing_plan_id":"cebpf4jnsgd1na2vs0mg"},{"bike_id":"47e18133-8ccb-4e72-9531-f4f12e1d429a","system_id":"levelo_inurba_marseille","lat":43.305368,"lon":5.367343,"is_reserved":false,"is_disabled":false,"rental_uris":{"android":"levelo://app?vid=47e18133-8ccb-4e72-9531-f4f12e1d429a","ios":"levelo://app?vid=47e18133-8ccb-4e72-9531-f4f12e1d429a"},"vehicle_type_id":"4","last_reported":1719346087,"current_range_meters":6800,"station_id":"ce4bgrp2rcd13ifvqc9g","pricing_plan_id":"cebpf4jnsgd1na2vs0mg"},{"bike_id":"08a8c5aa-4f0e-471f-b81a-f134248d3ec3","system_id":"levelo_inurba_marseille","lat":43.305989,"lon":5.37225,"is_reserved":false,"is_disabled":false,"rental_uris":{"android":"levelo://app?vid=08a8c5aa-4f0e-471f-b81a-f134248d3ec3","ios":"levelo://app?vid=08a8c5aa-4f0e-471f-b81a-f134248d3ec3"},"vehicle_type_id":"4","last_reported":1719346087,"current_range_meters":9200,"station_id":"ce4bgqh2rcd13ifvqc4g","pricing_plan_id":"cebpf4jnsgd1na2vs0mg"},{"bike_id":"0226d436-a586-4ead-a53e-5f645aea1350","system_id":"levelo_inurba_marseille","lat":43.305989,"lon":5.37225,"is_reserved":false,"is_disabled":false,"rental_uris":{"android":"levelo://app?vid=0226d436-a586-4ead-a53e-5f645aea1350","ios":"levelo://app?vid=0226d436-a586-4ead-a53e-5f645aea1350"},"vehicle_type_id":"4","last_reported":1719346087,"current_range_meters":31200,"station_id":"ce4bgqh2rcd13ifvqc4g","pricing_plan_id":"cebpf4jnsgd1na2vs0mg"},{"bike_id":"7af25567-72ec-453c-af81-4becf615c635","system_id":"levelo_inurba_marseille","lat":43.311131,"lon":5.377651,"is_reserved":false,"is_disabled":false,"rental_uris":{"android":"levelo://app?vid=7af25567-72ec-453c-af81-4becf615c635","ios":"levelo://app?vid=7af25567-72ec-453c-af81-4becf615c635"},"vehicle_type_id":"4","last_reported":1719346087,"current_range_meters":12400,"station_id":"ce4bgt92rcd13ifvqcg0","pricing_plan_id":"cebpf4jnsgd1na2vs0mg"},{"bike_id":"36c140fe-d18f-4ff5-be8f-386de33eddf0","system_id":"levelo_inurba_marseille","lat":43.311178,"lon":5.377647,"is_reserved":false,"is_disabled":false,"rental_uris":{"android":"levelo://app?vid=36c140fe-d18f-4ff5-be8f-386de33eddf0","ios":"levelo://app?vid=36c140fe-d18f-4ff5-be8f-386de33eddf0"},"vehicle_type_id":"4","last_reported":1719346087,"current_range_meters":28400,"station_id":"ce4bgt92rcd13ifvqcg0","pricing_plan_id":"cebpf4jnsgd1na2vs0mg"},{"bike_id":"cb4515fe-3b26-49b6-8b67-9bee9ae19e96","system_id":"levelo_inurba_marseille","lat":43.311198,"lon":5.377672,"is_reserved":false,"is_disabled":false,"rental_uris":{"android":"levelo://app?vid=cb4515fe-3b26-49b6-8b67-9bee9ae19e96","ios":"levelo://app?vid=cb4515fe-3b26-49b6-8b67-9bee9ae19e96"},"vehicle_type_id":"4","last_reported":1719346087,"current_range_meters":3600,"station_id":"","pricing_plan_id":"cebpf4jnsgd1na2vs0mg"},{"bike_id":"6eb20e78-f70b-4c35-96b7-ce45275fa3d0","system_id":"levelo_inurba_marseille","lat":43.311125,"lon":5.377624,"is_reserved":false,"is_disabled":false,"rental_uris":{"android":"levelo://app?vid=6eb20e78-f70b-4c35-96b7-ce45275fa3d0","ios":"levelo://app?vid=6eb20e78-f70b-4c35-96b7-ce45275fa3d0"},"vehicle_type_id":"4","last_reported":1719346087,"current_range_meters":6800,"station_id":"ce4bgt92rcd13ifvqcg0","pricing_plan_id":"cebpf4jnsgd1na2vs0mg"},{"bike_id":"7f5b54e1-3bb5-41a6-b510-3721826330be","system_id":"levelo_inurba_marseille","lat":43.30438,"lon":5.3689,"is_reserved":false,"is_disabled":false,"rental_uris":{"android":"levelo://app?vid=7f5b54e1-3bb5-41a6-b510-3721826330be","ios":"levelo://app?vid=7f5b54e1-3bb5-41a6-b510-3721826330be"},"vehicle_type_id":"4","last_reported":1719346087,"current_range_meters":27200,"station_id":"","pricing_plan_id":"cebpf4jnsgd1na2vs0mg"},{"bike_id":"d16a3b54-c575-4db1-b3bf-6198e4b72c96","system_id":"levelo_inurba_marseille","lat":43.307945,"lon":5.376487,"is_reserved":false,"is_disabled":false,"rental_uris":{"android":"levelo://app?vid=d16a3b54-c575-4db1-b3bf-6198e4b72c96","ios":"levelo://app?vid=d16a3b54-c575-4db1-b3bf-6198e4b72c96"},"vehicle_type_id":"4","last_reported":1719346087,"current_range_meters":24000,"station_id":"ce4bgv92rcd13ifvqcq0","pricing_plan_id":"cebpf4jnsgd1na2vs0mg"},{"bike_id":"7b47b3b9-4d4d-4eae-aa76-fb09447e625d","system_id":"levelo_inurba_marseille","lat":43.307945,"lon":5.376487,"is_reserved":false,"is_disabled":false,"rental_uris":{"android":"levelo://app?vid=7b47b3b9-4d4d-4eae-aa76-fb09447e625d","ios":"levelo://app?vid=7b47b3b9-4d4d-4eae-aa76-fb09447e625d"},"vehicle_type_id":"4","last_reported":1719346087,"current_range_meters":25600,"station_id":"ce4bgv92rcd13ifvqcq0","pricing_plan_id":"cebpf4jnsgd1na2vs0mg"},{"bike_id":"1df15546-7c90-47e6-958d-116ccedd6283","system_id":"levelo_inurba_marseille","lat":43.317075,"lon":5.377367,"is_reserved":false,"is_disabled":false,"rental_uris":{"android":"levelo://app?vid=1df15546-7c90-47e6-958d-116ccedd6283","ios":"levelo://app?vid=1df15546-7c90-47e6-958d-116ccedd6283"},"vehicle_type_id":"4","last_reported":1719346087,"current_range_meters":2800,"station_id":"ce4bgth2rcd13ifvqch0","pricing_plan_id":"cebpf4jnsgd1na2vs0mg"},{"bike_id":"75c11b24-dcf3-47b1-b646-5b323cad94dd","system_id":"levelo_inurba_marseille","lat":43.303046,"lon":5.368981,"is_reserved":false,"is_disabled":false,"rental_uris":{"android":"levelo://app?vid=75c11b24-dcf3-47b1-b646-5b323cad94dd","ios":"levelo://app?vid=75c11b24-dcf3-47b1-b646-5b323cad94dd"},"vehicle_type_id":"4","last_reported":1719346087,"current_range_meters":9200,"station_id":"ce4bgqh2rcd13ifvqc5g","pricing_plan_id":"cebpf4jnsgd1na2vs0mg"},{"bike_id":"bc94d466-5b4c-45f2-9ea0-d720e53bca80","system_id":"levelo_inurba_marseille","lat":43.315289,"lon":5.380349,"is_reserved":false,"is_disabled":false,"rental_uris":{"android":"levelo://app?vid=bc94d466-5b4c-45f2-9ea0-d720e53bca80","ios":"levelo://app?vid=bc94d466-5b4c-45f2-9ea0-d720e53bca80"},"vehicle_type_id":"4","last_reported":1719346087,"current_range_meters":8800,"station_id":"ce4bhsp2rcd13ifvqi50","pricing_plan_id":"cebpf4jnsgd1na2vs0mg"},{"bike_id":"ce3cd3b1-bec0-4adc-8d0d-cb3727c7cb2e","system_id":"levelo_inurba_marseille","lat":43.315289,"lon":5.380349,"is_reserved":false,"is_disabled":false,"rental_uris":{"android":"levelo://app?vid=ce3cd3b1-bec0-4adc-8d0d-cb3727c7cb2e","ios":"levelo://app?vid=ce3cd3b1-bec0-4adc-8d0d-cb3727c7cb2e"},"vehicle_type_id":"4","last_reported":1719346087,"current_range_meters":29600,"station_id":"ce4bhsp2rcd13ifvqi50","pricing_plan_id":"cebpf4jnsgd1na2vs0mg"},{"bike_id":"23eb8da3-cf58-4d3b-8ab5-e53b41886aa3","system_id":"levelo_inurba_marseille","lat":43.301939,"lon":5.366286,"is_reserved":false,"is_disabled":false,"rental_uris":{"android":"levelo://app?vid=23eb8da3-cf58-4d3b-8ab5-e53b41886aa3","ios":"levelo://app?vid=23eb8da3-cf58-4d3b-8ab5-e53b41886aa3"},"vehicle_type_id":"4","last_reported":1719346087,"current_range_meters":10000,"station_id":"ce4bgrh2rcd13ifvqc8g","pricing_plan_id":"cebpf4jnsgd1na2vs0mg"},{"bike_id":"79a1ce24-fd33-437d-9e7c-88b5d4d8ab1e","system_id":"levelo_inurba_marseille","lat":43.301939,"lon":5.366286,"is_reserved":false,"is_disabled":false,"rental_uris":{"android":"levelo://app?vid=79a1ce24-fd33-437d-9e7c-88b5d4d8ab1e","ios":"levelo://app?vid=79a1ce24-fd33-437d-9e7c-88b5d4d8ab1e"},"vehicle_type_id":"4","last_reported":1719346087,"current_range_meters":27600,"station_id":"ce4bgrh2rcd13ifvqc8g","pricing_plan_id":"cebpf4jnsgd1na2vs0mg"},{"bike_id":"8f17ac2a-a86b-497f-9519-f46cb81a8996","system_id":"levelo_inurba_marseille","lat":43.301939,"lon":5.366286,"is_reserved":false,"is_disabled":false,"rental_uris":{"android":"levelo://app?vid=8f17ac2a-a86b-497f-9519-f46cb81a8996","ios":"levelo://app?vid=8f17ac2a-a86b-497f-9519-f46cb81a8996"},"vehicle_type_id":"4","last_reported":1719346087,"current_range_meters":14400,"station_id":"ce4bgrh2rcd13ifvqc8g","pricing_plan_id":"cebpf4jnsgd1na2vs0mg"},{"bike_id":"da738374-e31e-4f0c-b3a7-73bef2992083","system_id":"levelo_inurba_marseille","lat":43.309371,"lon":5.401449,"is_reserved":false,"is_disabled":false,"rental_uris":{"android":"levelo://app?vid=da738374-e31e-4f0c-b3a7-73bef2992083","ios":"levelo://app?vid=da738374-e31e-4f0c-b3a7-73bef2992083"},"vehicle_type_id":"4","last_reported":1719346087,"current_range_meters":16800,"station_id":"ce4bgvp2rcd13ifvqct0","pricing_plan_id":"cebpf4jnsgd1na2vs0mg"},{"bike_id":"b623f183-e809-4bba-8799-b19429539e59","system_id":"levelo_inurba_marseille","lat":43.308012,"lon":5.381511,"is_reserved":false,"is_disabled":false,"rental_uris":{"android":"levelo://app?vid=b623f183-e809-4bba-8799-b19429539e59","ios":"levelo://app?vid=b623f183-e809-4bba-8799-b19429539e59"},"vehicle_type_id":"4","last_reported":1719346087,"current_range_meters":31600,"station_id":"ce4bgt12rcd13ifvqce0","pricing_plan_id":"cebpf4jnsgd1na2vs0mg"},{"bike_id":"864bb52d-89d1-41e0-9aeb-116204898887","system_id":"levelo_inurba_marseille","lat":43.324771,"lon":5.36557,"is_reserved":false,"is_disabled":false,"rental_uris":{"android":"levelo://app?vid=864bb52d-89d1-41e0-9aeb-116204898887","ios":"levelo://app?vid=864bb52d-89d1-41e0-9aeb-116204898887"},"vehicle_type_id":"4","last_reported":1719346087,"current_range_meters":30400,"station_id":"ce4bhs12rcd13ifvqhvg","pricing_plan_id":"cebpf4jnsgd1na2vs0mg"},{"bike_id":"8f9d76be-e091-4886-b1fd-16aaf5deb38e","system_id":"levelo_inurba_marseille","lat":43.324771,"lon":5.36557,"is_reserved":false,"is_disabled":false,"rental_uris":{"android":"levelo://app?vid=8f9d76be-e091-4886-b1fd-16aaf5deb38e","ios":"levelo://app?vid=8f9d76be-e091-4886-b1fd-16aaf5deb38e"},"vehicle_type_id":"4","last_reported":1719346087,"current_range_meters":9600,"station_id":"ce4bhs12rcd13ifvqhvg","pricing_plan_id":"cebpf4jnsgd1na2vs0mg"},{"bike_id":"c8170bb6-a2e2-4e02-b09e-8929f05ef0b6","system_id":"levelo_inurba_marseille","lat":43.324771,"lon":5.36557,"is_reserved":false,"is_disabled":false,"rental_uris":{"android":"levelo://app?vid=c8170bb6-a2e2-4e02-b09e-8929f05ef0b6","ios":"levelo://app?vid=c8170bb6-a2e2-4e02-b09e-8929f05ef0b6"},"vehicle_type_id":"4","last_reported":1719346087,"current_range_meters":6000,"station_id":"ce4bhs12rcd13ifvqhvg","pricing_plan_id":"cebpf4jnsgd1na2vs0mg"},{"bike_id":"a9f21f50-1daf-4542-bd0c-9c3e404897ef","system_id":"levelo_inurba_marseille","lat":43.324771,"lon":5.36557,"is_reserved":false,"is_disabled":false,"rental_uris":{"android":"levelo://app?vid=a9f21f50-1daf-4542-bd0c-9c3e404897ef","ios":"levelo://app?vid=a9f21f50-1daf-4542-bd0c-9c3e404897ef"},"vehicle_type_id":"4","last_reported":1719346087,"current_range_meters":4400,"station_id":"ce4bhs12rcd13ifvqhvg","pricing_plan_id":"cebpf4jnsgd1na2vs0mg"},{"bike_id":"6d67e90c-705e-4762-9200-680a9336fd32","system_id":"levelo_inurba_marseille","lat":43.310804,"lon":5.38359,"is_reserved":false,"is_disabled":false,"rental_uris":{"android":"levelo://app?vid=6d67e90c-705e-4762-9200-680a9336fd32","ios":"levelo://app?vid=6d67e90c-705e-4762-9200-680a9336fd32"},"vehicle_type_id":"4","last_reported":1719346087,"current_range_meters":20000,"station_id":"ce4bgv92rcd13ifvqcr0","pricing_plan_id":"cebpf4jnsgd1na2vs0mg"},{"bike_id":"14f2bd9b-2b1c-4cef-b1b8-2c4ba0f2d76a","system_id":"levelo_inurba_marseille","lat":43.30143,"lon":5.37413,"is_reserved":false,"is_disabled":false,"rental_uris":{"android":"levelo://app?vid=14f2bd9b-2b1c-4cef-b1b8-2c4ba0f2d76a","ios":"levelo://app?vid=14f2bd9b-2b1c-4cef-b1b8-2c4ba0f2d76a"},"vehicle_type_id":"4","last_reported":1719346087,"current_range_meters":2800,"station_id":"ce4bgs92rcd13ifvqcc0","pricing_plan_id":"cebpf4jnsgd1na2vs0mg"},{"bike_id":"bebc17bf-ab67-4e6f-a0e1-21a1c2ba5cea","system_id":"levelo_inurba_marseille","lat":43.319935,"lon":5.381699,"is_reserved":false,"is_disabled":false,"rental_uris":{"android":"levelo://app?vid=bebc17bf-ab67-4e6f-a0e1-21a1c2ba5cea","ios":"levelo://app?vid=bebc17bf-ab67-4e6f-a0e1-21a1c2ba5cea"},"vehicle_type_id":"4","last_reported":1719346087,"current_range_meters":400,"station_id":"ce4bhr12rcd13ifvqhpg","pricing_plan_id":"cebpf4jnsgd1na2vs0mg"},{"bike_id":"3aab7c96-6ffe-48fa-84bf-664f70cc6f2c","system_id":"levelo_inurba_marseille","lat":43.313571,"lon":5.384829,"is_reserved":false,"is_disabled":false,"rental_uris":{"android":"levelo://app?vid=3aab7c96-6ffe-48fa-84bf-664f70cc6f2c","ios":"levelo://app?vid=3aab7c96-6ffe-48fa-84bf-664f70cc6f2c"},"vehicle_type_id":"4","last_reported":1719346087,"current_range_meters":14000,"station_id":"ce4bgt92rcd13ifvqcf0","pricing_plan_id":"cebpf4jnsgd1na2vs0mg"},{"bike_id":"c7bdf379-00aa-4336-959c-5642af13e581","system_id":"levelo_inurba_marseille","lat":43.313571,"lon":5.384829,"is_reserved":false,"is_disabled":false,"rental_uris":{"android":"levelo://app?vid=c7bdf379-00aa-4336-959c-5642af13e581","ios":"levelo://app?vid=c7bdf379-00aa-4336-959c-5642af13e581"},"vehicle_type_id":"4","last_reported":1719346087,"current_range_meters":10800,"station_id":"ce4bgt92rcd13ifvqcf0","pricing_plan_id":"cebpf4jnsgd1na2vs0mg"},{"bike_id":"4e1058df-b64a-469f-90c6-72235ffa546c","system_id":"levelo_inurba_marseille","lat":43.31364,"lon":5.3849,"is_reserved":false,"is_disabled":false,"rental_uris":{"android":"levelo://app?vid=4e1058df-b64a-469f-90c6-72235ffa546c","ios":"levelo://app?vid=4e1058df-b64a-469f-90c6-72235ffa546c"},"vehicle_type_id":"4","last_reported":1719346087,"current_range_meters":16400,"station_id":"ce4bgt92rcd13ifvqcf0","pricing_plan_id":"cebpf4jnsgd1na2vs0mg"},{"bike_id":"ece79fe3-dd6e-43cc-8476-2a5c4824ca10","system_id":"levelo_inurba_marseille","lat":43.313571,"lon":5.384829,"is_reserved":false,"is_disabled":false,"rental_uris":{"android":"levelo://app?vid=ece79fe3-dd6e-43cc-8476-2a5c4824ca10","ios":"levelo://app?vid=ece79fe3-dd6e-43cc-8476-2a5c4824ca10"},"vehicle_type_id":"4","last_reported":1719346087,"current_range_meters":15200,"station_id":"ce4bgt92rcd13ifvqcf0","pricing_plan_id":"cebpf4jnsgd1na2vs0mg"},{"bike_id":"f1e3c460-33ce-403a-bb03-8a7f5ddb53e3","system_id":"levelo_inurba_marseille","lat":43.29875,"lon":5.364723,"is_reserved":false,"is_disabled":false,"rental_uris":{"android":"levelo://app?vid=f1e3c460-33ce-403a-bb03-8a7f5ddb53e3","ios":"levelo://app?vid=f1e3c460-33ce-403a-bb03-8a7f5ddb53e3"},"vehicle_type_id":"4","last_reported":1719346087,"current_range_meters":22400,"station_id":"","pricing_plan_id":"cebpf4jnsgd1na2vs0mg"},{"bike_id":"0ac34d10-96e1-4ac0-9782-10b118adb7b7","system_id":"levelo_inurba_marseille","lat":43.29846,"lon":5.3674,"is_reserved":false,"is_disabled":false,"rental_uris":{"android":"levelo://app?vid=0ac34d10-96e1-4ac0-9782-10b118adb7b7","ios":"levelo://app?vid=0ac34d10-96e1-4ac0-9782-10b118adb7b7"},"vehicle_type_id":"4","last_reported":1719346087,"current_range_meters":6000,"station_id":"","pricing_plan_id":"cebpf4jnsgd1na2vs0mg"},{"bike_id":"19d2c7fc-49c1-4346-a09e-630e75f693cf","system_id":"levelo_inurba_marseille","lat":43.30535,"lon":5.38401,"is_reserved":false,"is_disabled":false,"rental_uris":{"android":"levelo://app?vid=19d2c7fc-49c1-4346-a09e-630e75f693cf","ios":"levelo://app?vid=19d2c7fc-49c1-4346-a09e-630e75f693cf"},"vehicle_type_id":"4","last_reported":1719346087,"current_range_meters":15600,"station_id":"ce4bgg92rcd13ifvqb30","pricing_plan_id":"cebpf4jnsgd1na2vs0mg"},{"bike_id":"bf713f63-fd62-48eb-aa1e-2eab9e1e5c5b","system_id":"levelo_inurba_marseille","lat":43.298433,"lon":5.362774,"is_reserved":false,"is_disabled":false,"rental_uris":{"android":"levelo://app?vid=bf713f63-fd62-48eb-aa1e-2eab9e1e5c5b","ios":"levelo://app?vid=bf713f63-fd62-48eb-aa1e-2eab9e1e5c5b"},"vehicle_type_id":"4","last_reported":1719346087,"current_range_meters":30400,"station_id":"ce4bgpp2rcd13ifvqc3g","pricing_plan_id":"cebpf4jnsgd1na2vs0mg"},{"bike_id":"2f4022f4-776c-4bb4-ba1d-01a2bf52f366","system_id":"levelo_inurba_marseille","lat":43.305364,"lon":5.384119,"is_reserved":false,"is_disabled":false,"rental_uris":{"android":"levelo://app?vid=2f4022f4-776c-4bb4-ba1d-01a2bf52f366","ios":"levelo://app?vid=2f4022f4-776c-4bb4-ba1d-01a2bf52f366"},"vehicle_type_id":"4","last_reported":1719346087,"current_range_meters":2400,"station_id":"ce4bgg92rcd13ifvqb30","pricing_plan_id":"cebpf4jnsgd1na2vs0mg"},{"bike_id":"266d1d06-a273-4ed2-8c96-ed4644379e4b","system_id":"levelo_inurba_marseille","lat":43.30014,"lon":5.3771,"is_reserved":false,"is_disabled":false,"rental_uris":{"android":"levelo://app?vid=266d1d06-a273-4ed2-8c96-ed4644379e4b","ios":"levelo://app?vid=266d1d06-a273-4ed2-8c96-ed4644379e4b"},"vehicle_type_id":"4","last_reported":1719346087,"current_range_meters":6800,"station_id":"","pricing_plan_id":"cebpf4jnsgd1na2vs0mg"},{"bike_id":"b30c222d-f52e-42cb-ac95-851f65656057","system_id":"levelo_inurba_marseille","lat":43.311722,"lon":5.387247,"is_reserved":false,"is_disabled":false,"rental_uris":{"android":"levelo://app?vid=b30c222d-f52e-42cb-ac95-851f65656057","ios":"levelo://app?vid=b30c222d-f52e-42cb-ac95-851f65656057"},"vehicle_type_id":"4","last_reported":1719346087,"current_range_meters":0,"station_id":"ce4bgv12rcd13ifvqcp0","pricing_plan_id":"cebpf4jnsgd1na2vs0mg"},{"bike_id":"e7521d48-fa62-4296-9d38-2c54356d1ce1","system_id":"levelo_inurba_marseille","lat":43.311722,"lon":5.387247,"is_reserved":false,"is_disabled":false,"rental_uris":{"android":"levelo://app?vid=e7521d48-fa62-4296-9d38-2c54356d1ce1","ios":"levelo://app?vid=e7521d48-fa62-4296-9d38-2c54356d1ce1"},"vehicle_type_id":"4","last_reported":1719346087,"current_range_meters":23200,"station_id":"ce4bgv12rcd13ifvqcp0","pricing_plan_id":"cebpf4jnsgd1na2vs0mg"},{"bike_id":"429ee657-8ebb-4c79-871b-7f4a2e0b2389","system_id":"levelo_inurba_marseille","lat":43.299243,"lon":5.374807,"is_reserved":false,"is_disabled":false,"rental_uris":{"android":"levelo://app?vid=429ee657-8ebb-4c79-871b-7f4a2e0b2389","ios":"levelo://app?vid=429ee657-8ebb-4c79-871b-7f4a2e0b2389"},"vehicle_type_id":"4","last_reported":1719346087,"current_range_meters":19200,"station_id":"ce4bgjh2rcd13ifvqbg0","pricing_plan_id":"cebpf4jnsgd1na2vs0mg"},{"bike_id":"1d61f0b2-eaab-44b3-8b06-4b88aab63361","system_id":"levelo_inurba_marseille","lat":43.311722,"lon":5.387247,"is_reserved":false,"is_disabled":false,"rental_uris":{"android":"levelo://app?vid=1d61f0b2-eaab-44b3-8b06-4b88aab63361","ios":"levelo://app?vid=1d61f0b2-eaab-44b3-8b06-4b88aab63361"},"vehicle_type_id":"4","last_reported":1719346087,"current_range_meters":2000,"station_id":"ce4bgv12rcd13ifvqcp0","pricing_plan_id":"cebpf4jnsgd1na2vs0mg"},{"bike_id":"c832b964-5d0b-46f5-8e11-735d97946ebc","system_id":"levelo_inurba_marseille","lat":43.311848,"lon":5.387176,"is_reserved":false,"is_disabled":false,"rental_uris":{"android":"levelo://app?vid=c832b964-5d0b-46f5-8e11-735d97946ebc","ios":"levelo://app?vid=c832b964-5d0b-46f5-8e11-735d97946ebc"},"vehicle_type_id":"4","last_reported":1719346087,"current_range_meters":1200,"station_id":"ce4bgv12rcd13ifvqcp0","pricing_plan_id":"cebpf4jnsgd1na2vs0mg"},{"bike_id":"397d07e2-7d0f-4af9-bfbd-0a1526caab49","system_id":"levelo_inurba_marseille","lat":43.311722,"lon":5.387247,"is_reserved":false,"is_disabled":false,"rental_uris":{"android":"levelo://app?vid=397d07e2-7d0f-4af9-bfbd-0a1526caab49","ios":"levelo://app?vid=397d07e2-7d0f-4af9-bfbd-0a1526caab49"},"vehicle_type_id":"4","last_reported":1719346087,"current_range_meters":30800,"station_id":"ce4bgv12rcd13ifvqcp0","pricing_plan_id":"cebpf4jnsgd1na2vs0mg"},{"bike_id":"c8867ec8-5fb8-4574-8645-d1dc517918de","system_id":"levelo_inurba_marseille","lat":43.311722,"lon":5.387247,"is_reserved":false,"is_disabled":false,"rental_uris":{"android":"levelo://app?vid=c8867ec8-5fb8-4574-8645-d1dc517918de","ios":"levelo://app?vid=c8867ec8-5fb8-4574-8645-d1dc517918de"},"vehicle_type_id":"4","last_reported":1719346087,"current_range_meters":6000,"station_id":"ce4bgv12rcd13ifvqcp0","pricing_plan_id":"cebpf4jnsgd1na2vs0mg"},{"bike_id":"cf03bd92-68e7-4709-9ef8-133baf1e5858","system_id":"levelo_inurba_marseille","lat":43.297794,"lon":5.370888,"is_reserved":false,"is_disabled":false,"rental_uris":{"android":"levelo://app?vid=cf03bd92-68e7-4709-9ef8-133baf1e5858","ios":"levelo://app?vid=cf03bd92-68e7-4709-9ef8-133baf1e5858"},"vehicle_type_id":"4","last_reported":1719346087,"current_range_meters":26000,"station_id":"ce4bgop2rcd13ifvqc1g","pricing_plan_id":"cebpf4jnsgd1na2vs0mg"},{"bike_id":"ef4e475d-5be1-4696-a4dc-64caaab9ca44","system_id":"levelo_inurba_marseille","lat":43.322905,"lon":5.382605,"is_reserved":false,"is_disabled":false,"rental_uris":{"android":"levelo://app?vid=ef4e475d-5be1-4696-a4dc-64caaab9ca44","ios":"levelo://app?vid=ef4e475d-5be1-4696-a4dc-64caaab9ca44"},"vehicle_type_id":"4","last_reported":1719346087,"current_range_meters":21600,"station_id":"ce4bhr12rcd13ifvqhqg","pricing_plan_id":"cebpf4jnsgd1na2vs0mg"},{"bike_id":"e406fe5a-7dcd-4a4c-b887-f5c382e14000","system_id":"levelo_inurba_marseille","lat":43.322872,"lon":5.382756,"is_reserved":false,"is_disabled":false,"rental_uris":{"android":"levelo://app?vid=e406fe5a-7dcd-4a4c-b887-f5c382e14000","ios":"levelo://app?vid=e406fe5a-7dcd-4a4c-b887-f5c382e14000"},"vehicle_type_id":"4","last_reported":1719346087,"current_range_meters":28000,"station_id":"ce4bhr12rcd13ifvqhqg","pricing_plan_id":"cebpf4jnsgd1na2vs0mg"},{"bike_id":"7b088697-f624-4b41-aa95-73f77c59c884","system_id":"levelo_inurba_marseille","lat":43.322872,"lon":5.382756,"is_reserved":false,"is_disabled":false,"rental_uris":{"android":"levelo://app?vid=7b088697-f624-4b41-aa95-73f77c59c884","ios":"levelo://app?vid=7b088697-f624-4b41-aa95-73f77c59c884"},"vehicle_type_id":"4","last_reported":1719346087,"current_range_meters":22400,"station_id":"ce4bhr12rcd13ifvqhqg","pricing_plan_id":"cebpf4jnsgd1na2vs0mg"},{"bike_id":"c66ae0f1-919b-41cd-aba2-6bb7582b45ba","system_id":"levelo_inurba_marseille","lat":43.297163,"lon":5.365866,"is_reserved":false,"is_disabled":false,"rental_uris":{"android":"levelo://app?vid=c66ae0f1-919b-41cd-aba2-6bb7582b45ba","ios":"levelo://app?vid=c66ae0f1-919b-41cd-aba2-6bb7582b45ba"},"vehicle_type_id":"4","last_reported":1719346087,"current_range_meters":22800,"station_id":"ce4bgn12rcd13ifvqbt0","pricing_plan_id":"cebpf4jnsgd1na2vs0mg"},{"bike_id":"4137d1cd-a17f-4a69-9d09-a5fce377b9c6","system_id":"levelo_inurba_marseille","lat":43.29711,"lon":5.36799,"is_reserved":false,"is_disabled":false,"rental_uris":{"android":"levelo://app?vid=4137d1cd-a17f-4a69-9d09-a5fce377b9c6","ios":"levelo://app?vid=4137d1cd-a17f-4a69-9d09-a5fce377b9c6"},"vehicle_type_id":"4","last_reported":1719346087,"current_range_meters":22800,"station_id":"","pricing_plan_id":"cebpf4jnsgd1na2vs0mg"},{"bike_id":"8a3dee68-befb-495c-8c53-779d24084da1","system_id":"levelo_inurba_marseille","lat":43.297069,"lon":5.365468,"is_reserved":false,"is_disabled":false,"rental_uris":{"android":"levelo://app?vid=8a3dee68-befb-495c-8c53-779d24084da1","ios":"levelo://app?vid=8a3dee68-befb-495c-8c53-779d24084da1"},"vehicle_type_id":"4","last_reported":1719346087,"current_range_meters":26400,"station_id":"ce4bgn12rcd13ifvqbt0","pricing_plan_id":"cebpf4jnsgd1na2vs0mg"},{"bike_id":"168376db-915e-4adb-997e-4056391e328c","system_id":"levelo_inurba_marseille","lat":43.317557,"lon":5.390173,"is_reserved":false,"is_disabled":false,"rental_uris":{"android":"levelo://app?vid=168376db-915e-4adb-997e-4056391e328c","ios":"levelo://app?vid=168376db-915e-4adb-997e-4056391e328c"},"vehicle_type_id":"4","last_reported":1719346087,"current_range_meters":30400,"station_id":"ce4bhqp2rcd13ifvqhng","pricing_plan_id":"cebpf4jnsgd1na2vs0mg"},{"bike_id":"c4ddd791-a5a7-40aa-8d39-04636b1629de","system_id":"levelo_inurba_marseille","lat":43.29617,"lon":5.3714,"is_reserved":false,"is_disabled":false,"rental_uris":{"android":"levelo://app?vid=c4ddd791-a5a7-40aa-8d39-04636b1629de","ios":"levelo://app?vid=c4ddd791-a5a7-40aa-8d39-04636b1629de"},"vehicle_type_id":"4","last_reported":1719346087,"current_range_meters":21200,"station_id":"ce4bgnh2rcd13ifvqc0g","pricing_plan_id":"cebpf4jnsgd1na2vs0mg"},{"bike_id":"285a7ecd-462f-41d3-9179-2ac2e6d7df68","system_id":"levelo_inurba_marseille","lat":43.29573,"lon":5.367355,"is_reserved":false,"is_disabled":false,"rental_uris":{"android":"levelo://app?vid=285a7ecd-462f-41d3-9179-2ac2e6d7df68","ios":"levelo://app?vid=285a7ecd-462f-41d3-9179-2ac2e6d7df68"},"vehicle_type_id":"4","last_reported":1719346087,"current_range_meters":3200,"station_id":"ce4bgph2rcd13ifvqc2g","pricing_plan_id":"cebpf4jnsgd1na2vs0mg"},{"bike_id":"1c25b672-2ceb-450e-ab78-4639843b6ab0","system_id":"levelo_inurba_marseille","lat":43.29573,"lon":5.367355,"is_reserved":false,"is_disabled":false,"rental_uris":{"android":"levelo://app?vid=1c25b672-2ceb-450e-ab78-4639843b6ab0","ios":"levelo://app?vid=1c25b672-2ceb-450e-ab78-4639843b6ab0"},"vehicle_type_id":"4","last_reported":1719346087,"current_range_meters":7600,"station_id":"ce4bgph2rcd13ifvqc2g","pricing_plan_id":"cebpf4jnsgd1na2vs0mg"},{"bike_id":"13afed25-348c-4684-9a80-be9d51ca91be","system_id":"levelo_inurba_marseille","lat":43.299028,"lon":5.381509,"is_reserved":false,"is_disabled":false,"rental_uris":{"android":"levelo://app?vid=13afed25-348c-4684-9a80-be9d51ca91be","ios":"levelo://app?vid=13afed25-348c-4684-9a80-be9d51ca91be"},"vehicle_type_id":"4","last_reported":1719346087,"current_range_meters":31200,"station_id":"ce4bgj12rcd13ifvqbc0","pricing_plan_id":"cebpf4jnsgd1na2vs0mg"},{"bike_id":"6ee5280e-dda3-4df1-b4cf-586587564a2e","system_id":"levelo_inurba_marseille","lat":43.309589,"lon":5.390258,"is_reserved":false,"is_disabled":false,"rental_uris":{"android":"levelo://app?vid=6ee5280e-dda3-4df1-b4cf-586587564a2e","ios":"levelo://app?vid=6ee5280e-dda3-4df1-b4cf-586587564a2e"},"vehicle_type_id":"4","last_reported":1719346087,"current_range_meters":29200,"station_id":"ce4bgup2rcd13ifvqco0","pricing_plan_id":"cebpf4jnsgd1na2vs0mg"},{"bike_id":"abcbe861-e2ab-4b01-bad1-53a502544ec7","system_id":"levelo_inurba_marseille","lat":43.299028,"lon":5.381509,"is_reserved":false,"is_disabled":false,"rental_uris":{"android":"levelo://app?vid=abcbe861-e2ab-4b01-bad1-53a502544ec7","ios":"levelo://app?vid=abcbe861-e2ab-4b01-bad1-53a502544ec7"},"vehicle_type_id":"4","last_reported":1719346087,"current_range_meters":6000,"station_id":"ce4bgj12rcd13ifvqbc0","pricing_plan_id":"cebpf4jnsgd1na2vs0mg"},{"bike_id":"fa40e5cf-5d7f-4a93-b778-5b156efc381a","system_id":"levelo_inurba_marseille","lat":43.309589,"lon":5.390258,"is_reserved":false,"is_disabled":false,"rental_uris":{"android":"levelo://app?vid=fa40e5cf-5d7f-4a93-b778-5b156efc381a","ios":"levelo://app?vid=fa40e5cf-5d7f-4a93-b778-5b156efc381a"},"vehicle_type_id":"4","last_reported":1719346087,"current_range_meters":28000,"station_id":"ce4bgup2rcd13ifvqco0","pricing_plan_id":"cebpf4jnsgd1na2vs0mg"},{"bike_id":"94a727f8-e7a3-45d6-a3a5-db6219ad5036","system_id":"levelo_inurba_marseille","lat":43.309589,"lon":5.390258,"is_reserved":false,"is_disabled":false,"rental_uris":{"android":"levelo://app?vid=94a727f8-e7a3-45d6-a3a5-db6219ad5036","ios":"levelo://app?vid=94a727f8-e7a3-45d6-a3a5-db6219ad5036"},"vehicle_type_id":"4","last_reported":1719346087,"current_range_meters":0,"station_id":"ce4bgup2rcd13ifvqco0","pricing_plan_id":"cebpf4jnsgd1na2vs0mg"},{"bike_id":"936d2952-5276-4ec2-91f1-78d4a81cf73e","system_id":"levelo_inurba_marseille","lat":43.309589,"lon":5.390258,"is_reserved":false,"is_disabled":false,"rental_uris":{"android":"levelo://app?vid=936d2952-5276-4ec2-91f1-78d4a81cf73e","ios":"levelo://app?vid=936d2952-5276-4ec2-91f1-78d4a81cf73e"},"vehicle_type_id":"4","last_reported":1719346087,"current_range_meters":1200,"station_id":"ce4bgup2rcd13ifvqco0","pricing_plan_id":"cebpf4jnsgd1na2vs0mg"},{"bike_id":"eadd04b9-d727-4de6-9e9b-1cca2d35e3d8","system_id":"levelo_inurba_marseille","lat":43.309534,"lon":5.390354,"is_reserved":false,"is_disabled":false,"rental_uris":{"android":"levelo://app?vid=eadd04b9-d727-4de6-9e9b-1cca2d35e3d8","ios":"levelo://app?vid=eadd04b9-d727-4de6-9e9b-1cca2d35e3d8"},"vehicle_type_id":"4","last_reported":1719346087,"current_range_meters":28400,"station_id":"ce4bgup2rcd13ifvqco0","pricing_plan_id":"cebpf4jnsgd1na2vs0mg"},{"bike_id":"5cb83e32-5a7e-445f-a91b-710dfe3ecb61","system_id":"levelo_inurba_marseille","lat":43.299028,"lon":5.381509,"is_reserved":false,"is_disabled":false,"rental_uris":{"android":"levelo://app?vid=5cb83e32-5a7e-445f-a91b-710dfe3ecb61","ios":"levelo://app?vid=5cb83e32-5a7e-445f-a91b-710dfe3ecb61"},"vehicle_type_id":"4","last_reported":1719346087,"current_range_meters":31600,"station_id":"ce4bgj12rcd13ifvqbc0","pricing_plan_id":"cebpf4jnsgd1na2vs0mg"},{"bike_id":"731765dc-d9b0-4031-a13e-18cc1993c110","system_id":"levelo_inurba_marseille","lat":43.30952,"lon":5.39038,"is_reserved":false,"is_disabled":false,"rental_uris":{"android":"levelo://app?vid=731765dc-d9b0-4031-a13e-18cc1993c110","ios":"levelo://app?vid=731765dc-d9b0-4031-a13e-18cc1993c110"},"vehicle_type_id":"4","last_reported":1719346087,"current_range_meters":5200,"station_id":"ce4bgup2rcd13ifvqco0","pricing_plan_id":"cebpf4jnsgd1na2vs0mg"},{"bike_id":"63656785-85bf-47d1-9992-1643ab5592ac","system_id":"levelo_inurba_marseille","lat":43.30947,"lon":5.39037,"is_reserved":false,"is_disabled":false,"rental_uris":{"android":"levelo://app?vid=63656785-85bf-47d1-9992-1643ab5592ac","ios":"levelo://app?vid=63656785-85bf-47d1-9992-1643ab5592ac"},"vehicle_type_id":"4","last_reported":1719346087,"current_range_meters":0,"station_id":"ce4bgup2rcd13ifvqco0","pricing_plan_id":"cebpf4jnsgd1na2vs0mg"},{"bike_id":"d2a12e76-870e-4735-a962-e562c328809f","system_id":"levelo_inurba_marseille","lat":43.30958,"lon":5.3904,"is_reserved":false,"is_disabled":false,"rental_uris":{"android":"levelo://app?vid=d2a12e76-870e-4735-a962-e562c328809f","ios":"levelo://app?vid=d2a12e76-870e-4735-a962-e562c328809f"},"vehicle_type_id":"4","last_reported":1719346087,"current_range_meters":12000,"station_id":"ce4bgup2rcd13ifvqco0","pricing_plan_id":"cebpf4jnsgd1na2vs0mg"},{"bike_id":"07423f3c-c540-47e3-847a-94a8f88d48ba","system_id":"levelo_inurba_marseille","lat":43.30952,"lon":5.390398,"is_reserved":false,"is_disabled":false,"rental_uris":{"android":"levelo://app?vid=07423f3c-c540-47e3-847a-94a8f88d48ba","ios":"levelo://app?vid=07423f3c-c540-47e3-847a-94a8f88d48ba"},"vehicle_type_id":"4","last_reported":1719346087,"current_range_meters":0,"station_id":"ce4bgup2rcd13ifvqco0","pricing_plan_id":"cebpf4jnsgd1na2vs0mg"},{"bike_id":"5c37d585-6772-4b11-ba1c-0c73ea331e49","system_id":"levelo_inurba_marseille","lat":43.30954,"lon":5.39041,"is_reserved":false,"is_disabled":false,"rental_uris":{"android":"levelo://app?vid=5c37d585-6772-4b11-ba1c-0c73ea331e49","ios":"levelo://app?vid=5c37d585-6772-4b11-ba1c-0c73ea331e49"},"vehicle_type_id":"4","last_reported":1719346087,"current_range_meters":20000,"station_id":"ce4bgup2rcd13ifvqco0","pricing_plan_id":"cebpf4jnsgd1na2vs0mg"},{"bike_id":"671964b3-e4bd-43c5-9ca2-3f78bbc16a2f","system_id":"levelo_inurba_marseille","lat":43.31757,"lon":5.39014,"is_reserved":false,"is_disabled":false,"rental_uris":{"android":"levelo://app?vid=671964b3-e4bd-43c5-9ca2-3f78bbc16a2f","ios":"levelo://app?vid=671964b3-e4bd-43c5-9ca2-3f78bbc16a2f"},"vehicle_type_id":"4","last_reported":1719346087,"current_range_meters":10000,"station_id":"ce4bhqp2rcd13ifvqhng","pricing_plan_id":"cebpf4jnsgd1na2vs0mg"},{"bike_id":"2683d493-9f56-4d56-8fc0-8d8c1c5b7088","system_id":"levelo_inurba_marseille","lat":43.317557,"lon":5.390173,"is_reserved":false,"is_disabled":false,"rental_uris":{"android":"levelo://app?vid=2683d493-9f56-4d56-8fc0-8d8c1c5b7088","ios":"levelo://app?vid=2683d493-9f56-4d56-8fc0-8d8c1c5b7088"},"vehicle_type_id":"4","last_reported":1719346087,"current_range_meters":2000,"station_id":"ce4bhqp2rcd13ifvqhng","pricing_plan_id":"cebpf4jnsgd1na2vs0mg"},{"bike_id":"9406481e-5bb0-4f62-8b29-5b2b20a67475","system_id":"levelo_inurba_marseille","lat":43.298037,"lon":5.381066,"is_reserved":false,"is_disabled":false,"rental_uris":{"android":"levelo://app?vid=9406481e-5bb0-4f62-8b29-5b2b20a67475","ios":"levelo://app?vid=9406481e-5bb0-4f62-8b29-5b2b20a67475"},"vehicle_type_id":"4","last_reported":1719346087,"current_range_meters":28000,"station_id":"ce4bgip2rcd13ifvqbb0","pricing_plan_id":"cebpf4jnsgd1na2vs0mg"},{"bike_id":"92e05542-2b65-46fa-a4e2-07fb1441209a","system_id":"levelo_inurba_marseille","lat":43.304278,"lon":5.388868,"is_reserved":false,"is_disabled":false,"rental_uris":{"android":"levelo://app?vid=92e05542-2b65-46fa-a4e2-07fb1441209a","ios":"levelo://app?vid=92e05542-2b65-46fa-a4e2-07fb1441209a"},"vehicle_type_id":"4","last_reported":1719346087,"current_range_meters":11200,"station_id":"ce4bgk12rcd13ifvqbi0","pricing_plan_id":"cebpf4jnsgd1na2vs0mg"},{"bike_id":"34164724-f9ab-49ba-8e05-2b95fd7dae8d","system_id":"levelo_inurba_marseille","lat":43.30424,"lon":5.38888,"is_reserved":false,"is_disabled":false,"rental_uris":{"android":"levelo://app?vid=34164724-f9ab-49ba-8e05-2b95fd7dae8d","ios":"levelo://app?vid=34164724-f9ab-49ba-8e05-2b95fd7dae8d"},"vehicle_type_id":"4","last_reported":1719346087,"current_range_meters":10800,"station_id":"ce4bgk12rcd13ifvqbi0","pricing_plan_id":"cebpf4jnsgd1na2vs0mg"},{"bike_id":"a69969ed-0b35-4da0-b21c-9e65ddb070b0","system_id":"levelo_inurba_marseille","lat":43.295279,"lon":5.375048,"is_reserved":false,"is_disabled":false,"rental_uris":{"android":"levelo://app?vid=a69969ed-0b35-4da0-b21c-9e65ddb070b0","ios":"levelo://app?vid=a69969ed-0b35-4da0-b21c-9e65ddb070b0"},"vehicle_type_id":"4","last_reported":1719346087,"current_range_meters":21600,"station_id":"ce4bgkp2rcd13ifvqbmg","pricing_plan_id":"cebpf4jnsgd1na2vs0mg"},{"bike_id":"3d40af71-b3a2-45fe-b0c3-776931ac286c","system_id":"levelo_inurba_marseille","lat":43.29972,"lon":5.38483,"is_reserved":false,"is_disabled":false,"rental_uris":{"android":"levelo://app?vid=3d40af71-b3a2-45fe-b0c3-776931ac286c","ios":"levelo://app?vid=3d40af71-b3a2-45fe-b0c3-776931ac286c"},"vehicle_type_id":"4","last_reported":1719346087,"current_range_meters":26800,"station_id":"ce4bgj92rcd13ifvqbd0","pricing_plan_id":"cebpf4jnsgd1na2vs0mg"},{"bike_id":"f9f9a88d-198f-4418-abd4-6f37c190ebe6","system_id":"levelo_inurba_marseille","lat":43.299717,"lon":5.384845,"is_reserved":false,"is_disabled":false,"rental_uris":{"android":"levelo://app?vid=f9f9a88d-198f-4418-abd4-6f37c190ebe6","ios":"levelo://app?vid=f9f9a88d-198f-4418-abd4-6f37c190ebe6"},"vehicle_type_id":"4","last_reported":1719346087,"current_range_meters":26400,"station_id":"ce4bgj92rcd13ifvqbd0","pricing_plan_id":"cebpf4jnsgd1na2vs0mg"},{"bike_id":"e782252a-a8bb-464a-98ee-c97cd7fad142","system_id":"levelo_inurba_marseille","lat":43.299717,"lon":5.384845,"is_reserved":false,"is_disabled":false,"rental_uris":{"android":"levelo://app?vid=e782252a-a8bb-464a-98ee-c97cd7fad142","ios":"levelo://app?vid=e782252a-a8bb-464a-98ee-c97cd7fad142"},"vehicle_type_id":"4","last_reported":1719346087,"current_range_meters":16000,"station_id":"ce4bgj92rcd13ifvqbd0","pricing_plan_id":"cebpf4jnsgd1na2vs0mg"},{"bike_id":"85aca21b-61d4-4366-8ffb-350c78009b7a","system_id":"levelo_inurba_marseille","lat":43.30137,"lon":5.38837,"is_reserved":false,"is_disabled":false,"rental_uris":{"android":"levelo://app?vid=85aca21b-61d4-4366-8ffb-350c78009b7a","ios":"levelo://app?vid=85aca21b-61d4-4366-8ffb-350c78009b7a"},"vehicle_type_id":"4","last_reported":1719346087,"current_range_meters":0,"station_id":"","pricing_plan_id":"cebpf4jnsgd1na2vs0mg"},{"bike_id":"78ba79f5-4ba6-4e83-8ef0-0df84a04a66d","system_id":"levelo_inurba_marseille","lat":43.32367,"lon":5.388836,"is_reserved":false,"is_disabled":false,"rental_uris":{"android":"levelo://app?vid=78ba79f5-4ba6-4e83-8ef0-0df84a04a66d","ios":"levelo://app?vid=78ba79f5-4ba6-4e83-8ef0-0df84a04a66d"},"vehicle_type_id":"4","last_reported":1719346087,"current_range_meters":8800,"station_id":"ce4bhqp2rcd13ifvqhog","pricing_plan_id":"cebpf4jnsgd1na2vs0mg"},{"bike_id":"7ccd506a-3f6f-46eb-814f-1b107b5cabdf","system_id":"levelo_inurba_marseille","lat":43.32367,"lon":5.388836,"is_reserved":false,"is_disabled":false,"rental_uris":{"android":"levelo://app?vid=7ccd506a-3f6f-46eb-814f-1b107b5cabdf","ios":"levelo://app?vid=7ccd506a-3f6f-46eb-814f-1b107b5cabdf"},"vehicle_type_id":"4","last_reported":1719346087,"current_range_meters":14800,"station_id":"ce4bhqp2rcd13ifvqhog","pricing_plan_id":"cebpf4jnsgd1na2vs0mg"},{"bike_id":"4affbda8-37b3-48bd-b0db-c4b333ed899c","system_id":"levelo_inurba_marseille","lat":43.32367,"lon":5.388836,"is_reserved":false,"is_disabled":false,"rental_uris":{"android":"levelo://app?vid=4affbda8-37b3-48bd-b0db-c4b333ed899c","ios":"levelo://app?vid=4affbda8-37b3-48bd-b0db-c4b333ed899c"},"vehicle_type_id":"4","last_reported":1719346087,"current_range_meters":9600,"station_id":"ce4bhqp2rcd13ifvqhog","pricing_plan_id":"cebpf4jnsgd1na2vs0mg"},{"bike_id":"656dd60e-2c65-4fc2-b18d-31ac687c03a6","system_id":"levelo_inurba_marseille","lat":43.32367,"lon":5.388836,"is_reserved":false,"is_disabled":false,"rental_uris":{"android":"levelo://app?vid=656dd60e-2c65-4fc2-b18d-31ac687c03a6","ios":"levelo://app?vid=656dd60e-2c65-4fc2-b18d-31ac687c03a6"},"vehicle_type_id":"4","last_reported":1719346087,"current_range_meters":400,"station_id":"ce4bhqp2rcd13ifvqhog","pricing_plan_id":"cebpf4jnsgd1na2vs0mg"},{"bike_id":"399e10ba-652f-42b3-8462-ca5b86319acc","system_id":"levelo_inurba_marseille","lat":43.32367,"lon":5.388836,"is_reserved":false,"is_disabled":false,"rental_uris":{"android":"levelo://app?vid=399e10ba-652f-42b3-8462-ca5b86319acc","ios":"levelo://app?vid=399e10ba-652f-42b3-8462-ca5b86319acc"},"vehicle_type_id":"4","last_reported":1719346087,"current_range_meters":4800,"station_id":"ce4bhqp2rcd13ifvqhog","pricing_plan_id":"cebpf4jnsgd1na2vs0mg"},{"bike_id":"1e058a78-b650-47e5-a3a3-e41f3d7d055f","system_id":"levelo_inurba_marseille","lat":43.32367,"lon":5.388836,"is_reserved":false,"is_disabled":false,"rental_uris":{"android":"levelo://app?vid=1e058a78-b650-47e5-a3a3-e41f3d7d055f","ios":"levelo://app?vid=1e058a78-b650-47e5-a3a3-e41f3d7d055f"},"vehicle_type_id":"4","last_reported":1719346087,"current_range_meters":20800,"station_id":"ce4bhqp2rcd13ifvqhog","pricing_plan_id":"cebpf4jnsgd1na2vs0mg"},{"bike_id":"59434401-c241-40b0-af56-ec00df159534","system_id":"levelo_inurba_marseille","lat":43.29602,"lon":5.381084,"is_reserved":false,"is_disabled":false,"rental_uris":{"android":"levelo://app?vid=59434401-c241-40b0-af56-ec00df159534","ios":"levelo://app?vid=59434401-c241-40b0-af56-ec00df159534"},"vehicle_type_id":"4","last_reported":1719346087,"current_range_meters":28400,"station_id":"ce4bgl12rcd13ifvqbo0","pricing_plan_id":"cebpf4jnsgd1na2vs0mg"},{"bike_id":"ac196284-48b1-49bf-aa29-00b2a77da4d4","system_id":"levelo_inurba_marseille","lat":43.30198,"lon":5.38955,"is_reserved":false,"is_disabled":false,"rental_uris":{"android":"levelo://app?vid=ac196284-48b1-49bf-aa29-00b2a77da4d4","ios":"levelo://app?vid=ac196284-48b1-49bf-aa29-00b2a77da4d4"},"vehicle_type_id":"4","last_reported":1719346087,"current_range_meters":12800,"station_id":"","pricing_plan_id":"cebpf4jnsgd1na2vs0mg"},{"bike_id":"783bbee5-b94a-409a-be28-00dc873ec049","system_id":"levelo_inurba_marseille","lat":43.29309,"lon":5.37176,"is_reserved":false,"is_disabled":false,"rental_uris":{"android":"levelo://app?vid=783bbee5-b94a-409a-be28-00dc873ec049","ios":"levelo://app?vid=783bbee5-b94a-409a-be28-00dc873ec049"},"vehicle_type_id":"4","last_reported":1719346087,"current_range_meters":20800,"station_id":"ce4bgh92rcd13ifvqb40","pricing_plan_id":"cebpf4jnsgd1na2vs0mg"},{"bike_id":"21a4c8cc-63ab-436e-9a6e-a8c0deaf8457","system_id":"levelo_inurba_marseille","lat":43.29302,"lon":5.37445,"is_reserved":false,"is_disabled":false,"rental_uris":{"android":"levelo://app?vid=21a4c8cc-63ab-436e-9a6e-a8c0deaf8457","ios":"levelo://app?vid=21a4c8cc-63ab-436e-9a6e-a8c0deaf8457"},"vehicle_type_id":"4","last_reported":1719346087,"current_range_meters":0,"station_id":"ce4bgi12rcd13ifvqb70","pricing_plan_id":"cebpf4jnsgd1na2vs0mg"},{"bike_id":"aaaa4f70-12ef-4337-a99a-2b55f942daaf","system_id":"levelo_inurba_marseille","lat":43.293009,"lon":5.374584,"is_reserved":false,"is_disabled":false,"rental_uris":{"android":"levelo://app?vid=aaaa4f70-12ef-4337-a99a-2b55f942daaf","ios":"levelo://app?vid=aaaa4f70-12ef-4337-a99a-2b55f942daaf"},"vehicle_type_id":"4","last_reported":1719346087,"current_range_meters":0,"station_id":"ce4bgi12rcd13ifvqb70","pricing_plan_id":"cebpf4jnsgd1na2vs0mg"},{"bike_id":"4386f995-0b95-4da2-bda3-3a63e7d82e2a","system_id":"levelo_inurba_marseille","lat":43.293009,"lon":5.374584,"is_reserved":false,"is_disabled":false,"rental_uris":{"android":"levelo://app?vid=4386f995-0b95-4da2-bda3-3a63e7d82e2a","ios":"levelo://app?vid=4386f995-0b95-4da2-bda3-3a63e7d82e2a"},"vehicle_type_id":"4","last_reported":1719346087,"current_range_meters":18000,"station_id":"ce4bgi12rcd13ifvqb70","pricing_plan_id":"cebpf4jnsgd1na2vs0mg"},{"bike_id":"f24036c0-bf17-4099-9392-0699d424b8af","system_id":"levelo_inurba_marseille","lat":43.30601,"lon":5.39359,"is_reserved":false,"is_disabled":false,"rental_uris":{"android":"levelo://app?vid=f24036c0-bf17-4099-9392-0699d424b8af","ios":"levelo://app?vid=f24036c0-bf17-4099-9392-0699d424b8af"},"vehicle_type_id":"4","last_reported":1719346087,"current_range_meters":25200,"station_id":"ce4bh0p2rcd13ifvqd80","pricing_plan_id":"cebpf4jnsgd1na2vs0mg"},{"bike_id":"77a90b2f-3713-42c9-ac8b-a12c09b17707","system_id":"levelo_inurba_marseille","lat":43.305994,"lon":5.393687,"is_reserved":false,"is_disabled":false,"rental_uris":{"android":"levelo://app?vid=77a90b2f-3713-42c9-ac8b-a12c09b17707","ios":"levelo://app?vid=77a90b2f-3713-42c9-ac8b-a12c09b17707"},"vehicle_type_id":"4","last_reported":1719346087,"current_range_meters":17200,"station_id":"ce4bh0p2rcd13ifvqd80","pricing_plan_id":"cebpf4jnsgd1na2vs0mg"},{"bike_id":"cc125d5e-3987-4287-ad40-515b7f79fc9b","system_id":"levelo_inurba_marseille","lat":43.305994,"lon":5.393687,"is_reserved":false,"is_disabled":false,"rental_uris":{"android":"levelo://app?vid=cc125d5e-3987-4287-ad40-515b7f79fc9b","ios":"levelo://app?vid=cc125d5e-3987-4287-ad40-515b7f79fc9b"},"vehicle_type_id":"4","last_reported":1719346087,"current_range_meters":4000,"station_id":"ce4bh0p2rcd13ifvqd80","pricing_plan_id":"cebpf4jnsgd1na2vs0mg"},{"bike_id":"c896c3af-8352-465f-abc9-30a8bb892f19","system_id":"levelo_inurba_marseille","lat":43.305994,"lon":5.393687,"is_reserved":false,"is_disabled":false,"rental_uris":{"android":"levelo://app?vid=c896c3af-8352-465f-abc9-30a8bb892f19","ios":"levelo://app?vid=c896c3af-8352-465f-abc9-30a8bb892f19"},"vehicle_type_id":"4","last_reported":1719346087,"current_range_meters":23600,"station_id":"ce4bh0p2rcd13ifvqd80","pricing_plan_id":"cebpf4jnsgd1na2vs0mg"},{"bike_id":"ebf4e844-2240-41d8-be09-add8c6b1e6df","system_id":"levelo_inurba_marseille","lat":43.29292,"lon":5.37442,"is_reserved":false,"is_disabled":false,"rental_uris":{"android":"levelo://app?vid=ebf4e844-2240-41d8-be09-add8c6b1e6df","ios":"levelo://app?vid=ebf4e844-2240-41d8-be09-add8c6b1e6df"},"vehicle_type_id":"4","last_reported":1719346087,"current_range_meters":0,"station_id":"ce4bgi12rcd13ifvqb70","pricing_plan_id":"cebpf4jnsgd1na2vs0mg"},{"bike_id":"349fd7a1-e46f-4ba8-8aed-fbc7457f0207","system_id":"levelo_inurba_marseille","lat":43.30596,"lon":5.3936,"is_reserved":false,"is_disabled":false,"rental_uris":{"android":"levelo://app?vid=349fd7a1-e46f-4ba8-8aed-fbc7457f0207","ios":"levelo://app?vid=349fd7a1-e46f-4ba8-8aed-fbc7457f0207"},"vehicle_type_id":"4","last_reported":1719346087,"current_range_meters":9200,"station_id":"ce4bh0p2rcd13ifvqd80","pricing_plan_id":"cebpf4jnsgd1na2vs0mg"},{"bike_id":"823d6985-b40c-480e-bcb6-4a1af5e5e8b2","system_id":"levelo_inurba_marseille","lat":43.305994,"lon":5.393687,"is_reserved":false,"is_disabled":false,"rental_uris":{"android":"levelo://app?vid=823d6985-b40c-480e-bcb6-4a1af5e5e8b2","ios":"levelo://app?vid=823d6985-b40c-480e-bcb6-4a1af5e5e8b2"},"vehicle_type_id":"4","last_reported":1719346087,"current_range_meters":17200,"station_id":"ce4bh0p2rcd13ifvqd80","pricing_plan_id":"cebpf4jnsgd1na2vs0mg"},{"bike_id":"dbb352d9-5d5a-4102-b7a7-88bef8a98f1d","system_id":"levelo_inurba_marseille","lat":43.305994,"lon":5.393687,"is_reserved":false,"is_disabled":false,"rental_uris":{"android":"levelo://app?vid=dbb352d9-5d5a-4102-b7a7-88bef8a98f1d","ios":"levelo://app?vid=dbb352d9-5d5a-4102-b7a7-88bef8a98f1d"},"vehicle_type_id":"4","last_reported":1719346087,"current_range_meters":7600,"station_id":"ce4bh0p2rcd13ifvqd80","pricing_plan_id":"cebpf4jnsgd1na2vs0mg"},{"bike_id":"0564b916-855b-4699-a18f-34b8fe5e7692","system_id":"levelo_inurba_marseille","lat":43.305994,"lon":5.393687,"is_reserved":false,"is_disabled":false,"rental_uris":{"android":"levelo://app?vid=0564b916-855b-4699-a18f-34b8fe5e7692","ios":"levelo://app?vid=0564b916-855b-4699-a18f-34b8fe5e7692"},"vehicle_type_id":"4","last_reported":1719346087,"current_range_meters":16000,"station_id":"ce4bh0p2rcd13ifvqd80","pricing_plan_id":"cebpf4jnsgd1na2vs0mg"},{"bike_id":"894c13b7-5975-4162-a636-585a78833a80","system_id":"levelo_inurba_marseille","lat":43.305994,"lon":5.393687,"is_reserved":false,"is_disabled":false,"rental_uris":{"android":"levelo://app?vid=894c13b7-5975-4162-a636-585a78833a80","ios":"levelo://app?vid=894c13b7-5975-4162-a636-585a78833a80"},"vehicle_type_id":"4","last_reported":1719346087,"current_range_meters":19600,"station_id":"ce4bh0p2rcd13ifvqd80","pricing_plan_id":"cebpf4jnsgd1na2vs0mg"},{"bike_id":"6252092e-2fca-4057-85ba-06394f0c1f42","system_id":"levelo_inurba_marseille","lat":43.306,"lon":5.39366,"is_reserved":false,"is_disabled":false,"rental_uris":{"android":"levelo://app?vid=6252092e-2fca-4057-85ba-06394f0c1f42","ios":"levelo://app?vid=6252092e-2fca-4057-85ba-06394f0c1f42"},"vehicle_type_id":"4","last_reported":1719346087,"current_range_meters":18400,"station_id":"ce4bh0p2rcd13ifvqd80","pricing_plan_id":"cebpf4jnsgd1na2vs0mg"},{"bike_id":"a3cf6b1f-c323-4a5e-a7b7-02abd2f2aa82","system_id":"levelo_inurba_marseille","lat":43.305994,"lon":5.393687,"is_reserved":false,"is_disabled":false,"rental_uris":{"android":"levelo://app?vid=a3cf6b1f-c323-4a5e-a7b7-02abd2f2aa82","ios":"levelo://app?vid=a3cf6b1f-c323-4a5e-a7b7-02abd2f2aa82"},"vehicle_type_id":"4","last_reported":1719346087,"current_range_meters":27200,"station_id":"ce4bh0p2rcd13ifvqd80","pricing_plan_id":"cebpf4jnsgd1na2vs0mg"},{"bike_id":"477ba3ea-4a3e-4de7-9026-d8a1ecf5c4da","system_id":"levelo_inurba_marseille","lat":43.303002,"lon":5.392142,"is_reserved":false,"is_disabled":false,"rental_uris":{"android":"levelo://app?vid=477ba3ea-4a3e-4de7-9026-d8a1ecf5c4da","ios":"levelo://app?vid=477ba3ea-4a3e-4de7-9026-d8a1ecf5c4da"},"vehicle_type_id":"4","last_reported":1719346087,"current_range_meters":15600,"station_id":"ce4bgkh2rcd13ifvqbk0","pricing_plan_id":"cebpf4jnsgd1na2vs0mg"},{"bike_id":"7a75199e-da3d-48b2-9c7d-8acbeae2457b","system_id":"levelo_inurba_marseille","lat":43.303002,"lon":5.392142,"is_reserved":false,"is_disabled":false,"rental_uris":{"android":"levelo://app?vid=7a75199e-da3d-48b2-9c7d-8acbeae2457b","ios":"levelo://app?vid=7a75199e-da3d-48b2-9c7d-8acbeae2457b"},"vehicle_type_id":"4","last_reported":1719346087,"current_range_meters":25200,"station_id":"ce4bgkh2rcd13ifvqbk0","pricing_plan_id":"cebpf4jnsgd1na2vs0mg"},{"bike_id":"f1ab1fa4-3986-44bc-af10-2f0f58c91ec5","system_id":"levelo_inurba_marseille","lat":43.302992,"lon":5.392136,"is_reserved":false,"is_disabled":false,"rental_uris":{"android":"levelo://app?vid=f1ab1fa4-3986-44bc-af10-2f0f58c91ec5","ios":"levelo://app?vid=f1ab1fa4-3986-44bc-af10-2f0f58c91ec5"},"vehicle_type_id":"4","last_reported":1719346087,"current_range_meters":18800,"station_id":"ce4bgkh2rcd13ifvqbk0","pricing_plan_id":"cebpf4jnsgd1na2vs0mg"},{"bike_id":"0aceceb7-6ef6-4421-bc23-28f98436b046","system_id":"levelo_inurba_marseille","lat":43.303002,"lon":5.392142,"is_reserved":false,"is_disabled":false,"rental_uris":{"android":"levelo://app?vid=0aceceb7-6ef6-4421-bc23-28f98436b046","ios":"levelo://app?vid=0aceceb7-6ef6-4421-bc23-28f98436b046"},"vehicle_type_id":"4","last_reported":1719346087,"current_range_meters":31200,"station_id":"ce4bgkh2rcd13ifvqbk0","pricing_plan_id":"cebpf4jnsgd1na2vs0mg"},{"bike_id":"2ff8886f-30b2-4678-ba4b-8bb54277f2df","system_id":"levelo_inurba_marseille","lat":43.303002,"lon":5.392142,"is_reserved":false,"is_disabled":false,"rental_uris":{"android":"levelo://app?vid=2ff8886f-30b2-4678-ba4b-8bb54277f2df","ios":"levelo://app?vid=2ff8886f-30b2-4678-ba4b-8bb54277f2df"},"vehicle_type_id":"4","last_reported":1719346087,"current_range_meters":13600,"station_id":"ce4bgkh2rcd13ifvqbk0","pricing_plan_id":"cebpf4jnsgd1na2vs0mg"},{"bike_id":"9937be2c-ae11-42fd-8bde-b515f69f8789","system_id":"levelo_inurba_marseille","lat":43.303002,"lon":5.392142,"is_reserved":false,"is_disabled":false,"rental_uris":{"android":"levelo://app?vid=9937be2c-ae11-42fd-8bde-b515f69f8789","ios":"levelo://app?vid=9937be2c-ae11-42fd-8bde-b515f69f8789"},"vehicle_type_id":"4","last_reported":1719346087,"current_range_meters":31600,"station_id":"ce4bgkh2rcd13ifvqbk0","pricing_plan_id":"cebpf4jnsgd1na2vs0mg"},{"bike_id":"c1b5abeb-d46f-4e2c-8cb0-cb952d939879","system_id":"levelo_inurba_marseille","lat":43.29214,"lon":5.36368,"is_reserved":false,"is_disabled":false,"rental_uris":{"android":"levelo://app?vid=c1b5abeb-d46f-4e2c-8cb0-cb952d939879","ios":"levelo://app?vid=c1b5abeb-d46f-4e2c-8cb0-cb952d939879"},"vehicle_type_id":"4","last_reported":1719346087,"current_range_meters":0,"station_id":"","pricing_plan_id":"cebpf4jnsgd1na2vs0mg"},{"bike_id":"1f399bc3-8d74-49d2-9fc3-a4000fa819b8","system_id":"levelo_inurba_marseille","lat":43.303002,"lon":5.392142,"is_reserved":false,"is_disabled":false,"rental_uris":{"android":"levelo://app?vid=1f399bc3-8d74-49d2-9fc3-a4000fa819b8","ios":"levelo://app?vid=1f399bc3-8d74-49d2-9fc3-a4000fa819b8"},"vehicle_type_id":"4","last_reported":1719346087,"current_range_meters":22400,"station_id":"ce4bgkh2rcd13ifvqbk0","pricing_plan_id":"cebpf4jnsgd1na2vs0mg"},{"bike_id":"06310f01-4d7b-4fcf-ae43-ac4c8b968515","system_id":"levelo_inurba_marseille","lat":43.302992,"lon":5.392136,"is_reserved":false,"is_disabled":false,"rental_uris":{"android":"levelo://app?vid=06310f01-4d7b-4fcf-ae43-ac4c8b968515","ios":"levelo://app?vid=06310f01-4d7b-4fcf-ae43-ac4c8b968515"},"vehicle_type_id":"4","last_reported":1719346087,"current_range_meters":24800,"station_id":"ce4bgkh2rcd13ifvqbk0","pricing_plan_id":"cebpf4jnsgd1na2vs0mg"},{"bike_id":"bfc49aa0-c986-45b1-a85b-c1700561d146","system_id":"levelo_inurba_marseille","lat":43.302992,"lon":5.392136,"is_reserved":false,"is_disabled":false,"rental_uris":{"android":"levelo://app?vid=bfc49aa0-c986-45b1-a85b-c1700561d146","ios":"levelo://app?vid=bfc49aa0-c986-45b1-a85b-c1700561d146"},"vehicle_type_id":"4","last_reported":1719346087,"current_range_meters":27200,"station_id":"ce4bgkh2rcd13ifvqbk0","pricing_plan_id":"cebpf4jnsgd1na2vs0mg"},{"bike_id":"9fb18325-b58f-4e02-9474-f04828fc200a","system_id":"levelo_inurba_marseille","lat":43.302992,"lon":5.392136,"is_reserved":false,"is_disabled":false,"rental_uris":{"android":"levelo://app?vid=9fb18325-b58f-4e02-9474-f04828fc200a","ios":"levelo://app?vid=9fb18325-b58f-4e02-9474-f04828fc200a"},"vehicle_type_id":"4","last_reported":1719346087,"current_range_meters":3600,"station_id":"ce4bgkh2rcd13ifvqbk0","pricing_plan_id":"cebpf4jnsgd1na2vs0mg"},{"bike_id":"c6b7ea29-4e91-4aa7-90a5-efc9268f6140","system_id":"levelo_inurba_marseille","lat":43.302992,"lon":5.392136,"is_reserved":false,"is_disabled":false,"rental_uris":{"android":"levelo://app?vid=c6b7ea29-4e91-4aa7-90a5-efc9268f6140","ios":"levelo://app?vid=c6b7ea29-4e91-4aa7-90a5-efc9268f6140"},"vehicle_type_id":"4","last_reported":1719346087,"current_range_meters":15200,"station_id":"ce4bgkh2rcd13ifvqbk0","pricing_plan_id":"cebpf4jnsgd1na2vs0mg"},{"bike_id":"8967ec41-d10a-4c9a-8ab2-bc8074288f9b","system_id":"levelo_inurba_marseille","lat":43.302992,"lon":5.392136,"is_reserved":false,"is_disabled":false,"rental_uris":{"android":"levelo://app?vid=8967ec41-d10a-4c9a-8ab2-bc8074288f9b","ios":"levelo://app?vid=8967ec41-d10a-4c9a-8ab2-bc8074288f9b"},"vehicle_type_id":"4","last_reported":1719346087,"current_range_meters":23200,"station_id":"ce4bgkh2rcd13ifvqbk0","pricing_plan_id":"cebpf4jnsgd1na2vs0mg"},{"bike_id":"2f99d0bf-bfd1-4032-bb9f-c0d6a918f2f5","system_id":"levelo_inurba_marseille","lat":43.302992,"lon":5.392136,"is_reserved":false,"is_disabled":false,"rental_uris":{"android":"levelo://app?vid=2f99d0bf-bfd1-4032-bb9f-c0d6a918f2f5","ios":"levelo://app?vid=2f99d0bf-bfd1-4032-bb9f-c0d6a918f2f5"},"vehicle_type_id":"4","last_reported":1719346087,"current_range_meters":10400,"station_id":"ce4bgkh2rcd13ifvqbk0","pricing_plan_id":"cebpf4jnsgd1na2vs0mg"},{"bike_id":"dd10b544-ff6d-4cb3-a77e-c505900a1235","system_id":"levelo_inurba_marseille","lat":43.302992,"lon":5.392136,"is_reserved":false,"is_disabled":false,"rental_uris":{"android":"levelo://app?vid=dd10b544-ff6d-4cb3-a77e-c505900a1235","ios":"levelo://app?vid=dd10b544-ff6d-4cb3-a77e-c505900a1235"},"vehicle_type_id":"4","last_reported":1719346087,"current_range_meters":6000,"station_id":"ce4bgkh2rcd13ifvqbk0","pricing_plan_id":"cebpf4jnsgd1na2vs0mg"},{"bike_id":"8b2d923f-6750-44e9-a442-76a8bf35177a","system_id":"levelo_inurba_marseille","lat":43.293009,"lon":5.374584,"is_reserved":false,"is_disabled":false,"rental_uris":{"android":"levelo://app?vid=8b2d923f-6750-44e9-a442-76a8bf35177a","ios":"levelo://app?vid=8b2d923f-6750-44e9-a442-76a8bf35177a"},"vehicle_type_id":"4","last_reported":1719346087,"current_range_meters":27200,"station_id":"ce4bgi12rcd13ifvqb70","pricing_plan_id":"cebpf4jnsgd1na2vs0mg"},{"bike_id":"c8c86717-4261-46da-acc8-9f0d95d461a4","system_id":"levelo_inurba_marseille","lat":43.2936,"lon":5.37835,"is_reserved":false,"is_disabled":false,"rental_uris":{"android":"levelo://app?vid=c8c86717-4261-46da-acc8-9f0d95d461a4","ios":"levelo://app?vid=c8c86717-4261-46da-acc8-9f0d95d461a4"},"vehicle_type_id":"4","last_reported":1719346087,"current_range_meters":15200,"station_id":"ce4bgjh2rcd13ifvqbf0","pricing_plan_id":"cebpf4jnsgd1na2vs0mg"},{"bike_id":"798bc117-4fab-4148-ac0d-9f482d8c963a","system_id":"levelo_inurba_marseille","lat":43.300852,"lon":5.390859,"is_reserved":false,"is_disabled":false,"rental_uris":{"android":"levelo://app?vid=798bc117-4fab-4148-ac0d-9f482d8c963a","ios":"levelo://app?vid=798bc117-4fab-4148-ac0d-9f482d8c963a"},"vehicle_type_id":"4","last_reported":1719346087,"current_range_meters":26400,"station_id":"ce4bh192rcd13ifvqdb0","pricing_plan_id":"cebpf4jnsgd1na2vs0mg"},{"bike_id":"144d3148-abde-4032-a81e-0aa4f689db89","system_id":"levelo_inurba_marseille","lat":43.298764,"lon":5.388973,"is_reserved":false,"is_disabled":false,"rental_uris":{"android":"levelo://app?vid=144d3148-abde-4032-a81e-0aa4f689db89","ios":"levelo://app?vid=144d3148-abde-4032-a81e-0aa4f689db89"},"vehicle_type_id":"4","last_reported":1719346087,"current_range_meters":17200,"station_id":"ce4bh392rcd13ifvqdl0","pricing_plan_id":"cebpf4jnsgd1na2vs0mg"},{"bike_id":"0c840783-f4e0-4d76-b93d-b357c2ee4a15","system_id":"levelo_inurba_marseille","lat":43.298764,"lon":5.388973,"is_reserved":false,"is_disabled":false,"rental_uris":{"android":"levelo://app?vid=0c840783-f4e0-4d76-b93d-b357c2ee4a15","ios":"levelo://app?vid=0c840783-f4e0-4d76-b93d-b357c2ee4a15"},"vehicle_type_id":"4","last_reported":1719346087,"current_range_meters":21600,"station_id":"ce4bh392rcd13ifvqdl0","pricing_plan_id":"cebpf4jnsgd1na2vs0mg"},{"bike_id":"fcb624e4-3dfd-4a8d-aeae-dea95303512a","system_id":"levelo_inurba_marseille","lat":43.298764,"lon":5.388973,"is_reserved":false,"is_disabled":false,"rental_uris":{"android":"levelo://app?vid=fcb624e4-3dfd-4a8d-aeae-dea95303512a","ios":"levelo://app?vid=fcb624e4-3dfd-4a8d-aeae-dea95303512a"},"vehicle_type_id":"4","last_reported":1719346087,"current_range_meters":10400,"station_id":"ce4bh392rcd13ifvqdl0","pricing_plan_id":"cebpf4jnsgd1na2vs0mg"},{"bike_id":"1d481842-6d8b-44ee-9c30-5f901048bcbd","system_id":"levelo_inurba_marseille","lat":43.298764,"lon":5.388973,"is_reserved":false,"is_disabled":false,"rental_uris":{"android":"levelo://app?vid=1d481842-6d8b-44ee-9c30-5f901048bcbd","ios":"levelo://app?vid=1d481842-6d8b-44ee-9c30-5f901048bcbd"},"vehicle_type_id":"4","last_reported":1719346087,"current_range_meters":24800,"station_id":"ce4bh392rcd13ifvqdl0","pricing_plan_id":"cebpf4jnsgd1na2vs0mg"},{"bike_id":"cd218dcc-8779-412d-bccc-ac2534b488c9","system_id":"levelo_inurba_marseille","lat":43.30879,"lon":5.396313,"is_reserved":false,"is_disabled":false,"rental_uris":{"android":"levelo://app?vid=cd218dcc-8779-412d-bccc-ac2534b488c9","ios":"levelo://app?vid=cd218dcc-8779-412d-bccc-ac2534b488c9"},"vehicle_type_id":"4","last_reported":1719346087,"current_range_meters":5200,"station_id":"ce4bh012rcd13ifvqcv0","pricing_plan_id":"cebpf4jnsgd1na2vs0mg"},{"bike_id":"27a241f8-4c6d-40d1-b6ea-7a2c41a8e5fa","system_id":"levelo_inurba_marseille","lat":43.30872,"lon":5.39632,"is_reserved":false,"is_disabled":false,"rental_uris":{"android":"levelo://app?vid=27a241f8-4c6d-40d1-b6ea-7a2c41a8e5fa","ios":"levelo://app?vid=27a241f8-4c6d-40d1-b6ea-7a2c41a8e5fa"},"vehicle_type_id":"4","last_reported":1719346087,"current_range_meters":24000,"station_id":"ce4bh012rcd13ifvqcv0","pricing_plan_id":"cebpf4jnsgd1na2vs0mg"},{"bike_id":"1e349e8d-5810-42a9-93e5-f33392c6d20b","system_id":"levelo_inurba_marseille","lat":43.30883,"lon":5.39635,"is_reserved":false,"is_disabled":false,"rental_uris":{"android":"levelo://app?vid=1e349e8d-5810-42a9-93e5-f33392c6d20b","ios":"levelo://app?vid=1e349e8d-5810-42a9-93e5-f33392c6d20b"},"vehicle_type_id":"4","last_reported":1719346087,"current_range_meters":22000,"station_id":"ce4bh012rcd13ifvqcv0","pricing_plan_id":"cebpf4jnsgd1na2vs0mg"},{"bike_id":"c8fe6185-d141-4084-b481-c81ef152b952","system_id":"levelo_inurba_marseille","lat":43.30883,"lon":5.39635,"is_reserved":false,"is_disabled":false,"rental_uris":{"android":"levelo://app?vid=c8fe6185-d141-4084-b481-c81ef152b952","ios":"levelo://app?vid=c8fe6185-d141-4084-b481-c81ef152b952"},"vehicle_type_id":"4","last_reported":1719346087,"current_range_meters":14000,"station_id":"ce4bh012rcd13ifvqcv0","pricing_plan_id":"cebpf4jnsgd1na2vs0mg"},{"bike_id":"c872b8f2-b96e-496d-841b-69c5ec304ba9","system_id":"levelo_inurba_marseille","lat":43.30875,"lon":5.39634,"is_reserved":false,"is_disabled":false,"rental_uris":{"android":"levelo://app?vid=c872b8f2-b96e-496d-841b-69c5ec304ba9","ios":"levelo://app?vid=c872b8f2-b96e-496d-841b-69c5ec304ba9"},"vehicle_type_id":"4","last_reported":1719346087,"current_range_meters":16800,"station_id":"ce4bh012rcd13ifvqcv0","pricing_plan_id":"cebpf4jnsgd1na2vs0mg"},{"bike_id":"04403c5c-d6d8-4bbf-9b3d-de9176215cae","system_id":"levelo_inurba_marseille","lat":43.308895,"lon":5.39639,"is_reserved":false,"is_disabled":false,"rental_uris":{"android":"levelo://app?vid=04403c5c-d6d8-4bbf-9b3d-de9176215cae","ios":"levelo://app?vid=04403c5c-d6d8-4bbf-9b3d-de9176215cae"},"vehicle_type_id":"4","last_reported":1719346087,"current_range_meters":6400,"station_id":"ce4bh012rcd13ifvqcv0","pricing_plan_id":"cebpf4jnsgd1na2vs0mg"},{"bike_id":"c884f945-f22d-4c2c-9dd2-f448f4942627","system_id":"levelo_inurba_marseille","lat":43.313291,"lon":5.396838,"is_reserved":false,"is_disabled":false,"rental_uris":{"android":"levelo://app?vid=c884f945-f22d-4c2c-9dd2-f448f4942627","ios":"levelo://app?vid=c884f945-f22d-4c2c-9dd2-f448f4942627"},"vehicle_type_id":"4","last_reported":1719346087,"current_range_meters":13600,"station_id":"ce4bgvp2rcd13ifvqcu0","pricing_plan_id":"cebpf4jnsgd1na2vs0mg"},{"bike_id":"f34346e4-ef7c-420a-af67-07668581a31a","system_id":"levelo_inurba_marseille","lat":43.313309,"lon":5.396915,"is_reserved":false,"is_disabled":false,"rental_uris":{"android":"levelo://app?vid=f34346e4-ef7c-420a-af67-07668581a31a","ios":"levelo://app?vid=f34346e4-ef7c-420a-af67-07668581a31a"},"vehicle_type_id":"4","last_reported":1719346087,"current_range_meters":0,"station_id":"ce4bgvp2rcd13ifvqcu0","pricing_plan_id":"cebpf4jnsgd1na2vs0mg"},{"bike_id":"9fab94a2-463f-4a54-ae35-b80838c45d03","system_id":"levelo_inurba_marseille","lat":43.30871,"lon":5.39641,"is_reserved":false,"is_disabled":false,"rental_uris":{"android":"levelo://app?vid=9fab94a2-463f-4a54-ae35-b80838c45d03","ios":"levelo://app?vid=9fab94a2-463f-4a54-ae35-b80838c45d03"},"vehicle_type_id":"4","last_reported":1719346087,"current_range_meters":5600,"station_id":"ce4bh012rcd13ifvqcv0","pricing_plan_id":"cebpf4jnsgd1na2vs0mg"},{"bike_id":"ab1f8257-d003-4964-b234-20766c29ae5a","system_id":"levelo_inurba_marseille","lat":43.31328,"lon":5.39694,"is_reserved":false,"is_disabled":false,"rental_uris":{"android":"levelo://app?vid=ab1f8257-d003-4964-b234-20766c29ae5a","ios":"levelo://app?vid=ab1f8257-d003-4964-b234-20766c29ae5a"},"vehicle_type_id":"4","last_reported":1719346087,"current_range_meters":3600,"station_id":"ce4bgvp2rcd13ifvqcu0","pricing_plan_id":"cebpf4jnsgd1na2vs0mg"},{"bike_id":"d0fa3130-0457-44ce-a1bc-c8726395a49d","system_id":"levelo_inurba_marseille","lat":43.308869,"lon":5.396494,"is_reserved":false,"is_disabled":false,"rental_uris":{"android":"levelo://app?vid=d0fa3130-0457-44ce-a1bc-c8726395a49d","ios":"levelo://app?vid=d0fa3130-0457-44ce-a1bc-c8726395a49d"},"vehicle_type_id":"4","last_reported":1719346087,"current_range_meters":20800,"station_id":"ce4bh012rcd13ifvqcv0","pricing_plan_id":"cebpf4jnsgd1na2vs0mg"},{"bike_id":"4acfb75b-3d73-42ab-9725-7d5c031c478b","system_id":"levelo_inurba_marseille","lat":43.313291,"lon":5.396838,"is_reserved":false,"is_disabled":false,"rental_uris":{"android":"levelo://app?vid=4acfb75b-3d73-42ab-9725-7d5c031c478b","ios":"levelo://app?vid=4acfb75b-3d73-42ab-9725-7d5c031c478b"},"vehicle_type_id":"4","last_reported":1719346087,"current_range_meters":12800,"station_id":"ce4bgvp2rcd13ifvqcu0","pricing_plan_id":"cebpf4jnsgd1na2vs0mg"},{"bike_id":"15ec709a-9f52-4f21-80f7-87fa54dd8f0f","system_id":"levelo_inurba_marseille","lat":43.30891,"lon":5.39652,"is_reserved":false,"is_disabled":false,"rental_uris":{"android":"levelo://app?vid=15ec709a-9f52-4f21-80f7-87fa54dd8f0f","ios":"levelo://app?vid=15ec709a-9f52-4f21-80f7-87fa54dd8f0f"},"vehicle_type_id":"4","last_reported":1719346087,"current_range_meters":8000,"station_id":"ce4bh012rcd13ifvqcv0","pricing_plan_id":"cebpf4jnsgd1na2vs0mg"},{"bike_id":"cdb3d257-c279-48ba-9ab4-339949597400","system_id":"levelo_inurba_marseille","lat":43.31327,"lon":5.39698,"is_reserved":false,"is_disabled":false,"rental_uris":{"android":"levelo://app?vid=cdb3d257-c279-48ba-9ab4-339949597400","ios":"levelo://app?vid=cdb3d257-c279-48ba-9ab4-339949597400"},"vehicle_type_id":"4","last_reported":1719346087,"current_range_meters":21600,"station_id":"ce4bgvp2rcd13ifvqcu0","pricing_plan_id":"cebpf4jnsgd1na2vs0mg"},{"bike_id":"387c2116-d782-4414-be34-c7fa53a33b12","system_id":"levelo_inurba_marseille","lat":43.309038,"lon":5.396546,"is_reserved":false,"is_disabled":false,"rental_uris":{"android":"levelo://app?vid=387c2116-d782-4414-be34-c7fa53a33b12","ios":"levelo://app?vid=387c2116-d782-4414-be34-c7fa53a33b12"},"vehicle_type_id":"4","last_reported":1719346087,"current_range_meters":10400,"station_id":"ce4bh012rcd13ifvqcv0","pricing_plan_id":"cebpf4jnsgd1na2vs0mg"},{"bike_id":"f30bb35a-e9ec-442e-9038-524c00653a4b","system_id":"levelo_inurba_marseille","lat":43.30888,"lon":5.39657,"is_reserved":false,"is_disabled":false,"rental_uris":{"android":"levelo://app?vid=f30bb35a-e9ec-442e-9038-524c00653a4b","ios":"levelo://app?vid=f30bb35a-e9ec-442e-9038-524c00653a4b"},"vehicle_type_id":"4","last_reported":1719346087,"current_range_meters":2400,"station_id":"ce4bh012rcd13ifvqcv0","pricing_plan_id":"cebpf4jnsgd1na2vs0mg"},{"bike_id":"ab1ef7f8-5a8a-4700-b29e-c69dff5bc4f9","system_id":"levelo_inurba_marseille","lat":43.309038,"lon":5.396546,"is_reserved":false,"is_disabled":false,"rental_uris":{"android":"levelo://app?vid=ab1ef7f8-5a8a-4700-b29e-c69dff5bc4f9","ios":"levelo://app?vid=ab1ef7f8-5a8a-4700-b29e-c69dff5bc4f9"},"vehicle_type_id":"4","last_reported":1719346087,"current_range_meters":24800,"station_id":"ce4bh012rcd13ifvqcv0","pricing_plan_id":"cebpf4jnsgd1na2vs0mg"},{"bike_id":"b4269249-b13d-455e-acf7-572c2cefe819","system_id":"levelo_inurba_marseille","lat":43.29529,"lon":5.385581,"is_reserved":false,"is_disabled":false,"rental_uris":{"android":"levelo://app?vid=b4269249-b13d-455e-acf7-572c2cefe819","ios":"levelo://app?vid=b4269249-b13d-455e-acf7-572c2cefe819"},"vehicle_type_id":"4","last_reported":1719346087,"current_range_meters":30000,"station_id":"ce4bgih2rcd13ifvqba0","pricing_plan_id":"cebpf4jnsgd1na2vs0mg"},{"bike_id":"092b78f5-41c1-4aba-8d99-cbb54238a3a0","system_id":"levelo_inurba_marseille","lat":43.30902,"lon":5.39677,"is_reserved":false,"is_disabled":false,"rental_uris":{"android":"levelo://app?vid=092b78f5-41c1-4aba-8d99-cbb54238a3a0","ios":"levelo://app?vid=092b78f5-41c1-4aba-8d99-cbb54238a3a0"},"vehicle_type_id":"4","last_reported":1719346087,"current_range_meters":20400,"station_id":"ce4bh012rcd13ifvqcv0","pricing_plan_id":"cebpf4jnsgd1na2vs0mg"},{"bike_id":"7a82ef36-b7f7-4e7b-9939-b44df7972460","system_id":"levelo_inurba_marseille","lat":43.29529,"lon":5.385581,"is_reserved":false,"is_disabled":false,"rental_uris":{"android":"levelo://app?vid=7a82ef36-b7f7-4e7b-9939-b44df7972460","ios":"levelo://app?vid=7a82ef36-b7f7-4e7b-9939-b44df7972460"},"vehicle_type_id":"4","last_reported":1719346087,"current_range_meters":8000,"station_id":"ce4bgih2rcd13ifvqba0","pricing_plan_id":"cebpf4jnsgd1na2vs0mg"},{"bike_id":"bed714ff-61c1-430a-b625-fb3479af5364","system_id":"levelo_inurba_marseille","lat":43.29529,"lon":5.385581,"is_reserved":false,"is_disabled":false,"rental_uris":{"android":"levelo://app?vid=bed714ff-61c1-430a-b625-fb3479af5364","ios":"levelo://app?vid=bed714ff-61c1-430a-b625-fb3479af5364"},"vehicle_type_id":"4","last_reported":1719346087,"current_range_meters":26800,"station_id":"ce4bgih2rcd13ifvqba0","pricing_plan_id":"cebpf4jnsgd1na2vs0mg"},{"bike_id":"59013b30-0bc6-4af4-9490-ef69fa6fb930","system_id":"levelo_inurba_marseille","lat":43.290779,"lon":5.371482,"is_reserved":false,"is_disabled":false,"rental_uris":{"android":"levelo://app?vid=59013b30-0bc6-4af4-9490-ef69fa6fb930","ios":"levelo://app?vid=59013b30-0bc6-4af4-9490-ef69fa6fb930"},"vehicle_type_id":"4","last_reported":1719346087,"current_range_meters":0,"station_id":"ce4bh5p2rcd13ifvqe4g","pricing_plan_id":"cebpf4jnsgd1na2vs0mg"},{"bike_id":"379e1ac5-3c92-4fe6-b232-8612c747da2f","system_id":"levelo_inurba_marseille","lat":43.302008,"lon":5.394694,"is_reserved":false,"is_disabled":false,"rental_uris":{"android":"levelo://app?vid=379e1ac5-3c92-4fe6-b232-8612c747da2f","ios":"levelo://app?vid=379e1ac5-3c92-4fe6-b232-8612c747da2f"},"vehicle_type_id":"4","last_reported":1719346087,"current_range_meters":13600,"station_id":"ce4bh0p2rcd13ifvqd70","pricing_plan_id":"cebpf4jnsgd1na2vs0mg"},{"bike_id":"8ae86ad7-f3c6-46ec-9032-81344059886f","system_id":"levelo_inurba_marseille","lat":43.289468,"lon":5.363719,"is_reserved":false,"is_disabled":false,"rental_uris":{"android":"levelo://app?vid=8ae86ad7-f3c6-46ec-9032-81344059886f","ios":"levelo://app?vid=8ae86ad7-f3c6-46ec-9032-81344059886f"},"vehicle_type_id":"4","last_reported":1719346087,"current_range_meters":5200,"station_id":"ce4bhc92rcd13ifvqetg","pricing_plan_id":"cebpf4jnsgd1na2vs0mg"},{"bike_id":"0cc4d6db-b704-4028-8498-f981599ddcce","system_id":"levelo_inurba_marseille","lat":43.294162,"lon":5.386292,"is_reserved":false,"is_disabled":false,"rental_uris":{"android":"levelo://app?vid=0cc4d6db-b704-4028-8498-f981599ddcce","ios":"levelo://app?vid=0cc4d6db-b704-4028-8498-f981599ddcce"},"vehicle_type_id":"4","last_reported":1719346087,"current_range_meters":13600,"station_id":"ce4bh2h2rcd13ifvqdh0","pricing_plan_id":"cebpf4jnsgd1na2vs0mg"},{"bike_id":"58911086-648f-4a71-a74e-a68f584d02f6","system_id":"levelo_inurba_marseille","lat":43.290327,"lon":5.375711,"is_reserved":false,"is_disabled":false,"rental_uris":{"android":"levelo://app?vid=58911086-648f-4a71-a74e-a68f584d02f6","ios":"levelo://app?vid=58911086-648f-4a71-a74e-a68f584d02f6"},"vehicle_type_id":"4","last_reported":1719346087,"current_range_meters":0,"station_id":"ce4bh692rcd13ifvqe90","pricing_plan_id":"cebpf4jnsgd1na2vs0mg"},{"bike_id":"3a4ff2fe-5b1c-4edc-94df-5815e2e0088e","system_id":"levelo_inurba_marseille","lat":43.2903,"lon":5.37552,"is_reserved":false,"is_disabled":false,"rental_uris":{"android":"levelo://app?vid=3a4ff2fe-5b1c-4edc-94df-5815e2e0088e","ios":"levelo://app?vid=3a4ff2fe-5b1c-4edc-94df-5815e2e0088e"},"vehicle_type_id":"4","last_reported":1719346087,"current_range_meters":16800,"station_id":"ce4bh692rcd13ifvqe90","pricing_plan_id":"cebpf4jnsgd1na2vs0mg"},{"bike_id":"30f97107-12d7-4e03-88de-c2c52c5684d2","system_id":"levelo_inurba_marseille","lat":43.289184,"lon":5.366408,"is_reserved":false,"is_disabled":false,"rental_uris":{"android":"levelo://app?vid=30f97107-12d7-4e03-88de-c2c52c5684d2","ios":"levelo://app?vid=30f97107-12d7-4e03-88de-c2c52c5684d2"},"vehicle_type_id":"4","last_reported":1719346087,"current_range_meters":30800,"station_id":"ce4bhap2rcd13ifvqek0","pricing_plan_id":"cebpf4jnsgd1na2vs0mg"},{"bike_id":"6dc953d7-4500-49ac-9fa3-332f9ef392fd","system_id":"levelo_inurba_marseille","lat":43.290319,"lon":5.375732,"is_reserved":false,"is_disabled":false,"rental_uris":{"android":"levelo://app?vid=6dc953d7-4500-49ac-9fa3-332f9ef392fd","ios":"levelo://app?vid=6dc953d7-4500-49ac-9fa3-332f9ef392fd"},"vehicle_type_id":"4","last_reported":1719346087,"current_range_meters":29600,"station_id":"ce4bh692rcd13ifvqe90","pricing_plan_id":"cebpf4jnsgd1na2vs0mg"},{"bike_id":"589fd068-4ef9-4456-9361-be190e005d7c","system_id":"levelo_inurba_marseille","lat":43.289184,"lon":5.366408,"is_reserved":false,"is_disabled":false,"rental_uris":{"android":"levelo://app?vid=589fd068-4ef9-4456-9361-be190e005d7c","ios":"levelo://app?vid=589fd068-4ef9-4456-9361-be190e005d7c"},"vehicle_type_id":"4","last_reported":1719346087,"current_range_meters":0,"station_id":"ce4bhap2rcd13ifvqek0","pricing_plan_id":"cebpf4jnsgd1na2vs0mg"},{"bike_id":"ccd19770-150e-4c57-b03d-0b94e2cba974","system_id":"levelo_inurba_marseille","lat":43.28934,"lon":5.3663,"is_reserved":false,"is_disabled":false,"rental_uris":{"android":"levelo://app?vid=ccd19770-150e-4c57-b03d-0b94e2cba974","ios":"levelo://app?vid=ccd19770-150e-4c57-b03d-0b94e2cba974"},"vehicle_type_id":"4","last_reported":1719346087,"current_range_meters":30400,"station_id":"ce4bhap2rcd13ifvqek0","pricing_plan_id":"cebpf4jnsgd1na2vs0mg"},{"bike_id":"96fe8401-82be-4eb3-844e-b0c396078866","system_id":"levelo_inurba_marseille","lat":43.289468,"lon":5.363719,"is_reserved":false,"is_disabled":false,"rental_uris":{"android":"levelo://app?vid=96fe8401-82be-4eb3-844e-b0c396078866","ios":"levelo://app?vid=96fe8401-82be-4eb3-844e-b0c396078866"},"vehicle_type_id":"4","last_reported":1719346087,"current_range_meters":29200,"station_id":"ce4bhc92rcd13ifvqetg","pricing_plan_id":"cebpf4jnsgd1na2vs0mg"},{"bike_id":"d136690d-9401-47e7-b5e8-278637e8b979","system_id":"levelo_inurba_marseille","lat":43.292644,"lon":5.384257,"is_reserved":false,"is_disabled":false,"rental_uris":{"android":"levelo://app?vid=d136690d-9401-47e7-b5e8-278637e8b979","ios":"levelo://app?vid=d136690d-9401-47e7-b5e8-278637e8b979"},"vehicle_type_id":"4","last_reported":1719346087,"current_range_meters":20400,"station_id":"ce4bh692rcd13ifvqea0","pricing_plan_id":"cebpf4jnsgd1na2vs0mg"},{"bike_id":"5c33c29e-cbcc-4ab7-b5f7-7b5c1756bbaf","system_id":"levelo_inurba_marseille","lat":43.292642,"lon":5.384254,"is_reserved":false,"is_disabled":false,"rental_uris":{"android":"levelo://app?vid=5c33c29e-cbcc-4ab7-b5f7-7b5c1756bbaf","ios":"levelo://app?vid=5c33c29e-cbcc-4ab7-b5f7-7b5c1756bbaf"},"vehicle_type_id":"4","last_reported":1719346087,"current_range_meters":15200,"station_id":"ce4bh692rcd13ifvqea0","pricing_plan_id":"cebpf4jnsgd1na2vs0mg"},{"bike_id":"37af2148-f77a-4d55-b129-4dc4fe2e80ba","system_id":"levelo_inurba_marseille","lat":43.292644,"lon":5.384257,"is_reserved":false,"is_disabled":false,"rental_uris":{"android":"levelo://app?vid=37af2148-f77a-4d55-b129-4dc4fe2e80ba","ios":"levelo://app?vid=37af2148-f77a-4d55-b129-4dc4fe2e80ba"},"vehicle_type_id":"4","last_reported":1719346087,"current_range_meters":5200,"station_id":"ce4bh692rcd13ifvqea0","pricing_plan_id":"cebpf4jnsgd1na2vs0mg"},{"bike_id":"24fd4630-8337-4dfc-a76f-56e612b55eb0","system_id":"levelo_inurba_marseille","lat":43.304296,"lon":5.397513,"is_reserved":false,"is_disabled":false,"rental_uris":{"android":"levelo://app?vid=24fd4630-8337-4dfc-a76f-56e612b55eb0","ios":"levelo://app?vid=24fd4630-8337-4dfc-a76f-56e612b55eb0"},"vehicle_type_id":"4","last_reported":1719346087,"current_range_meters":24400,"station_id":"ce4bh092rcd13ifvqd20","pricing_plan_id":"cebpf4jnsgd1na2vs0mg"},{"bike_id":"2bed8e1a-282e-4857-b0ff-2ef75052a654","system_id":"levelo_inurba_marseille","lat":43.292642,"lon":5.384254,"is_reserved":false,"is_disabled":false,"rental_uris":{"android":"levelo://app?vid=2bed8e1a-282e-4857-b0ff-2ef75052a654","ios":"levelo://app?vid=2bed8e1a-282e-4857-b0ff-2ef75052a654"},"vehicle_type_id":"4","last_reported":1719346087,"current_range_meters":3600,"station_id":"ce4bh692rcd13ifvqea0","pricing_plan_id":"cebpf4jnsgd1na2vs0mg"},{"bike_id":"eb81d49e-e40a-486f-9740-38e7684f6489","system_id":"levelo_inurba_marseille","lat":43.30429,"lon":5.39753,"is_reserved":false,"is_disabled":false,"rental_uris":{"android":"levelo://app?vid=eb81d49e-e40a-486f-9740-38e7684f6489","ios":"levelo://app?vid=eb81d49e-e40a-486f-9740-38e7684f6489"},"vehicle_type_id":"4","last_reported":1719346087,"current_range_meters":26800,"station_id":"ce4bh092rcd13ifvqd20","pricing_plan_id":"cebpf4jnsgd1na2vs0mg"},{"bike_id":"2655146c-d9f1-4bfb-ac44-6a9f38bea4a8","system_id":"levelo_inurba_marseille","lat":43.292642,"lon":5.384254,"is_reserved":false,"is_disabled":false,"rental_uris":{"android":"levelo://app?vid=2655146c-d9f1-4bfb-ac44-6a9f38bea4a8","ios":"levelo://app?vid=2655146c-d9f1-4bfb-ac44-6a9f38bea4a8"},"vehicle_type_id":"4","last_reported":1719346087,"current_range_meters":10000,"station_id":"ce4bh692rcd13ifvqea0","pricing_plan_id":"cebpf4jnsgd1na2vs0mg"},{"bike_id":"ba1c0bdb-7bf9-44ab-b29a-b727fab54550","system_id":"levelo_inurba_marseille","lat":43.290103,"lon":5.356114,"is_reserved":false,"is_disabled":false,"rental_uris":{"android":"levelo://app?vid=ba1c0bdb-7bf9-44ab-b29a-b727fab54550","ios":"levelo://app?vid=ba1c0bdb-7bf9-44ab-b29a-b727fab54550"},"vehicle_type_id":"4","last_reported":1719346087,"current_range_meters":4000,"station_id":"ce4bhb92rcd13ifvqen0","pricing_plan_id":"cebpf4jnsgd1na2vs0mg"},{"bike_id":"5c9294f0-fc99-4b25-920f-dbfcdf8b95c7","system_id":"levelo_inurba_marseille","lat":43.290995,"lon":5.381361,"is_reserved":false,"is_disabled":false,"rental_uris":{"android":"levelo://app?vid=5c9294f0-fc99-4b25-920f-dbfcdf8b95c7","ios":"levelo://app?vid=5c9294f0-fc99-4b25-920f-dbfcdf8b95c7"},"vehicle_type_id":"4","last_reported":1719346087,"current_range_meters":28000,"station_id":"ce4bh512rcd13ifvqe2g","pricing_plan_id":"cebpf4jnsgd1na2vs0mg"},{"bike_id":"b76a7bbb-d286-4577-aa94-96ab840228c0","system_id":"levelo_inurba_marseille","lat":43.290995,"lon":5.381361,"is_reserved":false,"is_disabled":false,"rental_uris":{"android":"levelo://app?vid=b76a7bbb-d286-4577-aa94-96ab840228c0","ios":"levelo://app?vid=b76a7bbb-d286-4577-aa94-96ab840228c0"},"vehicle_type_id":"4","last_reported":1719346087,"current_range_meters":4000,"station_id":"ce4bh512rcd13ifvqe2g","pricing_plan_id":"cebpf4jnsgd1na2vs0mg"},{"bike_id":"3804c20e-eed7-4331-a67a-95ad697b212d","system_id":"levelo_inurba_marseille","lat":43.297815,"lon":5.393548,"is_reserved":false,"is_disabled":false,"rental_uris":{"android":"levelo://app?vid=3804c20e-eed7-4331-a67a-95ad697b212d","ios":"levelo://app?vid=3804c20e-eed7-4331-a67a-95ad697b212d"},"vehicle_type_id":"4","last_reported":1719346087,"current_range_meters":18400,"station_id":"chh1huq6cuj3fo74tm60","pricing_plan_id":"cebpf4jnsgd1na2vs0mg"},{"bike_id":"45349dd2-4c29-41ce-b0c6-6e8738b11140","system_id":"levelo_inurba_marseille","lat":43.29784,"lon":5.393425,"is_reserved":false,"is_disabled":false,"rental_uris":{"android":"levelo://app?vid=45349dd2-4c29-41ce-b0c6-6e8738b11140","ios":"levelo://app?vid=45349dd2-4c29-41ce-b0c6-6e8738b11140"},"vehicle_type_id":"4","last_reported":1719346087,"current_range_meters":30400,"station_id":"chh1huq6cuj3fo74tm60","pricing_plan_id":"cebpf4jnsgd1na2vs0mg"},{"bike_id":"518b4ddc-113c-466d-b011-b7bc04774c33","system_id":"levelo_inurba_marseille","lat":43.330442,"lon":5.389148,"is_reserved":false,"is_disabled":false,"rental_uris":{"android":"levelo://app?vid=518b4ddc-113c-466d-b011-b7bc04774c33","ios":"levelo://app?vid=518b4ddc-113c-466d-b011-b7bc04774c33"},"vehicle_type_id":"4","last_reported":1719346087,"current_range_meters":11200,"station_id":"ce4bhr92rcd13ifvqhrg","pricing_plan_id":"cebpf4jnsgd1na2vs0mg"},{"bike_id":"58190a33-eb74-4f7f-9b5e-be6990e39beb","system_id":"levelo_inurba_marseille","lat":43.297815,"lon":5.393548,"is_reserved":false,"is_disabled":false,"rental_uris":{"android":"levelo://app?vid=58190a33-eb74-4f7f-9b5e-be6990e39beb","ios":"levelo://app?vid=58190a33-eb74-4f7f-9b5e-be6990e39beb"},"vehicle_type_id":"4","last_reported":1719346087,"current_range_meters":29600,"station_id":"chh1huq6cuj3fo74tm60","pricing_plan_id":"cebpf4jnsgd1na2vs0mg"},{"bike_id":"96460427-90e0-4e84-9694-e3055f3e8435","system_id":"levelo_inurba_marseille","lat":43.330442,"lon":5.389148,"is_reserved":false,"is_disabled":false,"rental_uris":{"android":"levelo://app?vid=96460427-90e0-4e84-9694-e3055f3e8435","ios":"levelo://app?vid=96460427-90e0-4e84-9694-e3055f3e8435"},"vehicle_type_id":"4","last_reported":1719346087,"current_range_meters":9200,"station_id":"ce4bhr92rcd13ifvqhrg","pricing_plan_id":"cebpf4jnsgd1na2vs0mg"},{"bike_id":"2fc29a03-3a03-43d0-b4f2-1460a5d190a9","system_id":"levelo_inurba_marseille","lat":43.330442,"lon":5.389148,"is_reserved":false,"is_disabled":false,"rental_uris":{"android":"levelo://app?vid=2fc29a03-3a03-43d0-b4f2-1460a5d190a9","ios":"levelo://app?vid=2fc29a03-3a03-43d0-b4f2-1460a5d190a9"},"vehicle_type_id":"4","last_reported":1719346087,"current_range_meters":6800,"station_id":"ce4bhr92rcd13ifvqhrg","pricing_plan_id":"cebpf4jnsgd1na2vs0mg"},{"bike_id":"8bd9c8e6-1b91-4ee5-82f0-9335edf72a30","system_id":"levelo_inurba_marseille","lat":43.330442,"lon":5.389148,"is_reserved":false,"is_disabled":false,"rental_uris":{"android":"levelo://app?vid=8bd9c8e6-1b91-4ee5-82f0-9335edf72a30","ios":"levelo://app?vid=8bd9c8e6-1b91-4ee5-82f0-9335edf72a30"},"vehicle_type_id":"4","last_reported":1719346087,"current_range_meters":21600,"station_id":"ce4bhr92rcd13ifvqhrg","pricing_plan_id":"cebpf4jnsgd1na2vs0mg"},{"bike_id":"2a65e2d4-a82c-45f5-8f77-a6b6c37081ec","system_id":"levelo_inurba_marseille","lat":43.28856,"lon":5.358371,"is_reserved":false,"is_disabled":false,"rental_uris":{"android":"levelo://app?vid=2a65e2d4-a82c-45f5-8f77-a6b6c37081ec","ios":"levelo://app?vid=2a65e2d4-a82c-45f5-8f77-a6b6c37081ec"},"vehicle_type_id":"4","last_reported":1719346087,"current_range_meters":18800,"station_id":"ce4bhb12rcd13ifvqem0","pricing_plan_id":"cebpf4jnsgd1na2vs0mg"},{"bike_id":"2423cfd6-891a-4b3b-b399-4e622dde969b","system_id":"levelo_inurba_marseille","lat":43.28856,"lon":5.358371,"is_reserved":false,"is_disabled":false,"rental_uris":{"android":"levelo://app?vid=2423cfd6-891a-4b3b-b399-4e622dde969b","ios":"levelo://app?vid=2423cfd6-891a-4b3b-b399-4e622dde969b"},"vehicle_type_id":"4","last_reported":1719346087,"current_range_meters":14400,"station_id":"ce4bhb12rcd13ifvqem0","pricing_plan_id":"cebpf4jnsgd1na2vs0mg"},{"bike_id":"c3ddbe4a-157d-4893-acf1-f1f626a65d21","system_id":"levelo_inurba_marseille","lat":43.33715,"lon":5.37426,"is_reserved":false,"is_disabled":false,"rental_uris":{"android":"levelo://app?vid=c3ddbe4a-157d-4893-acf1-f1f626a65d21","ios":"levelo://app?vid=c3ddbe4a-157d-4893-acf1-f1f626a65d21"},"vehicle_type_id":"0","last_reported":1719346087,"current_range_meters":19200,"station_id":"","pricing_plan_id":"cebpf4jnsgd1na2vs0mg"},{"bike_id":"bb65fb70-df82-47d8-b27f-438620895501","system_id":"levelo_inurba_marseille","lat":43.337364,"lon":5.374612,"is_reserved":false,"is_disabled":false,"rental_uris":{"android":"levelo://app?vid=bb65fb70-df82-47d8-b27f-438620895501","ios":"levelo://app?vid=bb65fb70-df82-47d8-b27f-438620895501"},"vehicle_type_id":"0","last_reported":1719346087,"current_range_meters":16400,"station_id":"","pricing_plan_id":"cebpf4jnsgd1na2vs0mg"},{"bike_id":"8043cc8a-f702-4e45-9523-d56dfd7ee432","system_id":"levelo_inurba_marseille","lat":43.337373,"lon":5.374679,"is_reserved":false,"is_disabled":false,"rental_uris":{"android":"levelo://app?vid=8043cc8a-f702-4e45-9523-d56dfd7ee432","ios":"levelo://app?vid=8043cc8a-f702-4e45-9523-d56dfd7ee432"},"vehicle_type_id":"0","last_reported":1719346087,"current_range_meters":21600,"station_id":"","pricing_plan_id":"cebpf4jnsgd1na2vs0mg"},{"bike_id":"c25a3696-e1cc-43ba-8656-23d4a118ee2e","system_id":"levelo_inurba_marseille","lat":43.337371,"lon":5.374708,"is_reserved":false,"is_disabled":false,"rental_uris":{"android":"levelo://app?vid=c25a3696-e1cc-43ba-8656-23d4a118ee2e","ios":"levelo://app?vid=c25a3696-e1cc-43ba-8656-23d4a118ee2e"},"vehicle_type_id":"4","last_reported":1719346087,"current_range_meters":22400,"station_id":"","pricing_plan_id":"cebpf4jnsgd1na2vs0mg"},{"bike_id":"bd9a6c26-2db3-4e30-92c7-c85ae97147aa","system_id":"levelo_inurba_marseille","lat":43.33739,"lon":5.3746,"is_reserved":false,"is_disabled":false,"rental_uris":{"android":"levelo://app?vid=bd9a6c26-2db3-4e30-92c7-c85ae97147aa","ios":"levelo://app?vid=bd9a6c26-2db3-4e30-92c7-c85ae97147aa"},"vehicle_type_id":"0","last_reported":1719346087,"current_range_meters":24800,"station_id":"","pricing_plan_id":"cebpf4jnsgd1na2vs0mg"},{"bike_id":"aa527c2c-31a5-479b-bfbe-daae0d9bb514","system_id":"levelo_inurba_marseille","lat":43.337389,"lon":5.374652,"is_reserved":false,"is_disabled":false,"rental_uris":{"android":"levelo://app?vid=aa527c2c-31a5-479b-bfbe-daae0d9bb514","ios":"levelo://app?vid=aa527c2c-31a5-479b-bfbe-daae0d9bb514"},"vehicle_type_id":"0","last_reported":1719346087,"current_range_meters":12000,"station_id":"","pricing_plan_id":"cebpf4jnsgd1na2vs0mg"},{"bike_id":"81f3b553-8793-429e-bdf8-35ca3752f904","system_id":"levelo_inurba_marseille","lat":43.309371,"lon":5.401449,"is_reserved":false,"is_disabled":false,"rental_uris":{"android":"levelo://app?vid=81f3b553-8793-429e-bdf8-35ca3752f904","ios":"levelo://app?vid=81f3b553-8793-429e-bdf8-35ca3752f904"},"vehicle_type_id":"4","last_reported":1719346087,"current_range_meters":16400,"station_id":"ce4bgvp2rcd13ifvqct0","pricing_plan_id":"cebpf4jnsgd1na2vs0mg"},{"bike_id":"70df0eff-7892-4d64-8b33-f9b25d3cdb77","system_id":"levelo_inurba_marseille","lat":43.337396,"lon":5.374652,"is_reserved":false,"is_disabled":false,"rental_uris":{"android":"levelo://app?vid=70df0eff-7892-4d64-8b33-f9b25d3cdb77","ios":"levelo://app?vid=70df0eff-7892-4d64-8b33-f9b25d3cdb77"},"vehicle_type_id":"4","last_reported":1719346087,"current_range_meters":22400,"station_id":"","pricing_plan_id":"cebpf4jnsgd1na2vs0mg"},{"bike_id":"2bffac18-a8fe-485f-be52-f67a471a544f","system_id":"levelo_inurba_marseille","lat":43.312826,"lon":5.40169,"is_reserved":false,"is_disabled":false,"rental_uris":{"android":"levelo://app?vid=2bffac18-a8fe-485f-be52-f67a471a544f","ios":"levelo://app?vid=2bffac18-a8fe-485f-be52-f67a471a544f"},"vehicle_type_id":"4","last_reported":1719346087,"current_range_meters":0,"station_id":"ce4bh092rcd13ifvqd30","pricing_plan_id":"cebpf4jnsgd1na2vs0mg"},{"bike_id":"985eda3a-8205-4c72-8b0d-a44593dd15b5","system_id":"levelo_inurba_marseille","lat":43.337402,"lon":5.374681,"is_reserved":false,"is_disabled":false,"rental_uris":{"android":"levelo://app?vid=985eda3a-8205-4c72-8b0d-a44593dd15b5","ios":"levelo://app?vid=985eda3a-8205-4c72-8b0d-a44593dd15b5"},"vehicle_type_id":"0","last_reported":1719346087,"current_range_meters":15200,"station_id":"","pricing_plan_id":"cebpf4jnsgd1na2vs0mg"},{"bike_id":"20626a48-ddb6-4b45-97c4-dfb09d3171d8","system_id":"levelo_inurba_marseille","lat":43.309371,"lon":5.401449,"is_reserved":false,"is_disabled":false,"rental_uris":{"android":"levelo://app?vid=20626a48-ddb6-4b45-97c4-dfb09d3171d8","ios":"levelo://app?vid=20626a48-ddb6-4b45-97c4-dfb09d3171d8"},"vehicle_type_id":"4","last_reported":1719346087,"current_range_meters":400,"station_id":"ce4bgvp2rcd13ifvqct0","pricing_plan_id":"cebpf4jnsgd1na2vs0mg"},{"bike_id":"11da98ef-d0c3-43c2-a7e4-890f2c23ccbc","system_id":"levelo_inurba_marseille","lat":43.337415,"lon":5.374645,"is_reserved":false,"is_disabled":false,"rental_uris":{"android":"levelo://app?vid=11da98ef-d0c3-43c2-a7e4-890f2c23ccbc","ios":"levelo://app?vid=11da98ef-d0c3-43c2-a7e4-890f2c23ccbc"},"vehicle_type_id":"4","last_reported":1719346087,"current_range_meters":16000,"station_id":"","pricing_plan_id":"cebpf4jnsgd1na2vs0mg"},{"bike_id":"cbff8e2e-87ad-4d9e-a09d-9b1fba1c0aeb","system_id":"levelo_inurba_marseille","lat":43.337411,"lon":5.374687,"is_reserved":false,"is_disabled":false,"rental_uris":{"android":"levelo://app?vid=cbff8e2e-87ad-4d9e-a09d-9b1fba1c0aeb","ios":"levelo://app?vid=cbff8e2e-87ad-4d9e-a09d-9b1fba1c0aeb"},"vehicle_type_id":"0","last_reported":1719346087,"current_range_meters":22000,"station_id":"","pricing_plan_id":"cebpf4jnsgd1na2vs0mg"},{"bike_id":"bf709b1a-1e81-4c69-a36a-dfef45d67fee","system_id":"levelo_inurba_marseille","lat":43.337417,"lon":5.374695,"is_reserved":false,"is_disabled":false,"rental_uris":{"android":"levelo://app?vid=bf709b1a-1e81-4c69-a36a-dfef45d67fee","ios":"levelo://app?vid=bf709b1a-1e81-4c69-a36a-dfef45d67fee"},"vehicle_type_id":"4","last_reported":1719346087,"current_range_meters":22000,"station_id":"","pricing_plan_id":"cebpf4jnsgd1na2vs0mg"},{"bike_id":"201d0129-df3b-4d2c-b357-2a567ec54c1b","system_id":"levelo_inurba_marseille","lat":43.309371,"lon":5.401449,"is_reserved":false,"is_disabled":false,"rental_uris":{"android":"levelo://app?vid=201d0129-df3b-4d2c-b357-2a567ec54c1b","ios":"levelo://app?vid=201d0129-df3b-4d2c-b357-2a567ec54c1b"},"vehicle_type_id":"4","last_reported":1719346087,"current_range_meters":26400,"station_id":"ce4bgvp2rcd13ifvqct0","pricing_plan_id":"cebpf4jnsgd1na2vs0mg"},{"bike_id":"f987180d-160b-49a3-acd1-d70c132d352e","system_id":"levelo_inurba_marseille","lat":43.3127,"lon":5.40172,"is_reserved":false,"is_disabled":false,"rental_uris":{"android":"levelo://app?vid=f987180d-160b-49a3-acd1-d70c132d352e","ios":"levelo://app?vid=f987180d-160b-49a3-acd1-d70c132d352e"},"vehicle_type_id":"4","last_reported":1719346087,"current_range_meters":0,"station_id":"ce4bh092rcd13ifvqd30","pricing_plan_id":"cebpf4jnsgd1na2vs0mg"},{"bike_id":"3aee49bc-6005-47f0-8d87-533cb129d5c4","system_id":"levelo_inurba_marseille","lat":43.309371,"lon":5.401449,"is_reserved":false,"is_disabled":false,"rental_uris":{"android":"levelo://app?vid=3aee49bc-6005-47f0-8d87-533cb129d5c4","ios":"levelo://app?vid=3aee49bc-6005-47f0-8d87-533cb129d5c4"},"vehicle_type_id":"4","last_reported":1719346087,"current_range_meters":5600,"station_id":"ce4bgvp2rcd13ifvqct0","pricing_plan_id":"cebpf4jnsgd1na2vs0mg"},{"bike_id":"2a0fb516-a307-4861-b129-104556c40f00","system_id":"levelo_inurba_marseille","lat":43.337432,"lon":5.374672,"is_reserved":false,"is_disabled":false,"rental_uris":{"android":"levelo://app?vid=2a0fb516-a307-4861-b129-104556c40f00","ios":"levelo://app?vid=2a0fb516-a307-4861-b129-104556c40f00"},"vehicle_type_id":"0","last_reported":1719346087,"current_range_meters":14000,"station_id":"","pricing_plan_id":"cebpf4jnsgd1na2vs0mg"},{"bike_id":"69077028-55b6-4f90-8a77-2c4421437165","system_id":"levelo_inurba_marseille","lat":43.309371,"lon":5.401449,"is_reserved":false,"is_disabled":false,"rental_uris":{"android":"levelo://app?vid=69077028-55b6-4f90-8a77-2c4421437165","ios":"levelo://app?vid=69077028-55b6-4f90-8a77-2c4421437165"},"vehicle_type_id":"4","last_reported":1719346087,"current_range_meters":0,"station_id":"ce4bgvp2rcd13ifvqct0","pricing_plan_id":"cebpf4jnsgd1na2vs0mg"},{"bike_id":"9b81675f-44cd-4cbe-9733-2d36a516d8f7","system_id":"levelo_inurba_marseille","lat":43.337469,"lon":5.374655,"is_reserved":false,"is_disabled":false,"rental_uris":{"android":"levelo://app?vid=9b81675f-44cd-4cbe-9733-2d36a516d8f7","ios":"levelo://app?vid=9b81675f-44cd-4cbe-9733-2d36a516d8f7"},"vehicle_type_id":"0","last_reported":1719346087,"current_range_meters":23200,"station_id":"","pricing_plan_id":"cebpf4jnsgd1na2vs0mg"},{"bike_id":"ad98fe72-f51c-476c-947b-892bbac1cf33","system_id":"levelo_inurba_marseille","lat":43.31272,"lon":5.4018,"is_reserved":false,"is_disabled":false,"rental_uris":{"android":"levelo://app?vid=ad98fe72-f51c-476c-947b-892bbac1cf33","ios":"levelo://app?vid=ad98fe72-f51c-476c-947b-892bbac1cf33"},"vehicle_type_id":"4","last_reported":1719346087,"current_range_meters":1200,"station_id":"ce4bh092rcd13ifvqd30","pricing_plan_id":"cebpf4jnsgd1na2vs0mg"},{"bike_id":"f867320b-b3ee-4d44-8ef3-37d72db21942","system_id":"levelo_inurba_marseille","lat":43.33754,"lon":5.37456,"is_reserved":false,"is_disabled":false,"rental_uris":{"android":"levelo://app?vid=f867320b-b3ee-4d44-8ef3-37d72db21942","ios":"levelo://app?vid=f867320b-b3ee-4d44-8ef3-37d72db21942"},"vehicle_type_id":"4","last_reported":1719346087,"current_range_meters":25200,"station_id":"","pricing_plan_id":"cebpf4jnsgd1na2vs0mg"},{"bike_id":"4cc1275e-a0b7-4657-afab-0ac4d0824ff2","system_id":"levelo_inurba_marseille","lat":43.306412,"lon":5.401035,"is_reserved":false,"is_disabled":false,"rental_uris":{"android":"levelo://app?vid=4cc1275e-a0b7-4657-afab-0ac4d0824ff2","ios":"levelo://app?vid=4cc1275e-a0b7-4657-afab-0ac4d0824ff2"},"vehicle_type_id":"4","last_reported":1719346087,"current_range_meters":16000,"station_id":"ce4bh112rcd13ifvqda0","pricing_plan_id":"cebpf4jnsgd1na2vs0mg"},{"bike_id":"bda666a3-cf92-4770-92d5-b6e2e18d2749","system_id":"levelo_inurba_marseille","lat":43.306412,"lon":5.401035,"is_reserved":false,"is_disabled":false,"rental_uris":{"android":"levelo://app?vid=bda666a3-cf92-4770-92d5-b6e2e18d2749","ios":"levelo://app?vid=bda666a3-cf92-4770-92d5-b6e2e18d2749"},"vehicle_type_id":"4","last_reported":1719346087,"current_range_meters":5600,"station_id":"ce4bh112rcd13ifvqda0","pricing_plan_id":"cebpf4jnsgd1na2vs0mg"},{"bike_id":"9ba5ee38-0ccc-4ef0-b745-517273342eb8","system_id":"levelo_inurba_marseille","lat":43.30642,"lon":5.401031,"is_reserved":false,"is_disabled":false,"rental_uris":{"android":"levelo://app?vid=9ba5ee38-0ccc-4ef0-b745-517273342eb8","ios":"levelo://app?vid=9ba5ee38-0ccc-4ef0-b745-517273342eb8"},"vehicle_type_id":"4","last_reported":1719346087,"current_range_meters":6400,"station_id":"ce4bh112rcd13ifvqda0","pricing_plan_id":"cebpf4jnsgd1na2vs0mg"},{"bike_id":"66db5d4a-489e-46e9-b8fe-0712d0d797c1","system_id":"levelo_inurba_marseille","lat":43.30644,"lon":5.40091,"is_reserved":false,"is_disabled":false,"rental_uris":{"android":"levelo://app?vid=66db5d4a-489e-46e9-b8fe-0712d0d797c1","ios":"levelo://app?vid=66db5d4a-489e-46e9-b8fe-0712d0d797c1"},"vehicle_type_id":"4","last_reported":1719346087,"current_range_meters":6400,"station_id":"ce4bh112rcd13ifvqda0","pricing_plan_id":"cebpf4jnsgd1na2vs0mg"},{"bike_id":"6977ce60-dc90-4e29-a97f-bdf079ed73cb","system_id":"levelo_inurba_marseille","lat":43.30642,"lon":5.401031,"is_reserved":false,"is_disabled":false,"rental_uris":{"android":"levelo://app?vid=6977ce60-dc90-4e29-a97f-bdf079ed73cb","ios":"levelo://app?vid=6977ce60-dc90-4e29-a97f-bdf079ed73cb"},"vehicle_type_id":"4","last_reported":1719346087,"current_range_meters":16800,"station_id":"ce4bh112rcd13ifvqda0","pricing_plan_id":"cebpf4jnsgd1na2vs0mg"},{"bike_id":"19c239d3-5a4b-4aff-8085-66266dba085d","system_id":"levelo_inurba_marseille","lat":43.337663,"lon":5.374807,"is_reserved":false,"is_disabled":false,"rental_uris":{"android":"levelo://app?vid=19c239d3-5a4b-4aff-8085-66266dba085d","ios":"levelo://app?vid=19c239d3-5a4b-4aff-8085-66266dba085d"},"vehicle_type_id":"4","last_reported":1719346087,"current_range_meters":30800,"station_id":"","pricing_plan_id":"cebpf4jnsgd1na2vs0mg"},{"bike_id":"142686a5-d35a-499e-9fd8-65c6cd82b240","system_id":"levelo_inurba_marseille","lat":43.30642,"lon":5.401031,"is_reserved":false,"is_disabled":false,"rental_uris":{"android":"levelo://app?vid=142686a5-d35a-499e-9fd8-65c6cd82b240","ios":"levelo://app?vid=142686a5-d35a-499e-9fd8-65c6cd82b240"},"vehicle_type_id":"4","last_reported":1719346087,"current_range_meters":27200,"station_id":"ce4bh112rcd13ifvqda0","pricing_plan_id":"cebpf4jnsgd1na2vs0mg"},{"bike_id":"43638f2b-88c8-48c7-af74-73bd95b00425","system_id":"levelo_inurba_marseille","lat":43.301117,"lon":5.398795,"is_reserved":false,"is_disabled":false,"rental_uris":{"android":"levelo://app?vid=43638f2b-88c8-48c7-af74-73bd95b00425","ios":"levelo://app?vid=43638f2b-88c8-48c7-af74-73bd95b00425"},"vehicle_type_id":"4","last_reported":1719346087,"current_range_meters":14400,"station_id":"ce4bh0h2rcd13ifvqd40","pricing_plan_id":"cebpf4jnsgd1na2vs0mg"},{"bike_id":"c914180e-c883-48eb-a2be-8e5696f198c8","system_id":"levelo_inurba_marseille","lat":43.301117,"lon":5.398795,"is_reserved":false,"is_disabled":false,"rental_uris":{"android":"levelo://app?vid=c914180e-c883-48eb-a2be-8e5696f198c8","ios":"levelo://app?vid=c914180e-c883-48eb-a2be-8e5696f198c8"},"vehicle_type_id":"4","last_reported":1719346087,"current_range_meters":17600,"station_id":"ce4bh0h2rcd13ifvqd40","pricing_plan_id":"cebpf4jnsgd1na2vs0mg"},{"bike_id":"314121f7-5bb6-4c6d-8910-6356831b6605","system_id":"levelo_inurba_marseille","lat":43.301117,"lon":5.398795,"is_reserved":false,"is_disabled":false,"rental_uris":{"android":"levelo://app?vid=314121f7-5bb6-4c6d-8910-6356831b6605","ios":"levelo://app?vid=314121f7-5bb6-4c6d-8910-6356831b6605"},"vehicle_type_id":"4","last_reported":1719346087,"current_range_meters":0,"station_id":"ce4bh0h2rcd13ifvqd40","pricing_plan_id":"cebpf4jnsgd1na2vs0mg"},{"bike_id":"2c27db0d-4323-4426-8520-ea6529626238","system_id":"levelo_inurba_marseille","lat":43.28824,"lon":5.37799,"is_reserved":false,"is_disabled":false,"rental_uris":{"android":"levelo://app?vid=2c27db0d-4323-4426-8520-ea6529626238","ios":"levelo://app?vid=2c27db0d-4323-4426-8520-ea6529626238"},"vehicle_type_id":"4","last_reported":1719346087,"current_range_meters":31200,"station_id":"","pricing_plan_id":"cebpf4jnsgd1na2vs0mg"},{"bike_id":"4e161393-e580-450f-a9a0-0ae3e195c63a","system_id":"levelo_inurba_marseille","lat":43.28727,"lon":5.36078,"is_reserved":false,"is_disabled":false,"rental_uris":{"android":"levelo://app?vid=4e161393-e580-450f-a9a0-0ae3e195c63a","ios":"levelo://app?vid=4e161393-e580-450f-a9a0-0ae3e195c63a"},"vehicle_type_id":"4","last_reported":1719346087,"current_range_meters":8400,"station_id":"cki0cbj6b192h4jlfktg","pricing_plan_id":"cebpf4jnsgd1na2vs0mg"},{"bike_id":"de6ce489-1671-4753-9e41-861265e33717","system_id":"levelo_inurba_marseille","lat":43.28727,"lon":5.36078,"is_reserved":false,"is_disabled":false,"rental_uris":{"android":"levelo://app?vid=de6ce489-1671-4753-9e41-861265e33717","ios":"levelo://app?vid=de6ce489-1671-4753-9e41-861265e33717"},"vehicle_type_id":"4","last_reported":1719346087,"current_range_meters":12400,"station_id":"cki0cbj6b192h4jlfktg","pricing_plan_id":"cebpf4jnsgd1na2vs0mg"},{"bike_id":"47c5807d-59e7-4959-8d97-b4eab637d826","system_id":"levelo_inurba_marseille","lat":43.295196,"lon":5.39397,"is_reserved":false,"is_disabled":false,"rental_uris":{"android":"levelo://app?vid=47c5807d-59e7-4959-8d97-b4eab637d826","ios":"levelo://app?vid=47c5807d-59e7-4959-8d97-b4eab637d826"},"vehicle_type_id":"4","last_reported":1719346087,"current_range_meters":5600,"station_id":"ce4bh292rcd13ifvqdf0","pricing_plan_id":"cebpf4jnsgd1na2vs0mg"},{"bike_id":"57aca77a-28ac-4b41-af7e-874a55f28c51","system_id":"levelo_inurba_marseille","lat":43.286961,"lon":5.373785,"is_reserved":false,"is_disabled":false,"rental_uris":{"android":"levelo://app?vid=57aca77a-28ac-4b41-af7e-874a55f28c51","ios":"levelo://app?vid=57aca77a-28ac-4b41-af7e-874a55f28c51"},"vehicle_type_id":"4","last_reported":1719346087,"current_range_meters":19200,"station_id":"ce4bh3p2rcd13ifvqdq0","pricing_plan_id":"cebpf4jnsgd1na2vs0mg"},{"bike_id":"6ecc65de-be7b-4a65-bf85-637f433a056f","system_id":"levelo_inurba_marseille","lat":43.286591,"lon":5.363346,"is_reserved":false,"is_disabled":false,"rental_uris":{"android":"levelo://app?vid=6ecc65de-be7b-4a65-bf85-637f433a056f","ios":"levelo://app?vid=6ecc65de-be7b-4a65-bf85-637f433a056f"},"vehicle_type_id":"4","last_reported":1719346087,"current_range_meters":0,"station_id":"ce4bhah2rcd13ifvqej0","pricing_plan_id":"cebpf4jnsgd1na2vs0mg"},{"bike_id":"3faf5b3d-c463-4417-bdff-50d710965ca4","system_id":"levelo_inurba_marseille","lat":43.286591,"lon":5.363346,"is_reserved":false,"is_disabled":false,"rental_uris":{"android":"levelo://app?vid=3faf5b3d-c463-4417-bdff-50d710965ca4","ios":"levelo://app?vid=3faf5b3d-c463-4417-bdff-50d710965ca4"},"vehicle_type_id":"4","last_reported":1719346087,"current_range_meters":16000,"station_id":"ce4bhah2rcd13ifvqej0","pricing_plan_id":"cebpf4jnsgd1na2vs0mg"},{"bike_id":"f293968d-746f-413d-bb67-23610b0f6229","system_id":"levelo_inurba_marseille","lat":43.286593,"lon":5.363346,"is_reserved":false,"is_disabled":false,"rental_uris":{"android":"levelo://app?vid=f293968d-746f-413d-bb67-23610b0f6229","ios":"levelo://app?vid=f293968d-746f-413d-bb67-23610b0f6229"},"vehicle_type_id":"4","last_reported":1719346087,"current_range_meters":16000,"station_id":"ce4bhah2rcd13ifvqej0","pricing_plan_id":"cebpf4jnsgd1na2vs0mg"},