{"last_updated":1753391438,"ttl":60,"version":"2.2","data":{"bikes":[{"bike_id":"a61c3ffa-f010-453d-a8ff-d64e52ad67dc","system_id":"levelo_inurba_marseille","lat":43.28634,"lon":5.37736,"is_reserved":false,"is_disabled":false,"rental_uris":{"android":"levelo://app?vid=a61c3ffa-f010-453d-a8ff-d64e52ad67dc","ios":"levelo://app?vid=a61c3ffa-f010-453d-a8ff-d64e52ad67dc"},"vehicle_type_id":"4","last_reported":1753391439,"current_range_meters":2800,"station_id":"","pricing_plan_id":"cebpf4jnsgd1na2vs0mg"},{"bike_id":"4023483f-3ba3-4c42-9344-97a39fb1ff87","system_id":"levelo_inurba_marseille","lat":43.22504,"lon":5.34781,"is_reserved":false,"is_disabled":false,"rental_uris":{"android":"levelo://app?vid=4023483f-3ba3-4c42-9344-97a39fb1ff87","ios":"levelo://app?vid=4023483f-3ba3-4c42-9344-97a39fb1ff87"},"vehicle_type_id":"4","last_reported":1753391439,"current_range_meters":2800,"station_id":"st_cvj5dfep6f1abm77gieg","pricing_plan_id":"cebpf4jnsgd1na2vs0mg"},{"bike_id":"8b426a83-ad0c-456e-be72-262554ca23b9","system_id":"levelo_inurba_marseille","lat":43.31074,"lon":5.38347,"is_reserved":false,"is_disabled":false,"rental_uris":{"android":"levelo://app?vid=8b426a83-ad0c-456e-be72-262554ca23b9","ios":"levelo://app?vid=8b426a83-ad0c-456e-be72-262554ca23b9"},"vehicle_type_id":"4","last_reported":1753391439,"current_range_meters":2800,"station_id":"ce4bgv92rcd13ifvqcr0","pricing_plan_id":"cebpf4jnsgd1na2vs0mg"},{"bike_id":"12aa18e6-54b4-4f17-8d75-27573f932a0c","system_id":"levelo_inurba_marseille","lat":43.296823,"lon":5.372723,"is_reserved":false,"is_disabled":true,"rental_uris":{"android":"levelo://app?vid=12aa18e6-54b4-4f17-8d75-27573f932a0c","ios":"levelo://app?vid=12aa18e6-54b4-4f17-8d75-27573f932a0c"},"vehicle_type_id":"4","last_reported":1753391439,"current_range_meters":3200,"station_id":"ce4bgk12rcd13ifvqbj0","pricing_plan_id":"cebpf4jnsgd1na2vs0mg"},{"bike_id":"c8cbe188-8c80-4aac-881d-65feb870e521","system_id":"levelo_inurba_marseille","lat":43.33012,"lon":5.38016,"is_reserved":false,"is_disabled":false,"rental_uris":{"android":"levelo://app?vid=c8cbe188-8c80-4aac-881d-65feb870e521","ios":"levelo://app?vid=c8cbe188-8c80-4aac-881d-65feb870e521"},"vehicle_type_id":"4","last_reported":1753391439,"current_range_meters":3200,"station_id":"","pricing_plan_id":"cebpf4jnsgd1na2vs0mg"},{"bike_id":"09a8bc6a-ab3a-4c9e-b873-b672b12f169e","system_id":"levelo_inurba_marseille","lat":43.29785,"lon":5.371,"is_reserved":false,"is_disabled":true,"rental_uris":{"android":"levelo://app?vid=09a8bc6a-ab3a-4c9e-b873-b672b12f169e","ios":"levelo://app?vid=09a8bc6a-ab3a-4c9e-b873-b672b12f169e"},"vehicle_type_id":"4","last_reported":1753391439,"current_range_meters":3600,"station_id":"ce4bgop2rcd13ifvqc1g","pricing_plan_id":"cebpf4jnsgd1na2vs0mg"},{"bike_id":"61966d41-2bd9-4b66-be19-ab5ef1a8fc4b","system_id":"levelo_inurba_marseille","lat":43.299217,"lon":5.374722,"is_reserved":false,"is_disabled":false,"rental_uris":{"android":"levelo://app?vid=61966d41-2bd9-4b66-be19-ab5ef1a8fc4b","ios":"levelo://app?vid=61966d41-2bd9-4b66-be19-ab5ef1a8fc4b"},"vehicle_type_id":"4","last_reported":1753391439,"current_range_meters":3600,"station_id":"ce4bgjh2rcd13ifvqbg0","pricing_plan_id":"cebpf4jnsgd1na2vs0mg"},{"bike_id":"eae1816a-4166-4b7f-98f8-4d53cad8998a","system_id":"levelo_inurba_marseille","lat":43.30877,"lon":5.39648,"is_reserved":false,"is_disabled":false,"rental_uris":{"android":"levelo://app?vid=eae1816a-4166-4b7f-98f8-4d53cad8998a","ios":"levelo://app?vid=eae1816a-4166-4b7f-98f8-4d53cad8998a"},"vehicle_type_id":"4","last_reported":1753391439,"current_range_meters":4000,"station_id":"ce4bh0h2rcd13ifvqd40","pricing_plan_id":"cebpf4jnsgd1na2vs0mg"},{"bike_id":"5517677d-6294-495e-84c2-9065f5588b54","system_id":"levelo_inurba_marseille","lat":43.295685,"lon":5.399802,"is_reserved":false,"is_disabled":false,"rental_uris":{"android":"levelo://app?vid=5517677d-6294-495e-84c2-9065f5588b54","ios":"levelo://app?vid=5517677d-6294-495e-84c2-9065f5588b54"},"vehicle_type_id":"4","last_reported":1753391439,"current_range_meters":4000,"station_id":"ce4bh312rcd13ifvqdj0","pricing_plan_id":"cebpf4jnsgd1na2vs0mg"},{"bike_id":"c9dbd36b-479c-4a5c-b200-3aa7673340d9","system_id":"levelo_inurba_marseille","lat":43.241448,"lon":5.363743,"is_reserved":false,"is_disabled":false,"rental_uris":{"android":"levelo://app?vid=c9dbd36b-479c-4a5c-b200-3aa7673340d9","ios":"levelo://app?vid=c9dbd36b-479c-4a5c-b200-3aa7673340d9"},"vehicle_type_id":"4","last_reported":1753391439,"current_range_meters":4400,"station_id":"","pricing_plan_id":"cebpf4jnsgd1na2vs0mg"},{"bike_id":"ae365e06-8bac-4af6-b61b-a2ac977e3401","system_id":"levelo_inurba_marseille","lat":43.3095,"lon":5.39048,"is_reserved":false,"is_disabled":false,"rental_uris":{"android":"levelo://app?vid=ae365e06-8bac-4af6-b61b-a2ac977e3401","ios":"levelo://app?vid=ae365e06-8bac-4af6-b61b-a2ac977e3401"},"vehicle_type_id":"4","last_reported":1753391439,"current_range_meters":4400,"station_id":"ce4bgup2rcd13ifvqco0","pricing_plan_id":"cebpf4jnsgd1na2vs0mg"},{"bike_id":"e4581758-641a-4a4c-8e3c-1e4b2fe02835","system_id":"levelo_inurba_marseille","lat":43.29628,"lon":5.40596,"is_reserved":false,"is_disabled":false,"rental_uris":{"android":"levelo://app?vid=e4581758-641a-4a4c-8e3c-1e4b2fe02835","ios":"levelo://app?vid=e4581758-641a-4a4c-8e3c-1e4b2fe02835"},"vehicle_type_id":"4","last_reported":1753391439,"current_range_meters":4800,"station_id":"ce4bh0h2rcd13ifvqd60","pricing_plan_id":"cebpf4jnsgd1na2vs0mg"},{"bike_id":"2eb28bbe-72b6-45b6-8eea-4c7e5d22afe8","system_id":"levelo_inurba_marseille","lat":43.32655,"lon":5.41,"is_reserved":false,"is_disabled":false,"rental_uris":{"android":"levelo://app?vid=2eb28bbe-72b6-45b6-8eea-4c7e5d22afe8","ios":"levelo://app?vid=2eb28bbe-72b6-45b6-8eea-4c7e5d22afe8"},"vehicle_type_id":"4","last_reported":1753391439,"current_range_meters":4800,"station_id":"ce4bhpp2rcd13ifvqhgg","pricing_plan_id":"cebpf4jnsgd1na2vs0mg"},{"bike_id":"99519f7b-60b9-46e8-a382-41d931dd8af2","system_id":"levelo_inurba_marseille","lat":43.29244,"lon":5.40911,"is_reserved":false,"is_disabled":false,"rental_uris":{"android":"levelo://app?vid=99519f7b-60b9-46e8-a382-41d931dd8af2","ios":"levelo://app?vid=99519f7b-60b9-46e8-a382-41d931dd8af2"},"vehicle_type_id":"4","last_reported":1753391439,"current_range_meters":6000,"station_id":"ce4bh192rcd13ifvqdc0","pricing_plan_id":"cebpf4jnsgd1na2vs0mg"},{"bike_id":"f8cae0d8-747a-432d-a20e-6e950be04ee2","system_id":"levelo_inurba_marseille","lat":43.30793,"lon":5.38155,"is_reserved":false,"is_disabled":false,"rental_uris":{"android":"levelo://app?vid=f8cae0d8-747a-432d-a20e-6e950be04ee2","ios":"levelo://app?vid=f8cae0d8-747a-432d-a20e-6e950be04ee2"},"vehicle_type_id":"4","last_reported":1753391439,"current_range_meters":5600,"station_id":"ce4bgt12rcd13ifvqce0","pricing_plan_id":"cebpf4jnsgd1na2vs0mg"},{"bike_id":"6d0169ea-6ac3-4b68-af9a-86a2679f865f","system_id":"levelo_inurba_marseille","lat":43.245473,"lon":5.395217,"is_reserved":false,"is_disabled":false,"rental_uris":{"android":"levelo://app?vid=6d0169ea-6ac3-4b68-af9a-86a2679f865f","ios":"levelo://app?vid=6d0169ea-6ac3-4b68-af9a-86a2679f865f"},"vehicle_type_id":"4","last_reported":1753391439,"current_range_meters":6000,"station_id":"ce4bhlp2rcd13ifvqgjg","pricing_plan_id":"cebpf4jnsgd1na2vs0mg"},{"bike_id":"f31085bb-ef85-4371-bda4-0c4e12c6e8fc","system_id":"levelo_inurba_marseille","lat":43.299167,"lon":5.381637,"is_reserved":false,"is_disabled":false,"rental_uris":{"android":"levelo://app?vid=f31085bb-ef85-4371-bda4-0c4e12c6e8fc","ios":"levelo://app?vid=f31085bb-ef85-4371-bda4-0c4e12c6e8fc"},"vehicle_type_id":"4","last_reported":1753391439,"current_range_meters":6000,"station_id":"ce4bgj12rcd13ifvqbc0","pricing_plan_id":"cebpf4jnsgd1na2vs0mg"},{"bike_id":"81d92d04-2567-48da-82e4-3e22b6cc87c3","system_id":"levelo_inurba_marseille","lat":43.29275,"lon":5.38465,"is_reserved":false,"is_disabled":false,"rental_uris":{"android":"levelo://app?vid=81d92d04-2567-48da-82e4-3e22b6cc87c3","ios":"levelo://app?vid=81d92d04-2567-48da-82e4-3e22b6cc87c3"},"vehicle_type_id":"4","last_reported":1753391439,"current_range_meters":6000,"station_id":"ce4bh692rcd13ifvqea0","pricing_plan_id":"cebpf4jnsgd1na2vs0mg"},{"bike_id":"4b810847-c5c1-4428-ae82-c5d83aae5207","system_id":"levelo_inurba_marseille","lat":43.309067,"lon":5.368442,"is_reserved":false,"is_disabled":false,"rental_uris":{"android":"levelo://app?vid=4b810847-c5c1-4428-ae82-c5d83aae5207","ios":"levelo://app?vid=4b810847-c5c1-4428-ae82-c5d83aae5207"},"vehicle_type_id":"4","last_reported":1753391439,"current_range_meters":6000,"station_id":"ce4bgn92rcd13ifvqbvg","pricing_plan_id":"cebpf4jnsgd1na2vs0mg"},{"bike_id":"59a15ad2-15d7-4154-b27a-a8773758dd23","system_id":"levelo_inurba_marseille","lat":43.298182,"lon":5.370916,"is_reserved":false,"is_disabled":true,"rental_uris":{"android":"levelo://app?vid=59a15ad2-15d7-4154-b27a-a8773758dd23","ios":"levelo://app?vid=59a15ad2-15d7-4154-b27a-a8773758dd23"},"vehicle_type_id":"4","last_reported":1753391439,"current_range_meters":6400,"station_id":"","pricing_plan_id":"cebpf4jnsgd1na2vs0mg"},{"bike_id":"b25a2998-f5b5-4c15-ac4a-398acbf62eba","system_id":"levelo_inurba_marseille","lat":43.27996,"lon":5.40033,"is_reserved":false,"is_disabled":false,"rental_uris":{"android":"levelo://app?vid=b25a2998-f5b5-4c15-ac4a-398acbf62eba","ios":"levelo://app?vid=b25a2998-f5b5-4c15-ac4a-398acbf62eba"},"vehicle_type_id":"4","last_reported":1753391439,"current_range_meters":6400,"station_id":"ce4bho92rcd13ifvqh4g","pricing_plan_id":"cebpf4jnsgd1na2vs0mg"},{"bike_id":"e355fcb0-c359-48e7-94a5-35a9e7a88bb4","system_id":"levelo_inurba_marseille","lat":43.301263,"lon":5.398693,"is_reserved":false,"is_disabled":false,"rental_uris":{"android":"levelo://app?vid=e355fcb0-c359-48e7-94a5-35a9e7a88bb4","ios":"levelo://app?vid=e355fcb0-c359-48e7-94a5-35a9e7a88bb4"},"vehicle_type_id":"4","last_reported":1753391439,"current_range_meters":6800,"station_id":"ce4bh0h2rcd13ifvqd40","pricing_plan_id":"cebpf4jnsgd1na2vs0mg"},{"bike_id":"d361bb1e-924a-4520-a90e-4291cd665331","system_id":"levelo_inurba_marseille","lat":43.25828,"lon":5.39439,"is_reserved":false,"is_disabled":false,"rental_uris":{"android":"levelo://app?vid=d361bb1e-924a-4520-a90e-4291cd665331","ios":"levelo://app?vid=d361bb1e-924a-4520-a90e-4291cd665331"},"vehicle_type_id":"4","last_reported":1753391439,"current_range_meters":6800,"station_id":"ce4bhip2rcd13ifvqft0","pricing_plan_id":"cebpf4jnsgd1na2vs0mg"},{"bike_id":"173a8cd1-2354-409b-ad35-dcab34687600","system_id":"levelo_inurba_marseille","lat":43.33022,"lon":5.39043,"is_reserved":false,"is_disabled":false,"rental_uris":{"android":"levelo://app?vid=173a8cd1-2354-409b-ad35-dcab34687600","ios":"levelo://app?vid=173a8cd1-2354-409b-ad35-dcab34687600"},"vehicle_type_id":"4","last_reported":1753391439,"current_range_meters":7200,"station_id":"ce4bhr92rcd13ifvqhrg","pricing_plan_id":"cebpf4jnsgd1na2vs0mg"},{"bike_id":"da053e6a-15f2-492e-8bc1-42b1d66cc329","system_id":"levelo_inurba_marseille","lat":43.28344,"lon":5.43266,"is_reserved":false,"is_disabled":false,"rental_uris":{"android":"levelo://app?vid=da053e6a-15f2-492e-8bc1-42b1d66cc329","ios":"levelo://app?vid=da053e6a-15f2-492e-8bc1-42b1d66cc329"},"vehicle_type_id":"4","last_reported":1753391439,"current_range_meters":7200,"station_id":"","pricing_plan_id":"cebpf4jnsgd1na2vs0mg"},{"bike_id":"8d4c0420-d0a3-4380-bcc1-62c045f8d4b9","system_id":"levelo_inurba_marseille","lat":43.26559,"lon":5.39049,"is_reserved":false,"is_disabled":true,"rental_uris":{"android":"levelo://app?vid=8d4c0420-d0a3-4380-bcc1-62c045f8d4b9","ios":"levelo://app?vid=8d4c0420-d0a3-4380-bcc1-62c045f8d4b9"},"vehicle_type_id":"4","last_reported":1753391439,"current_range_meters":7200,"station_id":"ce4bhe12rcd13ifvqf30","pricing_plan_id":"cebpf4jnsgd1na2vs0mg"},{"bike_id":"8a5578e4-085b-4375-bf06-adee92a4be10","system_id":"levelo_inurba_marseille","lat":43.279029,"lon":5.380078,"is_reserved":false,"is_disabled":false,"rental_uris":{"android":"levelo://app?vid=8a5578e4-085b-4375-bf06-adee92a4be10","ios":"levelo://app?vid=8a5578e4-085b-4375-bf06-adee92a4be10"},"vehicle_type_id":"4","last_reported":1753391439,"current_range_meters":7200,"station_id":"ce4bhf92rcd13ifvqf50","pricing_plan_id":"cebpf4jnsgd1na2vs0mg"},{"bike_id":"1a38f580-2e87-4704-aafe-111e1ce02134","system_id":"levelo_inurba_marseille","lat":43.29219,"lon":5.38442,"is_reserved":false,"is_disabled":false,"rental_uris":{"android":"levelo://app?vid=1a38f580-2e87-4704-aafe-111e1ce02134","ios":"levelo://app?vid=1a38f580-2e87-4704-aafe-111e1ce02134"},"vehicle_type_id":"4","last_reported":1753391439,"current_range_meters":7200,"station_id":"","pricing_plan_id":"cebpf4jnsgd1na2vs0mg"},{"bike_id":"1737a996-6c7d-41e4-bcc7-a7049bbd80a4","system_id":"levelo_inurba_marseille","lat":43.284424,"lon":5.385506,"is_reserved":false,"is_disabled":false,"rental_uris":{"android":"levelo://app?vid=1737a996-6c7d-41e4-bcc7-a7049bbd80a4","ios":"levelo://app?vid=1737a996-6c7d-41e4-bcc7-a7049bbd80a4"},"vehicle_type_id":"4","last_reported":1753391439,"current_range_meters":8000,"station_id":"ce4bh492rcd13ifvqdvg","pricing_plan_id":"cebpf4jnsgd1na2vs0mg"},{"bike_id":"f0034d69-a26d-4d02-b1be-f4979f0d1088","system_id":"levelo_inurba_marseille","lat":43.28676,"lon":5.38662,"is_reserved":false,"is_disabled":false,"rental_uris":{"android":"levelo://app?vid=f0034d69-a26d-4d02-b1be-f4979f0d1088","ios":"levelo://app?vid=f0034d69-a26d-4d02-b1be-f4979f0d1088"},"vehicle_type_id":"4","last_reported":1753391439,"current_range_meters":8000,"station_id":"ce4bh492rcd13ifvqdug","pricing_plan_id":"cebpf4jnsgd1na2vs0mg"},{"bike_id":"ce0ffc32-a366-4e8b-b135-ca54d0fd6cbb","system_id":"levelo_inurba_marseille","lat":43.262,"lon":5.3747,"is_reserved":false,"is_disabled":true,"rental_uris":{"android":"levelo://app?vid=ce0ffc32-a366-4e8b-b135-ca54d0fd6cbb","ios":"levelo://app?vid=ce0ffc32-a366-4e8b-b135-ca54d0fd6cbb"},"vehicle_type_id":"4","last_reported":1753391439,"current_range_meters":8400,"station_id":"ce4bhgp2rcd13ifvqfc0","pricing_plan_id":"cebpf4jnsgd1na2vs0mg"},{"bike_id":"e0f4556b-1525-4eff-ac19-a1270436371d","system_id":"levelo_inurba_marseille","lat":43.278174,"lon":5.397832,"is_reserved":false,"is_disabled":false,"rental_uris":{"android":"levelo://app?vid=e0f4556b-1525-4eff-ac19-a1270436371d","ios":"levelo://app?vid=e0f4556b-1525-4eff-ac19-a1270436371d"},"vehicle_type_id":"4","last_reported":1753391439,"current_range_meters":8400,"station_id":"","pricing_plan_id":"cebpf4jnsgd1na2vs0mg"},{"bike_id":"5767fec5-e60c-4455-8f4b-d2b0f8dfb77a","system_id":"levelo_inurba_marseille","lat":43.27944,"lon":5.41047,"is_reserved":false,"is_disabled":false,"rental_uris":{"android":"levelo://app?vid=5767fec5-e60c-4455-8f4b-d2b0f8dfb77a","ios":"levelo://app?vid=5767fec5-e60c-4455-8f4b-d2b0f8dfb77a"},"vehicle_type_id":"4","last_reported":1753391439,"current_range_meters":8400,"station_id":"ce4bhnp2rcd13ifvqh0g","pricing_plan_id":"cebpf4jnsgd1na2vs0mg"},{"bike_id":"87d9cc9e-fb09-41d9-ab2e-0f924589aaeb","system_id":"levelo_inurba_marseille","lat":43.31235,"lon":5.36872,"is_reserved":false,"is_disabled":true,"rental_uris":{"android":"levelo://app?vid=87d9cc9e-fb09-41d9-ab2e-0f924589aaeb","ios":"levelo://app?vid=87d9cc9e-fb09-41d9-ab2e-0f924589aaeb"},"vehicle_type_id":"4","last_reported":1753391439,"current_range_meters":8400,"station_id":"ce4bgl92rcd13ifvqbq0","pricing_plan_id":"cebpf4jnsgd1na2vs0mg"},{"bike_id":"fb9750f2-c887-4965-a008-0d58a938a146","system_id":"levelo_inurba_marseille","lat":43.31744,"lon":5.42426,"is_reserved":false,"is_disabled":false,"rental_uris":{"android":"levelo://app?vid=fb9750f2-c887-4965-a008-0d58a938a146","ios":"levelo://app?vid=fb9750f2-c887-4965-a008-0d58a938a146"},"vehicle_type_id":"4","last_reported":1753391439,"current_range_meters":8400,"station_id":"ce4bhp92rcd13ifvqhbg","pricing_plan_id":"cebpf4jnsgd1na2vs0mg"},{"bike_id":"1d37d228-6d7c-423d-9478-3c1488eae057","system_id":"levelo_inurba_marseille","lat":43.30141,"lon":5.39857,"is_reserved":false,"is_disabled":false,"rental_uris":{"android":"levelo://app?vid=1d37d228-6d7c-423d-9478-3c1488eae057","ios":"levelo://app?vid=1d37d228-6d7c-423d-9478-3c1488eae057"},"vehicle_type_id":"4","last_reported":1753391439,"current_range_meters":8400,"station_id":"ce4bh0h2rcd13ifvqd40","pricing_plan_id":"cebpf4jnsgd1na2vs0mg"},{"bike_id":"2ca740d4-ddb2-4ddb-9aac-e24868d0d023","system_id":"levelo_inurba_marseille","lat":43.29372,"lon":5.378522,"is_reserved":false,"is_disabled":false,"rental_uris":{"android":"levelo://app?vid=2ca740d4-ddb2-4ddb-9aac-e24868d0d023","ios":"levelo://app?vid=2ca740d4-ddb2-4ddb-9aac-e24868d0d023"},"vehicle_type_id":"4","last_reported":1753391439,"current_range_meters":8400,"station_id":"ce4bgjh2rcd13ifvqbf0","pricing_plan_id":"cebpf4jnsgd1na2vs0mg"},{"bike_id":"b81589cb-1061-4ae3-a0b2-d34a65b045b9","system_id":"levelo_inurba_marseille","lat":43.28099,"lon":5.37839,"is_reserved":false,"is_disabled":false,"rental_uris":{"android":"levelo://app?vid=b81589cb-1061-4ae3-a0b2-d34a65b045b9","ios":"levelo://app?vid=b81589cb-1061-4ae3-a0b2-d34a65b045b9"},"vehicle_type_id":"4","last_reported":1753391439,"current_range_meters":8400,"station_id":"ce4bha12rcd13ifvqee0","pricing_plan_id":"cebpf4jnsgd1na2vs0mg"},{"bike_id":"f3217e35-0bb5-43ab-beb0-dd5e233a7114","system_id":"levelo_inurba_marseille","lat":43.25578,"lon":5.382244,"is_reserved":false,"is_disabled":true,"rental_uris":{"android":"levelo://app?vid=f3217e35-0bb5-43ab-beb0-dd5e233a7114","ios":"levelo://app?vid=f3217e35-0bb5-43ab-beb0-dd5e233a7114"},"vehicle_type_id":"4","last_reported":1753391439,"current_range_meters":8800,"station_id":"ce4bhih2rcd13ifvqfs0","pricing_plan_id":"cebpf4jnsgd1na2vs0mg"},{"bike_id":"374af0d6-98b2-4ce6-ba63-386f17021a56","system_id":"levelo_inurba_marseille","lat":43.27177,"lon":5.40986,"is_reserved":false,"is_disabled":false,"rental_uris":{"android":"levelo://app?vid=374af0d6-98b2-4ce6-ba63-386f17021a56","ios":"levelo://app?vid=374af0d6-98b2-4ce6-ba63-386f17021a56"},"vehicle_type_id":"4","last_reported":1753391439,"current_range_meters":8800,"station_id":"ce4bhl12rcd13ifvqgf0","pricing_plan_id":"cebpf4jnsgd1na2vs0mg"},{"bike_id":"2936456c-77f6-4f82-a181-4bc2dd541746","system_id":"levelo_inurba_marseille","lat":43.29159,"lon":5.35794,"is_reserved":false,"is_disabled":true,"rental_uris":{"android":"levelo://app?vid=2936456c-77f6-4f82-a181-4bc2dd541746","ios":"levelo://app?vid=2936456c-77f6-4f82-a181-4bc2dd541746"},"vehicle_type_id":"4","last_reported":1753391439,"current_range_meters":9200,"station_id":"ce4bhb12rcd13ifvqel0","pricing_plan_id":"cebpf4jnsgd1na2vs0mg"},{"bike_id":"d4043fff-8474-4a89-965a-b8794944d0a3","system_id":"levelo_inurba_marseille","lat":43.23193,"lon":5.39987,"is_reserved":false,"is_disabled":true,"rental_uris":{"android":"levelo://app?vid=d4043fff-8474-4a89-965a-b8794944d0a3","ios":"levelo://app?vid=d4043fff-8474-4a89-965a-b8794944d0a3"},"vehicle_type_id":"4","last_reported":1753391439,"current_range_meters":9200,"station_id":"ce4bhn12rcd13ifvqgqg","pricing_plan_id":"cebpf4jnsgd1na2vs0mg"},{"bike_id":"fb0636a9-b047-46b4-b0d5-1652127dbe28","system_id":"levelo_inurba_marseille","lat":43.32108,"lon":5.36782,"is_reserved":false,"is_disabled":false,"rental_uris":{"android":"levelo://app?vid=fb0636a9-b047-46b4-b0d5-1652127dbe28","ios":"levelo://app?vid=fb0636a9-b047-46b4-b0d5-1652127dbe28"},"vehicle_type_id":"4","last_reported":1753391439,"current_range_meters":9200,"station_id":"ce4bhrh2rcd13ifvqhug","pricing_plan_id":"cebpf4jnsgd1na2vs0mg"},{"bike_id":"bc20f4ef-32ad-4973-9273-af14279017f4","system_id":"levelo_inurba_marseille","lat":43.32964,"lon":5.367807,"is_reserved":false,"is_disabled":false,"rental_uris":{"android":"levelo://app?vid=bc20f4ef-32ad-4973-9273-af14279017f4","ios":"levelo://app?vid=bc20f4ef-32ad-4973-9273-af14279017f4"},"vehicle_type_id":"4","last_reported":1753391439,"current_range_meters":9200,"station_id":"","pricing_plan_id":"cebpf4jnsgd1na2vs0mg"},{"bike_id":"bbc2b271-396f-4875-9f1d-0fcc163d87b6","system_id":"levelo_inurba_marseille","lat":43.29063,"lon":5.39928,"is_reserved":false,"is_disabled":false,"rental_uris":{"android":"levelo://app?vid=bbc2b271-396f-4875-9f1d-0fcc163d87b6","ios":"levelo://app?vid=bbc2b271-396f-4875-9f1d-0fcc163d87b6"},"vehicle_type_id":"4","last_reported":1753391439,"current_range_meters":9200,"station_id":"ce4bh392rcd13ifvqdm0","pricing_plan_id":"cebpf4jnsgd1na2vs0mg"},{"bike_id":"d4c612ab-8c20-4bce-8c5a-a1f4087b63f6","system_id":"levelo_inurba_marseille","lat":43.2957,"lon":5.39984,"is_reserved":false,"is_disabled":false,"rental_uris":{"android":"levelo://app?vid=d4c612ab-8c20-4bce-8c5a-a1f4087b63f6","ios":"levelo://app?vid=d4c612ab-8c20-4bce-8c5a-a1f4087b63f6"},"vehicle_type_id":"4","last_reported":1753391439,"current_range_meters":8800,"station_id":"ce4bh312rcd13ifvqdj0","pricing_plan_id":"cebpf4jnsgd1na2vs0mg"},{"bike_id":"7250624a-63df-4e44-9e5a-1056e5f8a90f","system_id":"levelo_inurba_marseille","lat":43.29147,"lon":5.40867,"is_reserved":false,"is_disabled":false,"rental_uris":{"android":"levelo://app?vid=7250624a-63df-4e44-9e5a-1056e5f8a90f","ios":"levelo://app?vid=7250624a-63df-4e44-9e5a-1056e5f8a90f"},"vehicle_type_id":"4","last_reported":1753391439,"current_range_meters":9200,"station_id":"","pricing_plan_id":"cebpf4jnsgd1na2vs0mg"},{"bike_id":"223c72e9-a7a4-4dc0-8e2a-5e00663f4042","system_id":"levelo_inurba_marseille","lat":43.25001,"lon":5.38926,"is_reserved":false,"is_disabled":false,"rental_uris":{"android":"levelo://app?vid=223c72e9-a7a4-4dc0-8e2a-5e00663f4042","ios":"levelo://app?vid=223c72e9-a7a4-4dc0-8e2a-5e00663f4042"},"vehicle_type_id":"4","last_reported":1753391439,"current_range_meters":8800,"station_id":"ce4bhgp2rcd13ifvqfd0","pricing_plan_id":"cebpf4jnsgd1na2vs0mg"},{"bike_id":"2ae8311e-bd70-4464-8bdd-28100632ed7c","system_id":"levelo_inurba_marseille","lat":43.29202,"lon":5.39322,"is_reserved":false,"is_disabled":false,"rental_uris":{"android":"levelo://app?vid=2ae8311e-bd70-4464-8bdd-28100632ed7c","ios":"levelo://app?vid=2ae8311e-bd70-4464-8bdd-28100632ed7c"},"vehicle_type_id":"4","last_reported":1753391439,"current_range_meters":9200,"station_id":"ce4bh192rcd13ifvqdd0","pricing_plan_id":"cebpf4jnsgd1na2vs0mg"},{"bike_id":"3b19d704-e79b-4f87-9a75-b68e4b9ba075","system_id":"levelo_inurba_marseille","lat":43.29254,"lon":5.38436,"is_reserved":false,"is_disabled":false,"rental_uris":{"android":"levelo://app?vid=3b19d704-e79b-4f87-9a75-b68e4b9ba075","ios":"levelo://app?vid=3b19d704-e79b-4f87-9a75-b68e4b9ba075"},"vehicle_type_id":"4","last_reported":1753391439,"current_range_meters":9200,"station_id":"ce4bh692rcd13ifvqea0","pricing_plan_id":"cebpf4jnsgd1na2vs0mg"},{"bike_id":"e9c93bea-26ae-47db-8499-978661b05f35","system_id":"levelo_inurba_marseille","lat":43.29702,"lon":5.36596,"is_reserved":false,"is_disabled":false,"rental_uris":{"android":"levelo://app?vid=e9c93bea-26ae-47db-8499-978661b05f35","ios":"levelo://app?vid=e9c93bea-26ae-47db-8499-978661b05f35"},"vehicle_type_id":"4","last_reported":1753391439,"current_range_meters":9200,"station_id":"ce4bgn12rcd13ifvqbt0","pricing_plan_id":"cebpf4jnsgd1na2vs0mg"},{"bike_id":"b5ce8d93-17c0-45a5-b2b1-eefce45c2d79","system_id":"levelo_inurba_marseille","lat":43.29272,"lon":5.44592,"is_reserved":false,"is_disabled":false,"rental_uris":{"android":"levelo://app?vid=b5ce8d93-17c0-45a5-b2b1-eefce45c2d79","ios":"levelo://app?vid=b5ce8d93-17c0-45a5-b2b1-eefce45c2d79"},"vehicle_type_id":"4","last_reported":1753391439,"current_range_meters":9600,"station_id":"","pricing_plan_id":"cebpf4jnsgd1na2vs0mg"},{"bike_id":"103f1055-8f09-4334-abab-9f44037f0884","system_id":"levelo_inurba_marseille","lat":43.2319,"lon":5.35561,"is_reserved":false,"is_disabled":true,"rental_uris":{"android":"levelo://app?vid=103f1055-8f09-4334-abab-9f44037f0884","ios":"levelo://app?vid=103f1055-8f09-4334-abab-9f44037f0884"},"vehicle_type_id":"4","last_reported":1753391439,"current_range_meters":9600,"station_id":"ce4bhu92rcd13ifvqi70","pricing_plan_id":"cebpf4jnsgd1na2vs0mg"},{"bike_id":"872f3585-d81e-4c41-90c4-06523e6dd2b3","system_id":"levelo_inurba_marseille","lat":43.28705,"lon":5.39979,"is_reserved":false,"is_disabled":false,"rental_uris":{"android":"levelo://app?vid=872f3585-d81e-4c41-90c4-06523e6dd2b3","ios":"levelo://app?vid=872f3585-d81e-4c41-90c4-06523e6dd2b3"},"vehicle_type_id":"4","last_reported":1753391439,"current_range_meters":9600,"station_id":"ce4bho92rcd13ifvqh3g","pricing_plan_id":"cebpf4jnsgd1na2vs0mg"},{"bike_id":"0a7cf1b0-976e-43f6-be59-2b74afda25b1","system_id":"levelo_inurba_marseille","lat":43.28685,"lon":5.41326,"is_reserved":false,"is_disabled":false,"rental_uris":{"android":"levelo://app?vid=0a7cf1b0-976e-43f6-be59-2b74afda25b1","ios":"levelo://app?vid=0a7cf1b0-976e-43f6-be59-2b74afda25b1"},"vehicle_type_id":"4","last_reported":1753391439,"current_range_meters":9600,"station_id":"","pricing_plan_id":"cebpf4jnsgd1na2vs0mg"},{"bike_id":"1242185d-2b3c-44b4-8f56-bd2cf4041b46","system_id":"levelo_inurba_marseille","lat":43.288545,"lon":5.358527,"is_reserved":false,"is_disabled":false,"rental_uris":{"android":"levelo://app?vid=1242185d-2b3c-44b4-8f56-bd2cf4041b46","ios":"levelo://app?vid=1242185d-2b3c-44b4-8f56-bd2cf4041b46"},"vehicle_type_id":"4","last_reported":1753391439,"current_range_meters":9600,"station_id":"","pricing_plan_id":"cebpf4jnsgd1na2vs0mg"},{"bike_id":"8fc40684-9b2f-4471-90f0-d80318962260","system_id":"levelo_inurba_marseille","lat":43.28564,"lon":5.37763,"is_reserved":false,"is_disabled":false,"rental_uris":{"android":"levelo://app?vid=8fc40684-9b2f-4471-90f0-d80318962260","ios":"levelo://app?vid=8fc40684-9b2f-4471-90f0-d80318962260"},"vehicle_type_id":"4","last_reported":1753391439,"current_range_meters":9600,"station_id":"","pricing_plan_id":"cebpf4jnsgd1na2vs0mg"},{"bike_id":"91f8d4d5-04e4-407e-b067-13ce2f3b81fa","system_id":"levelo_inurba_marseille","lat":43.293,"lon":5.40136,"is_reserved":false,"is_disabled":false,"rental_uris":{"android":"levelo://app?vid=91f8d4d5-04e4-407e-b067-13ce2f3b81fa","ios":"levelo://app?vid=91f8d4d5-04e4-407e-b067-13ce2f3b81fa"},"vehicle_type_id":"4","last_reported":1753391439,"current_range_meters":10000,"station_id":"ce4bh312rcd13ifvqdk0","pricing_plan_id":"cebpf4jnsgd1na2vs0mg"},{"bike_id":"d6f40dc1-27da-4a67-8ed3-8cd86d65885d","system_id":"levelo_inurba_marseille","lat":43.29268,"lon":5.40155,"is_reserved":false,"is_disabled":false,"rental_uris":{"android":"levelo://app?vid=d6f40dc1-27da-4a67-8ed3-8cd86d65885d","ios":"levelo://app?vid=d6f40dc1-27da-4a67-8ed3-8cd86d65885d"},"vehicle_type_id":"4","last_reported":1753391439,"current_range_meters":10000,"station_id":"ce4bh312rcd13ifvqdk0","pricing_plan_id":"cebpf4jnsgd1na2vs0mg"},{"bike_id":"20b3ac39-d220-4d0b-8848-1b7f328b0525","system_id":"levelo_inurba_marseille","lat":43.26179,"lon":5.40446,"is_reserved":false,"is_disabled":true,"rental_uris":{"android":"levelo://app?vid=20b3ac39-d220-4d0b-8848-1b7f328b0525","ios":"levelo://app?vid=20b3ac39-d220-4d0b-8848-1b7f328b0525"},"vehicle_type_id":"4","last_reported":1753391439,"current_range_meters":10000,"station_id":"ce4bhmh2rcd13ifvqgmg","pricing_plan_id":"cebpf4jnsgd1na2vs0mg"},{"bike_id":"300a4756-01bd-4e0c-90d5-87daadcf6e14","system_id":"levelo_inurba_marseille","lat":43.290972,"lon":5.359105,"is_reserved":false,"is_disabled":true,"rental_uris":{"android":"levelo://app?vid=300a4756-01bd-4e0c-90d5-87daadcf6e14","ios":"levelo://app?vid=300a4756-01bd-4e0c-90d5-87daadcf6e14"},"vehicle_type_id":"4","last_reported":1753391439,"current_range_meters":10000,"station_id":"","pricing_plan_id":"cebpf4jnsgd1na2vs0mg"},{"bike_id":"ae131367-d818-44a0-9e1d-4aa65dcdb16a","system_id":"levelo_inurba_marseille","lat":43.27497,"lon":5.39654,"is_reserved":false,"is_disabled":false,"rental_uris":{"android":"levelo://app?vid=ae131367-d818-44a0-9e1d-4aa65dcdb16a","ios":"levelo://app?vid=ae131367-d818-44a0-9e1d-4aa65dcdb16a"},"vehicle_type_id":"4","last_reported":1753391439,"current_range_meters":10000,"station_id":"","pricing_plan_id":"cebpf4jnsgd1na2vs0mg"},{"bike_id":"2eee3cc3-8307-4686-ab2d-5018248f4684","system_id":"levelo_inurba_marseille","lat":43.29281,"lon":5.40117,"is_reserved":false,"is_disabled":false,"rental_uris":{"android":"levelo://app?vid=2eee3cc3-8307-4686-ab2d-5018248f4684","ios":"levelo://app?vid=2eee3cc3-8307-4686-ab2d-5018248f4684"},"vehicle_type_id":"4","last_reported":1753391439,"current_range_meters":10000,"station_id":"ce4bh312rcd13ifvqdk0","pricing_plan_id":"cebpf4jnsgd1na2vs0mg"},{"bike_id":"681ba25d-1076-4532-97b6-bbcc1dd1056b","system_id":"levelo_inurba_marseille","lat":43.29944,"lon":5.37184,"is_reserved":false,"is_disabled":false,"rental_uris":{"android":"levelo://app?vid=681ba25d-1076-4532-97b6-bbcc1dd1056b","ios":"levelo://app?vid=681ba25d-1076-4532-97b6-bbcc1dd1056b"},"vehicle_type_id":"4","last_reported":1753391439,"current_range_meters":10800,"station_id":"","pricing_plan_id":"cebpf4jnsgd1na2vs0mg"},{"bike_id":"3cd09fc8-9554-4236-8496-0931a7be09d1","system_id":"levelo_inurba_marseille","lat":43.2118,"lon":5.3509,"is_reserved":false,"is_disabled":false,"rental_uris":{"android":"levelo://app?vid=3cd09fc8-9554-4236-8496-0931a7be09d1","ios":"levelo://app?vid=3cd09fc8-9554-4236-8496-0931a7be09d1"},"vehicle_type_id":"4","last_reported":1753391439,"current_range_meters":10000,"station_id":"st_cvj6sg6p6f1abm77japg","pricing_plan_id":"cebpf4jnsgd1na2vs0mg"},{"bike_id":"64d966be-c158-4d40-99d1-bd962a14c759","system_id":"levelo_inurba_marseille","lat":43.30609,"lon":5.3723,"is_reserved":false,"is_disabled":false,"rental_uris":{"android":"levelo://app?vid=64d966be-c158-4d40-99d1-bd962a14c759","ios":"levelo://app?vid=64d966be-c158-4d40-99d1-bd962a14c759"},"vehicle_type_id":"4","last_reported":1753391439,"current_range_meters":10000,"station_id":"ce4bgqh2rcd13ifvqc4g","pricing_plan_id":"cebpf4jnsgd1na2vs0mg"},{"bike_id":"9625bad5-5308-466d-95df-ebf0bf8bdeed","system_id":"levelo_inurba_marseille","lat":43.28371,"lon":5.38643,"is_reserved":false,"is_disabled":false,"rental_uris":{"android":"levelo://app?vid=9625bad5-5308-466d-95df-ebf0bf8bdeed","ios":"levelo://app?vid=9625bad5-5308-466d-95df-ebf0bf8bdeed"},"vehicle_type_id":"4","last_reported":1753391439,"current_range_meters":10000,"station_id":"ce4bh492rcd13ifvqdvg","pricing_plan_id":"cebpf4jnsgd1na2vs0mg"},{"bike_id":"2ae83899-90fd-4b59-b691-4169c75aef1a","system_id":"levelo_inurba_marseille","lat":43.33762,"lon":5.37447,"is_reserved":false,"is_disabled":false,"rental_uris":{"android":"levelo://app?vid=2ae83899-90fd-4b59-b691-4169c75aef1a","ios":"levelo://app?vid=2ae83899-90fd-4b59-b691-4169c75aef1a"},"vehicle_type_id":"4","last_reported":1753391439,"current_range_meters":10000,"station_id":"","pricing_plan_id":"cebpf4jnsgd1na2vs0mg"},{"bike_id":"9e604628-bf44-4b75-9b62-320a105527f6","system_id":"levelo_inurba_marseille","lat":43.32365,"lon":5.36741,"is_reserved":false,"is_disabled":false,"rental_uris":{"android":"levelo://app?vid=9e604628-bf44-4b75-9b62-320a105527f6","ios":"levelo://app?vid=9e604628-bf44-4b75-9b62-320a105527f6"},"vehicle_type_id":"4","last_reported":1753391439,"current_range_meters":10000,"station_id":"ce4bhsh2rcd13ifvqi2g","pricing_plan_id":"cebpf4jnsgd1na2vs0mg"},{"bike_id":"5ac85406-65d0-4336-aa89-4b04b2e6689e","system_id":"levelo_inurba_marseille","lat":43.33247,"lon":5.41988,"is_reserved":false,"is_disabled":false,"rental_uris":{"android":"levelo://app?vid=5ac85406-65d0-4336-aa89-4b04b2e6689e","ios":"levelo://app?vid=5ac85406-65d0-4336-aa89-4b04b2e6689e"},"vehicle_type_id":"4","last_reported":1753391439,"current_range_meters":10800,"station_id":"","pricing_plan_id":"cebpf4jnsgd1na2vs0mg"},{"bike_id":"c056311f-78c9-4e18-8685-91c659ddb125","system_id":"levelo_inurba_marseille","lat":43.31628,"lon":5.38965,"is_reserved":false,"is_disabled":false,"rental_uris":{"android":"levelo://app?vid=c056311f-78c9-4e18-8685-91c659ddb125","ios":"levelo://app?vid=c056311f-78c9-4e18-8685-91c659ddb125"},"vehicle_type_id":"4","last_reported":1753391439,"current_range_meters":10800,"station_id":"","pricing_plan_id":"cebpf4jnsgd1na2vs0mg"},{"bike_id":"d9771e4c-df7c-4e87-bdcf-c62f852e4e79","system_id":"levelo_inurba_marseille","lat":43.29025,"lon":5.38643,"is_reserved":false,"is_disabled":false,"rental_uris":{"android":"levelo://app?vid=d9771e4c-df7c-4e87-bdcf-c62f852e4e79","ios":"levelo://app?vid=d9771e4c-df7c-4e87-bdcf-c62f852e4e79"},"vehicle_type_id":"4","last_reported":1753391439,"current_range_meters":10800,"station_id":"ce4bh4p2rcd13ifvqe0g","pricing_plan_id":"cebpf4jnsgd1na2vs0mg"},{"bike_id":"2006d6ab-c619-4a15-b9f3-97c1160843f0","system_id":"levelo_inurba_marseille","lat":43.28161,"lon":5.36124,"is_reserved":false,"is_disabled":false,"rental_uris":{"android":"levelo://app?vid=2006d6ab-c619-4a15-b9f3-97c1160843f0","ios":"levelo://app?vid=2006d6ab-c619-4a15-b9f3-97c1160843f0"},"vehicle_type_id":"4","last_reported":1753391439,"current_range_meters":10800,"station_id":"","pricing_plan_id":"cebpf4jnsgd1na2vs0mg"},{"bike_id":"cb480ee2-ed3f-424d-ba59-872bdc396a71","system_id":"levelo_inurba_marseille","lat":43.31082,"lon":5.42441,"is_reserved":false,"is_disabled":false,"rental_uris":{"android":"levelo://app?vid=cb480ee2-ed3f-424d-ba59-872bdc396a71","ios":"levelo://app?vid=cb480ee2-ed3f-424d-ba59-872bdc396a71"},"vehicle_type_id":"4","last_reported":1753391439,"current_range_meters":10800,"station_id":"ce4bhp92rcd13ifvqhag","pricing_plan_id":"cebpf4jnsgd1na2vs0mg"},{"bike_id":"a4b946b9-d774-4aa8-a674-ad0eb8d743ec","system_id":"levelo_inurba_marseille","lat":43.29036,"lon":5.37222,"is_reserved":false,"is_disabled":false,"rental_uris":{"android":"levelo://app?vid=a4b946b9-d774-4aa8-a674-ad0eb8d743ec","ios":"levelo://app?vid=a4b946b9-d774-4aa8-a674-ad0eb8d743ec"},"vehicle_type_id":"4","last_reported":1753391439,"current_range_meters":10800,"station_id":"","pricing_plan_id":"cebpf4jnsgd1na2vs0mg"},{"bike_id":"e40610f7-11cc-4541-9b52-ccb338d265f6","system_id":"levelo_inurba_marseille","lat":43.317448,"lon":5.438083,"is_reserved":false,"is_disabled":false,"rental_uris":{"android":"levelo://app?vid=e40610f7-11cc-4541-9b52-ccb338d265f6","ios":"levelo://app?vid=e40610f7-11cc-4541-9b52-ccb338d265f6"},"vehicle_type_id":"4","last_reported":1753391439,"current_range_meters":11200,"station_id":"ce4bhp92rcd13ifvqhcg","pricing_plan_id":"cebpf4jnsgd1na2vs0mg"},{"bike_id":"cde09118-4e23-4bb2-b849-33e3f64e39e6","system_id":"levelo_inurba_marseille","lat":43.28442,"lon":5.39202,"is_reserved":false,"is_disabled":false,"rental_uris":{"android":"levelo://app?vid=cde09118-4e23-4bb2-b849-33e3f64e39e6","ios":"levelo://app?vid=cde09118-4e23-4bb2-b849-33e3f64e39e6"},"vehicle_type_id":"4","last_reported":1753391439,"current_range_meters":11200,"station_id":"ce4bhoh2rcd13ifvqh5g","pricing_plan_id":"cebpf4jnsgd1na2vs0mg"},{"bike_id":"4672c998-1997-43e5-921f-5a7f3913e2f6","system_id":"levelo_inurba_marseille","lat":43.32656,"lon":5.40989,"is_reserved":false,"is_disabled":false,"rental_uris":{"android":"levelo://app?vid=4672c998-1997-43e5-921f-5a7f3913e2f6","ios":"levelo://app?vid=4672c998-1997-43e5-921f-5a7f3913e2f6"},"vehicle_type_id":"4","last_reported":1753391439,"current_range_meters":11200,"station_id":"ce4bhpp2rcd13ifvqhgg","pricing_plan_id":"cebpf4jnsgd1na2vs0mg"},{"bike_id":"3ac9e330-1df6-4fa0-8e3b-17f5d696b48c","system_id":"levelo_inurba_marseille","lat":43.27366,"lon":5.3625,"is_reserved":false,"is_disabled":false,"rental_uris":{"android":"levelo://app?vid=3ac9e330-1df6-4fa0-8e3b-17f5d696b48c","ios":"levelo://app?vid=3ac9e330-1df6-4fa0-8e3b-17f5d696b48c"},"vehicle_type_id":"4","last_reported":1753391439,"current_range_meters":11600,"station_id":"ce4bhbh2rcd13ifvqeo0","pricing_plan_id":"cebpf4jnsgd1na2vs0mg"},{"bike_id":"b57f5444-81ff-4a62-9ea3-1b3feaeafb55","system_id":"levelo_inurba_marseille","lat":43.28325,"lon":5.38106,"is_reserved":false,"is_disabled":true,"rental_uris":{"android":"levelo://app?vid=b57f5444-81ff-4a62-9ea3-1b3feaeafb55","ios":"levelo://app?vid=b57f5444-81ff-4a62-9ea3-1b3feaeafb55"},"vehicle_type_id":"4","last_reported":1753391439,"current_range_meters":11600,"station_id":"ce4bh412rcd13ifvqdr0","pricing_plan_id":"cebpf4jnsgd1na2vs0mg"},{"bike_id":"6bb1f31c-9335-4f39-9585-31374a4775f9","system_id":"levelo_inurba_marseille","lat":43.325583,"lon":5.379059,"is_reserved":false,"is_disabled":false,"rental_uris":{"android":"levelo://app?vid=6bb1f31c-9335-4f39-9585-31374a4775f9","ios":"levelo://app?vid=6bb1f31c-9335-4f39-9585-31374a4775f9"},"vehicle_type_id":"4","last_reported":1753391439,"current_range_meters":11600,"station_id":"","pricing_plan_id":"cebpf4jnsgd1na2vs0mg"},{"bike_id":"90baef95-d8f8-4784-893d-8a0418fdd837","system_id":"levelo_inurba_marseille","lat":43.29526,"lon":5.38551,"is_reserved":false,"is_disabled":false,"rental_uris":{"android":"levelo://app?vid=90baef95-d8f8-4784-893d-8a0418fdd837","ios":"levelo://app?vid=90baef95-d8f8-4784-893d-8a0418fdd837"},"vehicle_type_id":"4","last_reported":1753391439,"current_range_meters":11600,"station_id":"ce4bgih2rcd13ifvqba0","pricing_plan_id":"cebpf4jnsgd1na2vs0mg"},{"bike_id":"18b86593-4f21-41ed-81b3-f3a5b378dc91","system_id":"levelo_inurba_marseille","lat":43.312335,"lon":5.381263,"is_reserved":false,"is_disabled":false,"rental_uris":{"android":"levelo://app?vid=18b86593-4f21-41ed-81b3-f3a5b378dc91","ios":"levelo://app?vid=18b86593-4f21-41ed-81b3-f3a5b378dc91"},"vehicle_type_id":"4","last_reported":1753391439,"current_range_meters":11600,"station_id":"","pricing_plan_id":"cebpf4jnsgd1na2vs0mg"},{"bike_id":"6a95c831-81fc-4eff-8256-834e950cede6","system_id":"levelo_inurba_marseille","lat":43.26559,"lon":5.3729,"is_reserved":false,"is_disabled":false,"rental_uris":{"android":"levelo://app?vid=6a95c831-81fc-4eff-8256-834e950cede6","ios":"levelo://app?vid=6a95c831-81fc-4eff-8256-834e950cede6"},"vehicle_type_id":"4","last_reported":1753391439,"current_range_meters":11600,"station_id":"","pricing_plan_id":"cebpf4jnsgd1na2vs0mg"},{"bike_id":"61669521-2c65-4931-bc2c-4bdfe86f873c","system_id":"levelo_inurba_marseille","lat":43.21747,"lon":5.34627,"is_reserved":false,"is_disabled":false,"rental_uris":{"android":"levelo://app?vid=61669521-2c65-4931-bc2c-4bdfe86f873c","ios":"levelo://app?vid=61669521-2c65-4931-bc2c-4bdfe86f873c"},"vehicle_type_id":"4","last_reported":1753391439,"current_range_meters":11600,"station_id":"","pricing_plan_id":"cebpf4jnsgd1na2vs0mg"},{"bike_id":"23676bb6-ebf4-4de2-a907-47cd4c593fa5","system_id":"levelo_inurba_marseille","lat":43.29535,"lon":5.38538,"is_reserved":false,"is_disabled":false,"rental_uris":{"android":"levelo://app?vid=23676bb6-ebf4-4de2-a907-47cd4c593fa5","ios":"levelo://app?vid=23676bb6-ebf4-4de2-a907-47cd4c593fa5"},"vehicle_type_id":"4","last_reported":1753391439,"current_range_meters":11600,"station_id":"ce4bgih2rcd13ifvqba0","pricing_plan_id":"cebpf4jnsgd1na2vs0mg"},{"bike_id":"1ad257b5-7f83-42c1-867f-92635ff1abbf","system_id":"levelo_inurba_marseille","lat":43.22939,"lon":5.35394,"is_reserved":false,"is_disabled":false,"rental_uris":{"android":"levelo://app?vid=1ad257b5-7f83-42c1-867f-92635ff1abbf","ios":"levelo://app?vid=1ad257b5-7f83-42c1-867f-92635ff1abbf"},"vehicle_type_id":"4","last_reported":1753391439,"current_range_meters":11600,"station_id":"cpo3532slgdg3j2ikp40","pricing_plan_id":"cebpf4jnsgd1na2vs0mg"},{"bike_id":"05d80e3a-f035-4297-aa8b-6b3aa5f05660","system_id":"levelo_inurba_marseille","lat":43.32105,"lon":5.36766,"is_reserved":false,"is_disabled":false,"rental_uris":{"android":"levelo://app?vid=05d80e3a-f035-4297-aa8b-6b3aa5f05660","ios":"levelo://app?vid=05d80e3a-f035-4297-aa8b-6b3aa5f05660"},"vehicle_type_id":"4","last_reported":1753391439,"current_range_meters":12000,"station_id":"ce4bhrh2rcd13ifvqhug","pricing_plan_id":"cebpf4jnsgd1na2vs0mg"},{"bike_id":"dd71c597-cc14-4dd7-8d23-23b6fa189262","system_id":"levelo_inurba_marseille","lat":43.28151,"lon":5.42641,"is_reserved":false,"is_disabled":false,"rental_uris":{"android":"levelo://app?vid=dd71c597-cc14-4dd7-8d23-23b6fa189262","ios":"levelo://app?vid=dd71c597-cc14-4dd7-8d23-23b6fa189262"},"vehicle_type_id":"4","last_reported":1753391439,"current_range_meters":12000,"station_id":"ce4bhnh2rcd13ifvqgug","pricing_plan_id":"cebpf4jnsgd1na2vs0mg"},{"bike_id":"7ae4980d-ac6a-47ed-8d0d-1fa6aeceec9b","system_id":"levelo_inurba_marseille","lat":43.29267,"lon":5.3844,"is_reserved":false,"is_disabled":false,"rental_uris":{"android":"levelo://app?vid=7ae4980d-ac6a-47ed-8d0d-1fa6aeceec9b","ios":"levelo://app?vid=7ae4980d-ac6a-47ed-8d0d-1fa6aeceec9b"},"vehicle_type_id":"4","last_reported":1753391439,"current_range_meters":12000,"station_id":"ce4bh692rcd13ifvqea0","pricing_plan_id":"cebpf4jnsgd1na2vs0mg"},{"bike_id":"31e3d21a-d57c-4d89-ae7b-4ff14441f69a","system_id":"levelo_inurba_marseille","lat":43.30794,"lon":5.38153,"is_reserved":false,"is_disabled":false,"rental_uris":{"android":"levelo://app?vid=31e3d21a-d57c-4d89-ae7b-4ff14441f69a","ios":"levelo://app?vid=31e3d21a-d57c-4d89-ae7b-4ff14441f69a"},"vehicle_type_id":"4","last_reported":1753391439,"current_range_meters":12000,"station_id":"ce4bgt12rcd13ifvqce0","pricing_plan_id":"cebpf4jnsgd1na2vs0mg"},{"bike_id":"15764e5c-9dbf-4127-b7d5-4ec1473657e5","system_id":"levelo_inurba_marseille","lat":43.28945,"lon":5.36408,"is_reserved":false,"is_disabled":false,"rental_uris":{"android":"levelo://app?vid=15764e5c-9dbf-4127-b7d5-4ec1473657e5","ios":"levelo://app?vid=15764e5c-9dbf-4127-b7d5-4ec1473657e5"},"vehicle_type_id":"4","last_reported":1753391439,"current_range_meters":12000,"station_id":"ce4bhc92rcd13ifvqetg","pricing_plan_id":"cebpf4jnsgd1na2vs0mg"},{"bike_id":"3ec311a9-a32b-4001-91d6-375453161c80","system_id":"levelo_inurba_marseille","lat":43.26555,"lon":5.37306,"is_reserved":false,"is_disabled":false,"rental_uris":{"android":"levelo://app?vid=3ec311a9-a32b-4001-91d6-375453161c80","ios":"levelo://app?vid=3ec311a9-a32b-4001-91d6-375453161c80"},"vehicle_type_id":"4","last_reported":1753391439,"current_range_meters":12000,"station_id":"ce4bhg12rcd13ifvqf70","pricing_plan_id":"cebpf4jnsgd1na2vs0mg"},{"bike_id":"9437277c-d886-4a0b-9535-11724bd91051","system_id":"levelo_inurba_marseille","lat":43.27082,"lon":5.42269,"is_reserved":false,"is_disabled":false,"rental_uris":{"android":"levelo://app?vid=9437277c-d886-4a0b-9535-11724bd91051","ios":"levelo://app?vid=9437277c-d886-4a0b-9535-11724bd91051"},"vehicle_type_id":"4","last_reported":1753391439,"current_range_meters":12000,"station_id":"ce4bhk92rcd13ifvqgb0","pricing_plan_id":"cebpf4jnsgd1na2vs0mg"},{"bike_id":"89a8529e-8879-4124-8039-b907686611bc","system_id":"levelo_inurba_marseille","lat":43.29543,"lon":5.38537,"is_reserved":false,"is_disabled":false,"rental_uris":{"android":"levelo://app?vid=89a8529e-8879-4124-8039-b907686611bc","ios":"levelo://app?vid=89a8529e-8879-4124-8039-b907686611bc"},"vehicle_type_id":"4","last_reported":1753391439,"current_range_meters":12400,"station_id":"ce4bgih2rcd13ifvqba0","pricing_plan_id":"cebpf4jnsgd1na2vs0mg"},{"bike_id":"b913c24d-ffa7-4a46-9ee5-97549d6a74ee","system_id":"levelo_inurba_marseille","lat":43.26773,"lon":5.39418,"is_reserved":false,"is_disabled":true,"rental_uris":{"android":"levelo://app?vid=b913c24d-ffa7-4a46-9ee5-97549d6a74ee","ios":"levelo://app?vid=b913c24d-ffa7-4a46-9ee5-97549d6a74ee"},"vehicle_type_id":"4","last_reported":1753391439,"current_range_meters":12400,"station_id":"ce4bhh12rcd13ifvqfg0","pricing_plan_id":"cebpf4jnsgd1na2vs0mg"},{"bike_id":"cc5dbab6-22b7-4bf7-83b4-2f2dc7b1ca62","system_id":"levelo_inurba_marseille","lat":43.25118,"lon":5.40325,"is_reserved":false,"is_disabled":false,"rental_uris":{"android":"levelo://app?vid=cc5dbab6-22b7-4bf7-83b4-2f2dc7b1ca62","ios":"levelo://app?vid=cc5dbab6-22b7-4bf7-83b4-2f2dc7b1ca62"},"vehicle_type_id":"4","last_reported":1753391439,"current_range_meters":12400,"station_id":"ce4bhlh2rcd13ifvqgig","pricing_plan_id":"cebpf4jnsgd1na2vs0mg"},{"bike_id":"40bb107a-602e-4eef-b5cc-428b4bf88074","system_id":"levelo_inurba_marseille","lat":43.28098,"lon":5.37838,"is_reserved":false,"is_disabled":false,"rental_uris":{"android":"levelo://app?vid=40bb107a-602e-4eef-b5cc-428b4bf88074","ios":"levelo://app?vid=40bb107a-602e-4eef-b5cc-428b4bf88074"},"vehicle_type_id":"4","last_reported":1753391439,"current_range_meters":12400,"station_id":"ce4bha12rcd13ifvqee0","pricing_plan_id":"cebpf4jnsgd1na2vs0mg"},{"bike_id":"a5ec0df8-a141-453d-bf18-19268a53af5b","system_id":"levelo_inurba_marseille","lat":43.28136,"lon":5.42662,"is_reserved":false,"is_disabled":false,"rental_uris":{"android":"levelo://app?vid=a5ec0df8-a141-453d-bf18-19268a53af5b","ios":"levelo://app?vid=a5ec0df8-a141-453d-bf18-19268a53af5b"},"vehicle_type_id":"4","last_reported":1753391439,"current_range_meters":12400,"station_id":"ce4bhnh2rcd13ifvqgug","pricing_plan_id":"cebpf4jnsgd1na2vs0mg"},{"bike_id":"0ec2e8dd-bd89-448d-8300-ec2b562b0dcb","system_id":"levelo_inurba_marseille","lat":43.304009,"lon":5.373408,"is_reserved":false,"is_disabled":false,"rental_uris":{"android":"levelo://app?vid=0ec2e8dd-bd89-448d-8300-ec2b562b0dcb","ios":"levelo://app?vid=0ec2e8dd-bd89-448d-8300-ec2b562b0dcb"},"vehicle_type_id":"4","last_reported":1753391439,"current_range_meters":12000,"station_id":"ce4bgqh2rcd13ifvqc4g","pricing_plan_id":"cebpf4jnsgd1na2vs0mg"},{"bike_id":"46e5b704-0f49-498f-92f3-b52af67ca47c","system_id":"levelo_inurba_marseille","lat":43.29599,"lon":5.38087,"is_reserved":false,"is_disabled":false,"rental_uris":{"android":"levelo://app?vid=46e5b704-0f49-498f-92f3-b52af67ca47c","ios":"levelo://app?vid=46e5b704-0f49-498f-92f3-b52af67ca47c"},"vehicle_type_id":"4","last_reported":1753391439,"current_range_meters":12400,"station_id":"ce4bgl12rcd13ifvqbo0","pricing_plan_id":"cebpf4jnsgd1na2vs0mg"},{"bike_id":"7cdf1158-e634-4c09-a4a2-ab2da7931d3b","system_id":"levelo_inurba_marseille","lat":43.287,"lon":5.37392,"is_reserved":false,"is_disabled":false,"rental_uris":{"android":"levelo://app?vid=7cdf1158-e634-4c09-a4a2-ab2da7931d3b","ios":"levelo://app?vid=7cdf1158-e634-4c09-a4a2-ab2da7931d3b"},"vehicle_type_id":"4","last_reported":1753391439,"current_range_meters":12000,"station_id":"ce4bh3p2rcd13ifvqdq0","pricing_plan_id":"cebpf4jnsgd1na2vs0mg"},{"bike_id":"57941dba-0e76-4cd1-9074-4a97e1ffa0b1","system_id":"levelo_inurba_marseille","lat":43.28077,"lon":5.39656,"is_reserved":false,"is_disabled":false,"rental_uris":{"android":"levelo://app?vid=57941dba-0e76-4cd1-9074-4a97e1ffa0b1","ios":"levelo://app?vid=57941dba-0e76-4cd1-9074-4a97e1ffa0b1"},"vehicle_type_id":"4","last_reported":1753391439,"current_range_meters":12400,"station_id":"ce4bho12rcd13ifvqh2g","pricing_plan_id":"cebpf4jnsgd1na2vs0mg"},{"bike_id":"26f3cddf-16b3-457c-8d97-8805f37dca70","system_id":"levelo_inurba_marseille","lat":43.29101,"lon":5.38129,"is_reserved":false,"is_disabled":false,"rental_uris":{"android":"levelo://app?vid=26f3cddf-16b3-457c-8d97-8805f37dca70","ios":"levelo://app?vid=26f3cddf-16b3-457c-8d97-8805f37dca70"},"vehicle_type_id":"4","last_reported":1753391439,"current_range_meters":12400,"station_id":"ce4bh512rcd13ifvqe2g","pricing_plan_id":"cebpf4jnsgd1na2vs0mg"},{"bike_id":"55314a22-0098-4641-9809-da3f74d786f5","system_id":"levelo_inurba_marseille","lat":43.30499,"lon":5.37319,"is_reserved":false,"is_disabled":false,"rental_uris":{"android":"levelo://app?vid=55314a22-0098-4641-9809-da3f74d786f5","ios":"levelo://app?vid=55314a22-0098-4641-9809-da3f74d786f5"},"vehicle_type_id":"4","last_reported":1753391439,"current_range_meters":12800,"station_id":"","pricing_plan_id":"cebpf4jnsgd1na2vs0mg"},{"bike_id":"c5145a51-2e33-441d-8065-b00c5a15bad7","system_id":"levelo_inurba_marseille","lat":43.29604,"lon":5.3811,"is_reserved":false,"is_disabled":false,"rental_uris":{"android":"levelo://app?vid=c5145a51-2e33-441d-8065-b00c5a15bad7","ios":"levelo://app?vid=c5145a51-2e33-441d-8065-b00c5a15bad7"},"vehicle_type_id":"4","last_reported":1753391439,"current_range_meters":12800,"station_id":"ce4bgl12rcd13ifvqbo0","pricing_plan_id":"cebpf4jnsgd1na2vs0mg"},{"bike_id":"c785b91b-395c-462d-b9c1-ef023f556ce6","system_id":"levelo_inurba_marseille","lat":43.273837,"lon":5.362525,"is_reserved":false,"is_disabled":false,"rental_uris":{"android":"levelo://app?vid=c785b91b-395c-462d-b9c1-ef023f556ce6","ios":"levelo://app?vid=c785b91b-395c-462d-b9c1-ef023f556ce6"},"vehicle_type_id":"4","last_reported":1753391439,"current_range_meters":13600,"station_id":"ce4bhbh2rcd13ifvqeo0","pricing_plan_id":"cebpf4jnsgd1na2vs0mg"},{"bike_id":"5f824980-27aa-4ef2-856d-b766bebead8a","system_id":"levelo_inurba_marseille","lat":43.22541,"lon":5.34803,"is_reserved":false,"is_disabled":false,"rental_uris":{"android":"levelo://app?vid=5f824980-27aa-4ef2-856d-b766bebead8a","ios":"levelo://app?vid=5f824980-27aa-4ef2-856d-b766bebead8a"},"vehicle_type_id":"4","last_reported":1753391439,"current_range_meters":12800,"station_id":"","pricing_plan_id":"cebpf4jnsgd1na2vs0mg"},{"bike_id":"5b60f57d-b8df-45b1-a77e-1a26de4cd1e1","system_id":"levelo_inurba_marseille","lat":43.30778,"lon":5.37656,"is_reserved":false,"is_disabled":false,"rental_uris":{"android":"levelo://app?vid=5b60f57d-b8df-45b1-a77e-1a26de4cd1e1","ios":"levelo://app?vid=5b60f57d-b8df-45b1-a77e-1a26de4cd1e1"},"vehicle_type_id":"4","last_reported":1753391439,"current_range_meters":12800,"station_id":"ce4bgv92rcd13ifvqcq0","pricing_plan_id":"cebpf4jnsgd1na2vs0mg"},{"bike_id":"7136e517-5ffc-4744-82ab-5e8aff975eec","system_id":"levelo_inurba_marseille","lat":43.297061,"lon":5.366015,"is_reserved":false,"is_disabled":true,"rental_uris":{"android":"levelo://app?vid=7136e517-5ffc-4744-82ab-5e8aff975eec","ios":"levelo://app?vid=7136e517-5ffc-4744-82ab-5e8aff975eec"},"vehicle_type_id":"4","last_reported":1753391439,"current_range_meters":12800,"station_id":"ce4bgn12rcd13ifvqbt0","pricing_plan_id":"cebpf4jnsgd1na2vs0mg"},{"bike_id":"965893c1-1d6a-4440-a7b9-5c69335808b7","system_id":"levelo_inurba_marseille","lat":43.28666,"lon":5.3866,"is_reserved":false,"is_disabled":false,"rental_uris":{"android":"levelo://app?vid=965893c1-1d6a-4440-a7b9-5c69335808b7","ios":"levelo://app?vid=965893c1-1d6a-4440-a7b9-5c69335808b7"},"vehicle_type_id":"4","last_reported":1753391439,"current_range_meters":12800,"station_id":"ce4bh492rcd13ifvqdug","pricing_plan_id":"cebpf4jnsgd1na2vs0mg"},{"bike_id":"ed97ab74-0239-4106-8c85-954b30bec5d0","system_id":"levelo_inurba_marseille","lat":43.309497,"lon":5.390327,"is_reserved":false,"is_disabled":false,"rental_uris":{"android":"levelo://app?vid=ed97ab74-0239-4106-8c85-954b30bec5d0","ios":"levelo://app?vid=ed97ab74-0239-4106-8c85-954b30bec5d0"},"vehicle_type_id":"4","last_reported":1753391439,"current_range_meters":13600,"station_id":"ce4bgup2rcd13ifvqco0","pricing_plan_id":"cebpf4jnsgd1na2vs0mg"},{"bike_id":"549aaaf2-7a77-4b22-942e-d627e7669435","system_id":"levelo_inurba_marseille","lat":43.29283,"lon":5.37162,"is_reserved":false,"is_disabled":false,"rental_uris":{"android":"levelo://app?vid=549aaaf2-7a77-4b22-942e-d627e7669435","ios":"levelo://app?vid=549aaaf2-7a77-4b22-942e-d627e7669435"},"vehicle_type_id":"4","last_reported":1753391439,"current_range_meters":13600,"station_id":"ce4bgh92rcd13ifvqb40","pricing_plan_id":"cebpf4jnsgd1na2vs0mg"},{"bike_id":"3f94cca8-8ca9-4713-8017-eed8acb78034","system_id":"levelo_inurba_marseille","lat":43.241687,"lon":5.363928,"is_reserved":false,"is_disabled":false,"rental_uris":{"android":"levelo://app?vid=3f94cca8-8ca9-4713-8017-eed8acb78034","ios":"levelo://app?vid=3f94cca8-8ca9-4713-8017-eed8acb78034"},"vehicle_type_id":"4","last_reported":1753391439,"current_range_meters":13600,"station_id":"cpo36qri1sfpv3e86is0","pricing_plan_id":"cebpf4jnsgd1na2vs0mg"},{"bike_id":"ad25e224-b15c-4949-92a3-53289b1bd1fb","system_id":"levelo_inurba_marseille","lat":43.28748,"lon":5.38502,"is_reserved":false,"is_disabled":false,"rental_uris":{"android":"levelo://app?vid=ad25e224-b15c-4949-92a3-53289b1bd1fb","ios":"levelo://app?vid=ad25e224-b15c-4949-92a3-53289b1bd1fb"},"vehicle_type_id":"4","last_reported":1753391439,"current_range_meters":13600,"station_id":"","pricing_plan_id":"cebpf4jnsgd1na2vs0mg"},{"bike_id":"35a86048-76dd-4de0-afb2-7da8772fad44","system_id":"levelo_inurba_marseille","lat":43.21537,"lon":5.34764,"is_reserved":false,"is_disabled":false,"rental_uris":{"android":"levelo://app?vid=35a86048-76dd-4de0-afb2-7da8772fad44","ios":"levelo://app?vid=35a86048-76dd-4de0-afb2-7da8772fad44"},"vehicle_type_id":"4","last_reported":1753391439,"current_range_meters":13600,"station_id":"","pricing_plan_id":"cebpf4jnsgd1na2vs0mg"},{"bike_id":"eaea15aa-98ae-4f78-b37a-80e2e4524837","system_id":"levelo_inurba_marseille","lat":43.297916,"lon":5.381026,"is_reserved":false,"is_disabled":false,"rental_uris":{"android":"levelo://app?vid=eaea15aa-98ae-4f78-b37a-80e2e4524837","ios":"levelo://app?vid=eaea15aa-98ae-4f78-b37a-80e2e4524837"},"vehicle_type_id":"4","last_reported":1753391439,"current_range_meters":14000,"station_id":"","pricing_plan_id":"cebpf4jnsgd1na2vs0mg"},{"bike_id":"f7f07796-c7c9-4a74-80e9-fb85744448b8","system_id":"levelo_inurba_marseille","lat":43.22917,"lon":5.35385,"is_reserved":false,"is_disabled":false,"rental_uris":{"android":"levelo://app?vid=f7f07796-c7c9-4a74-80e9-fb85744448b8","ios":"levelo://app?vid=f7f07796-c7c9-4a74-80e9-fb85744448b8"},"vehicle_type_id":"4","last_reported":1753391439,"current_range_meters":14000,"station_id":"cpo3532slgdg3j2ikp40","pricing_plan_id":"cebpf4jnsgd1na2vs0mg"},{"bike_id":"8ec965d1-09d7-4663-a986-051ebcbee4a1","system_id":"levelo_inurba_marseille","lat":43.292606,"lon":5.384454,"is_reserved":false,"is_disabled":false,"rental_uris":{"android":"levelo://app?vid=8ec965d1-09d7-4663-a986-051ebcbee4a1","ios":"levelo://app?vid=8ec965d1-09d7-4663-a986-051ebcbee4a1"},"vehicle_type_id":"4","last_reported":1753391439,"current_range_meters":14000,"station_id":"ce4bh692rcd13ifvqea0","pricing_plan_id":"cebpf4jnsgd1na2vs0mg"},{"bike_id":"27b5acbc-b1fd-4385-9be5-bae49e9e4f6a","system_id":"levelo_inurba_marseille","lat":43.24793,"lon":5.37475,"is_reserved":false,"is_disabled":false,"rental_uris":{"android":"levelo://app?vid=27b5acbc-b1fd-4385-9be5-bae49e9e4f6a","ios":"levelo://app?vid=27b5acbc-b1fd-4385-9be5-bae49e9e4f6a"},"vehicle_type_id":"4","last_reported":1753391439,"current_range_meters":14000,"station_id":"ce4bhgh2rcd13ifvqfb0","pricing_plan_id":"cebpf4jnsgd1na2vs0mg"},{"bike_id":"fbda76a5-068e-4d90-b9ba-25721acd9298","system_id":"levelo_inurba_marseille","lat":43.290332,"lon":5.439588,"is_reserved":false,"is_disabled":false,"rental_uris":{"android":"levelo://app?vid=fbda76a5-068e-4d90-b9ba-25721acd9298","ios":"levelo://app?vid=fbda76a5-068e-4d90-b9ba-25721acd9298"},"vehicle_type_id":"4","last_reported":1753391439,"current_range_meters":14400,"station_id":"","pricing_plan_id":"cebpf4jnsgd1na2vs0mg"},{"bike_id":"aa121145-d17c-4b3b-b0b1-a3cd7bf8d115","system_id":"levelo_inurba_marseille","lat":43.25494,"lon":5.37653,"is_reserved":false,"is_disabled":false,"rental_uris":{"android":"levelo://app?vid=aa121145-d17c-4b3b-b0b1-a3cd7bf8d115","ios":"levelo://app?vid=aa121145-d17c-4b3b-b0b1-a3cd7bf8d115"},"vehicle_type_id":"4","last_reported":1753391439,"current_range_meters":14400,"station_id":"ce4bhh12rcd13ifvqff0","pricing_plan_id":"cebpf4jnsgd1na2vs0mg"},{"bike_id":"62a6bac8-4f60-4abb-bbab-c512b6669722","system_id":"levelo_inurba_marseille","lat":43.30134,"lon":5.39876,"is_reserved":false,"is_disabled":false,"rental_uris":{"android":"levelo://app?vid=62a6bac8-4f60-4abb-bbab-c512b6669722","ios":"levelo://app?vid=62a6bac8-4f60-4abb-bbab-c512b6669722"},"vehicle_type_id":"4","last_reported":1753391439,"current_range_meters":14000,"station_id":"ce4bh0h2rcd13ifvqd40","pricing_plan_id":"cebpf4jnsgd1na2vs0mg"},{"bike_id":"df52031d-f6ba-4af3-a318-cddaa787b97a","system_id":"levelo_inurba_marseille","lat":43.27065,"lon":5.40279,"is_reserved":false,"is_disabled":false,"rental_uris":{"android":"levelo://app?vid=df52031d-f6ba-4af3-a318-cddaa787b97a","ios":"levelo://app?vid=df52031d-f6ba-4af3-a318-cddaa787b97a"},"vehicle_type_id":"4","last_reported":1753391439,"current_range_meters":14400,"station_id":"ce4bhk92rcd13ifvqgc0","pricing_plan_id":"cebpf4jnsgd1na2vs0mg"},{"bike_id":"97f28e7b-38bd-4724-82d4-f63ca90c6a90","system_id":"levelo_inurba_marseille","lat":43.25493,"lon":5.3765,"is_reserved":false,"is_disabled":false,"rental_uris":{"android":"levelo://app?vid=97f28e7b-38bd-4724-82d4-f63ca90c6a90","ios":"levelo://app?vid=97f28e7b-38bd-4724-82d4-f63ca90c6a90"},"vehicle_type_id":"4","last_reported":1753391439,"current_range_meters":14400,"station_id":"ce4bhh12rcd13ifvqff0","pricing_plan_id":"cebpf4jnsgd1na2vs0mg"},{"bike_id":"ce24809d-9bd2-4d40-9b77-a639a06ec5c3","system_id":"levelo_inurba_marseille","lat":43.24179,"lon":5.39737,"is_reserved":false,"is_disabled":false,"rental_uris":{"android":"levelo://app?vid=ce24809d-9bd2-4d40-9b77-a639a06ec5c3","ios":"levelo://app?vid=ce24809d-9bd2-4d40-9b77-a639a06ec5c3"},"vehicle_type_id":"4","last_reported":1753391439,"current_range_meters":14800,"station_id":"ce4bhn12rcd13ifvqgpg","pricing_plan_id":"cebpf4jnsgd1na2vs0mg"},{"bike_id":"1f39eb17-34c7-4235-9069-0f68f613789c","system_id":"levelo_inurba_marseille","lat":43.26886,"lon":5.36871,"is_reserved":false,"is_disabled":false,"rental_uris":{"android":"levelo://app?vid=1f39eb17-34c7-4235-9069-0f68f613789c","ios":"levelo://app?vid=1f39eb17-34c7-4235-9069-0f68f613789c"},"vehicle_type_id":"4","last_reported":1753391439,"current_range_meters":14800,"station_id":"","pricing_plan_id":"cebpf4jnsgd1na2vs0mg"},{"bike_id":"cf776233-7766-4109-aadc-a0d3c334d400","system_id":"levelo_inurba_marseille","lat":43.24068,"lon":5.37765,"is_reserved":false,"is_disabled":false,"rental_uris":{"android":"levelo://app?vid=cf776233-7766-4109-aadc-a0d3c334d400","ios":"levelo://app?vid=cf776233-7766-4109-aadc-a0d3c334d400"},"vehicle_type_id":"4","last_reported":1753391439,"current_range_meters":14800,"station_id":"ce4bhnp2rcd13ifvqgvg","pricing_plan_id":"cebpf4jnsgd1na2vs0mg"},{"bike_id":"8358fb6d-6a6e-4322-96bb-a6e709c59903","system_id":"levelo_inurba_marseille","lat":43.29544,"lon":5.3855,"is_reserved":false,"is_disabled":false,"rental_uris":{"android":"levelo://app?vid=8358fb6d-6a6e-4322-96bb-a6e709c59903","ios":"levelo://app?vid=8358fb6d-6a6e-4322-96bb-a6e709c59903"},"vehicle_type_id":"4","last_reported":1753391439,"current_range_meters":14800,"station_id":"ce4bgih2rcd13ifvqba0","pricing_plan_id":"cebpf4jnsgd1na2vs0mg"},{"bike_id":"b7fbbd5d-d745-4d16-bb3e-afa01b4cd517","system_id":"levelo_inurba_marseille","lat":43.31162,"lon":5.38722,"is_reserved":false,"is_disabled":false,"rental_uris":{"android":"levelo://app?vid=b7fbbd5d-d745-4d16-bb3e-afa01b4cd517","ios":"levelo://app?vid=b7fbbd5d-d745-4d16-bb3e-afa01b4cd517"},"vehicle_type_id":"4","last_reported":1753391439,"current_range_meters":14800,"station_id":"ce4bgv12rcd13ifvqcp0","pricing_plan_id":"cebpf4jnsgd1na2vs0mg"},{"bike_id":"f7f2157f-effd-43ab-80cb-e8fe0ec86a59","system_id":"levelo_inurba_marseille","lat":43.29537,"lon":5.38529,"is_reserved":false,"is_disabled":false,"rental_uris":{"android":"levelo://app?vid=f7f2157f-effd-43ab-80cb-e8fe0ec86a59","ios":"levelo://app?vid=f7f2157f-effd-43ab-80cb-e8fe0ec86a59"},"vehicle_type_id":"4","last_reported":1753391439,"current_range_meters":14800,"station_id":"ce4bgih2rcd13ifvqba0","pricing_plan_id":"cebpf4jnsgd1na2vs0mg"},{"bike_id":"856ce176-d774-4b12-823d-ba782ec22d87","system_id":"levelo_inurba_marseille","lat":43.30131,"lon":5.38783,"is_reserved":false,"is_disabled":false,"rental_uris":{"android":"levelo://app?vid=856ce176-d774-4b12-823d-ba782ec22d87","ios":"levelo://app?vid=856ce176-d774-4b12-823d-ba782ec22d87"},"vehicle_type_id":"4","last_reported":1753391439,"current_range_meters":15200,"station_id":"ce4bghh2rcd13ifvqb60","pricing_plan_id":"cebpf4jnsgd1na2vs0mg"},{"bike_id":"9323f5c9-f9e7-4517-81fb-ca4f7c4e8264","system_id":"levelo_inurba_marseille","lat":43.28928,"lon":5.36636,"is_reserved":false,"is_disabled":false,"rental_uris":{"android":"levelo://app?vid=9323f5c9-f9e7-4517-81fb-ca4f7c4e8264","ios":"levelo://app?vid=9323f5c9-f9e7-4517-81fb-ca4f7c4e8264"},"vehicle_type_id":"4","last_reported":1753391439,"current_range_meters":14800,"station_id":"ce4bhap2rcd13ifvqek0","pricing_plan_id":"cebpf4jnsgd1na2vs0mg"},{"bike_id":"0328ec12-5a05-4c30-bd25-27f5ce8bb3b4","system_id":"levelo_inurba_marseille","lat":43.31067,"lon":5.401,"is_reserved":false,"is_disabled":false,"rental_uris":{"android":"levelo://app?vid=0328ec12-5a05-4c30-bd25-27f5ce8bb3b4","ios":"levelo://app?vid=0328ec12-5a05-4c30-bd25-27f5ce8bb3b4"},"vehicle_type_id":"4","last_reported":1753391439,"current_range_meters":15200,"station_id":"","pricing_plan_id":"cebpf4jnsgd1na2vs0mg"},{"bike_id":"d89266c2-0749-4e75-8a78-88e9bd229684","system_id":"levelo_inurba_marseille","lat":43.26933,"lon":5.38924,"is_reserved":false,"is_disabled":false,"rental_uris":{"android":"levelo://app?vid=d89266c2-0749-4e75-8a78-88e9bd229684","ios":"levelo://app?vid=d89266c2-0749-4e75-8a78-88e9bd229684"},"vehicle_type_id":"4","last_reported":1753391439,"current_range_meters":15200,"station_id":"ce4bhhh2rcd13ifvqfl0","pricing_plan_id":"cebpf4jnsgd1na2vs0mg"},{"bike_id":"0aa2d153-96d1-4d69-83b8-d39119aa9dd5","system_id":"levelo_inurba_marseille","lat":43.33523,"lon":5.36229,"is_reserved":false,"is_disabled":false,"rental_uris":{"android":"levelo://app?vid=0aa2d153-96d1-4d69-83b8-d39119aa9dd5","ios":"levelo://app?vid=0aa2d153-96d1-4d69-83b8-d39119aa9dd5"},"vehicle_type_id":"4","last_reported":1753391439,"current_range_meters":15200,"station_id":"","pricing_plan_id":"cebpf4jnsgd1na2vs0mg"},{"bike_id":"2a539f30-9c14-4621-bf51-7f05e954f891","system_id":"levelo_inurba_marseille","lat":43.29261,"lon":5.38446,"is_reserved":false,"is_disabled":false,"rental_uris":{"android":"levelo://app?vid=2a539f30-9c14-4621-bf51-7f05e954f891","ios":"levelo://app?vid=2a539f30-9c14-4621-bf51-7f05e954f891"},"vehicle_type_id":"4","last_reported":1753391439,"current_range_meters":15200,"station_id":"ce4bh692rcd13ifvqea0","pricing_plan_id":"cebpf4jnsgd1na2vs0mg"},{"bike_id":"4235c584-f9ca-4ae8-961d-69448a002c8d","system_id":"levelo_inurba_marseille","lat":43.24072,"lon":5.37762,"is_reserved":false,"is_disabled":false,"rental_uris":{"android":"levelo://app?vid=4235c584-f9ca-4ae8-961d-69448a002c8d","ios":"levelo://app?vid=4235c584-f9ca-4ae8-961d-69448a002c8d"},"vehicle_type_id":"4","last_reported":1753391439,"current_range_meters":15200,"station_id":"ce4bhnp2rcd13ifvqgvg","pricing_plan_id":"cebpf4jnsgd1na2vs0mg"},{"bike_id":"2bee8a00-4220-48c4-b5ef-0cc3dd8900d1","system_id":"levelo_inurba_marseille","lat":43.32653,"lon":5.410027,"is_reserved":false,"is_disabled":false,"rental_uris":{"android":"levelo://app?vid=2bee8a00-4220-48c4-b5ef-0cc3dd8900d1","ios":"levelo://app?vid=2bee8a00-4220-48c4-b5ef-0cc3dd8900d1"},"vehicle_type_id":"4","last_reported":1753391439,"current_range_meters":15200,"station_id":"ce4bhpp2rcd13ifvqhgg","pricing_plan_id":"cebpf4jnsgd1na2vs0mg"},{"bike_id":"f9392d6c-b35e-40bc-b1a7-ee8e2382d230","system_id":"levelo_inurba_marseille","lat":43.30553,"lon":5.36726,"is_reserved":false,"is_disabled":true,"rental_uris":{"android":"levelo://app?vid=f9392d6c-b35e-40bc-b1a7-ee8e2382d230","ios":"levelo://app?vid=f9392d6c-b35e-40bc-b1a7-ee8e2382d230"},"vehicle_type_id":"4","last_reported":1753391439,"current_range_meters":14800,"station_id":"ce4bgrp2rcd13ifvqc9g","pricing_plan_id":"cebpf4jnsgd1na2vs0mg"},{"bike_id":"b3c98151-32c9-4162-a221-f12ba796feaf","system_id":"levelo_inurba_marseille","lat":43.28102,"lon":5.37838,"is_reserved":false,"is_disabled":false,"rental_uris":{"android":"levelo://app?vid=b3c98151-32c9-4162-a221-f12ba796feaf","ios":"levelo://app?vid=b3c98151-32c9-4162-a221-f12ba796feaf"},"vehicle_type_id":"4","last_reported":1753391439,"current_range_meters":15200,"station_id":"ce4bha12rcd13ifvqee0","pricing_plan_id":"cebpf4jnsgd1na2vs0mg"},{"bike_id":"d40c33a9-f40e-45aa-b3fa-af49177afd3d","system_id":"levelo_inurba_marseille","lat":43.26213,"lon":5.37463,"is_reserved":false,"is_disabled":false,"rental_uris":{"android":"levelo://app?vid=d40c33a9-f40e-45aa-b3fa-af49177afd3d","ios":"levelo://app?vid=d40c33a9-f40e-45aa-b3fa-af49177afd3d"},"vehicle_type_id":"4","last_reported":1753391439,"current_range_meters":16000,"station_id":"ce4bhgp2rcd13ifvqfc0","pricing_plan_id":"cebpf4jnsgd1na2vs0mg"},{"bike_id":"81161b5d-a6f6-41b7-8154-93f7781398eb","system_id":"levelo_inurba_marseille","lat":43.2903,"lon":5.38648,"is_reserved":false,"is_disabled":false,"rental_uris":{"android":"levelo://app?vid=81161b5d-a6f6-41b7-8154-93f7781398eb","ios":"levelo://app?vid=81161b5d-a6f6-41b7-8154-93f7781398eb"},"vehicle_type_id":"4","last_reported":1753391439,"current_range_meters":16000,"station_id":"ce4bh4p2rcd13ifvqe0g","pricing_plan_id":"cebpf4jnsgd1na2vs0mg"},{"bike_id":"9c406ee9-7745-4297-9741-843e51a53920","system_id":"levelo_inurba_marseille","lat":43.28614,"lon":5.35103,"is_reserved":false,"is_disabled":false,"rental_uris":{"android":"levelo://app?vid=9c406ee9-7745-4297-9741-843e51a53920","ios":"levelo://app?vid=9c406ee9-7745-4297-9741-843e51a53920"},"vehicle_type_id":"4","last_reported":1753391439,"current_range_meters":16000,"station_id":"ce4bhch2rcd13ifvqeug","pricing_plan_id":"cebpf4jnsgd1na2vs0mg"},{"bike_id":"f0ec3f2b-99d6-4143-b9d2-f44852809e36","system_id":"levelo_inurba_marseille","lat":43.25126,"lon":5.40356,"is_reserved":false,"is_disabled":false,"rental_uris":{"android":"levelo://app?vid=f0ec3f2b-99d6-4143-b9d2-f44852809e36","ios":"levelo://app?vid=f0ec3f2b-99d6-4143-b9d2-f44852809e36"},"vehicle_type_id":"4","last_reported":1753391439,"current_range_meters":16000,"station_id":"ce4bhlh2rcd13ifvqgig","pricing_plan_id":"cebpf4jnsgd1na2vs0mg"},{"bike_id":"7f5018cc-9b53-42cc-a46e-56d3b1cb092f","system_id":"levelo_inurba_marseille","lat":43.22933,"lon":5.35377,"is_reserved":false,"is_disabled":false,"rental_uris":{"android":"levelo://app?vid=7f5018cc-9b53-42cc-a46e-56d3b1cb092f","ios":"levelo://app?vid=7f5018cc-9b53-42cc-a46e-56d3b1cb092f"},"vehicle_type_id":"4","last_reported":1753391439,"current_range_meters":16000,"station_id":"cpo3532slgdg3j2ikp40","pricing_plan_id":"cebpf4jnsgd1na2vs0mg"},{"bike_id":"d8ab8225-ebfc-48f1-9981-f15e3b9960ea","system_id":"levelo_inurba_marseille","lat":43.22929,"lon":5.35371,"is_reserved":false,"is_disabled":false,"rental_uris":{"android":"levelo://app?vid=d8ab8225-ebfc-48f1-9981-f15e3b9960ea","ios":"levelo://app?vid=d8ab8225-ebfc-48f1-9981-f15e3b9960ea"},"vehicle_type_id":"4","last_reported":1753391439,"current_range_meters":16000,"station_id":"cpo3532slgdg3j2ikp40","pricing_plan_id":"cebpf4jnsgd1na2vs0mg"},{"bike_id":"c438f1b1-c929-4078-b3ac-9d510eddcf81","system_id":"levelo_inurba_marseille","lat":43.24997,"lon":5.38932,"is_reserved":false,"is_disabled":false,"rental_uris":{"android":"levelo://app?vid=c438f1b1-c929-4078-b3ac-9d510eddcf81","ios":"levelo://app?vid=c438f1b1-c929-4078-b3ac-9d510eddcf81"},"vehicle_type_id":"4","last_reported":1753391439,"current_range_meters":15200,"station_id":"ce4bhgp2rcd13ifvqfd0","pricing_plan_id":"cebpf4jnsgd1na2vs0mg"},{"bike_id":"481351de-e3d5-4a6f-aa67-c1762e7ed223","system_id":"levelo_inurba_marseille","lat":43.270646,"lon":5.422763,"is_reserved":false,"is_disabled":false,"rental_uris":{"android":"levelo://app?vid=481351de-e3d5-4a6f-aa67-c1762e7ed223","ios":"levelo://app?vid=481351de-e3d5-4a6f-aa67-c1762e7ed223"},"vehicle_type_id":"4","last_reported":1753391439,"current_range_meters":16000,"station_id":"ce4bhk92rcd13ifvqgb0","pricing_plan_id":"cebpf4jnsgd1na2vs0mg"},{"bike_id":"622af20d-224f-4b3c-b0c8-986465e7da29","system_id":"levelo_inurba_marseille","lat":43.28846,"lon":5.3584,"is_reserved":false,"is_disabled":false,"rental_uris":{"android":"levelo://app?vid=622af20d-224f-4b3c-b0c8-986465e7da29","ios":"levelo://app?vid=622af20d-224f-4b3c-b0c8-986465e7da29"},"vehicle_type_id":"4","last_reported":1753391439,"current_range_meters":16000,"station_id":"ce4bhb12rcd13ifvqem0","pricing_plan_id":"cebpf4jnsgd1na2vs0mg"},{"bike_id":"0a7e2862-d8ec-4c77-89d9-cfcdd51f8d75","system_id":"levelo_inurba_marseille","lat":43.31872,"lon":5.37373,"is_reserved":false,"is_disabled":false,"rental_uris":{"android":"levelo://app?vid=0a7e2862-d8ec-4c77-89d9-cfcdd51f8d75","ios":"levelo://app?vid=0a7e2862-d8ec-4c77-89d9-cfcdd51f8d75"},"vehicle_type_id":"4","last_reported":1753391439,"current_range_meters":16000,"station_id":"","pricing_plan_id":"cebpf4jnsgd1na2vs0mg"},{"bike_id":"1bad41f4-2220-48a2-9d56-f732121985af","system_id":"levelo_inurba_marseille","lat":43.31304,"lon":5.43126,"is_reserved":false,"is_disabled":false,"rental_uris":{"android":"levelo://app?vid=1bad41f4-2220-48a2-9d56-f732121985af","ios":"levelo://app?vid=1bad41f4-2220-48a2-9d56-f732121985af"},"vehicle_type_id":"4","last_reported":1753391439,"current_range_meters":16000,"station_id":"","pricing_plan_id":"cebpf4jnsgd1na2vs0mg"},{"bike_id":"668d3622-317d-4af1-bbd6-1f8c2bb0f9b0","system_id":"levelo_inurba_marseille","lat":43.28935,"lon":5.3662,"is_reserved":false,"is_disabled":false,"rental_uris":{"android":"levelo://app?vid=668d3622-317d-4af1-bbd6-1f8c2bb0f9b0","ios":"levelo://app?vid=668d3622-317d-4af1-bbd6-1f8c2bb0f9b0"},"vehicle_type_id":"4","last_reported":1753391439,"current_range_meters":16000,"station_id":"ce4bhap2rcd13ifvqek0","pricing_plan_id":"cebpf4jnsgd1na2vs0mg"},{"bike_id":"c42c7461-d1d4-4bc3-91eb-10280a5dcfe5","system_id":"levelo_inurba_marseille","lat":43.292537,"lon":5.384423,"is_reserved":false,"is_disabled":false,"rental_uris":{"android":"levelo://app?vid=c42c7461-d1d4-4bc3-91eb-10280a5dcfe5","ios":"levelo://app?vid=c42c7461-d1d4-4bc3-91eb-10280a5dcfe5"},"vehicle_type_id":"4","last_reported":1753391439,"current_range_meters":16000,"station_id":"ce4bh692rcd13ifvqea0","pricing_plan_id":"cebpf4jnsgd1na2vs0mg"},{"bike_id":"dbc65b2c-0a62-459e-b0da-b5053b63dedd","system_id":"levelo_inurba_marseille","lat":43.29241,"lon":5.38449,"is_reserved":false,"is_disabled":false,"rental_uris":{"android":"levelo://app?vid=dbc65b2c-0a62-459e-b0da-b5053b63dedd","ios":"levelo://app?vid=dbc65b2c-0a62-459e-b0da-b5053b63dedd"},"vehicle_type_id":"4","last_reported":1753391439,"current_range_meters":16400,"station_id":"ce4bh692rcd13ifvqea0","pricing_plan_id":"cebpf4jnsgd1na2vs0mg"},{"bike_id":"3edd833f-0d3f-4b2c-af71-d0f31b0f462c","system_id":"levelo_inurba_marseille","lat":43.28429,"lon":5.39183,"is_reserved":false,"is_disabled":false,"rental_uris":{"android":"levelo://app?vid=3edd833f-0d3f-4b2c-af71-d0f31b0f462c","ios":"levelo://app?vid=3edd833f-0d3f-4b2c-af71-d0f31b0f462c"},"vehicle_type_id":"4","last_reported":1753391439,"current_range_meters":16400,"station_id":"ce4bhoh2rcd13ifvqh5g","pricing_plan_id":"cebpf4jnsgd1na2vs0mg"},{"bike_id":"ce193c8e-90e0-4599-95e2-d02b7d163b03","system_id":"levelo_inurba_marseille","lat":43.24094,"lon":5.37755,"is_reserved":false,"is_disabled":false,"rental_uris":{"android":"levelo://app?vid=ce193c8e-90e0-4599-95e2-d02b7d163b03","ios":"levelo://app?vid=ce193c8e-90e0-4599-95e2-d02b7d163b03"},"vehicle_type_id":"4","last_reported":1753391439,"current_range_meters":16400,"station_id":"ce4bhnp2rcd13ifvqgvg","pricing_plan_id":"cebpf4jnsgd1na2vs0mg"},{"bike_id":"91137914-8536-46f1-ba13-d0f49da2d7d7","system_id":"levelo_inurba_marseille","lat":43.29262,"lon":5.38437,"is_reserved":false,"is_disabled":false,"rental_uris":{"android":"levelo://app?vid=91137914-8536-46f1-ba13-d0f49da2d7d7","ios":"levelo://app?vid=91137914-8536-46f1-ba13-d0f49da2d7d7"},"vehicle_type_id":"4","last_reported":1753391439,"current_range_meters":16400,"station_id":"ce4bh692rcd13ifvqea0","pricing_plan_id":"cebpf4jnsgd1na2vs0mg"},{"bike_id":"3cbb97c5-1f06-4add-ac6d-a120022e686c","system_id":"levelo_inurba_marseille","lat":43.2882,"lon":5.37267,"is_reserved":false,"is_disabled":false,"rental_uris":{"android":"levelo://app?vid=3cbb97c5-1f06-4add-ac6d-a120022e686c","ios":"levelo://app?vid=3cbb97c5-1f06-4add-ac6d-a120022e686c"},"vehicle_type_id":"4","last_reported":1753391439,"current_range_meters":16800,"station_id":"","pricing_plan_id":"cebpf4jnsgd1na2vs0mg"},{"bike_id":"4959794a-4e9d-4f48-84e6-f53723e5c259","system_id":"levelo_inurba_marseille","lat":43.29062,"lon":5.37171,"is_reserved":false,"is_disabled":false,"rental_uris":{"android":"levelo://app?vid=4959794a-4e9d-4f48-84e6-f53723e5c259","ios":"levelo://app?vid=4959794a-4e9d-4f48-84e6-f53723e5c259"},"vehicle_type_id":"4","last_reported":1753391439,"current_range_meters":16400,"station_id":"ce4bh5p2rcd13ifvqe4g","pricing_plan_id":"cebpf4jnsgd1na2vs0mg"},{"bike_id":"9d9c72e1-b6ec-466f-b6ab-9ade0dd375e2","system_id":"levelo_inurba_marseille","lat":43.2987,"lon":5.39737,"is_reserved":false,"is_disabled":false,"rental_uris":{"android":"levelo://app?vid=9d9c72e1-b6ec-466f-b6ab-9ade0dd375e2","ios":"levelo://app?vid=9d9c72e1-b6ec-466f-b6ab-9ade0dd375e2"},"vehicle_type_id":"4","last_reported":1753391439,"current_range_meters":16400,"station_id":"ce4bh0h2rcd13ifvqd50","pricing_plan_id":"cebpf4jnsgd1na2vs0mg"},{"bike_id":"ac96d0d2-7b82-4352-9804-df694e7d34c5","system_id":"levelo_inurba_marseille","lat":43.30957,"lon":5.39032,"is_reserved":false,"is_disabled":false,"rental_uris":{"android":"levelo://app?vid=ac96d0d2-7b82-4352-9804-df694e7d34c5","ios":"levelo://app?vid=ac96d0d2-7b82-4352-9804-df694e7d34c5"},"vehicle_type_id":"4","last_reported":1753391439,"current_range_meters":16400,"station_id":"ce4bgup2rcd13ifvqco0","pricing_plan_id":"cebpf4jnsgd1na2vs0mg"},{"bike_id":"9a112995-f59e-4d73-b589-2b99cfbc717d","system_id":"levelo_inurba_marseille","lat":43.31114,"lon":5.37767,"is_reserved":false,"is_disabled":false,"rental_uris":{"android":"levelo://app?vid=9a112995-f59e-4d73-b589-2b99cfbc717d","ios":"levelo://app?vid=9a112995-f59e-4d73-b589-2b99cfbc717d"},"vehicle_type_id":"4","last_reported":1753391439,"current_range_meters":16400,"station_id":"ce4bgt92rcd13ifvqcg0","pricing_plan_id":"cebpf4jnsgd1na2vs0mg"},{"bike_id":"ffab4a34-82e9-461f-8967-2ccafce68b3b","system_id":"levelo_inurba_marseille","lat":43.26553,"lon":5.37302,"is_reserved":false,"is_disabled":false,"rental_uris":{"android":"levelo://app?vid=ffab4a34-82e9-461f-8967-2ccafce68b3b","ios":"levelo://app?vid=ffab4a34-82e9-461f-8967-2ccafce68b3b"},"vehicle_type_id":"4","last_reported":1753391439,"current_range_meters":16400,"station_id":"ce4bhg12rcd13ifvqf70","pricing_plan_id":"cebpf4jnsgd1na2vs0mg"},{"bike_id":"3683a272-bb2f-42dc-8d77-ee90d581f064","system_id":"levelo_inurba_marseille","lat":43.28697,"lon":5.39984,"is_reserved":false,"is_disabled":false,"rental_uris":{"android":"levelo://app?vid=3683a272-bb2f-42dc-8d77-ee90d581f064","ios":"levelo://app?vid=3683a272-bb2f-42dc-8d77-ee90d581f064"},"vehicle_type_id":"4","last_reported":1753391439,"current_range_meters":16000,"station_id":"ce4bho92rcd13ifvqh3g","pricing_plan_id":"cebpf4jnsgd1na2vs0mg"},{"bike_id":"e45a06d2-dc3f-47e5-af54-97e178037b26","system_id":"levelo_inurba_marseille","lat":43.284105,"lon":5.375014,"is_reserved":false,"is_disabled":false,"rental_uris":{"android":"levelo://app?vid=e45a06d2-dc3f-47e5-af54-97e178037b26","ios":"levelo://app?vid=e45a06d2-dc3f-47e5-af54-97e178037b26"},"vehicle_type_id":"4","last_reported":1753391439,"current_range_meters":16800,"station_id":"ce4bh412rcd13ifvqds0","pricing_plan_id":"cebpf4jnsgd1na2vs0mg"},{"bike_id":"43ff5b77-c826-4dd7-b28c-7b48850cced0","system_id":"levelo_inurba_marseille","lat":43.28851,"lon":5.39312,"is_reserved":false,"is_disabled":false,"rental_uris":{"android":"levelo://app?vid=43ff5b77-c826-4dd7-b28c-7b48850cced0","ios":"levelo://app?vid=43ff5b77-c826-4dd7-b28c-7b48850cced0"},"vehicle_type_id":"4","last_reported":1753391439,"current_range_meters":16800,"station_id":"ce4bh2p2rcd13ifvqdi0","pricing_plan_id":"cebpf4jnsgd1na2vs0mg"},{"bike_id":"31950a22-06e6-4fd7-947e-ed0356e9a53f","system_id":"levelo_inurba_marseille","lat":43.242,"lon":5.39712,"is_reserved":false,"is_disabled":false,"rental_uris":{"android":"levelo://app?vid=31950a22-06e6-4fd7-947e-ed0356e9a53f","ios":"levelo://app?vid=31950a22-06e6-4fd7-947e-ed0356e9a53f"},"vehicle_type_id":"4","last_reported":1753391439,"current_range_meters":16800,"station_id":"ce4bhn12rcd13ifvqgpg","pricing_plan_id":"cebpf4jnsgd1na2vs0mg"},{"bike_id":"c8d688ef-dc2e-4a9b-818e-3696fe2e8c31","system_id":"levelo_inurba_marseille","lat":43.28486,"lon":5.38419,"is_reserved":false,"is_disabled":false,"rental_uris":{"android":"levelo://app?vid=c8d688ef-dc2e-4a9b-818e-3696fe2e8c31","ios":"levelo://app?vid=c8d688ef-dc2e-4a9b-818e-3696fe2e8c31"},"vehicle_type_id":"4","last_reported":1753391439,"current_range_meters":16800,"station_id":"ce4bh512rcd13ifvqe3g","pricing_plan_id":"cebpf4jnsgd1na2vs0mg"},{"bike_id":"261d4bb0-7bb9-4c80-93f3-cd6f68b7285e","system_id":"levelo_inurba_marseille","lat":43.31498,"lon":5.36906,"is_reserved":false,"is_disabled":false,"rental_uris":{"android":"levelo://app?vid=261d4bb0-7bb9-4c80-93f3-cd6f68b7285e","ios":"levelo://app?vid=261d4bb0-7bb9-4c80-93f3-cd6f68b7285e"},"vehicle_type_id":"4","last_reported":1753391439,"current_range_meters":16800,"station_id":"","pricing_plan_id":"cebpf4jnsgd1na2vs0mg"},{"bike_id":"1e9cf983-3afc-4620-a4d4-2dd094704fd1","system_id":"levelo_inurba_marseille","lat":43.22501,"lon":5.34774,"is_reserved":false,"is_disabled":false,"rental_uris":{"android":"levelo://app?vid=1e9cf983-3afc-4620-a4d4-2dd094704fd1","ios":"levelo://app?vid=1e9cf983-3afc-4620-a4d4-2dd094704fd1"},"vehicle_type_id":"4","last_reported":1753391439,"current_range_meters":16800,"station_id":"st_cvj5dfep6f1abm77gieg","pricing_plan_id":"cebpf4jnsgd1na2vs0mg"},{"bike_id":"76c2176d-20df-4c0c-846f-d109f0e6f041","system_id":"levelo_inurba_marseille","lat":43.28402,"lon":5.37525,"is_reserved":false,"is_disabled":false,"rental_uris":{"android":"levelo://app?vid=76c2176d-20df-4c0c-846f-d109f0e6f041","ios":"levelo://app?vid=76c2176d-20df-4c0c-846f-d109f0e6f041"},"vehicle_type_id":"4","last_reported":1753391439,"current_range_meters":16800,"station_id":"ce4bh412rcd13ifvqds0","pricing_plan_id":"cebpf4jnsgd1na2vs0mg"},{"bike_id":"9ea56ab2-ac76-40e9-a300-419720468605","system_id":"levelo_inurba_marseille","lat":43.24659,"lon":5.389,"is_reserved":false,"is_disabled":false,"rental_uris":{"android":"levelo://app?vid=9ea56ab2-ac76-40e9-a300-419720468605","ios":"levelo://app?vid=9ea56ab2-ac76-40e9-a300-419720468605"},"vehicle_type_id":"4","last_reported":1753391439,"current_range_meters":16800,"station_id":"ce4bhg12rcd13ifvqf60","pricing_plan_id":"cebpf4jnsgd1na2vs0mg"},{"bike_id":"3573bef1-2610-49c0-94d6-c6adbafd8b9d","system_id":"levelo_inurba_marseille","lat":43.30945,"lon":5.39047,"is_reserved":false,"is_disabled":false,"rental_uris":{"android":"levelo://app?vid=3573bef1-2610-49c0-94d6-c6adbafd8b9d","ios":"levelo://app?vid=3573bef1-2610-49c0-94d6-c6adbafd8b9d"},"vehicle_type_id":"4","last_reported":1753391439,"current_range_meters":16800,"station_id":"ce4bgup2rcd13ifvqco0","pricing_plan_id":"cebpf4jnsgd1na2vs0mg"},{"bike_id":"ad7f924d-5443-4b14-80c3-fdbe71f8752e","system_id":"levelo_inurba_marseille","lat":43.26097,"lon":5.37286,"is_reserved":false,"is_disabled":false,"rental_uris":{"android":"levelo://app?vid=ad7f924d-5443-4b14-80c3-fdbe71f8752e","ios":"levelo://app?vid=ad7f924d-5443-4b14-80c3-fdbe71f8752e"},"vehicle_type_id":"4","last_reported":1753391439,"current_range_meters":16800,"station_id":"","pricing_plan_id":"cebpf4jnsgd1na2vs0mg"},{"bike_id":"bfd15de6-bee2-4549-a088-b24d6a1f7c36","system_id":"levelo_inurba_marseille","lat":43.29526,"lon":5.38544,"is_reserved":false,"is_disabled":false,"rental_uris":{"android":"levelo://app?vid=bfd15de6-bee2-4549-a088-b24d6a1f7c36","ios":"levelo://app?vid=bfd15de6-bee2-4549-a088-b24d6a1f7c36"},"vehicle_type_id":"4","last_reported":1753391439,"current_range_meters":16800,"station_id":"ce4bgih2rcd13ifvqba0","pricing_plan_id":"cebpf4jnsgd1na2vs0mg"},{"bike_id":"801db1e4-c98f-4264-885d-cbbe47da06a0","system_id":"levelo_inurba_marseille","lat":43.29259,"lon":5.38438,"is_reserved":false,"is_disabled":false,"rental_uris":{"android":"levelo://app?vid=801db1e4-c98f-4264-885d-cbbe47da06a0","ios":"levelo://app?vid=801db1e4-c98f-4264-885d-cbbe47da06a0"},"vehicle_type_id":"4","last_reported":1753391439,"current_range_meters":16800,"station_id":"ce4bh692rcd13ifvqea0","pricing_plan_id":"cebpf4jnsgd1na2vs0mg"},{"bike_id":"40506e4d-060b-40a3-9179-23aa49d2d7f0","system_id":"levelo_inurba_marseille","lat":43.29274,"lon":5.38439,"is_reserved":false,"is_disabled":false,"rental_uris":{"android":"levelo://app?vid=40506e4d-060b-40a3-9179-23aa49d2d7f0","ios":"levelo://app?vid=40506e4d-060b-40a3-9179-23aa49d2d7f0"},"vehicle_type_id":"4","last_reported":1753391439,"current_range_meters":17200,"station_id":"ce4bh692rcd13ifvqea0","pricing_plan_id":"cebpf4jnsgd1na2vs0mg"},{"bike_id":"f2ca3887-7e82-498b-8c49-e80cd18a3051","system_id":"levelo_inurba_marseille","lat":43.23964,"lon":5.36629,"is_reserved":false,"is_disabled":false,"rental_uris":{"android":"levelo://app?vid=f2ca3887-7e82-498b-8c49-e80cd18a3051","ios":"levelo://app?vid=f2ca3887-7e82-498b-8c49-e80cd18a3051"},"vehicle_type_id":"4","last_reported":1753391439,"current_range_meters":17200,"station_id":"ce4bhi12rcd13ifvqfp0","pricing_plan_id":"cebpf4jnsgd1na2vs0mg"},{"bike_id":"5bb31ac5-3573-47b1-9dfe-8769640e4d0b","system_id":"levelo_inurba_marseille","lat":43.27918,"lon":5.39583,"is_reserved":false,"is_disabled":false,"rental_uris":{"android":"levelo://app?vid=5bb31ac5-3573-47b1-9dfe-8769640e4d0b","ios":"levelo://app?vid=5bb31ac5-3573-47b1-9dfe-8769640e4d0b"},"vehicle_type_id":"4","last_reported":1753391439,"current_range_meters":17200,"station_id":"ce4bhf92rcd13ifvqf40","pricing_plan_id":"cebpf4jnsgd1na2vs0mg"},{"bike_id":"22520d46-57e8-4802-87c4-2c466318c214","system_id":"levelo_inurba_marseille","lat":43.27797,"lon":5.40739,"is_reserved":false,"is_disabled":false,"rental_uris":{"android":"levelo://app?vid=22520d46-57e8-4802-87c4-2c466318c214","ios":"levelo://app?vid=22520d46-57e8-4802-87c4-2c466318c214"},"vehicle_type_id":"4","last_reported":1753391439,"current_range_meters":17200,"station_id":"ce4bhnh2rcd13ifvqgtg","pricing_plan_id":"cebpf4jnsgd1na2vs0mg"},{"bike_id":"21bb3fef-81ef-46bb-a48d-d85402757c94","system_id":"levelo_inurba_marseille","lat":43.25449,"lon":5.37972,"is_reserved":false,"is_disabled":false,"rental_uris":{"android":"levelo://app?vid=21bb3fef-81ef-46bb-a48d-d85402757c94","ios":"levelo://app?vid=21bb3fef-81ef-46bb-a48d-d85402757c94"},"vehicle_type_id":"4","last_reported":1753391439,"current_range_meters":17200,"station_id":"","pricing_plan_id":"cebpf4jnsgd1na2vs0mg"},{"bike_id":"39d5d8c8-01b0-4a59-91a6-074cb7825aee","system_id":"levelo_inurba_marseille","lat":43.29069,"lon":5.37165,"is_reserved":false,"is_disabled":false,"rental_uris":{"android":"levelo://app?vid=39d5d8c8-01b0-4a59-91a6-074cb7825aee","ios":"levelo://app?vid=39d5d8c8-01b0-4a59-91a6-074cb7825aee"},"vehicle_type_id":"4","last_reported":1753391439,"current_range_meters":17200,"station_id":"ce4bh5p2rcd13ifvqe4g","pricing_plan_id":"cebpf4jnsgd1na2vs0mg"},{"bike_id":"c6f5c883-ec34-4331-9400-187ad9737b75","system_id":"levelo_inurba_marseille","lat":43.29543,"lon":5.38541,"is_reserved":false,"is_disabled":false,"rental_uris":{"android":"levelo://app?vid=c6f5c883-ec34-4331-9400-187ad9737b75","ios":"levelo://app?vid=c6f5c883-ec34-4331-9400-187ad9737b75"},"vehicle_type_id":"4","last_reported":1753391439,"current_range_meters":17200,"station_id":"ce4bgih2rcd13ifvqba0","pricing_plan_id":"cebpf4jnsgd1na2vs0mg"},{"bike_id":"dddbef83-b47e-460f-a4ac-beade05833f1","system_id":"levelo_inurba_marseille","lat":43.22923,"lon":5.35393,"is_reserved":false,"is_disabled":false,"rental_uris":{"android":"levelo://app?vid=dddbef83-b47e-460f-a4ac-beade05833f1","ios":"levelo://app?vid=dddbef83-b47e-460f-a4ac-beade05833f1"},"vehicle_type_id":"4","last_reported":1753391439,"current_range_meters":17200,"station_id":"cpo3532slgdg3j2ikp40","pricing_plan_id":"cebpf4jnsgd1na2vs0mg"},{"bike_id":"81214a4c-aec9-4439-9ab4-8d3754022513","system_id":"levelo_inurba_marseille","lat":43.232,"lon":5.35575,"is_reserved":false,"is_disabled":true,"rental_uris":{"android":"levelo://app?vid=81214a4c-aec9-4439-9ab4-8d3754022513","ios":"levelo://app?vid=81214a4c-aec9-4439-9ab4-8d3754022513"},"vehicle_type_id":"4","last_reported":1753391439,"current_range_meters":17200,"station_id":"ce4bhu92rcd13ifvqi70","pricing_plan_id":"cebpf4jnsgd1na2vs0mg"},{"bike_id":"4310b6a2-565d-4a04-bb91-6998c3d0eaaa","system_id":"levelo_inurba_marseille","lat":43.29516,"lon":5.39034,"is_reserved":false,"is_disabled":false,"rental_uris":{"android":"levelo://app?vid=4310b6a2-565d-4a04-bb91-6998c3d0eaaa","ios":"levelo://app?vid=4310b6a2-565d-4a04-bb91-6998c3d0eaaa"},"vehicle_type_id":"4","last_reported":1753391439,"current_range_meters":17200,"station_id":"ce4bh3p2rcd13ifvqdp0","pricing_plan_id":"cebpf4jnsgd1na2vs0mg"},{"bike_id":"16df0bd7-60d5-46be-b8e7-3f21a0da3844","system_id":"levelo_inurba_marseille","lat":43.30951,"lon":5.3904,"is_reserved":false,"is_disabled":false,"rental_uris":{"android":"levelo://app?vid=16df0bd7-60d5-46be-b8e7-3f21a0da3844","ios":"levelo://app?vid=16df0bd7-60d5-46be-b8e7-3f21a0da3844"},"vehicle_type_id":"4","last_reported":1753391439,"current_range_meters":17200,"station_id":"ce4bgup2rcd13ifvqco0","pricing_plan_id":"cebpf4jnsgd1na2vs0mg"},{"bike_id":"d2c1d56d-6a3a-4ae3-b7ab-84022ad7ad84","system_id":"levelo_inurba_marseille","lat":43.29756,"lon":5.3762,"is_reserved":false,"is_disabled":false,"rental_uris":{"android":"levelo://app?vid=d2c1d56d-6a3a-4ae3-b7ab-84022ad7ad84","ios":"levelo://app?vid=d2c1d56d-6a3a-4ae3-b7ab-84022ad7ad84"},"vehicle_type_id":"4","last_reported":1753391439,"current_range_meters":17200,"station_id":"","pricing_plan_id":"cebpf4jnsgd1na2vs0mg"},{"bike_id":"c40ece3c-aef0-4133-8983-44e67feb4034","system_id":"levelo_inurba_marseille","lat":43.29526,"lon":5.38542,"is_reserved":false,"is_disabled":false,"rental_uris":{"android":"levelo://app?vid=c40ece3c-aef0-4133-8983-44e67feb4034","ios":"levelo://app?vid=c40ece3c-aef0-4133-8983-44e67feb4034"},"vehicle_type_id":"4","last_reported":1753391439,"current_range_meters":17200,"station_id":"ce4bgih2rcd13ifvqba0","pricing_plan_id":"cebpf4jnsgd1na2vs0mg"},{"bike_id":"a7742abf-ead4-402b-a427-c8cbc9c3c6ef","system_id":"levelo_inurba_marseille","lat":43.29245,"lon":5.36855,"is_reserved":false,"is_disabled":false,"rental_uris":{"android":"levelo://app?vid=a7742abf-ead4-402b-a427-c8cbc9c3c6ef","ios":"levelo://app?vid=a7742abf-ead4-402b-a427-c8cbc9c3c6ef"},"vehicle_type_id":"4","last_reported":1753391439,"current_range_meters":17600,"station_id":"ce4bhbp2rcd13ifvqesg","pricing_plan_id":"cebpf4jnsgd1na2vs0mg"},{"bike_id":"edc8ad2e-05c4-4008-9bfd-f0869ed643c3","system_id":"levelo_inurba_marseille","lat":43.292689,"lon":5.384312,"is_reserved":false,"is_disabled":false,"rental_uris":{"android":"levelo://app?vid=edc8ad2e-05c4-4008-9bfd-f0869ed643c3","ios":"levelo://app?vid=edc8ad2e-05c4-4008-9bfd-f0869ed643c3"},"vehicle_type_id":"4","last_reported":1753391439,"current_range_meters":17600,"station_id":"ce4bh692rcd13ifvqea0","pricing_plan_id":"cebpf4jnsgd1na2vs0mg"},{"bike_id":"a648a804-7714-4f34-99ef-8735ee74e8f4","system_id":"levelo_inurba_marseille","lat":43.25493,"lon":5.37652,"is_reserved":false,"is_disabled":false,"rental_uris":{"android":"levelo://app?vid=a648a804-7714-4f34-99ef-8735ee74e8f4","ios":"levelo://app?vid=a648a804-7714-4f34-99ef-8735ee74e8f4"},"vehicle_type_id":"4","last_reported":1753391439,"current_range_meters":17600,"station_id":"ce4bhh12rcd13ifvqff0","pricing_plan_id":"cebpf4jnsgd1na2vs0mg"},{"bike_id":"7ddd7d42-af4a-4740-809b-fd161e360866","system_id":"levelo_inurba_marseille","lat":43.25504,"lon":5.37645,"is_reserved":false,"is_disabled":false,"rental_uris":{"android":"levelo://app?vid=7ddd7d42-af4a-4740-809b-fd161e360866","ios":"levelo://app?vid=7ddd7d42-af4a-4740-809b-fd161e360866"},"vehicle_type_id":"4","last_reported":1753391439,"current_range_meters":17600,"station_id":"ce4bhh12rcd13ifvqff0","pricing_plan_id":"cebpf4jnsgd1na2vs0mg"},{"bike_id":"29c2b54d-eaf4-458f-b8c2-3a687cc92a49","system_id":"levelo_inurba_marseille","lat":43.2963,"lon":5.40596,"is_reserved":false,"is_disabled":false,"rental_uris":{"android":"levelo://app?vid=29c2b54d-eaf4-458f-b8c2-3a687cc92a49","ios":"levelo://app?vid=29c2b54d-eaf4-458f-b8c2-3a687cc92a49"},"vehicle_type_id":"4","last_reported":1753391439,"current_range_meters":17600,"station_id":"ce4bh0h2rcd13ifvqd60","pricing_plan_id":"cebpf4jnsgd1na2vs0mg"},{"bike_id":"771fe00f-0e39-4812-b27e-7cab0c32ff41","system_id":"levelo_inurba_marseille","lat":43.29513,"lon":5.38529,"is_reserved":false,"is_disabled":false,"rental_uris":{"android":"levelo://app?vid=771fe00f-0e39-4812-b27e-7cab0c32ff41","ios":"levelo://app?vid=771fe00f-0e39-4812-b27e-7cab0c32ff41"},"vehicle_type_id":"4","last_reported":1753391439,"current_range_meters":17600,"station_id":"ce4bgih2rcd13ifvqba0","pricing_plan_id":"cebpf4jnsgd1na2vs0mg"},{"bike_id":"557011e9-d7bf-414b-870b-c050c63145f5","system_id":"levelo_inurba_marseille","lat":43.31088,"lon":5.38392,"is_reserved":false,"is_disabled":false,"rental_uris":{"android":"levelo://app?vid=557011e9-d7bf-414b-870b-c050c63145f5","ios":"levelo://app?vid=557011e9-d7bf-414b-870b-c050c63145f5"},"vehicle_type_id":"4","last_reported":1753391439,"current_range_meters":17600,"station_id":"ce4bgv92rcd13ifvqcr0","pricing_plan_id":"cebpf4jnsgd1na2vs0mg"},{"bike_id":"4a73d052-6ddb-4aea-882b-8fc11592dc54","system_id":"levelo_inurba_marseille","lat":43.28562,"lon":5.3951,"is_reserved":false,"is_disabled":false,"rental_uris":{"android":"levelo://app?vid=4a73d052-6ddb-4aea-882b-8fc11592dc54","ios":"levelo://app?vid=4a73d052-6ddb-4aea-882b-8fc11592dc54"},"vehicle_type_id":"4","last_reported":1753391439,"current_range_meters":17200,"station_id":"ce4bh292rcd13ifvqdg0","pricing_plan_id":"cebpf4jnsgd1na2vs0mg"},{"bike_id":"fd13a871-6a7c-45ab-8193-0aedb29a36fc","system_id":"levelo_inurba_marseille","lat":43.26552,"lon":5.373,"is_reserved":false,"is_disabled":false,"rental_uris":{"android":"levelo://app?vid=fd13a871-6a7c-45ab-8193-0aedb29a36fc","ios":"levelo://app?vid=fd13a871-6a7c-45ab-8193-0aedb29a36fc"},"vehicle_type_id":"4","last_reported":1753391439,"current_range_meters":18000,"station_id":"ce4bhg12rcd13ifvqf70","pricing_plan_id":"cebpf4jnsgd1na2vs0mg"},{"bike_id":"9268495b-a2e8-4d26-a671-709a00248e38","system_id":"levelo_inurba_marseille","lat":43.29257,"lon":5.40141,"is_reserved":false,"is_disabled":false,"rental_uris":{"android":"levelo://app?vid=9268495b-a2e8-4d26-a671-709a00248e38","ios":"levelo://app?vid=9268495b-a2e8-4d26-a671-709a00248e38"},"vehicle_type_id":"4","last_reported":1753391439,"current_range_meters":18000,"station_id":"ce4bh312rcd13ifvqdk0","pricing_plan_id":"cebpf4jnsgd1na2vs0mg"},{"bike_id":"2f225cf7-5390-445c-80ee-8cd1dfe3b172","system_id":"levelo_inurba_marseille","lat":43.29251,"lon":5.38459,"is_reserved":false,"is_disabled":false,"rental_uris":{"android":"levelo://app?vid=2f225cf7-5390-445c-80ee-8cd1dfe3b172","ios":"levelo://app?vid=2f225cf7-5390-445c-80ee-8cd1dfe3b172"},"vehicle_type_id":"4","last_reported":1753391439,"current_range_meters":18000,"station_id":"ce4bh692rcd13ifvqea0","pricing_plan_id":"cebpf4jnsgd1na2vs0mg"},{"bike_id":"4aa97969-2f6e-4edb-a09f-12d31a04a044","system_id":"levelo_inurba_marseille","lat":43.30788,"lon":5.37671,"is_reserved":false,"is_disabled":false,"rental_uris":{"android":"levelo://app?vid=4aa97969-2f6e-4edb-a09f-12d31a04a044","ios":"levelo://app?vid=4aa97969-2f6e-4edb-a09f-12d31a04a044"},"vehicle_type_id":"4","last_reported":1753391439,"current_range_meters":18000,"station_id":"ce4bgv92rcd13ifvqcq0","pricing_plan_id":"cebpf4jnsgd1na2vs0mg"},{"bike_id":"a46484a7-6b72-4d9e-bdb6-1e4526e97228","system_id":"levelo_inurba_marseille","lat":43.291666,"lon":5.371588,"is_reserved":false,"is_disabled":false,"rental_uris":{"android":"levelo://app?vid=a46484a7-6b72-4d9e-bdb6-1e4526e97228","ios":"levelo://app?vid=a46484a7-6b72-4d9e-bdb6-1e4526e97228"},"vehicle_type_id":"4","last_reported":1753391439,"current_range_meters":18000,"station_id":"ce4bha92rcd13ifvqeh0","pricing_plan_id":"cebpf4jnsgd1na2vs0mg"},{"bike_id":"3ebf2c7c-ed20-4626-8a2f-fd049d599138","system_id":"levelo_inurba_marseille","lat":43.2318,"lon":5.39988,"is_reserved":false,"is_disabled":false,"rental_uris":{"android":"levelo://app?vid=3ebf2c7c-ed20-4626-8a2f-fd049d599138","ios":"levelo://app?vid=3ebf2c7c-ed20-4626-8a2f-fd049d599138"},"vehicle_type_id":"4","last_reported":1753391439,"current_range_meters":18000,"station_id":"ce4bhn12rcd13ifvqgqg","pricing_plan_id":"cebpf4jnsgd1na2vs0mg"},{"bike_id":"5cfe74ee-67cc-4223-97ee-3d16374f01fc","system_id":"levelo_inurba_marseille","lat":43.27381,"lon":5.36263,"is_reserved":false,"is_disabled":true,"rental_uris":{"android":"levelo://app?vid=5cfe74ee-67cc-4223-97ee-3d16374f01fc","ios":"levelo://app?vid=5cfe74ee-67cc-4223-97ee-3d16374f01fc"},"vehicle_type_id":"4","last_reported":1753391439,"current_range_meters":18000,"station_id":"ce4bhbh2rcd13ifvqeo0","pricing_plan_id":"cebpf4jnsgd1na2vs0mg"},{"bike_id":"75ce79c1-e23f-47ca-b12f-ecbb1fdfab43","system_id":"levelo_inurba_marseille","lat":43.28691,"lon":5.39993,"is_reserved":false,"is_disabled":false,"rental_uris":{"android":"levelo://app?vid=75ce79c1-e23f-47ca-b12f-ecbb1fdfab43","ios":"levelo://app?vid=75ce79c1-e23f-47ca-b12f-ecbb1fdfab43"},"vehicle_type_id":"4","last_reported":1753391439,"current_range_meters":18000,"station_id":"ce4bho92rcd13ifvqh3g","pricing_plan_id":"cebpf4jnsgd1na2vs0mg"},{"bike_id":"7a2e9e7e-4e9d-4e71-a22e-ef2896aef70a","system_id":"levelo_inurba_marseille","lat":43.289282,"lon":5.383986,"is_reserved":false,"is_disabled":false,"rental_uris":{"android":"levelo://app?vid=7a2e9e7e-4e9d-4e71-a22e-ef2896aef70a","ios":"levelo://app?vid=7a2e9e7e-4e9d-4e71-a22e-ef2896aef70a"},"vehicle_type_id":"4","last_reported":1753391439,"current_range_meters":18000,"station_id":"ce4bh612rcd13ifvqe6g","pricing_plan_id":"cebpf4jnsgd1na2vs0mg"},{"bike_id":"94f32c38-82eb-4489-9734-8082cf499adb","system_id":"levelo_inurba_marseille","lat":43.288504,"lon":5.39318,"is_reserved":false,"is_disabled":false,"rental_uris":{"android":"levelo://app?vid=94f32c38-82eb-4489-9734-8082cf499adb","ios":"levelo://app?vid=94f32c38-82eb-4489-9734-8082cf499adb"},"vehicle_type_id":"4","last_reported":1753391439,"current_range_meters":18000,"station_id":"ce4bh2p2rcd13ifvqdi0","pricing_plan_id":"cebpf4jnsgd1na2vs0mg"},{"bike_id":"1834683d-9ec6-4905-9893-3afb186e89c1","system_id":"levelo_inurba_marseille","lat":43.26187,"lon":5.37451,"is_reserved":false,"is_disabled":false,"rental_uris":{"android":"levelo://app?vid=1834683d-9ec6-4905-9893-3afb186e89c1","ios":"levelo://app?vid=1834683d-9ec6-4905-9893-3afb186e89c1"},"vehicle_type_id":"4","last_reported":1753391439,"current_range_meters":18000,"station_id":"ce4bhgp2rcd13ifvqfc0","pricing_plan_id":"cebpf4jnsgd1na2vs0mg"},{"bike_id":"56b9df32-11b6-4b1d-975b-d4e855d082cc","system_id":"levelo_inurba_marseille","lat":43.31079,"lon":5.4243,"is_reserved":false,"is_disabled":false,"rental_uris":{"android":"levelo://app?vid=56b9df32-11b6-4b1d-975b-d4e855d082cc","ios":"levelo://app?vid=56b9df32-11b6-4b1d-975b-d4e855d082cc"},"vehicle_type_id":"4","last_reported":1753391439,"current_range_meters":18000,"station_id":"ce4bhp92rcd13ifvqhag","pricing_plan_id":"cebpf4jnsgd1na2vs0mg"},{"bike_id":"09018fbe-60e0-4f20-803d-baff8efd9785","system_id":"levelo_inurba_marseille","lat":43.28074,"lon":5.39658,"is_reserved":false,"is_disabled":false,"rental_uris":{"android":"levelo://app?vid=09018fbe-60e0-4f20-803d-baff8efd9785","ios":"levelo://app?vid=09018fbe-60e0-4f20-803d-baff8efd9785"},"vehicle_type_id":"4","last_reported":1753391439,"current_range_meters":18800,"station_id":"ce4bho12rcd13ifvqh2g","pricing_plan_id":"cebpf4jnsgd1na2vs0mg"},{"bike_id":"bdf8bcb9-51f6-4a65-8181-f600f5b30780","system_id":"levelo_inurba_marseille","lat":43.27462,"lon":5.39567,"is_reserved":false,"is_disabled":false,"rental_uris":{"android":"levelo://app?vid=bdf8bcb9-51f6-4a65-8181-f600f5b30780","ios":"levelo://app?vid=bdf8bcb9-51f6-4a65-8181-f600f5b30780"},"vehicle_type_id":"4","last_reported":1753391439,"current_range_meters":18800,"station_id":"","pricing_plan_id":"cebpf4jnsgd1na2vs0mg"},{"bike_id":"f2c1cc68-66ae-448d-8763-030629ea502f","system_id":"levelo_inurba_marseille","lat":43.26669,"lon":5.40264,"is_reserved":false,"is_disabled":true,"rental_uris":{"android":"levelo://app?vid=f2c1cc68-66ae-448d-8763-030629ea502f","ios":"levelo://app?vid=f2c1cc68-66ae-448d-8763-030629ea502f"},"vehicle_type_id":"4","last_reported":1753391439,"current_range_meters":18800,"station_id":"","pricing_plan_id":"cebpf4jnsgd1na2vs0mg"},{"bike_id":"c59386ad-d49e-4400-92f2-a2c0fcc21264","system_id":"levelo_inurba_marseille","lat":43.291711,"lon":5.375311,"is_reserved":false,"is_disabled":true,"rental_uris":{"android":"levelo://app?vid=c59386ad-d49e-4400-92f2-a2c0fcc21264","ios":"levelo://app?vid=c59386ad-d49e-4400-92f2-a2c0fcc21264"},"vehicle_type_id":"4","last_reported":1753391439,"current_range_meters":18800,"station_id":"","pricing_plan_id":"cebpf4jnsgd1na2vs0mg"},{"bike_id":"7dad28b3-0f5d-4a81-b189-dd31353f5af3","system_id":"levelo_inurba_marseille","lat":43.27364,"lon":5.36256,"is_reserved":false,"is_disabled":false,"rental_uris":{"android":"levelo://app?vid=7dad28b3-0f5d-4a81-b189-dd31353f5af3","ios":"levelo://app?vid=7dad28b3-0f5d-4a81-b189-dd31353f5af3"},"vehicle_type_id":"4","last_reported":1753391439,"current_range_meters":18800,"station_id":"ce4bhbh2rcd13ifvqeo0","pricing_plan_id":"cebpf4jnsgd1na2vs0mg"},{"bike_id":"51874652-1a9d-4b1e-8ccd-bf877dcf115b","system_id":"levelo_inurba_marseille","lat":43.296217,"lon":5.371715,"is_reserved":false,"is_disabled":false,"rental_uris":{"android":"levelo://app?vid=51874652-1a9d-4b1e-8ccd-bf877dcf115b","ios":"levelo://app?vid=51874652-1a9d-4b1e-8ccd-bf877dcf115b"},"vehicle_type_id":"4","last_reported":1753391439,"current_range_meters":18800,"station_id":"ce4bgnh2rcd13ifvqc0g","pricing_plan_id":"cebpf4jnsgd1na2vs0mg"},{"bike_id":"cc9d64e8-fcbe-4a3d-9d87-6e0999603b75","system_id":"levelo_inurba_marseille","lat":43.30919,"lon":5.40166,"is_reserved":false,"is_disabled":false,"rental_uris":{"android":"levelo://app?vid=cc9d64e8-fcbe-4a3d-9d87-6e0999603b75","ios":"levelo://app?vid=cc9d64e8-fcbe-4a3d-9d87-6e0999603b75"},"vehicle_type_id":"4","last_reported":1753391439,"current_range_meters":18800,"station_id":"ce4bgvp2rcd13ifvqct0","pricing_plan_id":"cebpf4jnsgd1na2vs0mg"},{"bike_id":"1d5c629d-1969-45a3-b8ac-e318d08782fe","system_id":"levelo_inurba_marseille","lat":43.301238,"lon":5.387855,"is_reserved":false,"is_disabled":false,"rental_uris":{"android":"levelo://app?vid=1d5c629d-1969-45a3-b8ac-e318d08782fe","ios":"levelo://app?vid=1d5c629d-1969-45a3-b8ac-e318d08782fe"},"vehicle_type_id":"4","last_reported":1753391439,"current_range_meters":18800,"station_id":"","pricing_plan_id":"cebpf4jnsgd1na2vs0mg"},{"bike_id":"635d529b-81db-4d95-967c-681543329cb0","system_id":"levelo_inurba_marseille","lat":43.29889,"lon":5.43671,"is_reserved":false,"is_disabled":false,"rental_uris":{"android":"levelo://app?vid=635d529b-81db-4d95-967c-681543329cb0","ios":"levelo://app?vid=635d529b-81db-4d95-967c-681543329cb0"},"vehicle_type_id":"4","last_reported":1753391439,"current_range_meters":18800,"station_id":"ce4bhpp2rcd13ifvqhfg","pricing_plan_id":"cebpf4jnsgd1na2vs0mg"},{"bike_id":"7d7293be-c250-4fb4-bf42-4d2b816d9b23","system_id":"levelo_inurba_marseille","lat":43.29538,"lon":5.38558,"is_reserved":false,"is_disabled":false,"rental_uris":{"android":"levelo://app?vid=7d7293be-c250-4fb4-bf42-4d2b816d9b23","ios":"levelo://app?vid=7d7293be-c250-4fb4-bf42-4d2b816d9b23"},"vehicle_type_id":"4","last_reported":1753391439,"current_range_meters":18800,"station_id":"ce4bgih2rcd13ifvqba0","pricing_plan_id":"cebpf4jnsgd1na2vs0mg"},{"bike_id":"f49a6599-9b7f-4fb5-91c5-12386bdb31af","system_id":"levelo_inurba_marseille","lat":43.295306,"lon":5.385397,"is_reserved":false,"is_disabled":false,"rental_uris":{"android":"levelo://app?vid=f49a6599-9b7f-4fb5-91c5-12386bdb31af","ios":"levelo://app?vid=f49a6599-9b7f-4fb5-91c5-12386bdb31af"},