{"last_updated":1768054208,"ttl":60,"version":"2.2","data":{"bikes":[{"bike_id":"e0338060-ce0a-4822-8d71-f2c1872544f8","system_id":"levelo_inurba_marseille","lat":43.28404,"lon":5.34979,"is_reserved":false,"is_disabled":false,"rental_uris":{"android":"levelo://app?vid=e0338060-ce0a-4822-8d71-f2c1872544f8","ios":"levelo://app?vid=e0338060-ce0a-4822-8d71-f2c1872544f8"},"vehicle_type_id":"4","last_reported":1768054208,"current_range_meters":2800,"station_id":"ce4bhbh2rcd13ifvqepg","pricing_plan_id":"cebpf4jnsgd1na2vs0mg"},{"bike_id":"e8237869-6bc1-4aff-8e00-c83ace1ecdfb","system_id":"levelo_inurba_marseille","lat":43.225335,"lon":5.348347,"is_reserved":false,"is_disabled":false,"rental_uris":{"android":"levelo://app?vid=e8237869-6bc1-4aff-8e00-c83ace1ecdfb","ios":"levelo://app?vid=e8237869-6bc1-4aff-8e00-c83ace1ecdfb"},"vehicle_type_id":"4","last_reported":1768054208,"current_range_meters":2800,"station_id":"","pricing_plan_id":"cebpf4jnsgd1na2vs0mg"},{"bike_id":"f6a2b1c6-751f-470e-836e-a72336cc77d2","system_id":"levelo_inurba_marseille","lat":43.30726,"lon":5.42424,"is_reserved":false,"is_disabled":false,"rental_uris":{"android":"levelo://app?vid=f6a2b1c6-751f-470e-836e-a72336cc77d2","ios":"levelo://app?vid=f6a2b1c6-751f-470e-836e-a72336cc77d2"},"vehicle_type_id":"4","last_reported":1768054208,"current_range_meters":2800,"station_id":"st_cvj6ca6bvosntc0bfgr0","pricing_plan_id":"cebpf4jnsgd1na2vs0mg"},{"bike_id":"f8fecbdd-9c64-472f-b39e-0e9946942e25","system_id":"levelo_inurba_marseille","lat":43.28284,"lon":5.35075,"is_reserved":false,"is_disabled":false,"rental_uris":{"android":"levelo://app?vid=f8fecbdd-9c64-472f-b39e-0e9946942e25","ios":"levelo://app?vid=f8fecbdd-9c64-472f-b39e-0e9946942e25"},"vehicle_type_id":"4","last_reported":1768054208,"current_range_meters":2800,"station_id":"ce4bhbp2rcd13ifvqerg","pricing_plan_id":"cebpf4jnsgd1na2vs0mg"},{"bike_id":"81139276-4b58-4aee-b523-540dfdda5b68","system_id":"levelo_inurba_marseille","lat":43.27676,"lon":5.38904,"is_reserved":false,"is_disabled":false,"rental_uris":{"android":"levelo://app?vid=81139276-4b58-4aee-b523-540dfdda5b68","ios":"levelo://app?vid=81139276-4b58-4aee-b523-540dfdda5b68"},"vehicle_type_id":"4","last_reported":1768054208,"current_range_meters":2800,"station_id":"ce4bhi12rcd13ifvqfo0","pricing_plan_id":"cebpf4jnsgd1na2vs0mg"},{"bike_id":"7556ec87-ee82-453f-8a43-79b64208618a","system_id":"levelo_inurba_marseille","lat":43.21195,"lon":5.35071,"is_reserved":false,"is_disabled":false,"rental_uris":{"android":"levelo://app?vid=7556ec87-ee82-453f-8a43-79b64208618a","ios":"levelo://app?vid=7556ec87-ee82-453f-8a43-79b64208618a"},"vehicle_type_id":"4","last_reported":1768054208,"current_range_meters":2800,"station_id":"st_cvj6sg6p6f1abm77japg","pricing_plan_id":"cebpf4jnsgd1na2vs0mg"},{"bike_id":"e8c86c2a-2725-4237-9c29-a4840572a330","system_id":"levelo_inurba_marseille","lat":43.24818,"lon":5.37462,"is_reserved":false,"is_disabled":false,"rental_uris":{"android":"levelo://app?vid=e8c86c2a-2725-4237-9c29-a4840572a330","ios":"levelo://app?vid=e8c86c2a-2725-4237-9c29-a4840572a330"},"vehicle_type_id":"4","last_reported":1768054208,"current_range_meters":2800,"station_id":"ce4bhgh2rcd13ifvqfb0","pricing_plan_id":"cebpf4jnsgd1na2vs0mg"},{"bike_id":"b64e452a-bec0-47a7-9fd3-b6c2486866f5","system_id":"levelo_inurba_marseille","lat":43.28485,"lon":5.48398,"is_reserved":false,"is_disabled":false,"rental_uris":{"android":"levelo://app?vid=b64e452a-bec0-47a7-9fd3-b6c2486866f5","ios":"levelo://app?vid=b64e452a-bec0-47a7-9fd3-b6c2486866f5"},"vehicle_type_id":"4","last_reported":1768054208,"current_range_meters":3200,"station_id":"","pricing_plan_id":"cebpf4jnsgd1na2vs0mg"},{"bike_id":"ed27761f-ddf8-4ca6-ad7f-042a477fd7ea","system_id":"levelo_inurba_marseille","lat":43.29531,"lon":5.37388,"is_reserved":false,"is_disabled":false,"rental_uris":{"android":"levelo://app?vid=ed27761f-ddf8-4ca6-ad7f-042a477fd7ea","ios":"levelo://app?vid=ed27761f-ddf8-4ca6-ad7f-042a477fd7ea"},"vehicle_type_id":"4","last_reported":1768054208,"current_range_meters":3200,"station_id":"","pricing_plan_id":"cebpf4jnsgd1na2vs0mg"},{"bike_id":"486e3358-5ad4-47dd-8cf9-949675911464","system_id":"levelo_inurba_marseille","lat":43.25576,"lon":5.382482,"is_reserved":false,"is_disabled":false,"rental_uris":{"android":"levelo://app?vid=486e3358-5ad4-47dd-8cf9-949675911464","ios":"levelo://app?vid=486e3358-5ad4-47dd-8cf9-949675911464"},"vehicle_type_id":"4","last_reported":1768054208,"current_range_meters":3200,"station_id":"ce4bhih2rcd13ifvqfs0","pricing_plan_id":"cebpf4jnsgd1na2vs0mg"},{"bike_id":"6fad9ca1-61fd-4cab-8c8e-75dda08e921f","system_id":"levelo_inurba_marseille","lat":43.31944,"lon":5.37392,"is_reserved":false,"is_disabled":false,"rental_uris":{"android":"levelo://app?vid=6fad9ca1-61fd-4cab-8c8e-75dda08e921f","ios":"levelo://app?vid=6fad9ca1-61fd-4cab-8c8e-75dda08e921f"},"vehicle_type_id":"4","last_reported":1768054208,"current_range_meters":3200,"station_id":"","pricing_plan_id":"cebpf4jnsgd1na2vs0mg"},{"bike_id":"3b0c044b-cff7-4737-b3af-017df77671fe","system_id":"levelo_inurba_marseille","lat":43.27984,"lon":5.41691,"is_reserved":false,"is_disabled":false,"rental_uris":{"android":"levelo://app?vid=3b0c044b-cff7-4737-b3af-017df77671fe","ios":"levelo://app?vid=3b0c044b-cff7-4737-b3af-017df77671fe"},"vehicle_type_id":"4","last_reported":1768054208,"current_range_meters":3200,"station_id":"ce4bho12rcd13ifvqh1g","pricing_plan_id":"cebpf4jnsgd1na2vs0mg"},{"bike_id":"2e4bd346-2ef6-4ed8-9714-fdcc0b54b9d0","system_id":"levelo_inurba_marseille","lat":43.24835,"lon":5.37477,"is_reserved":false,"is_disabled":false,"rental_uris":{"android":"levelo://app?vid=2e4bd346-2ef6-4ed8-9714-fdcc0b54b9d0","ios":"levelo://app?vid=2e4bd346-2ef6-4ed8-9714-fdcc0b54b9d0"},"vehicle_type_id":"4","last_reported":1768054208,"current_range_meters":3200,"station_id":"","pricing_plan_id":"cebpf4jnsgd1na2vs0mg"},{"bike_id":"2c8d9e80-107a-4b75-a05c-f7d0be51968d","system_id":"levelo_inurba_marseille","lat":43.29715,"lon":5.37704,"is_reserved":false,"is_disabled":false,"rental_uris":{"android":"levelo://app?vid=2c8d9e80-107a-4b75-a05c-f7d0be51968d","ios":"levelo://app?vid=2c8d9e80-107a-4b75-a05c-f7d0be51968d"},"vehicle_type_id":"4","last_reported":1768054208,"current_range_meters":3200,"station_id":"ce4bgkh2rcd13ifvqbl0","pricing_plan_id":"cebpf4jnsgd1na2vs0mg"},{"bike_id":"d336d32f-a9ab-4eb1-9637-d3fa585ead55","system_id":"levelo_inurba_marseille","lat":43.294881,"lon":5.433048,"is_reserved":false,"is_disabled":false,"rental_uris":{"android":"levelo://app?vid=d336d32f-a9ab-4eb1-9637-d3fa585ead55","ios":"levelo://app?vid=d336d32f-a9ab-4eb1-9637-d3fa585ead55"},"vehicle_type_id":"4","last_reported":1768054208,"current_range_meters":3200,"station_id":"st_d3j5ugp08ojc73fj9d10","pricing_plan_id":"cebpf4jnsgd1na2vs0mg"},{"bike_id":"468300f8-5764-408d-aaa5-17c840afaa10","system_id":"levelo_inurba_marseille","lat":43.29149,"lon":5.37116,"is_reserved":false,"is_disabled":false,"rental_uris":{"android":"levelo://app?vid=468300f8-5764-408d-aaa5-17c840afaa10","ios":"levelo://app?vid=468300f8-5764-408d-aaa5-17c840afaa10"},"vehicle_type_id":"4","last_reported":1768054208,"current_range_meters":3200,"station_id":"ce4bha92rcd13ifvqeh0","pricing_plan_id":"cebpf4jnsgd1na2vs0mg"},{"bike_id":"47f0b781-042e-4908-9848-051083bc15fd","system_id":"levelo_inurba_marseille","lat":43.265662,"lon":5.390226,"is_reserved":false,"is_disabled":false,"rental_uris":{"android":"levelo://app?vid=47f0b781-042e-4908-9848-051083bc15fd","ios":"levelo://app?vid=47f0b781-042e-4908-9848-051083bc15fd"},"vehicle_type_id":"4","last_reported":1768054208,"current_range_meters":3200,"station_id":"","pricing_plan_id":"cebpf4jnsgd1na2vs0mg"},{"bike_id":"7954a23a-e0a9-4417-af11-7c5c70a27fba","system_id":"levelo_inurba_marseille","lat":43.24169,"lon":5.36387,"is_reserved":false,"is_disabled":false,"rental_uris":{"android":"levelo://app?vid=7954a23a-e0a9-4417-af11-7c5c70a27fba","ios":"levelo://app?vid=7954a23a-e0a9-4417-af11-7c5c70a27fba"},"vehicle_type_id":"4","last_reported":1768054208,"current_range_meters":3200,"station_id":"cpo36qri1sfpv3e86is0","pricing_plan_id":"cebpf4jnsgd1na2vs0mg"},{"bike_id":"d5b11fb8-6192-47fb-aadc-4bb75715f25d","system_id":"levelo_inurba_marseille","lat":43.26952,"lon":5.39835,"is_reserved":false,"is_disabled":false,"rental_uris":{"android":"levelo://app?vid=d5b11fb8-6192-47fb-aadc-4bb75715f25d","ios":"levelo://app?vid=d5b11fb8-6192-47fb-aadc-4bb75715f25d"},"vehicle_type_id":"4","last_reported":1768054208,"current_range_meters":3200,"station_id":"","pricing_plan_id":"cebpf4jnsgd1na2vs0mg"},{"bike_id":"ab2806fa-e773-434e-a6e5-937b58c37a4f","system_id":"levelo_inurba_marseille","lat":43.24817,"lon":5.37463,"is_reserved":false,"is_disabled":false,"rental_uris":{"android":"levelo://app?vid=ab2806fa-e773-434e-a6e5-937b58c37a4f","ios":"levelo://app?vid=ab2806fa-e773-434e-a6e5-937b58c37a4f"},"vehicle_type_id":"4","last_reported":1768054208,"current_range_meters":3200,"station_id":"ce4bhgh2rcd13ifvqfb0","pricing_plan_id":"cebpf4jnsgd1na2vs0mg"},{"bike_id":"0545e863-d76c-4ff3-8e82-b5fc48f3c2f0","system_id":"levelo_inurba_marseille","lat":43.28713,"lon":5.37403,"is_reserved":false,"is_disabled":false,"rental_uris":{"android":"levelo://app?vid=0545e863-d76c-4ff3-8e82-b5fc48f3c2f0","ios":"levelo://app?vid=0545e863-d76c-4ff3-8e82-b5fc48f3c2f0"},"vehicle_type_id":"4","last_reported":1768054208,"current_range_meters":3200,"station_id":"ce4bh3p2rcd13ifvqdq0","pricing_plan_id":"cebpf4jnsgd1na2vs0mg"},{"bike_id":"b01b28d2-3f19-4003-9ec3-2602e6f718f6","system_id":"levelo_inurba_marseille","lat":43.30551,"lon":5.37651,"is_reserved":false,"is_disabled":false,"rental_uris":{"android":"levelo://app?vid=b01b28d2-3f19-4003-9ec3-2602e6f718f6","ios":"levelo://app?vid=b01b28d2-3f19-4003-9ec3-2602e6f718f6"},"vehicle_type_id":"4","last_reported":1768054208,"current_range_meters":3600,"station_id":"","pricing_plan_id":"cebpf4jnsgd1na2vs0mg"},{"bike_id":"2f148a40-08c3-4821-bb26-bd90d7a0c233","system_id":"levelo_inurba_marseille","lat":43.24403,"lon":5.3706,"is_reserved":false,"is_disabled":false,"rental_uris":{"android":"levelo://app?vid=2f148a40-08c3-4821-bb26-bd90d7a0c233","ios":"levelo://app?vid=2f148a40-08c3-4821-bb26-bd90d7a0c233"},"vehicle_type_id":"4","last_reported":1768054208,"current_range_meters":3600,"station_id":"ce4bhhh2rcd13ifvqfk0","pricing_plan_id":"cebpf4jnsgd1na2vs0mg"},{"bike_id":"acf9b465-5657-433f-abd2-b0a7dddb60bc","system_id":"levelo_inurba_marseille","lat":43.26548,"lon":5.373,"is_reserved":false,"is_disabled":false,"rental_uris":{"android":"levelo://app?vid=acf9b465-5657-433f-abd2-b0a7dddb60bc","ios":"levelo://app?vid=acf9b465-5657-433f-abd2-b0a7dddb60bc"},"vehicle_type_id":"4","last_reported":1768054208,"current_range_meters":3600,"station_id":"ce4bhg12rcd13ifvqf70","pricing_plan_id":"cebpf4jnsgd1na2vs0mg"},{"bike_id":"edf9ef2b-78e7-402e-b2e7-1f5952a3485d","system_id":"levelo_inurba_marseille","lat":43.255004,"lon":5.376576,"is_reserved":false,"is_disabled":false,"rental_uris":{"android":"levelo://app?vid=edf9ef2b-78e7-402e-b2e7-1f5952a3485d","ios":"levelo://app?vid=edf9ef2b-78e7-402e-b2e7-1f5952a3485d"},"vehicle_type_id":"4","last_reported":1768054208,"current_range_meters":3600,"station_id":"ce4bhh12rcd13ifvqff0","pricing_plan_id":"cebpf4jnsgd1na2vs0mg"},{"bike_id":"24fd1209-d399-4ee0-89bd-9c6e7402ed28","system_id":"levelo_inurba_marseille","lat":43.280303,"lon":5.36948,"is_reserved":false,"is_disabled":false,"rental_uris":{"android":"levelo://app?vid=24fd1209-d399-4ee0-89bd-9c6e7402ed28","ios":"levelo://app?vid=24fd1209-d399-4ee0-89bd-9c6e7402ed28"},"vehicle_type_id":"4","last_reported":1768054208,"current_range_meters":3600,"station_id":"ce4bha12rcd13ifvqef0","pricing_plan_id":"cebpf4jnsgd1na2vs0mg"},{"bike_id":"813744c2-32d8-4783-8fd8-cb01e5ee70e2","system_id":"levelo_inurba_marseille","lat":43.30282,"lon":5.37269,"is_reserved":false,"is_disabled":false,"rental_uris":{"android":"levelo://app?vid=813744c2-32d8-4783-8fd8-cb01e5ee70e2","ios":"levelo://app?vid=813744c2-32d8-4783-8fd8-cb01e5ee70e2"},"vehicle_type_id":"4","last_reported":1768054208,"current_range_meters":3600,"station_id":"","pricing_plan_id":"cebpf4jnsgd1na2vs0mg"},{"bike_id":"92fb3b9c-5f74-43b3-9000-eb8057479065","system_id":"levelo_inurba_marseille","lat":43.29804,"lon":5.38168,"is_reserved":false,"is_disabled":false,"rental_uris":{"android":"levelo://app?vid=92fb3b9c-5f74-43b3-9000-eb8057479065","ios":"levelo://app?vid=92fb3b9c-5f74-43b3-9000-eb8057479065"},"vehicle_type_id":"4","last_reported":1768054208,"current_range_meters":3600,"station_id":"ce4bgip2rcd13ifvqbb0","pricing_plan_id":"cebpf4jnsgd1na2vs0mg"},{"bike_id":"4f2e90d8-1bd2-473e-9bba-0ccb824ed93e","system_id":"levelo_inurba_marseille","lat":43.26213,"lon":5.37446,"is_reserved":false,"is_disabled":false,"rental_uris":{"android":"levelo://app?vid=4f2e90d8-1bd2-473e-9bba-0ccb824ed93e","ios":"levelo://app?vid=4f2e90d8-1bd2-473e-9bba-0ccb824ed93e"},"vehicle_type_id":"4","last_reported":1768054208,"current_range_meters":3600,"station_id":"ce4bhgp2rcd13ifvqfc0","pricing_plan_id":"cebpf4jnsgd1na2vs0mg"},{"bike_id":"7afafe8b-710d-46de-b7a0-496d048970e1","system_id":"levelo_inurba_marseille","lat":43.294327,"lon":5.397476,"is_reserved":false,"is_disabled":false,"rental_uris":{"android":"levelo://app?vid=7afafe8b-710d-46de-b7a0-496d048970e1","ios":"levelo://app?vid=7afafe8b-710d-46de-b7a0-496d048970e1"},"vehicle_type_id":"4","last_reported":1768054208,"current_range_meters":3600,"station_id":"ce4bhah2rcd13ifvqei0","pricing_plan_id":"cebpf4jnsgd1na2vs0mg"},{"bike_id":"1a5c11d6-eb97-4735-ad72-9222bdb91c2a","system_id":"levelo_inurba_marseille","lat":43.29721,"lon":5.37696,"is_reserved":false,"is_disabled":false,"rental_uris":{"android":"levelo://app?vid=1a5c11d6-eb97-4735-ad72-9222bdb91c2a","ios":"levelo://app?vid=1a5c11d6-eb97-4735-ad72-9222bdb91c2a"},"vehicle_type_id":"4","last_reported":1768054208,"current_range_meters":3600,"station_id":"ce4bgkh2rcd13ifvqbl0","pricing_plan_id":"cebpf4jnsgd1na2vs0mg"},{"bike_id":"8b697a24-51a2-452a-93c9-5c0c040134d0","system_id":"levelo_inurba_marseille","lat":43.32221,"lon":5.39435,"is_reserved":false,"is_disabled":false,"rental_uris":{"android":"levelo://app?vid=8b697a24-51a2-452a-93c9-5c0c040134d0","ios":"levelo://app?vid=8b697a24-51a2-452a-93c9-5c0c040134d0"},"vehicle_type_id":"4","last_reported":1768054208,"current_range_meters":3600,"station_id":"","pricing_plan_id":"cebpf4jnsgd1na2vs0mg"},{"bike_id":"5d1bd27b-f332-404c-9c2a-0870ef0e1aaa","system_id":"levelo_inurba_marseille","lat":43.29189,"lon":5.35796,"is_reserved":false,"is_disabled":false,"rental_uris":{"android":"levelo://app?vid=5d1bd27b-f332-404c-9c2a-0870ef0e1aaa","ios":"levelo://app?vid=5d1bd27b-f332-404c-9c2a-0870ef0e1aaa"},"vehicle_type_id":"4","last_reported":1768054208,"current_range_meters":3600,"station_id":"ce4bhb12rcd13ifvqel0","pricing_plan_id":"cebpf4jnsgd1na2vs0mg"},{"bike_id":"b62ff4b3-6a3a-419d-85d1-6a59965f4e3e","system_id":"levelo_inurba_marseille","lat":43.22933,"lon":5.35378,"is_reserved":false,"is_disabled":false,"rental_uris":{"android":"levelo://app?vid=b62ff4b3-6a3a-419d-85d1-6a59965f4e3e","ios":"levelo://app?vid=b62ff4b3-6a3a-419d-85d1-6a59965f4e3e"},"vehicle_type_id":"4","last_reported":1768054208,"current_range_meters":3600,"station_id":"cpo3532slgdg3j2ikp40","pricing_plan_id":"cebpf4jnsgd1na2vs0mg"},{"bike_id":"0c94050a-4474-4686-86d8-1be253c9064a","system_id":"levelo_inurba_marseille","lat":43.32535,"lon":5.41446,"is_reserved":false,"is_disabled":false,"rental_uris":{"android":"levelo://app?vid=0c94050a-4474-4686-86d8-1be253c9064a","ios":"levelo://app?vid=0c94050a-4474-4686-86d8-1be253c9064a"},"vehicle_type_id":"4","last_reported":1768054208,"current_range_meters":3600,"station_id":"ce4bhq12rcd13ifvqhhg","pricing_plan_id":"cebpf4jnsgd1na2vs0mg"},{"bike_id":"44ba5636-cada-4aed-81b4-84b346c45e10","system_id":"levelo_inurba_marseille","lat":43.25589,"lon":5.38246,"is_reserved":false,"is_disabled":false,"rental_uris":{"android":"levelo://app?vid=44ba5636-cada-4aed-81b4-84b346c45e10","ios":"levelo://app?vid=44ba5636-cada-4aed-81b4-84b346c45e10"},"vehicle_type_id":"4","last_reported":1768054208,"current_range_meters":3600,"station_id":"ce4bhih2rcd13ifvqfs0","pricing_plan_id":"cebpf4jnsgd1na2vs0mg"},{"bike_id":"cc6a42bd-dd7c-4c64-b69f-e5073a2adae2","system_id":"levelo_inurba_marseille","lat":43.21756,"lon":5.34614,"is_reserved":false,"is_disabled":false,"rental_uris":{"android":"levelo://app?vid=cc6a42bd-dd7c-4c64-b69f-e5073a2adae2","ios":"levelo://app?vid=cc6a42bd-dd7c-4c64-b69f-e5073a2adae2"},"vehicle_type_id":"4","last_reported":1768054208,"current_range_meters":4000,"station_id":"st_cvj6r9ubvosntc0bgbag","pricing_plan_id":"cebpf4jnsgd1na2vs0mg"},{"bike_id":"667ce080-39d1-4488-b051-3094810dd8ad","system_id":"levelo_inurba_marseille","lat":43.2991,"lon":5.4287,"is_reserved":false,"is_disabled":false,"rental_uris":{"android":"levelo://app?vid=667ce080-39d1-4488-b051-3094810dd8ad","ios":"levelo://app?vid=667ce080-39d1-4488-b051-3094810dd8ad"},"vehicle_type_id":"4","last_reported":1768054208,"current_range_meters":4000,"station_id":"","pricing_plan_id":"cebpf4jnsgd1na2vs0mg"},{"bike_id":"865555d8-70a3-48c4-b89b-4cd7680516d4","system_id":"levelo_inurba_marseille","lat":43.23177,"lon":5.35562,"is_reserved":false,"is_disabled":false,"rental_uris":{"android":"levelo://app?vid=865555d8-70a3-48c4-b89b-4cd7680516d4","ios":"levelo://app?vid=865555d8-70a3-48c4-b89b-4cd7680516d4"},"vehicle_type_id":"4","last_reported":1768054208,"current_range_meters":4000,"station_id":"ce4bhu92rcd13ifvqi70","pricing_plan_id":"cebpf4jnsgd1na2vs0mg"},{"bike_id":"4d1dbbc4-a3c7-40b2-b35d-57af536f6f9a","system_id":"levelo_inurba_marseille","lat":43.28629,"lon":5.35101,"is_reserved":false,"is_disabled":false,"rental_uris":{"android":"levelo://app?vid=4d1dbbc4-a3c7-40b2-b35d-57af536f6f9a","ios":"levelo://app?vid=4d1dbbc4-a3c7-40b2-b35d-57af536f6f9a"},"vehicle_type_id":"4","last_reported":1768054208,"current_range_meters":4000,"station_id":"ce4bhch2rcd13ifvqeug","pricing_plan_id":"cebpf4jnsgd1na2vs0mg"},{"bike_id":"2cc08d64-6d88-45e6-846f-20424bbe578e","system_id":"levelo_inurba_marseille","lat":43.299253,"lon":5.365455,"is_reserved":false,"is_disabled":false,"rental_uris":{"android":"levelo://app?vid=2cc08d64-6d88-45e6-846f-20424bbe578e","ios":"levelo://app?vid=2cc08d64-6d88-45e6-846f-20424bbe578e"},"vehicle_type_id":"4","last_reported":1768054208,"current_range_meters":4000,"station_id":"ce4bgm92rcd13ifvqbr0","pricing_plan_id":"cebpf4jnsgd1na2vs0mg"},{"bike_id":"8c9c7d2f-2964-4558-96e9-0e1ea8fcd3c7","system_id":"levelo_inurba_marseille","lat":43.22568,"lon":5.41644,"is_reserved":false,"is_disabled":false,"rental_uris":{"android":"levelo://app?vid=8c9c7d2f-2964-4558-96e9-0e1ea8fcd3c7","ios":"levelo://app?vid=8c9c7d2f-2964-4558-96e9-0e1ea8fcd3c7"},"vehicle_type_id":"4","last_reported":1768054208,"current_range_meters":4000,"station_id":"st_d2o4gvlbi1j2169b742g","pricing_plan_id":"cebpf4jnsgd1na2vs0mg"},{"bike_id":"3784f2bf-f44f-44f4-a8be-e3b125ce0193","system_id":"levelo_inurba_marseille","lat":43.27095,"lon":5.40475,"is_reserved":false,"is_disabled":false,"rental_uris":{"android":"levelo://app?vid=3784f2bf-f44f-44f4-a8be-e3b125ce0193","ios":"levelo://app?vid=3784f2bf-f44f-44f4-a8be-e3b125ce0193"},"vehicle_type_id":"4","last_reported":1768054208,"current_range_meters":4000,"station_id":"","pricing_plan_id":"cebpf4jnsgd1na2vs0mg"},{"bike_id":"2416829d-3f10-4954-bbb3-bc994a74f29a","system_id":"levelo_inurba_marseille","lat":43.25584,"lon":5.38244,"is_reserved":false,"is_disabled":false,"rental_uris":{"android":"levelo://app?vid=2416829d-3f10-4954-bbb3-bc994a74f29a","ios":"levelo://app?vid=2416829d-3f10-4954-bbb3-bc994a74f29a"},"vehicle_type_id":"4","last_reported":1768054208,"current_range_meters":4000,"station_id":"","pricing_plan_id":"cebpf4jnsgd1na2vs0mg"},{"bike_id":"ebc43aa4-a1f4-49d5-9b9d-bc00775a435b","system_id":"levelo_inurba_marseille","lat":43.2867,"lon":5.38664,"is_reserved":false,"is_disabled":false,"rental_uris":{"android":"levelo://app?vid=ebc43aa4-a1f4-49d5-9b9d-bc00775a435b","ios":"levelo://app?vid=ebc43aa4-a1f4-49d5-9b9d-bc00775a435b"},"vehicle_type_id":"4","last_reported":1768054208,"current_range_meters":4000,"station_id":"ce4bh492rcd13ifvqdug","pricing_plan_id":"cebpf4jnsgd1na2vs0mg"},{"bike_id":"e288dd09-a719-4af9-97ac-ef72cf8ca56d","system_id":"levelo_inurba_marseille","lat":43.24951,"lon":5.40518,"is_reserved":false,"is_disabled":false,"rental_uris":{"android":"levelo://app?vid=e288dd09-a719-4af9-97ac-ef72cf8ca56d","ios":"levelo://app?vid=e288dd09-a719-4af9-97ac-ef72cf8ca56d"},"vehicle_type_id":"4","last_reported":1768054208,"current_range_meters":4000,"station_id":"st_d2ngiaodas8pm72gd1h0","pricing_plan_id":"cebpf4jnsgd1na2vs0mg"},{"bike_id":"623f0a25-fca3-4385-8014-ea0fd6e63f7e","system_id":"levelo_inurba_marseille","lat":43.30133,"lon":5.38761,"is_reserved":false,"is_disabled":false,"rental_uris":{"android":"levelo://app?vid=623f0a25-fca3-4385-8014-ea0fd6e63f7e","ios":"levelo://app?vid=623f0a25-fca3-4385-8014-ea0fd6e63f7e"},"vehicle_type_id":"4","last_reported":1768054208,"current_range_meters":4000,"station_id":"ce4bghh2rcd13ifvqb60","pricing_plan_id":"cebpf4jnsgd1na2vs0mg"},{"bike_id":"f4049db7-b663-4b74-9659-1609ed0f1a6e","system_id":"levelo_inurba_marseille","lat":43.31325,"lon":5.397054,"is_reserved":false,"is_disabled":false,"rental_uris":{"android":"levelo://app?vid=f4049db7-b663-4b74-9659-1609ed0f1a6e","ios":"levelo://app?vid=f4049db7-b663-4b74-9659-1609ed0f1a6e"},"vehicle_type_id":"4","last_reported":1768054208,"current_range_meters":4400,"station_id":"ce4bgvp2rcd13ifvqcu0","pricing_plan_id":"cebpf4jnsgd1na2vs0mg"},{"bike_id":"939c67ce-6377-4aee-8e6c-8ad0908b5630","system_id":"levelo_inurba_marseille","lat":43.25333,"lon":5.42181,"is_reserved":false,"is_disabled":false,"rental_uris":{"android":"levelo://app?vid=939c67ce-6377-4aee-8e6c-8ad0908b5630","ios":"levelo://app?vid=939c67ce-6377-4aee-8e6c-8ad0908b5630"},"vehicle_type_id":"4","last_reported":1768054208,"current_range_meters":4400,"station_id":"st_d2m65c5bi1j21697t3ng","pricing_plan_id":"cebpf4jnsgd1na2vs0mg"},{"bike_id":"f2f5b190-f85a-4c08-a3b1-836e3afb91c9","system_id":"levelo_inurba_marseille","lat":43.26678,"lon":5.3827,"is_reserved":false,"is_disabled":false,"rental_uris":{"android":"levelo://app?vid=f2f5b190-f85a-4c08-a3b1-836e3afb91c9","ios":"levelo://app?vid=f2f5b190-f85a-4c08-a3b1-836e3afb91c9"},"vehicle_type_id":"4","last_reported":1768054208,"current_range_meters":4400,"station_id":"ce4bhg92rcd13ifvqf90","pricing_plan_id":"cebpf4jnsgd1na2vs0mg"},{"bike_id":"853263ca-9164-4425-83ed-bd96c0a9b45a","system_id":"levelo_inurba_marseille","lat":43.32725,"lon":5.39254,"is_reserved":false,"is_disabled":false,"rental_uris":{"android":"levelo://app?vid=853263ca-9164-4425-83ed-bd96c0a9b45a","ios":"levelo://app?vid=853263ca-9164-4425-83ed-bd96c0a9b45a"},"vehicle_type_id":"4","last_reported":1768054208,"current_range_meters":4400,"station_id":"","pricing_plan_id":"cebpf4jnsgd1na2vs0mg"},{"bike_id":"eb6bac7c-ea47-4981-b38d-8116727e3c2f","system_id":"levelo_inurba_marseille","lat":43.27841,"lon":5.40701,"is_reserved":false,"is_disabled":false,"rental_uris":{"android":"levelo://app?vid=eb6bac7c-ea47-4981-b38d-8116727e3c2f","ios":"levelo://app?vid=eb6bac7c-ea47-4981-b38d-8116727e3c2f"},"vehicle_type_id":"4","last_reported":1768054208,"current_range_meters":4400,"station_id":"ce4bhnh2rcd13ifvqgtg","pricing_plan_id":"cebpf4jnsgd1na2vs0mg"},{"bike_id":"a6587fc2-d977-4e48-9cf2-37447cd6f5ac","system_id":"levelo_inurba_marseille","lat":43.24167,"lon":5.36408,"is_reserved":false,"is_disabled":false,"rental_uris":{"android":"levelo://app?vid=a6587fc2-d977-4e48-9cf2-37447cd6f5ac","ios":"levelo://app?vid=a6587fc2-d977-4e48-9cf2-37447cd6f5ac"},"vehicle_type_id":"4","last_reported":1768054208,"current_range_meters":4400,"station_id":"cpo36qri1sfpv3e86is0","pricing_plan_id":"cebpf4jnsgd1na2vs0mg"},{"bike_id":"2dae2e8b-38ca-4c12-8cb7-1afd89b639c3","system_id":"levelo_inurba_marseille","lat":43.28438,"lon":5.37539,"is_reserved":false,"is_disabled":false,"rental_uris":{"android":"levelo://app?vid=2dae2e8b-38ca-4c12-8cb7-1afd89b639c3","ios":"levelo://app?vid=2dae2e8b-38ca-4c12-8cb7-1afd89b639c3"},"vehicle_type_id":"4","last_reported":1768054208,"current_range_meters":4400,"station_id":"ce4bh412rcd13ifvqds0","pricing_plan_id":"cebpf4jnsgd1na2vs0mg"},{"bike_id":"f136f3c2-e008-4609-bd60-756b976f7f22","system_id":"levelo_inurba_marseille","lat":43.271881,"lon":5.392045,"is_reserved":false,"is_disabled":false,"rental_uris":{"android":"levelo://app?vid=f136f3c2-e008-4609-bd60-756b976f7f22","ios":"levelo://app?vid=f136f3c2-e008-4609-bd60-756b976f7f22"},"vehicle_type_id":"4","last_reported":1768054208,"current_range_meters":4400,"station_id":"ce4bhhp2rcd13ifvqfm0","pricing_plan_id":"cebpf4jnsgd1na2vs0mg"},{"bike_id":"75794bf1-7e41-4253-ae5a-3fa5df9953d2","system_id":"levelo_inurba_marseille","lat":43.29576,"lon":5.37517,"is_reserved":false,"is_disabled":false,"rental_uris":{"android":"levelo://app?vid=75794bf1-7e41-4253-ae5a-3fa5df9953d2","ios":"levelo://app?vid=75794bf1-7e41-4253-ae5a-3fa5df9953d2"},"vehicle_type_id":"4","last_reported":1768054208,"current_range_meters":4400,"station_id":"ce4bgh92rcd13ifvqb50","pricing_plan_id":"cebpf4jnsgd1na2vs0mg"},{"bike_id":"23d25c2f-1713-44f4-812e-c08229251eed","system_id":"levelo_inurba_marseille","lat":43.24397,"lon":5.37061,"is_reserved":false,"is_disabled":false,"rental_uris":{"android":"levelo://app?vid=23d25c2f-1713-44f4-812e-c08229251eed","ios":"levelo://app?vid=23d25c2f-1713-44f4-812e-c08229251eed"},"vehicle_type_id":"4","last_reported":1768054208,"current_range_meters":4800,"station_id":"ce4bhhh2rcd13ifvqfk0","pricing_plan_id":"cebpf4jnsgd1na2vs0mg"},{"bike_id":"00499a26-772c-4dfe-9584-49b135c9c966","system_id":"levelo_inurba_marseille","lat":43.29843,"lon":5.36276,"is_reserved":false,"is_disabled":false,"rental_uris":{"android":"levelo://app?vid=00499a26-772c-4dfe-9584-49b135c9c966","ios":"levelo://app?vid=00499a26-772c-4dfe-9584-49b135c9c966"},"vehicle_type_id":"4","last_reported":1768054208,"current_range_meters":4800,"station_id":"ce4bgpp2rcd13ifvqc3g","pricing_plan_id":"cebpf4jnsgd1na2vs0mg"},{"bike_id":"68f7fe25-093d-404a-846f-38d74974bf0d","system_id":"levelo_inurba_marseille","lat":43.29258,"lon":5.38442,"is_reserved":false,"is_disabled":false,"rental_uris":{"android":"levelo://app?vid=68f7fe25-093d-404a-846f-38d74974bf0d","ios":"levelo://app?vid=68f7fe25-093d-404a-846f-38d74974bf0d"},"vehicle_type_id":"4","last_reported":1768054208,"current_range_meters":4800,"station_id":"ce4bh692rcd13ifvqea0","pricing_plan_id":"cebpf4jnsgd1na2vs0mg"},{"bike_id":"0d766240-8416-4864-ac60-8bf893bba867","system_id":"levelo_inurba_marseille","lat":43.28648,"lon":5.37178,"is_reserved":false,"is_disabled":false,"rental_uris":{"android":"levelo://app?vid=0d766240-8416-4864-ac60-8bf893bba867","ios":"levelo://app?vid=0d766240-8416-4864-ac60-8bf893bba867"},"vehicle_type_id":"4","last_reported":1768054208,"current_range_meters":4800,"station_id":"","pricing_plan_id":"cebpf4jnsgd1na2vs0mg"},{"bike_id":"4768e522-465c-471b-83eb-752e8dc1ba4a","system_id":"levelo_inurba_marseille","lat":43.30213,"lon":5.38065,"is_reserved":false,"is_disabled":false,"rental_uris":{"android":"levelo://app?vid=4768e522-465c-471b-83eb-752e8dc1ba4a","ios":"levelo://app?vid=4768e522-465c-471b-83eb-752e8dc1ba4a"},"vehicle_type_id":"4","last_reported":1768054208,"current_range_meters":4800,"station_id":"ce4bgjp2rcd13ifvqbh0","pricing_plan_id":"cebpf4jnsgd1na2vs0mg"},{"bike_id":"f1c45a35-92f2-4bd0-bf90-dce9ddee18cb","system_id":"levelo_inurba_marseille","lat":43.25581,"lon":5.38252,"is_reserved":false,"is_disabled":false,"rental_uris":{"android":"levelo://app?vid=f1c45a35-92f2-4bd0-bf90-dce9ddee18cb","ios":"levelo://app?vid=f1c45a35-92f2-4bd0-bf90-dce9ddee18cb"},"vehicle_type_id":"4","last_reported":1768054208,"current_range_meters":4800,"station_id":"ce4bhih2rcd13ifvqfs0","pricing_plan_id":"cebpf4jnsgd1na2vs0mg"},{"bike_id":"3dd98037-dc6b-4f9c-bcd9-326ff5215108","system_id":"levelo_inurba_marseille","lat":43.30434,"lon":5.38875,"is_reserved":false,"is_disabled":false,"rental_uris":{"android":"levelo://app?vid=3dd98037-dc6b-4f9c-bcd9-326ff5215108","ios":"levelo://app?vid=3dd98037-dc6b-4f9c-bcd9-326ff5215108"},"vehicle_type_id":"4","last_reported":1768054208,"current_range_meters":5600,"station_id":"ce4bgk12rcd13ifvqbi0","pricing_plan_id":"cebpf4jnsgd1na2vs0mg"},{"bike_id":"fa3e977d-1e63-41e7-8315-0d9223984351","system_id":"levelo_inurba_marseille","lat":43.30084,"lon":5.38206,"is_reserved":false,"is_disabled":false,"rental_uris":{"android":"levelo://app?vid=fa3e977d-1e63-41e7-8315-0d9223984351","ios":"levelo://app?vid=fa3e977d-1e63-41e7-8315-0d9223984351"},"vehicle_type_id":"4","last_reported":1768054208,"current_range_meters":5600,"station_id":"","pricing_plan_id":"cebpf4jnsgd1na2vs0mg"},{"bike_id":"a1ded81e-b981-4bce-8796-e9b19c2649a8","system_id":"levelo_inurba_marseille","lat":43.25505,"lon":5.37658,"is_reserved":false,"is_disabled":false,"rental_uris":{"android":"levelo://app?vid=a1ded81e-b981-4bce-8796-e9b19c2649a8","ios":"levelo://app?vid=a1ded81e-b981-4bce-8796-e9b19c2649a8"},"vehicle_type_id":"4","last_reported":1768054208,"current_range_meters":5600,"station_id":"ce4bhh12rcd13ifvqff0","pricing_plan_id":"cebpf4jnsgd1na2vs0mg"},{"bike_id":"8f6c4c1e-e47c-4a1f-a7a0-d3f75a03fcd5","system_id":"levelo_inurba_marseille","lat":43.25034,"lon":5.40315,"is_reserved":false,"is_disabled":false,"rental_uris":{"android":"levelo://app?vid=8f6c4c1e-e47c-4a1f-a7a0-d3f75a03fcd5","ios":"levelo://app?vid=8f6c4c1e-e47c-4a1f-a7a0-d3f75a03fcd5"},"vehicle_type_id":"4","last_reported":1768054208,"current_range_meters":5600,"station_id":"","pricing_plan_id":"cebpf4jnsgd1na2vs0mg"},{"bike_id":"0b223384-b53d-4da7-a97a-2f3d08398687","system_id":"levelo_inurba_marseille","lat":43.30592,"lon":5.39361,"is_reserved":false,"is_disabled":false,"rental_uris":{"android":"levelo://app?vid=0b223384-b53d-4da7-a97a-2f3d08398687","ios":"levelo://app?vid=0b223384-b53d-4da7-a97a-2f3d08398687"},"vehicle_type_id":"4","last_reported":1768054208,"current_range_meters":5600,"station_id":"ce4bh0p2rcd13ifvqd80","pricing_plan_id":"cebpf4jnsgd1na2vs0mg"},{"bike_id":"4750dde3-1068-4d1c-91ff-e24a2c661d15","system_id":"levelo_inurba_marseille","lat":43.30128,"lon":5.43121,"is_reserved":false,"is_disabled":false,"rental_uris":{"android":"levelo://app?vid=4750dde3-1068-4d1c-91ff-e24a2c661d15","ios":"levelo://app?vid=4750dde3-1068-4d1c-91ff-e24a2c661d15"},"vehicle_type_id":"4","last_reported":1768054208,"current_range_meters":5600,"station_id":"st_d3js3co5814s73ftftug","pricing_plan_id":"cebpf4jnsgd1na2vs0mg"},{"bike_id":"50c3ef0e-1a4a-429a-8acc-0df9b73d0d2b","system_id":"levelo_inurba_marseille","lat":43.23779,"lon":5.3661,"is_reserved":false,"is_disabled":false,"rental_uris":{"android":"levelo://app?vid=50c3ef0e-1a4a-429a-8acc-0df9b73d0d2b","ios":"levelo://app?vid=50c3ef0e-1a4a-429a-8acc-0df9b73d0d2b"},"vehicle_type_id":"4","last_reported":1768054208,"current_range_meters":5600,"station_id":"st_d3nk18o9ro0c73en2l3g","pricing_plan_id":"cebpf4jnsgd1na2vs0mg"},{"bike_id":"97376048-d29d-495e-85a6-cf5c60a2c6a6","system_id":"levelo_inurba_marseille","lat":43.30787,"lon":5.37648,"is_reserved":false,"is_disabled":false,"rental_uris":{"android":"levelo://app?vid=97376048-d29d-495e-85a6-cf5c60a2c6a6","ios":"levelo://app?vid=97376048-d29d-495e-85a6-cf5c60a2c6a6"},"vehicle_type_id":"4","last_reported":1768054208,"current_range_meters":5600,"station_id":"ce4bgv92rcd13ifvqcq0","pricing_plan_id":"cebpf4jnsgd1na2vs0mg"},{"bike_id":"76e4e42b-ff1f-4fe8-a54e-d42a16767785","system_id":"levelo_inurba_marseille","lat":43.26027,"lon":5.37555,"is_reserved":false,"is_disabled":false,"rental_uris":{"android":"levelo://app?vid=76e4e42b-ff1f-4fe8-a54e-d42a16767785","ios":"levelo://app?vid=76e4e42b-ff1f-4fe8-a54e-d42a16767785"},"vehicle_type_id":"4","last_reported":1768054208,"current_range_meters":5600,"station_id":"ce4bhgh2rcd13ifvqfa0","pricing_plan_id":"cebpf4jnsgd1na2vs0mg"},{"bike_id":"f17c44f2-37c9-4123-b5de-381ebcc44fe6","system_id":"levelo_inurba_marseille","lat":43.29851,"lon":5.36292,"is_reserved":false,"is_disabled":false,"rental_uris":{"android":"levelo://app?vid=f17c44f2-37c9-4123-b5de-381ebcc44fe6","ios":"levelo://app?vid=f17c44f2-37c9-4123-b5de-381ebcc44fe6"},"vehicle_type_id":"4","last_reported":1768054208,"current_range_meters":5600,"station_id":"ce4bgpp2rcd13ifvqc3g","pricing_plan_id":"cebpf4jnsgd1na2vs0mg"},{"bike_id":"13924d30-8fba-4bb2-bee9-4c5ab2f8be10","system_id":"levelo_inurba_marseille","lat":43.27057,"lon":5.40263,"is_reserved":false,"is_disabled":false,"rental_uris":{"android":"levelo://app?vid=13924d30-8fba-4bb2-bee9-4c5ab2f8be10","ios":"levelo://app?vid=13924d30-8fba-4bb2-bee9-4c5ab2f8be10"},"vehicle_type_id":"4","last_reported":1768054208,"current_range_meters":5600,"station_id":"ce4bhk92rcd13ifvqgc0","pricing_plan_id":"cebpf4jnsgd1na2vs0mg"},{"bike_id":"1358b62e-f5a6-4063-91d9-ba2280431138","system_id":"levelo_inurba_marseille","lat":43.21202,"lon":5.35077,"is_reserved":false,"is_disabled":false,"rental_uris":{"android":"levelo://app?vid=1358b62e-f5a6-4063-91d9-ba2280431138","ios":"levelo://app?vid=1358b62e-f5a6-4063-91d9-ba2280431138"},"vehicle_type_id":"4","last_reported":1768054208,"current_range_meters":5600,"station_id":"st_cvj6sg6p6f1abm77japg","pricing_plan_id":"cebpf4jnsgd1na2vs0mg"},{"bike_id":"f582e2e5-a25e-4250-97d6-4e6a824e9461","system_id":"levelo_inurba_marseille","lat":43.30567,"lon":5.36696,"is_reserved":false,"is_disabled":false,"rental_uris":{"android":"levelo://app?vid=f582e2e5-a25e-4250-97d6-4e6a824e9461","ios":"levelo://app?vid=f582e2e5-a25e-4250-97d6-4e6a824e9461"},"vehicle_type_id":"4","last_reported":1768054208,"current_range_meters":5600,"station_id":"ce4bgrp2rcd13ifvqc9g","pricing_plan_id":"cebpf4jnsgd1na2vs0mg"},{"bike_id":"015c40ff-ccdb-43f0-8f4f-c4761b65940c","system_id":"levelo_inurba_marseille","lat":43.22896,"lon":5.35251,"is_reserved":false,"is_disabled":false,"rental_uris":{"android":"levelo://app?vid=015c40ff-ccdb-43f0-8f4f-c4761b65940c","ios":"levelo://app?vid=015c40ff-ccdb-43f0-8f4f-c4761b65940c"},"vehicle_type_id":"4","last_reported":1768054208,"current_range_meters":5600,"station_id":"cpo3532slgdg3j2ikp40","pricing_plan_id":"cebpf4jnsgd1na2vs0mg"},{"bike_id":"9be47716-b6c4-4f6e-b3d9-238d6399366b","system_id":"levelo_inurba_marseille","lat":43.31426,"lon":5.40417,"is_reserved":false,"is_disabled":false,"rental_uris":{"android":"levelo://app?vid=9be47716-b6c4-4f6e-b3d9-238d6399366b","ios":"levelo://app?vid=9be47716-b6c4-4f6e-b3d9-238d6399366b"},"vehicle_type_id":"4","last_reported":1768054208,"current_range_meters":5600,"station_id":"","pricing_plan_id":"cebpf4jnsgd1na2vs0mg"},{"bike_id":"94ac6e2b-4cca-4fb3-8d7c-f0e0939a6615","system_id":"levelo_inurba_marseille","lat":43.28945,"lon":5.366287,"is_reserved":false,"is_disabled":false,"rental_uris":{"android":"levelo://app?vid=94ac6e2b-4cca-4fb3-8d7c-f0e0939a6615","ios":"levelo://app?vid=94ac6e2b-4cca-4fb3-8d7c-f0e0939a6615"},"vehicle_type_id":"4","last_reported":1768054208,"current_range_meters":5600,"station_id":"ce4bhap2rcd13ifvqek0","pricing_plan_id":"cebpf4jnsgd1na2vs0mg"},{"bike_id":"a9fccba9-b754-4ee7-accb-83ed7cce913f","system_id":"levelo_inurba_marseille","lat":43.23151,"lon":5.43714,"is_reserved":false,"is_disabled":false,"rental_uris":{"android":"levelo://app?vid=a9fccba9-b754-4ee7-accb-83ed7cce913f","ios":"levelo://app?vid=a9fccba9-b754-4ee7-accb-83ed7cce913f"},"vehicle_type_id":"4","last_reported":1768054208,"current_range_meters":6000,"station_id":"ce4bhmp2rcd13ifvqgog","pricing_plan_id":"cebpf4jnsgd1na2vs0mg"},{"bike_id":"2a282b80-7b90-4dc8-964e-70060a433be7","system_id":"levelo_inurba_marseille","lat":43.23195,"lon":5.35556,"is_reserved":false,"is_disabled":false,"rental_uris":{"android":"levelo://app?vid=2a282b80-7b90-4dc8-964e-70060a433be7","ios":"levelo://app?vid=2a282b80-7b90-4dc8-964e-70060a433be7"},"vehicle_type_id":"4","last_reported":1768054208,"current_range_meters":6000,"station_id":"ce4bhu92rcd13ifvqi70","pricing_plan_id":"cebpf4jnsgd1na2vs0mg"},{"bike_id":"18c99692-3ca0-436c-9ab1-5135473130c4","system_id":"levelo_inurba_marseille","lat":43.23788,"lon":5.36626,"is_reserved":false,"is_disabled":false,"rental_uris":{"android":"levelo://app?vid=18c99692-3ca0-436c-9ab1-5135473130c4","ios":"levelo://app?vid=18c99692-3ca0-436c-9ab1-5135473130c4"},"vehicle_type_id":"4","last_reported":1768054208,"current_range_meters":6000,"station_id":"st_d3nk18o9ro0c73en2l3g","pricing_plan_id":"cebpf4jnsgd1na2vs0mg"},{"bike_id":"a31a5e09-760d-4df0-a42c-5ad4c665a29b","system_id":"levelo_inurba_marseille","lat":43.25497,"lon":5.37651,"is_reserved":false,"is_disabled":false,"rental_uris":{"android":"levelo://app?vid=a31a5e09-760d-4df0-a42c-5ad4c665a29b","ios":"levelo://app?vid=a31a5e09-760d-4df0-a42c-5ad4c665a29b"},"vehicle_type_id":"4","last_reported":1768054208,"current_range_meters":6000,"station_id":"ce4bhh12rcd13ifvqff0","pricing_plan_id":"cebpf4jnsgd1na2vs0mg"},{"bike_id":"858563d2-84eb-4661-9c31-ddd3f1e35ab4","system_id":"levelo_inurba_marseille","lat":43.263702,"lon":5.410733,"is_reserved":false,"is_disabled":false,"rental_uris":{"android":"levelo://app?vid=858563d2-84eb-4661-9c31-ddd3f1e35ab4","ios":"levelo://app?vid=858563d2-84eb-4661-9c31-ddd3f1e35ab4"},"vehicle_type_id":"4","last_reported":1768054208,"current_range_meters":6000,"station_id":"st_d4e5ca6na9uc73bfl5fg","pricing_plan_id":"cebpf4jnsgd1na2vs0mg"},{"bike_id":"9c1fccba-d009-4eb8-8284-3fa879b8d2d1","system_id":"levelo_inurba_marseille","lat":43.28641,"lon":5.35122,"is_reserved":false,"is_disabled":false,"rental_uris":{"android":"levelo://app?vid=9c1fccba-d009-4eb8-8284-3fa879b8d2d1","ios":"levelo://app?vid=9c1fccba-d009-4eb8-8284-3fa879b8d2d1"},"vehicle_type_id":"4","last_reported":1768054208,"current_range_meters":6000,"station_id":"ce4bhch2rcd13ifvqeug","pricing_plan_id":"cebpf4jnsgd1na2vs0mg"},{"bike_id":"a9a97530-f4ae-45c7-bbe9-02cb7807c19a","system_id":"levelo_inurba_marseille","lat":43.312755,"lon":5.401676,"is_reserved":false,"is_disabled":false,"rental_uris":{"android":"levelo://app?vid=a9a97530-f4ae-45c7-bbe9-02cb7807c19a","ios":"levelo://app?vid=a9a97530-f4ae-45c7-bbe9-02cb7807c19a"},"vehicle_type_id":"4","last_reported":1768054208,"current_range_meters":6000,"station_id":"","pricing_plan_id":"cebpf4jnsgd1na2vs0mg"},{"bike_id":"1444e0da-7b27-4f48-bdfa-30ab980c9925","system_id":"levelo_inurba_marseille","lat":43.25909,"lon":5.40914,"is_reserved":false,"is_disabled":false,"rental_uris":{"android":"levelo://app?vid=1444e0da-7b27-4f48-bdfa-30ab980c9925","ios":"levelo://app?vid=1444e0da-7b27-4f48-bdfa-30ab980c9925"},"vehicle_type_id":"4","last_reported":1768054208,"current_range_meters":6000,"station_id":"ce4bhm92rcd13ifvqglg","pricing_plan_id":"cebpf4jnsgd1na2vs0mg"},{"bike_id":"4eb4cf6f-9746-4c4e-93e0-8faec23fe62a","system_id":"levelo_inurba_marseille","lat":43.28696,"lon":5.38675,"is_reserved":false,"is_disabled":false,"rental_uris":{"android":"levelo://app?vid=4eb4cf6f-9746-4c4e-93e0-8faec23fe62a","ios":"levelo://app?vid=4eb4cf6f-9746-4c4e-93e0-8faec23fe62a"},"vehicle_type_id":"4","last_reported":1768054208,"current_range_meters":6000,"station_id":"ce4bh492rcd13ifvqdug","pricing_plan_id":"cebpf4jnsgd1na2vs0mg"},{"bike_id":"d0b3031b-3e7d-4ed4-9a5b-5beafd20ab49","system_id":"levelo_inurba_marseille","lat":43.29757,"lon":5.42772,"is_reserved":false,"is_disabled":false,"rental_uris":{"android":"levelo://app?vid=d0b3031b-3e7d-4ed4-9a5b-5beafd20ab49","ios":"levelo://app?vid=d0b3031b-3e7d-4ed4-9a5b-5beafd20ab49"},"vehicle_type_id":"4","last_reported":1768054208,"current_range_meters":6000,"station_id":"st_d3md5207bmas73dh9klg","pricing_plan_id":"cebpf4jnsgd1na2vs0mg"},{"bike_id":"9ab8ec0b-173e-483a-a609-e947f01d9af1","system_id":"levelo_inurba_marseille","lat":43.29322,"lon":5.37156,"is_reserved":false,"is_disabled":false,"rental_uris":{"android":"levelo://app?vid=9ab8ec0b-173e-483a-a609-e947f01d9af1","ios":"levelo://app?vid=9ab8ec0b-173e-483a-a609-e947f01d9af1"},"vehicle_type_id":"4","last_reported":1768054208,"current_range_meters":6000,"station_id":"ce4bgh92rcd13ifvqb40","pricing_plan_id":"cebpf4jnsgd1na2vs0mg"},{"bike_id":"07a64454-6ccc-4399-bb05-db92d5dab39b","system_id":"levelo_inurba_marseille","lat":43.27064,"lon":5.38312,"is_reserved":false,"is_disabled":false,"rental_uris":{"android":"levelo://app?vid=07a64454-6ccc-4399-bb05-db92d5dab39b","ios":"levelo://app?vid=07a64454-6ccc-4399-bb05-db92d5dab39b"},"vehicle_type_id":"4","last_reported":1768054208,"current_range_meters":6000,"station_id":"st_d3n2fo6cfp8s73cte1j0","pricing_plan_id":"cebpf4jnsgd1na2vs0mg"},{"bike_id":"a8601da2-2020-4b9c-a126-4ba0f95f13ae","system_id":"levelo_inurba_marseille","lat":43.24077,"lon":5.37771,"is_reserved":false,"is_disabled":false,"rental_uris":{"android":"levelo://app?vid=a8601da2-2020-4b9c-a126-4ba0f95f13ae","ios":"levelo://app?vid=a8601da2-2020-4b9c-a126-4ba0f95f13ae"},"vehicle_type_id":"4","last_reported":1768054208,"current_range_meters":6000,"station_id":"","pricing_plan_id":"cebpf4jnsgd1na2vs0mg"},{"bike_id":"936c2bc9-f72d-49ef-812b-33b904299037","system_id":"levelo_inurba_marseille","lat":43.30891,"lon":5.37187,"is_reserved":false,"is_disabled":false,"rental_uris":{"android":"levelo://app?vid=936c2bc9-f72d-49ef-812b-33b904299037","ios":"levelo://app?vid=936c2bc9-f72d-49ef-812b-33b904299037"},"vehicle_type_id":"4","last_reported":1768054208,"current_range_meters":6000,"station_id":"ce4bguh2rcd13ifvqckg","pricing_plan_id":"cebpf4jnsgd1na2vs0mg"},{"bike_id":"aa4ebab2-45c0-4317-a49a-7f847f3292f3","system_id":"levelo_inurba_marseille","lat":43.30375,"lon":5.42489,"is_reserved":false,"is_disabled":false,"rental_uris":{"android":"levelo://app?vid=aa4ebab2-45c0-4317-a49a-7f847f3292f3","ios":"levelo://app?vid=aa4ebab2-45c0-4317-a49a-7f847f3292f3"},"vehicle_type_id":"4","last_reported":1768054208,"current_range_meters":6000,"station_id":"ce4bhoh2rcd13ifvqh6g","pricing_plan_id":"cebpf4jnsgd1na2vs0mg"},{"bike_id":"95da510d-8d81-451f-9e9c-645b35fe2028","system_id":"levelo_inurba_marseille","lat":43.260289,"lon":5.375499,"is_reserved":false,"is_disabled":false,"rental_uris":{"android":"levelo://app?vid=95da510d-8d81-451f-9e9c-645b35fe2028","ios":"levelo://app?vid=95da510d-8d81-451f-9e9c-645b35fe2028"},"vehicle_type_id":"4","last_reported":1768054208,"current_range_meters":6000,"station_id":"ce4bhgh2rcd13ifvqfa0","pricing_plan_id":"cebpf4jnsgd1na2vs0mg"},{"bike_id":"6a58f060-ef0d-46cd-8efd-e242d53cbcbe","system_id":"levelo_inurba_marseille","lat":43.30921,"lon":5.36866,"is_reserved":false,"is_disabled":false,"rental_uris":{"android":"levelo://app?vid=6a58f060-ef0d-46cd-8efd-e242d53cbcbe","ios":"levelo://app?vid=6a58f060-ef0d-46cd-8efd-e242d53cbcbe"},"vehicle_type_id":"4","last_reported":1768054208,"current_range_meters":6000,"station_id":"ce4bgn92rcd13ifvqbvg","pricing_plan_id":"cebpf4jnsgd1na2vs0mg"},{"bike_id":"ea58a22a-0b97-41e3-bf6e-9b43aa27f1c8","system_id":"levelo_inurba_marseille","lat":43.27998,"lon":5.41659,"is_reserved":false,"is_disabled":false,"rental_uris":{"android":"levelo://app?vid=ea58a22a-0b97-41e3-bf6e-9b43aa27f1c8","ios":"levelo://app?vid=ea58a22a-0b97-41e3-bf6e-9b43aa27f1c8"},"vehicle_type_id":"4","last_reported":1768054208,"current_range_meters":6000,"station_id":"ce4bho12rcd13ifvqh1g","pricing_plan_id":"cebpf4jnsgd1na2vs0mg"},{"bike_id":"7b614eb9-ac4b-4cd3-97d4-d21490e2142a","system_id":"levelo_inurba_marseille","lat":43.2976,"lon":5.4278,"is_reserved":false,"is_disabled":false,"rental_uris":{"android":"levelo://app?vid=7b614eb9-ac4b-4cd3-97d4-d21490e2142a","ios":"levelo://app?vid=7b614eb9-ac4b-4cd3-97d4-d21490e2142a"},"vehicle_type_id":"4","last_reported":1768054208,"current_range_meters":6400,"station_id":"st_d3md5207bmas73dh9klg","pricing_plan_id":"cebpf4jnsgd1na2vs0mg"},{"bike_id":"9a3bcfa8-754c-46dc-9e23-cede3ccc5a9b","system_id":"levelo_inurba_marseille","lat":43.255752,"lon":5.382326,"is_reserved":false,"is_disabled":false,"rental_uris":{"android":"levelo://app?vid=9a3bcfa8-754c-46dc-9e23-cede3ccc5a9b","ios":"levelo://app?vid=9a3bcfa8-754c-46dc-9e23-cede3ccc5a9b"},"vehicle_type_id":"4","last_reported":1768054208,"current_range_meters":6400,"station_id":"ce4bhih2rcd13ifvqfs0","pricing_plan_id":"cebpf4jnsgd1na2vs0mg"},{"bike_id":"655a9b99-52a8-4faf-885c-a661e20365be","system_id":"levelo_inurba_marseille","lat":43.260607,"lon":5.393993,"is_reserved":false,"is_disabled":false,"rental_uris":{"android":"levelo://app?vid=655a9b99-52a8-4faf-885c-a661e20365be","ios":"levelo://app?vid=655a9b99-52a8-4faf-885c-a661e20365be"},"vehicle_type_id":"4","last_reported":1768054208,"current_range_meters":6400,"station_id":"ce4bhh92rcd13ifvqfj0","pricing_plan_id":"cebpf4jnsgd1na2vs0mg"},{"bike_id":"968f5650-f7ac-46b6-a51a-97011a0e57d4","system_id":"levelo_inurba_marseille","lat":43.337568,"lon":5.374423,"is_reserved":false,"is_disabled":false,"rental_uris":{"android":"levelo://app?vid=968f5650-f7ac-46b6-a51a-97011a0e57d4","ios":"levelo://app?vid=968f5650-f7ac-46b6-a51a-97011a0e57d4"},"vehicle_type_id":"4","last_reported":1768054208,"current_range_meters":6400,"station_id":"","pricing_plan_id":"cebpf4jnsgd1na2vs0mg"},{"bike_id":"0d09c242-ab9e-4d92-b3b0-9d5d7549b678","system_id":"levelo_inurba_marseille","lat":43.30606,"lon":5.37231,"is_reserved":false,"is_disabled":false,"rental_uris":{"android":"levelo://app?vid=0d09c242-ab9e-4d92-b3b0-9d5d7549b678","ios":"levelo://app?vid=0d09c242-ab9e-4d92-b3b0-9d5d7549b678"},"vehicle_type_id":"4","last_reported":1768054208,"current_range_meters":6400,"station_id":"ce4bgqh2rcd13ifvqc4g","pricing_plan_id":"cebpf4jnsgd1na2vs0mg"},{"bike_id":"fb54c922-73a4-4918-a766-b56f627742d6","system_id":"levelo_inurba_marseille","lat":43.24396,"lon":5.37067,"is_reserved":false,"is_disabled":false,"rental_uris":{"android":"levelo://app?vid=fb54c922-73a4-4918-a766-b56f627742d6","ios":"levelo://app?vid=fb54c922-73a4-4918-a766-b56f627742d6"},"vehicle_type_id":"4","last_reported":1768054208,"current_range_meters":6400,"station_id":"ce4bhhh2rcd13ifvqfk0","pricing_plan_id":"cebpf4jnsgd1na2vs0mg"},{"bike_id":"f828e3cb-2957-499a-9e80-d443bf2593f9","system_id":"levelo_inurba_marseille","lat":43.287045,"lon":5.373959,"is_reserved":false,"is_disabled":false,"rental_uris":{"android":"levelo://app?vid=f828e3cb-2957-499a-9e80-d443bf2593f9","ios":"levelo://app?vid=f828e3cb-2957-499a-9e80-d443bf2593f9"},"vehicle_type_id":"4","last_reported":1768054208,"current_range_meters":6400,"station_id":"ce4bh3p2rcd13ifvqdq0","pricing_plan_id":"cebpf4jnsgd1na2vs0mg"},{"bike_id":"6164a93d-b07d-4b14-9241-b2f2e89781e6","system_id":"levelo_inurba_marseille","lat":43.33029,"lon":5.39034,"is_reserved":false,"is_disabled":false,"rental_uris":{"android":"levelo://app?vid=6164a93d-b07d-4b14-9241-b2f2e89781e6","ios":"levelo://app?vid=6164a93d-b07d-4b14-9241-b2f2e89781e6"},"vehicle_type_id":"4","last_reported":1768054208,"current_range_meters":6400,"station_id":"ce4bhr92rcd13ifvqhrg","pricing_plan_id":"cebpf4jnsgd1na2vs0mg"},{"bike_id":"37335263-0ba0-41e1-bf1f-92d8ddde73f2","system_id":"levelo_inurba_marseille","lat":43.25588,"lon":5.38236,"is_reserved":false,"is_disabled":false,"rental_uris":{"android":"levelo://app?vid=37335263-0ba0-41e1-bf1f-92d8ddde73f2","ios":"levelo://app?vid=37335263-0ba0-41e1-bf1f-92d8ddde73f2"},"vehicle_type_id":"4","last_reported":1768054208,"current_range_meters":6400,"station_id":"ce4bhih2rcd13ifvqfs0","pricing_plan_id":"cebpf4jnsgd1na2vs0mg"},{"bike_id":"6773efea-6de1-4eff-881d-9d3652930047","system_id":"levelo_inurba_marseille","lat":43.29577,"lon":5.37511,"is_reserved":false,"is_disabled":false,"rental_uris":{"android":"levelo://app?vid=6773efea-6de1-4eff-881d-9d3652930047","ios":"levelo://app?vid=6773efea-6de1-4eff-881d-9d3652930047"},"vehicle_type_id":"4","last_reported":1768054208,"current_range_meters":6400,"station_id":"ce4bgh92rcd13ifvqb50","pricing_plan_id":"cebpf4jnsgd1na2vs0mg"},{"bike_id":"50c5c58f-4370-4048-a69a-22ed5673ace3","system_id":"levelo_inurba_marseille","lat":43.29926,"lon":5.36484,"is_reserved":false,"is_disabled":false,"rental_uris":{"android":"levelo://app?vid=50c5c58f-4370-4048-a69a-22ed5673ace3","ios":"levelo://app?vid=50c5c58f-4370-4048-a69a-22ed5673ace3"},"vehicle_type_id":"4","last_reported":1768054208,"current_range_meters":6400,"station_id":"ce4bgm92rcd13ifvqbr0","pricing_plan_id":"cebpf4jnsgd1na2vs0mg"},{"bike_id":"9a726d8d-e359-4ce5-a66c-4050f8623453","system_id":"levelo_inurba_marseille","lat":43.29239,"lon":5.37599,"is_reserved":false,"is_disabled":false,"rental_uris":{"android":"levelo://app?vid=9a726d8d-e359-4ce5-a66c-4050f8623453","ios":"levelo://app?vid=9a726d8d-e359-4ce5-a66c-4050f8623453"},"vehicle_type_id":"4","last_reported":1768054208,"current_range_meters":6400,"station_id":"ce4bgi12rcd13ifvqb80","pricing_plan_id":"cebpf4jnsgd1na2vs0mg"},{"bike_id":"16fafe03-446b-4e5b-ba06-bcd62288909d","system_id":"levelo_inurba_marseille","lat":43.25521,"lon":5.3765,"is_reserved":false,"is_disabled":false,"rental_uris":{"android":"levelo://app?vid=16fafe03-446b-4e5b-ba06-bcd62288909d","ios":"levelo://app?vid=16fafe03-446b-4e5b-ba06-bcd62288909d"},"vehicle_type_id":"4","last_reported":1768054208,"current_range_meters":6400,"station_id":"ce4bhh12rcd13ifvqff0","pricing_plan_id":"cebpf4jnsgd1na2vs0mg"},{"bike_id":"78533221-0292-46cc-9ec2-a5294797e756","system_id":"levelo_inurba_marseille","lat":43.316918,"lon":5.382036,"is_reserved":false,"is_disabled":false,"rental_uris":{"android":"levelo://app?vid=78533221-0292-46cc-9ec2-a5294797e756","ios":"levelo://app?vid=78533221-0292-46cc-9ec2-a5294797e756"},"vehicle_type_id":"4","last_reported":1768054208,"current_range_meters":6400,"station_id":"","pricing_plan_id":"cebpf4jnsgd1na2vs0mg"},{"bike_id":"8bca3afd-6757-4e17-905d-276c8f7a07bb","system_id":"levelo_inurba_marseille","lat":43.30807,"lon":5.36929,"is_reserved":false,"is_disabled":false,"rental_uris":{"android":"levelo://app?vid=8bca3afd-6757-4e17-905d-276c8f7a07bb","ios":"levelo://app?vid=8bca3afd-6757-4e17-905d-276c8f7a07bb"},"vehicle_type_id":"4","last_reported":1768054208,"current_range_meters":6400,"station_id":"","pricing_plan_id":"cebpf4jnsgd1na2vs0mg"},{"bike_id":"4326e895-b850-4a4e-a616-6e13b11e071b","system_id":"levelo_inurba_marseille","lat":43.31215,"lon":5.36855,"is_reserved":false,"is_disabled":false,"rental_uris":{"android":"levelo://app?vid=4326e895-b850-4a4e-a616-6e13b11e071b","ios":"levelo://app?vid=4326e895-b850-4a4e-a616-6e13b11e071b"},"vehicle_type_id":"4","last_reported":1768054208,"current_range_meters":6400,"station_id":"ce4bgl92rcd13ifvqbq0","pricing_plan_id":"cebpf4jnsgd1na2vs0mg"},{"bike_id":"6673dcff-6360-45bd-9e61-393e973608d5","system_id":"levelo_inurba_marseille","lat":43.258188,"lon":5.394325,"is_reserved":false,"is_disabled":false,"rental_uris":{"android":"levelo://app?vid=6673dcff-6360-45bd-9e61-393e973608d5","ios":"levelo://app?vid=6673dcff-6360-45bd-9e61-393e973608d5"},"vehicle_type_id":"4","last_reported":1768054208,"current_range_meters":6400,"station_id":"ce4bhip2rcd13ifvqft0","pricing_plan_id":"cebpf4jnsgd1na2vs0mg"},{"bike_id":"4257d2d7-aaf5-46f4-84f1-269820c312e8","system_id":"levelo_inurba_marseille","lat":43.31367,"lon":5.38489,"is_reserved":false,"is_disabled":false,"rental_uris":{"android":"levelo://app?vid=4257d2d7-aaf5-46f4-84f1-269820c312e8","ios":"levelo://app?vid=4257d2d7-aaf5-46f4-84f1-269820c312e8"},"vehicle_type_id":"4","last_reported":1768054208,"current_range_meters":6400,"station_id":"ce4bgt92rcd13ifvqcf0","pricing_plan_id":"cebpf4jnsgd1na2vs0mg"},{"bike_id":"7e0f2e48-ce55-4fa0-942d-6f3ace72daf3","system_id":"levelo_inurba_marseille","lat":43.303321,"lon":5.40435,"is_reserved":false,"is_disabled":false,"rental_uris":{"android":"levelo://app?vid=7e0f2e48-ce55-4fa0-942d-6f3ace72daf3","ios":"levelo://app?vid=7e0f2e48-ce55-4fa0-942d-6f3ace72daf3"},"vehicle_type_id":"4","last_reported":1768054208,"current_range_meters":6400,"station_id":"ce4bh012rcd13ifvqd10","pricing_plan_id":"cebpf4jnsgd1na2vs0mg"},{"bike_id":"6d66916e-5f60-4895-8851-807d915bed50","system_id":"levelo_inurba_marseille","lat":43.301255,"lon":5.387675,"is_reserved":false,"is_disabled":false,"rental_uris":{"android":"levelo://app?vid=6d66916e-5f60-4895-8851-807d915bed50","ios":"levelo://app?vid=6d66916e-5f60-4895-8851-807d915bed50"},"vehicle_type_id":"4","last_reported":1768054208,"current_range_meters":6400,"station_id":"ce4bgkh2rcd13ifvqbk0","pricing_plan_id":"cebpf4jnsgd1na2vs0mg"},{"bike_id":"e94bf1df-85ac-4a34-aa29-c2a137468383","system_id":"levelo_inurba_marseille","lat":43.29509,"lon":5.43303,"is_reserved":false,"is_disabled":false,"rental_uris":{"android":"levelo://app?vid=e94bf1df-85ac-4a34-aa29-c2a137468383","ios":"levelo://app?vid=e94bf1df-85ac-4a34-aa29-c2a137468383"},"vehicle_type_id":"4","last_reported":1768054208,"current_range_meters":6400,"station_id":"st_d3j5ugp08ojc73fj9d10","pricing_plan_id":"cebpf4jnsgd1na2vs0mg"},{"bike_id":"e4d614ce-3ea5-4d49-8430-4ae68902a485","system_id":"levelo_inurba_marseille","lat":43.28717,"lon":5.37925,"is_reserved":false,"is_disabled":false,"rental_uris":{"android":"levelo://app?vid=e4d614ce-3ea5-4d49-8430-4ae68902a485","ios":"levelo://app?vid=e4d614ce-3ea5-4d49-8430-4ae68902a485"},"vehicle_type_id":"4","last_reported":1768054208,"current_range_meters":6800,"station_id":"ce4bh9p2rcd13ifvqec0","pricing_plan_id":"cebpf4jnsgd1na2vs0mg"},{"bike_id":"71b36ab2-ce5d-4ce0-89a0-260e828bf57f","system_id":"levelo_inurba_marseille","lat":43.27188,"lon":5.40991,"is_reserved":false,"is_disabled":false,"rental_uris":{"android":"levelo://app?vid=71b36ab2-ce5d-4ce0-89a0-260e828bf57f","ios":"levelo://app?vid=71b36ab2-ce5d-4ce0-89a0-260e828bf57f"},"vehicle_type_id":"4","last_reported":1768054208,"current_range_meters":6800,"station_id":"ce4bhl12rcd13ifvqgf0","pricing_plan_id":"cebpf4jnsgd1na2vs0mg"},{"bike_id":"95382051-2edc-4c1a-ac56-d197c3294bdd","system_id":"levelo_inurba_marseille","lat":43.27988,"lon":5.41654,"is_reserved":false,"is_disabled":false,"rental_uris":{"android":"levelo://app?vid=95382051-2edc-4c1a-ac56-d197c3294bdd","ios":"levelo://app?vid=95382051-2edc-4c1a-ac56-d197c3294bdd"},"vehicle_type_id":"4","last_reported":1768054208,"current_range_meters":6800,"station_id":"ce4bho12rcd13ifvqh1g","pricing_plan_id":"cebpf4jnsgd1na2vs0mg"},{"bike_id":"3928bd9f-9423-482a-9c34-2516e5f12e2b","system_id":"levelo_inurba_marseille","lat":43.24694,"lon":5.38117,"is_reserved":false,"is_disabled":false,"rental_uris":{"android":"levelo://app?vid=3928bd9f-9423-482a-9c34-2516e5f12e2b","ios":"levelo://app?vid=3928bd9f-9423-482a-9c34-2516e5f12e2b"},"vehicle_type_id":"4","last_reported":1768054208,"current_range_meters":6800,"station_id":"","pricing_plan_id":"cebpf4jnsgd1na2vs0mg"},{"bike_id":"0480e320-5ebf-41d0-bce8-348d19eafb95","system_id":"levelo_inurba_marseille","lat":43.30555,"lon":5.36528,"is_reserved":false,"is_disabled":false,"rental_uris":{"android":"levelo://app?vid=0480e320-5ebf-41d0-bce8-348d19eafb95","ios":"levelo://app?vid=0480e320-5ebf-41d0-bce8-348d19eafb95"},"vehicle_type_id":"4","last_reported":1768054208,"current_range_meters":6800,"station_id":"ce4bgs12rcd13ifvqcag","pricing_plan_id":"cebpf4jnsgd1na2vs0mg"},{"bike_id":"7f5072aa-696d-46ad-8b27-2f9a0d6ed942","system_id":"levelo_inurba_marseille","lat":43.241663,"lon":5.363947,"is_reserved":false,"is_disabled":false,"rental_uris":{"android":"levelo://app?vid=7f5072aa-696d-46ad-8b27-2f9a0d6ed942","ios":"levelo://app?vid=7f5072aa-696d-46ad-8b27-2f9a0d6ed942"},"vehicle_type_id":"4","last_reported":1768054208,"current_range_meters":6800,"station_id":"cpo36qri1sfpv3e86is0","pricing_plan_id":"cebpf4jnsgd1na2vs0mg"},{"bike_id":"bc49e5f9-cb3c-4c3a-969f-53e2b27dc0e8","system_id":"levelo_inurba_marseille","lat":43.241662,"lon":5.364052,"is_reserved":false,"is_disabled":false,"rental_uris":{"android":"levelo://app?vid=bc49e5f9-cb3c-4c3a-969f-53e2b27dc0e8","ios":"levelo://app?vid=bc49e5f9-cb3c-4c3a-969f-53e2b27dc0e8"},"vehicle_type_id":"4","last_reported":1768054208,"current_range_meters":6800,"station_id":"cpo36qri1sfpv3e86is0","pricing_plan_id":"cebpf4jnsgd1na2vs0mg"},{"bike_id":"3a944ff1-8f80-4b3a-87d1-40b3f03c9b0c","system_id":"levelo_inurba_marseille","lat":43.31084,"lon":5.38628,"is_reserved":false,"is_disabled":false,"rental_uris":{"android":"levelo://app?vid=3a944ff1-8f80-4b3a-87d1-40b3f03c9b0c","ios":"levelo://app?vid=3a944ff1-8f80-4b3a-87d1-40b3f03c9b0c"},"vehicle_type_id":"4","last_reported":1768054208,"current_range_meters":6800,"station_id":"","pricing_plan_id":"cebpf4jnsgd1na2vs0mg"},{"bike_id":"955472a9-f133-46c4-b5ee-028bf709d91e","system_id":"levelo_inurba_marseille","lat":43.28483,"lon":5.483947,"is_reserved":false,"is_disabled":false,"rental_uris":{"android":"levelo://app?vid=955472a9-f133-46c4-b5ee-028bf709d91e","ios":"levelo://app?vid=955472a9-f133-46c4-b5ee-028bf709d91e"},"vehicle_type_id":"4","last_reported":1768054208,"current_range_meters":6800,"station_id":"st_d3svhcjqgbts73a3dn0g","pricing_plan_id":"cebpf4jnsgd1na2vs0mg"},{"bike_id":"07e92a42-5aca-4650-8312-443d35b7174b","system_id":"levelo_inurba_marseille","lat":43.28639,"lon":5.35096,"is_reserved":false,"is_disabled":false,"rental_uris":{"android":"levelo://app?vid=07e92a42-5aca-4650-8312-443d35b7174b","ios":"levelo://app?vid=07e92a42-5aca-4650-8312-443d35b7174b"},"vehicle_type_id":"4","last_reported":1768054208,"current_range_meters":6800,"station_id":"ce4bhch2rcd13ifvqeug","pricing_plan_id":"cebpf4jnsgd1na2vs0mg"},{"bike_id":"72604fc3-454f-4c32-b032-98136bb68a67","system_id":"levelo_inurba_marseille","lat":43.27373,"lon":5.3626,"is_reserved":false,"is_disabled":false,"rental_uris":{"android":"levelo://app?vid=72604fc3-454f-4c32-b032-98136bb68a67","ios":"levelo://app?vid=72604fc3-454f-4c32-b032-98136bb68a67"},"vehicle_type_id":"4","last_reported":1768054208,"current_range_meters":6800,"station_id":"ce4bhbh2rcd13ifvqeo0","pricing_plan_id":"cebpf4jnsgd1na2vs0mg"},{"bike_id":"401dd196-cdd6-4fa5-8978-b432c5712ca5","system_id":"levelo_inurba_marseille","lat":43.28689,"lon":5.36339,"is_reserved":false,"is_disabled":false,"rental_uris":{"android":"levelo://app?vid=401dd196-cdd6-4fa5-8978-b432c5712ca5","ios":"levelo://app?vid=401dd196-cdd6-4fa5-8978-b432c5712ca5"},"vehicle_type_id":"4","last_reported":1768054208,"current_range_meters":6800,"station_id":"ce4bhah2rcd13ifvqej0","pricing_plan_id":"cebpf4jnsgd1na2vs0mg"},{"bike_id":"12b753d3-16f1-480b-9935-33bf56257aa4","system_id":"levelo_inurba_marseille","lat":43.2734,"lon":5.3909,"is_reserved":false,"is_disabled":false,"rental_uris":{"android":"levelo://app?vid=12b753d3-16f1-480b-9935-33bf56257aa4","ios":"levelo://app?vid=12b753d3-16f1-480b-9935-33bf56257aa4"},"vehicle_type_id":"4","last_reported":1768054208,"current_range_meters":6800,"station_id":"ce4bhgp2rcd13ifvqfe0","pricing_plan_id":"cebpf4jnsgd1na2vs0mg"},{"bike_id":"068e5d0f-1e1d-47d3-8ea0-01a72ce64988","system_id":"levelo_inurba_marseille","lat":43.31276,"lon":5.40161,"is_reserved":false,"is_disabled":false,"rental_uris":{"android":"levelo://app?vid=068e5d0f-1e1d-47d3-8ea0-01a72ce64988","ios":"levelo://app?vid=068e5d0f-1e1d-47d3-8ea0-01a72ce64988"},"vehicle_type_id":"4","last_reported":1768054208,"current_range_meters":7200,"station_id":"ce4bh092rcd13ifvqd30","pricing_plan_id":"cebpf4jnsgd1na2vs0mg"},{"bike_id":"499b63c7-d47c-4bda-89d6-56b8c0a94a03","system_id":"levelo_inurba_marseille","lat":43.31676,"lon":5.43069,"is_reserved":false,"is_disabled":false,"rental_uris":{"android":"levelo://app?vid=499b63c7-d47c-4bda-89d6-56b8c0a94a03","ios":"levelo://app?vid=499b63c7-d47c-4bda-89d6-56b8c0a94a03"},"vehicle_type_id":"4","last_reported":1768054208,"current_range_meters":7200,"station_id":"","pricing_plan_id":"cebpf4jnsgd1na2vs0mg"},{"bike_id":"345a59f3-20d9-43bc-86ca-686efec2e785","system_id":"levelo_inurba_marseille","lat":43.30538,"lon":5.36709,"is_reserved":false,"is_disabled":false,"rental_uris":{"android":"levelo://app?vid=345a59f3-20d9-43bc-86ca-686efec2e785","ios":"levelo://app?vid=345a59f3-20d9-43bc-86ca-686efec2e785"},"vehicle_type_id":"4","last_reported":1768054208,"current_range_meters":7200,"station_id":"ce4bgrp2rcd13ifvqc9g","pricing_plan_id":"cebpf4jnsgd1na2vs0mg"},{"bike_id":"7d98cf31-a440-4cb1-9c1a-925b7cf02ff8","system_id":"levelo_inurba_marseille","lat":43.26578,"lon":5.40292,"is_reserved":false,"is_disabled":false,"rental_uris":{"android":"levelo://app?vid=7d98cf31-a440-4cb1-9c1a-925b7cf02ff8","ios":"levelo://app?vid=7d98cf31-a440-4cb1-9c1a-925b7cf02ff8"},"vehicle_type_id":"4","last_reported":1768054208,"current_range_meters":7200,"station_id":"ce4bhmp2rcd13ifvqgng","pricing_plan_id":"cebpf4jnsgd1na2vs0mg"},{"bike_id":"4f09d38c-1b72-4f3e-83e3-192e7ebde049","system_id":"levelo_inurba_marseille","lat":43.21749,"lon":5.34604,"is_reserved":false,"is_disabled":false,"rental_uris":{"android":"levelo://app?vid=4f09d38c-1b72-4f3e-83e3-192e7ebde049","ios":"levelo://app?vid=4f09d38c-1b72-4f3e-83e3-192e7ebde049"},"vehicle_type_id":"4","last_reported":1768054208,"current_range_meters":7200,"station_id":"st_cvj6r9ubvosntc0bgbag","pricing_plan_id":"cebpf4jnsgd1na2vs0mg"},{"bike_id":"8b8d06b0-9506-4578-ada0-3e289712e635","system_id":"levelo_inurba_marseille","lat":43.28619,"lon":5.35104,"is_reserved":false,"is_disabled":false,"rental_uris":{"android":"levelo://app?vid=8b8d06b0-9506-4578-ada0-3e289712e635","ios":"levelo://app?vid=8b8d06b0-9506-4578-ada0-3e289712e635"},"vehicle_type_id":"4","last_reported":1768054208,"current_range_meters":7200,"station_id":"ce4bhch2rcd13ifvqeug","pricing_plan_id":"cebpf4jnsgd1na2vs0mg"},{"bike_id":"d956b176-216e-4894-a3c7-b30b106cb82f","system_id":"levelo_inurba_marseille","lat":43.22558,"lon":5.4163,"is_reserved":false,"is_disabled":false,"rental_uris":{"android":"levelo://app?vid=d956b176-216e-4894-a3c7-b30b106cb82f","ios":"levelo://app?vid=d956b176-216e-4894-a3c7-b30b106cb82f"},"vehicle_type_id":"4","last_reported":1768054208,"current_range_meters":7200,"station_id":"st_d2o4gvlbi1j2169b742g","pricing_plan_id":"cebpf4jnsgd1na2vs0mg"},{"bike_id":"ec28a168-dfc7-4c87-acb4-8f7b58e7fa89","system_id":"levelo_inurba_marseille","lat":43.243982,"lon":5.370807,"is_reserved":false,"is_disabled":false,"rental_uris":{"android":"levelo://app?vid=ec28a168-dfc7-4c87-acb4-8f7b58e7fa89","ios":"levelo://app?vid=ec28a168-dfc7-4c87-acb4-8f7b58e7fa89"},"vehicle_type_id":"4","last_reported":1768054208,"current_range_meters":7200,"station_id":"ce4bhhh2rcd13ifvqfk0","pricing_plan_id":"cebpf4jnsgd1na2vs0mg"},{"bike_id":"9ef5c7cf-da71-4612-9646-f64e3744543c","system_id":"levelo_inurba_marseille","lat":43.22934,"lon":5.35377,"is_reserved":false,"is_disabled":false,"rental_uris":{"android":"levelo://app?vid=9ef5c7cf-da71-4612-9646-f64e3744543c","ios":"levelo://app?vid=9ef5c7cf-da71-4612-9646-f64e3744543c"},"vehicle_type_id":"4","last_reported":1768054208,"current_range_meters":7200,"station_id":"cpo3532slgdg3j2ikp40","pricing_plan_id":"cebpf4jnsgd1na2vs0mg"},{"bike_id":"df548035-cee1-4f4d-b0ba-fa4f5834db8f","system_id":"levelo_inurba_marseille","lat":43.24812,"lon":5.37449,"is_reserved":false,"is_disabled":false,"rental_uris":{"android":"levelo://app?vid=df548035-cee1-4f4d-b0ba-fa4f5834db8f","ios":"levelo://app?vid=df548035-cee1-4f4d-b0ba-fa4f5834db8f"},"vehicle_type_id":"4","last_reported":1768054208,"current_range_meters":7200,"station_id":"ce4bhgh2rcd13ifvqfb0","pricing_plan_id":"cebpf4jnsgd1na2vs0mg"},{"bike_id":"15705fcb-fc6a-4f08-9895-a6a73b2606cb","system_id":"levelo_inurba_marseille","lat":43.26074,"lon":5.39428,"is_reserved":false,"is_disabled":false,"rental_uris":{"android":"levelo://app?vid=15705fcb-fc6a-4f08-9895-a6a73b2606cb","ios":"levelo://app?vid=15705fcb-fc6a-4f08-9895-a6a73b2606cb"},"vehicle_type_id":"4","last_reported":1768054208,"current_range_meters":7200,"station_id":"ce4bhh92rcd13ifvqfj0","pricing_plan_id":"cebpf4jnsgd1na2vs0mg"},{"bike_id":"c781d140-75c0-41f9-b6da-04dec921f780","system_id":"levelo_inurba_marseille","lat":43.211893,"lon":5.350773,"is_reserved":false,"is_disabled":false,"rental_uris":{"android":"levelo://app?vid=c781d140-75c0-41f9-b6da-04dec921f780","ios":"levelo://app?vid=c781d140-75c0-41f9-b6da-04dec921f780"},"vehicle_type_id":"4","last_reported":1768054208,"current_range_meters":7200,"station_id":"st_cvj6sg6p6f1abm77japg","pricing_plan_id":"cebpf4jnsgd1na2vs0mg"},{"bike_id":"0d4e5ddc-b292-4c0e-8986-9cde00922dd9","system_id":"levelo_inurba_marseille","lat":43.30167,"lon":5.43096,"is_reserved":false,"is_disabled":false,"rental_uris":{"android":"levelo://app?vid=0d4e5ddc-b292-4c0e-8986-9cde00922dd9","ios":"levelo://app?vid=0d4e5ddc-b292-4c0e-8986-9cde00922dd9"},"vehicle_type_id":"4","last_reported":1768054208,"current_range_meters":7200,"station_id":"","pricing_plan_id":"cebpf4jnsgd1na2vs0mg"},{"bike_id":"79622771-e461-4037-8532-62b00169ac92","system_id":"levelo_inurba_marseille","lat":43.27378,"lon":5.36251,"is_reserved":false,"is_disabled":false,"rental_uris":{"android":"levelo://app?vid=79622771-e461-4037-8532-62b00169ac92","ios":"levelo://app?vid=79622771-e461-4037-8532-62b00169ac92"},"vehicle_type_id":"4","last_reported":1768054208,"current_range_meters":7200,"station_id":"ce4bhbh2rcd13ifvqeo0","pricing_plan_id":"cebpf4jnsgd1na2vs0mg"},{"bike_id":"81447faa-78d0-4898-9850-8a36431f7eba","system_id":"levelo_inurba_marseille","lat":43.237909,"lon":5.366349,"is_reserved":false,"is_disabled":false,"rental_uris":{"android":"levelo://app?vid=81447faa-78d0-4898-9850-8a36431f7eba","ios":"levelo://app?vid=81447faa-78d0-4898-9850-8a36431f7eba"},"vehicle_type_id":"4","last_reported":1768054208,"current_range_meters":7200,"station_id":"st_d3nk18o9ro0c73en2l3g","pricing_plan_id":"cebpf4jnsgd1na2vs0mg"},{"bike_id":"14942baa-e0d9-4fbd-9c7d-8a2deb7cf40b","system_id":"levelo_inurba_marseille","lat":43.305365,"lon":5.365324,"is_reserved":false,"is_disabled":false,"rental_uris":{"android":"levelo://app?vid=14942baa-e0d9-4fbd-9c7d-8a2deb7cf40b","ios":"levelo://app?vid=14942baa-e0d9-4fbd-9c7d-8a2deb7cf40b"},"vehicle_type_id":"4","last_reported":1768054208,"current_range_meters":7200,"station_id":"ce4bgs12rcd13ifvqcag","pricing_plan_id":"cebpf4jnsgd1na2vs0mg"},{"bike_id":"84d3b33e-1c8a-4f6a-971b-2bd421bf8980","system_id":"levelo_inurba_marseille","lat":43.28156,"lon":5.426419,"is_reserved":false,"is_disabled":false,"rental_uris":{"android":"levelo://app?vid=84d3b33e-1c8a-4f6a-971b-2bd421bf8980","ios":"levelo://app?vid=84d3b33e-1c8a-4f6a-971b-2bd421bf8980"},"vehicle_type_id":"4","last_reported":1768054208,"current_range_meters":8000,"station_id":"ce4bhnh2rcd13ifvqgug","pricing_plan_id":"cebpf4jnsgd1na2vs0mg"},{"bike_id":"55fcea33-e7aa-4a56-8ac1-e90451a3f1d3","system_id":"levelo_inurba_marseille","lat":43.29166,"lon":5.35812,"is_reserved":false,"is_disabled":false,"rental_uris":{"android":"levelo://app?vid=55fcea33-e7aa-4a56-8ac1-e90451a3f1d3","ios":"levelo://app?vid=55fcea33-e7aa-4a56-8ac1-e90451a3f1d3"},"vehicle_type_id":"4","last_reported":1768054208,"current_range_meters":8000,"station_id":"ce4bhb12rcd13ifvqel0","pricing_plan_id":"cebpf4jnsgd1na2vs0mg"},{"bike_id":"556e4c84-9680-46ee-96c7-8644be15b777","system_id":"levelo_inurba_marseille","lat":43.30143,"lon":5.38098,"is_reserved":false,"is_disabled":false,"rental_uris":{"android":"levelo://app?vid=556e4c84-9680-46ee-96c7-8644be15b777","ios":"levelo://app?vid=556e4c84-9680-46ee-96c7-8644be15b777"},"vehicle_type_id":"4","last_reported":1768054208,"current_range_meters":8000,"station_id":"ce4bgjp2rcd13ifvqbh0","pricing_plan_id":"cebpf4jnsgd1na2vs0mg"},{"bike_id":"b401f8b9-968a-4168-ac06-767ec724abfd","system_id":"levelo_inurba_marseille","lat":43.29196,"lon":5.35807,"is_reserved":false,"is_disabled":false,"rental_uris":{"android":"levelo://app?vid=b401f8b9-968a-4168-ac06-767ec724abfd","ios":"levelo://app?vid=b401f8b9-968a-4168-ac06-767ec724abfd"},"vehicle_type_id":"4","last_reported":1768054208,"current_range_meters":8000,"station_id":"","pricing_plan_id":"cebpf4jnsgd1na2vs0mg"},{"bike_id":"5fca6562-fd04-42db-82e3-3b31d41d804c","system_id":"levelo_inurba_marseille","lat":43.24465,"lon":5.42543,"is_reserved":false,"is_disabled":false,"rental_uris":{"android":"levelo://app?vid=5fca6562-fd04-42db-82e3-3b31d41d804c","ios":"levelo://app?vid=5fca6562-fd04-42db-82e3-3b31d41d804c"},"vehicle_type_id":"4","last_reported":1768054208,"current_range_meters":8000,"station_id":"st_d4a3vfp97mjs738cd8kg","pricing_plan_id":"cebpf4jnsgd1na2vs0mg"},{"bike_id":"0d9a28f3-f2a9-458c-abfb-9d5e6b00a237","system_id":"levelo_inurba_marseille","lat":43.231376,"lon":5.437217,"is_reserved":false,"is_disabled":false,"rental_uris":{"android":"levelo://app?vid=0d9a28f3-f2a9-458c-abfb-9d5e6b00a237","ios":"levelo://app?vid=0d9a28f3-f2a9-458c-abfb-9d5e6b00a237"},"vehicle_type_id":"4","last_reported":1768054208,"current_range_meters":8000,"station_id":"ce4bhmp2rcd13ifvqgog","pricing_plan_id":"cebpf4jnsgd1na2vs0mg"},{"bike_id":"46bff3a0-8e91-4d04-8c7a-f7783191a8a1","system_id":"levelo_inurba_marseille","lat":43.305579,"lon":5.365331,"is_reserved":false,"is_disabled":false,"rental_uris":{"android":"levelo://app?vid=46bff3a0-8e91-4d04-8c7a-f7783191a8a1","ios":"levelo://app?vid=46bff3a0-8e91-4d04-8c7a-f7783191a8a1"},"vehicle_type_id":"4","last_reported":1768054208,"current_range_meters":8000,"station_id":"ce4bgs12rcd13ifvqcag","pricing_plan_id":"cebpf4jnsgd1na2vs0mg"},{"bike_id":"40abb4fd-19eb-4358-8e2e-3656251c49d3","system_id":"levelo_inurba_marseille","lat":43.272084,"lon":5.391959,"is_reserved":false,"is_disabled":false,"rental_uris":{"android":"levelo://app?vid=40abb4fd-19eb-4358-8e2e-3656251c49d3","ios":"levelo://app?vid=40abb4fd-19eb-4358-8e2e-3656251c49d3"},"vehicle_type_id":"4","last_reported":1768054208,"current_range_meters":8000,"station_id":"ce4bhhp2rcd13ifvqfm0","pricing_plan_id":"cebpf4jnsgd1na2vs0mg"},{"bike_id":"ec2c36ed-79e6-401c-b68a-6c26524403de","system_id":"levelo_inurba_marseille","lat":43.29506,"lon":5.43295,"is_reserved":false,"is_disabled":false,"rental_uris":{"android":"levelo://app?vid=ec2c36ed-79e6-401c-b68a-6c26524403de","ios":"levelo://app?vid=ec2c36ed-79e6-401c-b68a-6c26524403de"},"vehicle_type_id":"4","last_reported":1768054208,"current_range_meters":8000,"station_id":"st_d3j5ugp08ojc73fj9d10","pricing_plan_id":"cebpf4jnsgd1na2vs0mg"},{"bike_id":"604f78fd-36d7-4821-843f-e68feb228a98","system_id":"levelo_inurba_marseille","lat":43.241607,"lon":5.364217,"is_reserved":false,"is_disabled":false,"rental_uris":{"android":"levelo://app?vid=604f78fd-36d7-4821-843f-e68feb228a98","ios":"levelo://app?vid=604f78fd-36d7-4821-843f-e68feb228a98"},"vehicle_type_id":"4","last_reported":1768054208,"current_range_meters":8000,"station_id":"cpo36qri1sfpv3e86is0","pricing_plan_id":"cebpf4jnsgd1na2vs0mg"},{"bike_id":"a8e6ec73-45f6-494f-9440-b84f9b239991","system_id":"levelo_inurba_marseille","lat":43.253444,"lon":5.421673,"is_reserved":false,"is_disabled":false,"rental_uris":{"android":"levelo://app?vid=a8e6ec73-45f6-494f-9440-b84f9b239991","ios":"levelo://app?vid=a8e6ec73-45f6-494f-9440-b84f9b239991"},"vehicle_type_id":"4","last_reported":1768054208,"current_range_meters":8000,"station_id":"st_d2m65c5bi1j21697t3ng","pricing_plan_id":"cebpf4jnsgd1na2vs0mg"},{"bike_id":"3f36b4e1-f8e9-4e04-a0b0-d07f836fd119","system_id":"levelo_inurba_marseille","lat":43.29769,"lon":5.37685,"is_reserved":false,"is_disabled":false,"rental_uris":{"android":"levelo://app?vid=3f36b4e1-f8e9-4e04-a0b0-d07f836fd119","ios":"levelo://app?vid=3f36b4e1-f8e9-4e04-a0b0-d07f836fd119"},"vehicle_type_id":"4","last_reported":1768054208,"current_range_meters":8000,"station_id":"","pricing_plan_id":"cebpf4jnsgd1na2vs0mg"},{"bike_id":"ad41c0f7-771d-4855-a9c8-7ed87d5e9445","system_id":"levelo_inurba_marseille","lat":43.29762,"lon":5.3851,"is_reserved":false,"is_disabled":false,"rental_uris":{"android":"levelo://app?vid=ad41c0f7-771d-4855-a9c8-7ed87d5e9445","ios":"levelo://app?vid=ad41c0f7-771d-4855-a9c8-7ed87d5e9445"},"vehicle_type_id":"4","last_reported":1768054208,"current_range_meters":8000,"station_id":"","pricing_plan_id":"cebpf4jnsgd1na2vs0mg"},{"bike_id":"9ba3abdd-ccf0-4033-8df7-7454ef98b00e","system_id":"levelo_inurba_marseille","lat":43.23795,"lon":5.36634,"is_reserved":false,"is_disabled":false,"rental_uris":{"android":"levelo://app?vid=9ba3abdd-ccf0-4033-8df7-7454ef98b00e","ios":"levelo://app?vid=9ba3abdd-ccf0-4033-8df7-7454ef98b00e"},"vehicle_type_id":"4","last_reported":1768054208,"current_range_meters":8000,"station_id":"st_d3nk18o9ro0c73en2l3g","pricing_plan_id":"cebpf4jnsgd1na2vs0mg"},{"bike_id":"1b1b65f2-5621-43a3-8721-1a01794caa40","system_id":"levelo_inurba_marseille","lat":43.23978,"lon":5.36603,"is_reserved":false,"is_disabled":false,"rental_uris":{"android":"levelo://app?vid=1b1b65f2-5621-43a3-8721-1a01794caa40","ios":"levelo://app?vid=1b1b65f2-5621-43a3-8721-1a01794caa40"},"vehicle_type_id":"4","last_reported":1768054208,"current_range_meters":8000,"station_id":"ce4bhi12rcd13ifvqfp0","pricing_plan_id":"cebpf4jnsgd1na2vs0mg"},{"bike_id":"c5a0016e-e555-4b9d-ae4d-9aafcf8e37f7","system_id":"levelo_inurba_marseille","lat":43.29262,"lon":5.40931,"is_reserved":false,"is_disabled":false,"rental_uris":{"android":"levelo://app?vid=c5a0016e-e555-4b9d-ae4d-9aafcf8e37f7","ios":"levelo://app?vid=c5a0016e-e555-4b9d-ae4d-9aafcf8e37f7"},"vehicle_type_id":"4","last_reported":1768054208,"current_range_meters":8000,"station_id":"ce4bh192rcd13ifvqdc0","pricing_plan_id":"cebpf4jnsgd1na2vs0mg"},{"bike_id":"dbb60bc6-4fb6-45fc-959a-667b177859f9","system_id":"levelo_inurba_marseille","lat":43.24166,"lon":5.364,"is_reserved":false,"is_disabled":false,"rental_uris":{"android":"levelo://app?vid=dbb60bc6-4fb6-45fc-959a-667b177859f9","ios":"levelo://app?vid=dbb60bc6-4fb6-45fc-959a-667b177859f9"},"vehicle_type_id":"4","last_reported":1768054208,"current_range_meters":8000,"station_id":"cpo36qri1sfpv3e86is0","pricing_plan_id":"cebpf4jnsgd1na2vs0mg"},{"bike_id":"c6946e65-376d-4033-a66a-2efc08b77c92","system_id":"levelo_inurba_marseille","lat":43.28481,"lon":5.38435,"is_reserved":false,"is_disabled":false,"rental_uris":{"android":"levelo://app?vid=c6946e65-376d-4033-a66a-2efc08b77c92","ios":"levelo://app?vid=c6946e65-376d-4033-a66a-2efc08b77c92"},"vehicle_type_id":"4","last_reported":1768054208,"current_range_meters":8000,"station_id":"ce4bh512rcd13ifvqe3g","pricing_plan_id":"cebpf4jnsgd1na2vs0mg"},{"bike_id":"dbe9e179-37a7-4bf6-8958-b4f7e3523bb3","system_id":"levelo_inurba_marseille","lat":43.28303,"lon":5.43035,"is_reserved":false,"is_disabled":false,"rental_uris":{"android":"levelo://app?vid=dbe9e179-37a7-4bf6-8958-b4f7e3523bb3","ios":"levelo://app?vid=dbe9e179-37a7-4bf6-8958-b4f7e3523bb3"},"vehicle_type_id":"4","last_reported":1768054208,"current_range_meters":8000,"station_id":"","pricing_plan_id":"cebpf4jnsgd1na2vs0mg"},{"bike_id":"d041d3dd-9e7d-406c-a376-f7a1930c3e9a","system_id":"levelo_inurba_marseille","lat":43.28542,"lon":5.44096,"is_reserved":false,"is_disabled":false,"rental_uris":{"android":"levelo://app?vid=d041d3dd-9e7d-406c-a376-f7a1930c3e9a","ios":"levelo://app?vid=d041d3dd-9e7d-406c-a376-f7a1930c3e9a"},"vehicle_type_id":"4","last_reported":1768054208,"current_range_meters":8000,"station_id":"st_d3j3df2ikq2c7380ej80","pricing_plan_id":"cebpf4jnsgd1na2vs0mg"},{"bike_id":"d26f4054-daa5-4936-9c27-6bfc7457f4e6","system_id":"levelo_inurba_marseille","lat":43.2887,"lon":5.35842,"is_reserved":false,"is_disabled":false,"rental_uris":{"android":"levelo://app?vid=d26f4054-daa5-4936-9c27-6bfc7457f4e6","ios":"levelo://app?vid=d26f4054-daa5-4936-9c27-6bfc7457f4e6"},"vehicle_type_id":"4","last_reported":1768054208,"current_range_meters":8000,"station_id":"ce4bhb12rcd13ifvqem0","pricing_plan_id":"cebpf4jnsgd1na2vs0mg"},{"bike_id":"a1dcd8bf-b300-4092-8c84-5204375249a5","system_id":"levelo_inurba_marseille","lat":43.24808,"lon":5.37458,"is_reserved":false,"is_disabled":false,"rental_uris":{"android":"levelo://app?vid=a1dcd8bf-b300-4092-8c84-5204375249a5","ios":"levelo://app?vid=a1dcd8bf-b300-4092-8c84-5204375249a5"},"vehicle_type_id":"4","last_reported":1768054208,"current_range_meters":8400,"station_id":"ce4bhgh2rcd13ifvqfb0","pricing_plan_id":"cebpf4jnsgd1na2vs0mg"},{"bike_id":"eb3ebdcc-c739-4d8d-8edd-617b5b205c89","system_id":"levelo_inurba_marseille","lat":43.26953,"lon":5.38645,"is_reserved":false,"is_disabled":false,"rental_uris":{"android":"levelo://app?vid=eb3ebdcc-c739-4d8d-8edd-617b5b205c89","ios":"levelo://app?vid=eb3ebdcc-c739-4d8d-8edd-617b5b205c89"},"vehicle_type_id":"4","last_reported":1768054208,"current_range_meters":8400,"station_id":"ce4bhh92rcd13ifvqfh0","pricing_plan_id":"cebpf4jnsgd1na2vs0mg"},{"bike_id":"611d5909-481c-4108-a2ce-d73d9b8234f6","system_id":"levelo_inurba_marseille","lat":43.26213,"lon":5.37442,"is_reserved":false,"is_disabled":false,"rental_uris":{"android":"levelo://app?vid=611d5909-481c-4108-a2ce-d73d9b8234f6","ios":"levelo://app?vid=611d5909-481c-4108-a2ce-d73d9b8234f6"},"vehicle_type_id":"4","last_reported":1768054208,"current_range_meters":8400,"station_id":"ce4bhgp2rcd13ifvqfc0","pricing_plan_id":"cebpf4jnsgd1na2vs0mg"},{"bike_id":"25e3c6b7-af5d-47bb-b3b6-01ffa3df678a","system_id":"levelo_inurba_marseille","lat":43.29592,"lon":5.38103,"is_reserved":false,"is_disabled":false,"rental_uris":{"android":"levelo://app?vid=25e3c6b7-af5d-47bb-b3b6-01ffa3df678a","ios":"levelo://app?vid=25e3c6b7-af5d-47bb-b3b6-01ffa3df678a"},"vehicle_type_id":"4","last_reported":1768054208,"current_range_meters":8400,"station_id":"ce4bgl12rcd13ifvqbo0","pricing_plan_id":"cebpf4jnsgd1na2vs0mg"},{"bike_id":"53b03253-791d-42e1-9bae-3a363017756b","system_id":"levelo_inurba_marseille","lat":43.28595,"lon":5.35082,"is_reserved":false,"is_disabled":false,"rental_uris":{"android":"levelo://app?vid=53b03253-791d-42e1-9bae-3a363017756b","ios":"levelo://app?vid=53b03253-791d-42e1-9bae-3a363017756b"},"vehicle_type_id":"4","last_reported":1768054208,"current_range_meters":8400,"station_id":"ce4bhch2rcd13ifvqeug","pricing_plan_id":"cebpf4jnsgd1na2vs0mg"},{"bike_id":"33506a60-d764-46b1-8f22-2ca638ff0ced","system_id":"levelo_inurba_marseille","lat":43.29575,"lon":5.37498,"is_reserved":false,"is_disabled":false,"rental_uris":{"android":"levelo://app?vid=33506a60-d764-46b1-8f22-2ca638ff0ced","ios":"levelo://app?vid=33506a60-d764-46b1-8f22-2ca638ff0ced"},"vehicle_type_id":"4","last_reported":1768054208,"current_range_meters":8400,"station_id":"ce4bgh92rcd13ifvqb50","pricing_plan_id":"cebpf4jnsgd1na2vs0mg"},{"bike_id":"2f94929b-7e6c-4e24-b276-2f585e92f29a","system_id":"levelo_inurba_marseille","lat":43.297576,"lon":5.427726,"is_reserved":false,"is_disabled":true,"rental_uris":{"android":"levelo://app?vid=2f94929b-7e6c-4e24-b276-2f585e92f29a","ios":"levelo://app?vid=2f94929b-7e6c-4e24-b276-2f585e92f29a"},"vehicle_type_id":"4","last_reported":1768054208,"current_range_meters":8400,"station_id":"st_d3md5207bmas73dh9klg","pricing_plan_id":"cebpf4jnsgd1na2vs0mg"},{"bike_id":"d036b849-3104-46e1-8fb1-f8d5be60e569","system_id":"levelo_inurba_marseille","lat":43.30113,"lon":5.43112,"is_reserved":false,"is_disabled":false,"rental_uris":{"android":"levelo://app?vid=d036b849-3104-46e1-8fb1-f8d5be60e569","ios":"levelo://app?vid=d036b849-3104-46e1-8fb1-f8d5be60e569"},"vehicle_type_id":"4","last_reported":1768054208,"current_range_meters":8400,"station_id":"st_d3js3co5814s73ftftug","pricing_plan_id":"cebpf4jnsgd1na2vs0mg"},{"bike_id":"5ea8390a-b6bf-4d05-83f0-f449d44bf97e","system_id":"levelo_inurba_marseille","lat":43.25824,"lon":5.39434,"is_reserved":false,"is_disabled":false,"rental_uris":{"android":"levelo://app?vid=5ea8390a-b6bf-4d05-83f0-f449d44bf97e","ios":"levelo://app?vid=5ea8390a-b6bf-4d05-83f0-f449d44bf97e"},"vehicle_type_id":"4","last_reported":1768054208,"current_range_meters":8400,"station_id":"ce4bhip2rcd13ifvqft0","pricing_plan_id":"cebpf4jnsgd1na2vs0mg"},{"bike_id":"7f391882-abdd-4a67-9c14-bc81f5c2dbfb","system_id":"levelo_inurba_marseille","lat":43.24056,"lon":5.37744,"is_reserved":false,"is_disabled":false,"rental_uris":{"android":"levelo://app?vid=7f391882-abdd-4a67-9c14-bc81f5c2dbfb","ios":"levelo://app?vid=7f391882-abdd-4a67-9c14-bc81f5c2dbfb"},"vehicle_type_id":"4","last_reported":1768054208,"current_range_meters":8400,"station_id":"ce4bhnp2rcd13ifvqgvg","pricing_plan_id":"cebpf4jnsgd1na2vs0mg"},{"bike_id":"e985ee85-b979-436f-ab8f-3863518eac0a","system_id":"levelo_inurba_marseille","lat":43.29297,"lon":5.37439,"is_reserved":false,"is_disabled":false,"rental_uris":{"android":"levelo://app?vid=e985ee85-b979-436f-ab8f-3863518eac0a","ios":"levelo://app?vid=e985ee85-b979-436f-ab8f-3863518eac0a"},"vehicle_type_id":"4","last_reported":1768054208,"current_range_meters":8400,"station_id":"ce4bgi12rcd13ifvqb70","pricing_plan_id":"cebpf4jnsgd1na2vs0mg"},{"bike_id":"248f666c-97de-43b8-ba33-ea773cc06c95","system_id":"levelo_inurba_marseille","lat":43.26547,"lon":5.39825,"is_reserved":false,"is_disabled":false,"rental_uris":{"android":"levelo://app?vid=248f666c-97de-43b8-ba33-ea773cc06c95","ios":"levelo://app?vid=248f666c-97de-43b8-ba33-ea773cc06c95"},"vehicle_type_id":"4","last_reported":1768054208,"current_range_meters":8400,"station_id":"","pricing_plan_id":"cebpf4jnsgd1na2vs0mg"},{"bike_id":"114cf3d5-1e45-4527-b0f2-97c1f388aa37","system_id":"levelo_inurba_marseille","lat":43.29222,"lon":5.36064,"is_reserved":false,"is_disabled":false,"rental_uris":{"android":"levelo://app?vid=114cf3d5-1e45-4527-b0f2-97c1f388aa37","ios":"levelo://app?vid=114cf3d5-1e45-4527-b0f2-97c1f388aa37"},"vehicle_type_id":"4","last_reported":1768054208,"current_range_meters":8400,"station_id":"ce4bhbh2rcd13ifvqeqg","pricing_plan_id":"cebpf4jnsgd1na2vs0mg"},{"bike_id":"a20e324f-461e-49f1-9758-c1dce453e58f","system_id":"levelo_inurba_marseille","lat":43.22932,"lon":5.353816,"is_reserved":false,"is_disabled":false,"rental_uris":{"android":"levelo://app?vid=a20e324f-461e-49f1-9758-c1dce453e58f","ios":"levelo://app?vid=a20e324f-461e-49f1-9758-c1dce453e58f"},"vehicle_type_id":"4","last_reported":1768054208,"current_range_meters":8400,"station_id":"cpo3532slgdg3j2ikp40","pricing_plan_id":"cebpf4jnsgd1na2vs0mg"},{"bike_id":"c55c0d61-a18c-488b-9b3e-f242de2b2b66","system_id":"levelo_inurba_marseille","lat":43.28763,"lon":5.38429,"is_reserved":false,"is_disabled":false,"rental_uris":{"android":"levelo://app?vid=c55c0d61-a18c-488b-9b3e-f242de2b2b66","ios":"levelo://app?vid=c55c0d61-a18c-488b-9b3e-f242de2b2b66"},"vehicle_type_id":"4","last_reported":1768054208,"current_range_meters":8400,"station_id":"","pricing_plan_id":"cebpf4jnsgd1na2vs0mg"},{"bike_id":"d4e40218-ce50-4919-a4e3-62992817f4af","system_id":"levelo_inurba_marseille","lat":43.30151,"lon":5.38098,"is_reserved":false,"is_disabled":false,"rental_uris":{"android":"levelo://app?vid=d4e40218-ce50-4919-a4e3-62992817f4af","ios":"levelo://app?vid=d4e40218-ce50-4919-a4e3-62992817f4af"},"vehicle_type_id":"4","last_reported":1768054208,"current_range_meters":8400,"station_id":"ce4bgjp2rcd13ifvqbh0","pricing_plan_id":"cebpf4jnsgd1na2vs0mg"},{"bike_id":"c7c2fb25-2812-4554-a688-8c1334dc293c","system_id":"levelo_inurba_marseille","lat":43.33363,"lon":5.41131,"is_reserved":false,"is_disabled":false,"rental_uris":{"android":"levelo://app?vid=c7c2fb25-2812-4554-a688-8c1334dc293c","ios":"levelo://app?vid=c7c2fb25-2812-4554-a688-8c1334dc293c"},"vehicle_type_id":"4","last_reported":1768054208,"current_range_meters":8400,"station_id":"","pricing_plan_id":"cebpf4jnsgd1na2vs0mg"},{"bike_id":"58bd230c-23c9-4159-8cea-b318918dfca9","system_id":"levelo_inurba_marseille","lat":43.24087,"lon":5.37758,"is_reserved":false,"is_disabled":false,"rental_uris":{"android":"levelo://app?vid=58bd230c-23c9-4159-8cea-b318918dfca9","ios":"levelo://app?vid=58bd230c-23c9-4159-8cea-b318918dfca9"},"vehicle_type_id":"4","last_reported":1768054208,"current_range_meters":8400,"station_id":"ce4bhnp2rcd13ifvqgvg","pricing_plan_id":"cebpf4jnsgd1na2vs0mg"},{"bike_id":"4b1ca730-964f-4ff0-9ace-86c0a9ea32cf","system_id":"levelo_inurba_marseille","lat":43.27995,"lon":5.40018,"is_reserved":false,"is_disabled":false,"rental_uris":{"android":"levelo://app?vid=4b1ca730-964f-4ff0-9ace-86c0a9ea32cf","ios":"levelo://app?vid=4b1ca730-964f-4ff0-9ace-86c0a9ea32cf"},"vehicle_type_id":"4","last_reported":1768054208,"current_range_meters":8400,"station_id":"ce4bho92rcd13ifvqh4g","pricing_plan_id":"cebpf4jnsgd1na2vs0mg"},{"bike_id":"7a456d77-223a-4c47-a09c-74e06ae834fd","system_id":"levelo_inurba_marseille","lat":43.30148,"lon":5.38089,"is_reserved":false,"is_disabled":false,"rental_uris":{"android":"levelo://app?vid=7a456d77-223a-4c47-a09c-74e06ae834fd","ios":"levelo://app?vid=7a456d77-223a-4c47-a09c-74e06ae834fd"},"vehicle_type_id":"4","last_reported":1768054208,"current_range_meters":8400,"station_id":"ce4bgjp2rcd13ifvqbh0","pricing_plan_id":"cebpf4jnsgd1na2vs0mg"},{"bike_id":"b1719ed5-e9e6-461b-9539-894919cacc71","system_id":"levelo_inurba_marseille","lat":43.2469,"lon":5.38142,"is_reserved":false,"is_disabled":false,"rental_uris":{"android":"levelo://app?vid=b1719ed5-e9e6-461b-9539-894919cacc71","ios":"levelo://app?vid=b1719ed5-e9e6-461b-9539-894919cacc71"},"vehicle_type_id":"4","last_reported":1768054208,"current_range_meters":8400,"station_id":"ce4bhih2rcd13ifvqfr0","pricing_plan_id":"cebpf4jnsgd1na2vs0mg"},{"bike_id":"d29147e9-12b9-49d5-9a41-487e37c613b5","system_id":"levelo_inurba_marseille","lat":43.22579,"lon":5.41676,"is_reserved":false,"is_disabled":false,"rental_uris":{"android":"levelo://app?vid=d29147e9-12b9-49d5-9a41-487e37c613b5","ios":"levelo://app?vid=d29147e9-12b9-49d5-9a41-487e37c613b5"},"vehicle_type_id":"4","last_reported":1768054208,"current_range_meters":8800,"station_id":"st_d2o4gvlbi1j2169b742g","pricing_plan_id":"cebpf4jnsgd1na2vs0mg"},{"bike_id":"ff43ef99-a2e3-42cb-a87f-e919c3749872","system_id":"levelo_inurba_marseille","lat":43.29731,"lon":5.4152,"is_reserved":false,"is_disabled":false,"rental_uris":{"android":"levelo://app?vid=ff43ef99-a2e3-42cb-a87f-e919c3749872","ios":"levelo://app?vid=ff43ef99-a2e3-42cb-a87f-e919c3749872"},"vehicle_type_id":"4","last_reported":1768054208,"current_range_meters":8800,"station_id":"","pricing_plan_id":"cebpf4jnsgd1na2vs0mg"},{"bike_id":"780b79fb-a5b2-4e7b-b6de-cbf2de18bfe3","system_id":"levelo_inurba_marseille","lat":43.22933,"lon":5.35376,"is_reserved":false,"is_disabled":false,"rental_uris":{"android":"levelo://app?vid=780b79fb-a5b2-4e7b-b6de-cbf2de18bfe3","ios":"levelo://app?vid=780b79fb-a5b2-4e7b-b6de-cbf2de18bfe3"},"vehicle_type_id":"4","last_reported":1768054208,"current_range_meters":8800,"station_id":"cpo3532slgdg3j2ikp40","pricing_plan_id":"cebpf4jnsgd1na2vs0mg"},{"bike_id":"5094aeb9-ac3f-47d1-a484-8aeeb36f0571","system_id":"levelo_inurba_marseille","lat":43.28011,"lon":5.41683,"is_reserved":false,"is_disabled":false,"rental_uris":{"android":"levelo://app?vid=5094aeb9-ac3f-47d1-a484-8aeeb36f0571","ios":"levelo://app?vid=5094aeb9-ac3f-47d1-a484-8aeeb36f0571"},"vehicle_type_id":"4","last_reported":1768054208,"current_range_meters":8800,"station_id":"ce4bho12rcd13ifvqh1g","pricing_plan_id":"cebpf4jnsgd1na2vs0mg"},{"bike_id":"e8897284-96fa-4c95-b10b-b03b633408cc","system_id":"levelo_inurba_marseille","lat":43.264,"lon":5.41071,"is_reserved":false,"is_disabled":false,"rental_uris":{"android":"levelo://app?vid=e8897284-96fa-4c95-b10b-b03b633408cc","ios":"levelo://app?vid=e8897284-96fa-4c95-b10b-b03b633408cc"},"vehicle_type_id":"4","last_reported":1768054208,"current_range_meters":8800,"station_id":"st_d4e5ca6na9uc73bfl5fg","pricing_plan_id":"cebpf4jnsgd1na2vs0mg"},{"bike_id":"9695ced4-9069-43de-9381-414e38a96d05","system_id":"levelo_inurba_marseille","lat":43.300395,"lon":5.372207,"is_reserved":false,"is_disabled":false,"rental_uris":{"android":"levelo://app?vid=9695ced4-9069-43de-9381-414e38a96d05","ios":"levelo://app?vid=9695ced4-9069-43de-9381-414e38a96d05"},"vehicle_type_id":"4","last_reported":1768054208,"current_range_meters":8800,"station_id":"","pricing_plan_id":"cebpf4jnsgd1na2vs0mg"},{"bike_id":"6c9e7281-c716-4f93-80ed-b9cad29e485f","system_id":"levelo_inurba_marseille","lat":43.28479,"lon":5.483918,"is_reserved":false,"is_disabled":false,"rental_uris":{"android":"levelo://app?vid=6c9e7281-c716-4f93-80ed-b9cad29e485f","ios":"levelo://app?vid=6c9e7281-c716-4f93-80ed-b9cad29e485f"},"vehicle_type_id":"4","last_reported":1768054208,"current_range_meters":8800,"station_id":"","pricing_plan_id":"cebpf4jnsgd1na2vs0mg"},{"bike_id":"67542c6f-33c0-4247-93b2-44e3a516757c","system_id":"levelo_inurba_marseille","lat":43.302538,"lon":5.390899,"is_reserved":false,"is_disabled":false,"rental_uris":{"android":"levelo://app?vid=67542c6f-33c0-4247-93b2-44e3a516757c","ios":"levelo://app?vid=67542c6f-33c0-4247-93b2-44e3a516757c"},"vehicle_type_id":"4","last_reported":1768054208,"current_range_meters":8800,"station_id":"ce4bgkh2rcd13ifvqbk0","pricing_plan_id":"cebpf4jnsgd1na2vs0mg"},{"bike_id":"c78ca1d2-55ce-4e0c-bd2a-62223433e641","system_id":"levelo_inurba_marseille","lat":43.30156,"lon":5.38093,"is_reserved":false,"is_disabled":false,"rental_uris":{"android":"levelo://app?vid=c78ca1d2-55ce-4e0c-bd2a-62223433e641","ios":"levelo://app?vid=c78ca1d2-55ce-4e0c-bd2a-62223433e641"},"vehicle_type_id":"4","last_reported":1768054208,"current_range_meters":8800,"station_id":"ce4bgjp2rcd13ifvqbh0","pricing_plan_id":"cebpf4jnsgd1na2vs0mg"},{"bike_id":"7a6d9705-1624-4172-88da-1442588504f8","system_id":"levelo_inurba_marseille","lat":43.27374,"lon":5.36283,"is_reserved":false,"is_disabled":false,"rental_uris":{"android":"levelo://app?vid=7a6d9705-1624-4172-88da-1442588504f8","ios":"levelo://app?vid=7a6d9705-1624-4172-88da-1442588504f8"},"vehicle_type_id":"4","last_reported":1768054208,"current_range_meters":8800,"station_id":"ce4bhbh2rcd13ifvqeo0","pricing_plan_id":"cebpf4jnsgd1na2vs0mg"},{"bike_id":"a9c03d45-d307-44e2-85f0-6ae9d7ff21ed","system_id":"levelo_inurba_marseille","lat":43.27502,"lon":5.42473,"is_reserved":false,"is_disabled":false,"rental_uris":{"android":"levelo://app?vid=a9c03d45-d307-44e2-85f0-6ae9d7ff21ed","ios":"levelo://app?vid=a9c03d45-d307-44e2-85f0-6ae9d7ff21ed"},"vehicle_type_id":"4","last_reported":1768054208,"current_range_meters":8800,"station_id":"ce4bhn92rcd13ifvqgrg","pricing_plan_id":"cebpf4jnsgd1na2vs0mg"},{"bike_id":"14cbe926-e337-4ae8-9a6d-bfbfb967a9b2","system_id":"levelo_inurba_marseille","lat":43.23787,"lon":5.36631,"is_reserved":false,"is_disabled":false,"rental_uris":{"android":"levelo://app?vid=14cbe926-e337-4ae8-9a6d-bfbfb967a9b2","ios":"levelo://app?vid=14cbe926-e337-4ae8-9a6d-bfbfb967a9b2"},"vehicle_type_id":"4","last_reported":1768054208,"current_range_meters":9200,"station_id":"st_d3nk18o9ro0c73en2l3g","pricing_plan_id":"cebpf4jnsgd1na2vs0mg"},{"bike_id":"887d41a0-4e09-4c31-a048-b36daea0010e","system_id":"levelo_inurba_marseille","lat":43.27847,"lon":5.39214,"is_reserved":false,"is_disabled":false,"rental_uris":{"android":"levelo://app?vid=887d41a0-4e09-4c31-a048-b36daea0010e","ios":"levelo://app?vid=887d41a0-4e09-4c31-a048-b36daea0010e"},"vehicle_type_id":"4","last_reported":1768054208,"current_range_meters":9200,"station_id":"ce4bhjp2rcd13ifvqga0","pricing_plan_id":"cebpf4jnsgd1na2vs0mg"},{"bike_id":"e7e6cb92-4ba6-4878-a96f-e087afdbdbc0","system_id":"levelo_inurba_marseille","lat":43.229257,"lon":5.353789,"is_reserved":false,"is_disabled":false,"rental_uris":{"android":"levelo://app?vid=e7e6cb92-4ba6-4878-a96f-e087afdbdbc0","ios":"levelo://app?vid=e7e6cb92-4ba6-4878-a96f-e087afdbdbc0"},"vehicle_type_id":"4","last_reported":1768054208,"current_range_meters":9200,"station_id":"cpo3532slgdg3j2ikp40","pricing_plan_id":"cebpf4jnsgd1na2vs0mg"},{"bike_id":"73aa8b26-ad51-4672-82b0-eabd4ddaa3c3","system_id":"levelo_inurba_marseille","lat":43.28882,"lon":5.35833,"is_reserved":false,"is_disabled":false,"rental_uris":{"android":"levelo://app?vid=73aa8b26-ad51-4672-82b0-eabd4ddaa3c3","ios":"levelo://app?vid=73aa8b26-ad51-4672-82b0-eabd4ddaa3c3"},"vehicle_type_id":"4","last_reported":1768054208,"current_range_meters":9200,"station_id":"ce4bhb12rcd13ifvqem0","pricing_plan_id":"cebpf4jnsgd1na2vs0mg"},{"bike_id":"0b6bd1cc-4bba-47b8-8edc-033081e34e1d","system_id":"levelo_inurba_marseille","lat":43.30573,"lon":5.36543,"is_reserved":false,"is_disabled":false,"rental_uris":{"android":"levelo://app?vid=0b6bd1cc-4bba-47b8-8edc-033081e34e1d","ios":"levelo://app?vid=0b6bd1cc-4bba-47b8-8edc-033081e34e1d"},"vehicle_type_id":"4","last_reported":1768054208,"current_range_meters":9200,"station_id":"ce4bgs12rcd13ifvqcag","pricing_plan_id":"cebpf4jnsgd1na2vs0mg"},{"bike_id":"c771e32f-8268-48c3-904a-8acbbd85f57d","system_id":"levelo_inurba_marseille","lat":43.25847,"lon":5.39422,"is_reserved":false,"is_disabled":false,"rental_uris":{"android":"levelo://app?vid=c771e32f-8268-48c3-904a-8acbbd85f57d","ios":"levelo://app?vid=c771e32f-8268-48c3-904a-8acbbd85f57d"},"vehicle_type_id":"4","last_reported":1768054208,"current_range_meters":9200,"station_id":"ce4bhip2rcd13ifvqft0","pricing_plan_id":"cebpf4jnsgd1na2vs0mg"},{"bike_id":"9e546458-c3a8-4e35-9b2b-b0910317fcfc","system_id":"levelo_inurba_marseille","lat":43.229336,"lon":5.353784,"is_reserved":false,"is_disabled":false,"rental_uris":{"android":"levelo://app?vid=9e546458-c3a8-4e35-9b2b-b0910317fcfc","ios":"levelo://app?vid=9e546458-c3a8-4e35-9b2b-b0910317fcfc"},"vehicle_type_id":"4","last_reported":1768054208,"current_range_meters":9200,"station_id":"cpo3532slgdg3j2ikp40","pricing_plan_id":"cebpf4jnsgd1na2vs0mg"},{"bike_id":"ee66d2db-c17a-4b2a-83f9-37da596d1de5","system_id":"levelo_inurba_marseille","lat":43.24167,"lon":5.364,"is_reserved":false,"is_disabled":false,"rental_uris":{"android":"levelo://app?vid=ee66d2db-c17a-4b2a-83f9-37da596d1de5","ios":"levelo://app?vid=ee66d2db-c17a-4b2a-83f9-37da596d1de5"},"vehicle_type_id":"4","last_reported":1768054208,"current_range_meters":9200,"station_id":"cpo36qri1sfpv3e86is0","pricing_plan_id":"cebpf4jnsgd1na2vs0mg"},{"bike_id":"aa0b3224-ee6b-46ad-87e5-5bee94d0bf89","system_id":"levelo_inurba_marseille","lat":43.270589,"lon":5.382996,"is_reserved":false,"is_disabled":false,"rental_uris":{"android":"levelo://app?vid=aa0b3224-ee6b-46ad-87e5-5bee94d0bf89","ios":"levelo://app?vid=aa0b3224-ee6b-46ad-87e5-5bee94d0bf89"},"vehicle_type_id":"4","last_reported":1768054208,"current_range_meters":9200,"station_id":"st_d3n2fo6cfp8s73cte1j0","pricing_plan_id":"cebpf4jnsgd1na2vs0mg"},{"bike_id":"227e3924-6897-42af-9041-67d3e9f70ca1","system_id":"levelo_inurba_marseille","lat":43.30125,"lon":5.43116,"is_reserved":false,"is_disabled":false,"rental_uris":{"android":"levelo://app?vid=227e3924-6897-42af-9041-67d3e9f70ca1","ios":"levelo://app?vid=227e3924-6897-42af-9041-67d3e9f70ca1"},"vehicle_type_id":"4","last_reported":1768054208,"current_range_meters":9200,"station_id":"st_d3js3co5814s73ftftug","pricing_plan_id":"cebpf4jnsgd1na2vs0mg"},{"bike_id":"8d398777-745d-4eca-a468-713ec859e16d","system_id":"levelo_inurba_marseille","lat":43.29247,"lon":5.36083,"is_reserved":false,"is_disabled":false,"rental_uris":{"android":"levelo://app?vid=8d398777-745d-4eca-a468-713ec859e16d","ios":"levelo://app?vid=8d398777-745d-4eca-a468-713ec859e16d"},"vehicle_type_id":"4","last_reported":1768054208,"current_range_meters":9200,"station_id":"ce4bhbh2rcd13ifvqeqg","pricing_plan_id":"cebpf4jnsgd1na2vs0mg"},{"bike_id":"9227257d-26df-4311-bdb9-080324817f5d","system_id":"levelo_inurba_marseille","lat":43.21737,"lon":5.34626,"is_reserved":false,"is_disabled":true,"rental_uris":{"android":"levelo://app?vid=9227257d-26df-4311-bdb9-080324817f5d","ios":"levelo://app?vid=9227257d-26df-4311-bdb9-080324817f5d"},"vehicle_type_id":"4","last_reported":1768054208,"current_range_meters":9200,"station_id":"","pricing_plan_id":"cebpf4jnsgd1na2vs0mg"},{"bike_id":"c59f5a79-013e-434e-937e-1cdde0b23ac2","system_id":"levelo_inurba_marseille","lat":43.2534,"lon":5.42165,"is_reserved":false,"is_disabled":false,"rental_uris":{"android":"levelo://app?vid=c59f5a79-013e-434e-937e-1cdde0b23ac2","ios":"levelo://app?vid=c59f5a79-013e-434e-937e-1cdde0b23ac2"},"vehicle_type_id":"4","last_reported":1768054208,"current_range_meters":9200,"station_id":"st_d2m65c5bi1j21697t3ng","pricing_plan_id":"cebpf4jnsgd1na2vs0mg"},{"bike_id":"e6a69acf-ca12-404c-b921-d6e73724bc5f","system_id":"levelo_inurba_marseille","lat":43.29006,"lon":5.35615,"is_reserved":false,"is_disabled":false,"rental_uris":{"android":"levelo://app?vid=e6a69acf-ca12-404c-b921-d6e73724bc5f","ios":"levelo://app?vid=e6a69acf-ca12-404c-b921-d6e73724bc5f"},"vehicle_type_id":"4","last_reported":1768054208,"current_range_meters":9200,"station_id":"ce4bhb92rcd13ifvqen0","pricing_plan_id":"cebpf4jnsgd1na2vs0mg"},{"bike_id":"66f5f90c-0e54-4138-be5a-10148f3d71dc","system_id":"levelo_inurba_marseille","lat":43.27372,"lon":5.36264,"is_reserved":false,"is_disabled":false,"rental_uris":{"android":"levelo://app?vid=66f5f90c-0e54-4138-be5a-10148f3d71dc","ios":"levelo://app?vid=66f5f90c-0e54-4138-be5a-10148f3d71dc"},"vehicle_type_id":"4","last_reported":1768054208,"current_range_meters":9200,"station_id":"ce4bhbh2rcd13ifvqeo0","pricing_plan_id":"cebpf4jnsgd1na2vs0mg"},{"bike_id":"baebb161-7721-4b4d-afb9-a5c5e1f5e9ac","system_id":"levelo_inurba_marseille","lat":43.2623,"lon":5.37924,"is_reserved":false,"is_disabled":false,"rental_uris":{"android":"levelo://app?vid=baebb161-7721-4b4d-afb9-a5c5e1f5e9ac","ios":"levelo://app?vid=baebb161-7721-4b4d-afb9-a5c5e1f5e9ac"},"vehicle_type_id":"4","last_reported":1768054208,"current_range_meters":9600,"station_id":"ce4bhjp2rcd13ifvqg90","pricing_plan_id":"cebpf4jnsgd1na2vs0mg"},{"bike_id":"70bb0e66-4935-4072-928f-42ec0503b8a9","system_id":"levelo_inurba_marseille","lat":43.26563,"lon":5.40327,"is_reserved":false,"is_disabled":false,"rental_uris":{"android":"levelo://app?vid=70bb0e66-4935-4072-928f-42ec0503b8a9","ios":"levelo://app?vid=70bb0e66-4935-4072-928f-42ec0503b8a9"},"vehicle_type_id":"4","last_reported":1768054208,"current_range_meters":9600,"station_id":"ce4bhmp2rcd13ifvqgng","pricing_plan_id":"cebpf4jnsgd1na2vs0mg"},{"bike_id":"495fcae7-153e-4629-84cd-d6e17687d379","system_id":"levelo_inurba_marseille","lat":43.30609,"lon":5.372473,"is_reserved":false,"is_disabled":false,"rental_uris":{"android":"levelo://app?vid=495fcae7-153e-4629-84cd-d6e17687d379","ios":"levelo://app?vid=495fcae7-153e-4629-84cd-d6e17687d379"},"vehicle_type_id":"4","last_reported":1768054208,"current_range_meters":9600,"station_id":"ce4bgqh2rcd13ifvqc4g","pricing_plan_id":"cebpf4jnsgd1na2vs0mg"},{"bike_id":"c46739cb-8652-48d3-972f-9096dc83781a","system_id":"levelo_inurba_marseille","lat":43.2319,"lon":5.35562,"is_reserved":false,"is_disabled":false,"rental_uris":{"android":"levelo://app?vid=c46739cb-8652-48d3-972f-9096dc83781a","ios":"levelo://app?vid=c46739cb-8652-48d3-972f-9096dc83781a"},"vehicle_type_id":"4","last_reported":1768054208,"current_range_meters":9600,"station_id":"ce4bhu92rcd13ifvqi70","pricing_plan_id":"cebpf4jnsgd1na2vs0mg"},{"bike_id":"e687f26e-1a6d-45be-8b63-1ccd629f02c6","system_id":"levelo_inurba_marseille","lat":43.29323,"lon":5.37154,"is_reserved":false,"is_disabled":false,"rental_uris":{"android":"levelo://app?vid=e687f26e-1a6d-45be-8b63-1ccd629f02c6","ios":"levelo://app?vid=e687f26e-1a6d-45be-8b63-1ccd629f02c6"},"vehicle_type_id":"4","last_reported":1768054208,"current_range_meters":9600,"station_id":"ce4bgh92rcd13ifvqb40","pricing_plan_id":"cebpf4jnsgd1na2vs0mg"},{"bike_id":"8fe96ab0-d7de-4496-a834-d6ed6e0d6f05","system_id":"levelo_inurba_marseille","lat":43.28621,"lon":5.35108,"is_reserved":false,"is_disabled":false,"rental_uris":{"android":"levelo://app?vid=8fe96ab0-d7de-4496-a834-d6ed6e0d6f05","ios":"levelo://app?vid=8fe96ab0-d7de-4496-a834-d6ed6e0d6f05"},"vehicle_type_id":"4","last_reported":1768054208,"current_range_meters":9600,"station_id":"ce4bhch2rcd13ifvqeug","pricing_plan_id":"cebpf4jnsgd1na2vs0mg"},