{"last_updated":1700413531,"ttl":30,"version":"2.2","data":{"bikes":[{"bike_id":"c0bb0332-a2ca-4031-b1af-f5f3c73329c0","system_id":"levelo_inurba_marseille","lat":43.309076,"lon":5.368465,"is_reserved":false,"is_disabled":false,"rental_uris":{"android":"levelo://app?vid=c0bb0332-a2ca-4031-b1af-f5f3c73329c0","ios":"levelo://app?vid=c0bb0332-a2ca-4031-b1af-f5f3c73329c0"},"vehicle_type_id":"4","last_reported":1700413531,"current_range_meters":11200,"station_id":"ce4bgn92rcd13ifvqbvg","pricing_plan_id":"free"},{"bike_id":"df1a9d4e-9c28-4d74-bfb4-b0943df82ac0","system_id":"levelo_inurba_marseille","lat":43.314811,"lon":5.373103,"is_reserved":false,"is_disabled":false,"rental_uris":{"android":"levelo://app?vid=df1a9d4e-9c28-4d74-bfb4-b0943df82ac0","ios":"levelo://app?vid=df1a9d4e-9c28-4d74-bfb4-b0943df82ac0"},"vehicle_type_id":"4","last_reported":1700413531,"current_range_meters":26400,"station_id":"ce4bgt12rcd13ifvqcd0","pricing_plan_id":"free"},{"bike_id":"5d73c4bf-c82a-4a63-913b-544755c42e77","system_id":"levelo_inurba_marseille","lat":43.314811,"lon":5.373104,"is_reserved":false,"is_disabled":false,"rental_uris":{"android":"levelo://app?vid=5d73c4bf-c82a-4a63-913b-544755c42e77","ios":"levelo://app?vid=5d73c4bf-c82a-4a63-913b-544755c42e77"},"vehicle_type_id":"4","last_reported":1700413531,"current_range_meters":18800,"station_id":"ce4bgt12rcd13ifvqcd0","pricing_plan_id":"free"},{"bike_id":"3f0db877-f819-4c9d-a707-5ceb6e01e906","system_id":"levelo_inurba_marseille","lat":43.314839,"lon":5.374062,"is_reserved":false,"is_disabled":false,"rental_uris":{"android":"levelo://app?vid=3f0db877-f819-4c9d-a707-5ceb6e01e906","ios":"levelo://app?vid=3f0db877-f819-4c9d-a707-5ceb6e01e906"},"vehicle_type_id":"4","last_reported":1700413531,"current_range_meters":0,"station_id":"","pricing_plan_id":"free"},{"bike_id":"3475d204-43b6-43d9-b615-ca1d0d58200e","system_id":"levelo_inurba_marseille","lat":43.30679,"lon":5.3679,"is_reserved":false,"is_disabled":false,"rental_uris":{"android":"levelo://app?vid=3475d204-43b6-43d9-b615-ca1d0d58200e","ios":"levelo://app?vid=3475d204-43b6-43d9-b615-ca1d0d58200e"},"vehicle_type_id":"4","last_reported":1700413531,"current_range_meters":10000,"station_id":"","pricing_plan_id":"free"},{"bike_id":"8b3677d2-ba45-46d5-8680-59b39c3c55a8","system_id":"levelo_inurba_marseille","lat":43.31195,"lon":5.37628,"is_reserved":false,"is_disabled":false,"rental_uris":{"android":"levelo://app?vid=8b3677d2-ba45-46d5-8680-59b39c3c55a8","ios":"levelo://app?vid=8b3677d2-ba45-46d5-8680-59b39c3c55a8"},"vehicle_type_id":"4","last_reported":1700413531,"current_range_meters":8000,"station_id":"","pricing_plan_id":"free"},{"bike_id":"09ccbac6-0f01-4cfb-8bb8-da5484277d5c","system_id":"levelo_inurba_marseille","lat":43.31956,"lon":5.3711,"is_reserved":false,"is_disabled":false,"rental_uris":{"android":"levelo://app?vid=09ccbac6-0f01-4cfb-8bb8-da5484277d5c","ios":"levelo://app?vid=09ccbac6-0f01-4cfb-8bb8-da5484277d5c"},"vehicle_type_id":"4","last_reported":1700413531,"current_range_meters":0,"station_id":"","pricing_plan_id":"free"},{"bike_id":"11d20f57-e626-40f7-b219-7a8e7dfc3e7e","system_id":"levelo_inurba_marseille","lat":43.30602,"lon":5.3723,"is_reserved":false,"is_disabled":false,"rental_uris":{"android":"levelo://app?vid=11d20f57-e626-40f7-b219-7a8e7dfc3e7e","ios":"levelo://app?vid=11d20f57-e626-40f7-b219-7a8e7dfc3e7e"},"vehicle_type_id":"4","last_reported":1700413531,"current_range_meters":8400,"station_id":"ce4bgqh2rcd13ifvqc4g","pricing_plan_id":"free"},{"bike_id":"861e1d0f-5c0a-4552-9fc8-8662f5a50fe3","system_id":"levelo_inurba_marseille","lat":43.305989,"lon":5.37225,"is_reserved":false,"is_disabled":false,"rental_uris":{"android":"levelo://app?vid=861e1d0f-5c0a-4552-9fc8-8662f5a50fe3","ios":"levelo://app?vid=861e1d0f-5c0a-4552-9fc8-8662f5a50fe3"},"vehicle_type_id":"4","last_reported":1700413531,"current_range_meters":400,"station_id":"ce4bgqh2rcd13ifvqc4g","pricing_plan_id":"free"},{"bike_id":"a9efa60e-4b02-4d33-acaf-9ed7470c8e6e","system_id":"levelo_inurba_marseille","lat":43.311125,"lon":5.377624,"is_reserved":false,"is_disabled":false,"rental_uris":{"android":"levelo://app?vid=a9efa60e-4b02-4d33-acaf-9ed7470c8e6e","ios":"levelo://app?vid=a9efa60e-4b02-4d33-acaf-9ed7470c8e6e"},"vehicle_type_id":"4","last_reported":1700413531,"current_range_meters":8000,"station_id":"ce4bgt92rcd13ifvqcg0","pricing_plan_id":"free"},{"bike_id":"f501362c-2c9e-4252-adae-b3465b15c47f","system_id":"levelo_inurba_marseille","lat":43.311125,"lon":5.377624,"is_reserved":false,"is_disabled":false,"rental_uris":{"android":"levelo://app?vid=f501362c-2c9e-4252-adae-b3465b15c47f","ios":"levelo://app?vid=f501362c-2c9e-4252-adae-b3465b15c47f"},"vehicle_type_id":"4","last_reported":1700413531,"current_range_meters":4400,"station_id":"ce4bgt92rcd13ifvqcg0","pricing_plan_id":"free"},{"bike_id":"c2c9bef7-43f4-4ff2-b4ba-d29dcbbbf385","system_id":"levelo_inurba_marseille","lat":43.30786,"lon":5.37651,"is_reserved":false,"is_disabled":false,"rental_uris":{"android":"levelo://app?vid=c2c9bef7-43f4-4ff2-b4ba-d29dcbbbf385","ios":"levelo://app?vid=c2c9bef7-43f4-4ff2-b4ba-d29dcbbbf385"},"vehicle_type_id":"4","last_reported":1700413531,"current_range_meters":9200,"station_id":"ce4bgv92rcd13ifvqcq0","pricing_plan_id":"free"},{"bike_id":"10e31041-5ba2-4190-bc07-959d9ec365c9","system_id":"levelo_inurba_marseille","lat":43.3153,"lon":5.3803,"is_reserved":false,"is_disabled":false,"rental_uris":{"android":"levelo://app?vid=10e31041-5ba2-4190-bc07-959d9ec365c9","ios":"levelo://app?vid=10e31041-5ba2-4190-bc07-959d9ec365c9"},"vehicle_type_id":"4","last_reported":1700413531,"current_range_meters":14400,"station_id":"ce4bhsp2rcd13ifvqi50","pricing_plan_id":"free"},{"bike_id":"1fd19228-2686-4b1c-ac35-708571d84db1","system_id":"levelo_inurba_marseille","lat":43.315267,"lon":5.380357,"is_reserved":false,"is_disabled":false,"rental_uris":{"android":"levelo://app?vid=1fd19228-2686-4b1c-ac35-708571d84db1","ios":"levelo://app?vid=1fd19228-2686-4b1c-ac35-708571d84db1"},"vehicle_type_id":"4","last_reported":1700413531,"current_range_meters":28000,"station_id":"ce4bhsp2rcd13ifvqi50","pricing_plan_id":"free"},{"bike_id":"c1b6f7bd-7ece-4b07-acb1-5c9f9e2474c0","system_id":"levelo_inurba_marseille","lat":43.321803,"lon":5.375063,"is_reserved":false,"is_disabled":false,"rental_uris":{"android":"levelo://app?vid=c1b6f7bd-7ece-4b07-acb1-5c9f9e2474c0","ios":"levelo://app?vid=c1b6f7bd-7ece-4b07-acb1-5c9f9e2474c0"},"vehicle_type_id":"4","last_reported":1700413531,"current_range_meters":27600,"station_id":"","pricing_plan_id":"free"},{"bike_id":"e567ebc0-3406-4d87-8ff2-63d76771d29e","system_id":"levelo_inurba_marseille","lat":43.301939,"lon":5.366286,"is_reserved":false,"is_disabled":false,"rental_uris":{"android":"levelo://app?vid=e567ebc0-3406-4d87-8ff2-63d76771d29e","ios":"levelo://app?vid=e567ebc0-3406-4d87-8ff2-63d76771d29e"},"vehicle_type_id":"4","last_reported":1700413531,"current_range_meters":2400,"station_id":"ce4bgrh2rcd13ifvqc8g","pricing_plan_id":"free"},{"bike_id":"474bcbf0-237c-418d-9e4c-836e056ef351","system_id":"levelo_inurba_marseille","lat":43.307964,"lon":5.381459,"is_reserved":false,"is_disabled":false,"rental_uris":{"android":"levelo://app?vid=474bcbf0-237c-418d-9e4c-836e056ef351","ios":"levelo://app?vid=474bcbf0-237c-418d-9e4c-836e056ef351"},"vehicle_type_id":"4","last_reported":1700413531,"current_range_meters":11600,"station_id":"ce4bgt12rcd13ifvqce0","pricing_plan_id":"free"},{"bike_id":"b04be179-720f-4ca6-b872-77f62dc950b3","system_id":"levelo_inurba_marseille","lat":43.30454,"lon":5.37899,"is_reserved":false,"is_disabled":false,"rental_uris":{"android":"levelo://app?vid=b04be179-720f-4ca6-b872-77f62dc950b3","ios":"levelo://app?vid=b04be179-720f-4ca6-b872-77f62dc950b3"},"vehicle_type_id":"4","last_reported":1700413531,"current_range_meters":6800,"station_id":"ce4bgup2rcd13ifvqcn0","pricing_plan_id":"free"},{"bike_id":"3a722b20-8d9a-4ed7-bed2-82edca53ad10","system_id":"levelo_inurba_marseille","lat":43.324771,"lon":5.36557,"is_reserved":false,"is_disabled":false,"rental_uris":{"android":"levelo://app?vid=3a722b20-8d9a-4ed7-bed2-82edca53ad10","ios":"levelo://app?vid=3a722b20-8d9a-4ed7-bed2-82edca53ad10"},"vehicle_type_id":"4","last_reported":1700413531,"current_range_meters":14400,"station_id":"ce4bhs12rcd13ifvqhvg","pricing_plan_id":"free"},{"bike_id":"8c6b9948-2f23-41f5-967e-cd18cc963390","system_id":"levelo_inurba_marseille","lat":43.32475,"lon":5.36562,"is_reserved":false,"is_disabled":false,"rental_uris":{"android":"levelo://app?vid=8c6b9948-2f23-41f5-967e-cd18cc963390","ios":"levelo://app?vid=8c6b9948-2f23-41f5-967e-cd18cc963390"},"vehicle_type_id":"4","last_reported":1700413531,"current_range_meters":14400,"station_id":"ce4bhs12rcd13ifvqhvg","pricing_plan_id":"free"},{"bike_id":"054aef0e-9657-4f62-b96b-87c4bbc0e857","system_id":"levelo_inurba_marseille","lat":43.299724,"lon":5.371829,"is_reserved":false,"is_disabled":false,"rental_uris":{"android":"levelo://app?vid=054aef0e-9657-4f62-b96b-87c4bbc0e857","ios":"levelo://app?vid=054aef0e-9657-4f62-b96b-87c4bbc0e857"},"vehicle_type_id":"4","last_reported":1700413531,"current_range_meters":5600,"station_id":"ce4bgr92rcd13ifvqc7g","pricing_plan_id":"free"},{"bike_id":"600fb86f-a38a-4186-b409-eca67953d682","system_id":"levelo_inurba_marseille","lat":43.299724,"lon":5.371829,"is_reserved":false,"is_disabled":false,"rental_uris":{"android":"levelo://app?vid=600fb86f-a38a-4186-b409-eca67953d682","ios":"levelo://app?vid=600fb86f-a38a-4186-b409-eca67953d682"},"vehicle_type_id":"4","last_reported":1700413531,"current_range_meters":13600,"station_id":"ce4bgr92rcd13ifvqc7g","pricing_plan_id":"free"},{"bike_id":"b9000817-e72c-4201-ab98-4258c4497643","system_id":"levelo_inurba_marseille","lat":43.299724,"lon":5.371829,"is_reserved":false,"is_disabled":false,"rental_uris":{"android":"levelo://app?vid=b9000817-e72c-4201-ab98-4258c4497643","ios":"levelo://app?vid=b9000817-e72c-4201-ab98-4258c4497643"},"vehicle_type_id":"4","last_reported":1700413531,"current_range_meters":20800,"station_id":"ce4bgr92rcd13ifvqc7g","pricing_plan_id":"free"},{"bike_id":"5da9dea2-bd9f-4746-b637-56e44ea9e587","system_id":"levelo_inurba_marseille","lat":43.298489,"lon":5.362942,"is_reserved":false,"is_disabled":false,"rental_uris":{"android":"levelo://app?vid=5da9dea2-bd9f-4746-b637-56e44ea9e587","ios":"levelo://app?vid=5da9dea2-bd9f-4746-b637-56e44ea9e587"},"vehicle_type_id":"4","last_reported":1700413531,"current_range_meters":0,"station_id":"","pricing_plan_id":"free"},{"bike_id":"6c5d7580-0af2-4711-aac6-b10b4ab61119","system_id":"levelo_inurba_marseille","lat":43.297847,"lon":5.372297,"is_reserved":false,"is_disabled":false,"rental_uris":{"android":"levelo://app?vid=6c5d7580-0af2-4711-aac6-b10b4ab61119","ios":"levelo://app?vid=6c5d7580-0af2-4711-aac6-b10b4ab61119"},"vehicle_type_id":"4","last_reported":1700413531,"current_range_meters":0,"station_id":"","pricing_plan_id":"free"},{"bike_id":"e5c30010-bab4-4fba-b633-780bc1a27fa9","system_id":"levelo_inurba_marseille","lat":43.328371,"lon":5.366909,"is_reserved":false,"is_disabled":false,"rental_uris":{"android":"levelo://app?vid=e5c30010-bab4-4fba-b633-780bc1a27fa9","ios":"levelo://app?vid=e5c30010-bab4-4fba-b633-780bc1a27fa9"},"vehicle_type_id":"4","last_reported":1700413531,"current_range_meters":3200,"station_id":"ce4bhs92rcd13ifvqi0g","pricing_plan_id":"free"},{"bike_id":"3292b1a5-f5bf-414e-baec-46399ca2dad8","system_id":"levelo_inurba_marseille","lat":43.297163,"lon":5.365866,"is_reserved":false,"is_disabled":false,"rental_uris":{"android":"levelo://app?vid=3292b1a5-f5bf-414e-baec-46399ca2dad8","ios":"levelo://app?vid=3292b1a5-f5bf-414e-baec-46399ca2dad8"},"vehicle_type_id":"4","last_reported":1700413531,"current_range_meters":24800,"station_id":"ce4bgn12rcd13ifvqbt0","pricing_plan_id":"free"},{"bike_id":"2a07802c-16d5-4104-9ab3-93ca6dd62601","system_id":"levelo_inurba_marseille","lat":43.29601,"lon":5.368027,"is_reserved":false,"is_disabled":false,"rental_uris":{"android":"levelo://app?vid=2a07802c-16d5-4104-9ab3-93ca6dd62601","ios":"levelo://app?vid=2a07802c-16d5-4104-9ab3-93ca6dd62601"},"vehicle_type_id":"4","last_reported":1700413531,"current_range_meters":26000,"station_id":"","pricing_plan_id":"free"},{"bike_id":"79fcec29-cc31-487d-9cd2-33307117107b","system_id":"levelo_inurba_marseille","lat":43.296935,"lon":5.376544,"is_reserved":false,"is_disabled":false,"rental_uris":{"android":"levelo://app?vid=79fcec29-cc31-487d-9cd2-33307117107b","ios":"levelo://app?vid=79fcec29-cc31-487d-9cd2-33307117107b"},"vehicle_type_id":"4","last_reported":1700413531,"current_range_meters":0,"station_id":"ce4bgkh2rcd13ifvqbl0","pricing_plan_id":"free"},{"bike_id":"67ffd28a-0325-489b-a10f-d90500122751","system_id":"levelo_inurba_marseille","lat":43.295748,"lon":5.37522,"is_reserved":false,"is_disabled":false,"rental_uris":{"android":"levelo://app?vid=67ffd28a-0325-489b-a10f-d90500122751","ios":"levelo://app?vid=67ffd28a-0325-489b-a10f-d90500122751"},"vehicle_type_id":"4","last_reported":1700413531,"current_range_meters":30400,"station_id":"ce4bgh92rcd13ifvqb50","pricing_plan_id":"free"},{"bike_id":"bd088fff-8bb2-45d4-b874-d28b943683d6","system_id":"levelo_inurba_marseille","lat":43.29626,"lon":5.37718,"is_reserved":false,"is_disabled":false,"rental_uris":{"android":"levelo://app?vid=bd088fff-8bb2-45d4-b874-d28b943683d6","ios":"levelo://app?vid=bd088fff-8bb2-45d4-b874-d28b943683d6"},"vehicle_type_id":"4","last_reported":1700413531,"current_range_meters":0,"station_id":"ce4bgi92rcd13ifvqb90","pricing_plan_id":"free"},{"bike_id":"3e3e92fe-39b7-4933-99ff-3747b28b5d69","system_id":"levelo_inurba_marseille","lat":43.328154,"lon":5.380034,"is_reserved":false,"is_disabled":false,"rental_uris":{"android":"levelo://app?vid=3e3e92fe-39b7-4933-99ff-3747b28b5d69","ios":"levelo://app?vid=3e3e92fe-39b7-4933-99ff-3747b28b5d69"},"vehicle_type_id":"4","last_reported":1700413531,"current_range_meters":5200,"station_id":"","pricing_plan_id":"free"},{"bike_id":"52545b31-1eae-4e29-a3bd-591ddc1202d8","system_id":"levelo_inurba_marseille","lat":43.29978,"lon":5.38484,"is_reserved":false,"is_disabled":false,"rental_uris":{"android":"levelo://app?vid=52545b31-1eae-4e29-a3bd-591ddc1202d8","ios":"levelo://app?vid=52545b31-1eae-4e29-a3bd-591ddc1202d8"},"vehicle_type_id":"4","last_reported":1700413531,"current_range_meters":0,"station_id":"ce4bgj92rcd13ifvqbd0","pricing_plan_id":"free"},{"bike_id":"8a07d23e-4e38-4621-abf5-a9e12ba2286b","system_id":"levelo_inurba_marseille","lat":43.299717,"lon":5.384845,"is_reserved":false,"is_disabled":false,"rental_uris":{"android":"levelo://app?vid=8a07d23e-4e38-4621-abf5-a9e12ba2286b","ios":"levelo://app?vid=8a07d23e-4e38-4621-abf5-a9e12ba2286b"},"vehicle_type_id":"4","last_reported":1700413531,"current_range_meters":22800,"station_id":"ce4bgj92rcd13ifvqbd0","pricing_plan_id":"free"},{"bike_id":"ea73da57-5f54-4776-b1c1-58a9bc964bc6","system_id":"levelo_inurba_marseille","lat":43.299717,"lon":5.384845,"is_reserved":false,"is_disabled":false,"rental_uris":{"android":"levelo://app?vid=ea73da57-5f54-4776-b1c1-58a9bc964bc6","ios":"levelo://app?vid=ea73da57-5f54-4776-b1c1-58a9bc964bc6"},"vehicle_type_id":"4","last_reported":1700413531,"current_range_meters":19600,"station_id":"ce4bgj92rcd13ifvqbd0","pricing_plan_id":"free"},{"bike_id":"e145a3f7-00ac-4f8f-bfe5-435bc38ccaf7","system_id":"levelo_inurba_marseille","lat":43.293801,"lon":5.363066,"is_reserved":false,"is_disabled":false,"rental_uris":{"android":"levelo://app?vid=e145a3f7-00ac-4f8f-bfe5-435bc38ccaf7","ios":"levelo://app?vid=e145a3f7-00ac-4f8f-bfe5-435bc38ccaf7"},"vehicle_type_id":"4","last_reported":1700413531,"current_range_meters":23200,"station_id":"","pricing_plan_id":"free"},{"bike_id":"489990f3-8349-455a-830c-7dc558db125e","system_id":"levelo_inurba_marseille","lat":43.32366,"lon":5.38882,"is_reserved":false,"is_disabled":false,"rental_uris":{"android":"levelo://app?vid=489990f3-8349-455a-830c-7dc558db125e","ios":"levelo://app?vid=489990f3-8349-455a-830c-7dc558db125e"},"vehicle_type_id":"4","last_reported":1700413531,"current_range_meters":0,"station_id":"ce4bhqp2rcd13ifvqhog","pricing_plan_id":"free"},{"bike_id":"b829a9e8-4ed3-47c1-a6e9-b4dc18948f11","system_id":"levelo_inurba_marseille","lat":43.29601,"lon":5.381084,"is_reserved":false,"is_disabled":false,"rental_uris":{"android":"levelo://app?vid=b829a9e8-4ed3-47c1-a6e9-b4dc18948f11","ios":"levelo://app?vid=b829a9e8-4ed3-47c1-a6e9-b4dc18948f11"},"vehicle_type_id":"4","last_reported":1700413531,"current_range_meters":0,"station_id":"ce4bgl12rcd13ifvqbo0","pricing_plan_id":"free"},{"bike_id":"4eef38cc-64cf-4f4d-8d5b-99bd9d3b1b37","system_id":"levelo_inurba_marseille","lat":43.293163,"lon":5.371201,"is_reserved":false,"is_disabled":false,"rental_uris":{"android":"levelo://app?vid=4eef38cc-64cf-4f4d-8d5b-99bd9d3b1b37","ios":"levelo://app?vid=4eef38cc-64cf-4f4d-8d5b-99bd9d3b1b37"},"vehicle_type_id":"4","last_reported":1700413531,"current_range_meters":24000,"station_id":"ce4bgh92rcd13ifvqb40","pricing_plan_id":"free"},{"bike_id":"aaa1a402-42b2-4c50-a37e-6660bf78a806","system_id":"levelo_inurba_marseille","lat":43.293009,"lon":5.374584,"is_reserved":false,"is_disabled":false,"rental_uris":{"android":"levelo://app?vid=aaa1a402-42b2-4c50-a37e-6660bf78a806","ios":"levelo://app?vid=aaa1a402-42b2-4c50-a37e-6660bf78a806"},"vehicle_type_id":"4","last_reported":1700413531,"current_range_meters":20800,"station_id":"ce4bgi12rcd13ifvqb70","pricing_plan_id":"free"},{"bike_id":"31b59690-d213-4342-990e-66221bba3e76","system_id":"levelo_inurba_marseille","lat":43.293009,"lon":5.374584,"is_reserved":false,"is_disabled":false,"rental_uris":{"android":"levelo://app?vid=31b59690-d213-4342-990e-66221bba3e76","ios":"levelo://app?vid=31b59690-d213-4342-990e-66221bba3e76"},"vehicle_type_id":"4","last_reported":1700413531,"current_range_meters":18800,"station_id":"ce4bgi12rcd13ifvqb70","pricing_plan_id":"free"},{"bike_id":"f4deb3e3-624c-418e-b6ae-7439bb72d615","system_id":"levelo_inurba_marseille","lat":43.293009,"lon":5.374584,"is_reserved":false,"is_disabled":false,"rental_uris":{"android":"levelo://app?vid=f4deb3e3-624c-418e-b6ae-7439bb72d615","ios":"levelo://app?vid=f4deb3e3-624c-418e-b6ae-7439bb72d615"},"vehicle_type_id":"4","last_reported":1700413531,"current_range_meters":7600,"station_id":"ce4bgi12rcd13ifvqb70","pricing_plan_id":"free"},{"bike_id":"d353176a-7ac7-443c-8b49-dbe4782e0109","system_id":"levelo_inurba_marseille","lat":43.293009,"lon":5.374584,"is_reserved":false,"is_disabled":false,"rental_uris":{"android":"levelo://app?vid=d353176a-7ac7-443c-8b49-dbe4782e0109","ios":"levelo://app?vid=d353176a-7ac7-443c-8b49-dbe4782e0109"},"vehicle_type_id":"4","last_reported":1700413531,"current_range_meters":22400,"station_id":"ce4bgi12rcd13ifvqb70","pricing_plan_id":"free"},{"bike_id":"9b126b6a-156c-4f0e-b082-b90ca477e6ee","system_id":"levelo_inurba_marseille","lat":43.293009,"lon":5.374584,"is_reserved":false,"is_disabled":false,"rental_uris":{"android":"levelo://app?vid=9b126b6a-156c-4f0e-b082-b90ca477e6ee","ios":"levelo://app?vid=9b126b6a-156c-4f0e-b082-b90ca477e6ee"},"vehicle_type_id":"4","last_reported":1700413531,"current_range_meters":26400,"station_id":"ce4bgi12rcd13ifvqb70","pricing_plan_id":"free"},{"bike_id":"1004fbe8-34c7-4331-92f0-24053e6bbf06","system_id":"levelo_inurba_marseille","lat":43.292311,"lon":5.360731,"is_reserved":false,"is_disabled":false,"rental_uris":{"android":"levelo://app?vid=1004fbe8-34c7-4331-92f0-24053e6bbf06","ios":"levelo://app?vid=1004fbe8-34c7-4331-92f0-24053e6bbf06"},"vehicle_type_id":"4","last_reported":1700413531,"current_range_meters":0,"station_id":"ce4bhbh2rcd13ifvqeqg","pricing_plan_id":"free"},{"bike_id":"32c9f664-59b7-4694-bee2-4a2f96f515a4","system_id":"levelo_inurba_marseille","lat":43.291671,"lon":5.371575,"is_reserved":false,"is_disabled":false,"rental_uris":{"android":"levelo://app?vid=32c9f664-59b7-4694-bee2-4a2f96f515a4","ios":"levelo://app?vid=32c9f664-59b7-4694-bee2-4a2f96f515a4"},"vehicle_type_id":"4","last_reported":1700413531,"current_range_meters":16000,"station_id":"ce4bha92rcd13ifvqeh0","pricing_plan_id":"free"},{"bike_id":"7b914981-24b3-4922-965a-fc735a4e502f","system_id":"levelo_inurba_marseille","lat":43.291675,"lon":5.371583,"is_reserved":false,"is_disabled":false,"rental_uris":{"android":"levelo://app?vid=7b914981-24b3-4922-965a-fc735a4e502f","ios":"levelo://app?vid=7b914981-24b3-4922-965a-fc735a4e502f"},"vehicle_type_id":"4","last_reported":1700413531,"current_range_meters":10800,"station_id":"ce4bha92rcd13ifvqeh0","pricing_plan_id":"free"},{"bike_id":"a951fa6f-93a0-4f13-af08-6a33792ed0e1","system_id":"levelo_inurba_marseille","lat":43.3133,"lon":5.39688,"is_reserved":false,"is_disabled":false,"rental_uris":{"android":"levelo://app?vid=a951fa6f-93a0-4f13-af08-6a33792ed0e1","ios":"levelo://app?vid=a951fa6f-93a0-4f13-af08-6a33792ed0e1"},"vehicle_type_id":"4","last_reported":1700413531,"current_range_meters":6000,"station_id":"ce4bgvp2rcd13ifvqcu0","pricing_plan_id":"free"},{"bike_id":"b6ff24c0-2a13-44a7-af34-ee87a9d6f2d3","system_id":"levelo_inurba_marseille","lat":43.31334,"lon":5.39693,"is_reserved":false,"is_disabled":false,"rental_uris":{"android":"levelo://app?vid=b6ff24c0-2a13-44a7-af34-ee87a9d6f2d3","ios":"levelo://app?vid=b6ff24c0-2a13-44a7-af34-ee87a9d6f2d3"},"vehicle_type_id":"4","last_reported":1700413531,"current_range_meters":2000,"station_id":"ce4bgvp2rcd13ifvqcu0","pricing_plan_id":"free"},{"bike_id":"98d6b48b-4b6a-4f15-bd62-92511ff67d4e","system_id":"levelo_inurba_marseille","lat":43.313291,"lon":5.396838,"is_reserved":false,"is_disabled":false,"rental_uris":{"android":"levelo://app?vid=98d6b48b-4b6a-4f15-bd62-92511ff67d4e","ios":"levelo://app?vid=98d6b48b-4b6a-4f15-bd62-92511ff67d4e"},"vehicle_type_id":"4","last_reported":1700413531,"current_range_meters":4000,"station_id":"ce4bgvp2rcd13ifvqcu0","pricing_plan_id":"free"},{"bike_id":"5dcfbae8-1882-4881-a573-a24e81b35ed9","system_id":"levelo_inurba_marseille","lat":43.309047,"lon":5.396551,"is_reserved":false,"is_disabled":false,"rental_uris":{"android":"levelo://app?vid=5dcfbae8-1882-4881-a573-a24e81b35ed9","ios":"levelo://app?vid=5dcfbae8-1882-4881-a573-a24e81b35ed9"},"vehicle_type_id":"4","last_reported":1700413531,"current_range_meters":4000,"station_id":"ce4bh012rcd13ifvqcv0","pricing_plan_id":"free"},{"bike_id":"dbe6c90a-5c17-4d0c-86e7-13fc13b45d68","system_id":"levelo_inurba_marseille","lat":43.29529,"lon":5.385581,"is_reserved":false,"is_disabled":false,"rental_uris":{"android":"levelo://app?vid=dbe6c90a-5c17-4d0c-86e7-13fc13b45d68","ios":"levelo://app?vid=dbe6c90a-5c17-4d0c-86e7-13fc13b45d68"},"vehicle_type_id":"4","last_reported":1700413531,"current_range_meters":14800,"station_id":"ce4bgih2rcd13ifvqba0","pricing_plan_id":"free"},{"bike_id":"334ff945-90f0-4ce3-acac-b5c329b9cc8d","system_id":"levelo_inurba_marseille","lat":43.29529,"lon":5.385581,"is_reserved":false,"is_disabled":false,"rental_uris":{"android":"levelo://app?vid=334ff945-90f0-4ce3-acac-b5c329b9cc8d","ios":"levelo://app?vid=334ff945-90f0-4ce3-acac-b5c329b9cc8d"},"vehicle_type_id":"4","last_reported":1700413531,"current_range_meters":19600,"station_id":"ce4bgih2rcd13ifvqba0","pricing_plan_id":"free"},{"bike_id":"6ba2359d-96f1-4bbf-badf-ba5d82b14e71","system_id":"levelo_inurba_marseille","lat":43.292642,"lon":5.384254,"is_reserved":false,"is_disabled":false,"rental_uris":{"android":"levelo://app?vid=6ba2359d-96f1-4bbf-badf-ba5d82b14e71","ios":"levelo://app?vid=6ba2359d-96f1-4bbf-badf-ba5d82b14e71"},"vehicle_type_id":"4","last_reported":1700413531,"current_range_meters":0,"station_id":"ce4bh692rcd13ifvqea0","pricing_plan_id":"free"},{"bike_id":"075e87cd-c1cd-4444-bc43-a924b4b84114","system_id":"levelo_inurba_marseille","lat":43.302008,"lon":5.394694,"is_reserved":false,"is_disabled":false,"rental_uris":{"android":"levelo://app?vid=075e87cd-c1cd-4444-bc43-a924b4b84114","ios":"levelo://app?vid=075e87cd-c1cd-4444-bc43-a924b4b84114"},"vehicle_type_id":"4","last_reported":1700413531,"current_range_meters":18800,"station_id":"ce4bh0p2rcd13ifvqd70","pricing_plan_id":"free"},{"bike_id":"890cb403-a3f8-4f94-a9ee-67ea788cfae1","system_id":"levelo_inurba_marseille","lat":43.290327,"lon":5.375711,"is_reserved":false,"is_disabled":false,"rental_uris":{"android":"levelo://app?vid=890cb403-a3f8-4f94-a9ee-67ea788cfae1","ios":"levelo://app?vid=890cb403-a3f8-4f94-a9ee-67ea788cfae1"},"vehicle_type_id":"4","last_reported":1700413531,"current_range_meters":0,"station_id":"ce4bh692rcd13ifvqe90","pricing_plan_id":"free"},{"bike_id":"f61a3f67-8073-486b-a180-a975a158b53e","system_id":"levelo_inurba_marseille","lat":43.292644,"lon":5.384257,"is_reserved":false,"is_disabled":false,"rental_uris":{"android":"levelo://app?vid=f61a3f67-8073-486b-a180-a975a158b53e","ios":"levelo://app?vid=f61a3f67-8073-486b-a180-a975a158b53e"},"vehicle_type_id":"4","last_reported":1700413531,"current_range_meters":10000,"station_id":"ce4bh692rcd13ifvqea0","pricing_plan_id":"free"},{"bike_id":"7f27b0e4-3e40-4178-9c31-e3887a4ed484","system_id":"levelo_inurba_marseille","lat":43.295169,"lon":5.390426,"is_reserved":false,"is_disabled":false,"rental_uris":{"android":"levelo://app?vid=7f27b0e4-3e40-4178-9c31-e3887a4ed484","ios":"levelo://app?vid=7f27b0e4-3e40-4178-9c31-e3887a4ed484"},"vehicle_type_id":"4","last_reported":1700413531,"current_range_meters":0,"station_id":"ce4bh3p2rcd13ifvqdp0","pricing_plan_id":"free"},{"bike_id":"79734513-9a3c-45d5-afae-9ce10c030c8b","system_id":"levelo_inurba_marseille","lat":43.29022,"lon":5.38138,"is_reserved":false,"is_disabled":false,"rental_uris":{"android":"levelo://app?vid=79734513-9a3c-45d5-afae-9ce10c030c8b","ios":"levelo://app?vid=79734513-9a3c-45d5-afae-9ce10c030c8b"},"vehicle_type_id":"4","last_reported":1700413531,"current_range_meters":0,"station_id":"ce4bh4p2rcd13ifvqe1g","pricing_plan_id":"free"},{"bike_id":"07202f70-50d7-46f0-a5bd-59712659d6a0","system_id":"levelo_inurba_marseille","lat":43.31251,"lon":5.40162,"is_reserved":false,"is_disabled":false,"rental_uris":{"android":"levelo://app?vid=07202f70-50d7-46f0-a5bd-59712659d6a0","ios":"levelo://app?vid=07202f70-50d7-46f0-a5bd-59712659d6a0"},"vehicle_type_id":"4","last_reported":1700413531,"current_range_meters":10400,"station_id":"","pricing_plan_id":"free"},{"bike_id":"2a1bbec9-609b-4536-94c8-4b2d1d295c31","system_id":"levelo_inurba_marseille","lat":43.312759,"lon":5.401721,"is_reserved":false,"is_disabled":false,"rental_uris":{"android":"levelo://app?vid=2a1bbec9-609b-4536-94c8-4b2d1d295c31","ios":"levelo://app?vid=2a1bbec9-609b-4536-94c8-4b2d1d295c31"},"vehicle_type_id":"4","last_reported":1700413531,"current_range_meters":28400,"station_id":"ce4bh092rcd13ifvqd30","pricing_plan_id":"free"},{"bike_id":"f18875a1-377a-4e6b-9880-9e26e8143c33","system_id":"levelo_inurba_marseille","lat":43.30928,"lon":5.40141,"is_reserved":false,"is_disabled":false,"rental_uris":{"android":"levelo://app?vid=f18875a1-377a-4e6b-9880-9e26e8143c33","ios":"levelo://app?vid=f18875a1-377a-4e6b-9880-9e26e8143c33"},"vehicle_type_id":"4","last_reported":1700413531,"current_range_meters":30000,"station_id":"ce4bgvp2rcd13ifvqct0","pricing_plan_id":"free"},{"bike_id":"35dd36bb-1653-44e1-a609-26a1a240d27d","system_id":"levelo_inurba_marseille","lat":43.33744,"lon":5.37472,"is_reserved":false,"is_disabled":false,"rental_uris":{"android":"levelo://app?vid=35dd36bb-1653-44e1-a609-26a1a240d27d","ios":"levelo://app?vid=35dd36bb-1653-44e1-a609-26a1a240d27d"},"vehicle_type_id":"4","last_reported":1700413531,"current_range_meters":22800,"station_id":"","pricing_plan_id":"free"},{"bike_id":"c1376eed-08c6-4220-8e0b-c2b7698a9c8b","system_id":"levelo_inurba_marseille","lat":43.309371,"lon":5.401449,"is_reserved":false,"is_disabled":false,"rental_uris":{"android":"levelo://app?vid=c1376eed-08c6-4220-8e0b-c2b7698a9c8b","ios":"levelo://app?vid=c1376eed-08c6-4220-8e0b-c2b7698a9c8b"},"vehicle_type_id":"4","last_reported":1700413531,"current_range_meters":18000,"station_id":"ce4bgvp2rcd13ifvqct0","pricing_plan_id":"free"},{"bike_id":"473d2011-ae75-4743-87c2-eb53e5b85a28","system_id":"levelo_inurba_marseille","lat":43.337668,"lon":5.374314,"is_reserved":false,"is_disabled":false,"rental_uris":{"android":"levelo://app?vid=473d2011-ae75-4743-87c2-eb53e5b85a28","ios":"levelo://app?vid=473d2011-ae75-4743-87c2-eb53e5b85a28"},"vehicle_type_id":"4","last_reported":1700413531,"current_range_meters":20800,"station_id":"","pricing_plan_id":"free"},{"bike_id":"46509513-12f0-4bae-91ab-3b5bb7ed22cf","system_id":"levelo_inurba_marseille","lat":43.337737,"lon":5.374275,"is_reserved":false,"is_disabled":false,"rental_uris":{"android":"levelo://app?vid=46509513-12f0-4bae-91ab-3b5bb7ed22cf","ios":"levelo://app?vid=46509513-12f0-4bae-91ab-3b5bb7ed22cf"},"vehicle_type_id":"4","last_reported":1700413531,"current_range_meters":18800,"station_id":"","pricing_plan_id":"free"},{"bike_id":"759a104d-579c-415f-83ad-149693d9a6c7","system_id":"levelo_inurba_marseille","lat":43.301117,"lon":5.398795,"is_reserved":false,"is_disabled":false,"rental_uris":{"android":"levelo://app?vid=759a104d-579c-415f-83ad-149693d9a6c7","ios":"levelo://app?vid=759a104d-579c-415f-83ad-149693d9a6c7"},"vehicle_type_id":"4","last_reported":1700413531,"current_range_meters":0,"station_id":"ce4bh0h2rcd13ifvqd40","pricing_plan_id":"free"},{"bike_id":"cff28788-e504-409d-96e3-bf274410e69a","system_id":"levelo_inurba_marseille","lat":43.298681,"lon":5.397225,"is_reserved":false,"is_disabled":false,"rental_uris":{"android":"levelo://app?vid=cff28788-e504-409d-96e3-bf274410e69a","ios":"levelo://app?vid=cff28788-e504-409d-96e3-bf274410e69a"},"vehicle_type_id":"4","last_reported":1700413531,"current_range_meters":15200,"station_id":"ce4bh0h2rcd13ifvqd50","pricing_plan_id":"free"},{"bike_id":"668a58be-3b97-49b0-8ecb-a2d5b16ce93b","system_id":"levelo_inurba_marseille","lat":43.286591,"lon":5.363346,"is_reserved":false,"is_disabled":false,"rental_uris":{"android":"levelo://app?vid=668a58be-3b97-49b0-8ecb-a2d5b16ce93b","ios":"levelo://app?vid=668a58be-3b97-49b0-8ecb-a2d5b16ce93b"},"vehicle_type_id":"4","last_reported":1700413531,"current_range_meters":25200,"station_id":"ce4bhah2rcd13ifvqej0","pricing_plan_id":"free"},{"bike_id":"dbd913e4-4867-4904-adb9-4e6e6fd601ff","system_id":"levelo_inurba_marseille","lat":43.28694,"lon":5.37398,"is_reserved":false,"is_disabled":false,"rental_uris":{"android":"levelo://app?vid=dbd913e4-4867-4904-adb9-4e6e6fd601ff","ios":"levelo://app?vid=dbd913e4-4867-4904-adb9-4e6e6fd601ff"},"vehicle_type_id":"4","last_reported":1700413531,"current_range_meters":0,"station_id":"ce4bh3p2rcd13ifvqdq0","pricing_plan_id":"free"},{"bike_id":"94af4777-9f88-4725-942e-05bce111beec","system_id":"levelo_inurba_marseille","lat":43.302759,"lon":5.400793,"is_reserved":false,"is_disabled":false,"rental_uris":{"android":"levelo://app?vid=94af4777-9f88-4725-942e-05bce111beec","ios":"levelo://app?vid=94af4777-9f88-4725-942e-05bce111beec"},"vehicle_type_id":"4","last_reported":1700413531,"current_range_meters":29600,"station_id":"ce4bgvh2rcd13ifvqcs0","pricing_plan_id":"free"},{"bike_id":"d4610c03-4547-424b-adfe-edcb73be9f70","system_id":"levelo_inurba_marseille","lat":43.287184,"lon":5.37937,"is_reserved":false,"is_disabled":false,"rental_uris":{"android":"levelo://app?vid=d4610c03-4547-424b-adfe-edcb73be9f70","ios":"levelo://app?vid=d4610c03-4547-424b-adfe-edcb73be9f70"},"vehicle_type_id":"4","last_reported":1700413531,"current_range_meters":11600,"station_id":"ce4bh9p2rcd13ifvqec0","pricing_plan_id":"free"},{"bike_id":"cc8e7b9a-fe0d-4eac-bb48-eb4ab6ae18c9","system_id":"levelo_inurba_marseille","lat":43.291994,"lon":5.392907,"is_reserved":false,"is_disabled":false,"rental_uris":{"android":"levelo://app?vid=cc8e7b9a-fe0d-4eac-bb48-eb4ab6ae18c9","ios":"levelo://app?vid=cc8e7b9a-fe0d-4eac-bb48-eb4ab6ae18c9"},"vehicle_type_id":"4","last_reported":1700413531,"current_range_meters":30400,"station_id":"ce4bh192rcd13ifvqdd0","pricing_plan_id":"free"},{"bike_id":"c78040b1-9635-4149-bc17-5751d910c74c","system_id":"levelo_inurba_marseille","lat":43.284538,"lon":5.358657,"is_reserved":false,"is_disabled":false,"rental_uris":{"android":"levelo://app?vid=c78040b1-9635-4149-bc17-5751d910c74c","ios":"levelo://app?vid=c78040b1-9635-4149-bc17-5751d910c74c"},"vehicle_type_id":"4","last_reported":1700413531,"current_range_meters":31200,"station_id":"ce4bhah2rcd13ifvqei0","pricing_plan_id":"free"},{"bike_id":"f726a39d-0b8d-43c9-a2c0-353f05f898dd","system_id":"levelo_inurba_marseille","lat":43.284534,"lon":5.358662,"is_reserved":false,"is_disabled":false,"rental_uris":{"android":"levelo://app?vid=f726a39d-0b8d-43c9-a2c0-353f05f898dd","ios":"levelo://app?vid=f726a39d-0b8d-43c9-a2c0-353f05f898dd"},"vehicle_type_id":"4","last_reported":1700413531,"current_range_meters":17200,"station_id":"ce4bhah2rcd13ifvqei0","pricing_plan_id":"free"},{"bike_id":"f93b1969-8c71-4816-8f3d-5fed931088c7","system_id":"levelo_inurba_marseille","lat":43.284538,"lon":5.358657,"is_reserved":false,"is_disabled":false,"rental_uris":{"android":"levelo://app?vid=f93b1969-8c71-4816-8f3d-5fed931088c7","ios":"levelo://app?vid=f93b1969-8c71-4816-8f3d-5fed931088c7"},"vehicle_type_id":"4","last_reported":1700413531,"current_range_meters":31200,"station_id":"ce4bhah2rcd13ifvqei0","pricing_plan_id":"free"},{"bike_id":"055e5a24-2630-4fc3-a052-c7653cd10530","system_id":"levelo_inurba_marseille","lat":43.28457,"lon":5.35889,"is_reserved":false,"is_disabled":false,"rental_uris":{"android":"levelo://app?vid=055e5a24-2630-4fc3-a052-c7653cd10530","ios":"levelo://app?vid=055e5a24-2630-4fc3-a052-c7653cd10530"},"vehicle_type_id":"4","last_reported":1700413531,"current_range_meters":31200,"station_id":"ce4bhah2rcd13ifvqei0","pricing_plan_id":"free"},{"bike_id":"544ac874-a092-4fd8-a3db-98d746f4bc32","system_id":"levelo_inurba_marseille","lat":43.28616,"lon":5.351034,"is_reserved":false,"is_disabled":false,"rental_uris":{"android":"levelo://app?vid=544ac874-a092-4fd8-a3db-98d746f4bc32","ios":"levelo://app?vid=544ac874-a092-4fd8-a3db-98d746f4bc32"},"vehicle_type_id":"4","last_reported":1700413531,"current_range_meters":0,"station_id":"ce4bhch2rcd13ifvqeug","pricing_plan_id":"free"},{"bike_id":"5974ad3b-da81-42ca-a08b-1b3632a47afa","system_id":"levelo_inurba_marseille","lat":43.33237,"lon":5.3985,"is_reserved":false,"is_disabled":false,"rental_uris":{"android":"levelo://app?vid=5974ad3b-da81-42ca-a08b-1b3632a47afa","ios":"levelo://app?vid=5974ad3b-da81-42ca-a08b-1b3632a47afa"},"vehicle_type_id":"4","last_reported":1700413531,"current_range_meters":800,"station_id":"","pricing_plan_id":"free"},{"bike_id":"a9e0a99a-c2de-4be3-b6d9-a6c3576b7911","system_id":"levelo_inurba_marseille","lat":43.284793,"lon":5.384113,"is_reserved":false,"is_disabled":false,"rental_uris":{"android":"levelo://app?vid=a9e0a99a-c2de-4be3-b6d9-a6c3576b7911","ios":"levelo://app?vid=a9e0a99a-c2de-4be3-b6d9-a6c3576b7911"},"vehicle_type_id":"4","last_reported":1700413531,"current_range_meters":800,"station_id":"ce4bh512rcd13ifvqe3g","pricing_plan_id":"free"},{"bike_id":"17b6b048-e0f7-46a3-934a-0ebc913c360a","system_id":"levelo_inurba_marseille","lat":43.284787,"lon":5.384116,"is_reserved":false,"is_disabled":false,"rental_uris":{"android":"levelo://app?vid=17b6b048-e0f7-46a3-934a-0ebc913c360a","ios":"levelo://app?vid=17b6b048-e0f7-46a3-934a-0ebc913c360a"},"vehicle_type_id":"4","last_reported":1700413531,"current_range_meters":0,"station_id":"ce4bh512rcd13ifvqe3g","pricing_plan_id":"free"},{"bike_id":"eef39a7d-7182-429b-bcd2-c3099971705a","system_id":"levelo_inurba_marseille","lat":43.288497,"lon":5.393089,"is_reserved":false,"is_disabled":false,"rental_uris":{"android":"levelo://app?vid=eef39a7d-7182-429b-bcd2-c3099971705a","ios":"levelo://app?vid=eef39a7d-7182-429b-bcd2-c3099971705a"},"vehicle_type_id":"4","last_reported":1700413531,"current_range_meters":24800,"station_id":"ce4bh2p2rcd13ifvqdi0","pricing_plan_id":"free"},{"bike_id":"ef410f72-860e-4b77-9184-1c6ac50b3705","system_id":"levelo_inurba_marseille","lat":43.297946,"lon":5.404063,"is_reserved":false,"is_disabled":false,"rental_uris":{"android":"levelo://app?vid=ef410f72-860e-4b77-9184-1c6ac50b3705","ios":"levelo://app?vid=ef410f72-860e-4b77-9184-1c6ac50b3705"},"vehicle_type_id":"4","last_reported":1700413531,"current_range_meters":17200,"station_id":"ce4bh112rcd13ifvqd90","pricing_plan_id":"free"},{"bike_id":"775b1691-aee8-47b6-b573-7ae9e37a8286","system_id":"levelo_inurba_marseille","lat":43.283502,"lon":5.386471,"is_reserved":false,"is_disabled":false,"rental_uris":{"android":"levelo://app?vid=775b1691-aee8-47b6-b573-7ae9e37a8286","ios":"levelo://app?vid=775b1691-aee8-47b6-b573-7ae9e37a8286"},"vehicle_type_id":"4","last_reported":1700413531,"current_range_meters":0,"station_id":"ce4bh492rcd13ifvqdvg","pricing_plan_id":"free"},{"bike_id":"76c59a9b-19ff-4edf-b055-bed766adc5d2","system_id":"levelo_inurba_marseille","lat":43.283502,"lon":5.386471,"is_reserved":false,"is_disabled":false,"rental_uris":{"android":"levelo://app?vid=76c59a9b-19ff-4edf-b055-bed766adc5d2","ios":"levelo://app?vid=76c59a9b-19ff-4edf-b055-bed766adc5d2"},"vehicle_type_id":"4","last_reported":1700413531,"current_range_meters":22000,"station_id":"ce4bh492rcd13ifvqdvg","pricing_plan_id":"free"},{"bike_id":"dfb0235c-dc60-4c69-b0f9-6a74d8b3bb1c","system_id":"levelo_inurba_marseille","lat":43.290412,"lon":5.399633,"is_reserved":false,"is_disabled":false,"rental_uris":{"android":"levelo://app?vid=dfb0235c-dc60-4c69-b0f9-6a74d8b3bb1c","ios":"levelo://app?vid=dfb0235c-dc60-4c69-b0f9-6a74d8b3bb1c"},"vehicle_type_id":"4","last_reported":1700413531,"current_range_meters":800,"station_id":"ce4bh392rcd13ifvqdm0","pricing_plan_id":"free"},{"bike_id":"bccc62b8-e98f-454a-bbf4-18cff92f4c4a","system_id":"levelo_inurba_marseille","lat":43.28093,"lon":5.37839,"is_reserved":false,"is_disabled":false,"rental_uris":{"android":"levelo://app?vid=bccc62b8-e98f-454a-bbf4-18cff92f4c4a","ios":"levelo://app?vid=bccc62b8-e98f-454a-bbf4-18cff92f4c4a"},"vehicle_type_id":"4","last_reported":1700413531,"current_range_meters":0,"station_id":"ce4bha12rcd13ifvqee0","pricing_plan_id":"free"},{"bike_id":"ac6ebf28-4159-4b5e-a7dd-ffcfff1eaaa9","system_id":"levelo_inurba_marseille","lat":43.28131,"lon":5.35168,"is_reserved":false,"is_disabled":false,"rental_uris":{"android":"levelo://app?vid=ac6ebf28-4159-4b5e-a7dd-ffcfff1eaaa9","ios":"levelo://app?vid=ac6ebf28-4159-4b5e-a7dd-ffcfff1eaaa9"},"vehicle_type_id":"4","last_reported":1700413531,"current_range_meters":0,"station_id":"","pricing_plan_id":"free"},{"bike_id":"ccf9b17e-2fb6-47d5-b5cb-73ea08fcb6e5","system_id":"levelo_inurba_marseille","lat":43.28575,"lon":5.39498,"is_reserved":false,"is_disabled":false,"rental_uris":{"android":"levelo://app?vid=ccf9b17e-2fb6-47d5-b5cb-73ea08fcb6e5","ios":"levelo://app?vid=ccf9b17e-2fb6-47d5-b5cb-73ea08fcb6e5"},"vehicle_type_id":"4","last_reported":1700413531,"current_range_meters":0,"station_id":"ce4bh292rcd13ifvqdg0","pricing_plan_id":"free"},{"bike_id":"455d2ada-8e38-4554-ab95-96aea7f0a1e1","system_id":"levelo_inurba_marseille","lat":43.28573,"lon":5.394992,"is_reserved":false,"is_disabled":false,"rental_uris":{"android":"levelo://app?vid=455d2ada-8e38-4554-ab95-96aea7f0a1e1","ios":"levelo://app?vid=455d2ada-8e38-4554-ab95-96aea7f0a1e1"},"vehicle_type_id":"4","last_reported":1700413531,"current_range_meters":15600,"station_id":"ce4bh292rcd13ifvqdg0","pricing_plan_id":"free"},{"bike_id":"a73e4f69-14a5-4eea-833c-0b5ca431ae90","system_id":"levelo_inurba_marseille","lat":43.304188,"lon":5.412904,"is_reserved":false,"is_disabled":false,"rental_uris":{"android":"levelo://app?vid=a73e4f69-14a5-4eea-833c-0b5ca431ae90","ios":"levelo://app?vid=a73e4f69-14a5-4eea-833c-0b5ca431ae90"},"vehicle_type_id":"4","last_reported":1700413531,"current_range_meters":11200,"station_id":"ce4bhop2rcd13ifvqh8g","pricing_plan_id":"free"},{"bike_id":"d10c81b6-6a52-4ad7-9054-ebff1df77409","system_id":"levelo_inurba_marseille","lat":43.287154,"lon":5.399979,"is_reserved":false,"is_disabled":false,"rental_uris":{"android":"levelo://app?vid=d10c81b6-6a52-4ad7-9054-ebff1df77409","ios":"levelo://app?vid=d10c81b6-6a52-4ad7-9054-ebff1df77409"},"vehicle_type_id":"4","last_reported":1700413531,"current_range_meters":14400,"station_id":"ce4bho92rcd13ifvqh3g","pricing_plan_id":"free"},{"bike_id":"85f12fc9-bbac-43e5-aab6-786c40936213","system_id":"levelo_inurba_marseille","lat":43.299579,"lon":5.413255,"is_reserved":false,"is_disabled":false,"rental_uris":{"android":"levelo://app?vid=85f12fc9-bbac-43e5-aab6-786c40936213","ios":"levelo://app?vid=85f12fc9-bbac-43e5-aab6-786c40936213"},"vehicle_type_id":"4","last_reported":1700413531,"current_range_meters":18000,"station_id":"ce4bhp12rcd13ifvqh9g","pricing_plan_id":"free"},{"bike_id":"5f153f02-c4c9-456b-aa48-aeca587f3139","system_id":"levelo_inurba_marseille","lat":43.27854,"lon":5.38306,"is_reserved":false,"is_disabled":false,"rental_uris":{"android":"levelo://app?vid=5f153f02-c4c9-456b-aa48-aeca587f3139","ios":"levelo://app?vid=5f153f02-c4c9-456b-aa48-aeca587f3139"},"vehicle_type_id":"4","last_reported":1700413531,"current_range_meters":9200,"station_id":"","pricing_plan_id":"free"},{"bike_id":"7f0b0318-4cd9-434f-8e84-4dd437bdabeb","system_id":"levelo_inurba_marseille","lat":43.299579,"lon":5.413255,"is_reserved":false,"is_disabled":false,"rental_uris":{"android":"levelo://app?vid=7f0b0318-4cd9-434f-8e84-4dd437bdabeb","ios":"levelo://app?vid=7f0b0318-4cd9-434f-8e84-4dd437bdabeb"},"vehicle_type_id":"4","last_reported":1700413531,"current_range_meters":7600,"station_id":"ce4bhp12rcd13ifvqh9g","pricing_plan_id":"free"},{"bike_id":"37c9325a-f7ac-4b7e-85c7-10e012c3ba5f","system_id":"levelo_inurba_marseille","lat":43.27613,"lon":5.36117,"is_reserved":false,"is_disabled":false,"rental_uris":{"android":"levelo://app?vid=37c9325a-f7ac-4b7e-85c7-10e012c3ba5f","ios":"levelo://app?vid=37c9325a-f7ac-4b7e-85c7-10e012c3ba5f"},"vehicle_type_id":"4","last_reported":1700413531,"current_range_meters":31200,"station_id":"ce4bgj92rcd13ifvqbe0","pricing_plan_id":"free"},{"bike_id":"96c0eb15-8e98-42e2-98e7-2b0c457b83d8","system_id":"levelo_inurba_marseille","lat":43.27608,"lon":5.36117,"is_reserved":false,"is_disabled":false,"rental_uris":{"android":"levelo://app?vid=96c0eb15-8e98-42e2-98e7-2b0c457b83d8","ios":"levelo://app?vid=96c0eb15-8e98-42e2-98e7-2b0c457b83d8"},"vehicle_type_id":"4","last_reported":1700413531,"current_range_meters":31200,"station_id":"ce4bgj92rcd13ifvqbe0","pricing_plan_id":"free"},{"bike_id":"f8f5677d-f8b2-4ddb-837f-25c547c244b9","system_id":"levelo_inurba_marseille","lat":43.280784,"lon":5.396622,"is_reserved":false,"is_disabled":false,"rental_uris":{"android":"levelo://app?vid=f8f5677d-f8b2-4ddb-837f-25c547c244b9","ios":"levelo://app?vid=f8f5677d-f8b2-4ddb-837f-25c547c244b9"},"vehicle_type_id":"4","last_reported":1700413531,"current_range_meters":28000,"station_id":"ce4bho12rcd13ifvqh2g","pricing_plan_id":"free"},{"bike_id":"8c69b603-8a22-457a-9c65-5ead6ab43d89","system_id":"levelo_inurba_marseille","lat":43.280784,"lon":5.396622,"is_reserved":false,"is_disabled":false,"rental_uris":{"android":"levelo://app?vid=8c69b603-8a22-457a-9c65-5ead6ab43d89","ios":"levelo://app?vid=8c69b603-8a22-457a-9c65-5ead6ab43d89"},"vehicle_type_id":"4","last_reported":1700413531,"current_range_meters":5600,"station_id":"ce4bho12rcd13ifvqh2g","pricing_plan_id":"free"},{"bike_id":"09598e6a-b738-4f12-ac60-d1462555796f","system_id":"levelo_inurba_marseille","lat":43.279952,"lon":5.400085,"is_reserved":false,"is_disabled":false,"rental_uris":{"android":"levelo://app?vid=09598e6a-b738-4f12-ac60-d1462555796f","ios":"levelo://app?vid=09598e6a-b738-4f12-ac60-d1462555796f"},"vehicle_type_id":"4","last_reported":1700413531,"current_range_meters":5600,"station_id":"ce4bho92rcd13ifvqh4g","pricing_plan_id":"free"},{"bike_id":"26e38500-cf06-412c-84c9-f57ade123ddf","system_id":"levelo_inurba_marseille","lat":43.27995,"lon":5.40017,"is_reserved":false,"is_disabled":false,"rental_uris":{"android":"levelo://app?vid=26e38500-cf06-412c-84c9-f57ade123ddf","ios":"levelo://app?vid=26e38500-cf06-412c-84c9-f57ade123ddf"},"vehicle_type_id":"4","last_reported":1700413531,"current_range_meters":28800,"station_id":"ce4bho92rcd13ifvqh4g","pricing_plan_id":"free"},{"bike_id":"f8f5619a-a183-461d-b100-453fb972fcd4","system_id":"levelo_inurba_marseille","lat":43.272118,"lon":5.391758,"is_reserved":false,"is_disabled":false,"rental_uris":{"android":"levelo://app?vid=f8f5619a-a183-461d-b100-453fb972fcd4","ios":"levelo://app?vid=f8f5619a-a183-461d-b100-453fb972fcd4"},"vehicle_type_id":"4","last_reported":1700413531,"current_range_meters":19200,"station_id":"ce4bhhp2rcd13ifvqfm0","pricing_plan_id":"free"},{"bike_id":"fe139271-7817-4645-9ec4-f7eee743e805","system_id":"levelo_inurba_marseille","lat":43.271896,"lon":5.392307,"is_reserved":false,"is_disabled":false,"rental_uris":{"android":"levelo://app?vid=fe139271-7817-4645-9ec4-f7eee743e805","ios":"levelo://app?vid=fe139271-7817-4645-9ec4-f7eee743e805"},"vehicle_type_id":"4","last_reported":1700413531,"current_range_meters":0,"station_id":"","pricing_plan_id":"free"},{"bike_id":"f0ed4531-078e-42fb-a007-3ed80505eb54","system_id":"levelo_inurba_marseille","lat":43.271891,"lon":5.392412,"is_reserved":false,"is_disabled":false,"rental_uris":{"android":"levelo://app?vid=f0ed4531-078e-42fb-a007-3ed80505eb54","ios":"levelo://app?vid=f0ed4531-078e-42fb-a007-3ed80505eb54"},"vehicle_type_id":"4","last_reported":1700413531,"current_range_meters":2400,"station_id":"","pricing_plan_id":"free"},{"bike_id":"4e904388-8315-42a3-823e-b01ae258624d","system_id":"levelo_inurba_marseille","lat":43.278128,"lon":5.407195,"is_reserved":false,"is_disabled":false,"rental_uris":{"android":"levelo://app?vid=4e904388-8315-42a3-823e-b01ae258624d","ios":"levelo://app?vid=4e904388-8315-42a3-823e-b01ae258624d"},"vehicle_type_id":"4","last_reported":1700413531,"current_range_meters":400,"station_id":"ce4bhnh2rcd13ifvqgtg","pricing_plan_id":"free"},{"bike_id":"139753b1-0b83-4c3a-80f1-5052bac15461","system_id":"levelo_inurba_marseille","lat":43.271056,"lon":5.393366,"is_reserved":false,"is_disabled":false,"rental_uris":{"android":"levelo://app?vid=139753b1-0b83-4c3a-80f1-5052bac15461","ios":"levelo://app?vid=139753b1-0b83-4c3a-80f1-5052bac15461"},"vehicle_type_id":"4","last_reported":1700413531,"current_range_meters":7200,"station_id":"","pricing_plan_id":"free"},{"bike_id":"c7758cb2-2a45-4f89-aa5c-0e391d845c76","system_id":"levelo_inurba_marseille","lat":43.326053,"lon":5.429943,"is_reserved":false,"is_disabled":false,"rental_uris":{"android":"levelo://app?vid=c7758cb2-2a45-4f89-aa5c-0e391d845c76","ios":"levelo://app?vid=c7758cb2-2a45-4f89-aa5c-0e391d845c76"},"vehicle_type_id":"4","last_reported":1700413531,"current_range_meters":0,"station_id":"","pricing_plan_id":"free"},{"bike_id":"42871d3b-8c03-490f-baf1-f4b57c44a331","system_id":"levelo_inurba_marseille","lat":43.326706,"lon":5.430368,"is_reserved":false,"is_disabled":false,"rental_uris":{"android":"levelo://app?vid=42871d3b-8c03-490f-baf1-f4b57c44a331","ios":"levelo://app?vid=42871d3b-8c03-490f-baf1-f4b57c44a331"},"vehicle_type_id":"4","last_reported":1700413531,"current_range_meters":17200,"station_id":"","pricing_plan_id":"free"},{"bike_id":"87be04d4-b68d-4ca4-bc75-5865077b920f","system_id":"levelo_inurba_marseille","lat":43.288499,"lon":5.42631,"is_reserved":false,"is_disabled":false,"rental_uris":{"android":"levelo://app?vid=87be04d4-b68d-4ca4-bc75-5865077b920f","ios":"levelo://app?vid=87be04d4-b68d-4ca4-bc75-5865077b920f"},"vehicle_type_id":"4","last_reported":1700413531,"current_range_meters":2000,"station_id":"","pricing_plan_id":"free"},{"bike_id":"f7fbcf96-85d5-481b-bec9-968b3ef5bdaf","system_id":"levelo_inurba_marseille","lat":43.307996,"lon":5.435269,"is_reserved":false,"is_disabled":false,"rental_uris":{"android":"levelo://app?vid=f7fbcf96-85d5-481b-bec9-968b3ef5bdaf","ios":"levelo://app?vid=f7fbcf96-85d5-481b-bec9-968b3ef5bdaf"},"vehicle_type_id":"4","last_reported":1700413531,"current_range_meters":0,"station_id":"ce4bhph2rcd13ifvqheg","pricing_plan_id":"free"},{"bike_id":"a34c6658-0b78-4337-a411-2a59592332d3","system_id":"levelo_inurba_marseille","lat":43.26938,"lon":5.40261,"is_reserved":false,"is_disabled":false,"rental_uris":{"android":"levelo://app?vid=a34c6658-0b78-4337-a411-2a59592332d3","ios":"levelo://app?vid=a34c6658-0b78-4337-a411-2a59592332d3"},"vehicle_type_id":"4","last_reported":1700413531,"current_range_meters":0,"station_id":"cjm6bp8fraef2m0cb0m0","pricing_plan_id":"free"},{"bike_id":"f1652e3f-c477-413b-a9b7-b30d047c7518","system_id":"levelo_inurba_marseille","lat":43.2618,"lon":5.37447,"is_reserved":false,"is_disabled":false,"rental_uris":{"android":"levelo://app?vid=f1652e3f-c477-413b-a9b7-b30d047c7518","ios":"levelo://app?vid=f1652e3f-c477-413b-a9b7-b30d047c7518"},"vehicle_type_id":"4","last_reported":1700413531,"current_range_meters":0,"station_id":"ce4bhgp2rcd13ifvqfc0","pricing_plan_id":"free"},{"bike_id":"8f8b49a9-60fa-409e-9069-5a319fd4de74","system_id":"levelo_inurba_marseille","lat":43.262012,"lon":5.379307,"is_reserved":false,"is_disabled":false,"rental_uris":{"android":"levelo://app?vid=8f8b49a9-60fa-409e-9069-5a319fd4de74","ios":"levelo://app?vid=8f8b49a9-60fa-409e-9069-5a319fd4de74"},"vehicle_type_id":"4","last_reported":1700413531,"current_range_meters":2800,"station_id":"ce4bhjp2rcd13ifvqg90","pricing_plan_id":"free"},{"bike_id":"74ce853b-0d8b-42c9-81c8-17a7564a4b34","system_id":"levelo_inurba_marseille","lat":43.31725,"lon":5.43786,"is_reserved":false,"is_disabled":false,"rental_uris":{"android":"levelo://app?vid=74ce853b-0d8b-42c9-81c8-17a7564a4b34","ios":"levelo://app?vid=74ce853b-0d8b-42c9-81c8-17a7564a4b34"},"vehicle_type_id":"4","last_reported":1700413531,"current_range_meters":14000,"station_id":"","pricing_plan_id":"free"},{"bike_id":"0db002b5-dbbf-453b-8ea4-13f11976d873","system_id":"levelo_inurba_marseille","lat":43.272116,"lon":5.391747,"is_reserved":false,"is_disabled":false,"rental_uris":{"android":"levelo://app?vid=0db002b5-dbbf-453b-8ea4-13f11976d873","ios":"levelo://app?vid=0db002b5-dbbf-453b-8ea4-13f11976d873"},"vehicle_type_id":"4","last_reported":1700413531,"current_range_meters":7600,"station_id":"ce4bhhp2rcd13ifvqfm0","pricing_plan_id":"free"},{"bike_id":"136f26ff-90d9-441a-9f7d-ca400cf602be","system_id":"levelo_inurba_marseille","lat":43.26095,"lon":5.39757,"is_reserved":false,"is_disabled":false,"rental_uris":{"android":"levelo://app?vid=136f26ff-90d9-441a-9f7d-ca400cf602be","ios":"levelo://app?vid=136f26ff-90d9-441a-9f7d-ca400cf602be"},"vehicle_type_id":"4","last_reported":1700413531,"current_range_meters":0,"station_id":"ce4bhi12rcd13ifvqfq0","pricing_plan_id":"free"},{"bike_id":"c1855288-7aad-4ec4-994c-9445f3800f46","system_id":"levelo_inurba_marseille","lat":43.258224,"lon":5.394369,"is_reserved":false,"is_disabled":false,"rental_uris":{"android":"levelo://app?vid=c1855288-7aad-4ec4-994c-9445f3800f46","ios":"levelo://app?vid=c1855288-7aad-4ec4-994c-9445f3800f46"},"vehicle_type_id":"4","last_reported":1700413531,"current_range_meters":17200,"station_id":"ce4bhip2rcd13ifvqft0","pricing_plan_id":"free"},{"bike_id":"6cc75450-4245-4f03-bf52-47f80554abb9","system_id":"levelo_inurba_marseille","lat":43.27069,"lon":5.42278,"is_reserved":false,"is_disabled":false,"rental_uris":{"android":"levelo://app?vid=6cc75450-4245-4f03-bf52-47f80554abb9","ios":"levelo://app?vid=6cc75450-4245-4f03-bf52-47f80554abb9"},"vehicle_type_id":"4","last_reported":1700413531,"current_range_meters":400,"station_id":"ce4bhk92rcd13ifvqgb0","pricing_plan_id":"free"},{"bike_id":"8c033876-6d32-4f46-87df-9c151f5561f4","system_id":"levelo_inurba_marseille","lat":43.270721,"lon":5.422764,"is_reserved":false,"is_disabled":false,"rental_uris":{"android":"levelo://app?vid=8c033876-6d32-4f46-87df-9c151f5561f4","ios":"levelo://app?vid=8c033876-6d32-4f46-87df-9c151f5561f4"},"vehicle_type_id":"4","last_reported":1700413531,"current_range_meters":26400,"station_id":"ce4bhk92rcd13ifvqgb0","pricing_plan_id":"free"},{"bike_id":"d4b5c1c6-814d-405f-98a9-876777f68ba7","system_id":"levelo_inurba_marseille","lat":43.270721,"lon":5.422764,"is_reserved":false,"is_disabled":false,"rental_uris":{"android":"levelo://app?vid=d4b5c1c6-814d-405f-98a9-876777f68ba7","ios":"levelo://app?vid=d4b5c1c6-814d-405f-98a9-876777f68ba7"},"vehicle_type_id":"4","last_reported":1700413531,"current_range_meters":10800,"station_id":"ce4bhk92rcd13ifvqgb0","pricing_plan_id":"free"},{"bike_id":"653a93dc-fdc8-45b7-9661-c0469e70ba2a","system_id":"levelo_inurba_marseille","lat":43.25934,"lon":5.40904,"is_reserved":false,"is_disabled":false,"rental_uris":{"android":"levelo://app?vid=653a93dc-fdc8-45b7-9661-c0469e70ba2a","ios":"levelo://app?vid=653a93dc-fdc8-45b7-9661-c0469e70ba2a"},"vehicle_type_id":"4","last_reported":1700413531,"current_range_meters":0,"station_id":"ce4bhm92rcd13ifvqglg","pricing_plan_id":"free"},{"bike_id":"80b71ce4-d048-49bd-8ecd-355f020bd070","system_id":"levelo_inurba_marseille","lat":43.257079,"lon":5.411051,"is_reserved":false,"is_disabled":false,"rental_uris":{"android":"levelo://app?vid=80b71ce4-d048-49bd-8ecd-355f020bd070","ios":"levelo://app?vid=80b71ce4-d048-49bd-8ecd-355f020bd070"},"vehicle_type_id":"4","last_reported":1700413531,"current_range_meters":8000,"station_id":"ce4bhkp2rcd13ifvqgd0","pricing_plan_id":"free"},{"bike_id":"4ccb005d-6f29-46c1-8b6e-4d6b70388a72","system_id":"levelo_inurba_marseille","lat":43.250009,"lon":5.389195,"is_reserved":false,"is_disabled":false,"rental_uris":{"android":"levelo://app?vid=4ccb005d-6f29-46c1-8b6e-4d6b70388a72","ios":"levelo://app?vid=4ccb005d-6f29-46c1-8b6e-4d6b70388a72"},"vehicle_type_id":"4","last_reported":1700413531,"current_range_meters":22400,"station_id":"ce4bhgp2rcd13ifvqfd0","pricing_plan_id":"free"},{"bike_id":"c9d1600a-4198-4543-8d45-94ec3f217ec6","system_id":"levelo_inurba_marseille","lat":43.25102,"lon":5.403214,"is_reserved":false,"is_disabled":false,"rental_uris":{"android":"levelo://app?vid=c9d1600a-4198-4543-8d45-94ec3f217ec6","ios":"levelo://app?vid=c9d1600a-4198-4543-8d45-94ec3f217ec6"},"vehicle_type_id":"4","last_reported":1700413531,"current_range_meters":400,"station_id":"ce4bhlh2rcd13ifvqgig","pricing_plan_id":"free"},{"bike_id":"11df74fc-b0a1-4ffd-bf12-19740d97c3ab","system_id":"levelo_inurba_marseille","lat":43.25102,"lon":5.403214,"is_reserved":false,"is_disabled":false,"rental_uris":{"android":"levelo://app?vid=11df74fc-b0a1-4ffd-bf12-19740d97c3ab","ios":"levelo://app?vid=11df74fc-b0a1-4ffd-bf12-19740d97c3ab"},"vehicle_type_id":"4","last_reported":1700413531,"current_range_meters":9600,"station_id":"ce4bhlh2rcd13ifvqgig","pricing_plan_id":"free"},{"bike_id":"fd1263c8-d5e3-4092-9c25-d60b726dad7c","system_id":"levelo_inurba_marseille","lat":43.25102,"lon":5.403214,"is_reserved":false,"is_disabled":false,"rental_uris":{"android":"levelo://app?vid=fd1263c8-d5e3-4092-9c25-d60b726dad7c","ios":"levelo://app?vid=fd1263c8-d5e3-4092-9c25-d60b726dad7c"},"vehicle_type_id":"4","last_reported":1700413531,"current_range_meters":28000,"station_id":"ce4bhlh2rcd13ifvqgig","pricing_plan_id":"free"},{"bike_id":"ff1c9d95-79c0-4407-b9f3-2c91eab26a74","system_id":"levelo_inurba_marseille","lat":43.25102,"lon":5.403214,"is_reserved":false,"is_disabled":false,"rental_uris":{"android":"levelo://app?vid=ff1c9d95-79c0-4407-b9f3-2c91eab26a74","ios":"levelo://app?vid=ff1c9d95-79c0-4407-b9f3-2c91eab26a74"},"vehicle_type_id":"4","last_reported":1700413531,"current_range_meters":26800,"station_id":"ce4bhlh2rcd13ifvqgig","pricing_plan_id":"free"},{"bike_id":"95e4d45c-3c4e-488f-8859-729cf37c0107","system_id":"levelo_inurba_marseille","lat":43.25103,"lon":5.40324,"is_reserved":false,"is_disabled":false,"rental_uris":{"android":"levelo://app?vid=95e4d45c-3c4e-488f-8859-729cf37c0107","ios":"levelo://app?vid=95e4d45c-3c4e-488f-8859-729cf37c0107"},"vehicle_type_id":"4","last_reported":1700413531,"current_range_meters":10000,"station_id":"ce4bhlh2rcd13ifvqgig","pricing_plan_id":"free"},{"bike_id":"bd3b6f79-149c-48ee-b658-1189dd257270","system_id":"levelo_inurba_marseille","lat":43.246461,"lon":5.389014,"is_reserved":false,"is_disabled":false,"rental_uris":{"android":"levelo://app?vid=bd3b6f79-149c-48ee-b658-1189dd257270","ios":"levelo://app?vid=bd3b6f79-149c-48ee-b658-1189dd257270"},"vehicle_type_id":"4","last_reported":1700413531,"current_range_meters":7200,"station_id":"ce4bhg12rcd13ifvqf60","pricing_plan_id":"free"},{"bike_id":"4acc41fa-8413-4fdd-8bf9-58215dd5c07d","system_id":"levelo_inurba_marseille","lat":43.246467,"lon":5.388984,"is_reserved":false,"is_disabled":false,"rental_uris":{"android":"levelo://app?vid=4acc41fa-8413-4fdd-8bf9-58215dd5c07d","ios":"levelo://app?vid=4acc41fa-8413-4fdd-8bf9-58215dd5c07d"},"vehicle_type_id":"4","last_reported":1700413531,"current_range_meters":12000,"station_id":"ce4bhg12rcd13ifvqf60","pricing_plan_id":"free"},{"bike_id":"4e1f6816-94ff-427e-8fc3-77182202b6b0","system_id":"levelo_inurba_marseille","lat":43.246467,"lon":5.388984,"is_reserved":false,"is_disabled":false,"rental_uris":{"android":"levelo://app?vid=4e1f6816-94ff-427e-8fc3-77182202b6b0","ios":"levelo://app?vid=4e1f6816-94ff-427e-8fc3-77182202b6b0"},"vehicle_type_id":"4","last_reported":1700413531,"current_range_meters":4400,"station_id":"ce4bhg12rcd13ifvqf60","pricing_plan_id":"free"},{"bike_id":"2aab52e5-4ac3-4957-a848-725db3b24aa1","system_id":"levelo_inurba_marseille","lat":43.246467,"lon":5.388984,"is_reserved":false,"is_disabled":false,"rental_uris":{"android":"levelo://app?vid=2aab52e5-4ac3-4957-a848-725db3b24aa1","ios":"levelo://app?vid=2aab52e5-4ac3-4957-a848-725db3b24aa1"},"vehicle_type_id":"4","last_reported":1700413531,"current_range_meters":26400,"station_id":"ce4bhg12rcd13ifvqf60","pricing_plan_id":"free"},{"bike_id":"95885e73-feac-4a98-9a67-b8819e224d27","system_id":"levelo_inurba_marseille","lat":43.23964,"lon":5.36624,"is_reserved":false,"is_disabled":false,"rental_uris":{"android":"levelo://app?vid=95885e73-feac-4a98-9a67-b8819e224d27","ios":"levelo://app?vid=95885e73-feac-4a98-9a67-b8819e224d27"},"vehicle_type_id":"4","last_reported":1700413531,"current_range_meters":0,"station_id":"ce4bhi12rcd13ifvqfp0","pricing_plan_id":"free"},{"bike_id":"bd96c6cd-2962-4f7f-89b7-bb4fea6ff9d9","system_id":"levelo_inurba_marseille","lat":43.2396,"lon":5.36631,"is_reserved":false,"is_disabled":false,"rental_uris":{"android":"levelo://app?vid=bd96c6cd-2962-4f7f-89b7-bb4fea6ff9d9","ios":"levelo://app?vid=bd96c6cd-2962-4f7f-89b7-bb4fea6ff9d9"},"vehicle_type_id":"4","last_reported":1700413531,"current_range_meters":0,"station_id":"ce4bhi12rcd13ifvqfp0","pricing_plan_id":"free"},{"bike_id":"4370869b-0c59-4e1b-b4c7-59bf3a7bc50e","system_id":"levelo_inurba_marseille","lat":43.241782,"lon":5.397261,"is_reserved":false,"is_disabled":false,"rental_uris":{"android":"levelo://app?vid=4370869b-0c59-4e1b-b4c7-59bf3a7bc50e","ios":"levelo://app?vid=4370869b-0c59-4e1b-b4c7-59bf3a7bc50e"},"vehicle_type_id":"4","last_reported":1700413531,"current_range_meters":12400,"station_id":"ce4bhn12rcd13ifvqgpg","pricing_plan_id":"free"},{"bike_id":"1916ba89-348a-46de-862f-002e26a606b7","system_id":"levelo_inurba_marseille","lat":43.24179,"lon":5.39724,"is_reserved":false,"is_disabled":false,"rental_uris":{"android":"levelo://app?vid=1916ba89-348a-46de-862f-002e26a606b7","ios":"levelo://app?vid=1916ba89-348a-46de-862f-002e26a606b7"},"vehicle_type_id":"4","last_reported":1700413531,"current_range_meters":5200,"station_id":"ce4bhn12rcd13ifvqgpg","pricing_plan_id":"free"},{"bike_id":"8417b742-2f88-4601-abc6-b65a8a65e8f2","system_id":"levelo_inurba_marseille","lat":43.24179,"lon":5.39727,"is_reserved":false,"is_disabled":false,"rental_uris":{"android":"levelo://app?vid=8417b742-2f88-4601-abc6-b65a8a65e8f2","ios":"levelo://app?vid=8417b742-2f88-4601-abc6-b65a8a65e8f2"},"vehicle_type_id":"4","last_reported":1700413531,"current_range_meters":19200,"station_id":"ce4bhn12rcd13ifvqgpg","pricing_plan_id":"free"},{"bike_id":"1b43606a-72e2-476d-b636-ae1a0a2c83c1","system_id":"levelo_inurba_marseille","lat":43.24178,"lon":5.39723,"is_reserved":false,"is_disabled":false,"rental_uris":{"android":"levelo://app?vid=1b43606a-72e2-476d-b636-ae1a0a2c83c1","ios":"levelo://app?vid=1b43606a-72e2-476d-b636-ae1a0a2c83c1"},"vehicle_type_id":"4","last_reported":1700413531,"current_range_meters":12400,"station_id":"ce4bhn12rcd13ifvqgpg","pricing_plan_id":"free"},{"bike_id":"d905acc7-ab58-44fe-8043-2eba6e8fb049","system_id":"levelo_inurba_marseille","lat":43.241782,"lon":5.397261,"is_reserved":false,"is_disabled":false,"rental_uris":{"android":"levelo://app?vid=d905acc7-ab58-44fe-8043-2eba6e8fb049","ios":"levelo://app?vid=d905acc7-ab58-44fe-8043-2eba6e8fb049"},"vehicle_type_id":"4","last_reported":1700413531,"current_range_meters":400,"station_id":"ce4bhn12rcd13ifvqgpg","pricing_plan_id":"free"},{"bike_id":"725ee2bc-9614-45c5-ab73-f176aa83e12f","system_id":"levelo_inurba_marseille","lat":43.231919,"lon":5.355532,"is_reserved":false,"is_disabled":false,"rental_uris":{"android":"levelo://app?vid=725ee2bc-9614-45c5-ab73-f176aa83e12f","ios":"levelo://app?vid=725ee2bc-9614-45c5-ab73-f176aa83e12f"},"vehicle_type_id":"4","last_reported":1700413531,"current_range_meters":3200,"station_id":"ce4bhu92rcd13ifvqi70","pricing_plan_id":"free"},{"bike_id":"af1ded82-d209-4511-aea5-36860ab15eac","system_id":"levelo_inurba_marseille","lat":43.231794,"lon":5.400052,"is_reserved":false,"is_disabled":false,"rental_uris":{"android":"levelo://app?vid=af1ded82-d209-4511-aea5-36860ab15eac","ios":"levelo://app?vid=af1ded82-d209-4511-aea5-36860ab15eac"},"vehicle_type_id":"4","last_reported":1700413531,"current_range_meters":8800,"station_id":"ce4bhn12rcd13ifvqgqg","pricing_plan_id":"free"}]}}