{"last_updated":1753513877,"ttl":60,"version":"2.2","data":{"bikes":[{"bike_id":"301f9c68-d62a-42df-a722-ef29c3f5815c","system_id":"levelo_inurba_marseille","lat":43.29628,"lon":5.37723,"is_reserved":false,"is_disabled":false,"rental_uris":{"android":"levelo://app?vid=301f9c68-d62a-42df-a722-ef29c3f5815c","ios":"levelo://app?vid=301f9c68-d62a-42df-a722-ef29c3f5815c"},"vehicle_type_id":"4","last_reported":1753513877,"current_range_meters":2800,"station_id":"ce4bgi92rcd13ifvqb90","pricing_plan_id":"cebpf4jnsgd1na2vs0mg"},{"bike_id":"c9fff41b-bf0f-431c-bc12-201d7ebbc101","system_id":"levelo_inurba_marseille","lat":43.30898,"lon":5.3962,"is_reserved":false,"is_disabled":false,"rental_uris":{"android":"levelo://app?vid=c9fff41b-bf0f-431c-bc12-201d7ebbc101","ios":"levelo://app?vid=c9fff41b-bf0f-431c-bc12-201d7ebbc101"},"vehicle_type_id":"4","last_reported":1753513877,"current_range_meters":2800,"station_id":"ce4bh012rcd13ifvqcv0","pricing_plan_id":"cebpf4jnsgd1na2vs0mg"},{"bike_id":"88713064-73b6-47c5-8baf-21f8c90f1d38","system_id":"levelo_inurba_marseille","lat":43.307071,"lon":5.381985,"is_reserved":false,"is_disabled":false,"rental_uris":{"android":"levelo://app?vid=88713064-73b6-47c5-8baf-21f8c90f1d38","ios":"levelo://app?vid=88713064-73b6-47c5-8baf-21f8c90f1d38"},"vehicle_type_id":"4","last_reported":1753513877,"current_range_meters":2800,"station_id":"","pricing_plan_id":"cebpf4jnsgd1na2vs0mg"},{"bike_id":"31eaefd4-fe8f-42e6-bb4f-182572efa6bb","system_id":"levelo_inurba_marseille","lat":43.2861,"lon":5.35099,"is_reserved":false,"is_disabled":false,"rental_uris":{"android":"levelo://app?vid=31eaefd4-fe8f-42e6-bb4f-182572efa6bb","ios":"levelo://app?vid=31eaefd4-fe8f-42e6-bb4f-182572efa6bb"},"vehicle_type_id":"4","last_reported":1753513877,"current_range_meters":3200,"station_id":"ce4bhch2rcd13ifvqeug","pricing_plan_id":"cebpf4jnsgd1na2vs0mg"},{"bike_id":"d87b56f9-aec8-4c18-8340-d7aba9319bde","system_id":"levelo_inurba_marseille","lat":43.27573,"lon":5.39672,"is_reserved":false,"is_disabled":false,"rental_uris":{"android":"levelo://app?vid=d87b56f9-aec8-4c18-8340-d7aba9319bde","ios":"levelo://app?vid=d87b56f9-aec8-4c18-8340-d7aba9319bde"},"vehicle_type_id":"4","last_reported":1753513877,"current_range_meters":3200,"station_id":"","pricing_plan_id":"cebpf4jnsgd1na2vs0mg"},{"bike_id":"d6e67ec9-36a2-4615-bfd1-7c7dad1d0674","system_id":"levelo_inurba_marseille","lat":43.225,"lon":5.3478,"is_reserved":false,"is_disabled":false,"rental_uris":{"android":"levelo://app?vid=d6e67ec9-36a2-4615-bfd1-7c7dad1d0674","ios":"levelo://app?vid=d6e67ec9-36a2-4615-bfd1-7c7dad1d0674"},"vehicle_type_id":"4","last_reported":1753513877,"current_range_meters":3200,"station_id":"st_cvj5dfep6f1abm77gieg","pricing_plan_id":"cebpf4jnsgd1na2vs0mg"},{"bike_id":"3a0a42e3-cf86-4fae-a622-e6df6877a375","system_id":"levelo_inurba_marseille","lat":43.31068,"lon":5.3835,"is_reserved":false,"is_disabled":false,"rental_uris":{"android":"levelo://app?vid=3a0a42e3-cf86-4fae-a622-e6df6877a375","ios":"levelo://app?vid=3a0a42e3-cf86-4fae-a622-e6df6877a375"},"vehicle_type_id":"4","last_reported":1753513877,"current_range_meters":3200,"station_id":"ce4bgv92rcd13ifvqcr0","pricing_plan_id":"cebpf4jnsgd1na2vs0mg"},{"bike_id":"1964664b-ec88-4fe7-ab3a-fc6cc1add8f9","system_id":"levelo_inurba_marseille","lat":43.323445,"lon":5.406195,"is_reserved":false,"is_disabled":false,"rental_uris":{"android":"levelo://app?vid=1964664b-ec88-4fe7-ab3a-fc6cc1add8f9","ios":"levelo://app?vid=1964664b-ec88-4fe7-ab3a-fc6cc1add8f9"},"vehicle_type_id":"4","last_reported":1753513877,"current_range_meters":3200,"station_id":"ce4bhq92rcd13ifvqhjg","pricing_plan_id":"cebpf4jnsgd1na2vs0mg"},{"bike_id":"329aaba8-e959-45ba-932d-356c40c54d03","system_id":"levelo_inurba_marseille","lat":43.28856,"lon":5.39317,"is_reserved":false,"is_disabled":false,"rental_uris":{"android":"levelo://app?vid=329aaba8-e959-45ba-932d-356c40c54d03","ios":"levelo://app?vid=329aaba8-e959-45ba-932d-356c40c54d03"},"vehicle_type_id":"4","last_reported":1753513877,"current_range_meters":3200,"station_id":"ce4bh2p2rcd13ifvqdi0","pricing_plan_id":"cebpf4jnsgd1na2vs0mg"},{"bike_id":"85244870-de2e-4268-95b7-c2ed15b3c6be","system_id":"levelo_inurba_marseille","lat":43.298523,"lon":5.36816,"is_reserved":false,"is_disabled":true,"rental_uris":{"android":"levelo://app?vid=85244870-de2e-4268-95b7-c2ed15b3c6be","ios":"levelo://app?vid=85244870-de2e-4268-95b7-c2ed15b3c6be"},"vehicle_type_id":"4","last_reported":1753513877,"current_range_meters":3600,"station_id":"ce4bgr92rcd13ifvqc7g","pricing_plan_id":"cebpf4jnsgd1na2vs0mg"},{"bike_id":"e87eec36-9502-45ce-a1b1-4233167cde1e","system_id":"levelo_inurba_marseille","lat":43.27925,"lon":5.396,"is_reserved":false,"is_disabled":true,"rental_uris":{"android":"levelo://app?vid=e87eec36-9502-45ce-a1b1-4233167cde1e","ios":"levelo://app?vid=e87eec36-9502-45ce-a1b1-4233167cde1e"},"vehicle_type_id":"4","last_reported":1753513877,"current_range_meters":3600,"station_id":"ce4bhf92rcd13ifvqf40","pricing_plan_id":"cebpf4jnsgd1na2vs0mg"},{"bike_id":"7b8f0b84-b522-44ab-860c-924f0c398730","system_id":"levelo_inurba_marseille","lat":43.28169,"lon":5.426046,"is_reserved":false,"is_disabled":true,"rental_uris":{"android":"levelo://app?vid=7b8f0b84-b522-44ab-860c-924f0c398730","ios":"levelo://app?vid=7b8f0b84-b522-44ab-860c-924f0c398730"},"vehicle_type_id":"4","last_reported":1753513877,"current_range_meters":4000,"station_id":"ce4bhnh2rcd13ifvqgug","pricing_plan_id":"cebpf4jnsgd1na2vs0mg"},{"bike_id":"fd4ba70a-7bfa-434e-8564-04bf25cc9f63","system_id":"levelo_inurba_marseille","lat":43.281,"lon":5.44114,"is_reserved":false,"is_disabled":false,"rental_uris":{"android":"levelo://app?vid=fd4ba70a-7bfa-434e-8564-04bf25cc9f63","ios":"levelo://app?vid=fd4ba70a-7bfa-434e-8564-04bf25cc9f63"},"vehicle_type_id":"4","last_reported":1753513877,"current_range_meters":4000,"station_id":"","pricing_plan_id":"cebpf4jnsgd1na2vs0mg"},{"bike_id":"0f80fd5d-6e0f-478b-ac50-47cc49181482","system_id":"levelo_inurba_marseille","lat":43.305099,"lon":5.366286,"is_reserved":false,"is_disabled":true,"rental_uris":{"android":"levelo://app?vid=0f80fd5d-6e0f-478b-ac50-47cc49181482","ios":"levelo://app?vid=0f80fd5d-6e0f-478b-ac50-47cc49181482"},"vehicle_type_id":"4","last_reported":1753513877,"current_range_meters":4400,"station_id":"ce4bhi12rcd13ifvqfo0","pricing_plan_id":"cebpf4jnsgd1na2vs0mg"},{"bike_id":"c7b92aee-e283-4928-8200-8fb47d23f351","system_id":"levelo_inurba_marseille","lat":43.2821,"lon":5.44316,"is_reserved":false,"is_disabled":false,"rental_uris":{"android":"levelo://app?vid=c7b92aee-e283-4928-8200-8fb47d23f351","ios":"levelo://app?vid=c7b92aee-e283-4928-8200-8fb47d23f351"},"vehicle_type_id":"4","last_reported":1753513877,"current_range_meters":4400,"station_id":"","pricing_plan_id":"cebpf4jnsgd1na2vs0mg"},{"bike_id":"e19cd9bd-8f1f-4909-a624-5af678243303","system_id":"levelo_inurba_marseille","lat":43.29072,"lon":5.39903,"is_reserved":false,"is_disabled":false,"rental_uris":{"android":"levelo://app?vid=e19cd9bd-8f1f-4909-a624-5af678243303","ios":"levelo://app?vid=e19cd9bd-8f1f-4909-a624-5af678243303"},"vehicle_type_id":"4","last_reported":1753513877,"current_range_meters":4800,"station_id":"","pricing_plan_id":"cebpf4jnsgd1na2vs0mg"},{"bike_id":"ad541dd1-1ce7-426c-9e19-c9e5271d6456","system_id":"levelo_inurba_marseille","lat":43.30372,"lon":5.42473,"is_reserved":false,"is_disabled":true,"rental_uris":{"android":"levelo://app?vid=ad541dd1-1ce7-426c-9e19-c9e5271d6456","ios":"levelo://app?vid=ad541dd1-1ce7-426c-9e19-c9e5271d6456"},"vehicle_type_id":"4","last_reported":1753513877,"current_range_meters":4800,"station_id":"ce4bhoh2rcd13ifvqh6g","pricing_plan_id":"cebpf4jnsgd1na2vs0mg"},{"bike_id":"b93c0803-f824-4cb7-a4ed-57da1403b68e","system_id":"levelo_inurba_marseille","lat":43.325583,"lon":5.379059,"is_reserved":false,"is_disabled":true,"rental_uris":{"android":"levelo://app?vid=b93c0803-f824-4cb7-a4ed-57da1403b68e","ios":"levelo://app?vid=b93c0803-f824-4cb7-a4ed-57da1403b68e"},"vehicle_type_id":"4","last_reported":1753513877,"current_range_meters":4800,"station_id":"","pricing_plan_id":"cebpf4jnsgd1na2vs0mg"},{"bike_id":"49a25020-c17f-426d-a295-c677da1110b3","system_id":"levelo_inurba_marseille","lat":43.26218,"lon":5.3743,"is_reserved":false,"is_disabled":false,"rental_uris":{"android":"levelo://app?vid=49a25020-c17f-426d-a295-c677da1110b3","ios":"levelo://app?vid=49a25020-c17f-426d-a295-c677da1110b3"},"vehicle_type_id":"4","last_reported":1753513877,"current_range_meters":4800,"station_id":"ce4bhgp2rcd13ifvqfc0","pricing_plan_id":"cebpf4jnsgd1na2vs0mg"},{"bike_id":"51979a68-a8cc-400e-b7b9-cd8004031e65","system_id":"levelo_inurba_marseille","lat":43.22537,"lon":5.34778,"is_reserved":false,"is_disabled":false,"rental_uris":{"android":"levelo://app?vid=51979a68-a8cc-400e-b7b9-cd8004031e65","ios":"levelo://app?vid=51979a68-a8cc-400e-b7b9-cd8004031e65"},"vehicle_type_id":"4","last_reported":1753513877,"current_range_meters":5600,"station_id":"st_cvj5dfep6f1abm77gieg","pricing_plan_id":"cebpf4jnsgd1na2vs0mg"},{"bike_id":"b2d9b512-461e-4c22-8160-83c7cfb0cdf8","system_id":"levelo_inurba_marseille","lat":43.27964,"lon":5.41062,"is_reserved":false,"is_disabled":true,"rental_uris":{"android":"levelo://app?vid=b2d9b512-461e-4c22-8160-83c7cfb0cdf8","ios":"levelo://app?vid=b2d9b512-461e-4c22-8160-83c7cfb0cdf8"},"vehicle_type_id":"4","last_reported":1753513877,"current_range_meters":6000,"station_id":"ce4bhnp2rcd13ifvqh0g","pricing_plan_id":"cebpf4jnsgd1na2vs0mg"},{"bike_id":"65fabc23-cf2a-4ca8-a868-9941476ce202","system_id":"levelo_inurba_marseille","lat":43.236373,"lon":5.361939,"is_reserved":false,"is_disabled":false,"rental_uris":{"android":"levelo://app?vid=65fabc23-cf2a-4ca8-a868-9941476ce202","ios":"levelo://app?vid=65fabc23-cf2a-4ca8-a868-9941476ce202"},"vehicle_type_id":"4","last_reported":1753513877,"current_range_meters":6000,"station_id":"","pricing_plan_id":"cebpf4jnsgd1na2vs0mg"},{"bike_id":"6f8510cb-e3c3-422b-8a9e-e94f7e59a282","system_id":"levelo_inurba_marseille","lat":43.24066,"lon":5.37747,"is_reserved":false,"is_disabled":false,"rental_uris":{"android":"levelo://app?vid=6f8510cb-e3c3-422b-8a9e-e94f7e59a282","ios":"levelo://app?vid=6f8510cb-e3c3-422b-8a9e-e94f7e59a282"},"vehicle_type_id":"4","last_reported":1753513877,"current_range_meters":6000,"station_id":"ce4bhnp2rcd13ifvqgvg","pricing_plan_id":"cebpf4jnsgd1na2vs0mg"},{"bike_id":"882618bf-6e93-4d61-a549-27a6fac31a49","system_id":"levelo_inurba_marseille","lat":43.28472,"lon":5.38422,"is_reserved":false,"is_disabled":false,"rental_uris":{"android":"levelo://app?vid=882618bf-6e93-4d61-a549-27a6fac31a49","ios":"levelo://app?vid=882618bf-6e93-4d61-a549-27a6fac31a49"},"vehicle_type_id":"4","last_reported":1753513877,"current_range_meters":6000,"station_id":"ce4bh512rcd13ifvqe3g","pricing_plan_id":"cebpf4jnsgd1na2vs0mg"},{"bike_id":"4c031d5d-a330-4c62-a1b0-aa7e93bb7a9a","system_id":"levelo_inurba_marseille","lat":43.290543,"lon":5.399547,"is_reserved":false,"is_disabled":false,"rental_uris":{"android":"levelo://app?vid=4c031d5d-a330-4c62-a1b0-aa7e93bb7a9a","ios":"levelo://app?vid=4c031d5d-a330-4c62-a1b0-aa7e93bb7a9a"},"vehicle_type_id":"4","last_reported":1753513877,"current_range_meters":6400,"station_id":"ce4bh392rcd13ifvqdm0","pricing_plan_id":"cebpf4jnsgd1na2vs0mg"},{"bike_id":"532bfd20-ded9-455a-bd78-ae5a649a80b8","system_id":"levelo_inurba_marseille","lat":43.30799,"lon":5.38152,"is_reserved":false,"is_disabled":false,"rental_uris":{"android":"levelo://app?vid=532bfd20-ded9-455a-bd78-ae5a649a80b8","ios":"levelo://app?vid=532bfd20-ded9-455a-bd78-ae5a649a80b8"},"vehicle_type_id":"4","last_reported":1753513877,"current_range_meters":6400,"station_id":"ce4bgt12rcd13ifvqce0","pricing_plan_id":"cebpf4jnsgd1na2vs0mg"},{"bike_id":"f28d2bb9-4217-4196-a573-ba6f4c172497","system_id":"levelo_inurba_marseille","lat":43.281632,"lon":5.361099,"is_reserved":false,"is_disabled":false,"rental_uris":{"android":"levelo://app?vid=f28d2bb9-4217-4196-a573-ba6f4c172497","ios":"levelo://app?vid=f28d2bb9-4217-4196-a573-ba6f4c172497"},"vehicle_type_id":"4","last_reported":1753513877,"current_range_meters":6400,"station_id":"","pricing_plan_id":"cebpf4jnsgd1na2vs0mg"},{"bike_id":"fb137ee8-516b-4636-9b1b-35bdc878d680","system_id":"levelo_inurba_marseille","lat":43.27625,"lon":5.36104,"is_reserved":false,"is_disabled":false,"rental_uris":{"android":"levelo://app?vid=fb137ee8-516b-4636-9b1b-35bdc878d680","ios":"levelo://app?vid=fb137ee8-516b-4636-9b1b-35bdc878d680"},"vehicle_type_id":"4","last_reported":1753513877,"current_range_meters":7200,"station_id":"ce4bgj92rcd13ifvqbe0","pricing_plan_id":"cebpf4jnsgd1na2vs0mg"},{"bike_id":"04aa5f40-dcf4-48c8-b153-089426eae692","system_id":"levelo_inurba_marseille","lat":43.301374,"lon":5.398646,"is_reserved":false,"is_disabled":false,"rental_uris":{"android":"levelo://app?vid=04aa5f40-dcf4-48c8-b153-089426eae692","ios":"levelo://app?vid=04aa5f40-dcf4-48c8-b153-089426eae692"},"vehicle_type_id":"4","last_reported":1753513877,"current_range_meters":7200,"station_id":"ce4bh0h2rcd13ifvqd40","pricing_plan_id":"cebpf4jnsgd1na2vs0mg"},{"bike_id":"b213d83d-cd34-418c-924c-1a8970fdd817","system_id":"levelo_inurba_marseille","lat":43.30141,"lon":5.37374,"is_reserved":false,"is_disabled":true,"rental_uris":{"android":"levelo://app?vid=b213d83d-cd34-418c-924c-1a8970fdd817","ios":"levelo://app?vid=b213d83d-cd34-418c-924c-1a8970fdd817"},"vehicle_type_id":"4","last_reported":1753513877,"current_range_meters":7200,"station_id":"ce4bgs92rcd13ifvqcc0","pricing_plan_id":"cebpf4jnsgd1na2vs0mg"},{"bike_id":"115c17e5-b1a4-4a78-97d5-2d84568f9ffd","system_id":"levelo_inurba_marseille","lat":43.28105,"lon":5.37833,"is_reserved":false,"is_disabled":false,"rental_uris":{"android":"levelo://app?vid=115c17e5-b1a4-4a78-97d5-2d84568f9ffd","ios":"levelo://app?vid=115c17e5-b1a4-4a78-97d5-2d84568f9ffd"},"vehicle_type_id":"4","last_reported":1753513877,"current_range_meters":7200,"station_id":"ce4bha12rcd13ifvqee0","pricing_plan_id":"cebpf4jnsgd1na2vs0mg"},{"bike_id":"a1676a90-aeae-4e28-8472-3e88e730a66f","system_id":"levelo_inurba_marseille","lat":43.29041,"lon":5.43968,"is_reserved":false,"is_disabled":true,"rental_uris":{"android":"levelo://app?vid=a1676a90-aeae-4e28-8472-3e88e730a66f","ios":"levelo://app?vid=a1676a90-aeae-4e28-8472-3e88e730a66f"},"vehicle_type_id":"4","last_reported":1753513877,"current_range_meters":8000,"station_id":"","pricing_plan_id":"cebpf4jnsgd1na2vs0mg"},{"bike_id":"79731e34-e0c5-4fad-be4c-a79fac89bc09","system_id":"levelo_inurba_marseille","lat":43.28664,"lon":5.38666,"is_reserved":false,"is_disabled":false,"rental_uris":{"android":"levelo://app?vid=79731e34-e0c5-4fad-be4c-a79fac89bc09","ios":"levelo://app?vid=79731e34-e0c5-4fad-be4c-a79fac89bc09"},"vehicle_type_id":"4","last_reported":1753513877,"current_range_meters":8000,"station_id":"ce4bh492rcd13ifvqdug","pricing_plan_id":"cebpf4jnsgd1na2vs0mg"},{"bike_id":"ab18ad8f-5eb3-4500-abe1-f62e948a9104","system_id":"levelo_inurba_marseille","lat":43.22491,"lon":5.34772,"is_reserved":false,"is_disabled":false,"rental_uris":{"android":"levelo://app?vid=ab18ad8f-5eb3-4500-abe1-f62e948a9104","ios":"levelo://app?vid=ab18ad8f-5eb3-4500-abe1-f62e948a9104"},"vehicle_type_id":"4","last_reported":1753513877,"current_range_meters":8000,"station_id":"st_cvj5dfep6f1abm77gieg","pricing_plan_id":"cebpf4jnsgd1na2vs0mg"},{"bike_id":"5b94eff9-2e0f-4c0e-b3f6-ab7ca2eca31a","system_id":"levelo_inurba_marseille","lat":43.27377,"lon":5.36241,"is_reserved":false,"is_disabled":false,"rental_uris":{"android":"levelo://app?vid=5b94eff9-2e0f-4c0e-b3f6-ab7ca2eca31a","ios":"levelo://app?vid=5b94eff9-2e0f-4c0e-b3f6-ab7ca2eca31a"},"vehicle_type_id":"4","last_reported":1753513877,"current_range_meters":8000,"station_id":"ce4bhbh2rcd13ifvqeo0","pricing_plan_id":"cebpf4jnsgd1na2vs0mg"},{"bike_id":"ac7f3c2f-452c-4620-beb4-96f9c8da3434","system_id":"levelo_inurba_marseille","lat":43.306021,"lon":5.385375,"is_reserved":false,"is_disabled":false,"rental_uris":{"android":"levelo://app?vid=ac7f3c2f-452c-4620-beb4-96f9c8da3434","ios":"levelo://app?vid=ac7f3c2f-452c-4620-beb4-96f9c8da3434"},"vehicle_type_id":"4","last_reported":1753513877,"current_range_meters":8000,"station_id":"","pricing_plan_id":"cebpf4jnsgd1na2vs0mg"},{"bike_id":"c332dd65-e309-4522-9e19-3f557a659a6f","system_id":"levelo_inurba_marseille","lat":43.303284,"lon":5.390402,"is_reserved":false,"is_disabled":false,"rental_uris":{"android":"levelo://app?vid=c332dd65-e309-4522-9e19-3f557a659a6f","ios":"levelo://app?vid=c332dd65-e309-4522-9e19-3f557a659a6f"},"vehicle_type_id":"4","last_reported":1753513877,"current_range_meters":8000,"station_id":"","pricing_plan_id":"cebpf4jnsgd1na2vs0mg"},{"bike_id":"c341a747-ec18-47bc-8512-a86a147bb06f","system_id":"levelo_inurba_marseille","lat":43.28723,"lon":5.39973,"is_reserved":false,"is_disabled":false,"rental_uris":{"android":"levelo://app?vid=c341a747-ec18-47bc-8512-a86a147bb06f","ios":"levelo://app?vid=c341a747-ec18-47bc-8512-a86a147bb06f"},"vehicle_type_id":"4","last_reported":1753513877,"current_range_meters":8000,"station_id":"ce4bho92rcd13ifvqh3g","pricing_plan_id":"cebpf4jnsgd1na2vs0mg"},{"bike_id":"89dcea3a-f7f7-44b2-9d2c-a3300861829d","system_id":"levelo_inurba_marseille","lat":43.278595,"lon":5.397142,"is_reserved":false,"is_disabled":false,"rental_uris":{"android":"levelo://app?vid=89dcea3a-f7f7-44b2-9d2c-a3300861829d","ios":"levelo://app?vid=89dcea3a-f7f7-44b2-9d2c-a3300861829d"},"vehicle_type_id":"4","last_reported":1753513877,"current_range_meters":8000,"station_id":"","pricing_plan_id":"cebpf4jnsgd1na2vs0mg"},{"bike_id":"3d93678c-a81c-4620-984f-403438ac187e","system_id":"levelo_inurba_marseille","lat":43.27898,"lon":5.42759,"is_reserved":false,"is_disabled":false,"rental_uris":{"android":"levelo://app?vid=3d93678c-a81c-4620-984f-403438ac187e","ios":"levelo://app?vid=3d93678c-a81c-4620-984f-403438ac187e"},"vehicle_type_id":"4","last_reported":1753513877,"current_range_meters":8000,"station_id":"","pricing_plan_id":"cebpf4jnsgd1na2vs0mg"},{"bike_id":"22a390ae-8984-4017-8fa8-3175df5e7f16","system_id":"levelo_inurba_marseille","lat":43.302603,"lon":5.400646,"is_reserved":false,"is_disabled":false,"rental_uris":{"android":"levelo://app?vid=22a390ae-8984-4017-8fa8-3175df5e7f16","ios":"levelo://app?vid=22a390ae-8984-4017-8fa8-3175df5e7f16"},"vehicle_type_id":"4","last_reported":1753513877,"current_range_meters":8000,"station_id":"ce4bgvh2rcd13ifvqcs0","pricing_plan_id":"cebpf4jnsgd1na2vs0mg"},{"bike_id":"6bb2ef45-92d7-483c-9633-db7367ddc00d","system_id":"levelo_inurba_marseille","lat":43.30267,"lon":5.40054,"is_reserved":false,"is_disabled":false,"rental_uris":{"android":"levelo://app?vid=6bb2ef45-92d7-483c-9633-db7367ddc00d","ios":"levelo://app?vid=6bb2ef45-92d7-483c-9633-db7367ddc00d"},"vehicle_type_id":"4","last_reported":1753513877,"current_range_meters":8400,"station_id":"ce4bgvh2rcd13ifvqcs0","pricing_plan_id":"cebpf4jnsgd1na2vs0mg"},{"bike_id":"5e996369-86ae-4816-8750-239b0e998170","system_id":"levelo_inurba_marseille","lat":43.21748,"lon":5.34598,"is_reserved":false,"is_disabled":false,"rental_uris":{"android":"levelo://app?vid=5e996369-86ae-4816-8750-239b0e998170","ios":"levelo://app?vid=5e996369-86ae-4816-8750-239b0e998170"},"vehicle_type_id":"4","last_reported":1753513877,"current_range_meters":8400,"station_id":"st_cvj6r9ubvosntc0bgbag","pricing_plan_id":"cebpf4jnsgd1na2vs0mg"},{"bike_id":"0a467843-20e6-48a1-a37e-0cfb95eec7c2","system_id":"levelo_inurba_marseille","lat":43.2989,"lon":5.39724,"is_reserved":false,"is_disabled":false,"rental_uris":{"android":"levelo://app?vid=0a467843-20e6-48a1-a37e-0cfb95eec7c2","ios":"levelo://app?vid=0a467843-20e6-48a1-a37e-0cfb95eec7c2"},"vehicle_type_id":"4","last_reported":1753513877,"current_range_meters":8400,"station_id":"ce4bh0h2rcd13ifvqd50","pricing_plan_id":"cebpf4jnsgd1na2vs0mg"},{"bike_id":"45bf7264-ac59-4c76-82ef-6f0b794d76fd","system_id":"levelo_inurba_marseille","lat":43.30461,"lon":5.37903,"is_reserved":false,"is_disabled":false,"rental_uris":{"android":"levelo://app?vid=45bf7264-ac59-4c76-82ef-6f0b794d76fd","ios":"levelo://app?vid=45bf7264-ac59-4c76-82ef-6f0b794d76fd"},"vehicle_type_id":"4","last_reported":1753513877,"current_range_meters":8400,"station_id":"ce4bgup2rcd13ifvqcn0","pricing_plan_id":"cebpf4jnsgd1na2vs0mg"},{"bike_id":"1c31f24b-2b9e-48c3-b103-bffd32b92420","system_id":"levelo_inurba_marseille","lat":43.33515,"lon":5.40859,"is_reserved":false,"is_disabled":false,"rental_uris":{"android":"levelo://app?vid=1c31f24b-2b9e-48c3-b103-bffd32b92420","ios":"levelo://app?vid=1c31f24b-2b9e-48c3-b103-bffd32b92420"},"vehicle_type_id":"4","last_reported":1753513877,"current_range_meters":8400,"station_id":"","pricing_plan_id":"cebpf4jnsgd1na2vs0mg"},{"bike_id":"882edace-b3e9-4cfe-a280-b53465db17be","system_id":"levelo_inurba_marseille","lat":43.24088,"lon":5.36326,"is_reserved":false,"is_disabled":false,"rental_uris":{"android":"levelo://app?vid=882edace-b3e9-4cfe-a280-b53465db17be","ios":"levelo://app?vid=882edace-b3e9-4cfe-a280-b53465db17be"},"vehicle_type_id":"4","last_reported":1753513877,"current_range_meters":8400,"station_id":"","pricing_plan_id":"cebpf4jnsgd1na2vs0mg"},{"bike_id":"f7623b57-5f88-4ef7-8535-1d8b44f90d27","system_id":"levelo_inurba_marseille","lat":43.22486,"lon":5.34831,"is_reserved":false,"is_disabled":false,"rental_uris":{"android":"levelo://app?vid=f7623b57-5f88-4ef7-8535-1d8b44f90d27","ios":"levelo://app?vid=f7623b57-5f88-4ef7-8535-1d8b44f90d27"},"vehicle_type_id":"4","last_reported":1753513877,"current_range_meters":8400,"station_id":"","pricing_plan_id":"cebpf4jnsgd1na2vs0mg"},{"bike_id":"ff30a5ee-0e9d-4bfa-a593-c7beaf9df463","system_id":"levelo_inurba_marseille","lat":43.335345,"lon":5.362118,"is_reserved":false,"is_disabled":false,"rental_uris":{"android":"levelo://app?vid=ff30a5ee-0e9d-4bfa-a593-c7beaf9df463","ios":"levelo://app?vid=ff30a5ee-0e9d-4bfa-a593-c7beaf9df463"},"vehicle_type_id":"4","last_reported":1753513877,"current_range_meters":8400,"station_id":"","pricing_plan_id":"cebpf4jnsgd1na2vs0mg"},{"bike_id":"282bf4fa-8dd0-4bb6-bfb4-61e17c78e838","system_id":"levelo_inurba_marseille","lat":43.30246,"lon":5.40062,"is_reserved":false,"is_disabled":false,"rental_uris":{"android":"levelo://app?vid=282bf4fa-8dd0-4bb6-bfb4-61e17c78e838","ios":"levelo://app?vid=282bf4fa-8dd0-4bb6-bfb4-61e17c78e838"},"vehicle_type_id":"4","last_reported":1753513877,"current_range_meters":8400,"station_id":"ce4bgvh2rcd13ifvqcs0","pricing_plan_id":"cebpf4jnsgd1na2vs0mg"},{"bike_id":"e60fd1d0-ee7c-40d4-a8da-2057aafd6d0d","system_id":"levelo_inurba_marseille","lat":43.30146,"lon":5.38084,"is_reserved":false,"is_disabled":false,"rental_uris":{"android":"levelo://app?vid=e60fd1d0-ee7c-40d4-a8da-2057aafd6d0d","ios":"levelo://app?vid=e60fd1d0-ee7c-40d4-a8da-2057aafd6d0d"},"vehicle_type_id":"4","last_reported":1753513877,"current_range_meters":8000,"station_id":"ce4bgjp2rcd13ifvqbh0","pricing_plan_id":"cebpf4jnsgd1na2vs0mg"},{"bike_id":"2cb156e7-0dd6-4356-8f3a-8a5ea9426834","system_id":"levelo_inurba_marseille","lat":43.28724,"lon":5.37925,"is_reserved":false,"is_disabled":false,"rental_uris":{"android":"levelo://app?vid=2cb156e7-0dd6-4356-8f3a-8a5ea9426834","ios":"levelo://app?vid=2cb156e7-0dd6-4356-8f3a-8a5ea9426834"},"vehicle_type_id":"4","last_reported":1753513877,"current_range_meters":8800,"station_id":"ce4bh9p2rcd13ifvqec0","pricing_plan_id":"cebpf4jnsgd1na2vs0mg"},{"bike_id":"177981dd-3c05-4e3c-9a69-f569b35b5310","system_id":"levelo_inurba_marseille","lat":43.24555,"lon":5.39514,"is_reserved":false,"is_disabled":false,"rental_uris":{"android":"levelo://app?vid=177981dd-3c05-4e3c-9a69-f569b35b5310","ios":"levelo://app?vid=177981dd-3c05-4e3c-9a69-f569b35b5310"},"vehicle_type_id":"4","last_reported":1753513877,"current_range_meters":8800,"station_id":"ce4bhlp2rcd13ifvqgjg","pricing_plan_id":"cebpf4jnsgd1na2vs0mg"},{"bike_id":"b471873a-b361-406c-8fe9-21b628f94778","system_id":"levelo_inurba_marseille","lat":43.31345,"lon":5.36695,"is_reserved":false,"is_disabled":false,"rental_uris":{"android":"levelo://app?vid=b471873a-b361-406c-8fe9-21b628f94778","ios":"levelo://app?vid=b471873a-b361-406c-8fe9-21b628f94778"},"vehicle_type_id":"4","last_reported":1753513877,"current_range_meters":8400,"station_id":"ce4bgr92rcd13ifvqc6g","pricing_plan_id":"cebpf4jnsgd1na2vs0mg"},{"bike_id":"0939eecf-ab8e-4e0f-8dde-ab5f40cfd3cc","system_id":"levelo_inurba_marseille","lat":43.28414,"lon":5.34993,"is_reserved":false,"is_disabled":true,"rental_uris":{"android":"levelo://app?vid=0939eecf-ab8e-4e0f-8dde-ab5f40cfd3cc","ios":"levelo://app?vid=0939eecf-ab8e-4e0f-8dde-ab5f40cfd3cc"},"vehicle_type_id":"4","last_reported":1753513877,"current_range_meters":8800,"station_id":"ce4bhbh2rcd13ifvqepg","pricing_plan_id":"cebpf4jnsgd1na2vs0mg"},{"bike_id":"a2ccbf76-8c1a-4aef-814f-db130f867270","system_id":"levelo_inurba_marseille","lat":43.30954,"lon":5.37385,"is_reserved":false,"is_disabled":false,"rental_uris":{"android":"levelo://app?vid=a2ccbf76-8c1a-4aef-814f-db130f867270","ios":"levelo://app?vid=a2ccbf76-8c1a-4aef-814f-db130f867270"},"vehicle_type_id":"4","last_reported":1753513877,"current_range_meters":8800,"station_id":"","pricing_plan_id":"cebpf4jnsgd1na2vs0mg"},{"bike_id":"c8dc9712-a045-4d70-989b-83ececa57361","system_id":"levelo_inurba_marseille","lat":43.28472,"lon":5.38412,"is_reserved":false,"is_disabled":true,"rental_uris":{"android":"levelo://app?vid=c8dc9712-a045-4d70-989b-83ececa57361","ios":"levelo://app?vid=c8dc9712-a045-4d70-989b-83ececa57361"},"vehicle_type_id":"4","last_reported":1753513877,"current_range_meters":9200,"station_id":"ce4bh512rcd13ifvqe3g","pricing_plan_id":"cebpf4jnsgd1na2vs0mg"},{"bike_id":"5ab7798c-0e5a-445a-baf5-2e9bea2306a1","system_id":"levelo_inurba_marseille","lat":43.29256,"lon":5.40088,"is_reserved":false,"is_disabled":false,"rental_uris":{"android":"levelo://app?vid=5ab7798c-0e5a-445a-baf5-2e9bea2306a1","ios":"levelo://app?vid=5ab7798c-0e5a-445a-baf5-2e9bea2306a1"},"vehicle_type_id":"4","last_reported":1753513877,"current_range_meters":9200,"station_id":"ce4bh312rcd13ifvqdk0","pricing_plan_id":"cebpf4jnsgd1na2vs0mg"},{"bike_id":"96539dd0-0f96-4ac5-b9b3-14b233b89122","system_id":"levelo_inurba_marseille","lat":43.28676,"lon":5.39994,"is_reserved":false,"is_disabled":false,"rental_uris":{"android":"levelo://app?vid=96539dd0-0f96-4ac5-b9b3-14b233b89122","ios":"levelo://app?vid=96539dd0-0f96-4ac5-b9b3-14b233b89122"},"vehicle_type_id":"4","last_reported":1753513877,"current_range_meters":9200,"station_id":"ce4bho92rcd13ifvqh3g","pricing_plan_id":"cebpf4jnsgd1na2vs0mg"},{"bike_id":"7d09ca65-31b4-4f39-8e17-9dd292a03570","system_id":"levelo_inurba_marseille","lat":43.283549,"lon":5.381216,"is_reserved":false,"is_disabled":false,"rental_uris":{"android":"levelo://app?vid=7d09ca65-31b4-4f39-8e17-9dd292a03570","ios":"levelo://app?vid=7d09ca65-31b4-4f39-8e17-9dd292a03570"},"vehicle_type_id":"4","last_reported":1753513877,"current_range_meters":9200,"station_id":"ce4bh412rcd13ifvqdr0","pricing_plan_id":"cebpf4jnsgd1na2vs0mg"},{"bike_id":"2e8e7fa4-47bc-4567-b903-96abfb4fdf66","system_id":"levelo_inurba_marseille","lat":43.292746,"lon":5.445976,"is_reserved":false,"is_disabled":false,"rental_uris":{"android":"levelo://app?vid=2e8e7fa4-47bc-4567-b903-96abfb4fdf66","ios":"levelo://app?vid=2e8e7fa4-47bc-4567-b903-96abfb4fdf66"},"vehicle_type_id":"4","last_reported":1753513877,"current_range_meters":9200,"station_id":"","pricing_plan_id":"cebpf4jnsgd1na2vs0mg"},{"bike_id":"2e791062-9e6a-4a1a-9c40-edf913003214","system_id":"levelo_inurba_marseille","lat":43.32353,"lon":5.40624,"is_reserved":false,"is_disabled":false,"rental_uris":{"android":"levelo://app?vid=2e791062-9e6a-4a1a-9c40-edf913003214","ios":"levelo://app?vid=2e791062-9e6a-4a1a-9c40-edf913003214"},"vehicle_type_id":"4","last_reported":1753513877,"current_range_meters":9200,"station_id":"ce4bhq92rcd13ifvqhjg","pricing_plan_id":"cebpf4jnsgd1na2vs0mg"},{"bike_id":"44acb791-61ef-4c5d-89d3-8f08bb4ec9d2","system_id":"levelo_inurba_marseille","lat":43.29841,"lon":5.36264,"is_reserved":false,"is_disabled":false,"rental_uris":{"android":"levelo://app?vid=44acb791-61ef-4c5d-89d3-8f08bb4ec9d2","ios":"levelo://app?vid=44acb791-61ef-4c5d-89d3-8f08bb4ec9d2"},"vehicle_type_id":"4","last_reported":1753513877,"current_range_meters":9200,"station_id":"ce4bgpp2rcd13ifvqc3g","pricing_plan_id":"cebpf4jnsgd1na2vs0mg"},{"bike_id":"6755382c-76dd-4587-baf5-a4b43a86610a","system_id":"levelo_inurba_marseille","lat":43.24076,"lon":5.37751,"is_reserved":false,"is_disabled":false,"rental_uris":{"android":"levelo://app?vid=6755382c-76dd-4587-baf5-a4b43a86610a","ios":"levelo://app?vid=6755382c-76dd-4587-baf5-a4b43a86610a"},"vehicle_type_id":"4","last_reported":1753513877,"current_range_meters":9200,"station_id":"ce4bhnp2rcd13ifvqgvg","pricing_plan_id":"cebpf4jnsgd1na2vs0mg"},{"bike_id":"ba982594-6c92-4311-8ffd-871ee92d7525","system_id":"levelo_inurba_marseille","lat":43.29271,"lon":5.36848,"is_reserved":false,"is_disabled":false,"rental_uris":{"android":"levelo://app?vid=ba982594-6c92-4311-8ffd-871ee92d7525","ios":"levelo://app?vid=ba982594-6c92-4311-8ffd-871ee92d7525"},"vehicle_type_id":"4","last_reported":1753513877,"current_range_meters":9200,"station_id":"ce4bhbp2rcd13ifvqesg","pricing_plan_id":"cebpf4jnsgd1na2vs0mg"},{"bike_id":"35ee41ab-1155-4c5d-a3ff-d1e05b86be8c","system_id":"levelo_inurba_marseille","lat":43.31073,"lon":5.40098,"is_reserved":false,"is_disabled":true,"rental_uris":{"android":"levelo://app?vid=35ee41ab-1155-4c5d-a3ff-d1e05b86be8c","ios":"levelo://app?vid=35ee41ab-1155-4c5d-a3ff-d1e05b86be8c"},"vehicle_type_id":"4","last_reported":1753513877,"current_range_meters":9200,"station_id":"","pricing_plan_id":"cebpf4jnsgd1na2vs0mg"},{"bike_id":"f844a339-7d37-4629-b9b3-2ab886c95711","system_id":"levelo_inurba_marseille","lat":43.25865,"lon":5.39905,"is_reserved":false,"is_disabled":true,"rental_uris":{"android":"levelo://app?vid=f844a339-7d37-4629-b9b3-2ab886c95711","ios":"levelo://app?vid=f844a339-7d37-4629-b9b3-2ab886c95711"},"vehicle_type_id":"4","last_reported":1753513877,"current_range_meters":9600,"station_id":"ce4bhl92rcd13ifvqghg","pricing_plan_id":"cebpf4jnsgd1na2vs0mg"},{"bike_id":"ec4fa9d4-db41-46cb-b998-edaa5e537b9c","system_id":"levelo_inurba_marseille","lat":43.32285,"lon":5.38282,"is_reserved":false,"is_disabled":false,"rental_uris":{"android":"levelo://app?vid=ec4fa9d4-db41-46cb-b998-edaa5e537b9c","ios":"levelo://app?vid=ec4fa9d4-db41-46cb-b998-edaa5e537b9c"},"vehicle_type_id":"4","last_reported":1753513877,"current_range_meters":9600,"station_id":"ce4bhr12rcd13ifvqhqg","pricing_plan_id":"cebpf4jnsgd1na2vs0mg"},{"bike_id":"c152b345-8485-43cc-8493-662672df770a","system_id":"levelo_inurba_marseille","lat":43.29308,"lon":5.40068,"is_reserved":false,"is_disabled":false,"rental_uris":{"android":"levelo://app?vid=c152b345-8485-43cc-8493-662672df770a","ios":"levelo://app?vid=c152b345-8485-43cc-8493-662672df770a"},"vehicle_type_id":"4","last_reported":1753513877,"current_range_meters":9600,"station_id":"ce4bh312rcd13ifvqdk0","pricing_plan_id":"cebpf4jnsgd1na2vs0mg"},{"bike_id":"04d6cdd5-5582-46ca-8f5a-f546962f07c6","system_id":"levelo_inurba_marseille","lat":43.28873,"lon":5.37846,"is_reserved":false,"is_disabled":false,"rental_uris":{"android":"levelo://app?vid=04d6cdd5-5582-46ca-8f5a-f546962f07c6","ios":"levelo://app?vid=04d6cdd5-5582-46ca-8f5a-f546962f07c6"},"vehicle_type_id":"4","last_reported":1753513877,"current_range_meters":9600,"station_id":"","pricing_plan_id":"cebpf4jnsgd1na2vs0mg"},{"bike_id":"8cbb8f7f-9095-4ea2-b7c0-3cb05502a868","system_id":"levelo_inurba_marseille","lat":43.288852,"lon":5.371204,"is_reserved":false,"is_disabled":false,"rental_uris":{"android":"levelo://app?vid=8cbb8f7f-9095-4ea2-b7c0-3cb05502a868","ios":"levelo://app?vid=8cbb8f7f-9095-4ea2-b7c0-3cb05502a868"},"vehicle_type_id":"4","last_reported":1753513877,"current_range_meters":9600,"station_id":"","pricing_plan_id":"cebpf4jnsgd1na2vs0mg"},{"bike_id":"5440a182-b760-4205-92c8-d9ab0a9c67c8","system_id":"levelo_inurba_marseille","lat":43.28422,"lon":5.34972,"is_reserved":false,"is_disabled":false,"rental_uris":{"android":"levelo://app?vid=5440a182-b760-4205-92c8-d9ab0a9c67c8","ios":"levelo://app?vid=5440a182-b760-4205-92c8-d9ab0a9c67c8"},"vehicle_type_id":"4","last_reported":1753513877,"current_range_meters":10000,"station_id":"ce4bhbh2rcd13ifvqepg","pricing_plan_id":"cebpf4jnsgd1na2vs0mg"},{"bike_id":"078febbd-6d49-4abf-8b46-d33f87f8da46","system_id":"levelo_inurba_marseille","lat":43.25452,"lon":5.38007,"is_reserved":false,"is_disabled":false,"rental_uris":{"android":"levelo://app?vid=078febbd-6d49-4abf-8b46-d33f87f8da46","ios":"levelo://app?vid=078febbd-6d49-4abf-8b46-d33f87f8da46"},"vehicle_type_id":"4","last_reported":1753513877,"current_range_meters":10000,"station_id":"","pricing_plan_id":"cebpf4jnsgd1na2vs0mg"},{"bike_id":"378521b9-2f88-49b6-9620-86cb628eab29","system_id":"levelo_inurba_marseille","lat":43.27198,"lon":5.40987,"is_reserved":false,"is_disabled":false,"rental_uris":{"android":"levelo://app?vid=378521b9-2f88-49b6-9620-86cb628eab29","ios":"levelo://app?vid=378521b9-2f88-49b6-9620-86cb628eab29"},"vehicle_type_id":"4","last_reported":1753513877,"current_range_meters":10000,"station_id":"ce4bhl12rcd13ifvqgf0","pricing_plan_id":"cebpf4jnsgd1na2vs0mg"},{"bike_id":"7a6655d1-0f7d-4120-b762-b66490534955","system_id":"levelo_inurba_marseille","lat":43.29361,"lon":5.37838,"is_reserved":false,"is_disabled":false,"rental_uris":{"android":"levelo://app?vid=7a6655d1-0f7d-4120-b762-b66490534955","ios":"levelo://app?vid=7a6655d1-0f7d-4120-b762-b66490534955"},"vehicle_type_id":"4","last_reported":1753513877,"current_range_meters":10000,"station_id":"ce4bgjh2rcd13ifvqbf0","pricing_plan_id":"cebpf4jnsgd1na2vs0mg"},{"bike_id":"591fb768-7e78-4b54-88b5-e73a5af76b19","system_id":"levelo_inurba_marseille","lat":43.229179,"lon":5.35369,"is_reserved":false,"is_disabled":false,"rental_uris":{"android":"levelo://app?vid=591fb768-7e78-4b54-88b5-e73a5af76b19","ios":"levelo://app?vid=591fb768-7e78-4b54-88b5-e73a5af76b19"},"vehicle_type_id":"4","last_reported":1753513877,"current_range_meters":10000,"station_id":"cpo3532slgdg3j2ikp40","pricing_plan_id":"cebpf4jnsgd1na2vs0mg"},{"bike_id":"ccca3042-9358-40fc-ac03-e327e01c225f","system_id":"levelo_inurba_marseille","lat":43.23288,"lon":5.3613,"is_reserved":false,"is_disabled":false,"rental_uris":{"android":"levelo://app?vid=ccca3042-9358-40fc-ac03-e327e01c225f","ios":"levelo://app?vid=ccca3042-9358-40fc-ac03-e327e01c225f"},"vehicle_type_id":"4","last_reported":1753513877,"current_range_meters":10000,"station_id":"","pricing_plan_id":"cebpf4jnsgd1na2vs0mg"},{"bike_id":"4e6e6044-20e5-44fc-87b5-2b41e2616d90","system_id":"levelo_inurba_marseille","lat":43.30116,"lon":5.39868,"is_reserved":false,"is_disabled":true,"rental_uris":{"android":"levelo://app?vid=4e6e6044-20e5-44fc-87b5-2b41e2616d90","ios":"levelo://app?vid=4e6e6044-20e5-44fc-87b5-2b41e2616d90"},"vehicle_type_id":"4","last_reported":1753513877,"current_range_meters":10000,"station_id":"ce4bh0h2rcd13ifvqd40","pricing_plan_id":"cebpf4jnsgd1na2vs0mg"},{"bike_id":"bf5dc847-8618-43ac-89c5-509d432811df","system_id":"levelo_inurba_marseille","lat":43.28697,"lon":5.37401,"is_reserved":false,"is_disabled":false,"rental_uris":{"android":"levelo://app?vid=bf5dc847-8618-43ac-89c5-509d432811df","ios":"levelo://app?vid=bf5dc847-8618-43ac-89c5-509d432811df"},"vehicle_type_id":"4","last_reported":1753513877,"current_range_meters":10800,"station_id":"ce4bh3p2rcd13ifvqdq0","pricing_plan_id":"cebpf4jnsgd1na2vs0mg"},{"bike_id":"773b48d4-858e-46f9-8819-6029f415d049","system_id":"levelo_inurba_marseille","lat":43.312528,"lon":5.368638,"is_reserved":false,"is_disabled":true,"rental_uris":{"android":"levelo://app?vid=773b48d4-858e-46f9-8819-6029f415d049","ios":"levelo://app?vid=773b48d4-858e-46f9-8819-6029f415d049"},"vehicle_type_id":"4","last_reported":1753513877,"current_range_meters":10800,"station_id":"ce4bgl92rcd13ifvqbq0","pricing_plan_id":"cebpf4jnsgd1na2vs0mg"},{"bike_id":"a3fe9995-2e3e-423b-9540-429a92fa997e","system_id":"levelo_inurba_marseille","lat":43.301663,"lon":5.37227,"is_reserved":false,"is_disabled":false,"rental_uris":{"android":"levelo://app?vid=a3fe9995-2e3e-423b-9540-429a92fa997e","ios":"levelo://app?vid=a3fe9995-2e3e-423b-9540-429a92fa997e"},"vehicle_type_id":"4","last_reported":1753513877,"current_range_meters":10800,"station_id":"","pricing_plan_id":"cebpf4jnsgd1na2vs0mg"},{"bike_id":"c54b8f05-7913-4da3-ae76-4264f55e6528","system_id":"levelo_inurba_marseille","lat":43.313664,"lon":5.384954,"is_reserved":false,"is_disabled":false,"rental_uris":{"android":"levelo://app?vid=c54b8f05-7913-4da3-ae76-4264f55e6528","ios":"levelo://app?vid=c54b8f05-7913-4da3-ae76-4264f55e6528"},"vehicle_type_id":"4","last_reported":1753513877,"current_range_meters":10800,"station_id":"ce4bgt92rcd13ifvqcf0","pricing_plan_id":"cebpf4jnsgd1na2vs0mg"},{"bike_id":"14290dc3-0ecb-4c09-bf2e-6db4a8e35188","system_id":"levelo_inurba_marseille","lat":43.24405,"lon":5.37062,"is_reserved":false,"is_disabled":false,"rental_uris":{"android":"levelo://app?vid=14290dc3-0ecb-4c09-bf2e-6db4a8e35188","ios":"levelo://app?vid=14290dc3-0ecb-4c09-bf2e-6db4a8e35188"},"vehicle_type_id":"4","last_reported":1753513877,"current_range_meters":10800,"station_id":"ce4bhhh2rcd13ifvqfk0","pricing_plan_id":"cebpf4jnsgd1na2vs0mg"},{"bike_id":"c24119a7-d65c-4df3-9945-94134365152b","system_id":"levelo_inurba_marseille","lat":43.29443,"lon":5.39756,"is_reserved":false,"is_disabled":false,"rental_uris":{"android":"levelo://app?vid=c24119a7-d65c-4df3-9945-94134365152b","ios":"levelo://app?vid=c24119a7-d65c-4df3-9945-94134365152b"},"vehicle_type_id":"4","last_reported":1753513877,"current_range_meters":10000,"station_id":"ce4bh3h2rcd13ifvqdo0","pricing_plan_id":"cebpf4jnsgd1na2vs0mg"},{"bike_id":"9bb32344-605b-44ea-aa2a-94e1b611494e","system_id":"levelo_inurba_marseille","lat":43.243888,"lon":5.370599,"is_reserved":false,"is_disabled":false,"rental_uris":{"android":"levelo://app?vid=9bb32344-605b-44ea-aa2a-94e1b611494e","ios":"levelo://app?vid=9bb32344-605b-44ea-aa2a-94e1b611494e"},"vehicle_type_id":"4","last_reported":1753513877,"current_range_meters":10800,"station_id":"ce4bhhh2rcd13ifvqfk0","pricing_plan_id":"cebpf4jnsgd1na2vs0mg"},{"bike_id":"44dd49d0-ee46-43b9-9770-ee74a62ddcb7","system_id":"levelo_inurba_marseille","lat":43.31086,"lon":5.38346,"is_reserved":false,"is_disabled":false,"rental_uris":{"android":"levelo://app?vid=44dd49d0-ee46-43b9-9770-ee74a62ddcb7","ios":"levelo://app?vid=44dd49d0-ee46-43b9-9770-ee74a62ddcb7"},"vehicle_type_id":"4","last_reported":1753513877,"current_range_meters":11200,"station_id":"ce4bgv92rcd13ifvqcr0","pricing_plan_id":"cebpf4jnsgd1na2vs0mg"},{"bike_id":"43cf4049-15dd-4e8c-88a8-61cd8dc10bf5","system_id":"levelo_inurba_marseille","lat":43.33264,"lon":5.37904,"is_reserved":false,"is_disabled":false,"rental_uris":{"android":"levelo://app?vid=43cf4049-15dd-4e8c-88a8-61cd8dc10bf5","ios":"levelo://app?vid=43cf4049-15dd-4e8c-88a8-61cd8dc10bf5"},"vehicle_type_id":"4","last_reported":1753513877,"current_range_meters":11200,"station_id":"","pricing_plan_id":"cebpf4jnsgd1na2vs0mg"},{"bike_id":"4878cf6d-5d8c-46c7-9c7f-8504713d84db","system_id":"levelo_inurba_marseille","lat":43.31066,"lon":5.38335,"is_reserved":false,"is_disabled":false,"rental_uris":{"android":"levelo://app?vid=4878cf6d-5d8c-46c7-9c7f-8504713d84db","ios":"levelo://app?vid=4878cf6d-5d8c-46c7-9c7f-8504713d84db"},"vehicle_type_id":"4","last_reported":1753513877,"current_range_meters":11200,"station_id":"ce4bgv92rcd13ifvqcr0","pricing_plan_id":"cebpf4jnsgd1na2vs0mg"},{"bike_id":"eeeb9218-8042-4cbd-95a4-0834de564d28","system_id":"levelo_inurba_marseille","lat":43.217423,"lon":5.346065,"is_reserved":false,"is_disabled":false,"rental_uris":{"android":"levelo://app?vid=eeeb9218-8042-4cbd-95a4-0834de564d28","ios":"levelo://app?vid=eeeb9218-8042-4cbd-95a4-0834de564d28"},"vehicle_type_id":"4","last_reported":1753513877,"current_range_meters":11200,"station_id":"st_cvj6r9ubvosntc0bgbag","pricing_plan_id":"cebpf4jnsgd1na2vs0mg"},{"bike_id":"06efbd2a-fcca-4784-aa74-70f8fdbdc82d","system_id":"levelo_inurba_marseille","lat":43.29261,"lon":5.36835,"is_reserved":false,"is_disabled":true,"rental_uris":{"android":"levelo://app?vid=06efbd2a-fcca-4784-aa74-70f8fdbdc82d","ios":"levelo://app?vid=06efbd2a-fcca-4784-aa74-70f8fdbdc82d"},"vehicle_type_id":"4","last_reported":1753513877,"current_range_meters":11200,"station_id":"ce4bhbp2rcd13ifvqesg","pricing_plan_id":"cebpf4jnsgd1na2vs0mg"},{"bike_id":"2aaf9e53-3f16-42db-8c23-6f1eb4773524","system_id":"levelo_inurba_marseille","lat":43.284223,"lon":5.34985,"is_reserved":false,"is_disabled":false,"rental_uris":{"android":"levelo://app?vid=2aaf9e53-3f16-42db-8c23-6f1eb4773524","ios":"levelo://app?vid=2aaf9e53-3f16-42db-8c23-6f1eb4773524"},"vehicle_type_id":"4","last_reported":1753513877,"current_range_meters":11600,"station_id":"ce4bhbh2rcd13ifvqepg","pricing_plan_id":"cebpf4jnsgd1na2vs0mg"},{"bike_id":"8a051f62-efef-47f6-919b-22e9f11a2666","system_id":"levelo_inurba_marseille","lat":43.25003,"lon":5.38927,"is_reserved":false,"is_disabled":false,"rental_uris":{"android":"levelo://app?vid=8a051f62-efef-47f6-919b-22e9f11a2666","ios":"levelo://app?vid=8a051f62-efef-47f6-919b-22e9f11a2666"},"vehicle_type_id":"4","last_reported":1753513877,"current_range_meters":11600,"station_id":"ce4bhgp2rcd13ifvqfd0","pricing_plan_id":"cebpf4jnsgd1na2vs0mg"},{"bike_id":"02eb341a-2c80-41b7-af00-aee86e209066","system_id":"levelo_inurba_marseille","lat":43.30802,"lon":5.38135,"is_reserved":false,"is_disabled":false,"rental_uris":{"android":"levelo://app?vid=02eb341a-2c80-41b7-af00-aee86e209066","ios":"levelo://app?vid=02eb341a-2c80-41b7-af00-aee86e209066"},"vehicle_type_id":"4","last_reported":1753513877,"current_range_meters":11600,"station_id":"ce4bgt12rcd13ifvqce0","pricing_plan_id":"cebpf4jnsgd1na2vs0mg"},{"bike_id":"21a22bc7-65fe-4b97-a005-517b211a0b98","system_id":"levelo_inurba_marseille","lat":43.23053,"lon":5.354911,"is_reserved":false,"is_disabled":false,"rental_uris":{"android":"levelo://app?vid=21a22bc7-65fe-4b97-a005-517b211a0b98","ios":"levelo://app?vid=21a22bc7-65fe-4b97-a005-517b211a0b98"},"vehicle_type_id":"4","last_reported":1753513877,"current_range_meters":11600,"station_id":"cpo3342slgdg3j2ifvpg","pricing_plan_id":"cebpf4jnsgd1na2vs0mg"},{"bike_id":"520b4f98-60fb-49a4-b66e-a1051615bd51","system_id":"levelo_inurba_marseille","lat":43.310791,"lon":5.383525,"is_reserved":false,"is_disabled":false,"rental_uris":{"android":"levelo://app?vid=520b4f98-60fb-49a4-b66e-a1051615bd51","ios":"levelo://app?vid=520b4f98-60fb-49a4-b66e-a1051615bd51"},"vehicle_type_id":"4","last_reported":1753513877,"current_range_meters":11600,"station_id":"ce4bgv92rcd13ifvqcr0","pricing_plan_id":"cebpf4jnsgd1na2vs0mg"},{"bike_id":"812d5501-ea65-4715-aa4b-8239dd8992be","system_id":"levelo_inurba_marseille","lat":43.26193,"lon":5.37443,"is_reserved":false,"is_disabled":true,"rental_uris":{"android":"levelo://app?vid=812d5501-ea65-4715-aa4b-8239dd8992be","ios":"levelo://app?vid=812d5501-ea65-4715-aa4b-8239dd8992be"},"vehicle_type_id":"4","last_reported":1753513877,"current_range_meters":11600,"station_id":"ce4bhgp2rcd13ifvqfc0","pricing_plan_id":"cebpf4jnsgd1na2vs0mg"},{"bike_id":"23720e5e-2b93-4d11-bb57-506e72944df1","system_id":"levelo_inurba_marseille","lat":43.293717,"lon":5.378493,"is_reserved":false,"is_disabled":false,"rental_uris":{"android":"levelo://app?vid=23720e5e-2b93-4d11-bb57-506e72944df1","ios":"levelo://app?vid=23720e5e-2b93-4d11-bb57-506e72944df1"},"vehicle_type_id":"4","last_reported":1753513877,"current_range_meters":11600,"station_id":"ce4bgjh2rcd13ifvqbf0","pricing_plan_id":"cebpf4jnsgd1na2vs0mg"},{"bike_id":"37edb889-f2b1-4e0e-9841-76c4a3c5c0ae","system_id":"levelo_inurba_marseille","lat":43.31083,"lon":5.38344,"is_reserved":false,"is_disabled":false,"rental_uris":{"android":"levelo://app?vid=37edb889-f2b1-4e0e-9841-76c4a3c5c0ae","ios":"levelo://app?vid=37edb889-f2b1-4e0e-9841-76c4a3c5c0ae"},"vehicle_type_id":"4","last_reported":1753513877,"current_range_meters":11600,"station_id":"ce4bgv92rcd13ifvqcr0","pricing_plan_id":"cebpf4jnsgd1na2vs0mg"},{"bike_id":"22dca147-1260-44d8-822d-d9d1d50cce31","system_id":"levelo_inurba_marseille","lat":43.27473,"lon":5.39586,"is_reserved":false,"is_disabled":false,"rental_uris":{"android":"levelo://app?vid=22dca147-1260-44d8-822d-d9d1d50cce31","ios":"levelo://app?vid=22dca147-1260-44d8-822d-d9d1d50cce31"},"vehicle_type_id":"4","last_reported":1753513877,"current_range_meters":12000,"station_id":"","pricing_plan_id":"cebpf4jnsgd1na2vs0mg"},{"bike_id":"127b6b72-bfb2-485f-b579-b67c1ffbea0b","system_id":"levelo_inurba_marseille","lat":43.290311,"lon":5.399895,"is_reserved":false,"is_disabled":false,"rental_uris":{"android":"levelo://app?vid=127b6b72-bfb2-485f-b579-b67c1ffbea0b","ios":"levelo://app?vid=127b6b72-bfb2-485f-b579-b67c1ffbea0b"},"vehicle_type_id":"4","last_reported":1753513877,"current_range_meters":12000,"station_id":"ce4bh392rcd13ifvqdm0","pricing_plan_id":"cebpf4jnsgd1na2vs0mg"},{"bike_id":"d79b409f-ca1b-43df-9348-1c6665f1fc25","system_id":"levelo_inurba_marseille","lat":43.22502,"lon":5.34772,"is_reserved":false,"is_disabled":false,"rental_uris":{"android":"levelo://app?vid=d79b409f-ca1b-43df-9348-1c6665f1fc25","ios":"levelo://app?vid=d79b409f-ca1b-43df-9348-1c6665f1fc25"},"vehicle_type_id":"4","last_reported":1753513877,"current_range_meters":12400,"station_id":"st_cvj5dfep6f1abm77gieg","pricing_plan_id":"cebpf4jnsgd1na2vs0mg"},{"bike_id":"d61ccc63-1245-426e-b18a-66af9e0a866c","system_id":"levelo_inurba_marseille","lat":43.29267,"lon":5.3684,"is_reserved":false,"is_disabled":false,"rental_uris":{"android":"levelo://app?vid=d61ccc63-1245-426e-b18a-66af9e0a866c","ios":"levelo://app?vid=d61ccc63-1245-426e-b18a-66af9e0a866c"},"vehicle_type_id":"4","last_reported":1753513877,"current_range_meters":12400,"station_id":"ce4bhbp2rcd13ifvqesg","pricing_plan_id":"cebpf4jnsgd1na2vs0mg"},{"bike_id":"c58eefdf-cf11-4962-93d9-3a4a1f3bdf88","system_id":"levelo_inurba_marseille","lat":43.28409,"lon":5.37512,"is_reserved":false,"is_disabled":false,"rental_uris":{"android":"levelo://app?vid=c58eefdf-cf11-4962-93d9-3a4a1f3bdf88","ios":"levelo://app?vid=c58eefdf-cf11-4962-93d9-3a4a1f3bdf88"},"vehicle_type_id":"4","last_reported":1753513877,"current_range_meters":12400,"station_id":"ce4bh412rcd13ifvqds0","pricing_plan_id":"cebpf4jnsgd1na2vs0mg"},{"bike_id":"1e831606-6e16-47f8-b3af-71272dba83e0","system_id":"levelo_inurba_marseille","lat":43.28934,"lon":5.36628,"is_reserved":false,"is_disabled":false,"rental_uris":{"android":"levelo://app?vid=1e831606-6e16-47f8-b3af-71272dba83e0","ios":"levelo://app?vid=1e831606-6e16-47f8-b3af-71272dba83e0"},"vehicle_type_id":"4","last_reported":1753513877,"current_range_meters":12800,"station_id":"ce4bhap2rcd13ifvqek0","pricing_plan_id":"cebpf4jnsgd1na2vs0mg"},{"bike_id":"970ce0d9-2c80-445a-b6ab-c8eb3acdf2c4","system_id":"levelo_inurba_marseille","lat":43.26218,"lon":5.40451,"is_reserved":false,"is_disabled":false,"rental_uris":{"android":"levelo://app?vid=970ce0d9-2c80-445a-b6ab-c8eb3acdf2c4","ios":"levelo://app?vid=970ce0d9-2c80-445a-b6ab-c8eb3acdf2c4"},"vehicle_type_id":"4","last_reported":1753513877,"current_range_meters":12800,"station_id":"ce4bhmh2rcd13ifvqgmg","pricing_plan_id":"cebpf4jnsgd1na2vs0mg"},{"bike_id":"b61e5dff-e6c9-4ff6-b2ca-55eaa8f6665e","system_id":"levelo_inurba_marseille","lat":43.282695,"lon":5.350601,"is_reserved":false,"is_disabled":true,"rental_uris":{"android":"levelo://app?vid=b61e5dff-e6c9-4ff6-b2ca-55eaa8f6665e","ios":"levelo://app?vid=b61e5dff-e6c9-4ff6-b2ca-55eaa8f6665e"},"vehicle_type_id":"4","last_reported":1753513877,"current_range_meters":12800,"station_id":"ce4bhbp2rcd13ifvqerg","pricing_plan_id":"cebpf4jnsgd1na2vs0mg"},{"bike_id":"7beabfe9-90b9-4879-9d59-b7cae8ca3b4c","system_id":"levelo_inurba_marseille","lat":43.287152,"lon":5.373886,"is_reserved":false,"is_disabled":false,"rental_uris":{"android":"levelo://app?vid=7beabfe9-90b9-4879-9d59-b7cae8ca3b4c","ios":"levelo://app?vid=7beabfe9-90b9-4879-9d59-b7cae8ca3b4c"},"vehicle_type_id":"4","last_reported":1753513877,"current_range_meters":13600,"station_id":"ce4bh3p2rcd13ifvqdq0","pricing_plan_id":"cebpf4jnsgd1na2vs0mg"},{"bike_id":"847b44c9-efab-4746-8937-dcebf1206fff","system_id":"levelo_inurba_marseille","lat":43.26194,"lon":5.37446,"is_reserved":false,"is_disabled":false,"rental_uris":{"android":"levelo://app?vid=847b44c9-efab-4746-8937-dcebf1206fff","ios":"levelo://app?vid=847b44c9-efab-4746-8937-dcebf1206fff"},"vehicle_type_id":"4","last_reported":1753513877,"current_range_meters":13600,"station_id":"ce4bhgp2rcd13ifvqfc0","pricing_plan_id":"cebpf4jnsgd1na2vs0mg"},{"bike_id":"166f0064-4245-46e2-9cf1-4314b6cad9fc","system_id":"levelo_inurba_marseille","lat":43.326601,"lon":5.409919,"is_reserved":false,"is_disabled":false,"rental_uris":{"android":"levelo://app?vid=166f0064-4245-46e2-9cf1-4314b6cad9fc","ios":"levelo://app?vid=166f0064-4245-46e2-9cf1-4314b6cad9fc"},"vehicle_type_id":"4","last_reported":1753513877,"current_range_meters":12800,"station_id":"ce4bhpp2rcd13ifvqhgg","pricing_plan_id":"cebpf4jnsgd1na2vs0mg"},{"bike_id":"de99b14c-9afd-4bdd-bc56-50354c110c3d","system_id":"levelo_inurba_marseille","lat":43.25467,"lon":5.37687,"is_reserved":false,"is_disabled":false,"rental_uris":{"android":"levelo://app?vid=de99b14c-9afd-4bdd-bc56-50354c110c3d","ios":"levelo://app?vid=de99b14c-9afd-4bdd-bc56-50354c110c3d"},"vehicle_type_id":"4","last_reported":1753513877,"current_range_meters":13600,"station_id":"","pricing_plan_id":"cebpf4jnsgd1na2vs0mg"},{"bike_id":"2551aeb9-d478-4559-97a6-036ce08c7df0","system_id":"levelo_inurba_marseille","lat":43.28433,"lon":5.34988,"is_reserved":false,"is_disabled":false,"rental_uris":{"android":"levelo://app?vid=2551aeb9-d478-4559-97a6-036ce08c7df0","ios":"levelo://app?vid=2551aeb9-d478-4559-97a6-036ce08c7df0"},"vehicle_type_id":"4","last_reported":1753513877,"current_range_meters":13600,"station_id":"ce4bhbh2rcd13ifvqepg","pricing_plan_id":"cebpf4jnsgd1na2vs0mg"},{"bike_id":"7528e0ee-3254-4380-8007-ffef61e356ca","system_id":"levelo_inurba_marseille","lat":43.265568,"lon":5.372925,"is_reserved":false,"is_disabled":false,"rental_uris":{"android":"levelo://app?vid=7528e0ee-3254-4380-8007-ffef61e356ca","ios":"levelo://app?vid=7528e0ee-3254-4380-8007-ffef61e356ca"},"vehicle_type_id":"4","last_reported":1753513877,"current_range_meters":13600,"station_id":"ce4bhg12rcd13ifvqf70","pricing_plan_id":"cebpf4jnsgd1na2vs0mg"},{"bike_id":"c26f1b4d-11e7-4aaa-8fd1-0c8a6e22bd7c","system_id":"levelo_inurba_marseille","lat":43.3013,"lon":5.38786,"is_reserved":false,"is_disabled":false,"rental_uris":{"android":"levelo://app?vid=c26f1b4d-11e7-4aaa-8fd1-0c8a6e22bd7c","ios":"levelo://app?vid=c26f1b4d-11e7-4aaa-8fd1-0c8a6e22bd7c"},"vehicle_type_id":"4","last_reported":1753513877,"current_range_meters":13600,"station_id":"ce4bghh2rcd13ifvqb60","pricing_plan_id":"cebpf4jnsgd1na2vs0mg"},{"bike_id":"ec74f06a-40dc-4c39-a0cb-57d6f568a4e5","system_id":"levelo_inurba_marseille","lat":43.22938,"lon":5.35346,"is_reserved":false,"is_disabled":false,"rental_uris":{"android":"levelo://app?vid=ec74f06a-40dc-4c39-a0cb-57d6f568a4e5","ios":"levelo://app?vid=ec74f06a-40dc-4c39-a0cb-57d6f568a4e5"},"vehicle_type_id":"4","last_reported":1753513877,"current_range_meters":13600,"station_id":"cpo3532slgdg3j2ikp40","pricing_plan_id":"cebpf4jnsgd1na2vs0mg"},{"bike_id":"0574be29-517b-4942-b3cc-ba6b7cf9246f","system_id":"levelo_inurba_marseille","lat":43.284,"lon":5.37516,"is_reserved":false,"is_disabled":true,"rental_uris":{"android":"levelo://app?vid=0574be29-517b-4942-b3cc-ba6b7cf9246f","ios":"levelo://app?vid=0574be29-517b-4942-b3cc-ba6b7cf9246f"},"vehicle_type_id":"4","last_reported":1753513877,"current_range_meters":13600,"station_id":"ce4bh412rcd13ifvqds0","pricing_plan_id":"cebpf4jnsgd1na2vs0mg"},{"bike_id":"e4dc6bfa-c6c3-4091-9b9e-62f40aa9361e","system_id":"levelo_inurba_marseille","lat":43.28924,"lon":5.36624,"is_reserved":false,"is_disabled":false,"rental_uris":{"android":"levelo://app?vid=e4dc6bfa-c6c3-4091-9b9e-62f40aa9361e","ios":"levelo://app?vid=e4dc6bfa-c6c3-4091-9b9e-62f40aa9361e"},"vehicle_type_id":"4","last_reported":1753513877,"current_range_meters":13600,"station_id":"ce4bhap2rcd13ifvqek0","pricing_plan_id":"cebpf4jnsgd1na2vs0mg"},{"bike_id":"57755280-973c-4ff3-9c25-8f15e2c5b510","system_id":"levelo_inurba_marseille","lat":43.31872,"lon":5.37373,"is_reserved":false,"is_disabled":false,"rental_uris":{"android":"levelo://app?vid=57755280-973c-4ff3-9c25-8f15e2c5b510","ios":"levelo://app?vid=57755280-973c-4ff3-9c25-8f15e2c5b510"},"vehicle_type_id":"4","last_reported":1753513877,"current_range_meters":13600,"station_id":"","pricing_plan_id":"cebpf4jnsgd1na2vs0mg"},{"bike_id":"6ab0b13c-2ff1-417a-acfd-489d6800d4c9","system_id":"levelo_inurba_marseille","lat":43.27374,"lon":5.36249,"is_reserved":false,"is_disabled":true,"rental_uris":{"android":"levelo://app?vid=6ab0b13c-2ff1-417a-acfd-489d6800d4c9","ios":"levelo://app?vid=6ab0b13c-2ff1-417a-acfd-489d6800d4c9"},"vehicle_type_id":"4","last_reported":1753513877,"current_range_meters":13600,"station_id":"ce4bhbh2rcd13ifvqeo0","pricing_plan_id":"cebpf4jnsgd1na2vs0mg"},{"bike_id":"f2c0d178-a474-46a0-b002-379a7a30c411","system_id":"levelo_inurba_marseille","lat":43.294058,"lon":5.376081,"is_reserved":false,"is_disabled":false,"rental_uris":{"android":"levelo://app?vid=f2c0d178-a474-46a0-b002-379a7a30c411","ios":"levelo://app?vid=f2c0d178-a474-46a0-b002-379a7a30c411"},"vehicle_type_id":"4","last_reported":1753513877,"current_range_meters":14000,"station_id":"","pricing_plan_id":"cebpf4jnsgd1na2vs0mg"},{"bike_id":"09b7f600-cb1e-4ea0-adc2-9c3dcb778794","system_id":"levelo_inurba_marseille","lat":43.22495,"lon":5.34802,"is_reserved":false,"is_disabled":false,"rental_uris":{"android":"levelo://app?vid=09b7f600-cb1e-4ea0-adc2-9c3dcb778794","ios":"levelo://app?vid=09b7f600-cb1e-4ea0-adc2-9c3dcb778794"},"vehicle_type_id":"4","last_reported":1753513877,"current_range_meters":14000,"station_id":"st_cvj5dfep6f1abm77gieg","pricing_plan_id":"cebpf4jnsgd1na2vs0mg"},{"bike_id":"7f7a4770-cb44-4cbe-afee-f7531a238fa9","system_id":"levelo_inurba_marseille","lat":43.225059,"lon":5.347842,"is_reserved":false,"is_disabled":false,"rental_uris":{"android":"levelo://app?vid=7f7a4770-cb44-4cbe-afee-f7531a238fa9","ios":"levelo://app?vid=7f7a4770-cb44-4cbe-afee-f7531a238fa9"},"vehicle_type_id":"4","last_reported":1753513877,"current_range_meters":14000,"station_id":"st_cvj5dfep6f1abm77gieg","pricing_plan_id":"cebpf4jnsgd1na2vs0mg"},{"bike_id":"9bff4c30-7d52-4173-88ba-afd3702b54f6","system_id":"levelo_inurba_marseille","lat":43.279908,"lon":5.416502,"is_reserved":false,"is_disabled":false,"rental_uris":{"android":"levelo://app?vid=9bff4c30-7d52-4173-88ba-afd3702b54f6","ios":"levelo://app?vid=9bff4c30-7d52-4173-88ba-afd3702b54f6"},"vehicle_type_id":"4","last_reported":1753513877,"current_range_meters":14000,"station_id":"ce4bho12rcd13ifvqh1g","pricing_plan_id":"cebpf4jnsgd1na2vs0mg"},{"bike_id":"97dad215-8898-4a4b-bb79-9cb61af4dc64","system_id":"levelo_inurba_marseille","lat":43.29914,"lon":5.36494,"is_reserved":false,"is_disabled":false,"rental_uris":{"android":"levelo://app?vid=97dad215-8898-4a4b-bb79-9cb61af4dc64","ios":"levelo://app?vid=97dad215-8898-4a4b-bb79-9cb61af4dc64"},"vehicle_type_id":"4","last_reported":1753513877,"current_range_meters":14000,"station_id":"ce4bgm92rcd13ifvqbr0","pricing_plan_id":"cebpf4jnsgd1na2vs0mg"},{"bike_id":"8b7cb54f-9e7b-4157-bf2d-6457a6e82bfc","system_id":"levelo_inurba_marseille","lat":43.30323,"lon":5.4043,"is_reserved":false,"is_disabled":false,"rental_uris":{"android":"levelo://app?vid=8b7cb54f-9e7b-4157-bf2d-6457a6e82bfc","ios":"levelo://app?vid=8b7cb54f-9e7b-4157-bf2d-6457a6e82bfc"},"vehicle_type_id":"4","last_reported":1753513877,"current_range_meters":14000,"station_id":"ce4bh012rcd13ifvqd10","pricing_plan_id":"cebpf4jnsgd1na2vs0mg"},{"bike_id":"cdd229ea-c762-465a-a1a8-dc511ddf636c","system_id":"levelo_inurba_marseille","lat":43.298925,"lon":5.397294,"is_reserved":false,"is_disabled":false,"rental_uris":{"android":"levelo://app?vid=cdd229ea-c762-465a-a1a8-dc511ddf636c","ios":"levelo://app?vid=cdd229ea-c762-465a-a1a8-dc511ddf636c"},"vehicle_type_id":"4","last_reported":1753513877,"current_range_meters":14000,"station_id":"ce4bh0h2rcd13ifvqd50","pricing_plan_id":"cebpf4jnsgd1na2vs0mg"},{"bike_id":"f932ef2c-02f4-48af-89bd-b74a727f814c","system_id":"levelo_inurba_marseille","lat":43.28109,"lon":5.37824,"is_reserved":false,"is_disabled":false,"rental_uris":{"android":"levelo://app?vid=f932ef2c-02f4-48af-89bd-b74a727f814c","ios":"levelo://app?vid=f932ef2c-02f4-48af-89bd-b74a727f814c"},"vehicle_type_id":"4","last_reported":1753513877,"current_range_meters":14000,"station_id":"ce4bha12rcd13ifvqee0","pricing_plan_id":"cebpf4jnsgd1na2vs0mg"},{"bike_id":"09447d92-0522-480e-b6b5-24959949ccf9","system_id":"levelo_inurba_marseille","lat":43.32413,"lon":5.367898,"is_reserved":false,"is_disabled":false,"rental_uris":{"android":"levelo://app?vid=09447d92-0522-480e-b6b5-24959949ccf9","ios":"levelo://app?vid=09447d92-0522-480e-b6b5-24959949ccf9"},"vehicle_type_id":"4","last_reported":1753513877,"current_range_meters":14400,"station_id":"","pricing_plan_id":"cebpf4jnsgd1na2vs0mg"},{"bike_id":"b5aab1b5-818a-4dfd-b7ae-70df5639e329","system_id":"levelo_inurba_marseille","lat":43.26932,"lon":5.42218,"is_reserved":false,"is_disabled":false,"rental_uris":{"android":"levelo://app?vid=b5aab1b5-818a-4dfd-b7ae-70df5639e329","ios":"levelo://app?vid=b5aab1b5-818a-4dfd-b7ae-70df5639e329"},"vehicle_type_id":"4","last_reported":1753513877,"current_range_meters":14400,"station_id":"","pricing_plan_id":"cebpf4jnsgd1na2vs0mg"},{"bike_id":"db9311f9-e2dc-4757-9391-e5818ab3d183","system_id":"levelo_inurba_marseille","lat":43.31699,"lon":5.37652,"is_reserved":false,"is_disabled":false,"rental_uris":{"android":"levelo://app?vid=db9311f9-e2dc-4757-9391-e5818ab3d183","ios":"levelo://app?vid=db9311f9-e2dc-4757-9391-e5818ab3d183"},"vehicle_type_id":"4","last_reported":1753513877,"current_range_meters":14000,"station_id":"ce4bgth2rcd13ifvqch0","pricing_plan_id":"cebpf4jnsgd1na2vs0mg"},{"bike_id":"1855cbe1-5a05-480e-9057-6e9b3976dbbe","system_id":"levelo_inurba_marseille","lat":43.33736,"lon":5.39185,"is_reserved":false,"is_disabled":false,"rental_uris":{"android":"levelo://app?vid=1855cbe1-5a05-480e-9057-6e9b3976dbbe","ios":"levelo://app?vid=1855cbe1-5a05-480e-9057-6e9b3976dbbe"},"vehicle_type_id":"4","last_reported":1753513877,"current_range_meters":14400,"station_id":"ce4bhr92rcd13ifvqhsg","pricing_plan_id":"cebpf4jnsgd1na2vs0mg"},{"bike_id":"6b0334f3-82c8-42ff-9c63-4f263704c07a","system_id":"levelo_inurba_marseille","lat":43.31095,"lon":5.38355,"is_reserved":false,"is_disabled":false,"rental_uris":{"android":"levelo://app?vid=6b0334f3-82c8-42ff-9c63-4f263704c07a","ios":"levelo://app?vid=6b0334f3-82c8-42ff-9c63-4f263704c07a"},"vehicle_type_id":"4","last_reported":1753513877,"current_range_meters":14400,"station_id":"ce4bgv92rcd13ifvqcr0","pricing_plan_id":"cebpf4jnsgd1na2vs0mg"},{"bike_id":"015ae95b-d649-4c1e-81e8-ebfec98009c5","system_id":"levelo_inurba_marseille","lat":43.240897,"lon":5.377364,"is_reserved":false,"is_disabled":false,"rental_uris":{"android":"levelo://app?vid=015ae95b-d649-4c1e-81e8-ebfec98009c5","ios":"levelo://app?vid=015ae95b-d649-4c1e-81e8-ebfec98009c5"},"vehicle_type_id":"4","last_reported":1753513877,"current_range_meters":14400,"station_id":"ce4bhnp2rcd13ifvqgvg","pricing_plan_id":"cebpf4jnsgd1na2vs0mg"},{"bike_id":"68801fee-efc8-485b-a110-a36431796a83","system_id":"levelo_inurba_marseille","lat":43.29584,"lon":5.375,"is_reserved":false,"is_disabled":true,"rental_uris":{"android":"levelo://app?vid=68801fee-efc8-485b-a110-a36431796a83","ios":"levelo://app?vid=68801fee-efc8-485b-a110-a36431796a83"},"vehicle_type_id":"4","last_reported":1753513877,"current_range_meters":14800,"station_id":"ce4bgh92rcd13ifvqb50","pricing_plan_id":"cebpf4jnsgd1na2vs0mg"},{"bike_id":"99938384-2779-4389-9a1c-4b06450d69be","system_id":"levelo_inurba_marseille","lat":43.272054,"lon":5.39189,"is_reserved":false,"is_disabled":true,"rental_uris":{"android":"levelo://app?vid=99938384-2779-4389-9a1c-4b06450d69be","ios":"levelo://app?vid=99938384-2779-4389-9a1c-4b06450d69be"},"vehicle_type_id":"4","last_reported":1753513877,"current_range_meters":14800,"station_id":"ce4bhhp2rcd13ifvqfm0","pricing_plan_id":"cebpf4jnsgd1na2vs0mg"},{"bike_id":"f9132ae1-6ae2-4272-b24a-43c4aace7eb6","system_id":"levelo_inurba_marseille","lat":43.31282,"lon":5.40164,"is_reserved":false,"is_disabled":false,"rental_uris":{"android":"levelo://app?vid=f9132ae1-6ae2-4272-b24a-43c4aace7eb6","ios":"levelo://app?vid=f9132ae1-6ae2-4272-b24a-43c4aace7eb6"},"vehicle_type_id":"4","last_reported":1753513877,"current_range_meters":14800,"station_id":"ce4bh092rcd13ifvqd30","pricing_plan_id":"cebpf4jnsgd1na2vs0mg"},{"bike_id":"f5a8fc37-3118-42db-ab21-cb5e2fc35614","system_id":"levelo_inurba_marseille","lat":43.29244,"lon":5.38437,"is_reserved":false,"is_disabled":false,"rental_uris":{"android":"levelo://app?vid=f5a8fc37-3118-42db-ab21-cb5e2fc35614","ios":"levelo://app?vid=f5a8fc37-3118-42db-ab21-cb5e2fc35614"},"vehicle_type_id":"4","last_reported":1753513877,"current_range_meters":14800,"station_id":"ce4bh692rcd13ifvqea0","pricing_plan_id":"cebpf4jnsgd1na2vs0mg"},{"bike_id":"0e302626-3f07-4b61-9801-c3e7e15ef328","system_id":"levelo_inurba_marseille","lat":43.26057,"lon":5.39405,"is_reserved":false,"is_disabled":false,"rental_uris":{"android":"levelo://app?vid=0e302626-3f07-4b61-9801-c3e7e15ef328","ios":"levelo://app?vid=0e302626-3f07-4b61-9801-c3e7e15ef328"},"vehicle_type_id":"4","last_reported":1753513877,"current_range_meters":14800,"station_id":"ce4bhh92rcd13ifvqfj0","pricing_plan_id":"cebpf4jnsgd1na2vs0mg"},{"bike_id":"c3c2652b-f2d7-4ed4-89ec-9559feb01451","system_id":"levelo_inurba_marseille","lat":43.29226,"lon":5.360481,"is_reserved":false,"is_disabled":true,"rental_uris":{"android":"levelo://app?vid=c3c2652b-f2d7-4ed4-89ec-9559feb01451","ios":"levelo://app?vid=c3c2652b-f2d7-4ed4-89ec-9559feb01451"},"vehicle_type_id":"4","last_reported":1753513877,"current_range_meters":15200,"station_id":"ce4bhbh2rcd13ifvqeqg","pricing_plan_id":"cebpf4jnsgd1na2vs0mg"},{"bike_id":"fceea9bc-7762-4e38-a909-58372215e3a9","system_id":"levelo_inurba_marseille","lat":43.313646,"lon":5.384902,"is_reserved":false,"is_disabled":false,"rental_uris":{"android":"levelo://app?vid=fceea9bc-7762-4e38-a909-58372215e3a9","ios":"levelo://app?vid=fceea9bc-7762-4e38-a909-58372215e3a9"},"vehicle_type_id":"4","last_reported":1753513877,"current_range_meters":15200,"station_id":"ce4bgt92rcd13ifvqcf0","pricing_plan_id":"cebpf4jnsgd1na2vs0mg"},{"bike_id":"843f308c-e661-42bb-b9e7-c0331e577038","system_id":"levelo_inurba_marseille","lat":43.31071,"lon":5.38344,"is_reserved":false,"is_disabled":false,"rental_uris":{"android":"levelo://app?vid=843f308c-e661-42bb-b9e7-c0331e577038","ios":"levelo://app?vid=843f308c-e661-42bb-b9e7-c0331e577038"},"vehicle_type_id":"4","last_reported":1753513877,"current_range_meters":15200,"station_id":"ce4bgv92rcd13ifvqcr0","pricing_plan_id":"cebpf4jnsgd1na2vs0mg"},{"bike_id":"d1ef1c13-40f7-47d7-ab0e-8e4ae1254ac5","system_id":"levelo_inurba_marseille","lat":43.323651,"lon":5.367541,"is_reserved":false,"is_disabled":false,"rental_uris":{"android":"levelo://app?vid=d1ef1c13-40f7-47d7-ab0e-8e4ae1254ac5","ios":"levelo://app?vid=d1ef1c13-40f7-47d7-ab0e-8e4ae1254ac5"},"vehicle_type_id":"4","last_reported":1753513877,"current_range_meters":15200,"station_id":"ce4bhsh2rcd13ifvqi2g","pricing_plan_id":"cebpf4jnsgd1na2vs0mg"},{"bike_id":"8f4ca69e-9621-4ffd-91af-41f939f5f71e","system_id":"levelo_inurba_marseille","lat":43.239609,"lon":5.366299,"is_reserved":false,"is_disabled":false,"rental_uris":{"android":"levelo://app?vid=8f4ca69e-9621-4ffd-91af-41f939f5f71e","ios":"levelo://app?vid=8f4ca69e-9621-4ffd-91af-41f939f5f71e"},"vehicle_type_id":"4","last_reported":1753513877,"current_range_meters":16000,"station_id":"ce4bhi12rcd13ifvqfp0","pricing_plan_id":"cebpf4jnsgd1na2vs0mg"},{"bike_id":"b44e0ef0-448d-42e7-b8ce-9c7edd8e1cfe","system_id":"levelo_inurba_marseille","lat":43.281513,"lon":5.426461,"is_reserved":false,"is_disabled":false,"rental_uris":{"android":"levelo://app?vid=b44e0ef0-448d-42e7-b8ce-9c7edd8e1cfe","ios":"levelo://app?vid=b44e0ef0-448d-42e7-b8ce-9c7edd8e1cfe"},"vehicle_type_id":"4","last_reported":1753513877,"current_range_meters":16000,"station_id":"ce4bhnh2rcd13ifvqgug","pricing_plan_id":"cebpf4jnsgd1na2vs0mg"},{"bike_id":"f1a03a48-2e06-466d-a876-1a0a43c1d675","system_id":"levelo_inurba_marseille","lat":43.24383,"lon":5.37053,"is_reserved":false,"is_disabled":false,"rental_uris":{"android":"levelo://app?vid=f1a03a48-2e06-466d-a876-1a0a43c1d675","ios":"levelo://app?vid=f1a03a48-2e06-466d-a876-1a0a43c1d675"},"vehicle_type_id":"4","last_reported":1753513877,"current_range_meters":16000,"station_id":"ce4bhhh2rcd13ifvqfk0","pricing_plan_id":"cebpf4jnsgd1na2vs0mg"},{"bike_id":"b5c7f071-a026-45b8-8531-421b35957a32","system_id":"levelo_inurba_marseille","lat":43.296525,"lon":5.393495,"is_reserved":false,"is_disabled":false,"rental_uris":{"android":"levelo://app?vid=b5c7f071-a026-45b8-8531-421b35957a32","ios":"levelo://app?vid=b5c7f071-a026-45b8-8531-421b35957a32"},"vehicle_type_id":"4","last_reported":1753513877,"current_range_meters":16000,"station_id":"","pricing_plan_id":"cebpf4jnsgd1na2vs0mg"},{"bike_id":"ca28fdf3-f9b9-4735-8061-9928e9d38c47","system_id":"levelo_inurba_marseille","lat":43.28613,"lon":5.37057,"is_reserved":false,"is_disabled":false,"rental_uris":{"android":"levelo://app?vid=ca28fdf3-f9b9-4735-8061-9928e9d38c47","ios":"levelo://app?vid=ca28fdf3-f9b9-4735-8061-9928e9d38c47"},"vehicle_type_id":"4","last_reported":1753513877,"current_range_meters":16000,"station_id":"ce4bht12rcd13ifvqi60","pricing_plan_id":"cebpf4jnsgd1na2vs0mg"},{"bike_id":"5d11fc68-b0be-4ebf-87d9-4cb6a3f0b870","system_id":"levelo_inurba_marseille","lat":43.30547,"lon":5.38416,"is_reserved":false,"is_disabled":false,"rental_uris":{"android":"levelo://app?vid=5d11fc68-b0be-4ebf-87d9-4cb6a3f0b870","ios":"levelo://app?vid=5d11fc68-b0be-4ebf-87d9-4cb6a3f0b870"},"vehicle_type_id":"4","last_reported":1753513877,"current_range_meters":16400,"station_id":"ce4bgg92rcd13ifvqb30","pricing_plan_id":"cebpf4jnsgd1na2vs0mg"},{"bike_id":"551a047e-a7ef-4c04-aa54-32bf2e2fac20","system_id":"levelo_inurba_marseille","lat":43.30373,"lon":5.42474,"is_reserved":false,"is_disabled":false,"rental_uris":{"android":"levelo://app?vid=551a047e-a7ef-4c04-aa54-32bf2e2fac20","ios":"levelo://app?vid=551a047e-a7ef-4c04-aa54-32bf2e2fac20"},"vehicle_type_id":"4","last_reported":1753513877,"current_range_meters":16400,"station_id":"ce4bhoh2rcd13ifvqh6g","pricing_plan_id":"cebpf4jnsgd1na2vs0mg"},{"bike_id":"7254aad9-4b7a-44b4-89bb-4f6b7cb10520","system_id":"levelo_inurba_marseille","lat":43.260714,"lon":5.393944,"is_reserved":false,"is_disabled":false,"rental_uris":{"android":"levelo://app?vid=7254aad9-4b7a-44b4-89bb-4f6b7cb10520","ios":"levelo://app?vid=7254aad9-4b7a-44b4-89bb-4f6b7cb10520"},"vehicle_type_id":"4","last_reported":1753513877,"current_range_meters":16400,"station_id":"ce4bhh92rcd13ifvqfj0","pricing_plan_id":"cebpf4jnsgd1na2vs0mg"},{"bike_id":"20424831-2201-4d3c-8027-3c541a36d8b1","system_id":"levelo_inurba_marseille","lat":43.28887,"lon":5.37117,"is_reserved":false,"is_disabled":false,"rental_uris":{"android":"levelo://app?vid=20424831-2201-4d3c-8027-3c541a36d8b1","ios":"levelo://app?vid=20424831-2201-4d3c-8027-3c541a36d8b1"},"vehicle_type_id":"4","last_reported":1753513877,"current_range_meters":16400,"station_id":"","pricing_plan_id":"cebpf4jnsgd1na2vs0mg"},{"bike_id":"6b34aaa6-58a0-46fb-bc50-6499601beb64","system_id":"levelo_inurba_marseille","lat":43.22509,"lon":5.34744,"is_reserved":false,"is_disabled":false,"rental_uris":{"android":"levelo://app?vid=6b34aaa6-58a0-46fb-bc50-6499601beb64","ios":"levelo://app?vid=6b34aaa6-58a0-46fb-bc50-6499601beb64"},"vehicle_type_id":"4","last_reported":1753513877,"current_range_meters":16400,"station_id":"st_cvj5dfep6f1abm77gieg","pricing_plan_id":"cebpf4jnsgd1na2vs0mg"},{"bike_id":"a1d5115b-997f-44a5-8b4b-21cb29757407","system_id":"levelo_inurba_marseille","lat":43.31213,"lon":5.37322,"is_reserved":false,"is_disabled":false,"rental_uris":{"android":"levelo://app?vid=a1d5115b-997f-44a5-8b4b-21cb29757407","ios":"levelo://app?vid=a1d5115b-997f-44a5-8b4b-21cb29757407"},"vehicle_type_id":"4","last_reported":1753513877,"current_range_meters":16400,"station_id":"","pricing_plan_id":"cebpf4jnsgd1na2vs0mg"},{"bike_id":"36e6bf97-6485-443c-94bf-9c9cb3f33000","system_id":"levelo_inurba_marseille","lat":43.282804,"lon":5.350708,"is_reserved":false,"is_disabled":true,"rental_uris":{"android":"levelo://app?vid=36e6bf97-6485-443c-94bf-9c9cb3f33000","ios":"levelo://app?vid=36e6bf97-6485-443c-94bf-9c9cb3f33000"},"vehicle_type_id":"4","last_reported":1753513877,"current_range_meters":16400,"station_id":"ce4bhbp2rcd13ifvqerg","pricing_plan_id":"cebpf4jnsgd1na2vs0mg"},{"bike_id":"c955e182-4838-4943-8360-dd58958aee37","system_id":"levelo_inurba_marseille","lat":43.30939,"lon":5.40136,"is_reserved":false,"is_disabled":false,"rental_uris":{"android":"levelo://app?vid=c955e182-4838-4943-8360-dd58958aee37","ios":"levelo://app?vid=c955e182-4838-4943-8360-dd58958aee37"},"vehicle_type_id":"4","last_reported":1753513877,"current_range_meters":16400,"station_id":"ce4bgvp2rcd13ifvqct0","pricing_plan_id":"cebpf4jnsgd1na2vs0mg"},{"bike_id":"725317c6-351b-43e5-b68d-45c3db010ac3","system_id":"levelo_inurba_marseille","lat":43.28155,"lon":5.4263,"is_reserved":false,"is_disabled":false,"rental_uris":{"android":"levelo://app?vid=725317c6-351b-43e5-b68d-45c3db010ac3","ios":"levelo://app?vid=725317c6-351b-43e5-b68d-45c3db010ac3"},"vehicle_type_id":"4","last_reported":1753513877,"current_range_meters":16800,"station_id":"ce4bhnh2rcd13ifvqgug","pricing_plan_id":"cebpf4jnsgd1na2vs0mg"},{"bike_id":"2703e0a4-7218-4353-b33c-9609c06a5516","system_id":"levelo_inurba_marseille","lat":43.27494,"lon":5.42458,"is_reserved":false,"is_disabled":false,"rental_uris":{"android":"levelo://app?vid=2703e0a4-7218-4353-b33c-9609c06a5516","ios":"levelo://app?vid=2703e0a4-7218-4353-b33c-9609c06a5516"},"vehicle_type_id":"4","last_reported":1753513877,"current_range_meters":16800,"station_id":"ce4bhn92rcd13ifvqgrg","pricing_plan_id":"cebpf4jnsgd1na2vs0mg"},{"bike_id":"238390e8-3a2f-43aa-ae07-18b7138ab742","system_id":"levelo_inurba_marseille","lat":43.23969,"lon":5.36611,"is_reserved":false,"is_disabled":false,"rental_uris":{"android":"levelo://app?vid=238390e8-3a2f-43aa-ae07-18b7138ab742","ios":"levelo://app?vid=238390e8-3a2f-43aa-ae07-18b7138ab742"},"vehicle_type_id":"4","last_reported":1753513877,"current_range_meters":16800,"station_id":"ce4bhi12rcd13ifvqfp0","pricing_plan_id":"cebpf4jnsgd1na2vs0mg"},{"bike_id":"a05343f6-5345-451e-92c9-8d14b4ec04eb","system_id":"levelo_inurba_marseille","lat":43.314919,"lon":5.373082,"is_reserved":false,"is_disabled":true,"rental_uris":{"android":"levelo://app?vid=a05343f6-5345-451e-92c9-8d14b4ec04eb","ios":"levelo://app?vid=a05343f6-5345-451e-92c9-8d14b4ec04eb"},"vehicle_type_id":"4","last_reported":1753513877,"current_range_meters":16800,"station_id":"","pricing_plan_id":"cebpf4jnsgd1na2vs0mg"},{"bike_id":"6e41bbbe-94e5-4373-b4b1-5bbc6eef8655","system_id":"levelo_inurba_marseille","lat":43.30461,"lon":5.37907,"is_reserved":false,"is_disabled":false,"rental_uris":{"android":"levelo://app?vid=6e41bbbe-94e5-4373-b4b1-5bbc6eef8655","ios":"levelo://app?vid=6e41bbbe-94e5-4373-b4b1-5bbc6eef8655"},"vehicle_type_id":"4","last_reported":1753513877,"current_range_meters":16800,"station_id":"ce4bgup2rcd13ifvqcn0","pricing_plan_id":"cebpf4jnsgd1na2vs0mg"},{"bike_id":"febfb0dd-62aa-4333-8aa6-5a2dfd2c5e17","system_id":"levelo_inurba_marseille","lat":43.33156,"lon":5.35975,"is_reserved":false,"is_disabled":false,"rental_uris":{"android":"levelo://app?vid=febfb0dd-62aa-4333-8aa6-5a2dfd2c5e17","ios":"levelo://app?vid=febfb0dd-62aa-4333-8aa6-5a2dfd2c5e17"},"vehicle_type_id":"4","last_reported":1753513877,"current_range_meters":16800,"station_id":"","pricing_plan_id":"cebpf4jnsgd1na2vs0mg"},{"bike_id":"4f069cb2-e85f-44ab-8659-b3444c19b657","system_id":"levelo_inurba_marseille","lat":43.2319,"lon":5.35551,"is_reserved":false,"is_disabled":false,"rental_uris":{"android":"levelo://app?vid=4f069cb2-e85f-44ab-8659-b3444c19b657","ios":"levelo://app?vid=4f069cb2-e85f-44ab-8659-b3444c19b657"},"vehicle_type_id":"4","last_reported":1753513877,"current_range_meters":16800,"station_id":"ce4bhu92rcd13ifvqi70","pricing_plan_id":"cebpf4jnsgd1na2vs0mg"},{"bike_id":"ba6b7841-01b7-4eb0-bd6f-eb72831eb9a2","system_id":"levelo_inurba_marseille","lat":43.22505,"lon":5.34784,"is_reserved":false,"is_disabled":false,"rental_uris":{"android":"levelo://app?vid=ba6b7841-01b7-4eb0-bd6f-eb72831eb9a2","ios":"levelo://app?vid=ba6b7841-01b7-4eb0-bd6f-eb72831eb9a2"},"vehicle_type_id":"4","last_reported":1753513877,"current_range_meters":16800,"station_id":"st_cvj5dfep6f1abm77gieg","pricing_plan_id":"cebpf4jnsgd1na2vs0mg"},{"bike_id":"61cd7fe3-237f-4708-afc7-dd8a81b4454c","system_id":"levelo_inurba_marseille","lat":43.22919,"lon":5.3538,"is_reserved":false,"is_disabled":false,"rental_uris":{"android":"levelo://app?vid=61cd7fe3-237f-4708-afc7-dd8a81b4454c","ios":"levelo://app?vid=61cd7fe3-237f-4708-afc7-dd8a81b4454c"},"vehicle_type_id":"4","last_reported":1753513877,"current_range_meters":16800,"station_id":"cpo3532slgdg3j2ikp40","pricing_plan_id":"cebpf4jnsgd1na2vs0mg"},{"bike_id":"38ab9f3b-fe76-4f47-bf05-e3ca256156a4","system_id":"levelo_inurba_marseille","lat":43.284128,"lon":5.349797,"is_reserved":false,"is_disabled":false,"rental_uris":{"android":"levelo://app?vid=38ab9f3b-fe76-4f47-bf05-e3ca256156a4","ios":"levelo://app?vid=38ab9f3b-fe76-4f47-bf05-e3ca256156a4"},"vehicle_type_id":"4","last_reported":1753513877,"current_range_meters":16800,"station_id":"","pricing_plan_id":"cebpf4jnsgd1na2vs0mg"},{"bike_id":"1e5c96a6-9d0f-4d5f-85ef-5a5f8ac0317a","system_id":"levelo_inurba_marseille","lat":43.33435,"lon":5.39227,"is_reserved":false,"is_disabled":false,"rental_uris":{"android":"levelo://app?vid=1e5c96a6-9d0f-4d5f-85ef-5a5f8ac0317a","ios":"levelo://app?vid=1e5c96a6-9d0f-4d5f-85ef-5a5f8ac0317a"},"vehicle_type_id":"4","last_reported":1753513877,"current_range_meters":16800,"station_id":"","pricing_plan_id":"cebpf4jnsgd1na2vs0mg"},{"bike_id":"43dbc09e-d0e4-4ddb-bafe-4f55874d23a9","system_id":"levelo_inurba_marseille","lat":43.30228,"lon":5.38227,"is_reserved":false,"is_disabled":false,"rental_uris":{"android":"levelo://app?vid=43dbc09e-d0e4-4ddb-bafe-4f55874d23a9","ios":"levelo://app?vid=43dbc09e-d0e4-4ddb-bafe-4f55874d23a9"},"vehicle_type_id":"4","last_reported":1753513877,"current_range_meters":16800,"station_id":"","pricing_plan_id":"cebpf4jnsgd1na2vs0mg"},{"bike_id":"8487f269-40b2-4c5a-8dd3-4a92c89bfeff","system_id":"levelo_inurba_marseille","lat":43.299165,"lon":5.37469,"is_reserved":false,"is_disabled":true,"rental_uris":{"android":"levelo://app?vid=8487f269-40b2-4c5a-8dd3-4a92c89bfeff","ios":"levelo://app?vid=8487f269-40b2-4c5a-8dd3-4a92c89bfeff"},"vehicle_type_id":"4","last_reported":1753513877,"current_range_meters":16800,"station_id":"ce4bgjh2rcd13ifvqbg0","pricing_plan_id":"cebpf4jnsgd1na2vs0mg"},{"bike_id":"7e65c5ea-0429-45f5-a396-bd32e67f0744","system_id":"levelo_inurba_marseille","lat":43.334733,"lon":5.400332,"is_reserved":false,"is_disabled":false,"rental_uris":{"android":"levelo://app?vid=7e65c5ea-0429-45f5-a396-bd32e67f0744","ios":"levelo://app?vid=7e65c5ea-0429-45f5-a396-bd32e67f0744"},"vehicle_type_id":"4","last_reported":1753513877,"current_range_meters":16800,"station_id":"","pricing_plan_id":"cebpf4jnsgd1na2vs0mg"},{"bike_id":"a6163d10-cb41-4b4a-a2f0-ffc1f9744bc3","system_id":"levelo_inurba_marseille","lat":43.3135,"lon":5.38492,"is_reserved":false,"is_disabled":false,"rental_uris":{"android":"levelo://app?vid=a6163d10-cb41-4b4a-a2f0-ffc1f9744bc3","ios":"levelo://app?vid=a6163d10-cb41-4b4a-a2f0-ffc1f9744bc3"},"vehicle_type_id":"4","last_reported":1753513877,"current_range_meters":17200,"station_id":"ce4bgt92rcd13ifvqcf0","pricing_plan_id":"cebpf4jnsgd1na2vs0mg"},{"bike_id":"8d638062-b729-4ab6-a2cd-3ffb748369e4","system_id":"levelo_inurba_marseille","lat":43.30538,"lon":5.36927,"is_reserved":false,"is_disabled":false,"rental_uris":{"android":"levelo://app?vid=8d638062-b729-4ab6-a2cd-3ffb748369e4","ios":"levelo://app?vid=8d638062-b729-4ab6-a2cd-3ffb748369e4"},"vehicle_type_id":"4","last_reported":1753513877,"current_range_meters":17200,"station_id":"","pricing_plan_id":"cebpf4jnsgd1na2vs0mg"},{"bike_id":"1d354383-0123-4cd6-aa2c-298672048266","system_id":"levelo_inurba_marseille","lat":43.29568,"lon":5.3751,"is_reserved":false,"is_disabled":false,"rental_uris":{"android":"levelo://app?vid=1d354383-0123-4cd6-aa2c-298672048266","ios":"levelo://app?vid=1d354383-0123-4cd6-aa2c-298672048266"},"vehicle_type_id":"4","last_reported":1753513877,"current_range_meters":17200,"station_id":"ce4bgh92rcd13ifvqb50","pricing_plan_id":"cebpf4jnsgd1na2vs0mg"},{"bike_id":"54589962-84f0-4b56-9509-3e862ef4b926","system_id":"levelo_inurba_marseille","lat":43.26186,"lon":5.379,"is_reserved":false,"is_disabled":false,"rental_uris":{"android":"levelo://app?vid=54589962-84f0-4b56-9509-3e862ef4b926","ios":"levelo://app?vid=54589962-84f0-4b56-9509-3e862ef4b926"},"vehicle_type_id":"4","last_reported":1753513877,"current_range_meters":17200,"station_id":"ce4bhjp2rcd13ifvqg90","pricing_plan_id":"cebpf4jnsgd1na2vs0mg"},{"bike_id":"05513548-c1c4-4635-822a-5abfbeb31335","system_id":"levelo_inurba_marseille","lat":43.28401,"lon":5.37521,"is_reserved":false,"is_disabled":false,"rental_uris":{"android":"levelo://app?vid=05513548-c1c4-4635-822a-5abfbeb31335","ios":"levelo://app?vid=05513548-c1c4-4635-822a-5abfbeb31335"},"vehicle_type_id":"4","last_reported":1753513877,"current_range_meters":17200,"station_id":"ce4bh412rcd13ifvqds0","pricing_plan_id":"cebpf4jnsgd1na2vs0mg"},{"bike_id":"6249b594-9952-40bc-b8a1-caf06fd62beb","system_id":"levelo_inurba_marseille","lat":43.30142,"lon":5.37412,"is_reserved":false,"is_disabled":false,"rental_uris":{"android":"levelo://app?vid=6249b594-9952-40bc-b8a1-caf06fd62beb","ios":"levelo://app?vid=6249b594-9952-40bc-b8a1-caf06fd62beb"},"vehicle_type_id":"4","last_reported":1753513877,"current_range_meters":17200,"station_id":"ce4bgs92rcd13ifvqcc0","pricing_plan_id":"cebpf4jnsgd1na2vs0mg"},{"bike_id":"5fc666d4-7509-40b3-b359-a141ffaa9f74","system_id":"levelo_inurba_marseille","lat":43.27505,"lon":5.4246,"is_reserved":false,"is_disabled":false,"rental_uris":{"android":"levelo://app?vid=5fc666d4-7509-40b3-b359-a141ffaa9f74","ios":"levelo://app?vid=5fc666d4-7509-40b3-b359-a141ffaa9f74"},"vehicle_type_id":"4","last_reported":1753513877,"current_range_meters":17600,"station_id":"ce4bhn92rcd13ifvqgrg","pricing_plan_id":"cebpf4jnsgd1na2vs0mg"},{"bike_id":"22fb4a68-6b7c-48ba-8180-ba736e05bfcc","system_id":"levelo_inurba_marseille","lat":43.26731,"lon":5.37641,"is_reserved":false,"is_disabled":true,"rental_uris":{"android":"levelo://app?vid=22fb4a68-6b7c-48ba-8180-ba736e05bfcc","ios":"levelo://app?vid=22fb4a68-6b7c-48ba-8180-ba736e05bfcc"},"vehicle_type_id":"4","last_reported":1753513877,"current_range_meters":17600,"station_id":"","pricing_plan_id":"cebpf4jnsgd1na2vs0mg"},{"bike_id":"17aa2c45-c857-423f-9f41-4a0fa9f6f0b0","system_id":"levelo_inurba_marseille","lat":43.31362,"lon":5.385089,"is_reserved":false,"is_disabled":false,"rental_uris":{"android":"levelo://app?vid=17aa2c45-c857-423f-9f41-4a0fa9f6f0b0","ios":"levelo://app?vid=17aa2c45-c857-423f-9f41-4a0fa9f6f0b0"},"vehicle_type_id":"4","last_reported":1753513877,"current_range_meters":17600,"station_id":"ce4bgt92rcd13ifvqcf0","pricing_plan_id":"cebpf4jnsgd1na2vs0mg"},{"bike_id":"a0f4c9cb-36e5-4b83-9aaf-945e03cc00e2","system_id":"levelo_inurba_marseille","lat":43.287387,"lon":5.39973,"is_reserved":false,"is_disabled":false,"rental_uris":{"android":"levelo://app?vid=a0f4c9cb-36e5-4b83-9aaf-945e03cc00e2","ios":"levelo://app?vid=a0f4c9cb-36e5-4b83-9aaf-945e03cc00e2"},"vehicle_type_id":"4","last_reported":1753513877,"current_range_meters":17600,"station_id":"ce4bho92rcd13ifvqh3g","pricing_plan_id":"cebpf4jnsgd1na2vs0mg"},{"bike_id":"c69c3c3b-3e63-40ef-96fd-3e7db0cc9eb8","system_id":"levelo_inurba_marseille","lat":43.30153,"lon":5.38094,"is_reserved":false,"is_disabled":false,"rental_uris":{"android":"levelo://app?vid=c69c3c3b-3e63-40ef-96fd-3e7db0cc9eb8","ios":"levelo://app?vid=c69c3c3b-3e63-40ef-96fd-3e7db0cc9eb8"},"vehicle_type_id":"4","last_reported":1753513877,"current_range_meters":17600,"station_id":"ce4bgjp2rcd13ifvqbh0","pricing_plan_id":"cebpf4jnsgd1na2vs0mg"},{"bike_id":"20958b00-1757-46f4-b566-babd7f94d862","system_id":"levelo_inurba_marseille","lat":43.246619,"lon":5.381575,"is_reserved":false,"is_disabled":false,"rental_uris":{"android":"levelo://app?vid=20958b00-1757-46f4-b566-babd7f94d862","ios":"levelo://app?vid=20958b00-1757-46f4-b566-babd7f94d862"},"vehicle_type_id":"4","last_reported":1753513877,"current_range_meters":17600,"station_id":"ce4bhih2rcd13ifvqfr0","pricing_plan_id":"cebpf4jnsgd1na2vs0mg"},{"bike_id":"a7da2507-e354-4838-8e19-5746cc5423ef","system_id":"levelo_inurba_marseille","lat":43.28858,"lon":5.35826,"is_reserved":false,"is_disabled":true,"rental_uris":{"android":"levelo://app?vid=a7da2507-e354-4838-8e19-5746cc5423ef","ios":"levelo://app?vid=a7da2507-e354-4838-8e19-5746cc5423ef"},"vehicle_type_id":"4","last_reported":1753513877,"current_range_meters":17600,"station_id":"ce4bhb12rcd13ifvqem0","pricing_plan_id":"cebpf4jnsgd1na2vs0mg"},{"bike_id":"5807cbdd-25cb-4d16-b9bc-ae0cd7616274","system_id":"levelo_inurba_marseille","lat":43.24548,"lon":5.39516,"is_reserved":false,"is_disabled":false,"rental_uris":{"android":"levelo://app?vid=5807cbdd-25cb-4d16-b9bc-ae0cd7616274","ios":"levelo://app?vid=5807cbdd-25cb-4d16-b9bc-ae0cd7616274"},"vehicle_type_id":"4","last_reported":1753513877,"current_range_meters":18000,"station_id":"ce4bhlp2rcd13ifvqgjg","pricing_plan_id":"cebpf4jnsgd1na2vs0mg"},{"bike_id":"b9d21585-332b-4489-b86a-04c97a239fa5","system_id":"levelo_inurba_marseille","lat":43.23165,"lon":5.40004,"is_reserved":false,"is_disabled":false,"rental_uris":{"android":"levelo://app?vid=b9d21585-332b-4489-b86a-04c97a239fa5","ios":"levelo://app?vid=b9d21585-332b-4489-b86a-04c97a239fa5"},"vehicle_type_id":"4","last_reported":1753513877,"current_range_meters":18000,"station_id":"ce4bhn12rcd13ifvqgqg","pricing_plan_id":"cebpf4jnsgd1na2vs0mg"},{"bike_id":"8362c329-d292-4c5c-95e6-bd7045291b1e","system_id":"levelo_inurba_marseille","lat":43.296856,"lon":5.372693,"is_reserved":false,"is_disabled":false,"rental_uris":{"android":"levelo://app?vid=8362c329-d292-4c5c-95e6-bd7045291b1e","ios":"levelo://app?vid=8362c329-d292-4c5c-95e6-bd7045291b1e"},"vehicle_type_id":"4","last_reported":1753513877,"current_range_meters":18000,"station_id":"ce4bgk12rcd13ifvqbj0","pricing_plan_id":"cebpf4jnsgd1na2vs0mg"},{"bike_id":"a61ebb22-87a3-4f29-bcec-6d0e01489abe","system_id":"levelo_inurba_marseille","lat":43.30249,"lon":5.40062,"is_reserved":false,"is_disabled":false,"rental_uris":{"android":"levelo://app?vid=a61ebb22-87a3-4f29-bcec-6d0e01489abe","ios":"levelo://app?vid=a61ebb22-87a3-4f29-bcec-6d0e01489abe"},"vehicle_type_id":"4","last_reported":1753513877,"current_range_meters":18000,"station_id":"ce4bgvh2rcd13ifvqcs0","pricing_plan_id":"cebpf4jnsgd1na2vs0mg"},{"bike_id":"b91d6a48-1306-4bd9-bef2-49164b4d4d29","system_id":"levelo_inurba_marseille","lat":43.29765,"lon":5.37102,"is_reserved":false,"is_disabled":false,"rental_uris":{"android":"levelo://app?vid=b91d6a48-1306-4bd9-bef2-49164b4d4d29","ios":"levelo://app?vid=b91d6a48-1306-4bd9-bef2-49164b4d4d29"},"vehicle_type_id":"4","last_reported":1753513877,"current_range_meters":18000,"station_id":"ce4bgop2rcd13ifvqc1g","pricing_plan_id":"cebpf4jnsgd1na2vs0mg"},{"bike_id":"25f3e258-0c7a-499b-b187-4c4dddf45bcd","system_id":"levelo_inurba_marseille","lat":43.29248,"lon":5.36834,"is_reserved":false,"is_disabled":true,"rental_uris":{"android":"levelo://app?vid=25f3e258-0c7a-499b-b187-4c4dddf45bcd","ios":"levelo://app?vid=25f3e258-0c7a-499b-b187-4c4dddf45bcd"},"vehicle_type_id":"4","last_reported":1753513877,"current_range_meters":18000,"station_id":"ce4bhbp2rcd13ifvqesg","pricing_plan_id":"cebpf4jnsgd1na2vs0mg"},{"bike_id":"2dfe5d41-4214-4b38-bc50-4014400f8f4e","system_id":"levelo_inurba_marseille","lat":43.25866,"lon":5.39891,"is_reserved":false,"is_disabled":false,"rental_uris":{"android":"levelo://app?vid=2dfe5d41-4214-4b38-bc50-4014400f8f4e","ios":"levelo://app?vid=2dfe5d41-4214-4b38-bc50-4014400f8f4e"},"vehicle_type_id":"4","last_reported":1753513877,"current_range_meters":18800,"station_id":"ce4bhl92rcd13ifvqghg","pricing_plan_id":"cebpf4jnsgd1na2vs0mg"},{"bike_id":"69eb2053-6469-4f9b-869a-7285bd1bf1c0","system_id":"levelo_inurba_marseille","lat":43.22508,"lon":5.34778,"is_reserved":false,"is_disabled":false,"rental_uris":{"android":"levelo://app?vid=69eb2053-6469-4f9b-869a-7285bd1bf1c0","ios":"levelo://app?vid=69eb2053-6469-4f9b-869a-7285bd1bf1c0"},"vehicle_type_id":"4","last_reported":1753513877,"current_range_meters":18800,"station_id":"st_cvj5dfep6f1abm77gieg","pricing_plan_id":"cebpf4jnsgd1na2vs0mg"},{"bike_id":"adc99020-a046-4247-b3bb-abb9aabfb167","system_id":"levelo_inurba_marseille","lat":43.243936,"lon":5.370647,"is_reserved":false,"is_disabled":false,"rental_uris":{"android":"levelo://app?vid=adc99020-a046-4247-b3bb-abb9aabfb167","ios":"levelo://app?vid=adc99020-a046-4247-b3bb-abb9aabfb167"},"vehicle_type_id":"4","last_reported":1753513877,"current_range_meters":18800,"station_id":"ce4bhhh2rcd13ifvqfk0","pricing_plan_id":"cebpf4jnsgd1na2vs0mg"},{"bike_id":"5e07d5b8-fee9-4ac7-a4fd-69f73398a7d8","system_id":"levelo_inurba_marseille","lat":43.28215,"lon":5.42625,"is_reserved":false,"is_disabled":false,"rental_uris":{"android":"levelo://app?vid=5e07d5b8-fee9-4ac7-a4fd-69f73398a7d8","ios":"levelo://app?vid=5e07d5b8-fee9-4ac7-a4fd-69f73398a7d8"},"vehicle_type_id":"4","last_reported":1753513877,"current_range_meters":18800,"station_id":"","pricing_plan_id":"cebpf4jnsgd1na2vs0mg"},{"bike_id":"de2b99e1-10a0-4df9-a035-841f04192dc0","system_id":"levelo_inurba_marseille","lat":43.25577,"lon":5.38226,"is_reserved":false,"is_disabled":true,"rental_uris":{"android":"levelo://app?vid=de2b99e1-10a0-4df9-a035-841f04192dc0","ios":"levelo://app?vid=de2b99e1-10a0-4df9-a035-841f04192dc0"},"vehicle_type_id":"4","last_reported":1753513877,"current_range_meters":18800,"station_id":"ce4bhih2rcd13ifvqfs0","pricing_plan_id":"cebpf4jnsgd1na2vs0mg"},{"bike_id":"688bd37e-5b41-4503-a1bc-37adcbc608d7","system_id":"levelo_inurba_marseille","lat":43.23958,"lon":5.36639,"is_reserved":false,"is_disabled":false,"rental_uris":{"android":"levelo://app?vid=688bd37e-5b41-4503-a1bc-37adcbc608d7","ios":"levelo://app?vid=688bd37e-5b41-4503-a1bc-37adcbc608d7"},"vehicle_type_id":"4","last_reported":1753513877,"current_range_meters":18800,"station_id":"ce4bhi12rcd13ifvqfp0","pricing_plan_id":"cebpf4jnsgd1na2vs0mg"},{"bike_id":"8248c212-9693-47e9-9bec-2c3b4df598fb","system_id":"levelo_inurba_marseille","lat":43.28714,"lon":5.37922,"is_reserved":false,"is_disabled":false,"rental_uris":{"android":"levelo://app?vid=8248c212-9693-47e9-9bec-2c3b4df598fb","ios":"levelo://app?vid=8248c212-9693-47e9-9bec-2c3b4df598fb"},"vehicle_type_id":"4","last_reported":1753513877,"current_range_meters":18800,"station_id":"ce4bh9p2rcd13ifvqec0","pricing_plan_id":"cebpf4jnsgd1na2vs0mg"},{"bike_id":"2ae45256-5ae2-498d-870c-4f13de54db6f","system_id":"levelo_inurba_marseille","lat":43.22924,"lon":5.35382,"is_reserved":false,"is_disabled":false,"rental_uris":{"android":"levelo://app?vid=2ae45256-5ae2-498d-870c-4f13de54db6f","ios":"levelo://app?vid=2ae45256-5ae2-498d-870c-4f13de54db6f"},"vehicle_type_id":"4","last_reported":1753513877,"current_range_meters":18800,"station_id":"cpo3532slgdg3j2ikp40","pricing_plan_id":"cebpf4jnsgd1na2vs0mg"},{"bike_id":"54405b04-0f04-4c64-af8f-9ccbb34ae9ba","system_id":"levelo_inurba_marseille","lat":43.28041,"lon":5.36921,"is_reserved":false,"is_disabled":false,"rental_uris":{"android":"levelo://app?vid=54405b04-0f04-4c64-af8f-9ccbb34ae9ba","ios":"levelo://app?vid=54405b04-0f04-4c64-af8f-9ccbb34ae9ba"},"vehicle_type_id":"4","last_reported":1753513877,"current_range_meters":19200,"station_id":"ce4bha12rcd13ifvqef0","pricing_plan_id":"cebpf4jnsgd1na2vs0mg"},{"bike_id":"8cb3cdfe-341c-4219-9fb7-adf0c31075d3","system_id":"levelo_inurba_marseille","lat":43.22532,"lon":5.34785,"is_reserved":false,"is_disabled":false,"rental_uris":{"android":"levelo://app?vid=8cb3cdfe-341c-4219-9fb7-adf0c31075d3","ios":"levelo://app?vid=8cb3cdfe-341c-4219-9fb7-adf0c31075d3"},"vehicle_type_id":"4","last_reported":1753513877,"current_range_meters":19200,"station_id":"st_cvj5dfep6f1abm77gieg","pricing_plan_id":"cebpf4jnsgd1na2vs0mg"},{"bike_id":"a29ff85a-e010-46c0-94a3-d696588bd503","system_id":"levelo_inurba_marseille","lat":43.25576,"lon":5.38223,"is_reserved":false,"is_disabled":false,"rental_uris":{"android":"levelo://app?vid=a29ff85a-e010-46c0-94a3-d696588bd503","ios":"levelo://app?vid=a29ff85a-e010-46c0-94a3-d696588bd503"},"vehicle_type_id":"4","last_reported":1753513877,"current_range_meters":19200,"station_id":"ce4bhih2rcd13ifvqfs0","pricing_plan_id":"cebpf4jnsgd1na2vs0mg"},{"bike_id":"f5d35bb9-022f-4b33-ab96-4c8a7845427f","system_id":"levelo_inurba_marseille","lat":43.30359,"lon":5.41878,"is_reserved":false,"is_disabled":false,"rental_uris":{"android":"levelo://app?vid=f5d35bb9-022f-4b33-ab96-4c8a7845427f","ios":"levelo://app?vid=f5d35bb9-022f-4b33-ab96-4c8a7845427f"},"vehicle_type_id":"4","last_reported":1753513877,"current_range_meters":19200,"station_id":"ce4bhop2rcd13ifvqh7g","pricing_plan_id":"cebpf4jnsgd1na2vs0mg"},{"bike_id":"b64dad25-8e0d-4258-bfd2-304c64c6d313","system_id":"levelo_inurba_marseille","lat":43.31718,"lon":5.37764,"is_reserved":false,"is_disabled":false,"rental_uris":{"android":"levelo://app?vid=b64dad25-8e0d-4258-bfd2-304c64c6d313","ios":"levelo://app?vid=b64dad25-8e0d-4258-bfd2-304c64c6d313"},"vehicle_type_id":"4","last_reported":1753513877,"current_range_meters":19200,"station_id":"ce4bgth2rcd13ifvqch0","pricing_plan_id":"cebpf4jnsgd1na2vs0mg"},{"bike_id":"c5794c7a-bb35-409f-9175-7d8933c8fd68","system_id":"levelo_inurba_marseille","lat":43.31097,"lon":5.39619,"is_reserved":false,"is_disabled":false,"rental_uris":{"android":"levelo://app?vid=c5794c7a-bb35-409f-9175-7d8933c8fd68","ios":"levelo://app?vid=c5794c7a-bb35-409f-9175-7d8933c8fd68"},"vehicle_type_id":"4","last_reported":1753513877,"current_range_meters":19200,"station_id":"","pricing_plan_id":"cebpf4jnsgd1na2vs0mg"},{"bike_id":"f4fd8122-3542-41c9-a204-ae963e556aa2","system_id":"levelo_inurba_marseille","lat":43.23047,"lon":5.35509,"is_reserved":false,"is_disabled":false,"rental_uris":{"android":"levelo://app?vid=f4fd8122-3542-41c9-a204-ae963e556aa2","ios":"levelo://app?vid=f4fd8122-3542-41c9-a204-ae963e556aa2"},"vehicle_type_id":"4","last_reported":1753513877,"current_range_meters":19600,"station_id":"cpo3342slgdg3j2ifvpg","pricing_plan_id":"cebpf4jnsgd1na2vs0mg"},{"bike_id":"8216d319-c6ec-4803-b764-987ef38a5de7","system_id":"levelo_inurba_marseille","lat":43.2826,"lon":5.35071,"is_reserved":false,"is_disabled":false,"rental_uris":{"android":"levelo://app?vid=8216d319-c6ec-4803-b764-987ef38a5de7","ios":"levelo://app?vid=8216d319-c6ec-4803-b764-987ef38a5de7"},"vehicle_type_id":"4","last_reported":1753513877,"current_range_meters":19600,"station_id":"","pricing_plan_id":"cebpf4jnsgd1na2vs0mg"},{"bike_id":"afaccaef-5739-4c1e-b6d1-9b0ef3574b0f","system_id":"levelo_inurba_marseille","lat":43.29915,"lon":5.37444,"is_reserved":false,"is_disabled":false,"rental_uris":{"android":"levelo://app?vid=afaccaef-5739-4c1e-b6d1-9b0ef3574b0f","ios":"levelo://app?vid=afaccaef-5739-4c1e-b6d1-9b0ef3574b0f"},"vehicle_type_id":"4","last_reported":1753513877,"current_range_meters":20000,"station_id":"ce4bgjh2rcd13ifvqbg0","pricing_plan_id":"cebpf4jnsgd1na2vs0mg"},{"bike_id":"e704d608-6593-49e3-a6ab-7020d2f49f7c","system_id":"levelo_inurba_marseille","lat":43.2873,"lon":5.432469,"is_reserved":false,"is_disabled":false,"rental_uris":{"android":"levelo://app?vid=e704d608-6593-49e3-a6ab-7020d2f49f7c","ios":"levelo://app?vid=e704d608-6593-49e3-a6ab-7020d2f49f7c"},"vehicle_type_id":"4","last_reported":1753513877,"current_range_meters":19600,"station_id":"","pricing_plan_id":"cebpf4jnsgd1na2vs0mg"},{"bike_id":"03bfd96c-8871-4e6f-a653-d78eeaafa638","system_id":"levelo_inurba_marseille","lat":43.266817,"lon":5.382617,"is_reserved":false,"is_disabled":false,"rental_uris":{"android":"levelo://app?vid=03bfd96c-8871-4e6f-a653-d78eeaafa638","ios":"levelo://app?vid=03bfd96c-8871-4e6f-a653-d78eeaafa638"},"vehicle_type_id":"4","last_reported":1753513877,"current_range_meters":19600,"station_id":"ce4bhg92rcd13ifvqf90","pricing_plan_id":"cebpf4jnsgd1na2vs0mg"},{"bike_id":"9acf939d-4714-49a2-af2a-35ed39fc8eac","system_id":"levelo_inurba_marseille","lat":43.315255,"lon":5.380368,"is_reserved":false,"is_disabled":false,"rental_uris":{"android":"levelo://app?vid=9acf939d-4714-49a2-af2a-35ed39fc8eac","ios":"levelo://app?vid=9acf939d-4714-49a2-af2a-35ed39fc8eac"},"vehicle_type_id":"4","last_reported":1753513877,"current_range_meters":19600,"station_id":"ce4bhsp2rcd13ifvqi50","pricing_plan_id":"cebpf4jnsgd1na2vs0mg"},{"bike_id":"854c36c1-8470-49c7-9180-0a64fff8d145","system_id":"levelo_inurba_marseille","lat":43.28617,"lon":5.37459,"is_reserved":false,"is_disabled":false,"rental_uris":{"android":"levelo://app?vid=854c36c1-8470-49c7-9180-0a64fff8d145","ios":"levelo://app?vid=854c36c1-8470-49c7-9180-0a64fff8d145"},"vehicle_type_id":"4","last_reported":1753513877,"current_range_meters":20000,"station_id":"","pricing_plan_id":"cebpf4jnsgd1na2vs0mg"},{"bike_id":"50c7f00f-cd6e-4f5e-8880-4501e127e691","system_id":"levelo_inurba_marseille","lat":43.313789,"lon":5.38485,"is_reserved":false,"is_disabled":false,"rental_uris":{"android":"levelo://app?vid=50c7f00f-cd6e-4f5e-8880-4501e127e691","ios":"levelo://app?vid=50c7f00f-cd6e-4f5e-8880-4501e127e691"},"vehicle_type_id":"4","last_reported":1753513877,"current_range_meters":20000,"station_id":"ce4bgt92rcd13ifvqcf0","pricing_plan_id":"cebpf4jnsgd1na2vs0mg"},{"bike_id":"98e6c8e3-38cf-4df8-90cd-75a17366ebc7","system_id":"levelo_inurba_marseille","lat":43.27378,"lon":5.36247,"is_reserved":false,"is_disabled":true,"rental_uris":{"android":"levelo://app?vid=98e6c8e3-38cf-4df8-90cd-75a17366ebc7","ios":"levelo://app?vid=98e6c8e3-38cf-4df8-90cd-75a17366ebc7"},"vehicle_type_id":"4","last_reported":1753513877,"current_range_meters":20000,"station_id":"ce4bhbh2rcd13ifvqeo0","pricing_plan_id":"cebpf4jnsgd1na2vs0mg"},{"bike_id":"c685af3b-33c8-4bbc-88e6-e5f2940f31aa","system_id":"levelo_inurba_marseille","lat":43.3088,"lon":5.40134,"is_reserved":false,"is_disabled":true,"rental_uris":{"android":"levelo://app?vid=c685af3b-33c8-4bbc-88e6-e5f2940f31aa","ios":"levelo://app?vid=c685af3b-33c8-4bbc-88e6-e5f2940f31aa"},"vehicle_type_id":"4","last_reported":1753513877,"current_range_meters":20000,"station_id":"ce4bgvp2rcd13ifvqct0","pricing_plan_id":"cebpf4jnsgd1na2vs0mg"},{"bike_id":"b0e4984c-0f1d-40ce-a9c5-5a95c9eb49e3","system_id":"levelo_inurba_marseille","lat":43.24644,"lon":5.38885,"is_reserved":false,"is_disabled":false,"rental_uris":{"android":"levelo://app?vid=b0e4984c-0f1d-40ce-a9c5-5a95c9eb49e3","ios":"levelo://app?vid=b0e4984c-0f1d-40ce-a9c5-5a95c9eb49e3"},"vehicle_type_id":"4","last_reported":1753513877,"current_range_meters":20000,"station_id":"ce4bhg12rcd13ifvqf60","pricing_plan_id":"cebpf4jnsgd1na2vs0mg"},{"bike_id":"a3586942-8d82-4697-b42b-04c951055f0f","system_id":"levelo_inurba_marseille","lat":43.313684,"lon":5.384979,"is_reserved":false,"is_disabled":false,"rental_uris":{"android":"levelo://app?vid=a3586942-8d82-4697-b42b-04c951055f0f","ios":"levelo://app?vid=a3586942-8d82-4697-b42b-04c951055f0f"},"vehicle_type_id":"4","last_reported":1753513877,"current_range_meters":20000,"station_id":"ce4bgt92rcd13ifvqcf0","pricing_plan_id":"cebpf4jnsgd1na2vs0mg"},{"bike_id":"e56fe7c6-b95e-4896-a6ee-77846fccc12d","system_id":"levelo_inurba_marseille","lat":43.23259,"lon":5.40076,"is_reserved":false,"is_disabled":false,"rental_uris":{"android":"levelo://app?vid=e56fe7c6-b95e-4896-a6ee-77846fccc12d","ios":"levelo://app?vid=e56fe7c6-b95e-4896-a6ee-77846fccc12d"},"vehicle_type_id":"4","last_reported":1753513877,"current_range_meters":20000,"station_id":"","pricing_plan_id":"cebpf4jnsgd1na2vs0mg"},{"bike_id":"a3344d06-4086-4c68-8592-8b6dceb7fc28","system_id":"levelo_inurba_marseille","lat":43.29909,"lon":5.38139,"is_reserved":false,"is_disabled":false,"rental_uris":{"android":"levelo://app?vid=a3344d06-4086-4c68-8592-8b6dceb7fc28","ios":"levelo://app?vid=a3344d06-4086-4c68-8592-8b6dceb7fc28"},"vehicle_type_id":"4","last_reported":1753513877,"current_range_meters":20400,"station_id":"ce4bgj12rcd13ifvqbc0","pricing_plan_id":"cebpf4jnsgd1na2vs0mg"},{"bike_id":"2fd78463-18bf-4354-9db6-deedb3441677","system_id":"levelo_inurba_marseille","lat":43.30322,"lon":5.36897,"is_reserved":false,"is_disabled":true,"rental_uris":{"android":"levelo://app?vid=2fd78463-18bf-4354-9db6-deedb3441677","ios":"levelo://app?vid=2fd78463-18bf-4354-9db6-deedb3441677"},"vehicle_type_id":"4","last_reported":1753513877,"current_range_meters":20400,"station_id":"ce4bgqh2rcd13ifvqc5g","pricing_plan_id":"cebpf4jnsgd1na2vs0mg"},{"bike_id":"37ec236f-77e5-4cf6-80a5-87bf9f01b183","system_id":"levelo_inurba_marseille","lat":43.23542,"lon":5.3601,"is_reserved":false,"is_disabled":false,"rental_uris":{"android":"levelo://app?vid=37ec236f-77e5-4cf6-80a5-87bf9f01b183","ios":"levelo://app?vid=37ec236f-77e5-4cf6-80a5-87bf9f01b183"},"vehicle_type_id":"4","last_reported":1753513877,"current_range_meters":20400,"station_id":"","pricing_plan_id":"cebpf4jnsgd1na2vs0mg"},{"bike_id":"822abe08-3836-44b1-ae64-fadfafbea417","system_id":"levelo_inurba_marseille","lat":43.28926,"lon":5.36387,"is_reserved":false,"is_disabled":false,"rental_uris":{"android":"levelo://app?vid=822abe08-3836-44b1-ae64-fadfafbea417","ios":"levelo://app?vid=822abe08-3836-44b1-ae64-fadfafbea417"},"vehicle_type_id":"4","last_reported":1753513877,"current_range_meters":20400,"station_id":"ce4bhc92rcd13ifvqetg","pricing_plan_id":"cebpf4jnsgd1na2vs0mg"},{"bike_id":"55661540-733b-4bd0-ad5d-bb688398f06e","system_id":"levelo_inurba_marseille","lat":43.22511,"lon":5.34783,"is_reserved":false,"is_disabled":false,"rental_uris":{"android":"levelo://app?vid=55661540-733b-4bd0-ad5d-bb688398f06e","ios":"levelo://app?vid=55661540-733b-4bd0-ad5d-bb688398f06e"},"vehicle_type_id":"4","last_reported":1753513877,"current_range_meters":20400,"station_id":"st_cvj5dfep6f1abm77gieg","pricing_plan_id":"cebpf4jnsgd1na2vs0mg"},{"bike_id":"0039bf80-7e33-4295-8dbf-8fe340cae94a","system_id":"levelo_inurba_marseille","lat":43.30147,"lon":5.38087,"is_reserved":false,"is_disabled":false,"rental_uris":{"android":"levelo://app?vid=0039bf80-7e33-4295-8dbf-8fe340cae94a","ios":"levelo://app?vid=0039bf80-7e33-4295-8dbf-8fe340cae94a"},"vehicle_type_id":"4","last_reported":1753513877,"current_range_meters":20800,"station_id":"ce4bgjp2rcd13ifvqbh0","pricing_plan_id":"cebpf4jnsgd1na2vs0mg"},{"bike_id":"5cbe0922-8a21-43b8-9034-90f78b1a01d5","system_id":"levelo_inurba_marseille","lat":43.29209,"lon":5.40485,"is_reserved":false,"is_disabled":false,"rental_uris":{"android":"levelo://app?vid=5cbe0922-8a21-43b8-9034-90f78b1a01d5","ios":"levelo://app?vid=5cbe0922-8a21-43b8-9034-90f78b1a01d5"},