{"last_updated":1747476551,"ttl":60,"version":"2.2","data":{"bikes":[{"bike_id":"c0b9fd4f-e181-46ce-b0bf-f5119973334f","system_id":"levelo_inurba_marseille","lat":43.33771,"lon":5.37424,"is_reserved":false,"is_disabled":false,"rental_uris":{"android":"levelo://app?vid=c0b9fd4f-e181-46ce-b0bf-f5119973334f","ios":"levelo://app?vid=c0b9fd4f-e181-46ce-b0bf-f5119973334f"},"vehicle_type_id":"4","last_reported":1747476552,"current_range_meters":6000,"station_id":"","pricing_plan_id":"cebpf4jnsgd1na2vs0mg"},{"bike_id":"18e128f7-be0f-4568-a37e-df584b2e344f","system_id":"levelo_inurba_marseille","lat":43.265543,"lon":5.37284,"is_reserved":false,"is_disabled":true,"rental_uris":{"android":"levelo://app?vid=18e128f7-be0f-4568-a37e-df584b2e344f","ios":"levelo://app?vid=18e128f7-be0f-4568-a37e-df584b2e344f"},"vehicle_type_id":"4","last_reported":1747476552,"current_range_meters":0,"station_id":"","pricing_plan_id":"cebpf4jnsgd1na2vs0mg"},{"bike_id":"fc2577e7-1497-425b-9d4f-ab8d7dc843c6","system_id":"levelo_inurba_marseille","lat":43.33771,"lon":5.37485,"is_reserved":false,"is_disabled":true,"rental_uris":{"android":"levelo://app?vid=fc2577e7-1497-425b-9d4f-ab8d7dc843c6","ios":"levelo://app?vid=fc2577e7-1497-425b-9d4f-ab8d7dc843c6"},"vehicle_type_id":"4","last_reported":1747476552,"current_range_meters":0,"station_id":"","pricing_plan_id":"cebpf4jnsgd1na2vs0mg"},{"bike_id":"ce4325af-2448-4172-bdec-81d552ee0b62","system_id":"levelo_inurba_marseille","lat":43.26167,"lon":5.42,"is_reserved":false,"is_disabled":true,"rental_uris":{"android":"levelo://app?vid=ce4325af-2448-4172-bdec-81d552ee0b62","ios":"levelo://app?vid=ce4325af-2448-4172-bdec-81d552ee0b62"},"vehicle_type_id":"4","last_reported":1747476552,"current_range_meters":0,"station_id":"","pricing_plan_id":"cebpf4jnsgd1na2vs0mg"},{"bike_id":"23939faf-d206-4b93-ade4-199417584041","system_id":"levelo_inurba_marseille","lat":43.24916,"lon":5.37615,"is_reserved":false,"is_disabled":true,"rental_uris":{"android":"levelo://app?vid=23939faf-d206-4b93-ade4-199417584041","ios":"levelo://app?vid=23939faf-d206-4b93-ade4-199417584041"},"vehicle_type_id":"4","last_reported":1747476552,"current_range_meters":0,"station_id":"","pricing_plan_id":"cebpf4jnsgd1na2vs0mg"},{"bike_id":"792567c6-0442-4011-aff0-9c05e25deb48","system_id":"levelo_inurba_marseille","lat":43.337444,"lon":5.374475,"is_reserved":false,"is_disabled":true,"rental_uris":{"android":"levelo://app?vid=792567c6-0442-4011-aff0-9c05e25deb48","ios":"levelo://app?vid=792567c6-0442-4011-aff0-9c05e25deb48"},"vehicle_type_id":"4","last_reported":1747476552,"current_range_meters":0,"station_id":"","pricing_plan_id":"cebpf4jnsgd1na2vs0mg"},{"bike_id":"bb0baa39-1e01-43e0-a77c-5ba8d631e8a2","system_id":"levelo_inurba_marseille","lat":43.272657,"lon":5.38574,"is_reserved":false,"is_disabled":true,"rental_uris":{"android":"levelo://app?vid=bb0baa39-1e01-43e0-a77c-5ba8d631e8a2","ios":"levelo://app?vid=bb0baa39-1e01-43e0-a77c-5ba8d631e8a2"},"vehicle_type_id":"4","last_reported":1747476552,"current_range_meters":0,"station_id":"","pricing_plan_id":"cebpf4jnsgd1na2vs0mg"},{"bike_id":"26141229-46e0-47ea-8a55-19bfb623f31b","system_id":"levelo_inurba_marseille","lat":43.30734,"lon":5.36513,"is_reserved":false,"is_disabled":true,"rental_uris":{"android":"levelo://app?vid=26141229-46e0-47ea-8a55-19bfb623f31b","ios":"levelo://app?vid=26141229-46e0-47ea-8a55-19bfb623f31b"},"vehicle_type_id":"4","last_reported":1747476552,"current_range_meters":0,"station_id":"","pricing_plan_id":"cebpf4jnsgd1na2vs0mg"},{"bike_id":"0f675544-f8c4-47f6-8715-748185f670df","system_id":"levelo_inurba_marseille","lat":43.30128,"lon":5.39889,"is_reserved":false,"is_disabled":true,"rental_uris":{"android":"levelo://app?vid=0f675544-f8c4-47f6-8715-748185f670df","ios":"levelo://app?vid=0f675544-f8c4-47f6-8715-748185f670df"},"vehicle_type_id":"4","last_reported":1747476552,"current_range_meters":0,"station_id":"ce4bh0h2rcd13ifvqd40","pricing_plan_id":"cebpf4jnsgd1na2vs0mg"},{"bike_id":"96054c14-679a-427c-9e61-8257e0e54204","system_id":"levelo_inurba_marseille","lat":43.28273,"lon":5.35056,"is_reserved":false,"is_disabled":true,"rental_uris":{"android":"levelo://app?vid=96054c14-679a-427c-9e61-8257e0e54204","ios":"levelo://app?vid=96054c14-679a-427c-9e61-8257e0e54204"},"vehicle_type_id":"4","last_reported":1747476552,"current_range_meters":0,"station_id":"ce4bhbp2rcd13ifvqerg","pricing_plan_id":"cebpf4jnsgd1na2vs0mg"},{"bike_id":"b179b652-8aaf-4c1d-8a29-573fac594481","system_id":"levelo_inurba_marseille","lat":43.28265,"lon":5.35064,"is_reserved":false,"is_disabled":true,"rental_uris":{"android":"levelo://app?vid=b179b652-8aaf-4c1d-8a29-573fac594481","ios":"levelo://app?vid=b179b652-8aaf-4c1d-8a29-573fac594481"},"vehicle_type_id":"4","last_reported":1747476552,"current_range_meters":0,"station_id":"ce4bhbp2rcd13ifvqerg","pricing_plan_id":"cebpf4jnsgd1na2vs0mg"},{"bike_id":"247cfebb-6702-4832-a387-7501133f9873","system_id":"levelo_inurba_marseille","lat":43.2831,"lon":5.35068,"is_reserved":false,"is_disabled":true,"rental_uris":{"android":"levelo://app?vid=247cfebb-6702-4832-a387-7501133f9873","ios":"levelo://app?vid=247cfebb-6702-4832-a387-7501133f9873"},"vehicle_type_id":"4","last_reported":1747476552,"current_range_meters":0,"station_id":"ce4bhbp2rcd13ifvqerg","pricing_plan_id":"cebpf4jnsgd1na2vs0mg"},{"bike_id":"a3a14733-1459-42ef-a3ec-ae025c322ef4","system_id":"levelo_inurba_marseille","lat":43.26553,"lon":5.37288,"is_reserved":false,"is_disabled":true,"rental_uris":{"android":"levelo://app?vid=a3a14733-1459-42ef-a3ec-ae025c322ef4","ios":"levelo://app?vid=a3a14733-1459-42ef-a3ec-ae025c322ef4"},"vehicle_type_id":"4","last_reported":1747476552,"current_range_meters":0,"station_id":"ce4bhg12rcd13ifvqf70","pricing_plan_id":"cebpf4jnsgd1na2vs0mg"},{"bike_id":"f48e80bb-f9d4-428b-b419-a2d0402a862e","system_id":"levelo_inurba_marseille","lat":43.27564,"lon":5.38435,"is_reserved":false,"is_disabled":true,"rental_uris":{"android":"levelo://app?vid=f48e80bb-f9d4-428b-b419-a2d0402a862e","ios":"levelo://app?vid=f48e80bb-f9d4-428b-b419-a2d0402a862e"},"vehicle_type_id":"4","last_reported":1747476552,"current_range_meters":0,"station_id":"ce4bhh92rcd13ifvqfi0","pricing_plan_id":"cebpf4jnsgd1na2vs0mg"},{"bike_id":"9422b484-c387-4816-b74c-9be8f61ca4f7","system_id":"levelo_inurba_marseille","lat":43.26204,"lon":5.37923,"is_reserved":false,"is_disabled":true,"rental_uris":{"android":"levelo://app?vid=9422b484-c387-4816-b74c-9be8f61ca4f7","ios":"levelo://app?vid=9422b484-c387-4816-b74c-9be8f61ca4f7"},"vehicle_type_id":"4","last_reported":1747476552,"current_range_meters":0,"station_id":"ce4bhjp2rcd13ifvqg90","pricing_plan_id":"cebpf4jnsgd1na2vs0mg"},{"bike_id":"80d0d83f-909d-4568-b4e7-8a3ef4eed2de","system_id":"levelo_inurba_marseille","lat":43.253938,"lon":5.419004,"is_reserved":false,"is_disabled":true,"rental_uris":{"android":"levelo://app?vid=80d0d83f-909d-4568-b4e7-8a3ef4eed2de","ios":"levelo://app?vid=80d0d83f-909d-4568-b4e7-8a3ef4eed2de"},"vehicle_type_id":"4","last_reported":1747476552,"current_range_meters":400,"station_id":"","pricing_plan_id":"cebpf4jnsgd1na2vs0mg"},{"bike_id":"a0f3d0aa-b731-4c54-a8d8-c7a1a942a8b9","system_id":"levelo_inurba_marseille","lat":43.26685,"lon":5.38274,"is_reserved":false,"is_disabled":true,"rental_uris":{"android":"levelo://app?vid=a0f3d0aa-b731-4c54-a8d8-c7a1a942a8b9","ios":"levelo://app?vid=a0f3d0aa-b731-4c54-a8d8-c7a1a942a8b9"},"vehicle_type_id":"4","last_reported":1747476552,"current_range_meters":400,"station_id":"ce4bhg92rcd13ifvqf90","pricing_plan_id":"cebpf4jnsgd1na2vs0mg"},{"bike_id":"51821f90-7aeb-4c7b-bbea-f4d878f340ea","system_id":"levelo_inurba_marseille","lat":43.28403,"lon":5.37525,"is_reserved":false,"is_disabled":true,"rental_uris":{"android":"levelo://app?vid=51821f90-7aeb-4c7b-bbea-f4d878f340ea","ios":"levelo://app?vid=51821f90-7aeb-4c7b-bbea-f4d878f340ea"},"vehicle_type_id":"4","last_reported":1747476552,"current_range_meters":800,"station_id":"ce4bh412rcd13ifvqds0","pricing_plan_id":"cebpf4jnsgd1na2vs0mg"},{"bike_id":"14548008-668b-4d54-8a78-45b827ace5cb","system_id":"levelo_inurba_marseille","lat":43.29424,"lon":5.38627,"is_reserved":false,"is_disabled":true,"rental_uris":{"android":"levelo://app?vid=14548008-668b-4d54-8a78-45b827ace5cb","ios":"levelo://app?vid=14548008-668b-4d54-8a78-45b827ace5cb"},"vehicle_type_id":"4","last_reported":1747476552,"current_range_meters":1200,"station_id":"ce4bh2h2rcd13ifvqdh0","pricing_plan_id":"cebpf4jnsgd1na2vs0mg"},{"bike_id":"98cf4aa9-5584-4e75-90e0-767240115a5b","system_id":"levelo_inurba_marseille","lat":43.28613,"lon":5.35104,"is_reserved":false,"is_disabled":true,"rental_uris":{"android":"levelo://app?vid=98cf4aa9-5584-4e75-90e0-767240115a5b","ios":"levelo://app?vid=98cf4aa9-5584-4e75-90e0-767240115a5b"},"vehicle_type_id":"4","last_reported":1747476552,"current_range_meters":1200,"station_id":"ce4bhch2rcd13ifvqeug","pricing_plan_id":"cebpf4jnsgd1na2vs0mg"},{"bike_id":"d58fbb7e-474d-43aa-a4c5-ee6210c9b549","system_id":"levelo_inurba_marseille","lat":43.26186,"lon":5.37492,"is_reserved":false,"is_disabled":true,"rental_uris":{"android":"levelo://app?vid=d58fbb7e-474d-43aa-a4c5-ee6210c9b549","ios":"levelo://app?vid=d58fbb7e-474d-43aa-a4c5-ee6210c9b549"},"vehicle_type_id":"4","last_reported":1747476552,"current_range_meters":1200,"station_id":"ce4bhgp2rcd13ifvqfc0","pricing_plan_id":"cebpf4jnsgd1na2vs0mg"},{"bike_id":"a6def583-e81f-4a5c-9207-5ec517882cb4","system_id":"levelo_inurba_marseille","lat":43.28159,"lon":5.42637,"is_reserved":false,"is_disabled":true,"rental_uris":{"android":"levelo://app?vid=a6def583-e81f-4a5c-9207-5ec517882cb4","ios":"levelo://app?vid=a6def583-e81f-4a5c-9207-5ec517882cb4"},"vehicle_type_id":"4","last_reported":1747476552,"current_range_meters":1200,"station_id":"ce4bhnh2rcd13ifvqgug","pricing_plan_id":"cebpf4jnsgd1na2vs0mg"},{"bike_id":"83be837d-42e9-4d17-9ca1-8064b89c1538","system_id":"levelo_inurba_marseille","lat":43.21191,"lon":5.35068,"is_reserved":false,"is_disabled":true,"rental_uris":{"android":"levelo://app?vid=83be837d-42e9-4d17-9ca1-8064b89c1538","ios":"levelo://app?vid=83be837d-42e9-4d17-9ca1-8064b89c1538"},"vehicle_type_id":"4","last_reported":1747476552,"current_range_meters":1600,"station_id":"st_cvj6sg6p6f1abm77japg","pricing_plan_id":"cebpf4jnsgd1na2vs0mg"},{"bike_id":"8fd877d3-9dce-42c2-a6ec-1ba2a8b52bdc","system_id":"levelo_inurba_marseille","lat":43.29098,"lon":5.38129,"is_reserved":false,"is_disabled":false,"rental_uris":{"android":"levelo://app?vid=8fd877d3-9dce-42c2-a6ec-1ba2a8b52bdc","ios":"levelo://app?vid=8fd877d3-9dce-42c2-a6ec-1ba2a8b52bdc"},"vehicle_type_id":"4","last_reported":1747476552,"current_range_meters":2800,"station_id":"ce4bh512rcd13ifvqe2g","pricing_plan_id":"cebpf4jnsgd1na2vs0mg"},{"bike_id":"7935277f-1b79-4a71-8381-129c9a94d213","system_id":"levelo_inurba_marseille","lat":43.29263,"lon":5.40904,"is_reserved":false,"is_disabled":false,"rental_uris":{"android":"levelo://app?vid=7935277f-1b79-4a71-8381-129c9a94d213","ios":"levelo://app?vid=7935277f-1b79-4a71-8381-129c9a94d213"},"vehicle_type_id":"4","last_reported":1747476552,"current_range_meters":3200,"station_id":"ce4bh192rcd13ifvqdc0","pricing_plan_id":"cebpf4jnsgd1na2vs0mg"},{"bike_id":"8734cf5c-5d90-4f7a-bb52-5922fc80e4d4","system_id":"levelo_inurba_marseille","lat":43.28978,"lon":5.37838,"is_reserved":false,"is_disabled":false,"rental_uris":{"android":"levelo://app?vid=8734cf5c-5d90-4f7a-bb52-5922fc80e4d4","ios":"levelo://app?vid=8734cf5c-5d90-4f7a-bb52-5922fc80e4d4"},"vehicle_type_id":"4","last_reported":1747476552,"current_range_meters":3200,"station_id":"ce4bh9p2rcd13ifvqed0","pricing_plan_id":"cebpf4jnsgd1na2vs0mg"},{"bike_id":"f310aed8-2be2-4585-a766-342cdc356eb8","system_id":"levelo_inurba_marseille","lat":43.313171,"lon":5.397036,"is_reserved":false,"is_disabled":false,"rental_uris":{"android":"levelo://app?vid=f310aed8-2be2-4585-a766-342cdc356eb8","ios":"levelo://app?vid=f310aed8-2be2-4585-a766-342cdc356eb8"},"vehicle_type_id":"4","last_reported":1747476552,"current_range_meters":3600,"station_id":"ce4bgvp2rcd13ifvqcu0","pricing_plan_id":"cebpf4jnsgd1na2vs0mg"},{"bike_id":"dec57fd3-4902-48a5-888c-28d14f508daf","system_id":"levelo_inurba_marseille","lat":43.24067,"lon":5.37762,"is_reserved":false,"is_disabled":false,"rental_uris":{"android":"levelo://app?vid=dec57fd3-4902-48a5-888c-28d14f508daf","ios":"levelo://app?vid=dec57fd3-4902-48a5-888c-28d14f508daf"},"vehicle_type_id":"4","last_reported":1747476552,"current_range_meters":4000,"station_id":"ce4bhnp2rcd13ifvqgvg","pricing_plan_id":"cebpf4jnsgd1na2vs0mg"},{"bike_id":"69348cf2-c832-4067-ad0e-0117d5c9efa9","system_id":"levelo_inurba_marseille","lat":43.28266,"lon":5.35062,"is_reserved":false,"is_disabled":false,"rental_uris":{"android":"levelo://app?vid=69348cf2-c832-4067-ad0e-0117d5c9efa9","ios":"levelo://app?vid=69348cf2-c832-4067-ad0e-0117d5c9efa9"},"vehicle_type_id":"4","last_reported":1747476552,"current_range_meters":4400,"station_id":"ce4bhbp2rcd13ifvqerg","pricing_plan_id":"cebpf4jnsgd1na2vs0mg"},{"bike_id":"3493391e-4d73-43fd-a1f4-c4cba455c080","system_id":"levelo_inurba_marseille","lat":43.265486,"lon":5.372842,"is_reserved":false,"is_disabled":false,"rental_uris":{"android":"levelo://app?vid=3493391e-4d73-43fd-a1f4-c4cba455c080","ios":"levelo://app?vid=3493391e-4d73-43fd-a1f4-c4cba455c080"},"vehicle_type_id":"4","last_reported":1747476552,"current_range_meters":4400,"station_id":"ce4bhg12rcd13ifvqf70","pricing_plan_id":"cebpf4jnsgd1na2vs0mg"},{"bike_id":"dbd93b19-c56c-4737-802b-46f46f18c33c","system_id":"levelo_inurba_marseille","lat":43.24665,"lon":5.38166,"is_reserved":false,"is_disabled":false,"rental_uris":{"android":"levelo://app?vid=dbd93b19-c56c-4737-802b-46f46f18c33c","ios":"levelo://app?vid=dbd93b19-c56c-4737-802b-46f46f18c33c"},"vehicle_type_id":"4","last_reported":1747476552,"current_range_meters":4400,"station_id":"ce4bhih2rcd13ifvqfr0","pricing_plan_id":"cebpf4jnsgd1na2vs0mg"},{"bike_id":"a1f38297-d779-4e97-8596-8cbe1ad0feac","system_id":"levelo_inurba_marseille","lat":43.28429,"lon":5.39186,"is_reserved":false,"is_disabled":false,"rental_uris":{"android":"levelo://app?vid=a1f38297-d779-4e97-8596-8cbe1ad0feac","ios":"levelo://app?vid=a1f38297-d779-4e97-8596-8cbe1ad0feac"},"vehicle_type_id":"4","last_reported":1747476552,"current_range_meters":4400,"station_id":"ce4bhoh2rcd13ifvqh5g","pricing_plan_id":"cebpf4jnsgd1na2vs0mg"},{"bike_id":"06e20113-a5f1-4fe5-b188-f647ff408cc7","system_id":"levelo_inurba_marseille","lat":43.277001,"lon":5.419596,"is_reserved":false,"is_disabled":false,"rental_uris":{"android":"levelo://app?vid=06e20113-a5f1-4fe5-b188-f647ff408cc7","ios":"levelo://app?vid=06e20113-a5f1-4fe5-b188-f647ff408cc7"},"vehicle_type_id":"4","last_reported":1747476552,"current_range_meters":4800,"station_id":"","pricing_plan_id":"cebpf4jnsgd1na2vs0mg"},{"bike_id":"74820bf9-a1db-41ec-8a26-24d82386eea1","system_id":"levelo_inurba_marseille","lat":43.30462,"lon":5.37913,"is_reserved":false,"is_disabled":false,"rental_uris":{"android":"levelo://app?vid=74820bf9-a1db-41ec-8a26-24d82386eea1","ios":"levelo://app?vid=74820bf9-a1db-41ec-8a26-24d82386eea1"},"vehicle_type_id":"4","last_reported":1747476552,"current_range_meters":4800,"station_id":"ce4bgup2rcd13ifvqcn0","pricing_plan_id":"cebpf4jnsgd1na2vs0mg"},{"bike_id":"3d50d707-bb8a-4329-a7cb-48dae4e42631","system_id":"levelo_inurba_marseille","lat":43.21192,"lon":5.35074,"is_reserved":false,"is_disabled":false,"rental_uris":{"android":"levelo://app?vid=3d50d707-bb8a-4329-a7cb-48dae4e42631","ios":"levelo://app?vid=3d50d707-bb8a-4329-a7cb-48dae4e42631"},"vehicle_type_id":"4","last_reported":1747476552,"current_range_meters":4800,"station_id":"st_cvj6sg6p6f1abm77japg","pricing_plan_id":"cebpf4jnsgd1na2vs0mg"},{"bike_id":"d06a81f7-6bbe-4687-bfbe-932949dc466c","system_id":"levelo_inurba_marseille","lat":43.26101,"lon":5.38726,"is_reserved":false,"is_disabled":false,"rental_uris":{"android":"levelo://app?vid=d06a81f7-6bbe-4687-bfbe-932949dc466c","ios":"levelo://app?vid=d06a81f7-6bbe-4687-bfbe-932949dc466c"},"vehicle_type_id":"4","last_reported":1747476552,"current_range_meters":5600,"station_id":"","pricing_plan_id":"cebpf4jnsgd1na2vs0mg"},{"bike_id":"4bc08325-d360-417b-8909-b35b88a496ec","system_id":"levelo_inurba_marseille","lat":43.29007,"lon":5.35612,"is_reserved":false,"is_disabled":false,"rental_uris":{"android":"levelo://app?vid=4bc08325-d360-417b-8909-b35b88a496ec","ios":"levelo://app?vid=4bc08325-d360-417b-8909-b35b88a496ec"},"vehicle_type_id":"4","last_reported":1747476552,"current_range_meters":5600,"station_id":"ce4bhb92rcd13ifvqen0","pricing_plan_id":"cebpf4jnsgd1na2vs0mg"},{"bike_id":"4b2d7d59-5753-4752-9ef7-e8ed26e4bb95","system_id":"levelo_inurba_marseille","lat":43.28416,"lon":5.3498,"is_reserved":false,"is_disabled":false,"rental_uris":{"android":"levelo://app?vid=4b2d7d59-5753-4752-9ef7-e8ed26e4bb95","ios":"levelo://app?vid=4b2d7d59-5753-4752-9ef7-e8ed26e4bb95"},"vehicle_type_id":"4","last_reported":1747476552,"current_range_meters":5600,"station_id":"ce4bhbh2rcd13ifvqepg","pricing_plan_id":"cebpf4jnsgd1na2vs0mg"},{"bike_id":"6db26e33-3495-40b3-b67c-1eb4ec98e4e4","system_id":"levelo_inurba_marseille","lat":43.28415,"lon":5.34986,"is_reserved":false,"is_disabled":false,"rental_uris":{"android":"levelo://app?vid=6db26e33-3495-40b3-b67c-1eb4ec98e4e4","ios":"levelo://app?vid=6db26e33-3495-40b3-b67c-1eb4ec98e4e4"},"vehicle_type_id":"4","last_reported":1747476552,"current_range_meters":5600,"station_id":"ce4bhbh2rcd13ifvqepg","pricing_plan_id":"cebpf4jnsgd1na2vs0mg"},{"bike_id":"f60743d0-8cbf-4386-87d9-1cc250dcb7e9","system_id":"levelo_inurba_marseille","lat":43.31994,"lon":5.38166,"is_reserved":false,"is_disabled":false,"rental_uris":{"android":"levelo://app?vid=f60743d0-8cbf-4386-87d9-1cc250dcb7e9","ios":"levelo://app?vid=f60743d0-8cbf-4386-87d9-1cc250dcb7e9"},"vehicle_type_id":"4","last_reported":1747476552,"current_range_meters":5600,"station_id":"ce4bhr12rcd13ifvqhpg","pricing_plan_id":"cebpf4jnsgd1na2vs0mg"},{"bike_id":"df7aacd4-c458-4cbf-9f0d-618ad9b1c168","system_id":"levelo_inurba_marseille","lat":43.32477,"lon":5.36578,"is_reserved":false,"is_disabled":false,"rental_uris":{"android":"levelo://app?vid=df7aacd4-c458-4cbf-9f0d-618ad9b1c168","ios":"levelo://app?vid=df7aacd4-c458-4cbf-9f0d-618ad9b1c168"},"vehicle_type_id":"4","last_reported":1747476552,"current_range_meters":6000,"station_id":"ce4bhs12rcd13ifvqhvg","pricing_plan_id":"cebpf4jnsgd1na2vs0mg"},{"bike_id":"662c704c-262b-45ad-934a-11f31825a2ce","system_id":"levelo_inurba_marseille","lat":43.2937,"lon":5.37838,"is_reserved":false,"is_disabled":false,"rental_uris":{"android":"levelo://app?vid=662c704c-262b-45ad-934a-11f31825a2ce","ios":"levelo://app?vid=662c704c-262b-45ad-934a-11f31825a2ce"},"vehicle_type_id":"4","last_reported":1747476552,"current_range_meters":6400,"station_id":"","pricing_plan_id":"cebpf4jnsgd1na2vs0mg"},{"bike_id":"f8ebb9d8-5677-4701-851c-da9503f4f330","system_id":"levelo_inurba_marseille","lat":43.31688,"lon":5.40477,"is_reserved":false,"is_disabled":false,"rental_uris":{"android":"levelo://app?vid=f8ebb9d8-5677-4701-851c-da9503f4f330","ios":"levelo://app?vid=f8ebb9d8-5677-4701-851c-da9503f4f330"},"vehicle_type_id":"4","last_reported":1747476552,"current_range_meters":6400,"station_id":"ce4bh012rcd13ifvqd00","pricing_plan_id":"cebpf4jnsgd1na2vs0mg"},{"bike_id":"345cffa0-29b1-4e14-91c8-8f581afe5ee4","system_id":"levelo_inurba_marseille","lat":43.29191,"lon":5.39321,"is_reserved":false,"is_disabled":false,"rental_uris":{"android":"levelo://app?vid=345cffa0-29b1-4e14-91c8-8f581afe5ee4","ios":"levelo://app?vid=345cffa0-29b1-4e14-91c8-8f581afe5ee4"},"vehicle_type_id":"4","last_reported":1747476552,"current_range_meters":6400,"station_id":"ce4bh192rcd13ifvqdd0","pricing_plan_id":"cebpf4jnsgd1na2vs0mg"},{"bike_id":"98e69170-1a55-4d0f-83ec-426b4684cc40","system_id":"levelo_inurba_marseille","lat":43.29269,"lon":5.3844,"is_reserved":false,"is_disabled":false,"rental_uris":{"android":"levelo://app?vid=98e69170-1a55-4d0f-83ec-426b4684cc40","ios":"levelo://app?vid=98e69170-1a55-4d0f-83ec-426b4684cc40"},"vehicle_type_id":"4","last_reported":1747476552,"current_range_meters":6400,"station_id":"ce4bh692rcd13ifvqea0","pricing_plan_id":"cebpf4jnsgd1na2vs0mg"},{"bike_id":"aaeb4f43-b7f6-46ff-8b91-c7adf2146c70","system_id":"levelo_inurba_marseille","lat":43.28423,"lon":5.34986,"is_reserved":false,"is_disabled":false,"rental_uris":{"android":"levelo://app?vid=aaeb4f43-b7f6-46ff-8b91-c7adf2146c70","ios":"levelo://app?vid=aaeb4f43-b7f6-46ff-8b91-c7adf2146c70"},"vehicle_type_id":"4","last_reported":1747476552,"current_range_meters":6400,"station_id":"ce4bhbh2rcd13ifvqepg","pricing_plan_id":"cebpf4jnsgd1na2vs0mg"},{"bike_id":"ff6226cb-f35e-41f9-bc2f-ed3ad480ec58","system_id":"levelo_inurba_marseille","lat":43.250854,"lon":5.395245,"is_reserved":false,"is_disabled":false,"rental_uris":{"android":"levelo://app?vid=ff6226cb-f35e-41f9-bc2f-ed3ad480ec58","ios":"levelo://app?vid=ff6226cb-f35e-41f9-bc2f-ed3ad480ec58"},"vehicle_type_id":"4","last_reported":1747476552,"current_range_meters":6400,"station_id":"ce4bhm12rcd13ifvqgkg","pricing_plan_id":"cebpf4jnsgd1na2vs0mg"},{"bike_id":"594e91ad-cd92-4aa8-b875-934213fa7755","system_id":"levelo_inurba_marseille","lat":43.21188,"lon":5.35071,"is_reserved":false,"is_disabled":false,"rental_uris":{"android":"levelo://app?vid=594e91ad-cd92-4aa8-b875-934213fa7755","ios":"levelo://app?vid=594e91ad-cd92-4aa8-b875-934213fa7755"},"vehicle_type_id":"4","last_reported":1747476552,"current_range_meters":6400,"station_id":"st_cvj6sg6p6f1abm77japg","pricing_plan_id":"cebpf4jnsgd1na2vs0mg"},{"bike_id":"dcd59faa-6dcd-414d-bf76-f0c0327eadc6","system_id":"levelo_inurba_marseille","lat":43.3147,"lon":5.37283,"is_reserved":false,"is_disabled":false,"rental_uris":{"android":"levelo://app?vid=dcd59faa-6dcd-414d-bf76-f0c0327eadc6","ios":"levelo://app?vid=dcd59faa-6dcd-414d-bf76-f0c0327eadc6"},"vehicle_type_id":"4","last_reported":1747476552,"current_range_meters":6800,"station_id":"ce4bgt12rcd13ifvqcd0","pricing_plan_id":"cebpf4jnsgd1na2vs0mg"},{"bike_id":"8f493613-1484-45d9-a7c7-942cc95f86f0","system_id":"levelo_inurba_marseille","lat":43.28718,"lon":5.37939,"is_reserved":false,"is_disabled":false,"rental_uris":{"android":"levelo://app?vid=8f493613-1484-45d9-a7c7-942cc95f86f0","ios":"levelo://app?vid=8f493613-1484-45d9-a7c7-942cc95f86f0"},"vehicle_type_id":"4","last_reported":1747476552,"current_range_meters":6800,"station_id":"ce4bh9p2rcd13ifvqec0","pricing_plan_id":"cebpf4jnsgd1na2vs0mg"},{"bike_id":"6d5e4d62-ec94-462c-af15-b51534e29a15","system_id":"levelo_inurba_marseille","lat":43.25498,"lon":5.37649,"is_reserved":false,"is_disabled":false,"rental_uris":{"android":"levelo://app?vid=6d5e4d62-ec94-462c-af15-b51534e29a15","ios":"levelo://app?vid=6d5e4d62-ec94-462c-af15-b51534e29a15"},"vehicle_type_id":"4","last_reported":1747476552,"current_range_meters":6800,"station_id":"ce4bhh12rcd13ifvqff0","pricing_plan_id":"cebpf4jnsgd1na2vs0mg"},{"bike_id":"a827754e-9752-4e2a-ad9d-1f88fcacc705","system_id":"levelo_inurba_marseille","lat":43.25822,"lon":5.39435,"is_reserved":false,"is_disabled":false,"rental_uris":{"android":"levelo://app?vid=a827754e-9752-4e2a-ad9d-1f88fcacc705","ios":"levelo://app?vid=a827754e-9752-4e2a-ad9d-1f88fcacc705"},"vehicle_type_id":"4","last_reported":1747476552,"current_range_meters":6800,"station_id":"ce4bhip2rcd13ifvqft0","pricing_plan_id":"cebpf4jnsgd1na2vs0mg"},{"bike_id":"f564b51e-6eb7-4545-8499-0367f36a60a3","system_id":"levelo_inurba_marseille","lat":43.2957,"lon":5.37495,"is_reserved":false,"is_disabled":false,"rental_uris":{"android":"levelo://app?vid=f564b51e-6eb7-4545-8499-0367f36a60a3","ios":"levelo://app?vid=f564b51e-6eb7-4545-8499-0367f36a60a3"},"vehicle_type_id":"4","last_reported":1747476552,"current_range_meters":7200,"station_id":"ce4bgh92rcd13ifvqb50","pricing_plan_id":"cebpf4jnsgd1na2vs0mg"},{"bike_id":"b9b2a1e8-dc7d-4b82-80b7-5d071bfa1c86","system_id":"levelo_inurba_marseille","lat":43.27365,"lon":5.36255,"is_reserved":false,"is_disabled":false,"rental_uris":{"android":"levelo://app?vid=b9b2a1e8-dc7d-4b82-80b7-5d071bfa1c86","ios":"levelo://app?vid=b9b2a1e8-dc7d-4b82-80b7-5d071bfa1c86"},"vehicle_type_id":"4","last_reported":1747476552,"current_range_meters":7200,"station_id":"ce4bhbh2rcd13ifvqeo0","pricing_plan_id":"cebpf4jnsgd1na2vs0mg"},{"bike_id":"b42aade0-440e-4b8b-99d6-a2f5b102fabb","system_id":"levelo_inurba_marseille","lat":43.2439,"lon":5.37055,"is_reserved":false,"is_disabled":false,"rental_uris":{"android":"levelo://app?vid=b42aade0-440e-4b8b-99d6-a2f5b102fabb","ios":"levelo://app?vid=b42aade0-440e-4b8b-99d6-a2f5b102fabb"},"vehicle_type_id":"4","last_reported":1747476552,"current_range_meters":7200,"station_id":"ce4bhhh2rcd13ifvqfk0","pricing_plan_id":"cebpf4jnsgd1na2vs0mg"},{"bike_id":"fd83f054-6b7c-471f-a3e2-584831cced64","system_id":"levelo_inurba_marseille","lat":43.23153,"lon":5.43712,"is_reserved":false,"is_disabled":false,"rental_uris":{"android":"levelo://app?vid=fd83f054-6b7c-471f-a3e2-584831cced64","ios":"levelo://app?vid=fd83f054-6b7c-471f-a3e2-584831cced64"},"vehicle_type_id":"4","last_reported":1747476552,"current_range_meters":7200,"station_id":"ce4bhmp2rcd13ifvqgog","pricing_plan_id":"cebpf4jnsgd1na2vs0mg"},{"bike_id":"f0f7ca87-7ffb-46bd-ab65-ff44d1578193","system_id":"levelo_inurba_marseille","lat":43.32365,"lon":5.40675,"is_reserved":false,"is_disabled":false,"rental_uris":{"android":"levelo://app?vid=f0f7ca87-7ffb-46bd-ab65-ff44d1578193","ios":"levelo://app?vid=f0f7ca87-7ffb-46bd-ab65-ff44d1578193"},"vehicle_type_id":"4","last_reported":1747476552,"current_range_meters":7200,"station_id":"ce4bhq92rcd13ifvqhjg","pricing_plan_id":"cebpf4jnsgd1na2vs0mg"},{"bike_id":"9d29eb8a-633f-4a3f-bd84-0754a56c14c4","system_id":"levelo_inurba_marseille","lat":43.32489,"lon":5.36601,"is_reserved":false,"is_disabled":false,"rental_uris":{"android":"levelo://app?vid=9d29eb8a-633f-4a3f-bd84-0754a56c14c4","ios":"levelo://app?vid=9d29eb8a-633f-4a3f-bd84-0754a56c14c4"},"vehicle_type_id":"4","last_reported":1747476552,"current_range_meters":7200,"station_id":"ce4bhs12rcd13ifvqhvg","pricing_plan_id":"cebpf4jnsgd1na2vs0mg"},{"bike_id":"dba6b84c-b03c-4bb5-861c-919db7a08411","system_id":"levelo_inurba_marseille","lat":43.28924,"lon":5.38399,"is_reserved":false,"is_disabled":false,"rental_uris":{"android":"levelo://app?vid=dba6b84c-b03c-4bb5-861c-919db7a08411","ios":"levelo://app?vid=dba6b84c-b03c-4bb5-861c-919db7a08411"},"vehicle_type_id":"4","last_reported":1747476552,"current_range_meters":8000,"station_id":"ce4bh612rcd13ifvqe6g","pricing_plan_id":"cebpf4jnsgd1na2vs0mg"},{"bike_id":"b17002df-4092-41c0-81f6-11460db0716f","system_id":"levelo_inurba_marseille","lat":43.262083,"lon":5.374497,"is_reserved":false,"is_disabled":false,"rental_uris":{"android":"levelo://app?vid=b17002df-4092-41c0-81f6-11460db0716f","ios":"levelo://app?vid=b17002df-4092-41c0-81f6-11460db0716f"},"vehicle_type_id":"4","last_reported":1747476552,"current_range_meters":8000,"station_id":"ce4bhgp2rcd13ifvqfc0","pricing_plan_id":"cebpf4jnsgd1na2vs0mg"},{"bike_id":"5b61d110-3dc1-4b74-bd2e-4051b3fcddcc","system_id":"levelo_inurba_marseille","lat":43.25107,"lon":5.4032,"is_reserved":false,"is_disabled":false,"rental_uris":{"android":"levelo://app?vid=5b61d110-3dc1-4b74-bd2e-4051b3fcddcc","ios":"levelo://app?vid=5b61d110-3dc1-4b74-bd2e-4051b3fcddcc"},"vehicle_type_id":"4","last_reported":1747476552,"current_range_meters":8000,"station_id":"ce4bhlh2rcd13ifvqgig","pricing_plan_id":"cebpf4jnsgd1na2vs0mg"},{"bike_id":"7b7e72f6-267c-4cb5-a0ec-d33198a95264","system_id":"levelo_inurba_marseille","lat":43.2419,"lon":5.39705,"is_reserved":false,"is_disabled":false,"rental_uris":{"android":"levelo://app?vid=7b7e72f6-267c-4cb5-a0ec-d33198a95264","ios":"levelo://app?vid=7b7e72f6-267c-4cb5-a0ec-d33198a95264"},"vehicle_type_id":"4","last_reported":1747476552,"current_range_meters":8000,"station_id":"ce4bhn12rcd13ifvqgpg","pricing_plan_id":"cebpf4jnsgd1na2vs0mg"},{"bike_id":"46c4ba03-4382-41c0-9bae-f8b360ae58bf","system_id":"levelo_inurba_marseille","lat":43.31997,"lon":5.38158,"is_reserved":false,"is_disabled":false,"rental_uris":{"android":"levelo://app?vid=46c4ba03-4382-41c0-9bae-f8b360ae58bf","ios":"levelo://app?vid=46c4ba03-4382-41c0-9bae-f8b360ae58bf"},"vehicle_type_id":"4","last_reported":1747476552,"current_range_meters":8000,"station_id":"ce4bhr12rcd13ifvqhpg","pricing_plan_id":"cebpf4jnsgd1na2vs0mg"},{"bike_id":"5cf74a5b-3237-4306-8708-835ce896cf40","system_id":"levelo_inurba_marseille","lat":43.31992,"lon":5.38176,"is_reserved":false,"is_disabled":false,"rental_uris":{"android":"levelo://app?vid=5cf74a5b-3237-4306-8708-835ce896cf40","ios":"levelo://app?vid=5cf74a5b-3237-4306-8708-835ce896cf40"},"vehicle_type_id":"4","last_reported":1747476552,"current_range_meters":8000,"station_id":"ce4bhr12rcd13ifvqhpg","pricing_plan_id":"cebpf4jnsgd1na2vs0mg"},{"bike_id":"6cd5c425-f8ac-4068-b8ea-a8bfbef29ee5","system_id":"levelo_inurba_marseille","lat":43.24995,"lon":5.3792,"is_reserved":false,"is_disabled":false,"rental_uris":{"android":"levelo://app?vid=6cd5c425-f8ac-4068-b8ea-a8bfbef29ee5","ios":"levelo://app?vid=6cd5c425-f8ac-4068-b8ea-a8bfbef29ee5"},"vehicle_type_id":"4","last_reported":1747476552,"current_range_meters":8400,"station_id":"","pricing_plan_id":"cebpf4jnsgd1na2vs0mg"},{"bike_id":"97c3d4bf-7de4-4f50-8c72-925486775c13","system_id":"levelo_inurba_marseille","lat":43.28411,"lon":5.34991,"is_reserved":false,"is_disabled":false,"rental_uris":{"android":"levelo://app?vid=97c3d4bf-7de4-4f50-8c72-925486775c13","ios":"levelo://app?vid=97c3d4bf-7de4-4f50-8c72-925486775c13"},"vehicle_type_id":"4","last_reported":1747476552,"current_range_meters":8400,"station_id":"ce4bhbh2rcd13ifvqepg","pricing_plan_id":"cebpf4jnsgd1na2vs0mg"},{"bike_id":"0b17beea-a479-47d0-8684-37d21cb61abf","system_id":"levelo_inurba_marseille","lat":43.25001,"lon":5.38927,"is_reserved":false,"is_disabled":false,"rental_uris":{"android":"levelo://app?vid=0b17beea-a479-47d0-8684-37d21cb61abf","ios":"levelo://app?vid=0b17beea-a479-47d0-8684-37d21cb61abf"},"vehicle_type_id":"4","last_reported":1747476552,"current_range_meters":8400,"station_id":"ce4bhgp2rcd13ifvqfd0","pricing_plan_id":"cebpf4jnsgd1na2vs0mg"},{"bike_id":"5098123d-b36f-482a-a74d-7b81fd65e534","system_id":"levelo_inurba_marseille","lat":43.2397,"lon":5.3662,"is_reserved":false,"is_disabled":false,"rental_uris":{"android":"levelo://app?vid=5098123d-b36f-482a-a74d-7b81fd65e534","ios":"levelo://app?vid=5098123d-b36f-482a-a74d-7b81fd65e534"},"vehicle_type_id":"4","last_reported":1747476552,"current_range_meters":8400,"station_id":"ce4bhi12rcd13ifvqfp0","pricing_plan_id":"cebpf4jnsgd1na2vs0mg"},{"bike_id":"8cf75296-6b59-4787-bf18-cfee7fac28e0","system_id":"levelo_inurba_marseille","lat":43.24175,"lon":5.39734,"is_reserved":false,"is_disabled":false,"rental_uris":{"android":"levelo://app?vid=8cf75296-6b59-4787-bf18-cfee7fac28e0","ios":"levelo://app?vid=8cf75296-6b59-4787-bf18-cfee7fac28e0"},"vehicle_type_id":"4","last_reported":1747476552,"current_range_meters":8400,"station_id":"ce4bhn12rcd13ifvqgpg","pricing_plan_id":"cebpf4jnsgd1na2vs0mg"},{"bike_id":"3d6b5b36-a314-45fa-8bc0-68e5f98a5dde","system_id":"levelo_inurba_marseille","lat":43.229328,"lon":5.353811,"is_reserved":false,"is_disabled":false,"rental_uris":{"android":"levelo://app?vid=3d6b5b36-a314-45fa-8bc0-68e5f98a5dde","ios":"levelo://app?vid=3d6b5b36-a314-45fa-8bc0-68e5f98a5dde"},"vehicle_type_id":"4","last_reported":1747476552,"current_range_meters":8400,"station_id":"cpo3532slgdg3j2ikp40","pricing_plan_id":"cebpf4jnsgd1na2vs0mg"},{"bike_id":"0d5872be-ec7b-4b53-8667-c65168ff794b","system_id":"levelo_inurba_marseille","lat":43.297672,"lon":5.381087,"is_reserved":false,"is_disabled":false,"rental_uris":{"android":"levelo://app?vid=0d5872be-ec7b-4b53-8667-c65168ff794b","ios":"levelo://app?vid=0d5872be-ec7b-4b53-8667-c65168ff794b"},"vehicle_type_id":"4","last_reported":1747476552,"current_range_meters":8800,"station_id":"ce4bgk12rcd13ifvqbi0","pricing_plan_id":"cebpf4jnsgd1na2vs0mg"},{"bike_id":"803c9ccf-0e8a-47cc-bc61-a7422d126f69","system_id":"levelo_inurba_marseille","lat":43.279738,"lon":5.387349,"is_reserved":false,"is_disabled":false,"rental_uris":{"android":"levelo://app?vid=803c9ccf-0e8a-47cc-bc61-a7422d126f69","ios":"levelo://app?vid=803c9ccf-0e8a-47cc-bc61-a7422d126f69"},"vehicle_type_id":"4","last_reported":1747476552,"current_range_meters":8800,"station_id":"ce4bhg12rcd13ifvqf80","pricing_plan_id":"cebpf4jnsgd1na2vs0mg"},{"bike_id":"6dc41c7d-d886-4d51-bd29-ec1aa88f4fac","system_id":"levelo_inurba_marseille","lat":43.24165,"lon":5.36406,"is_reserved":false,"is_disabled":false,"rental_uris":{"android":"levelo://app?vid=6dc41c7d-d886-4d51-bd29-ec1aa88f4fac","ios":"levelo://app?vid=6dc41c7d-d886-4d51-bd29-ec1aa88f4fac"},"vehicle_type_id":"4","last_reported":1747476552,"current_range_meters":8800,"station_id":"cpo36qri1sfpv3e86is0","pricing_plan_id":"cebpf4jnsgd1na2vs0mg"},{"bike_id":"79b0f212-a412-4d78-9698-18a7ce0ce6cd","system_id":"levelo_inurba_marseille","lat":43.23356,"lon":5.36061,"is_reserved":false,"is_disabled":false,"rental_uris":{"android":"levelo://app?vid=79b0f212-a412-4d78-9698-18a7ce0ce6cd","ios":"levelo://app?vid=79b0f212-a412-4d78-9698-18a7ce0ce6cd"},"vehicle_type_id":"4","last_reported":1747476552,"current_range_meters":9200,"station_id":"","pricing_plan_id":"cebpf4jnsgd1na2vs0mg"},{"bike_id":"058706f2-155f-467b-a90e-f44d09a28c40","system_id":"levelo_inurba_marseille","lat":43.30308,"lon":5.36905,"is_reserved":false,"is_disabled":false,"rental_uris":{"android":"levelo://app?vid=058706f2-155f-467b-a90e-f44d09a28c40","ios":"levelo://app?vid=058706f2-155f-467b-a90e-f44d09a28c40"},"vehicle_type_id":"4","last_reported":1747476552,"current_range_meters":9200,"station_id":"ce4bgqh2rcd13ifvqc5g","pricing_plan_id":"cebpf4jnsgd1na2vs0mg"},{"bike_id":"7e9b3173-a356-4467-ac0a-0afa104de467","system_id":"levelo_inurba_marseille","lat":43.255836,"lon":5.382304,"is_reserved":false,"is_disabled":false,"rental_uris":{"android":"levelo://app?vid=7e9b3173-a356-4467-ac0a-0afa104de467","ios":"levelo://app?vid=7e9b3173-a356-4467-ac0a-0afa104de467"},"vehicle_type_id":"4","last_reported":1747476552,"current_range_meters":9200,"station_id":"ce4bhih2rcd13ifvqfs0","pricing_plan_id":"cebpf4jnsgd1na2vs0mg"},{"bike_id":"4627f3d1-17fd-49b2-9a60-3f90cc9b16e5","system_id":"levelo_inurba_marseille","lat":43.317104,"lon":5.437014,"is_reserved":false,"is_disabled":false,"rental_uris":{"android":"levelo://app?vid=4627f3d1-17fd-49b2-9a60-3f90cc9b16e5","ios":"levelo://app?vid=4627f3d1-17fd-49b2-9a60-3f90cc9b16e5"},"vehicle_type_id":"4","last_reported":1747476552,"current_range_meters":9200,"station_id":"ce4bhp92rcd13ifvqhcg","pricing_plan_id":"cebpf4jnsgd1na2vs0mg"},{"bike_id":"090604ff-e7a8-4541-bec6-8ee5aae79d9f","system_id":"levelo_inurba_marseille","lat":43.29626,"lon":5.37736,"is_reserved":false,"is_disabled":false,"rental_uris":{"android":"levelo://app?vid=090604ff-e7a8-4541-bec6-8ee5aae79d9f","ios":"levelo://app?vid=090604ff-e7a8-4541-bec6-8ee5aae79d9f"},"vehicle_type_id":"4","last_reported":1747476552,"current_range_meters":9600,"station_id":"ce4bgi92rcd13ifvqb90","pricing_plan_id":"cebpf4jnsgd1na2vs0mg"},{"bike_id":"d3315912-dd0a-405d-b7e8-d439f33644cc","system_id":"levelo_inurba_marseille","lat":43.30532,"lon":5.36529,"is_reserved":false,"is_disabled":false,"rental_uris":{"android":"levelo://app?vid=d3315912-dd0a-405d-b7e8-d439f33644cc","ios":"levelo://app?vid=d3315912-dd0a-405d-b7e8-d439f33644cc"},"vehicle_type_id":"4","last_reported":1747476552,"current_range_meters":9600,"station_id":"ce4bgs12rcd13ifvqcag","pricing_plan_id":"cebpf4jnsgd1na2vs0mg"},{"bike_id":"3bfd2f30-2a15-4b90-9d64-9316b8f80f5e","system_id":"levelo_inurba_marseille","lat":43.28931,"lon":5.36656,"is_reserved":false,"is_disabled":false,"rental_uris":{"android":"levelo://app?vid=3bfd2f30-2a15-4b90-9d64-9316b8f80f5e","ios":"levelo://app?vid=3bfd2f30-2a15-4b90-9d64-9316b8f80f5e"},"vehicle_type_id":"4","last_reported":1747476552,"current_range_meters":9600,"station_id":"ce4bhap2rcd13ifvqek0","pricing_plan_id":"cebpf4jnsgd1na2vs0mg"},{"bike_id":"0fde3f92-a167-493d-94ef-94cd4831aae5","system_id":"levelo_inurba_marseille","lat":43.26556,"lon":5.37287,"is_reserved":false,"is_disabled":false,"rental_uris":{"android":"levelo://app?vid=0fde3f92-a167-493d-94ef-94cd4831aae5","ios":"levelo://app?vid=0fde3f92-a167-493d-94ef-94cd4831aae5"},"vehicle_type_id":"4","last_reported":1747476552,"current_range_meters":9600,"station_id":"ce4bhg12rcd13ifvqf70","pricing_plan_id":"cebpf4jnsgd1na2vs0mg"},{"bike_id":"fd36f2b2-ab3f-4773-a649-0c532c529c78","system_id":"levelo_inurba_marseille","lat":43.26564,"lon":5.37287,"is_reserved":false,"is_disabled":false,"rental_uris":{"android":"levelo://app?vid=fd36f2b2-ab3f-4773-a649-0c532c529c78","ios":"levelo://app?vid=fd36f2b2-ab3f-4773-a649-0c532c529c78"},"vehicle_type_id":"4","last_reported":1747476552,"current_range_meters":9600,"station_id":"ce4bhg12rcd13ifvqf70","pricing_plan_id":"cebpf4jnsgd1na2vs0mg"},{"bike_id":"3a971aca-fda5-4809-8a49-e1411d25399e","system_id":"levelo_inurba_marseille","lat":43.29973,"lon":5.37176,"is_reserved":false,"is_disabled":false,"rental_uris":{"android":"levelo://app?vid=3a971aca-fda5-4809-8a49-e1411d25399e","ios":"levelo://app?vid=3a971aca-fda5-4809-8a49-e1411d25399e"},"vehicle_type_id":"4","last_reported":1747476552,"current_range_meters":10000,"station_id":"ce4bgr92rcd13ifvqc7g","pricing_plan_id":"cebpf4jnsgd1na2vs0mg"},{"bike_id":"0a6f5816-9ecf-41c0-b241-300e1fbb52ce","system_id":"levelo_inurba_marseille","lat":43.307892,"lon":5.376409,"is_reserved":false,"is_disabled":false,"rental_uris":{"android":"levelo://app?vid=0a6f5816-9ecf-41c0-b241-300e1fbb52ce","ios":"levelo://app?vid=0a6f5816-9ecf-41c0-b241-300e1fbb52ce"},"vehicle_type_id":"4","last_reported":1747476552,"current_range_meters":10000,"station_id":"ce4bgv92rcd13ifvqcq0","pricing_plan_id":"cebpf4jnsgd1na2vs0mg"},{"bike_id":"4e3dabbc-dd97-4dcb-98cd-df94478075f6","system_id":"levelo_inurba_marseille","lat":43.25006,"lon":5.38935,"is_reserved":false,"is_disabled":false,"rental_uris":{"android":"levelo://app?vid=4e3dabbc-dd97-4dcb-98cd-df94478075f6","ios":"levelo://app?vid=4e3dabbc-dd97-4dcb-98cd-df94478075f6"},"vehicle_type_id":"4","last_reported":1747476552,"current_range_meters":10000,"station_id":"ce4bhgp2rcd13ifvqfd0","pricing_plan_id":"cebpf4jnsgd1na2vs0mg"},{"bike_id":"5472ecea-0624-4fd8-a912-e7b488153f81","system_id":"levelo_inurba_marseille","lat":43.24389,"lon":5.370603,"is_reserved":false,"is_disabled":false,"rental_uris":{"android":"levelo://app?vid=5472ecea-0624-4fd8-a912-e7b488153f81","ios":"levelo://app?vid=5472ecea-0624-4fd8-a912-e7b488153f81"},"vehicle_type_id":"4","last_reported":1747476552,"current_range_meters":10000,"station_id":"ce4bhih2rcd13ifvqfr0","pricing_plan_id":"cebpf4jnsgd1na2vs0mg"},{"bike_id":"9ab80c09-a66e-490c-af4e-4ca4b7dc42ea","system_id":"levelo_inurba_marseille","lat":43.291234,"lon":5.379901,"is_reserved":false,"is_disabled":false,"rental_uris":{"android":"levelo://app?vid=9ab80c09-a66e-490c-af4e-4ca4b7dc42ea","ios":"levelo://app?vid=9ab80c09-a66e-490c-af4e-4ca4b7dc42ea"},"vehicle_type_id":"4","last_reported":1747476552,"current_range_meters":10800,"station_id":"","pricing_plan_id":"cebpf4jnsgd1na2vs0mg"},{"bike_id":"14603e41-b2dd-4757-a53c-2e366aa4f983","system_id":"levelo_inurba_marseille","lat":43.26999,"lon":5.42815,"is_reserved":false,"is_disabled":false,"rental_uris":{"android":"levelo://app?vid=14603e41-b2dd-4757-a53c-2e366aa4f983","ios":"levelo://app?vid=14603e41-b2dd-4757-a53c-2e366aa4f983"},"vehicle_type_id":"4","last_reported":1747476552,"current_range_meters":10800,"station_id":"","pricing_plan_id":"cebpf4jnsgd1na2vs0mg"},{"bike_id":"5230c68e-d219-4ab4-91dc-dedce8f1c103","system_id":"levelo_inurba_marseille","lat":43.29973,"lon":5.38495,"is_reserved":false,"is_disabled":false,"rental_uris":{"android":"levelo://app?vid=5230c68e-d219-4ab4-91dc-dedce8f1c103","ios":"levelo://app?vid=5230c68e-d219-4ab4-91dc-dedce8f1c103"},"vehicle_type_id":"4","last_reported":1747476552,"current_range_meters":10800,"station_id":"ce4bgj92rcd13ifvqbd0","pricing_plan_id":"cebpf4jnsgd1na2vs0mg"},{"bike_id":"6fca7cc7-1f25-47f0-b791-6f1514866824","system_id":"levelo_inurba_marseille","lat":43.29011,"lon":5.35605,"is_reserved":false,"is_disabled":false,"rental_uris":{"android":"levelo://app?vid=6fca7cc7-1f25-47f0-b791-6f1514866824","ios":"levelo://app?vid=6fca7cc7-1f25-47f0-b791-6f1514866824"},"vehicle_type_id":"4","last_reported":1747476552,"current_range_meters":10800,"station_id":"ce4bhb92rcd13ifvqen0","pricing_plan_id":"cebpf4jnsgd1na2vs0mg"},{"bike_id":"42b6f79f-6669-430e-b6b9-c9127ffb2857","system_id":"levelo_inurba_marseille","lat":43.30127,"lon":5.3987,"is_reserved":false,"is_disabled":false,"rental_uris":{"android":"levelo://app?vid=42b6f79f-6669-430e-b6b9-c9127ffb2857","ios":"levelo://app?vid=42b6f79f-6669-430e-b6b9-c9127ffb2857"},"vehicle_type_id":"4","last_reported":1747476552,"current_range_meters":11200,"station_id":"ce4bh0h2rcd13ifvqd40","pricing_plan_id":"cebpf4jnsgd1na2vs0mg"},{"bike_id":"8ae76543-602e-4e5d-bae6-747a99dd3a0e","system_id":"levelo_inurba_marseille","lat":43.28254,"lon":5.35083,"is_reserved":false,"is_disabled":false,"rental_uris":{"android":"levelo://app?vid=8ae76543-602e-4e5d-bae6-747a99dd3a0e","ios":"levelo://app?vid=8ae76543-602e-4e5d-bae6-747a99dd3a0e"},"vehicle_type_id":"4","last_reported":1747476552,"current_range_meters":11200,"station_id":"ce4bhbp2rcd13ifvqerg","pricing_plan_id":"cebpf4jnsgd1na2vs0mg"},{"bike_id":"388e78d9-3ee0-44ea-bcb7-92beb0601384","system_id":"levelo_inurba_marseille","lat":43.23198,"lon":5.35549,"is_reserved":false,"is_disabled":false,"rental_uris":{"android":"levelo://app?vid=388e78d9-3ee0-44ea-bcb7-92beb0601384","ios":"levelo://app?vid=388e78d9-3ee0-44ea-bcb7-92beb0601384"},"vehicle_type_id":"4","last_reported":1747476552,"current_range_meters":11200,"station_id":"ce4bhu92rcd13ifvqi70","pricing_plan_id":"cebpf4jnsgd1na2vs0mg"},{"bike_id":"31826e3a-9cdb-4340-8e16-2182669d9a74","system_id":"levelo_inurba_marseille","lat":43.21193,"lon":5.35073,"is_reserved":false,"is_disabled":false,"rental_uris":{"android":"levelo://app?vid=31826e3a-9cdb-4340-8e16-2182669d9a74","ios":"levelo://app?vid=31826e3a-9cdb-4340-8e16-2182669d9a74"},"vehicle_type_id":"4","last_reported":1747476552,"current_range_meters":11200,"station_id":"st_cvj6sg6p6f1abm77japg","pricing_plan_id":"cebpf4jnsgd1na2vs0mg"},{"bike_id":"6da655b8-0421-4e8a-ae32-6637af746f6a","system_id":"levelo_inurba_marseille","lat":43.268161,"lon":5.411064,"is_reserved":false,"is_disabled":false,"rental_uris":{"android":"levelo://app?vid=6da655b8-0421-4e8a-ae32-6637af746f6a","ios":"levelo://app?vid=6da655b8-0421-4e8a-ae32-6637af746f6a"},"vehicle_type_id":"4","last_reported":1747476552,"current_range_meters":11600,"station_id":"","pricing_plan_id":"cebpf4jnsgd1na2vs0mg"},{"bike_id":"3e630e9a-3c06-4dcc-97d5-ae78a4ea1500","system_id":"levelo_inurba_marseille","lat":43.29898,"lon":5.43659,"is_reserved":false,"is_disabled":false,"rental_uris":{"android":"levelo://app?vid=3e630e9a-3c06-4dcc-97d5-ae78a4ea1500","ios":"levelo://app?vid=3e630e9a-3c06-4dcc-97d5-ae78a4ea1500"},"vehicle_type_id":"4","last_reported":1747476552,"current_range_meters":11600,"station_id":"ce4bhpp2rcd13ifvqhfg","pricing_plan_id":"cebpf4jnsgd1na2vs0mg"},{"bike_id":"b8e6468b-87db-4ff6-8122-ef13bf5b7c8c","system_id":"levelo_inurba_marseille","lat":43.31379,"lon":5.37916,"is_reserved":false,"is_disabled":false,"rental_uris":{"android":"levelo://app?vid=b8e6468b-87db-4ff6-8122-ef13bf5b7c8c","ios":"levelo://app?vid=b8e6468b-87db-4ff6-8122-ef13bf5b7c8c"},"vehicle_type_id":"4","last_reported":1747476552,"current_range_meters":12000,"station_id":"","pricing_plan_id":"cebpf4jnsgd1na2vs0mg"},{"bike_id":"9724c0f9-5d55-457c-8b2d-c0470b32dd38","system_id":"levelo_inurba_marseille","lat":43.30193,"lon":5.36624,"is_reserved":false,"is_disabled":false,"rental_uris":{"android":"levelo://app?vid=9724c0f9-5d55-457c-8b2d-c0470b32dd38","ios":"levelo://app?vid=9724c0f9-5d55-457c-8b2d-c0470b32dd38"},"vehicle_type_id":"4","last_reported":1747476552,"current_range_meters":12000,"station_id":"ce4bgrh2rcd13ifvqc8g","pricing_plan_id":"cebpf4jnsgd1na2vs0mg"},{"bike_id":"5881e159-5528-4886-9da5-80e5b846ebc6","system_id":"levelo_inurba_marseille","lat":43.29043,"lon":5.35915,"is_reserved":false,"is_disabled":false,"rental_uris":{"android":"levelo://app?vid=5881e159-5528-4886-9da5-80e5b846ebc6","ios":"levelo://app?vid=5881e159-5528-4886-9da5-80e5b846ebc6"},"vehicle_type_id":"4","last_reported":1747476552,"current_range_meters":12000,"station_id":"ce4bha92rcd13ifvqeg0","pricing_plan_id":"cebpf4jnsgd1na2vs0mg"},{"bike_id":"ac89654e-1dc8-4920-855e-0dc7fab895c7","system_id":"levelo_inurba_marseille","lat":43.28268,"lon":5.35074,"is_reserved":false,"is_disabled":false,"rental_uris":{"android":"levelo://app?vid=ac89654e-1dc8-4920-855e-0dc7fab895c7","ios":"levelo://app?vid=ac89654e-1dc8-4920-855e-0dc7fab895c7"},"vehicle_type_id":"4","last_reported":1747476552,"current_range_meters":12000,"station_id":"ce4bhbp2rcd13ifvqerg","pricing_plan_id":"cebpf4jnsgd1na2vs0mg"},{"bike_id":"68a98967-4cbd-4af3-9506-803051750aa2","system_id":"levelo_inurba_marseille","lat":43.28628,"lon":5.35094,"is_reserved":false,"is_disabled":false,"rental_uris":{"android":"levelo://app?vid=68a98967-4cbd-4af3-9506-803051750aa2","ios":"levelo://app?vid=68a98967-4cbd-4af3-9506-803051750aa2"},"vehicle_type_id":"4","last_reported":1747476552,"current_range_meters":12000,"station_id":"ce4bhch2rcd13ifvqeug","pricing_plan_id":"cebpf4jnsgd1na2vs0mg"},{"bike_id":"2177b1d7-f686-4001-a2d5-99d12ff0980c","system_id":"levelo_inurba_marseille","lat":43.32469,"lon":5.36573,"is_reserved":false,"is_disabled":false,"rental_uris":{"android":"levelo://app?vid=2177b1d7-f686-4001-a2d5-99d12ff0980c","ios":"levelo://app?vid=2177b1d7-f686-4001-a2d5-99d12ff0980c"},"vehicle_type_id":"4","last_reported":1747476552,"current_range_meters":12000,"station_id":"ce4bhs12rcd13ifvqhvg","pricing_plan_id":"cebpf4jnsgd1na2vs0mg"},{"bike_id":"d84c7860-8126-4df9-9e0f-b95243332232","system_id":"levelo_inurba_marseille","lat":43.28609,"lon":5.37069,"is_reserved":false,"is_disabled":false,"rental_uris":{"android":"levelo://app?vid=d84c7860-8126-4df9-9e0f-b95243332232","ios":"levelo://app?vid=d84c7860-8126-4df9-9e0f-b95243332232"},"vehicle_type_id":"4","last_reported":1747476552,"current_range_meters":12400,"station_id":"ce4bht12rcd13ifvqi60","pricing_plan_id":"cebpf4jnsgd1na2vs0mg"},{"bike_id":"14c727f6-e074-4515-b65c-6694faa58f91","system_id":"levelo_inurba_marseille","lat":43.21189,"lon":5.35074,"is_reserved":false,"is_disabled":false,"rental_uris":{"android":"levelo://app?vid=14c727f6-e074-4515-b65c-6694faa58f91","ios":"levelo://app?vid=14c727f6-e074-4515-b65c-6694faa58f91"},"vehicle_type_id":"4","last_reported":1747476552,"current_range_meters":12400,"station_id":"st_cvj6sg6p6f1abm77japg","pricing_plan_id":"cebpf4jnsgd1na2vs0mg"},{"bike_id":"6e1bd625-3ec1-43df-9657-36d71ae09f8d","system_id":"levelo_inurba_marseille","lat":43.33729,"lon":5.37437,"is_reserved":false,"is_disabled":false,"rental_uris":{"android":"levelo://app?vid=6e1bd625-3ec1-43df-9657-36d71ae09f8d","ios":"levelo://app?vid=6e1bd625-3ec1-43df-9657-36d71ae09f8d"},"vehicle_type_id":"4","last_reported":1747476552,"current_range_meters":12800,"station_id":"","pricing_plan_id":"cebpf4jnsgd1na2vs0mg"},{"bike_id":"9f1b26ec-29b0-46ae-a506-be578a391fcd","system_id":"levelo_inurba_marseille","lat":43.30536,"lon":5.36557,"is_reserved":false,"is_disabled":false,"rental_uris":{"android":"levelo://app?vid=9f1b26ec-29b0-46ae-a506-be578a391fcd","ios":"levelo://app?vid=9f1b26ec-29b0-46ae-a506-be578a391fcd"},"vehicle_type_id":"4","last_reported":1747476552,"current_range_meters":12800,"station_id":"ce4bgs12rcd13ifvqcag","pricing_plan_id":"cebpf4jnsgd1na2vs0mg"},{"bike_id":"5387edf0-c1ca-4023-9c33-35edb994f2a3","system_id":"levelo_inurba_marseille","lat":43.29235,"lon":5.36058,"is_reserved":false,"is_disabled":false,"rental_uris":{"android":"levelo://app?vid=5387edf0-c1ca-4023-9c33-35edb994f2a3","ios":"levelo://app?vid=5387edf0-c1ca-4023-9c33-35edb994f2a3"},"vehicle_type_id":"4","last_reported":1747476552,"current_range_meters":12800,"station_id":"ce4bhbh2rcd13ifvqeqg","pricing_plan_id":"cebpf4jnsgd1na2vs0mg"},{"bike_id":"1b515eb5-f42d-4825-abba-489a6df3bcaa","system_id":"levelo_inurba_marseille","lat":43.2796,"lon":5.38748,"is_reserved":false,"is_disabled":false,"rental_uris":{"android":"levelo://app?vid=1b515eb5-f42d-4825-abba-489a6df3bcaa","ios":"levelo://app?vid=1b515eb5-f42d-4825-abba-489a6df3bcaa"},"vehicle_type_id":"4","last_reported":1747476552,"current_range_meters":12800,"station_id":"ce4bhg12rcd13ifvqf80","pricing_plan_id":"cebpf4jnsgd1na2vs0mg"},{"bike_id":"7402e61c-3eae-4a87-bb73-504643c11fdb","system_id":"levelo_inurba_marseille","lat":43.27206,"lon":5.39188,"is_reserved":false,"is_disabled":false,"rental_uris":{"android":"levelo://app?vid=7402e61c-3eae-4a87-bb73-504643c11fdb","ios":"levelo://app?vid=7402e61c-3eae-4a87-bb73-504643c11fdb"},"vehicle_type_id":"4","last_reported":1747476552,"current_range_meters":12800,"station_id":"ce4bhhp2rcd13ifvqfm0","pricing_plan_id":"cebpf4jnsgd1na2vs0mg"},{"bike_id":"a4d7457e-a382-4ab7-9876-e9ba20692ec9","system_id":"levelo_inurba_marseille","lat":43.319972,"lon":5.381586,"is_reserved":false,"is_disabled":false,"rental_uris":{"android":"levelo://app?vid=a4d7457e-a382-4ab7-9876-e9ba20692ec9","ios":"levelo://app?vid=a4d7457e-a382-4ab7-9876-e9ba20692ec9"},"vehicle_type_id":"4","last_reported":1747476552,"current_range_meters":12800,"station_id":"ce4bhr12rcd13ifvqhpg","pricing_plan_id":"cebpf4jnsgd1na2vs0mg"},{"bike_id":"61e5b85c-d66d-40ea-b129-f2741337dd24","system_id":"levelo_inurba_marseille","lat":43.27618,"lon":5.36112,"is_reserved":false,"is_disabled":false,"rental_uris":{"android":"levelo://app?vid=61e5b85c-d66d-40ea-b129-f2741337dd24","ios":"levelo://app?vid=61e5b85c-d66d-40ea-b129-f2741337dd24"},"vehicle_type_id":"4","last_reported":1747476552,"current_range_meters":13600,"station_id":"ce4bgj92rcd13ifvqbe0","pricing_plan_id":"cebpf4jnsgd1na2vs0mg"},{"bike_id":"f288dcb7-bb21-4934-b65f-c931adc3f4a7","system_id":"levelo_inurba_marseille","lat":43.29054,"lon":5.35901,"is_reserved":false,"is_disabled":false,"rental_uris":{"android":"levelo://app?vid=f288dcb7-bb21-4934-b65f-c931adc3f4a7","ios":"levelo://app?vid=f288dcb7-bb21-4934-b65f-c931adc3f4a7"},"vehicle_type_id":"4","last_reported":1747476552,"current_range_meters":13600,"station_id":"ce4bha92rcd13ifvqeg0","pricing_plan_id":"cebpf4jnsgd1na2vs0mg"},{"bike_id":"3f813208-5592-40bb-8a3c-467a82105aac","system_id":"levelo_inurba_marseille","lat":43.24667,"lon":5.38172,"is_reserved":false,"is_disabled":false,"rental_uris":{"android":"levelo://app?vid=3f813208-5592-40bb-8a3c-467a82105aac","ios":"levelo://app?vid=3f813208-5592-40bb-8a3c-467a82105aac"},"vehicle_type_id":"4","last_reported":1747476552,"current_range_meters":13600,"station_id":"ce4bhih2rcd13ifvqfr0","pricing_plan_id":"cebpf4jnsgd1na2vs0mg"},{"bike_id":"bb186e8f-1b36-4b6b-8780-b05a3a3d91a1","system_id":"levelo_inurba_marseille","lat":43.23963,"lon":5.36641,"is_reserved":false,"is_disabled":false,"rental_uris":{"android":"levelo://app?vid=bb186e8f-1b36-4b6b-8780-b05a3a3d91a1","ios":"levelo://app?vid=bb186e8f-1b36-4b6b-8780-b05a3a3d91a1"},"vehicle_type_id":"4","last_reported":1747476552,"current_range_meters":14000,"station_id":"ce4bhi12rcd13ifvqfp0","pricing_plan_id":"cebpf4jnsgd1na2vs0mg"},{"bike_id":"13d70128-e006-4316-9f50-81d125b3302a","system_id":"levelo_inurba_marseille","lat":43.30137,"lon":5.38043,"is_reserved":false,"is_disabled":false,"rental_uris":{"android":"levelo://app?vid=13d70128-e006-4316-9f50-81d125b3302a","ios":"levelo://app?vid=13d70128-e006-4316-9f50-81d125b3302a"},"vehicle_type_id":"4","last_reported":1747476552,"current_range_meters":14400,"station_id":"ce4bgjp2rcd13ifvqbh0","pricing_plan_id":"cebpf4jnsgd1na2vs0mg"},{"bike_id":"221a62d0-5f65-4667-87f8-08bf87aa8a4f","system_id":"levelo_inurba_marseille","lat":43.29711,"lon":5.36612,"is_reserved":false,"is_disabled":false,"rental_uris":{"android":"levelo://app?vid=221a62d0-5f65-4667-87f8-08bf87aa8a4f","ios":"levelo://app?vid=221a62d0-5f65-4667-87f8-08bf87aa8a4f"},"vehicle_type_id":"4","last_reported":1747476552,"current_range_meters":14400,"station_id":"ce4bgn12rcd13ifvqbt0","pricing_plan_id":"cebpf4jnsgd1na2vs0mg"},{"bike_id":"962eb948-b4c1-4cb1-8d41-1fe5a84ce28c","system_id":"levelo_inurba_marseille","lat":43.29219,"lon":5.36068,"is_reserved":false,"is_disabled":false,"rental_uris":{"android":"levelo://app?vid=962eb948-b4c1-4cb1-8d41-1fe5a84ce28c","ios":"levelo://app?vid=962eb948-b4c1-4cb1-8d41-1fe5a84ce28c"},"vehicle_type_id":"4","last_reported":1747476552,"current_range_meters":14400,"station_id":"ce4bhbh2rcd13ifvqeqg","pricing_plan_id":"cebpf4jnsgd1na2vs0mg"},{"bike_id":"74b82775-e7ad-4809-ad83-0741ec16f29d","system_id":"levelo_inurba_marseille","lat":43.28278,"lon":5.35074,"is_reserved":false,"is_disabled":false,"rental_uris":{"android":"levelo://app?vid=74b82775-e7ad-4809-ad83-0741ec16f29d","ios":"levelo://app?vid=74b82775-e7ad-4809-ad83-0741ec16f29d"},"vehicle_type_id":"4","last_reported":1747476552,"current_range_meters":14400,"station_id":"ce4bhbp2rcd13ifvqerg","pricing_plan_id":"cebpf4jnsgd1na2vs0mg"},{"bike_id":"d7d92ec7-3757-400b-b87c-22ad93b19335","system_id":"levelo_inurba_marseille","lat":43.28612,"lon":5.3511,"is_reserved":false,"is_disabled":false,"rental_uris":{"android":"levelo://app?vid=d7d92ec7-3757-400b-b87c-22ad93b19335","ios":"levelo://app?vid=d7d92ec7-3757-400b-b87c-22ad93b19335"},"vehicle_type_id":"4","last_reported":1747476552,"current_range_meters":14400,"station_id":"ce4bhch2rcd13ifvqeug","pricing_plan_id":"cebpf4jnsgd1na2vs0mg"},{"bike_id":"ce9a8703-9cf5-40e8-aba0-bbac5cb3a2b3","system_id":"levelo_inurba_marseille","lat":43.24804,"lon":5.37458,"is_reserved":false,"is_disabled":false,"rental_uris":{"android":"levelo://app?vid=ce9a8703-9cf5-40e8-aba0-bbac5cb3a2b3","ios":"levelo://app?vid=ce9a8703-9cf5-40e8-aba0-bbac5cb3a2b3"},"vehicle_type_id":"4","last_reported":1747476552,"current_range_meters":14400,"station_id":"ce4bhgh2rcd13ifvqfb0","pricing_plan_id":"cebpf4jnsgd1na2vs0mg"},{"bike_id":"0861c99d-4281-4419-a2c7-71d96aadb620","system_id":"levelo_inurba_marseille","lat":43.23148,"lon":5.43728,"is_reserved":false,"is_disabled":false,"rental_uris":{"android":"levelo://app?vid=0861c99d-4281-4419-a2c7-71d96aadb620","ios":"levelo://app?vid=0861c99d-4281-4419-a2c7-71d96aadb620"},"vehicle_type_id":"4","last_reported":1747476552,"current_range_meters":14400,"station_id":"ce4bhmp2rcd13ifvqgog","pricing_plan_id":"cebpf4jnsgd1na2vs0mg"},{"bike_id":"2798b307-abdd-4a61-a554-c3d0c4bad767","system_id":"levelo_inurba_marseille","lat":43.293696,"lon":5.378561,"is_reserved":false,"is_disabled":false,"rental_uris":{"android":"levelo://app?vid=2798b307-abdd-4a61-a554-c3d0c4bad767","ios":"levelo://app?vid=2798b307-abdd-4a61-a554-c3d0c4bad767"},"vehicle_type_id":"4","last_reported":1747476552,"current_range_meters":14800,"station_id":"ce4bgjh2rcd13ifvqbf0","pricing_plan_id":"cebpf4jnsgd1na2vs0mg"},{"bike_id":"c734f66f-5037-47ce-b476-1761c5a56348","system_id":"levelo_inurba_marseille","lat":43.30593,"lon":5.36506,"is_reserved":false,"is_disabled":false,"rental_uris":{"android":"levelo://app?vid=c734f66f-5037-47ce-b476-1761c5a56348","ios":"levelo://app?vid=c734f66f-5037-47ce-b476-1761c5a56348"},"vehicle_type_id":"4","last_reported":1747476552,"current_range_meters":15200,"station_id":"","pricing_plan_id":"cebpf4jnsgd1na2vs0mg"},{"bike_id":"a109366a-6eff-4ca8-8b1d-3896df7c10c9","system_id":"levelo_inurba_marseille","lat":43.29714,"lon":5.36605,"is_reserved":false,"is_disabled":false,"rental_uris":{"android":"levelo://app?vid=a109366a-6eff-4ca8-8b1d-3896df7c10c9","ios":"levelo://app?vid=a109366a-6eff-4ca8-8b1d-3896df7c10c9"},"vehicle_type_id":"4","last_reported":1747476552,"current_range_meters":15200,"station_id":"ce4bgn12rcd13ifvqbt0","pricing_plan_id":"cebpf4jnsgd1na2vs0mg"},{"bike_id":"d85b1ead-95dc-4abe-81de-095d0ba70bb1","system_id":"levelo_inurba_marseille","lat":43.29619,"lon":5.3718,"is_reserved":false,"is_disabled":false,"rental_uris":{"android":"levelo://app?vid=d85b1ead-95dc-4abe-81de-095d0ba70bb1","ios":"levelo://app?vid=d85b1ead-95dc-4abe-81de-095d0ba70bb1"},"vehicle_type_id":"4","last_reported":1747476552,"current_range_meters":15200,"station_id":"ce4bgnh2rcd13ifvqc0g","pricing_plan_id":"cebpf4jnsgd1na2vs0mg"},{"bike_id":"40353e8e-686e-4ba1-b261-dab62a3210bb","system_id":"levelo_inurba_marseille","lat":43.30528,"lon":5.36523,"is_reserved":false,"is_disabled":false,"rental_uris":{"android":"levelo://app?vid=40353e8e-686e-4ba1-b261-dab62a3210bb","ios":"levelo://app?vid=40353e8e-686e-4ba1-b261-dab62a3210bb"},"vehicle_type_id":"4","last_reported":1747476552,"current_range_meters":15200,"station_id":"ce4bgs12rcd13ifvqcag","pricing_plan_id":"cebpf4jnsgd1na2vs0mg"},{"bike_id":"c340c495-0498-4c30-907e-92246cbb9bb8","system_id":"levelo_inurba_marseille","lat":43.29152,"lon":5.37205,"is_reserved":false,"is_disabled":false,"rental_uris":{"android":"levelo://app?vid=c340c495-0498-4c30-907e-92246cbb9bb8","ios":"levelo://app?vid=c340c495-0498-4c30-907e-92246cbb9bb8"},"vehicle_type_id":"4","last_reported":1747476552,"current_range_meters":15200,"station_id":"ce4bha92rcd13ifvqeh0","pricing_plan_id":"cebpf4jnsgd1na2vs0mg"},{"bike_id":"c82efa10-416e-400e-bd08-171f6a1b30ae","system_id":"levelo_inurba_marseille","lat":43.24996,"lon":5.3894,"is_reserved":false,"is_disabled":false,"rental_uris":{"android":"levelo://app?vid=c82efa10-416e-400e-bd08-171f6a1b30ae","ios":"levelo://app?vid=c82efa10-416e-400e-bd08-171f6a1b30ae"},"vehicle_type_id":"4","last_reported":1747476552,"current_range_meters":15200,"station_id":"ce4bhgp2rcd13ifvqfd0","pricing_plan_id":"cebpf4jnsgd1na2vs0mg"},{"bike_id":"39cfde39-e0a9-43a3-ae75-65f6c729b71d","system_id":"levelo_inurba_marseille","lat":43.27375,"lon":5.36258,"is_reserved":false,"is_disabled":false,"rental_uris":{"android":"levelo://app?vid=39cfde39-e0a9-43a3-ae75-65f6c729b71d","ios":"levelo://app?vid=39cfde39-e0a9-43a3-ae75-65f6c729b71d"},"vehicle_type_id":"4","last_reported":1747476552,"current_range_meters":16000,"station_id":"ce4bhbh2rcd13ifvqeo0","pricing_plan_id":"cebpf4jnsgd1na2vs0mg"},{"bike_id":"465ca380-6a0b-4a53-aac8-6d66ff8ad361","system_id":"levelo_inurba_marseille","lat":43.27922,"lon":5.39573,"is_reserved":false,"is_disabled":false,"rental_uris":{"android":"levelo://app?vid=465ca380-6a0b-4a53-aac8-6d66ff8ad361","ios":"levelo://app?vid=465ca380-6a0b-4a53-aac8-6d66ff8ad361"},"vehicle_type_id":"4","last_reported":1747476552,"current_range_meters":16000,"station_id":"ce4bhf92rcd13ifvqf40","pricing_plan_id":"cebpf4jnsgd1na2vs0mg"},{"bike_id":"3466ccf7-a677-4cd6-b608-1e1a67f8d6d7","system_id":"levelo_inurba_marseille","lat":43.24644,"lon":5.38883,"is_reserved":false,"is_disabled":false,"rental_uris":{"android":"levelo://app?vid=3466ccf7-a677-4cd6-b608-1e1a67f8d6d7","ios":"levelo://app?vid=3466ccf7-a677-4cd6-b608-1e1a67f8d6d7"},"vehicle_type_id":"4","last_reported":1747476552,"current_range_meters":16000,"station_id":"ce4bhg12rcd13ifvqf60","pricing_plan_id":"cebpf4jnsgd1na2vs0mg"},{"bike_id":"63fdb6d8-45b3-4e30-a31d-6689327e3b79","system_id":"levelo_inurba_marseille","lat":43.25002,"lon":5.3893,"is_reserved":false,"is_disabled":false,"rental_uris":{"android":"levelo://app?vid=63fdb6d8-45b3-4e30-a31d-6689327e3b79","ios":"levelo://app?vid=63fdb6d8-45b3-4e30-a31d-6689327e3b79"},"vehicle_type_id":"4","last_reported":1747476552,"current_range_meters":16000,"station_id":"ce4bhgp2rcd13ifvqfd0","pricing_plan_id":"cebpf4jnsgd1na2vs0mg"},{"bike_id":"080da10f-73c7-4342-93c6-97e1aeac391e","system_id":"levelo_inurba_marseille","lat":43.23961,"lon":5.36627,"is_reserved":false,"is_disabled":false,"rental_uris":{"android":"levelo://app?vid=080da10f-73c7-4342-93c6-97e1aeac391e","ios":"levelo://app?vid=080da10f-73c7-4342-93c6-97e1aeac391e"},"vehicle_type_id":"4","last_reported":1747476552,"current_range_meters":16000,"station_id":"ce4bhi12rcd13ifvqfp0","pricing_plan_id":"cebpf4jnsgd1na2vs0mg"},{"bike_id":"f929c33f-d7de-46f3-b47f-e2d8d41de1ef","system_id":"levelo_inurba_marseille","lat":43.23962,"lon":5.36632,"is_reserved":false,"is_disabled":false,"rental_uris":{"android":"levelo://app?vid=f929c33f-d7de-46f3-b47f-e2d8d41de1ef","ios":"levelo://app?vid=f929c33f-d7de-46f3-b47f-e2d8d41de1ef"},"vehicle_type_id":"4","last_reported":1747476552,"current_range_meters":16000,"station_id":"ce4bhi12rcd13ifvqfp0","pricing_plan_id":"cebpf4jnsgd1na2vs0mg"},{"bike_id":"558b05c9-dd2c-44af-81b7-321151b77fe3","system_id":"levelo_inurba_marseille","lat":43.21183,"lon":5.35089,"is_reserved":false,"is_disabled":false,"rental_uris":{"android":"levelo://app?vid=558b05c9-dd2c-44af-81b7-321151b77fe3","ios":"levelo://app?vid=558b05c9-dd2c-44af-81b7-321151b77fe3"},"vehicle_type_id":"4","last_reported":1747476552,"current_range_meters":16000,"station_id":"st_cvj6sg6p6f1abm77japg","pricing_plan_id":"cebpf4jnsgd1na2vs0mg"},{"bike_id":"0a0fa568-f7d9-4be3-98a5-36c64d6ae6e0","system_id":"levelo_inurba_marseille","lat":43.2119,"lon":5.35075,"is_reserved":false,"is_disabled":false,"rental_uris":{"android":"levelo://app?vid=0a0fa568-f7d9-4be3-98a5-36c64d6ae6e0","ios":"levelo://app?vid=0a0fa568-f7d9-4be3-98a5-36c64d6ae6e0"},"vehicle_type_id":"4","last_reported":1747476552,"current_range_meters":16000,"station_id":"st_cvj6sg6p6f1abm77japg","pricing_plan_id":"cebpf4jnsgd1na2vs0mg"},{"bike_id":"195b2f38-3583-46c4-9a59-e3288cc1c915","system_id":"levelo_inurba_marseille","lat":43.21194,"lon":5.35068,"is_reserved":false,"is_disabled":false,"rental_uris":{"android":"levelo://app?vid=195b2f38-3583-46c4-9a59-e3288cc1c915","ios":"levelo://app?vid=195b2f38-3583-46c4-9a59-e3288cc1c915"},"vehicle_type_id":"4","last_reported":1747476552,"current_range_meters":16000,"station_id":"st_cvj6sg6p6f1abm77japg","pricing_plan_id":"cebpf4jnsgd1na2vs0mg"},{"bike_id":"78338216-0a2b-4e99-8b78-cff8b95a208b","system_id":"levelo_inurba_marseille","lat":43.23541,"lon":5.40336,"is_reserved":false,"is_disabled":false,"rental_uris":{"android":"levelo://app?vid=78338216-0a2b-4e99-8b78-cff8b95a208b","ios":"levelo://app?vid=78338216-0a2b-4e99-8b78-cff8b95a208b"},"vehicle_type_id":"4","last_reported":1747476552,"current_range_meters":16400,"station_id":"","pricing_plan_id":"cebpf4jnsgd1na2vs0mg"},{"bike_id":"f2734867-7f22-4f8b-b4d3-f1d49fde0469","system_id":"levelo_inurba_marseille","lat":43.2655,"lon":5.37286,"is_reserved":false,"is_disabled":false,"rental_uris":{"android":"levelo://app?vid=f2734867-7f22-4f8b-b4d3-f1d49fde0469","ios":"levelo://app?vid=f2734867-7f22-4f8b-b4d3-f1d49fde0469"},"vehicle_type_id":"4","last_reported":1747476552,"current_range_meters":16400,"station_id":"ce4bhg12rcd13ifvqf70","pricing_plan_id":"cebpf4jnsgd1na2vs0mg"},{"bike_id":"89338b62-f874-48ab-bcd3-40c306bd533c","system_id":"levelo_inurba_marseille","lat":43.299303,"lon":5.365213,"is_reserved":false,"is_disabled":false,"rental_uris":{"android":"levelo://app?vid=89338b62-f874-48ab-bcd3-40c306bd533c","ios":"levelo://app?vid=89338b62-f874-48ab-bcd3-40c306bd533c"},"vehicle_type_id":"4","last_reported":1747476552,"current_range_meters":16800,"station_id":"ce4bgm92rcd13ifvqbr0","pricing_plan_id":"cebpf4jnsgd1na2vs0mg"},{"bike_id":"02770c2d-c0b9-42a5-a6d5-2613c6e8a390","system_id":"levelo_inurba_marseille","lat":43.26191,"lon":5.37467,"is_reserved":false,"is_disabled":false,"rental_uris":{"android":"levelo://app?vid=02770c2d-c0b9-42a5-a6d5-2613c6e8a390","ios":"levelo://app?vid=02770c2d-c0b9-42a5-a6d5-2613c6e8a390"},"vehicle_type_id":"4","last_reported":1747476552,"current_range_meters":16800,"station_id":"ce4bhgp2rcd13ifvqfc0","pricing_plan_id":"cebpf4jnsgd1na2vs0mg"},{"bike_id":"1ffdbab4-b320-449e-8777-83b359e20fae","system_id":"levelo_inurba_marseille","lat":43.23966,"lon":5.36632,"is_reserved":false,"is_disabled":false,"rental_uris":{"android":"levelo://app?vid=1ffdbab4-b320-449e-8777-83b359e20fae","ios":"levelo://app?vid=1ffdbab4-b320-449e-8777-83b359e20fae"},"vehicle_type_id":"4","last_reported":1747476552,"current_range_meters":16800,"station_id":"ce4bhi12rcd13ifvqfp0","pricing_plan_id":"cebpf4jnsgd1na2vs0mg"},{"bike_id":"a88ec2a1-463f-4ac0-96eb-b2d23da6925e","system_id":"levelo_inurba_marseille","lat":43.245444,"lon":5.395294,"is_reserved":false,"is_disabled":false,"rental_uris":{"android":"levelo://app?vid=a88ec2a1-463f-4ac0-96eb-b2d23da6925e","ios":"levelo://app?vid=a88ec2a1-463f-4ac0-96eb-b2d23da6925e"},"vehicle_type_id":"4","last_reported":1747476552,"current_range_meters":16800,"station_id":"ce4bhlp2rcd13ifvqgjg","pricing_plan_id":"cebpf4jnsgd1na2vs0mg"},{"bike_id":"93e4eb0f-d439-40a0-8857-ce150a01f705","system_id":"levelo_inurba_marseille","lat":43.21189,"lon":5.35073,"is_reserved":false,"is_disabled":false,"rental_uris":{"android":"levelo://app?vid=93e4eb0f-d439-40a0-8857-ce150a01f705","ios":"levelo://app?vid=93e4eb0f-d439-40a0-8857-ce150a01f705"},"vehicle_type_id":"4","last_reported":1747476552,"current_range_meters":16800,"station_id":"st_cvj6sg6p6f1abm77japg","pricing_plan_id":"cebpf4jnsgd1na2vs0mg"},{"bike_id":"b26a0dd7-cbdc-4ab7-8def-31c4b88b224a","system_id":"levelo_inurba_marseille","lat":43.31217,"lon":5.39232,"is_reserved":false,"is_disabled":false,"rental_uris":{"android":"levelo://app?vid=b26a0dd7-cbdc-4ab7-8def-31c4b88b224a","ios":"levelo://app?vid=b26a0dd7-cbdc-4ab7-8def-31c4b88b224a"},"vehicle_type_id":"4","last_reported":1747476552,"current_range_meters":17200,"station_id":"","pricing_plan_id":"cebpf4jnsgd1na2vs0mg"},{"bike_id":"e3ccfdf2-8984-4f17-a6ad-0d3351116e1d","system_id":"levelo_inurba_marseille","lat":43.26203,"lon":5.37926,"is_reserved":false,"is_disabled":false,"rental_uris":{"android":"levelo://app?vid=e3ccfdf2-8984-4f17-a6ad-0d3351116e1d","ios":"levelo://app?vid=e3ccfdf2-8984-4f17-a6ad-0d3351116e1d"},"vehicle_type_id":"4","last_reported":1747476552,"current_range_meters":17200,"station_id":"ce4bhjp2rcd13ifvqg90","pricing_plan_id":"cebpf4jnsgd1na2vs0mg"},{"bike_id":"5e6b40b8-d296-4bf0-afc5-64afa04a82e7","system_id":"levelo_inurba_marseille","lat":43.309676,"lon":5.404719,"is_reserved":false,"is_disabled":false,"rental_uris":{"android":"levelo://app?vid=5e6b40b8-d296-4bf0-afc5-64afa04a82e7","ios":"levelo://app?vid=5e6b40b8-d296-4bf0-afc5-64afa04a82e7"},"vehicle_type_id":"4","last_reported":1747476552,"current_range_meters":17600,"station_id":"","pricing_plan_id":"cebpf4jnsgd1na2vs0mg"},{"bike_id":"c04afadd-262f-4e6d-97cb-ae17104f887e","system_id":"levelo_inurba_marseille","lat":43.29004,"lon":5.35606,"is_reserved":false,"is_disabled":false,"rental_uris":{"android":"levelo://app?vid=c04afadd-262f-4e6d-97cb-ae17104f887e","ios":"levelo://app?vid=c04afadd-262f-4e6d-97cb-ae17104f887e"},"vehicle_type_id":"4","last_reported":1747476552,"current_range_meters":17600,"station_id":"ce4bhb92rcd13ifvqen0","pricing_plan_id":"cebpf4jnsgd1na2vs0mg"},{"bike_id":"a14f1c61-0fb8-4922-8f91-28c2aaedd88e","system_id":"levelo_inurba_marseille","lat":43.24999,"lon":5.38943,"is_reserved":false,"is_disabled":false,"rental_uris":{"android":"levelo://app?vid=a14f1c61-0fb8-4922-8f91-28c2aaedd88e","ios":"levelo://app?vid=a14f1c61-0fb8-4922-8f91-28c2aaedd88e"},"vehicle_type_id":"4","last_reported":1747476552,"current_range_meters":17600,"station_id":"ce4bhgp2rcd13ifvqfd0","pricing_plan_id":"cebpf4jnsgd1na2vs0mg"},{"bike_id":"c30db054-6f69-4d06-b4b4-43e84bfed6e2","system_id":"levelo_inurba_marseille","lat":43.25495,"lon":5.37649,"is_reserved":false,"is_disabled":false,"rental_uris":{"android":"levelo://app?vid=c30db054-6f69-4d06-b4b4-43e84bfed6e2","ios":"levelo://app?vid=c30db054-6f69-4d06-b4b4-43e84bfed6e2"},"vehicle_type_id":"4","last_reported":1747476552,"current_range_meters":17600,"station_id":"ce4bhh12rcd13ifvqff0","pricing_plan_id":"cebpf4jnsgd1na2vs0mg"},{"bike_id":"097dea49-2c5f-4b24-a7cf-71c2d7f76419","system_id":"levelo_inurba_marseille","lat":43.23148,"lon":5.43721,"is_reserved":false,"is_disabled":false,"rental_uris":{"android":"levelo://app?vid=097dea49-2c5f-4b24-a7cf-71c2d7f76419","ios":"levelo://app?vid=097dea49-2c5f-4b24-a7cf-71c2d7f76419"},"vehicle_type_id":"4","last_reported":1747476552,"current_range_meters":17600,"station_id":"ce4bhmp2rcd13ifvqgog","pricing_plan_id":"cebpf4jnsgd1na2vs0mg"},{"bike_id":"699d068d-8fbb-40ec-9df0-b007af55d5b2","system_id":"levelo_inurba_marseille","lat":43.323336,"lon":5.406125,"is_reserved":false,"is_disabled":false,"rental_uris":{"android":"levelo://app?vid=699d068d-8fbb-40ec-9df0-b007af55d5b2","ios":"levelo://app?vid=699d068d-8fbb-40ec-9df0-b007af55d5b2"},"vehicle_type_id":"4","last_reported":1747476552,"current_range_meters":17600,"station_id":"ce4bhq92rcd13ifvqhjg","pricing_plan_id":"cebpf4jnsgd1na2vs0mg"},{"bike_id":"5593c7f2-36a3-497f-99da-64fa53a52ee8","system_id":"levelo_inurba_marseille","lat":43.28092,"lon":5.37798,"is_reserved":false,"is_disabled":false,"rental_uris":{"android":"levelo://app?vid=5593c7f2-36a3-497f-99da-64fa53a52ee8","ios":"levelo://app?vid=5593c7f2-36a3-497f-99da-64fa53a52ee8"},"vehicle_type_id":"4","last_reported":1747476552,"current_range_meters":18000,"station_id":"ce4bha12rcd13ifvqee0","pricing_plan_id":"cebpf4jnsgd1na2vs0mg"},{"bike_id":"6afd62ea-f4e9-41f4-8935-33c873834d5e","system_id":"levelo_inurba_marseille","lat":43.26025,"lon":5.37547,"is_reserved":false,"is_disabled":false,"rental_uris":{"android":"levelo://app?vid=6afd62ea-f4e9-41f4-8935-33c873834d5e","ios":"levelo://app?vid=6afd62ea-f4e9-41f4-8935-33c873834d5e"},"vehicle_type_id":"4","last_reported":1747476552,"current_range_meters":18000,"station_id":"ce4bhgh2rcd13ifvqfa0","pricing_plan_id":"cebpf4jnsgd1na2vs0mg"},{"bike_id":"a8b44897-dde2-465d-9fa6-a0bac1d415fd","system_id":"levelo_inurba_marseille","lat":43.26207,"lon":5.3793,"is_reserved":false,"is_disabled":false,"rental_uris":{"android":"levelo://app?vid=a8b44897-dde2-465d-9fa6-a0bac1d415fd","ios":"levelo://app?vid=a8b44897-dde2-465d-9fa6-a0bac1d415fd"},"vehicle_type_id":"4","last_reported":1747476552,"current_range_meters":18000,"station_id":"ce4bhjp2rcd13ifvqg90","pricing_plan_id":"cebpf4jnsgd1na2vs0mg"},{"bike_id":"fcaeefda-0dda-417a-bcc1-0a4dbdcf45c9","system_id":"levelo_inurba_marseille","lat":43.27073,"lon":5.42256,"is_reserved":false,"is_disabled":false,"rental_uris":{"android":"levelo://app?vid=fcaeefda-0dda-417a-bcc1-0a4dbdcf45c9","ios":"levelo://app?vid=fcaeefda-0dda-417a-bcc1-0a4dbdcf45c9"},"vehicle_type_id":"4","last_reported":1747476552,"current_range_meters":18000,"station_id":"ce4bhk92rcd13ifvqgb0","pricing_plan_id":"cebpf4jnsgd1na2vs0mg"},{"bike_id":"712f1c4d-f153-4002-ad59-f4eda49ba117","system_id":"levelo_inurba_marseille","lat":43.2319,"lon":5.39998,"is_reserved":false,"is_disabled":false,"rental_uris":{"android":"levelo://app?vid=712f1c4d-f153-4002-ad59-f4eda49ba117","ios":"levelo://app?vid=712f1c4d-f153-4002-ad59-f4eda49ba117"},"vehicle_type_id":"4","last_reported":1747476552,"current_range_meters":18000,"station_id":"ce4bhn12rcd13ifvqgqg","pricing_plan_id":"cebpf4jnsgd1na2vs0mg"},{"bike_id":"1a324d40-21d8-4b8c-bfe2-7533a91d51ae","system_id":"levelo_inurba_marseille","lat":43.31991,"lon":5.38136,"is_reserved":false,"is_disabled":false,"rental_uris":{"android":"levelo://app?vid=1a324d40-21d8-4b8c-bfe2-7533a91d51ae","ios":"levelo://app?vid=1a324d40-21d8-4b8c-bfe2-7533a91d51ae"},"vehicle_type_id":"4","last_reported":1747476552,"current_range_meters":18000,"station_id":"ce4bhr12rcd13ifvqhpg","pricing_plan_id":"cebpf4jnsgd1na2vs0mg"},{"bike_id":"052e39da-f9d5-4dfa-9641-e74c64d0588e","system_id":"levelo_inurba_marseille","lat":43.30442,"lon":5.38904,"is_reserved":false,"is_disabled":false,"rental_uris":{"android":"levelo://app?vid=052e39da-f9d5-4dfa-9641-e74c64d0588e","ios":"levelo://app?vid=052e39da-f9d5-4dfa-9641-e74c64d0588e"},"vehicle_type_id":"4","last_reported":1747476552,"current_range_meters":18800,"station_id":"ce4bgk12rcd13ifvqbi0","pricing_plan_id":"cebpf4jnsgd1na2vs0mg"},{"bike_id":"d302688c-1765-428f-96f8-5732f7b025c8","system_id":"levelo_inurba_marseille","lat":43.282674,"lon":5.350585,"is_reserved":false,"is_disabled":false,"rental_uris":{"android":"levelo://app?vid=d302688c-1765-428f-96f8-5732f7b025c8","ios":"levelo://app?vid=d302688c-1765-428f-96f8-5732f7b025c8"},"vehicle_type_id":"4","last_reported":1747476552,"current_range_meters":18800,"station_id":"ce4bhbp2rcd13ifvqerg","pricing_plan_id":"cebpf4jnsgd1na2vs0mg"},{"bike_id":"0c0db44c-c12b-4b2c-a876-ba3fd365d935","system_id":"levelo_inurba_marseille","lat":43.2618,"lon":5.37945,"is_reserved":false,"is_disabled":false,"rental_uris":{"android":"levelo://app?vid=0c0db44c-c12b-4b2c-a876-ba3fd365d935","ios":"levelo://app?vid=0c0db44c-c12b-4b2c-a876-ba3fd365d935"},"vehicle_type_id":"4","last_reported":1747476552,"current_range_meters":18800,"station_id":"ce4bhjp2rcd13ifvqg90","pricing_plan_id":"cebpf4jnsgd1na2vs0mg"},{"bike_id":"e1291dda-99b5-4759-85d1-03c344292341","system_id":"levelo_inurba_marseille","lat":43.31761,"lon":5.39015,"is_reserved":false,"is_disabled":false,"rental_uris":{"android":"levelo://app?vid=e1291dda-99b5-4759-85d1-03c344292341","ios":"levelo://app?vid=e1291dda-99b5-4759-85d1-03c344292341"},"vehicle_type_id":"4","last_reported":1747476552,"current_range_meters":18800,"station_id":"ce4bhqp2rcd13ifvqhng","pricing_plan_id":"cebpf4jnsgd1na2vs0mg"},{"bike_id":"0da85a3b-9d5d-4844-b6ac-40def3b40cce","system_id":"levelo_inurba_marseille","lat":43.21189,"lon":5.35075,"is_reserved":false,"is_disabled":false,"rental_uris":{"android":"levelo://app?vid=0da85a3b-9d5d-4844-b6ac-40def3b40cce","ios":"levelo://app?vid=0da85a3b-9d5d-4844-b6ac-40def3b40cce"},"vehicle_type_id":"4","last_reported":1747476552,"current_range_meters":18800,"station_id":"st_cvj6sg6p6f1abm77japg","pricing_plan_id":"cebpf4jnsgd1na2vs0mg"},{"bike_id":"ebefafa4-e016-4a1e-933a-e10874df5a61","system_id":"levelo_inurba_marseille","lat":43.292241,"lon":5.360582,"is_reserved":false,"is_disabled":false,"rental_uris":{"android":"levelo://app?vid=ebefafa4-e016-4a1e-933a-e10874df5a61","ios":"levelo://app?vid=ebefafa4-e016-4a1e-933a-e10874df5a61"},"vehicle_type_id":"4","last_reported":1747476552,"current_range_meters":19200,"station_id":"","pricing_plan_id":"cebpf4jnsgd1na2vs0mg"},{"bike_id":"03ee13a9-69a1-4652-bf91-3bf0186d1f7d","system_id":"levelo_inurba_marseille","lat":43.3054,"lon":5.36539,"is_reserved":false,"is_disabled":false,"rental_uris":{"android":"levelo://app?vid=03ee13a9-69a1-4652-bf91-3bf0186d1f7d","ios":"levelo://app?vid=03ee13a9-69a1-4652-bf91-3bf0186d1f7d"},"vehicle_type_id":"4","last_reported":1747476552,"current_range_meters":19200,"station_id":"ce4bgs12rcd13ifvqcag","pricing_plan_id":"cebpf4jnsgd1na2vs0mg"},{"bike_id":"230a1308-37aa-4a16-a525-b3d057b083fb","system_id":"levelo_inurba_marseille","lat":43.29227,"lon":5.3605,"is_reserved":false,"is_disabled":false,"rental_uris":{"android":"levelo://app?vid=230a1308-37aa-4a16-a525-b3d057b083fb","ios":"levelo://app?vid=230a1308-37aa-4a16-a525-b3d057b083fb"},"vehicle_type_id":"4","last_reported":1747476552,"current_range_meters":19200,"station_id":"ce4bhbh2rcd13ifvqeqg","pricing_plan_id":"cebpf4jnsgd1na2vs0mg"},{"bike_id":"18c1798b-22f5-441f-9273-1acd64bb0aff","system_id":"levelo_inurba_marseille","lat":43.24807,"lon":5.37458,"is_reserved":false,"is_disabled":false,"rental_uris":{"android":"levelo://app?vid=18c1798b-22f5-441f-9273-1acd64bb0aff","ios":"levelo://app?vid=18c1798b-22f5-441f-9273-1acd64bb0aff"},"vehicle_type_id":"4","last_reported":1747476552,"current_range_meters":19200,"station_id":"ce4bhgh2rcd13ifvqfb0","pricing_plan_id":"cebpf4jnsgd1na2vs0mg"},{"bike_id":"3d81cca0-d8cd-46cd-97b3-fbc4140b8ece","system_id":"levelo_inurba_marseille","lat":43.25109,"lon":5.40323,"is_reserved":false,"is_disabled":false,"rental_uris":{"android":"levelo://app?vid=3d81cca0-d8cd-46cd-97b3-fbc4140b8ece","ios":"levelo://app?vid=3d81cca0-d8cd-46cd-97b3-fbc4140b8ece"},"vehicle_type_id":"4","last_reported":1747476552,"current_range_meters":19200,"station_id":"ce4bhlh2rcd13ifvqgig","pricing_plan_id":"cebpf4jnsgd1na2vs0mg"},{"bike_id":"7d59e848-f826-4f99-b42b-3965a02bf182","system_id":"levelo_inurba_marseille","lat":43.31412,"lon":5.36706,"is_reserved":false,"is_disabled":false,"rental_uris":{"android":"levelo://app?vid=7d59e848-f826-4f99-b42b-3965a02bf182","ios":"levelo://app?vid=7d59e848-f826-4f99-b42b-3965a02bf182"},"vehicle_type_id":"4","last_reported":1747476552,"current_range_meters":19600,"station_id":"ce4bgr92rcd13ifvqc6g","pricing_plan_id":"cebpf4jnsgd1na2vs0mg"},{"bike_id":"53f2f235-9fc1-4337-9315-cd5a3910fa60","system_id":"levelo_inurba_marseille","lat":43.3133,"lon":5.39711,"is_reserved":false,"is_disabled":false,"rental_uris":{"android":"levelo://app?vid=53f2f235-9fc1-4337-9315-cd5a3910fa60","ios":"levelo://app?vid=53f2f235-9fc1-4337-9315-cd5a3910fa60"},"vehicle_type_id":"4","last_reported":1747476552,"current_range_meters":19600,"station_id":"ce4bgvp2rcd13ifvqcu0","pricing_plan_id":"cebpf4jnsgd1na2vs0mg"},{"bike_id":"27f4493d-5f7a-4a30-8c05-a03a6186b876","system_id":"levelo_inurba_marseille","lat":43.2842,"lon":5.35002,"is_reserved":false,"is_disabled":false,"rental_uris":{"android":"levelo://app?vid=27f4493d-5f7a-4a30-8c05-a03a6186b876","ios":"levelo://app?vid=27f4493d-5f7a-4a30-8c05-a03a6186b876"},"vehicle_type_id":"4","last_reported":1747476552,"current_range_meters":19600,"station_id":"ce4bhbh2rcd13ifvqepg","pricing_plan_id":"cebpf4jnsgd1na2vs0mg"},{"bike_id":"22249aa8-0b9a-4b19-9307-e50d75cc0032","system_id":"levelo_inurba_marseille","lat":43.26561,"lon":5.37282,"is_reserved":false,"is_disabled":false,"rental_uris":{"android":"levelo://app?vid=22249aa8-0b9a-4b19-9307-e50d75cc0032","ios":"levelo://app?vid=22249aa8-0b9a-4b19-9307-e50d75cc0032"},"vehicle_type_id":"4","last_reported":1747476552,"current_range_meters":19600,"station_id":"ce4bhg12rcd13ifvqf70","pricing_plan_id":"cebpf4jnsgd1na2vs0mg"},{"bike_id":"f95f6b13-fb6b-4918-aa29-c70dce4e737e","system_id":"levelo_inurba_marseille","lat":43.32349,"lon":5.40586,"is_reserved":false,"is_disabled":false,"rental_uris":{"android":"levelo://app?vid=f95f6b13-fb6b-4918-aa29-c70dce4e737e","ios":"levelo://app?vid=f95f6b13-fb6b-4918-aa29-c70dce4e737e"},"vehicle_type_id":"4","last_reported":1747476552,"current_range_meters":19600,"station_id":"ce4bhq92rcd13ifvqhjg","pricing_plan_id":"cebpf4jnsgd1na2vs0mg"},{"bike_id":"ea2d3dd8-83ee-4dd0-b709-3f2a8dd2f74d","system_id":"levelo_inurba_marseille","lat":43.217587,"lon":5.345979,"is_reserved":false,"is_disabled":false,"rental_uris":{"android":"levelo://app?vid=ea2d3dd8-83ee-4dd0-b709-3f2a8dd2f74d","ios":"levelo://app?vid=ea2d3dd8-83ee-4dd0-b709-3f2a8dd2f74d"},"vehicle_type_id":"4","last_reported":1747476552,"current_range_meters":19600,"station_id":"st_cvj6r9ubvosntc0bgbag","pricing_plan_id":"cebpf4jnsgd1na2vs0mg"},{"bike_id":"9cbeb87d-d8b0-4e27-aceb-943f96e43929","system_id":"levelo_inurba_marseille","lat":43.29841,"lon":5.3627,"is_reserved":false,"is_disabled":false,"rental_uris":{"android":"levelo://app?vid=9cbeb87d-d8b0-4e27-aceb-943f96e43929","ios":"levelo://app?vid=9cbeb87d-d8b0-4e27-aceb-943f96e43929"},"vehicle_type_id":"4","last_reported":1747476552,"current_range_meters":20000,"station_id":"ce4bgpp2rcd13ifvqc3g","pricing_plan_id":"cebpf4jnsgd1na2vs0mg"},{"bike_id":"c79ffbd9-7b64-408b-bc96-78e968366054","system_id":"levelo_inurba_marseille","lat":43.273767,"lon":5.362588,"is_reserved":false,"is_disabled":false,"rental_uris":{"android":"levelo://app?vid=c79ffbd9-7b64-408b-bc96-78e968366054","ios":"levelo://app?vid=c79ffbd9-7b64-408b-bc96-78e968366054"},"vehicle_type_id":"4","last_reported":1747476552,"current_range_meters":20000,"station_id":"ce4bhbh2rcd13ifvqeo0","pricing_plan_id":"cebpf4jnsgd1na2vs0mg"},{"bike_id":"ea6b9a2e-461a-4e43-9ee9-c9fd86e6a9f3","system_id":"levelo_inurba_marseille","lat":43.28617,"lon":5.35099,"is_reserved":false,"is_disabled":false,"rental_uris":{"android":"levelo://app?vid=ea6b9a2e-461a-4e43-9ee9-c9fd86e6a9f3","ios":"levelo://app?vid=ea6b9a2e-461a-4e43-9ee9-c9fd86e6a9f3"},"vehicle_type_id":"4","last_reported":1747476552,"current_range_meters":20000,"station_id":"ce4bhch2rcd13ifvqeug","pricing_plan_id":"cebpf4jnsgd1na2vs0mg"},{"bike_id":"6deafa50-890f-463e-a628-8368a315b5ef","system_id":"levelo_inurba_marseille","lat":43.26556,"lon":5.37295,"is_reserved":false,"is_disabled":false,"rental_uris":{"android":"levelo://app?vid=6deafa50-890f-463e-a628-8368a315b5ef","ios":"levelo://app?vid=6deafa50-890f-463e-a628-8368a315b5ef"},"vehicle_type_id":"4","last_reported":1747476552,"current_range_meters":20000,"station_id":"ce4bhg12rcd13ifvqf70","pricing_plan_id":"cebpf4jnsgd1na2vs0mg"},{"bike_id":"00b90f23-6feb-4f6c-af40-0b0e7d0fbbd0","system_id":"levelo_inurba_marseille","lat":43.24804,"lon":5.37457,"is_reserved":false,"is_disabled":false,"rental_uris":{"android":"levelo://app?vid=00b90f23-6feb-4f6c-af40-0b0e7d0fbbd0","ios":"levelo://app?vid=00b90f23-6feb-4f6c-af40-0b0e7d0fbbd0"},"vehicle_type_id":"4","last_reported":1747476552,"current_range_meters":20000,"station_id":"ce4bhgh2rcd13ifvqfb0","pricing_plan_id":"cebpf4jnsgd1na2vs0mg"},{"bike_id":"858a25a4-7275-417b-9853-3c56842d74b0","system_id":"levelo_inurba_marseille","lat":43.21194,"lon":5.35072,"is_reserved":false,"is_disabled":false,"rental_uris":{"android":"levelo://app?vid=858a25a4-7275-417b-9853-3c56842d74b0","ios":"levelo://app?vid=858a25a4-7275-417b-9853-3c56842d74b0"},"vehicle_type_id":"4","last_reported":1747476552,"current_range_meters":20000,"station_id":"st_cvj6sg6p6f1abm77japg","pricing_plan_id":"cebpf4jnsgd1na2vs0mg"},{"bike_id":"2afaca15-0485-427d-8585-df19badd207b","system_id":"levelo_inurba_marseille","lat":43.22469,"lon":5.34711,"is_reserved":false,"is_disabled":false,"rental_uris":{"android":"levelo://app?vid=2afaca15-0485-427d-8585-df19badd207b","ios":"levelo://app?vid=2afaca15-0485-427d-8585-df19badd207b"},"vehicle_type_id":"4","last_reported":1747476552,"current_range_meters":20400,"station_id":"","pricing_plan_id":"cebpf4jnsgd1na2vs0mg"},{"bike_id":"19456222-7d38-48cf-a950-06daadd07927","system_id":"levelo_inurba_marseille","lat":43.2502,"lon":5.37545,"is_reserved":false,"is_disabled":false,"rental_uris":{"android":"levelo://app?vid=19456222-7d38-48cf-a950-06daadd07927","ios":"levelo://app?vid=19456222-7d38-48cf-a950-06daadd07927"},"vehicle_type_id":"4","last_reported":1747476552,"current_range_meters":20400,"station_id":"","pricing_plan_id":"cebpf4jnsgd1na2vs0mg"},{"bike_id":"a79754ca-40d1-4370-bc0f-d34509aa8827","system_id":"levelo_inurba_marseille","lat":43.31681,"lon":5.37534,"is_reserved":false,"is_disabled":false,"rental_uris":{"android":"levelo://app?vid=a79754ca-40d1-4370-bc0f-d34509aa8827","ios":"levelo://app?vid=a79754ca-40d1-4370-bc0f-d34509aa8827"},"vehicle_type_id":"4","last_reported":1747476552,"current_range_meters":20400,"station_id":"","pricing_plan_id":"cebpf4jnsgd1na2vs0mg"},{"bike_id":"86603db7-b462-4e72-8622-a2dee8bb2920","system_id":"levelo_inurba_marseille","lat":43.337444,"lon":5.374475,"is_reserved":false,"is_disabled":false,"rental_uris":{"android":"levelo://app?vid=86603db7-b462-4e72-8622-a2dee8bb2920","ios":"levelo://app?vid=86603db7-b462-4e72-8622-a2dee8bb2920"},"vehicle_type_id":"4","last_reported":1747476552,"current_range_meters":20400,"station_id":"","pricing_plan_id":"cebpf4jnsgd1na2vs0mg"},{"bike_id":"d875401a-024f-4fbc-80fc-c43a21f68a72","system_id":"levelo_inurba_marseille","lat":43.29911,"lon":5.38148,"is_reserved":false,"is_disabled":false,"rental_uris":{"android":"levelo://app?vid=d875401a-024f-4fbc-80fc-c43a21f68a72","ios":"levelo://app?vid=d875401a-024f-4fbc-80fc-c43a21f68a72"},"vehicle_type_id":"4","last_reported":1747476552,"current_range_meters":20400,"station_id":"ce4bgj12rcd13ifvqbc0","pricing_plan_id":"cebpf4jnsgd1na2vs0mg"},{"bike_id":"86e6f61b-b035-4d78-8b25-c445def84d69","system_id":"levelo_inurba_marseille","lat":43.29023,"lon":5.3865,"is_reserved":false,"is_disabled":false,"rental_uris":{"android":"levelo://app?vid=86e6f61b-b035-4d78-8b25-c445def84d69","ios":"levelo://app?vid=86e6f61b-b035-4d78-8b25-c445def84d69"},"vehicle_type_id":"4","last_reported":1747476552,"current_range_meters":20400,"station_id":"ce4bh4p2rcd13ifvqe0g","pricing_plan_id":"cebpf4jnsgd1na2vs0mg"},{"bike_id":"91e2ef0b-3cd9-4b4b-a1dd-6e218005265e","system_id":"levelo_inurba_marseille","lat":43.24649,"lon":5.38891,"is_reserved":false,"is_disabled":false,"rental_uris":{"android":"levelo://app?vid=91e2ef0b-3cd9-4b4b-a1dd-6e218005265e","ios":"levelo://app?vid=91e2ef0b-3cd9-4b4b-a1dd-6e218005265e"},"vehicle_type_id":"4","last_reported":1747476552,"current_range_meters":20400,"station_id":"ce4bhg12rcd13ifvqf60","pricing_plan_id":"cebpf4jnsgd1na2vs0mg"},{"bike_id":"3cde89da-d35b-4254-bb4d-cf38f6533889","system_id":"levelo_inurba_marseille","lat":43.26203,"lon":5.37444,"is_reserved":false,"is_disabled":false,"rental_uris":{"android":"levelo://app?vid=3cde89da-d35b-4254-bb4d-cf38f6533889","ios":"levelo://app?vid=3cde89da-d35b-4254-bb4d-cf38f6533889"},"vehicle_type_id":"4","last_reported":1747476552,"current_range_meters":20400,"station_id":"ce4bhgp2rcd13ifvqfc0","pricing_plan_id":"cebpf4jnsgd1na2vs0mg"},{"bike_id":"0bbae27d-252b-4ebb-871e-0cea87aa3c08","system_id":"levelo_inurba_marseille","lat":43.30806,"lon":5.43523,"is_reserved":false,"is_disabled":false,"rental_uris":{"android":"levelo://app?vid=0bbae27d-252b-4ebb-871e-0cea87aa3c08","ios":"levelo://app?vid=0bbae27d-252b-4ebb-871e-0cea87aa3c08"},"vehicle_type_id":"4","last_reported":1747476552,"current_range_meters":20400,"station_id":"ce4bhph2rcd13ifvqheg","pricing_plan_id":"cebpf4jnsgd1na2vs0mg"},{"bike_id":"8663c425-1f6b-4bf5-80b9-577de7a4898f","system_id":"levelo_inurba_marseille","lat":43.21193,"lon":5.35079,"is_reserved":false,"is_disabled":false,"rental_uris":{"android":"levelo://app?vid=8663c425-1f6b-4bf5-80b9-577de7a4898f","ios":"levelo://app?vid=8663c425-1f6b-4bf5-80b9-577de7a4898f"},"vehicle_type_id":"4","last_reported":1747476552,"current_range_meters":20400,"station_id":"st_cvj6sg6p6f1abm77japg","pricing_plan_id":"cebpf4jnsgd1na2vs0mg"},{"bike_id":"76df6283-872b-4dbe-86bb-00091fbdc439","system_id":"levelo_inurba_marseille","lat":43.30162,"lon":5.38095,"is_reserved":false,"is_disabled":false,"rental_uris":{"android":"levelo://app?vid=76df6283-872b-4dbe-86bb-00091fbdc439","ios":"levelo://app?vid=76df6283-872b-4dbe-86bb-00091fbdc439"},"vehicle_type_id":"4","last_reported":1747476552,"current_range_meters":20800,"station_id":"ce4bgjp2rcd13ifvqbh0","pricing_plan_id":"cebpf4jnsgd1na2vs0mg"},{"bike_id":"9cc57555-ba0c-42d4-bed2-eede46ce3e34","system_id":"levelo_inurba_marseille","lat":43.30536,"lon":5.36544,"is_reserved":false,"is_disabled":false,"rental_uris":{"android":"levelo://app?vid=9cc57555-ba0c-42d4-bed2-eede46ce3e34","ios":"levelo://app?vid=9cc57555-ba0c-42d4-bed2-eede46ce3e34"},"vehicle_type_id":"4","last_reported":1747476552,"current_range_meters":20800,"station_id":"ce4bgs12rcd13ifvqcag","pricing_plan_id":"cebpf4jnsgd1na2vs0mg"},{"bike_id":"5731e95d-6dc4-48ba-b9f4-564123a0f249","system_id":"levelo_inurba_marseille","lat":43.29174,"lon":5.37148,"is_reserved":false,"is_disabled":false,"rental_uris":{"android":"levelo://app?vid=5731e95d-6dc4-48ba-b9f4-564123a0f249","ios":"levelo://app?vid=5731e95d-6dc4-48ba-b9f4-564123a0f249"},"vehicle_type_id":"4","last_reported":1747476552,"current_range_meters":20800,"station_id":"ce4bha92rcd13ifvqeh0","pricing_plan_id":"cebpf4jnsgd1na2vs0mg"},{"bike_id":"0a556155-61b8-430c-ba30-a0ec87f39fd2","system_id":"levelo_inurba_marseille","lat":43.28262,"lon":5.3507,"is_reserved":false,"is_disabled":false,"rental_uris":{"android":"levelo://app?vid=0a556155-61b8-430c-ba30-a0ec87f39fd2","ios":"levelo://app?vid=0a556155-61b8-430c-ba30-a0ec87f39fd2"},"vehicle_type_id":"4","last_reported":1747476552,"current_range_meters":20800,"station_id":"ce4bhbp2rcd13ifvqerg","pricing_plan_id":"cebpf4jnsgd1na2vs0mg"},{"bike_id":"c296de55-6f4c-42d3-8913-db989e535d3d","system_id":"levelo_inurba_marseille","lat":43.28264,"lon":5.35073,"is_reserved":false,"is_disabled":false,"rental_uris":{"android":"levelo://app?vid=c296de55-6f4c-42d3-8913-db989e535d3d","ios":"levelo://app?vid=c296de55-6f4c-42d3-8913-db989e535d3d"},"vehicle_type_id":"4","last_reported":1747476552,"current_range_meters":20800,"station_id":"ce4bhbp2rcd13ifvqerg","pricing_plan_id":"cebpf4jnsgd1na2vs0mg"},{"bike_id":"fe29fcca-385c-4783-b224-1f9221262264","system_id":"levelo_inurba_marseille","lat":43.25818,"lon":5.39436,"is_reserved":false,"is_disabled":false,"rental_uris":{"android":"levelo://app?vid=fe29fcca-385c-4783-b224-1f9221262264","ios":"levelo://app?vid=fe29fcca-385c-4783-b224-1f9221262264"},"vehicle_type_id":"4","last_reported":1747476552,"current_range_meters":20800,"station_id":"ce4bhip2rcd13ifvqft0","pricing_plan_id":"cebpf4jnsgd1na2vs0mg"},{"bike_id":"062a32b8-d3f0-4816-b666-1b3c15780d6e","system_id":"levelo_inurba_marseille","lat":43.23059,"lon":5.35493,"is_reserved":false,"is_disabled":false,"rental_uris":{"android":"levelo://app?vid=062a32b8-d3f0-4816-b666-1b3c15780d6e","ios":"levelo://app?vid=062a32b8-d3f0-4816-b666-1b3c15780d6e"},"vehicle_type_id":"4","last_reported":1747476552,"current_range_meters":20800,"station_id":"cpo3342slgdg3j2ifvpg","pricing_plan_id":"cebpf4jnsgd1na2vs0mg"},{"bike_id":"dc98d87c-d426-4760-a0c9-433da32a5d9a","system_id":"levelo_inurba_marseille","lat":43.24132,"lon":5.39661,"is_reserved":false,"is_disabled":false,"rental_uris":{"android":"levelo://app?vid=dc98d87c-d426-4760-a0c9-433da32a5d9a","ios":"levelo://app?vid=dc98d87c-d426-4760-a0c9-433da32a5d9a"},"vehicle_type_id":"4","last_reported":1747476552,"current_range_meters":21600,"station_id":"ce4bhn12rcd13ifvqgpg","pricing_plan_id":"cebpf4jnsgd1na2vs0mg"},{"bike_id":"ed34fad4-c48e-4c1a-b9b1-8eb1cd77d573","system_id":"levelo_inurba_marseille","lat":43.30944,"lon":5.38646,"is_reserved":false,"is_disabled":false,"rental_uris":{"android":"levelo://app?vid=ed34fad4-c48e-4c1a-b9b1-8eb1cd77d573","ios":"levelo://app?vid=ed34fad4-c48e-4c1a-b9b1-8eb1cd77d573"},"vehicle_type_id":"4","last_reported":1747476552,"current_range_meters":21600,"station_id":"ce4bhqh2rcd13ifvqhmg","pricing_plan_id":"cebpf4jnsgd1na2vs0mg"},{"bike_id":"048809b4-01b4-4ceb-b603-8d5a72702327","system_id":"levelo_inurba_marseille","lat":43.24412,"lon":5.37993,"is_reserved":false,"is_disabled":false,"rental_uris":{"android":"levelo://app?vid=048809b4-01b4-4ceb-b603-8d5a72702327","ios":"levelo://app?vid=048809b4-01b4-4ceb-b603-8d5a72702327"},"vehicle_type_id":"4","last_reported":1747476552,"current_range_meters":22000,"station_id":"","pricing_plan_id":"cebpf4jnsgd1na2vs0mg"},{"bike_id":"c0b5d624-dc59-4a0d-bb8e-2846bb29d147","system_id":"levelo_inurba_marseille","lat":43.28737,"lon":5.37962,"is_reserved":false,"is_disabled":false,"rental_uris":{"android":"levelo://app?vid=c0b5d624-dc59-4a0d-bb8e-2846bb29d147","ios":"levelo://app?vid=c0b5d624-dc59-4a0d-bb8e-2846bb29d147"},"vehicle_type_id":"4","last_reported":1747476552,"current_range_meters":22000,"station_id":"ce4bh9p2rcd13ifvqec0","pricing_plan_id":"cebpf4jnsgd1na2vs0mg"},{"bike_id":"6e882809-dfa6-4fdd-8965-ed2d050def44","system_id":"levelo_inurba_marseille","lat":43.29198,"lon":5.35795,"is_reserved":false,"is_disabled":false,"rental_uris":{"android":"levelo://app?vid=6e882809-dfa6-4fdd-8965-ed2d050def44","ios":"levelo://app?vid=6e882809-dfa6-4fdd-8965-ed2d050def44"},"vehicle_type_id":"4","last_reported":1747476552,"current_range_meters":22000,"station_id":"ce4bhb12rcd13ifvqel0","pricing_plan_id":"cebpf4jnsgd1na2vs0mg"},{"bike_id":"97747ee1-ff4b-4959-82f8-986ee62bb314","system_id":"levelo_inurba_marseille","lat":43.28616,"lon":5.35105,"is_reserved":false,"is_disabled":false,"rental_uris":{"android":"levelo://app?vid=97747ee1-ff4b-4959-82f8-986ee62bb314","ios":"levelo://app?vid=97747ee1-ff4b-4959-82f8-986ee62bb314"},"vehicle_type_id":"4","last_reported":1747476552,"current_range_meters":22000,"station_id":"ce4bhch2rcd13ifvqeug","pricing_plan_id":"cebpf4jnsgd1na2vs0mg"},{"bike_id":"fa6f5703-9919-4807-8b55-5837878e2480","system_id":"levelo_inurba_marseille","lat":43.21202,"lon":5.35062,"is_reserved":false,"is_disabled":false,"rental_uris":{"android":"levelo://app?vid=fa6f5703-9919-4807-8b55-5837878e2480","ios":"levelo://app?vid=fa6f5703-9919-4807-8b55-5837878e2480"},"vehicle_type_id":"4","last_reported":1747476552,"current_range_meters":22000,"station_id":"st_cvj6sg6p6f1abm77japg","pricing_plan_id":"cebpf4jnsgd1na2vs0mg"},{"bike_id":"f45df310-e652-482b-b829-070da578ac22","system_id":"levelo_inurba_marseille","lat":43.291965,"lon":5.358005,"is_reserved":false,"is_disabled":false,"rental_uris":{"android":"levelo://app?vid=f45df310-e652-482b-b829-070da578ac22","ios":"levelo://app?vid=f45df310-e652-482b-b829-070da578ac22"},"vehicle_type_id":"4","last_reported":1747476552,"current_range_meters":22400,"station_id":"","pricing_plan_id":"cebpf4jnsgd1na2vs0mg"},{"bike_id":"8840a188-7147-44cb-a26a-bd804a53098e","system_id":"levelo_inurba_marseille","lat":43.30529,"lon":5.36522,"is_reserved":false,"is_disabled":false,"rental_uris":{"android":"levelo://app?vid=8840a188-7147-44cb-a26a-bd804a53098e","ios":"levelo://app?vid=8840a188-7147-44cb-a26a-bd804a53098e"},"vehicle_type_id":"4","last_reported":1747476552,"current_range_meters":22400,"station_id":"ce4bgs12rcd13ifvqcag","pricing_plan_id":"cebpf4jnsgd1na2vs0mg"},{"bike_id":"366652ad-b932-44ae-82da-3f2e813f4260","system_id":"levelo_inurba_marseille","lat":43.26555,"lon":5.3729,"is_reserved":false,"is_disabled":false,"rental_uris":{"android":"levelo://app?vid=366652ad-b932-44ae-82da-3f2e813f4260","ios":"levelo://app?vid=366652ad-b932-44ae-82da-3f2e813f4260"},"vehicle_type_id":"4","last_reported":1747476552,"current_range_meters":22400,"station_id":"ce4bhg12rcd13ifvqf70","pricing_plan_id":"cebpf4jnsgd1na2vs0mg"},{"bike_id":"d412e030-cdec-4359-b4e9-1d3215b7f7eb","system_id":"levelo_inurba_marseille","lat":43.2828,"lon":5.35085,"is_reserved":false,"is_disabled":false,"rental_uris":{"android":"levelo://app?vid=d412e030-cdec-4359-b4e9-1d3215b7f7eb","ios":"levelo://app?vid=d412e030-cdec-4359-b4e9-1d3215b7f7eb"},"vehicle_type_id":"4","last_reported":1747476552,"current_range_meters":22800,"station_id":"","pricing_plan_id":"cebpf4jnsgd1na2vs0mg"},{"bike_id":"3a71b434-0a51-4ee9-bfc2-834f8e033b26","system_id":"levelo_inurba_marseille","lat":43.3013,"lon":5.3878,"is_reserved":false,"is_disabled":false,"rental_uris":{"android":"levelo://app?vid=3a71b434-0a51-4ee9-bfc2-834f8e033b26","ios":"levelo://app?vid=3a71b434-0a51-4ee9-bfc2-834f8e033b26"},"vehicle_type_id":"4","last_reported":1747476552,"current_range_meters":22800,"station_id":"ce4bghh2rcd13ifvqb60","pricing_plan_id":"cebpf4jnsgd1na2vs0mg"},{"bike_id":"3497fa20-f052-42a0-b04a-d3c034d73669","system_id":"levelo_inurba_marseille","lat":43.31703,"lon":5.40464,"is_reserved":false,"is_disabled":false,"rental_uris":{"android":"levelo://app?vid=3497fa20-f052-42a0-b04a-d3c034d73669","ios":"levelo://app?vid=3497fa20-f052-42a0-b04a-d3c034d73669"},"vehicle_type_id":"4","last_reported":1747476552,"current_range_meters":22800,"station_id":"ce4bh012rcd13ifvqd00","pricing_plan_id":"cebpf4jnsgd1na2vs0mg"},{"bike_id":"3f14a00e-2cf3-4056-8489-061e9749c5b6","system_id":"levelo_inurba_marseille","lat":43.27376,"lon":5.36255,"is_reserved":false,"is_disabled":false,"rental_uris":{"android":"levelo://app?vid=3f14a00e-2cf3-4056-8489-061e9749c5b6","ios":"levelo://app?vid=3f14a00e-2cf3-4056-8489-061e9749c5b6"},"vehicle_type_id":"4","last_reported":1747476552,"current_range_meters":22800,"station_id":"ce4bhbh2rcd13ifvqeo0","pricing_plan_id":"cebpf4jnsgd1na2vs0mg"},{"bike_id":"e82b1cdf-16c8-4270-a644-da745e4ccc87","system_id":"levelo_inurba_marseille","lat":43.2928,"lon":5.36851,"is_reserved":false,"is_disabled":false,"rental_uris":{"android":"levelo://app?vid=e82b1cdf-16c8-4270-a644-da745e4ccc87","ios":"levelo://app?vid=e82b1cdf-16c8-4270-a644-da745e4ccc87"},"vehicle_type_id":"4","last_reported":1747476552,"current_range_meters":22800,"station_id":"ce4bhbp2rcd13ifvqesg","pricing_plan_id":"cebpf4jnsgd1na2vs0mg"},{"bike_id":"e6fa7464-f141-40ea-ac8a-87d2f4315718","system_id":"levelo_inurba_marseille","lat":43.23968,"lon":5.36638,"is_reserved":false,"is_disabled":false,"rental_uris":{"android":"levelo://app?vid=e6fa7464-f141-40ea-ac8a-87d2f4315718","ios":"levelo://app?vid=e6fa7464-f141-40ea-ac8a-87d2f4315718"},"vehicle_type_id":"4","last_reported":1747476552,"current_range_meters":22800,"station_id":"ce4bhi12rcd13ifvqfp0","pricing_plan_id":"cebpf4jnsgd1na2vs0mg"},{"bike_id":"ddb6a55f-b42e-4912-b48b-90fdd3e0d36e","system_id":"levelo_inurba_marseille","lat":43.29601,"lon":5.38105,"is_reserved":false,"is_disabled":false,"rental_uris":{"android":"levelo://app?vid=ddb6a55f-b42e-4912-b48b-90fdd3e0d36e","ios":"levelo://app?vid=ddb6a55f-b42e-4912-b48b-90fdd3e0d36e"},"vehicle_type_id":"4","last_reported":1747476552,"current_range_meters":23200,"station_id":"ce4bgl12rcd13ifvqbo0","pricing_plan_id":"cebpf4jnsgd1na2vs0mg"},{"bike_id":"771f1a2d-9ff5-41f1-aeaf-9a490d83164b","system_id":"levelo_inurba_marseille","lat":43.29195,"lon":5.35806,"is_reserved":false,"is_disabled":false,"rental_uris":{"android":"levelo://app?vid=771f1a2d-9ff5-41f1-aeaf-9a490d83164b","ios":"levelo://app?vid=771f1a2d-9ff5-41f1-aeaf-9a490d83164b"},"vehicle_type_id":"4","last_reported":1747476552,"current_range_meters":23200,"station_id":"ce4bhb12rcd13ifvqel0","pricing_plan_id":"cebpf4jnsgd1na2vs0mg"},{"bike_id":"ce645c89-756c-46d5-ad12-c5b517d1467c","system_id":"levelo_inurba_marseille","lat":43.29226,"lon":5.36063,"is_reserved":false,"is_disabled":false,"rental_uris":{"android":"levelo://app?vid=ce645c89-756c-46d5-ad12-c5b517d1467c","ios":"levelo://app?vid=ce645c89-756c-46d5-ad12-c5b517d1467c"},"vehicle_type_id":"4","last_reported":1747476552,"current_range_meters":23200,"station_id":"ce4bhbh2rcd13ifvqeqg","pricing_plan_id":"cebpf4jnsgd1na2vs0mg"},{"bike_id":"49b95b6c-99d8-474b-b2e0-33711d3c8fa4","system_id":"levelo_inurba_marseille","lat":43.26552,"lon":5.37297,"is_reserved":false,"is_disabled":false,"rental_uris":{"android":"levelo://app?vid=49b95b6c-99d8-474b-b2e0-33711d3c8fa4","ios":"levelo://app?vid=49b95b6c-99d8-474b-b2e0-33711d3c8fa4"},"vehicle_type_id":"4","last_reported":1747476552,"current_range_meters":23200,"station_id":"ce4bhg12rcd13ifvqf70","pricing_plan_id":"cebpf4jnsgd1na2vs0mg"},{"bike_id":"6addb9b9-0ef4-42ba-aaf7-e43e22db26d3","system_id":"levelo_inurba_marseille","lat":43.25499,"lon":5.37648,"is_reserved":false,"is_disabled":false,"rental_uris":{"android":"levelo://app?vid=6addb9b9-0ef4-42ba-aaf7-e43e22db26d3","ios":"levelo://app?vid=6addb9b9-0ef4-42ba-aaf7-e43e22db26d3"},"vehicle_type_id":"4","last_reported":1747476552,"current_range_meters":23200,"station_id":"ce4bhh12rcd13ifvqff0","pricing_plan_id":"cebpf4jnsgd1na2vs0mg"},{"bike_id":"2656534e-8849-48d5-8fd0-8700fe432ac8","system_id":"levelo_inurba_marseille","lat":43.296212,"lon":5.405841,"is_reserved":false,"is_disabled":false,"rental_uris":{"android":"levelo://app?vid=2656534e-8849-48d5-8fd0-8700fe432ac8","ios":"levelo://app?vid=2656534e-8849-48d5-8fd0-8700fe432ac8"},"vehicle_type_id":"4","last_reported":1747476552,"current_range_meters":23200,"station_id":"ce4bhph2rcd13ifvqhdg","pricing_plan_id":"cebpf4jnsgd1na2vs0mg"},{"bike_id":"3ee5051f-9c9d-4335-ac10-931ea4f5b1bb","system_id":"levelo_inurba_marseille","lat":43.31759,"lon":5.39021,"is_reserved":false,"is_disabled":false,"rental_uris":{"android":"levelo://app?vid=3ee5051f-9c9d-4335-ac10-931ea4f5b1bb","ios":"levelo://app?vid=3ee5051f-9c9d-4335-ac10-931ea4f5b1bb"},"vehicle_type_id":"4","last_reported":1747476552,"current_range_meters":23200,"station_id":"ce4bhqp2rcd13ifvqhng","pricing_plan_id":"cebpf4jnsgd1na2vs0mg"},