{"last_updated":1728227327,"ttl":60,"version":"2.2","data":{"bikes":[{"bike_id":"a6edce7f-7f94-488f-99c5-b7841c6af213","system_id":"levelo_inurba_marseille","lat":43.25822,"lon":5.39434,"is_reserved":false,"is_disabled":false,"rental_uris":{"android":"levelo://app?vid=a6edce7f-7f94-488f-99c5-b7841c6af213","ios":"levelo://app?vid=a6edce7f-7f94-488f-99c5-b7841c6af213"},"vehicle_type_id":"4","last_reported":1728227327,"current_range_meters":20400,"station_id":"ce4bhip2rcd13ifvqft0","pricing_plan_id":"cebpf4jnsgd1na2vs0mg"},{"bike_id":"9671f252-4906-4ded-9eb9-fd7886dcac1f","system_id":"levelo_inurba_marseille","lat":43.31768,"lon":5.39016,"is_reserved":false,"is_disabled":false,"rental_uris":{"android":"levelo://app?vid=9671f252-4906-4ded-9eb9-fd7886dcac1f","ios":"levelo://app?vid=9671f252-4906-4ded-9eb9-fd7886dcac1f"},"vehicle_type_id":"4","last_reported":1728227327,"current_range_meters":37600,"station_id":"ce4bhqp2rcd13ifvqhng","pricing_plan_id":"cebpf4jnsgd1na2vs0mg"},{"bike_id":"fcc56730-3c72-4870-849a-77c8955fe703","system_id":"levelo_inurba_marseille","lat":43.26591,"lon":5.3903,"is_reserved":false,"is_disabled":false,"rental_uris":{"android":"levelo://app?vid=fcc56730-3c72-4870-849a-77c8955fe703","ios":"levelo://app?vid=fcc56730-3c72-4870-849a-77c8955fe703"},"vehicle_type_id":"4","last_reported":1728227327,"current_range_meters":38800,"station_id":"ce4bhe12rcd13ifvqf30","pricing_plan_id":"cebpf4jnsgd1na2vs0mg"},{"bike_id":"940cde9c-6243-4a9e-89af-97831cb9ac45","system_id":"levelo_inurba_marseille","lat":43.24392,"lon":5.37054,"is_reserved":false,"is_disabled":false,"rental_uris":{"android":"levelo://app?vid=940cde9c-6243-4a9e-89af-97831cb9ac45","ios":"levelo://app?vid=940cde9c-6243-4a9e-89af-97831cb9ac45"},"vehicle_type_id":"4","last_reported":1728227327,"current_range_meters":32800,"station_id":"ce4bhhh2rcd13ifvqfk0","pricing_plan_id":"cebpf4jnsgd1na2vs0mg"},{"bike_id":"3edccbad-c604-40df-acb2-6e9d91b67298","system_id":"levelo_inurba_marseille","lat":43.21342,"lon":5.34942,"is_reserved":false,"is_disabled":false,"rental_uris":{"android":"levelo://app?vid=3edccbad-c604-40df-acb2-6e9d91b67298","ios":"levelo://app?vid=3edccbad-c604-40df-acb2-6e9d91b67298"},"vehicle_type_id":"4","last_reported":1728227327,"current_range_meters":28400,"station_id":"crv51consjfaj9uu89c0","pricing_plan_id":"cebpf4jnsgd1na2vs0mg"},{"bike_id":"5f8a88c6-7d5e-4e30-afba-7a0229ab1e17","system_id":"levelo_inurba_marseille","lat":43.29284,"lon":5.40117,"is_reserved":false,"is_disabled":false,"rental_uris":{"android":"levelo://app?vid=5f8a88c6-7d5e-4e30-afba-7a0229ab1e17","ios":"levelo://app?vid=5f8a88c6-7d5e-4e30-afba-7a0229ab1e17"},"vehicle_type_id":"4","last_reported":1728227327,"current_range_meters":28400,"station_id":"ce4bh312rcd13ifvqdk0","pricing_plan_id":"cebpf4jnsgd1na2vs0mg"},{"bike_id":"6016a8e6-cec2-4998-b861-108bf932e435","system_id":"levelo_inurba_marseille","lat":43.31075,"lon":5.38358,"is_reserved":false,"is_disabled":false,"rental_uris":{"android":"levelo://app?vid=6016a8e6-cec2-4998-b861-108bf932e435","ios":"levelo://app?vid=6016a8e6-cec2-4998-b861-108bf932e435"},"vehicle_type_id":"4","last_reported":1728227327,"current_range_meters":34000,"station_id":"ce4bgv92rcd13ifvqcr0","pricing_plan_id":"cebpf4jnsgd1na2vs0mg"},{"bike_id":"939f948f-0f86-450d-a969-aa8b3d4b8584","system_id":"levelo_inurba_marseille","lat":43.21348,"lon":5.34936,"is_reserved":false,"is_disabled":false,"rental_uris":{"android":"levelo://app?vid=939f948f-0f86-450d-a969-aa8b3d4b8584","ios":"levelo://app?vid=939f948f-0f86-450d-a969-aa8b3d4b8584"},"vehicle_type_id":"4","last_reported":1728227327,"current_range_meters":36800,"station_id":"crv51consjfaj9uu89c0","pricing_plan_id":"cebpf4jnsgd1na2vs0mg"},{"bike_id":"53aed260-8a8b-48a9-a9a5-ec999fb04e11","system_id":"levelo_inurba_marseille","lat":43.25118,"lon":5.40321,"is_reserved":false,"is_disabled":false,"rental_uris":{"android":"levelo://app?vid=53aed260-8a8b-48a9-a9a5-ec999fb04e11","ios":"levelo://app?vid=53aed260-8a8b-48a9-a9a5-ec999fb04e11"},"vehicle_type_id":"4","last_reported":1728227327,"current_range_meters":38800,"station_id":"ce4bhlh2rcd13ifvqgig","pricing_plan_id":"cebpf4jnsgd1na2vs0mg"},{"bike_id":"4de42dd8-05f9-4763-ba3a-a216bf1d5d7e","system_id":"levelo_inurba_marseille","lat":43.24386,"lon":5.37049,"is_reserved":false,"is_disabled":false,"rental_uris":{"android":"levelo://app?vid=4de42dd8-05f9-4763-ba3a-a216bf1d5d7e","ios":"levelo://app?vid=4de42dd8-05f9-4763-ba3a-a216bf1d5d7e"},"vehicle_type_id":"4","last_reported":1728227327,"current_range_meters":38800,"station_id":"ce4bhhh2rcd13ifvqfk0","pricing_plan_id":"cebpf4jnsgd1na2vs0mg"},{"bike_id":"3d3e93be-8a67-4628-9af2-2661c9a0daa4","system_id":"levelo_inurba_marseille","lat":43.22936,"lon":5.35381,"is_reserved":false,"is_disabled":false,"rental_uris":{"android":"levelo://app?vid=3d3e93be-8a67-4628-9af2-2661c9a0daa4","ios":"levelo://app?vid=3d3e93be-8a67-4628-9af2-2661c9a0daa4"},"vehicle_type_id":"4","last_reported":1728227327,"current_range_meters":36400,"station_id":"cpo3532slgdg3j2ikp40","pricing_plan_id":"cebpf4jnsgd1na2vs0mg"},{"bike_id":"83bd8e08-648e-4fc6-8901-05219804adac","system_id":"levelo_inurba_marseille","lat":43.22936,"lon":5.35378,"is_reserved":false,"is_disabled":false,"rental_uris":{"android":"levelo://app?vid=83bd8e08-648e-4fc6-8901-05219804adac","ios":"levelo://app?vid=83bd8e08-648e-4fc6-8901-05219804adac"},"vehicle_type_id":"4","last_reported":1728227327,"current_range_meters":30000,"station_id":"cpo3532slgdg3j2ikp40","pricing_plan_id":"cebpf4jnsgd1na2vs0mg"},{"bike_id":"93fa5934-3e0a-4a8e-9dbf-ffd140c369fa","system_id":"levelo_inurba_marseille","lat":43.27578,"lon":5.38415,"is_reserved":false,"is_disabled":false,"rental_uris":{"android":"levelo://app?vid=93fa5934-3e0a-4a8e-9dbf-ffd140c369fa","ios":"levelo://app?vid=93fa5934-3e0a-4a8e-9dbf-ffd140c369fa"},"vehicle_type_id":"4","last_reported":1728227327,"current_range_meters":16000,"station_id":"ce4bhh92rcd13ifvqfi0","pricing_plan_id":"cebpf4jnsgd1na2vs0mg"},{"bike_id":"6266ab0d-036e-4351-aec4-c2f2013119e5","system_id":"levelo_inurba_marseille","lat":43.32478,"lon":5.36566,"is_reserved":false,"is_disabled":false,"rental_uris":{"android":"levelo://app?vid=6266ab0d-036e-4351-aec4-c2f2013119e5","ios":"levelo://app?vid=6266ab0d-036e-4351-aec4-c2f2013119e5"},"vehicle_type_id":"4","last_reported":1728227327,"current_range_meters":38800,"station_id":"ce4bhs12rcd13ifvqhvg","pricing_plan_id":"cebpf4jnsgd1na2vs0mg"},{"bike_id":"d2e74e6b-8fef-467a-9635-e48983ed45b8","system_id":"levelo_inurba_marseille","lat":43.28676,"lon":5.38676,"is_reserved":false,"is_disabled":false,"rental_uris":{"android":"levelo://app?vid=d2e74e6b-8fef-467a-9635-e48983ed45b8","ios":"levelo://app?vid=d2e74e6b-8fef-467a-9635-e48983ed45b8"},"vehicle_type_id":"4","last_reported":1728227327,"current_range_meters":8000,"station_id":"ce4bh492rcd13ifvqdug","pricing_plan_id":"cebpf4jnsgd1na2vs0mg"},{"bike_id":"2c1ccc48-7b9a-4b96-82c1-feb476287a75","system_id":"levelo_inurba_marseille","lat":43.25085,"lon":5.39513,"is_reserved":false,"is_disabled":false,"rental_uris":{"android":"levelo://app?vid=2c1ccc48-7b9a-4b96-82c1-feb476287a75","ios":"levelo://app?vid=2c1ccc48-7b9a-4b96-82c1-feb476287a75"},"vehicle_type_id":"4","last_reported":1728227327,"current_range_meters":35200,"station_id":"ce4bhm12rcd13ifvqgkg","pricing_plan_id":"cebpf4jnsgd1na2vs0mg"},{"bike_id":"b05ec1f3-c6b1-4e0f-9405-11d78a58ee18","system_id":"levelo_inurba_marseille","lat":43.21347,"lon":5.34936,"is_reserved":false,"is_disabled":false,"rental_uris":{"android":"levelo://app?vid=b05ec1f3-c6b1-4e0f-9405-11d78a58ee18","ios":"levelo://app?vid=b05ec1f3-c6b1-4e0f-9405-11d78a58ee18"},"vehicle_type_id":"4","last_reported":1728227327,"current_range_meters":28400,"station_id":"crv51consjfaj9uu89c0","pricing_plan_id":"cebpf4jnsgd1na2vs0mg"},{"bike_id":"f11dd066-6b94-4d0b-8a87-cb59e5dabda0","system_id":"levelo_inurba_marseille","lat":43.3128,"lon":5.40178,"is_reserved":false,"is_disabled":false,"rental_uris":{"android":"levelo://app?vid=f11dd066-6b94-4d0b-8a87-cb59e5dabda0","ios":"levelo://app?vid=f11dd066-6b94-4d0b-8a87-cb59e5dabda0"},"vehicle_type_id":"4","last_reported":1728227327,"current_range_meters":39200,"station_id":"ce4bh092rcd13ifvqd30","pricing_plan_id":"cebpf4jnsgd1na2vs0mg"},{"bike_id":"8d4fe74b-7d0a-4fa2-887e-e1fb593aca6e","system_id":"levelo_inurba_marseille","lat":43.30882,"lon":5.39633,"is_reserved":false,"is_disabled":false,"rental_uris":{"android":"levelo://app?vid=8d4fe74b-7d0a-4fa2-887e-e1fb593aca6e","ios":"levelo://app?vid=8d4fe74b-7d0a-4fa2-887e-e1fb593aca6e"},"vehicle_type_id":"4","last_reported":1728227327,"current_range_meters":37600,"station_id":"ce4bh012rcd13ifvqcv0","pricing_plan_id":"cebpf4jnsgd1na2vs0mg"},{"bike_id":"25e81eef-b9ea-4b4d-bf5f-af41e3b53100","system_id":"levelo_inurba_marseille","lat":43.29961,"lon":5.41323,"is_reserved":false,"is_disabled":false,"rental_uris":{"android":"levelo://app?vid=25e81eef-b9ea-4b4d-bf5f-af41e3b53100","ios":"levelo://app?vid=25e81eef-b9ea-4b4d-bf5f-af41e3b53100"},"vehicle_type_id":"4","last_reported":1728227327,"current_range_meters":38800,"station_id":"ce4bhp12rcd13ifvqh9g","pricing_plan_id":"cebpf4jnsgd1na2vs0mg"},{"bike_id":"249ba857-c21a-4cf9-b612-6eace3a3311f","system_id":"levelo_inurba_marseille","lat":43.27067,"lon":5.42272,"is_reserved":false,"is_disabled":false,"rental_uris":{"android":"levelo://app?vid=249ba857-c21a-4cf9-b612-6eace3a3311f","ios":"levelo://app?vid=249ba857-c21a-4cf9-b612-6eace3a3311f"},"vehicle_type_id":"4","last_reported":1728227327,"current_range_meters":25600,"station_id":"ce4bhk92rcd13ifvqgb0","pricing_plan_id":"cebpf4jnsgd1na2vs0mg"},{"bike_id":"32ab325a-0e98-4bb3-809c-c26d46577549","system_id":"levelo_inurba_marseille","lat":43.22936,"lon":5.35375,"is_reserved":false,"is_disabled":false,"rental_uris":{"android":"levelo://app?vid=32ab325a-0e98-4bb3-809c-c26d46577549","ios":"levelo://app?vid=32ab325a-0e98-4bb3-809c-c26d46577549"},"vehicle_type_id":"4","last_reported":1728227327,"current_range_meters":26000,"station_id":"cpo3532slgdg3j2ikp40","pricing_plan_id":"cebpf4jnsgd1na2vs0mg"},{"bike_id":"21814611-01da-4a56-bde2-76253f0cdaa1","system_id":"levelo_inurba_marseille","lat":43.27067,"lon":5.42276,"is_reserved":false,"is_disabled":false,"rental_uris":{"android":"levelo://app?vid=21814611-01da-4a56-bde2-76253f0cdaa1","ios":"levelo://app?vid=21814611-01da-4a56-bde2-76253f0cdaa1"},"vehicle_type_id":"4","last_reported":1728227327,"current_range_meters":25600,"station_id":"ce4bhk92rcd13ifvqgb0","pricing_plan_id":"cebpf4jnsgd1na2vs0mg"},{"bike_id":"0e1b4cf9-b8e7-4d03-a8d5-ecebd03db134","system_id":"levelo_inurba_marseille","lat":43.29526,"lon":5.39035,"is_reserved":false,"is_disabled":false,"rental_uris":{"android":"levelo://app?vid=0e1b4cf9-b8e7-4d03-a8d5-ecebd03db134","ios":"levelo://app?vid=0e1b4cf9-b8e7-4d03-a8d5-ecebd03db134"},"vehicle_type_id":"4","last_reported":1728227327,"current_range_meters":32800,"station_id":"ce4bh3p2rcd13ifvqdp0","pricing_plan_id":"cebpf4jnsgd1na2vs0mg"},{"bike_id":"2c50a4c3-cac0-4218-a3be-a52a5167ebb7","system_id":"levelo_inurba_marseille","lat":43.26941,"lon":5.4025,"is_reserved":false,"is_disabled":false,"rental_uris":{"android":"levelo://app?vid=2c50a4c3-cac0-4218-a3be-a52a5167ebb7","ios":"levelo://app?vid=2c50a4c3-cac0-4218-a3be-a52a5167ebb7"},"vehicle_type_id":"4","last_reported":1728227327,"current_range_meters":22000,"station_id":"cjm6bp8fraef2m0cb0m0","pricing_plan_id":"cebpf4jnsgd1na2vs0mg"},{"bike_id":"03ebdfef-60b9-4383-b780-f6e10ef5dff9","system_id":"levelo_inurba_marseille","lat":43.3375,"lon":5.37445,"is_reserved":false,"is_disabled":false,"rental_uris":{"android":"levelo://app?vid=03ebdfef-60b9-4383-b780-f6e10ef5dff9","ios":"levelo://app?vid=03ebdfef-60b9-4383-b780-f6e10ef5dff9"},"vehicle_type_id":"4","last_reported":1728227327,"current_range_meters":27200,"station_id":"","pricing_plan_id":"cebpf4jnsgd1na2vs0mg"},{"bike_id":"8c4ede2a-8479-4951-912b-e9104b176599","system_id":"levelo_inurba_marseille","lat":43.337258,"lon":5.39191,"is_reserved":false,"is_disabled":false,"rental_uris":{"android":"levelo://app?vid=8c4ede2a-8479-4951-912b-e9104b176599","ios":"levelo://app?vid=8c4ede2a-8479-4951-912b-e9104b176599"},"vehicle_type_id":"4","last_reported":1728227327,"current_range_meters":7200,"station_id":"ce4bhr92rcd13ifvqhsg","pricing_plan_id":"cebpf4jnsgd1na2vs0mg"},{"bike_id":"e68fc95d-dea2-4c61-944a-dcbd9adfd712","system_id":"levelo_inurba_marseille","lat":43.30426,"lon":5.38886,"is_reserved":false,"is_disabled":false,"rental_uris":{"android":"levelo://app?vid=e68fc95d-dea2-4c61-944a-dcbd9adfd712","ios":"levelo://app?vid=e68fc95d-dea2-4c61-944a-dcbd9adfd712"},"vehicle_type_id":"4","last_reported":1728227327,"current_range_meters":18000,"station_id":"ce4bgk12rcd13ifvqbi0","pricing_plan_id":"cebpf4jnsgd1na2vs0mg"},{"bike_id":"5ca41bc0-5307-4c8d-943a-2c85c1ade4f0","system_id":"levelo_inurba_marseille","lat":43.3247,"lon":5.36566,"is_reserved":false,"is_disabled":false,"rental_uris":{"android":"levelo://app?vid=5ca41bc0-5307-4c8d-943a-2c85c1ade4f0","ios":"levelo://app?vid=5ca41bc0-5307-4c8d-943a-2c85c1ade4f0"},"vehicle_type_id":"4","last_reported":1728227327,"current_range_meters":18800,"station_id":"ce4bhs12rcd13ifvqhvg","pricing_plan_id":"cebpf4jnsgd1na2vs0mg"},{"bike_id":"4018fa26-9a2a-4214-af21-76b3667a940b","system_id":"levelo_inurba_marseille","lat":43.3377,"lon":5.37441,"is_reserved":false,"is_disabled":false,"rental_uris":{"android":"levelo://app?vid=4018fa26-9a2a-4214-af21-76b3667a940b","ios":"levelo://app?vid=4018fa26-9a2a-4214-af21-76b3667a940b"},"vehicle_type_id":"4","last_reported":1728227327,"current_range_meters":27600,"station_id":"","pricing_plan_id":"cebpf4jnsgd1na2vs0mg"},{"bike_id":"47eac1fe-2ca6-4418-8b2f-3564461491d6","system_id":"levelo_inurba_marseille","lat":43.262065,"lon":5.379336,"is_reserved":false,"is_disabled":false,"rental_uris":{"android":"levelo://app?vid=47eac1fe-2ca6-4418-8b2f-3564461491d6","ios":"levelo://app?vid=47eac1fe-2ca6-4418-8b2f-3564461491d6"},"vehicle_type_id":"4","last_reported":1728227327,"current_range_meters":28400,"station_id":"ce4bhjp2rcd13ifvqg90","pricing_plan_id":"cebpf4jnsgd1na2vs0mg"},{"bike_id":"35db5aab-a536-4286-87d7-90ec43783f24","system_id":"levelo_inurba_marseille","lat":43.231967,"lon":5.355481,"is_reserved":false,"is_disabled":false,"rental_uris":{"android":"levelo://app?vid=35db5aab-a536-4286-87d7-90ec43783f24","ios":"levelo://app?vid=35db5aab-a536-4286-87d7-90ec43783f24"},"vehicle_type_id":"4","last_reported":1728227327,"current_range_meters":38800,"station_id":"ce4bhu92rcd13ifvqi70","pricing_plan_id":"cebpf4jnsgd1na2vs0mg"},{"bike_id":"ac7477e2-647f-4698-b2f1-05ac6bd7ca79","system_id":"levelo_inurba_marseille","lat":43.27364,"lon":5.36241,"is_reserved":false,"is_disabled":false,"rental_uris":{"android":"levelo://app?vid=ac7477e2-647f-4698-b2f1-05ac6bd7ca79","ios":"levelo://app?vid=ac7477e2-647f-4698-b2f1-05ac6bd7ca79"},"vehicle_type_id":"4","last_reported":1728227327,"current_range_meters":32800,"station_id":"ce4bhbh2rcd13ifvqeo0","pricing_plan_id":"cebpf4jnsgd1na2vs0mg"},{"bike_id":"abd0dc25-a0d5-41a3-88ed-f7bbbf985f29","system_id":"levelo_inurba_marseille","lat":43.29002,"lon":5.35608,"is_reserved":false,"is_disabled":false,"rental_uris":{"android":"levelo://app?vid=abd0dc25-a0d5-41a3-88ed-f7bbbf985f29","ios":"levelo://app?vid=abd0dc25-a0d5-41a3-88ed-f7bbbf985f29"},"vehicle_type_id":"4","last_reported":1728227327,"current_range_meters":9600,"station_id":"ce4bhb92rcd13ifvqen0","pricing_plan_id":"cebpf4jnsgd1na2vs0mg"},{"bike_id":"0374933b-f1a9-4176-ba54-2bb9dbb911a4","system_id":"levelo_inurba_marseille","lat":43.31485,"lon":5.37307,"is_reserved":false,"is_disabled":false,"rental_uris":{"android":"levelo://app?vid=0374933b-f1a9-4176-ba54-2bb9dbb911a4","ios":"levelo://app?vid=0374933b-f1a9-4176-ba54-2bb9dbb911a4"},"vehicle_type_id":"4","last_reported":1728227327,"current_range_meters":38800,"station_id":"ce4bgt12rcd13ifvqcd0","pricing_plan_id":"cebpf4jnsgd1na2vs0mg"},{"bike_id":"4fc4f594-dcf5-420f-b7c1-41b0c9f93889","system_id":"levelo_inurba_marseille","lat":43.283508,"lon":5.380988,"is_reserved":false,"is_disabled":false,"rental_uris":{"android":"levelo://app?vid=4fc4f594-dcf5-420f-b7c1-41b0c9f93889","ios":"levelo://app?vid=4fc4f594-dcf5-420f-b7c1-41b0c9f93889"},"vehicle_type_id":"4","last_reported":1728227327,"current_range_meters":38800,"station_id":"ce4bh412rcd13ifvqdr0","pricing_plan_id":"cebpf4jnsgd1na2vs0mg"},{"bike_id":"aecb6a9e-bafd-42bb-b8d9-56111310f32e","system_id":"levelo_inurba_marseille","lat":43.26807,"lon":5.40266,"is_reserved":false,"is_disabled":false,"rental_uris":{"android":"levelo://app?vid=aecb6a9e-bafd-42bb-b8d9-56111310f32e","ios":"levelo://app?vid=aecb6a9e-bafd-42bb-b8d9-56111310f32e"},"vehicle_type_id":"4","last_reported":1728227327,"current_range_meters":26000,"station_id":"ce501612rcd8frsf0b60","pricing_plan_id":"cebpf4jnsgd1na2vs0mg"},{"bike_id":"491813ec-5bcd-4eda-acb2-c01ccb4e9894","system_id":"levelo_inurba_marseille","lat":43.33766,"lon":5.37457,"is_reserved":false,"is_disabled":false,"rental_uris":{"android":"levelo://app?vid=491813ec-5bcd-4eda-acb2-c01ccb4e9894","ios":"levelo://app?vid=491813ec-5bcd-4eda-acb2-c01ccb4e9894"},"vehicle_type_id":"4","last_reported":1728227327,"current_range_meters":26800,"station_id":"","pricing_plan_id":"cebpf4jnsgd1na2vs0mg"},{"bike_id":"09c2f683-dba8-4ea1-82a9-dff2d4638475","system_id":"levelo_inurba_marseille","lat":43.29366,"lon":5.40619,"is_reserved":false,"is_disabled":false,"rental_uris":{"android":"levelo://app?vid=09c2f683-dba8-4ea1-82a9-dff2d4638475","ios":"levelo://app?vid=09c2f683-dba8-4ea1-82a9-dff2d4638475"},"vehicle_type_id":"4","last_reported":1728227327,"current_range_meters":12400,"station_id":"ce4bh192rcd13ifvqdc0","pricing_plan_id":"cebpf4jnsgd1na2vs0mg"},{"bike_id":"8066cbd9-6f5f-4c8b-82e0-670217342883","system_id":"levelo_inurba_marseille","lat":43.21345,"lon":5.34938,"is_reserved":false,"is_disabled":false,"rental_uris":{"android":"levelo://app?vid=8066cbd9-6f5f-4c8b-82e0-670217342883","ios":"levelo://app?vid=8066cbd9-6f5f-4c8b-82e0-670217342883"},"vehicle_type_id":"4","last_reported":1728227327,"current_range_meters":32800,"station_id":"crv51consjfaj9uu89c0","pricing_plan_id":"cebpf4jnsgd1na2vs0mg"},{"bike_id":"870ecdbf-3528-4277-82a5-269de3374c1c","system_id":"levelo_inurba_marseille","lat":43.27069,"lon":5.42274,"is_reserved":false,"is_disabled":false,"rental_uris":{"android":"levelo://app?vid=870ecdbf-3528-4277-82a5-269de3374c1c","ios":"levelo://app?vid=870ecdbf-3528-4277-82a5-269de3374c1c"},"vehicle_type_id":"4","last_reported":1728227327,"current_range_meters":38800,"station_id":"ce4bhk92rcd13ifvqgb0","pricing_plan_id":"cebpf4jnsgd1na2vs0mg"},{"bike_id":"9c621486-2581-4a4b-9c7d-352711efe4f3","system_id":"levelo_inurba_marseille","lat":43.30928,"lon":5.40387,"is_reserved":false,"is_disabled":false,"rental_uris":{"android":"levelo://app?vid=9c621486-2581-4a4b-9c7d-352711efe4f3","ios":"levelo://app?vid=9c621486-2581-4a4b-9c7d-352711efe4f3"},"vehicle_type_id":"4","last_reported":1728227327,"current_range_meters":31200,"station_id":"ce4bgvp2rcd13ifvqct0","pricing_plan_id":"cebpf4jnsgd1na2vs0mg"},{"bike_id":"baba7691-81ff-4c7d-90d9-c89eba9696cb","system_id":"levelo_inurba_marseille","lat":43.25928,"lon":5.40908,"is_reserved":false,"is_disabled":false,"rental_uris":{"android":"levelo://app?vid=baba7691-81ff-4c7d-90d9-c89eba9696cb","ios":"levelo://app?vid=baba7691-81ff-4c7d-90d9-c89eba9696cb"},"vehicle_type_id":"4","last_reported":1728227327,"current_range_meters":31200,"station_id":"ce4bhm92rcd13ifvqglg","pricing_plan_id":"cebpf4jnsgd1na2vs0mg"},{"bike_id":"a6007e39-eafe-4c4f-8bcd-ba3040fddf98","system_id":"levelo_inurba_marseille","lat":43.29272,"lon":5.36844,"is_reserved":false,"is_disabled":false,"rental_uris":{"android":"levelo://app?vid=a6007e39-eafe-4c4f-8bcd-ba3040fddf98","ios":"levelo://app?vid=a6007e39-eafe-4c4f-8bcd-ba3040fddf98"},"vehicle_type_id":"4","last_reported":1728227327,"current_range_meters":19200,"station_id":"ce4bhbp2rcd13ifvqesg","pricing_plan_id":"cebpf4jnsgd1na2vs0mg"},{"bike_id":"b1a3ef60-5247-44ce-a767-17e924b03558","system_id":"levelo_inurba_marseille","lat":43.27375,"lon":5.36255,"is_reserved":false,"is_disabled":false,"rental_uris":{"android":"levelo://app?vid=b1a3ef60-5247-44ce-a767-17e924b03558","ios":"levelo://app?vid=b1a3ef60-5247-44ce-a767-17e924b03558"},"vehicle_type_id":"4","last_reported":1728227327,"current_range_meters":28000,"station_id":"ce4bhbh2rcd13ifvqeo0","pricing_plan_id":"cebpf4jnsgd1na2vs0mg"},{"bike_id":"53b1d9ea-5980-4374-a540-6eb4ad55bfcc","system_id":"levelo_inurba_marseille","lat":43.30146,"lon":5.38076,"is_reserved":false,"is_disabled":false,"rental_uris":{"android":"levelo://app?vid=53b1d9ea-5980-4374-a540-6eb4ad55bfcc","ios":"levelo://app?vid=53b1d9ea-5980-4374-a540-6eb4ad55bfcc"},"vehicle_type_id":"4","last_reported":1728227327,"current_range_meters":38000,"station_id":"ce4bgjp2rcd13ifvqbh0","pricing_plan_id":"cebpf4jnsgd1na2vs0mg"},{"bike_id":"652d3e3b-f6cc-4522-9559-a16095486633","system_id":"levelo_inurba_marseille","lat":43.24649,"lon":5.38895,"is_reserved":false,"is_disabled":false,"rental_uris":{"android":"levelo://app?vid=652d3e3b-f6cc-4522-9559-a16095486633","ios":"levelo://app?vid=652d3e3b-f6cc-4522-9559-a16095486633"},"vehicle_type_id":"4","last_reported":1728227327,"current_range_meters":16000,"station_id":"ce4bhg12rcd13ifvqf60","pricing_plan_id":"cebpf4jnsgd1na2vs0mg"},{"bike_id":"d23ddbe4-840b-4d6d-8e13-a20922334a77","system_id":"levelo_inurba_marseille","lat":43.32478,"lon":5.36557,"is_reserved":false,"is_disabled":false,"rental_uris":{"android":"levelo://app?vid=d23ddbe4-840b-4d6d-8e13-a20922334a77","ios":"levelo://app?vid=d23ddbe4-840b-4d6d-8e13-a20922334a77"},"vehicle_type_id":"4","last_reported":1728227327,"current_range_meters":39200,"station_id":"ce4bhs12rcd13ifvqhvg","pricing_plan_id":"cebpf4jnsgd1na2vs0mg"},{"bike_id":"6ae7d0e0-1623-4439-8d68-fec3c5db110c","system_id":"levelo_inurba_marseille","lat":43.22932,"lon":5.35378,"is_reserved":false,"is_disabled":false,"rental_uris":{"android":"levelo://app?vid=6ae7d0e0-1623-4439-8d68-fec3c5db110c","ios":"levelo://app?vid=6ae7d0e0-1623-4439-8d68-fec3c5db110c"},"vehicle_type_id":"4","last_reported":1728227327,"current_range_meters":36400,"station_id":"cpo3532slgdg3j2ikp40","pricing_plan_id":"cebpf4jnsgd1na2vs0mg"},{"bike_id":"4af55307-045f-4c66-a045-a91d88bb4c16","system_id":"levelo_inurba_marseille","lat":43.22931,"lon":5.35376,"is_reserved":false,"is_disabled":false,"rental_uris":{"android":"levelo://app?vid=4af55307-045f-4c66-a045-a91d88bb4c16","ios":"levelo://app?vid=4af55307-045f-4c66-a045-a91d88bb4c16"},"vehicle_type_id":"4","last_reported":1728227327,"current_range_meters":30400,"station_id":"cpo3532slgdg3j2ikp40","pricing_plan_id":"cebpf4jnsgd1na2vs0mg"},{"bike_id":"20a57e0e-4b67-4cae-9e1a-94ea5b424eca","system_id":"levelo_inurba_marseille","lat":43.30883,"lon":5.39652,"is_reserved":false,"is_disabled":false,"rental_uris":{"android":"levelo://app?vid=20a57e0e-4b67-4cae-9e1a-94ea5b424eca","ios":"levelo://app?vid=20a57e0e-4b67-4cae-9e1a-94ea5b424eca"},"vehicle_type_id":"4","last_reported":1728227327,"current_range_meters":30400,"station_id":"ce4bh012rcd13ifvqcv0","pricing_plan_id":"cebpf4jnsgd1na2vs0mg"},{"bike_id":"13a35d1a-1c21-4cdd-9282-17040c700716","system_id":"levelo_inurba_marseille","lat":43.32542,"lon":5.41442,"is_reserved":false,"is_disabled":false,"rental_uris":{"android":"levelo://app?vid=13a35d1a-1c21-4cdd-9282-17040c700716","ios":"levelo://app?vid=13a35d1a-1c21-4cdd-9282-17040c700716"},"vehicle_type_id":"4","last_reported":1728227327,"current_range_meters":34000,"station_id":"ce4bhq12rcd13ifvqhhg","pricing_plan_id":"cebpf4jnsgd1na2vs0mg"},{"bike_id":"e31a018d-ca7b-4e1a-b4ca-b3c48f1b98ae","system_id":"levelo_inurba_marseille","lat":43.30272,"lon":5.37706,"is_reserved":false,"is_disabled":false,"rental_uris":{"android":"levelo://app?vid=e31a018d-ca7b-4e1a-b4ca-b3c48f1b98ae","ios":"levelo://app?vid=e31a018d-ca7b-4e1a-b4ca-b3c48f1b98ae"},"vehicle_type_id":"4","last_reported":1728227327,"current_range_meters":23200,"station_id":"ce4bguh2rcd13ifvqcj0","pricing_plan_id":"cebpf4jnsgd1na2vs0mg"},{"bike_id":"265b6257-cac5-4700-be81-5022c39ebf02","system_id":"levelo_inurba_marseille","lat":43.21346,"lon":5.3494,"is_reserved":false,"is_disabled":false,"rental_uris":{"android":"levelo://app?vid=265b6257-cac5-4700-be81-5022c39ebf02","ios":"levelo://app?vid=265b6257-cac5-4700-be81-5022c39ebf02"},"vehicle_type_id":"4","last_reported":1728227327,"current_range_meters":32000,"station_id":"crv51consjfaj9uu89c0","pricing_plan_id":"cebpf4jnsgd1na2vs0mg"},{"bike_id":"79a30a07-81d5-4fba-9bdc-0528f8f010ae","system_id":"levelo_inurba_marseille","lat":43.2511,"lon":5.40331,"is_reserved":false,"is_disabled":false,"rental_uris":{"android":"levelo://app?vid=79a30a07-81d5-4fba-9bdc-0528f8f010ae","ios":"levelo://app?vid=79a30a07-81d5-4fba-9bdc-0528f8f010ae"},"vehicle_type_id":"4","last_reported":1728227327,"current_range_meters":20800,"station_id":"ce4bhlh2rcd13ifvqgig","pricing_plan_id":"cebpf4jnsgd1na2vs0mg"},{"bike_id":"97ef281f-c717-429c-a078-d6a368902950","system_id":"levelo_inurba_marseille","lat":43.21347,"lon":5.34941,"is_reserved":false,"is_disabled":false,"rental_uris":{"android":"levelo://app?vid=97ef281f-c717-429c-a078-d6a368902950","ios":"levelo://app?vid=97ef281f-c717-429c-a078-d6a368902950"},"vehicle_type_id":"4","last_reported":1728227327,"current_range_meters":24400,"station_id":"crv51consjfaj9uu89c0","pricing_plan_id":"cebpf4jnsgd1na2vs0mg"},{"bike_id":"95742baa-b124-4b5a-8cd9-cc5d271511f7","system_id":"levelo_inurba_marseille","lat":43.29849,"lon":5.36279,"is_reserved":false,"is_disabled":false,"rental_uris":{"android":"levelo://app?vid=95742baa-b124-4b5a-8cd9-cc5d271511f7","ios":"levelo://app?vid=95742baa-b124-4b5a-8cd9-cc5d271511f7"},"vehicle_type_id":"4","last_reported":1728227327,"current_range_meters":16800,"station_id":"ce4bgpp2rcd13ifvqc3g","pricing_plan_id":"cebpf4jnsgd1na2vs0mg"},{"bike_id":"a2f3ad24-a1b9-4ff9-8d55-220247fd22c8","system_id":"levelo_inurba_marseille","lat":43.31705,"lon":5.4371,"is_reserved":false,"is_disabled":false,"rental_uris":{"android":"levelo://app?vid=a2f3ad24-a1b9-4ff9-8d55-220247fd22c8","ios":"levelo://app?vid=a2f3ad24-a1b9-4ff9-8d55-220247fd22c8"},"vehicle_type_id":"4","last_reported":1728227327,"current_range_meters":24800,"station_id":"ce4bhp92rcd13ifvqhcg","pricing_plan_id":"cebpf4jnsgd1na2vs0mg"},{"bike_id":"23860757-7352-4f6d-bd82-08ba559867c5","system_id":"levelo_inurba_marseille","lat":43.24802,"lon":5.37447,"is_reserved":false,"is_disabled":false,"rental_uris":{"android":"levelo://app?vid=23860757-7352-4f6d-bd82-08ba559867c5","ios":"levelo://app?vid=23860757-7352-4f6d-bd82-08ba559867c5"},"vehicle_type_id":"4","last_reported":1728227327,"current_range_meters":21600,"station_id":"ce4bhgh2rcd13ifvqfb0","pricing_plan_id":"cebpf4jnsgd1na2vs0mg"},{"bike_id":"a7a7407c-8443-44ce-b4a7-88a5a677fa54","system_id":"levelo_inurba_marseille","lat":43.22922,"lon":5.35384,"is_reserved":false,"is_disabled":false,"rental_uris":{"android":"levelo://app?vid=a7a7407c-8443-44ce-b4a7-88a5a677fa54","ios":"levelo://app?vid=a7a7407c-8443-44ce-b4a7-88a5a677fa54"},"vehicle_type_id":"4","last_reported":1728227327,"current_range_meters":38800,"station_id":"cpo3532slgdg3j2ikp40","pricing_plan_id":"cebpf4jnsgd1na2vs0mg"},{"bike_id":"304f0f46-778c-4448-8270-d4d4de7ea60c","system_id":"levelo_inurba_marseille","lat":43.27912,"lon":5.39571,"is_reserved":false,"is_disabled":false,"rental_uris":{"android":"levelo://app?vid=304f0f46-778c-4448-8270-d4d4de7ea60c","ios":"levelo://app?vid=304f0f46-778c-4448-8270-d4d4de7ea60c"},"vehicle_type_id":"4","last_reported":1728227327,"current_range_meters":14400,"station_id":"ce4bhf92rcd13ifvqf40","pricing_plan_id":"cebpf4jnsgd1na2vs0mg"},{"bike_id":"9a6bd430-4413-454d-9f09-99c37daee555","system_id":"levelo_inurba_marseille","lat":43.26938,"lon":5.40256,"is_reserved":false,"is_disabled":false,"rental_uris":{"android":"levelo://app?vid=9a6bd430-4413-454d-9f09-99c37daee555","ios":"levelo://app?vid=9a6bd430-4413-454d-9f09-99c37daee555"},"vehicle_type_id":"4","last_reported":1728227327,"current_range_meters":2000,"station_id":"cjm6bp8fraef2m0cb0m0","pricing_plan_id":"cebpf4jnsgd1na2vs0mg"},{"bike_id":"f10bcf9c-7781-43e3-be22-9f945d1ddcd6","system_id":"levelo_inurba_marseille","lat":43.31715,"lon":5.43708,"is_reserved":false,"is_disabled":false,"rental_uris":{"android":"levelo://app?vid=f10bcf9c-7781-43e3-be22-9f945d1ddcd6","ios":"levelo://app?vid=f10bcf9c-7781-43e3-be22-9f945d1ddcd6"},"vehicle_type_id":"4","last_reported":1728227327,"current_range_meters":26000,"station_id":"ce4bhp92rcd13ifvqhcg","pricing_plan_id":"cebpf4jnsgd1na2vs0mg"},{"bike_id":"b115519d-43be-4b63-afb0-d6371cff0a3c","system_id":"levelo_inurba_marseille","lat":43.21349,"lon":5.34935,"is_reserved":false,"is_disabled":false,"rental_uris":{"android":"levelo://app?vid=b115519d-43be-4b63-afb0-d6371cff0a3c","ios":"levelo://app?vid=b115519d-43be-4b63-afb0-d6371cff0a3c"},"vehicle_type_id":"4","last_reported":1728227327,"current_range_meters":12800,"station_id":"crv51consjfaj9uu89c0","pricing_plan_id":"cebpf4jnsgd1na2vs0mg"},{"bike_id":"05ddab4b-2219-453e-b9f6-9211ae63c830","system_id":"levelo_inurba_marseille","lat":43.21343,"lon":5.34943,"is_reserved":false,"is_disabled":false,"rental_uris":{"android":"levelo://app?vid=05ddab4b-2219-453e-b9f6-9211ae63c830","ios":"levelo://app?vid=05ddab4b-2219-453e-b9f6-9211ae63c830"},"vehicle_type_id":"4","last_reported":1728227327,"current_range_meters":32800,"station_id":"crv51consjfaj9uu89c0","pricing_plan_id":"cebpf4jnsgd1na2vs0mg"},{"bike_id":"3bb22d98-6c25-498e-9920-a57c029f9479","system_id":"levelo_inurba_marseille","lat":43.31482,"lon":5.37309,"is_reserved":false,"is_disabled":false,"rental_uris":{"android":"levelo://app?vid=3bb22d98-6c25-498e-9920-a57c029f9479","ios":"levelo://app?vid=3bb22d98-6c25-498e-9920-a57c029f9479"},"vehicle_type_id":"4","last_reported":1728227327,"current_range_meters":32400,"station_id":"ce4bgt12rcd13ifvqcd0","pricing_plan_id":"cebpf4jnsgd1na2vs0mg"},{"bike_id":"99e7a2d1-3701-458c-a4df-51b9cd0aea95","system_id":"levelo_inurba_marseille","lat":43.2657,"lon":5.39007,"is_reserved":false,"is_disabled":false,"rental_uris":{"android":"levelo://app?vid=99e7a2d1-3701-458c-a4df-51b9cd0aea95","ios":"levelo://app?vid=99e7a2d1-3701-458c-a4df-51b9cd0aea95"},"vehicle_type_id":"4","last_reported":1728227327,"current_range_meters":35600,"station_id":"ce4bhe12rcd13ifvqf30","pricing_plan_id":"cebpf4jnsgd1na2vs0mg"},{"bike_id":"eaceb183-67bf-4fb9-bd40-4d01e8d4908e","system_id":"levelo_inurba_marseille","lat":43.24178,"lon":5.39732,"is_reserved":false,"is_disabled":false,"rental_uris":{"android":"levelo://app?vid=eaceb183-67bf-4fb9-bd40-4d01e8d4908e","ios":"levelo://app?vid=eaceb183-67bf-4fb9-bd40-4d01e8d4908e"},"vehicle_type_id":"4","last_reported":1728227327,"current_range_meters":38800,"station_id":"ce4bhn12rcd13ifvqgpg","pricing_plan_id":"cebpf4jnsgd1na2vs0mg"},{"bike_id":"d0ca1193-12e8-4ac2-9a60-4ae6e0040151","system_id":"levelo_inurba_marseille","lat":43.2294,"lon":5.35379,"is_reserved":false,"is_disabled":false,"rental_uris":{"android":"levelo://app?vid=d0ca1193-12e8-4ac2-9a60-4ae6e0040151","ios":"levelo://app?vid=d0ca1193-12e8-4ac2-9a60-4ae6e0040151"},"vehicle_type_id":"4","last_reported":1728227327,"current_range_meters":27600,"station_id":"cpo3532slgdg3j2ikp40","pricing_plan_id":"cebpf4jnsgd1na2vs0mg"},{"bike_id":"262bea17-bd5c-4c2a-83e5-df663f3772fa","system_id":"levelo_inurba_marseille","lat":43.28615,"lon":5.35104,"is_reserved":false,"is_disabled":false,"rental_uris":{"android":"levelo://app?vid=262bea17-bd5c-4c2a-83e5-df663f3772fa","ios":"levelo://app?vid=262bea17-bd5c-4c2a-83e5-df663f3772fa"},"vehicle_type_id":"4","last_reported":1728227327,"current_range_meters":6400,"station_id":"ce4bhch2rcd13ifvqeug","pricing_plan_id":"cebpf4jnsgd1na2vs0mg"},{"bike_id":"6407b479-b396-4c54-b65c-1df4d77faf38","system_id":"levelo_inurba_marseille","lat":43.25084,"lon":5.3952,"is_reserved":false,"is_disabled":false,"rental_uris":{"android":"levelo://app?vid=6407b479-b396-4c54-b65c-1df4d77faf38","ios":"levelo://app?vid=6407b479-b396-4c54-b65c-1df4d77faf38"},"vehicle_type_id":"4","last_reported":1728227327,"current_range_meters":28000,"station_id":"ce4bhm12rcd13ifvqgkg","pricing_plan_id":"cebpf4jnsgd1na2vs0mg"},{"bike_id":"8fd0d921-f5fc-47ca-be87-b3dc008f8f4b","system_id":"levelo_inurba_marseille","lat":43.29835,"lon":5.36263,"is_reserved":false,"is_disabled":false,"rental_uris":{"android":"levelo://app?vid=8fd0d921-f5fc-47ca-be87-b3dc008f8f4b","ios":"levelo://app?vid=8fd0d921-f5fc-47ca-be87-b3dc008f8f4b"},"vehicle_type_id":"4","last_reported":1728227327,"current_range_meters":18800,"station_id":"ce4bgpp2rcd13ifvqc3g","pricing_plan_id":"cebpf4jnsgd1na2vs0mg"},{"bike_id":"0cf1c726-2536-4ad0-9a31-efca1c5ba38e","system_id":"levelo_inurba_marseille","lat":43.26218,"lon":5.37439,"is_reserved":false,"is_disabled":false,"rental_uris":{"android":"levelo://app?vid=0cf1c726-2536-4ad0-9a31-efca1c5ba38e","ios":"levelo://app?vid=0cf1c726-2536-4ad0-9a31-efca1c5ba38e"},"vehicle_type_id":"4","last_reported":1728227327,"current_range_meters":19600,"station_id":"ce4bhgp2rcd13ifvqfc0","pricing_plan_id":"cebpf4jnsgd1na2vs0mg"},{"bike_id":"4f922fe2-4489-4b54-a5b1-7835b0165608","system_id":"levelo_inurba_marseille","lat":43.2694,"lon":5.40248,"is_reserved":false,"is_disabled":false,"rental_uris":{"android":"levelo://app?vid=4f922fe2-4489-4b54-a5b1-7835b0165608","ios":"levelo://app?vid=4f922fe2-4489-4b54-a5b1-7835b0165608"},"vehicle_type_id":"4","last_reported":1728227327,"current_range_meters":24400,"station_id":"cjm6bp8fraef2m0cb0m0","pricing_plan_id":"cebpf4jnsgd1na2vs0mg"},{"bike_id":"1bd2f7ec-d06e-4723-b3c8-18546fc91d7d","system_id":"levelo_inurba_marseille","lat":43.31268,"lon":5.4015,"is_reserved":false,"is_disabled":false,"rental_uris":{"android":"levelo://app?vid=1bd2f7ec-d06e-4723-b3c8-18546fc91d7d","ios":"levelo://app?vid=1bd2f7ec-d06e-4723-b3c8-18546fc91d7d"},"vehicle_type_id":"4","last_reported":1728227327,"current_range_meters":7200,"station_id":"ce4bh092rcd13ifvqd30","pricing_plan_id":"cebpf4jnsgd1na2vs0mg"},{"bike_id":"cf859ea4-43e9-4e93-b7f1-abd407171ec0","system_id":"levelo_inurba_marseille","lat":43.27812,"lon":5.40702,"is_reserved":false,"is_disabled":false,"rental_uris":{"android":"levelo://app?vid=cf859ea4-43e9-4e93-b7f1-abd407171ec0","ios":"levelo://app?vid=cf859ea4-43e9-4e93-b7f1-abd407171ec0"},"vehicle_type_id":"4","last_reported":1728227327,"current_range_meters":30400,"station_id":"ce4bhnh2rcd13ifvqgtg","pricing_plan_id":"cebpf4jnsgd1na2vs0mg"},{"bike_id":"f5a3a9c0-30a8-4ff7-bf1a-da1194b8e3fc","system_id":"levelo_inurba_marseille","lat":43.27323,"lon":5.39073,"is_reserved":false,"is_disabled":false,"rental_uris":{"android":"levelo://app?vid=f5a3a9c0-30a8-4ff7-bf1a-da1194b8e3fc","ios":"levelo://app?vid=f5a3a9c0-30a8-4ff7-bf1a-da1194b8e3fc"},"vehicle_type_id":"4","last_reported":1728227327,"current_range_meters":24000,"station_id":"ce4bhgp2rcd13ifvqfe0","pricing_plan_id":"cebpf4jnsgd1na2vs0mg"},{"bike_id":"7be128f4-ba12-493a-be99-11ef57463abf","system_id":"levelo_inurba_marseille","lat":43.21346,"lon":5.34938,"is_reserved":false,"is_disabled":false,"rental_uris":{"android":"levelo://app?vid=7be128f4-ba12-493a-be99-11ef57463abf","ios":"levelo://app?vid=7be128f4-ba12-493a-be99-11ef57463abf"},"vehicle_type_id":"4","last_reported":1728227327,"current_range_meters":6800,"station_id":"crv51consjfaj9uu89c0","pricing_plan_id":"cebpf4jnsgd1na2vs0mg"},{"bike_id":"64c7d91f-7f0c-4913-ab55-19df4984646d","system_id":"levelo_inurba_marseille","lat":43.26938,"lon":5.40259,"is_reserved":false,"is_disabled":false,"rental_uris":{"android":"levelo://app?vid=64c7d91f-7f0c-4913-ab55-19df4984646d","ios":"levelo://app?vid=64c7d91f-7f0c-4913-ab55-19df4984646d"},"vehicle_type_id":"4","last_reported":1728227327,"current_range_meters":7200,"station_id":"cjm6bp8fraef2m0cb0m0","pricing_plan_id":"cebpf4jnsgd1na2vs0mg"},{"bike_id":"d086db52-f5ac-4a66-b410-b0582731f0eb","system_id":"levelo_inurba_marseille","lat":43.28101,"lon":5.37833,"is_reserved":false,"is_disabled":false,"rental_uris":{"android":"levelo://app?vid=d086db52-f5ac-4a66-b410-b0582731f0eb","ios":"levelo://app?vid=d086db52-f5ac-4a66-b410-b0582731f0eb"},"vehicle_type_id":"4","last_reported":1728227327,"current_range_meters":17600,"station_id":"ce4bha12rcd13ifvqee0","pricing_plan_id":"cebpf4jnsgd1na2vs0mg"},{"bike_id":"1c6e8542-0efa-43bd-a17b-1a8ffeb5acdf","system_id":"levelo_inurba_marseille","lat":43.26558,"lon":5.39008,"is_reserved":false,"is_disabled":false,"rental_uris":{"android":"levelo://app?vid=1c6e8542-0efa-43bd-a17b-1a8ffeb5acdf","ios":"levelo://app?vid=1c6e8542-0efa-43bd-a17b-1a8ffeb5acdf"},"vehicle_type_id":"4","last_reported":1728227327,"current_range_meters":36400,"station_id":"ce4bhe12rcd13ifvqf30","pricing_plan_id":"cebpf4jnsgd1na2vs0mg"},{"bike_id":"15359e36-7625-4495-bc9d-c44f44e812ed","system_id":"levelo_inurba_marseille","lat":43.28032,"lon":5.36945,"is_reserved":false,"is_disabled":false,"rental_uris":{"android":"levelo://app?vid=15359e36-7625-4495-bc9d-c44f44e812ed","ios":"levelo://app?vid=15359e36-7625-4495-bc9d-c44f44e812ed"},"vehicle_type_id":"4","last_reported":1728227327,"current_range_meters":38800,"station_id":"ce4bha12rcd13ifvqef0","pricing_plan_id":"cebpf4jnsgd1na2vs0mg"},{"bike_id":"490889b1-cee9-4892-9db5-299333956c90","system_id":"levelo_inurba_marseille","lat":43.34134,"lon":5.40904,"is_reserved":false,"is_disabled":false,"rental_uris":{"android":"levelo://app?vid=490889b1-cee9-4892-9db5-299333956c90","ios":"levelo://app?vid=490889b1-cee9-4892-9db5-299333956c90"},"vehicle_type_id":"4","last_reported":1728227327,"current_range_meters":36800,"station_id":"ce4bhqh2rcd13ifvqhlg","pricing_plan_id":"cebpf4jnsgd1na2vs0mg"},{"bike_id":"c72cc8d3-03af-46bb-8793-a8b3874ae453","system_id":"levelo_inurba_marseille","lat":43.29625,"lon":5.40595,"is_reserved":false,"is_disabled":false,"rental_uris":{"android":"levelo://app?vid=c72cc8d3-03af-46bb-8793-a8b3874ae453","ios":"levelo://app?vid=c72cc8d3-03af-46bb-8793-a8b3874ae453"},"vehicle_type_id":"4","last_reported":1728227327,"current_range_meters":11600,"station_id":"ce4bh0h2rcd13ifvqd60","pricing_plan_id":"cebpf4jnsgd1na2vs0mg"},{"bike_id":"4378a0dd-7ddd-4246-9294-1e2af02e0700","system_id":"levelo_inurba_marseille","lat":43.23192,"lon":5.35547,"is_reserved":false,"is_disabled":false,"rental_uris":{"android":"levelo://app?vid=4378a0dd-7ddd-4246-9294-1e2af02e0700","ios":"levelo://app?vid=4378a0dd-7ddd-4246-9294-1e2af02e0700"},"vehicle_type_id":"4","last_reported":1728227327,"current_range_meters":8800,"station_id":"ce4bhu92rcd13ifvqi70","pricing_plan_id":"cebpf4jnsgd1na2vs0mg"},{"bike_id":"252d3a40-89a2-40a9-9d53-4920a33e1867","system_id":"levelo_inurba_marseille","lat":43.288116,"lon":5.372577,"is_reserved":false,"is_disabled":false,"rental_uris":{"android":"levelo://app?vid=252d3a40-89a2-40a9-9d53-4920a33e1867","ios":"levelo://app?vid=252d3a40-89a2-40a9-9d53-4920a33e1867"},"vehicle_type_id":"4","last_reported":1728227327,"current_range_meters":34800,"station_id":"ce4bh3p2rcd13ifvqdq0","pricing_plan_id":"cebpf4jnsgd1na2vs0mg"},{"bike_id":"cdc917cd-8609-4bab-8a00-197d50b2daa3","system_id":"levelo_inurba_marseille","lat":43.28609,"lon":5.37061,"is_reserved":false,"is_disabled":false,"rental_uris":{"android":"levelo://app?vid=cdc917cd-8609-4bab-8a00-197d50b2daa3","ios":"levelo://app?vid=cdc917cd-8609-4bab-8a00-197d50b2daa3"},"vehicle_type_id":"4","last_reported":1728227327,"current_range_meters":38800,"station_id":"ce4bht12rcd13ifvqi60","pricing_plan_id":"cebpf4jnsgd1na2vs0mg"},{"bike_id":"ab07b6c6-ac67-46b4-853b-616ba68332a0","system_id":"levelo_inurba_marseille","lat":43.213609,"lon":5.349306,"is_reserved":false,"is_disabled":false,"rental_uris":{"android":"levelo://app?vid=ab07b6c6-ac67-46b4-853b-616ba68332a0","ios":"levelo://app?vid=ab07b6c6-ac67-46b4-853b-616ba68332a0"},"vehicle_type_id":"4","last_reported":1728227327,"current_range_meters":38800,"station_id":"","pricing_plan_id":"cebpf4jnsgd1na2vs0mg"},{"bike_id":"256fa177-60ee-45a2-a2aa-de47baeac3b4","system_id":"levelo_inurba_marseille","lat":43.32207,"lon":5.41353,"is_reserved":false,"is_disabled":false,"rental_uris":{"android":"levelo://app?vid=256fa177-60ee-45a2-a2aa-de47baeac3b4","ios":"levelo://app?vid=256fa177-60ee-45a2-a2aa-de47baeac3b4"},"vehicle_type_id":"4","last_reported":1728227327,"current_range_meters":36800,"station_id":"","pricing_plan_id":"cebpf4jnsgd1na2vs0mg"},{"bike_id":"98fab8a1-a284-40da-8df2-14f71a37d57b","system_id":"levelo_inurba_marseille","lat":43.21344,"lon":5.34943,"is_reserved":false,"is_disabled":false,"rental_uris":{"android":"levelo://app?vid=98fab8a1-a284-40da-8df2-14f71a37d57b","ios":"levelo://app?vid=98fab8a1-a284-40da-8df2-14f71a37d57b"},"vehicle_type_id":"4","last_reported":1728227327,"current_range_meters":32000,"station_id":"crv51consjfaj9uu89c0","pricing_plan_id":"cebpf4jnsgd1na2vs0mg"},{"bike_id":"0ee98934-b4bc-4a40-ba5d-e6d4ace0f378","system_id":"levelo_inurba_marseille","lat":43.2655,"lon":5.37286,"is_reserved":false,"is_disabled":false,"rental_uris":{"android":"levelo://app?vid=0ee98934-b4bc-4a40-ba5d-e6d4ace0f378","ios":"levelo://app?vid=0ee98934-b4bc-4a40-ba5d-e6d4ace0f378"},"vehicle_type_id":"4","last_reported":1728227327,"current_range_meters":3200,"station_id":"ce4bhg12rcd13ifvqf70","pricing_plan_id":"cebpf4jnsgd1na2vs0mg"},{"bike_id":"93d45870-2e1c-4ed1-9664-7b219a4ed443","system_id":"levelo_inurba_marseille","lat":43.22931,"lon":5.35377,"is_reserved":false,"is_disabled":false,"rental_uris":{"android":"levelo://app?vid=93d45870-2e1c-4ed1-9664-7b219a4ed443","ios":"levelo://app?vid=93d45870-2e1c-4ed1-9664-7b219a4ed443"},"vehicle_type_id":"4","last_reported":1728227327,"current_range_meters":38800,"station_id":"cpo3532slgdg3j2ikp40","pricing_plan_id":"cebpf4jnsgd1na2vs0mg"},{"bike_id":"5aeff25a-4d20-416a-9046-72428cabc49c","system_id":"levelo_inurba_marseille","lat":43.32373,"lon":5.38885,"is_reserved":false,"is_disabled":false,"rental_uris":{"android":"levelo://app?vid=5aeff25a-4d20-416a-9046-72428cabc49c","ios":"levelo://app?vid=5aeff25a-4d20-416a-9046-72428cabc49c"},"vehicle_type_id":"4","last_reported":1728227327,"current_range_meters":14000,"station_id":"ce4bhqp2rcd13ifvqhog","pricing_plan_id":"cebpf4jnsgd1na2vs0mg"},{"bike_id":"09b6dc29-36dc-48a6-88c1-8d4f3ae3fdfc","system_id":"levelo_inurba_marseille","lat":43.29259,"lon":5.36845,"is_reserved":false,"is_disabled":false,"rental_uris":{"android":"levelo://app?vid=09b6dc29-36dc-48a6-88c1-8d4f3ae3fdfc","ios":"levelo://app?vid=09b6dc29-36dc-48a6-88c1-8d4f3ae3fdfc"},"vehicle_type_id":"4","last_reported":1728227327,"current_range_meters":16400,"station_id":"","pricing_plan_id":"cebpf4jnsgd1na2vs0mg"},{"bike_id":"04be3920-9d31-4079-ba02-7bb7aaa2596d","system_id":"levelo_inurba_marseille","lat":43.30907,"lon":5.36846,"is_reserved":false,"is_disabled":false,"rental_uris":{"android":"levelo://app?vid=04be3920-9d31-4079-ba02-7bb7aaa2596d","ios":"levelo://app?vid=04be3920-9d31-4079-ba02-7bb7aaa2596d"},"vehicle_type_id":"4","last_reported":1728227327,"current_range_meters":37600,"station_id":"ce4bgn92rcd13ifvqbvg","pricing_plan_id":"cebpf4jnsgd1na2vs0mg"},{"bike_id":"467f4dad-860b-40f5-b4ca-9e05ccc20611","system_id":"levelo_inurba_marseille","lat":43.30918,"lon":5.40134,"is_reserved":false,"is_disabled":false,"rental_uris":{"android":"levelo://app?vid=467f4dad-860b-40f5-b4ca-9e05ccc20611","ios":"levelo://app?vid=467f4dad-860b-40f5-b4ca-9e05ccc20611"},"vehicle_type_id":"4","last_reported":1728227327,"current_range_meters":37600,"station_id":"ce4bgvp2rcd13ifvqct0","pricing_plan_id":"cebpf4jnsgd1na2vs0mg"},{"bike_id":"95453364-1309-43ee-a838-e7ada96ed80c","system_id":"levelo_inurba_marseille","lat":43.28611,"lon":5.35106,"is_reserved":false,"is_disabled":false,"rental_uris":{"android":"levelo://app?vid=95453364-1309-43ee-a838-e7ada96ed80c","ios":"levelo://app?vid=95453364-1309-43ee-a838-e7ada96ed80c"},"vehicle_type_id":"4","last_reported":1728227327,"current_range_meters":32000,"station_id":"ce4bhch2rcd13ifvqeug","pricing_plan_id":"cebpf4jnsgd1na2vs0mg"},{"bike_id":"d171cd51-85e8-49f3-b223-7ac1c9e47e0b","system_id":"levelo_inurba_marseille","lat":43.29933,"lon":5.36551,"is_reserved":false,"is_disabled":false,"rental_uris":{"android":"levelo://app?vid=d171cd51-85e8-49f3-b223-7ac1c9e47e0b","ios":"levelo://app?vid=d171cd51-85e8-49f3-b223-7ac1c9e47e0b"},"vehicle_type_id":"4","last_reported":1728227327,"current_range_meters":20000,"station_id":"ce4bgm92rcd13ifvqbr0","pricing_plan_id":"cebpf4jnsgd1na2vs0mg"},{"bike_id":"e6f3280f-6dec-48f5-b564-5362bc54ce7a","system_id":"levelo_inurba_marseille","lat":43.29541,"lon":5.374677,"is_reserved":false,"is_disabled":false,"rental_uris":{"android":"levelo://app?vid=e6f3280f-6dec-48f5-b564-5362bc54ce7a","ios":"levelo://app?vid=e6f3280f-6dec-48f5-b564-5362bc54ce7a"},"vehicle_type_id":"4","last_reported":1728227327,"current_range_meters":33600,"station_id":"ce4bgkp2rcd13ifvqbmg","pricing_plan_id":"cebpf4jnsgd1na2vs0mg"},{"bike_id":"270b90ca-7521-4165-af49-e1c727e5fa34","system_id":"levelo_inurba_marseille","lat":43.21346,"lon":5.34939,"is_reserved":false,"is_disabled":false,"rental_uris":{"android":"levelo://app?vid=270b90ca-7521-4165-af49-e1c727e5fa34","ios":"levelo://app?vid=270b90ca-7521-4165-af49-e1c727e5fa34"},"vehicle_type_id":"4","last_reported":1728227327,"current_range_meters":33600,"station_id":"crv51consjfaj9uu89c0","pricing_plan_id":"cebpf4jnsgd1na2vs0mg"},{"bike_id":"a33b8f7c-9c92-477a-979b-935feffb315f","system_id":"levelo_inurba_marseille","lat":43.290125,"lon":5.356198,"is_reserved":false,"is_disabled":false,"rental_uris":{"android":"levelo://app?vid=a33b8f7c-9c92-477a-979b-935feffb315f","ios":"levelo://app?vid=a33b8f7c-9c92-477a-979b-935feffb315f"},"vehicle_type_id":"4","last_reported":1728227327,"current_range_meters":32400,"station_id":"ce4bhb92rcd13ifvqen0","pricing_plan_id":"cebpf4jnsgd1na2vs0mg"},{"bike_id":"53077ce0-f980-4c18-a28f-74d09177cfc7","system_id":"levelo_inurba_marseille","lat":43.30462,"lon":5.37908,"is_reserved":false,"is_disabled":false,"rental_uris":{"android":"levelo://app?vid=53077ce0-f980-4c18-a28f-74d09177cfc7","ios":"levelo://app?vid=53077ce0-f980-4c18-a28f-74d09177cfc7"},"vehicle_type_id":"4","last_reported":1728227327,"current_range_meters":12400,"station_id":"ce4bgup2rcd13ifvqcn0","pricing_plan_id":"cebpf4jnsgd1na2vs0mg"},{"bike_id":"06a510f3-5bf5-4f3f-a804-96399059c755","system_id":"levelo_inurba_marseille","lat":43.30532,"lon":5.36724,"is_reserved":false,"is_disabled":false,"rental_uris":{"android":"levelo://app?vid=06a510f3-5bf5-4f3f-a804-96399059c755","ios":"levelo://app?vid=06a510f3-5bf5-4f3f-a804-96399059c755"},"vehicle_type_id":"4","last_reported":1728227327,"current_range_meters":13600,"station_id":"ce4bgrp2rcd13ifvqc9g","pricing_plan_id":"cebpf4jnsgd1na2vs0mg"},{"bike_id":"318da996-c1ef-4262-acf5-80feb7b743b4","system_id":"levelo_inurba_marseille","lat":43.30186,"lon":5.36638,"is_reserved":false,"is_disabled":false,"rental_uris":{"android":"levelo://app?vid=318da996-c1ef-4262-acf5-80feb7b743b4","ios":"levelo://app?vid=318da996-c1ef-4262-acf5-80feb7b743b4"},"vehicle_type_id":"4","last_reported":1728227327,"current_range_meters":22000,"station_id":"ce4bgrh2rcd13ifvqc8g","pricing_plan_id":"cebpf4jnsgd1na2vs0mg"},{"bike_id":"b4839f22-4501-4290-843d-b8dcb7e07a25","system_id":"levelo_inurba_marseille","lat":43.31119,"lon":5.37784,"is_reserved":false,"is_disabled":false,"rental_uris":{"android":"levelo://app?vid=b4839f22-4501-4290-843d-b8dcb7e07a25","ios":"levelo://app?vid=b4839f22-4501-4290-843d-b8dcb7e07a25"},"vehicle_type_id":"4","last_reported":1728227327,"current_range_meters":3600,"station_id":"ce4bgt92rcd13ifvqcg0","pricing_plan_id":"cebpf4jnsgd1na2vs0mg"},{"bike_id":"20976e6e-b8dc-40c2-b546-6b2664863a0c","system_id":"levelo_inurba_marseille","lat":43.30138,"lon":5.37411,"is_reserved":false,"is_disabled":false,"rental_uris":{"android":"levelo://app?vid=20976e6e-b8dc-40c2-b546-6b2664863a0c","ios":"levelo://app?vid=20976e6e-b8dc-40c2-b546-6b2664863a0c"},"vehicle_type_id":"4","last_reported":1728227327,"current_range_meters":30800,"station_id":"ce4bgs92rcd13ifvqcc0","pricing_plan_id":"cebpf4jnsgd1na2vs0mg"},{"bike_id":"e08f001d-cdd4-406b-abcb-d86ce2c0ccb0","system_id":"levelo_inurba_marseille","lat":43.30316,"lon":5.365237,"is_reserved":false,"is_disabled":false,"rental_uris":{"android":"levelo://app?vid=e08f001d-cdd4-406b-abcb-d86ce2c0ccb0","ios":"levelo://app?vid=e08f001d-cdd4-406b-abcb-d86ce2c0ccb0"},"vehicle_type_id":"4","last_reported":1728227327,"current_range_meters":35200,"station_id":"","pricing_plan_id":"cebpf4jnsgd1na2vs0mg"},{"bike_id":"aa87d6ca-7d59-41eb-82e7-5c59731979ae","system_id":"levelo_inurba_marseille","lat":43.30544,"lon":5.36523,"is_reserved":false,"is_disabled":false,"rental_uris":{"android":"levelo://app?vid=aa87d6ca-7d59-41eb-82e7-5c59731979ae","ios":"levelo://app?vid=aa87d6ca-7d59-41eb-82e7-5c59731979ae"},"vehicle_type_id":"4","last_reported":1728227327,"current_range_meters":22400,"station_id":"ce4bgs12rcd13ifvqcag","pricing_plan_id":"cebpf4jnsgd1na2vs0mg"},{"bike_id":"3edbc444-be55-4f06-b001-2e99882f8c0b","system_id":"levelo_inurba_marseille","lat":43.32647,"lon":5.41003,"is_reserved":false,"is_disabled":false,"rental_uris":{"android":"levelo://app?vid=3edbc444-be55-4f06-b001-2e99882f8c0b","ios":"levelo://app?vid=3edbc444-be55-4f06-b001-2e99882f8c0b"},"vehicle_type_id":"4","last_reported":1728227327,"current_range_meters":2800,"station_id":"ce4bhpp2rcd13ifvqhgg","pricing_plan_id":"cebpf4jnsgd1na2vs0mg"},{"bike_id":"85081b74-3c48-4b75-b6b6-b181683e784a","system_id":"levelo_inurba_marseille","lat":43.25718,"lon":5.41115,"is_reserved":false,"is_disabled":false,"rental_uris":{"android":"levelo://app?vid=85081b74-3c48-4b75-b6b6-b181683e784a","ios":"levelo://app?vid=85081b74-3c48-4b75-b6b6-b181683e784a"},"vehicle_type_id":"4","last_reported":1728227327,"current_range_meters":38400,"station_id":"ce4bhkp2rcd13ifvqgd0","pricing_plan_id":"cebpf4jnsgd1na2vs0mg"},{"bike_id":"d5bd4fc9-b596-4a66-8faa-61c6a5dce860","system_id":"levelo_inurba_marseille","lat":43.29895,"lon":5.43657,"is_reserved":false,"is_disabled":false,"rental_uris":{"android":"levelo://app?vid=d5bd4fc9-b596-4a66-8faa-61c6a5dce860","ios":"levelo://app?vid=d5bd4fc9-b596-4a66-8faa-61c6a5dce860"},"vehicle_type_id":"4","last_reported":1728227327,"current_range_meters":38800,"station_id":"ce4bhpp2rcd13ifvqhfg","pricing_plan_id":"cebpf4jnsgd1na2vs0mg"},{"bike_id":"b78f1d39-4b3b-4e01-9019-7f4cc49ac026","system_id":"levelo_inurba_marseille","lat":43.27944,"lon":5.4105,"is_reserved":false,"is_disabled":false,"rental_uris":{"android":"levelo://app?vid=b78f1d39-4b3b-4e01-9019-7f4cc49ac026","ios":"levelo://app?vid=b78f1d39-4b3b-4e01-9019-7f4cc49ac026"},"vehicle_type_id":"4","last_reported":1728227327,"current_range_meters":19200,"station_id":"ce4bhnp2rcd13ifvqh0g","pricing_plan_id":"cebpf4jnsgd1na2vs0mg"},{"bike_id":"c9408672-8f1d-46a0-84bf-fcdd254ae7ef","system_id":"levelo_inurba_marseille","lat":43.31526,"lon":5.38038,"is_reserved":false,"is_disabled":false,"rental_uris":{"android":"levelo://app?vid=c9408672-8f1d-46a0-84bf-fcdd254ae7ef","ios":"levelo://app?vid=c9408672-8f1d-46a0-84bf-fcdd254ae7ef"},"vehicle_type_id":"4","last_reported":1728227327,"current_range_meters":9600,"station_id":"ce4bhsp2rcd13ifvqi50","pricing_plan_id":"cebpf4jnsgd1na2vs0mg"},{"bike_id":"7cba0374-be77-4d49-8476-e0da3cccc891","system_id":"levelo_inurba_marseille","lat":43.21347,"lon":5.34938,"is_reserved":false,"is_disabled":false,"rental_uris":{"android":"levelo://app?vid=7cba0374-be77-4d49-8476-e0da3cccc891","ios":"levelo://app?vid=7cba0374-be77-4d49-8476-e0da3cccc891"},"vehicle_type_id":"4","last_reported":1728227327,"current_range_meters":32000,"station_id":"crv51consjfaj9uu89c0","pricing_plan_id":"cebpf4jnsgd1na2vs0mg"},{"bike_id":"cc762264-921d-4b9c-85f7-5d40566d51d5","system_id":"levelo_inurba_marseille","lat":43.30532,"lon":5.36557,"is_reserved":false,"is_disabled":false,"rental_uris":{"android":"levelo://app?vid=cc762264-921d-4b9c-85f7-5d40566d51d5","ios":"levelo://app?vid=cc762264-921d-4b9c-85f7-5d40566d51d5"},"vehicle_type_id":"4","last_reported":1728227327,"current_range_meters":28800,"station_id":"ce4bgs12rcd13ifvqcag","pricing_plan_id":"cebpf4jnsgd1na2vs0mg"},{"bike_id":"7a6d7045-a0c6-474e-97a3-8a750c51af90","system_id":"levelo_inurba_marseille","lat":43.27946,"lon":5.41045,"is_reserved":false,"is_disabled":false,"rental_uris":{"android":"levelo://app?vid=7a6d7045-a0c6-474e-97a3-8a750c51af90","ios":"levelo://app?vid=7a6d7045-a0c6-474e-97a3-8a750c51af90"},"vehicle_type_id":"4","last_reported":1728227327,"current_range_meters":37600,"station_id":"ce4bhnp2rcd13ifvqh0g","pricing_plan_id":"cebpf4jnsgd1na2vs0mg"},{"bike_id":"24741916-9a19-4c9f-b82f-689e154008bc","system_id":"levelo_inurba_marseille","lat":43.2135,"lon":5.34926,"is_reserved":false,"is_disabled":false,"rental_uris":{"android":"levelo://app?vid=24741916-9a19-4c9f-b82f-689e154008bc","ios":"levelo://app?vid=24741916-9a19-4c9f-b82f-689e154008bc"},"vehicle_type_id":"4","last_reported":1728227327,"current_range_meters":3600,"station_id":"crv51consjfaj9uu89c0","pricing_plan_id":"cebpf4jnsgd1na2vs0mg"},{"bike_id":"8e94c158-3450-4d74-9a10-086db250f48e","system_id":"levelo_inurba_marseille","lat":43.27147,"lon":5.3904,"is_reserved":false,"is_disabled":false,"rental_uris":{"android":"levelo://app?vid=8e94c158-3450-4d74-9a10-086db250f48e","ios":"levelo://app?vid=8e94c158-3450-4d74-9a10-086db250f48e"},"vehicle_type_id":"4","last_reported":1728227327,"current_range_meters":32000,"station_id":"","pricing_plan_id":"cebpf4jnsgd1na2vs0mg"},{"bike_id":"52040213-e2a0-4c29-ad5c-23f287c96e58","system_id":"levelo_inurba_marseille","lat":43.25722,"lon":5.41108,"is_reserved":false,"is_disabled":false,"rental_uris":{"android":"levelo://app?vid=52040213-e2a0-4c29-ad5c-23f287c96e58","ios":"levelo://app?vid=52040213-e2a0-4c29-ad5c-23f287c96e58"},"vehicle_type_id":"4","last_reported":1728227327,"current_range_meters":38800,"station_id":"ce4bhkp2rcd13ifvqgd0","pricing_plan_id":"cebpf4jnsgd1na2vs0mg"},{"bike_id":"ae47394e-5687-4769-84bc-52dedb2aebdd","system_id":"levelo_inurba_marseille","lat":43.27807,"lon":5.40711,"is_reserved":false,"is_disabled":false,"rental_uris":{"android":"levelo://app?vid=ae47394e-5687-4769-84bc-52dedb2aebdd","ios":"levelo://app?vid=ae47394e-5687-4769-84bc-52dedb2aebdd"},"vehicle_type_id":"4","last_reported":1728227327,"current_range_meters":27200,"station_id":"ce4bhnh2rcd13ifvqgtg","pricing_plan_id":"cebpf4jnsgd1na2vs0mg"},{"bike_id":"46a76753-a5a3-407f-a059-193447141070","system_id":"levelo_inurba_marseille","lat":43.29841,"lon":5.3627,"is_reserved":false,"is_disabled":false,"rental_uris":{"android":"levelo://app?vid=46a76753-a5a3-407f-a059-193447141070","ios":"levelo://app?vid=46a76753-a5a3-407f-a059-193447141070"},"vehicle_type_id":"4","last_reported":1728227327,"current_range_meters":24400,"station_id":"ce4bgpp2rcd13ifvqc3g","pricing_plan_id":"cebpf4jnsgd1na2vs0mg"},{"bike_id":"cd07b44a-553d-4bab-9f38-6ebb1bf25b5f","system_id":"levelo_inurba_marseille","lat":43.33729,"lon":5.3749,"is_reserved":false,"is_disabled":false,"rental_uris":{"android":"levelo://app?vid=cd07b44a-553d-4bab-9f38-6ebb1bf25b5f","ios":"levelo://app?vid=cd07b44a-553d-4bab-9f38-6ebb1bf25b5f"},"vehicle_type_id":"4","last_reported":1728227327,"current_range_meters":27600,"station_id":"","pricing_plan_id":"cebpf4jnsgd1na2vs0mg"},{"bike_id":"2f1f7e56-c6cd-448e-b406-4d3dfc3a4de4","system_id":"levelo_inurba_marseille","lat":43.25728,"lon":5.41104,"is_reserved":false,"is_disabled":false,"rental_uris":{"android":"levelo://app?vid=2f1f7e56-c6cd-448e-b406-4d3dfc3a4de4","ios":"levelo://app?vid=2f1f7e56-c6cd-448e-b406-4d3dfc3a4de4"},"vehicle_type_id":"4","last_reported":1728227327,"current_range_meters":28400,"station_id":"ce4bhkp2rcd13ifvqgd0","pricing_plan_id":"cebpf4jnsgd1na2vs0mg"},{"bike_id":"7a348d21-f2e8-43e7-9c15-c14bb9bb72a2","system_id":"levelo_inurba_marseille","lat":43.29956,"lon":5.41324,"is_reserved":false,"is_disabled":false,"rental_uris":{"android":"levelo://app?vid=7a348d21-f2e8-43e7-9c15-c14bb9bb72a2","ios":"levelo://app?vid=7a348d21-f2e8-43e7-9c15-c14bb9bb72a2"},"vehicle_type_id":"4","last_reported":1728227327,"current_range_meters":23200,"station_id":"ce4bhp12rcd13ifvqh9g","pricing_plan_id":"cebpf4jnsgd1na2vs0mg"},{"bike_id":"c6d60b46-0a25-47a9-9142-a7e326409e02","system_id":"levelo_inurba_marseille","lat":43.26232,"lon":5.3752,"is_reserved":false,"is_disabled":false,"rental_uris":{"android":"levelo://app?vid=c6d60b46-0a25-47a9-9142-a7e326409e02","ios":"levelo://app?vid=c6d60b46-0a25-47a9-9142-a7e326409e02"},"vehicle_type_id":"4","last_reported":1728227327,"current_range_meters":38800,"station_id":"","pricing_plan_id":"cebpf4jnsgd1na2vs0mg"},{"bike_id":"6ebc9e22-929a-4104-9492-06813858904f","system_id":"levelo_inurba_marseille","lat":43.28702,"lon":5.37386,"is_reserved":false,"is_disabled":false,"rental_uris":{"android":"levelo://app?vid=6ebc9e22-929a-4104-9492-06813858904f","ios":"levelo://app?vid=6ebc9e22-929a-4104-9492-06813858904f"},"vehicle_type_id":"4","last_reported":1728227327,"current_range_meters":25600,"station_id":"ce4bh3p2rcd13ifvqdq0","pricing_plan_id":"cebpf4jnsgd1na2vs0mg"},{"bike_id":"b76fc558-5bdb-46d5-a15a-67981fc87a4d","system_id":"levelo_inurba_marseille","lat":43.299138,"lon":5.381527,"is_reserved":false,"is_disabled":false,"rental_uris":{"android":"levelo://app?vid=b76fc558-5bdb-46d5-a15a-67981fc87a4d","ios":"levelo://app?vid=b76fc558-5bdb-46d5-a15a-67981fc87a4d"},"vehicle_type_id":"4","last_reported":1728227327,"current_range_meters":35200,"station_id":"ce4bgj12rcd13ifvqbc0","pricing_plan_id":"cebpf4jnsgd1na2vs0mg"},{"bike_id":"abdf066a-68e4-4a88-ab87-6ca197dde02f","system_id":"levelo_inurba_marseille","lat":43.3053,"lon":5.36535,"is_reserved":false,"is_disabled":false,"rental_uris":{"android":"levelo://app?vid=abdf066a-68e4-4a88-ab87-6ca197dde02f","ios":"levelo://app?vid=abdf066a-68e4-4a88-ab87-6ca197dde02f"},"vehicle_type_id":"4","last_reported":1728227327,"current_range_meters":38800,"station_id":"ce4bgs12rcd13ifvqcag","pricing_plan_id":"cebpf4jnsgd1na2vs0mg"},{"bike_id":"6c6342ad-9dcb-4f12-9dd6-ab6056de4512","system_id":"levelo_inurba_marseille","lat":43.281057,"lon":5.401565,"is_reserved":false,"is_disabled":false,"rental_uris":{"android":"levelo://app?vid=6c6342ad-9dcb-4f12-9dd6-ab6056de4512","ios":"levelo://app?vid=6c6342ad-9dcb-4f12-9dd6-ab6056de4512"},"vehicle_type_id":"4","last_reported":1728227327,"current_range_meters":29600,"station_id":"ce4bho92rcd13ifvqh4g","pricing_plan_id":"cebpf4jnsgd1na2vs0mg"},{"bike_id":"9a471625-4967-4c00-b3f0-a56caa04b9d8","system_id":"levelo_inurba_marseille","lat":43.28926,"lon":5.38394,"is_reserved":false,"is_disabled":false,"rental_uris":{"android":"levelo://app?vid=9a471625-4967-4c00-b3f0-a56caa04b9d8","ios":"levelo://app?vid=9a471625-4967-4c00-b3f0-a56caa04b9d8"},"vehicle_type_id":"4","last_reported":1728227327,"current_range_meters":9200,"station_id":"ce4bh612rcd13ifvqe6g","pricing_plan_id":"cebpf4jnsgd1na2vs0mg"},{"bike_id":"b9cd9248-19e6-465a-af9f-a09706f458cc","system_id":"levelo_inurba_marseille","lat":43.29911,"lon":5.38146,"is_reserved":false,"is_disabled":false,"rental_uris":{"android":"levelo://app?vid=b9cd9248-19e6-465a-af9f-a09706f458cc","ios":"levelo://app?vid=b9cd9248-19e6-465a-af9f-a09706f458cc"},"vehicle_type_id":"4","last_reported":1728227327,"current_range_meters":33600,"station_id":"ce4bgj12rcd13ifvqbc0","pricing_plan_id":"cebpf4jnsgd1na2vs0mg"},{"bike_id":"24df8585-555f-41d2-8e9c-7a0e50da6fa9","system_id":"levelo_inurba_marseille","lat":43.24388,"lon":5.37058,"is_reserved":false,"is_disabled":false,"rental_uris":{"android":"levelo://app?vid=24df8585-555f-41d2-8e9c-7a0e50da6fa9","ios":"levelo://app?vid=24df8585-555f-41d2-8e9c-7a0e50da6fa9"},"vehicle_type_id":"4","last_reported":1728227327,"current_range_meters":37600,"station_id":"ce4bhhh2rcd13ifvqfk0","pricing_plan_id":"cebpf4jnsgd1na2vs0mg"},{"bike_id":"1c6ced08-6c65-4e22-a8e3-0734c3156234","system_id":"levelo_inurba_marseille","lat":43.25715,"lon":5.41109,"is_reserved":false,"is_disabled":false,"rental_uris":{"android":"levelo://app?vid=1c6ced08-6c65-4e22-a8e3-0734c3156234","ios":"levelo://app?vid=1c6ced08-6c65-4e22-a8e3-0734c3156234"},"vehicle_type_id":"4","last_reported":1728227327,"current_range_meters":38800,"station_id":"ce4bhkp2rcd13ifvqgd0","pricing_plan_id":"cebpf4jnsgd1na2vs0mg"},{"bike_id":"03b864f1-0518-446b-b9e9-dc5fa0a0eeec","system_id":"levelo_inurba_marseille","lat":43.22931,"lon":5.35374,"is_reserved":false,"is_disabled":false,"rental_uris":{"android":"levelo://app?vid=03b864f1-0518-446b-b9e9-dc5fa0a0eeec","ios":"levelo://app?vid=03b864f1-0518-446b-b9e9-dc5fa0a0eeec"},"vehicle_type_id":"4","last_reported":1728227327,"current_range_meters":29600,"station_id":"cpo3532slgdg3j2ikp40","pricing_plan_id":"cebpf4jnsgd1na2vs0mg"},{"bike_id":"cf98a660-7f87-4ed6-9b7c-c63bf1655b22","system_id":"levelo_inurba_marseille","lat":43.28023,"lon":5.36955,"is_reserved":false,"is_disabled":false,"rental_uris":{"android":"levelo://app?vid=cf98a660-7f87-4ed6-9b7c-c63bf1655b22","ios":"levelo://app?vid=cf98a660-7f87-4ed6-9b7c-c63bf1655b22"},"vehicle_type_id":"4","last_reported":1728227327,"current_range_meters":25200,"station_id":"ce4bha12rcd13ifvqef0","pricing_plan_id":"cebpf4jnsgd1na2vs0mg"},{"bike_id":"7d832797-a368-47ce-80a8-50d6a3763de8","system_id":"levelo_inurba_marseille","lat":43.284183,"lon":5.384525,"is_reserved":false,"is_disabled":false,"rental_uris":{"android":"levelo://app?vid=7d832797-a368-47ce-80a8-50d6a3763de8","ios":"levelo://app?vid=7d832797-a368-47ce-80a8-50d6a3763de8"},"vehicle_type_id":"4","last_reported":1728227327,"current_range_meters":28000,"station_id":"","pricing_plan_id":"cebpf4jnsgd1na2vs0mg"},{"bike_id":"086dfcc0-bfea-421b-88c0-6bd5ac43d792","system_id":"levelo_inurba_marseille","lat":43.29096,"lon":5.38142,"is_reserved":false,"is_disabled":false,"rental_uris":{"android":"levelo://app?vid=086dfcc0-bfea-421b-88c0-6bd5ac43d792","ios":"levelo://app?vid=086dfcc0-bfea-421b-88c0-6bd5ac43d792"},"vehicle_type_id":"4","last_reported":1728227327,"current_range_meters":29600,"station_id":"ce4bh512rcd13ifvqe2g","pricing_plan_id":"cebpf4jnsgd1na2vs0mg"},{"bike_id":"2e33008f-b26b-4f4c-93eb-24f4db411a67","system_id":"levelo_inurba_marseille","lat":43.3107,"lon":5.38362,"is_reserved":false,"is_disabled":false,"rental_uris":{"android":"levelo://app?vid=2e33008f-b26b-4f4c-93eb-24f4db411a67","ios":"levelo://app?vid=2e33008f-b26b-4f4c-93eb-24f4db411a67"},"vehicle_type_id":"4","last_reported":1728227327,"current_range_meters":16800,"station_id":"ce4bgv92rcd13ifvqcr0","pricing_plan_id":"cebpf4jnsgd1na2vs0mg"},{"bike_id":"fd15e38c-a080-4d8d-be94-6f7330d4ebed","system_id":"levelo_inurba_marseille","lat":43.26558,"lon":5.37285,"is_reserved":false,"is_disabled":false,"rental_uris":{"android":"levelo://app?vid=fd15e38c-a080-4d8d-be94-6f7330d4ebed","ios":"levelo://app?vid=fd15e38c-a080-4d8d-be94-6f7330d4ebed"},"vehicle_type_id":"4","last_reported":1728227327,"current_range_meters":10800,"station_id":"ce4bhg12rcd13ifvqf70","pricing_plan_id":"cebpf4jnsgd1na2vs0mg"},{"bike_id":"68b77a88-2067-422a-ab7b-e29094a40dcc","system_id":"levelo_inurba_marseille","lat":43.25116,"lon":5.40315,"is_reserved":false,"is_disabled":false,"rental_uris":{"android":"levelo://app?vid=68b77a88-2067-422a-ab7b-e29094a40dcc","ios":"levelo://app?vid=68b77a88-2067-422a-ab7b-e29094a40dcc"},"vehicle_type_id":"4","last_reported":1728227327,"current_range_meters":38800,"station_id":"ce4bhlh2rcd13ifvqgig","pricing_plan_id":"cebpf4jnsgd1na2vs0mg"},{"bike_id":"ed98a01c-b3a0-4f81-afd4-22b313a48bc5","system_id":"levelo_inurba_marseille","lat":43.26554,"lon":5.37287,"is_reserved":false,"is_disabled":false,"rental_uris":{"android":"levelo://app?vid=ed98a01c-b3a0-4f81-afd4-22b313a48bc5","ios":"levelo://app?vid=ed98a01c-b3a0-4f81-afd4-22b313a48bc5"},"vehicle_type_id":"4","last_reported":1728227327,"current_range_meters":38800,"station_id":"ce4bhg12rcd13ifvqf70","pricing_plan_id":"cebpf4jnsgd1na2vs0mg"},{"bike_id":"529f0b98-6261-49ab-815e-c34e0a87d156","system_id":"levelo_inurba_marseille","lat":43.28406,"lon":5.37528,"is_reserved":false,"is_disabled":false,"rental_uris":{"android":"levelo://app?vid=529f0b98-6261-49ab-815e-c34e0a87d156","ios":"levelo://app?vid=529f0b98-6261-49ab-815e-c34e0a87d156"},"vehicle_type_id":"4","last_reported":1728227327,"current_range_meters":18000,"station_id":"ce4bh412rcd13ifvqds0","pricing_plan_id":"cebpf4jnsgd1na2vs0mg"},{"bike_id":"d0e81cdf-b5a0-44e2-a36b-805202ade773","system_id":"levelo_inurba_marseille","lat":43.24384,"lon":5.3706,"is_reserved":false,"is_disabled":false,"rental_uris":{"android":"levelo://app?vid=d0e81cdf-b5a0-44e2-a36b-805202ade773","ios":"levelo://app?vid=d0e81cdf-b5a0-44e2-a36b-805202ade773"},"vehicle_type_id":"4","last_reported":1728227327,"current_range_meters":39200,"station_id":"ce4bhhh2rcd13ifvqfk0","pricing_plan_id":"cebpf4jnsgd1na2vs0mg"},{"bike_id":"8a1e31b4-7d14-4e47-8008-cdff6906ca20","system_id":"levelo_inurba_marseille","lat":43.28942,"lon":5.36396,"is_reserved":false,"is_disabled":false,"rental_uris":{"android":"levelo://app?vid=8a1e31b4-7d14-4e47-8008-cdff6906ca20","ios":"levelo://app?vid=8a1e31b4-7d14-4e47-8008-cdff6906ca20"},"vehicle_type_id":"4","last_reported":1728227327,"current_range_meters":12400,"station_id":"ce4bhc92rcd13ifvqetg","pricing_plan_id":"cebpf4jnsgd1na2vs0mg"},{"bike_id":"0ad57600-b3de-4dcf-b432-0543365d6853","system_id":"levelo_inurba_marseille","lat":43.29548,"lon":5.42284,"is_reserved":false,"is_disabled":false,"rental_uris":{"android":"levelo://app?vid=0ad57600-b3de-4dcf-b432-0543365d6853","ios":"levelo://app?vid=0ad57600-b3de-4dcf-b432-0543365d6853"},"vehicle_type_id":"4","last_reported":1728227327,"current_range_meters":38800,"station_id":"ce4bhph2rcd13ifvqhdg","pricing_plan_id":"cebpf4jnsgd1na2vs0mg"},{"bike_id":"e64855bb-166a-4613-9f15-9b7644aad042","system_id":"levelo_inurba_marseille","lat":43.29846,"lon":5.36273,"is_reserved":false,"is_disabled":false,"rental_uris":{"android":"levelo://app?vid=e64855bb-166a-4613-9f15-9b7644aad042","ios":"levelo://app?vid=e64855bb-166a-4613-9f15-9b7644aad042"},"vehicle_type_id":"4","last_reported":1728227327,"current_range_meters":32800,"station_id":"ce4bgpp2rcd13ifvqc3g","pricing_plan_id":"cebpf4jnsgd1na2vs0mg"},{"bike_id":"4035516c-88a9-4fc8-a60c-d8dc0a7e84e9","system_id":"levelo_inurba_marseille","lat":43.29842,"lon":5.36268,"is_reserved":false,"is_disabled":false,"rental_uris":{"android":"levelo://app?vid=4035516c-88a9-4fc8-a60c-d8dc0a7e84e9","ios":"levelo://app?vid=4035516c-88a9-4fc8-a60c-d8dc0a7e84e9"},"vehicle_type_id":"4","last_reported":1728227327,"current_range_meters":38800,"station_id":"ce4bgpp2rcd13ifvqc3g","pricing_plan_id":"cebpf4jnsgd1na2vs0mg"},{"bike_id":"97effdb8-79b7-48b7-953a-88056684a68f","system_id":"levelo_inurba_marseille","lat":43.30593,"lon":5.37233,"is_reserved":false,"is_disabled":false,"rental_uris":{"android":"levelo://app?vid=97effdb8-79b7-48b7-953a-88056684a68f","ios":"levelo://app?vid=97effdb8-79b7-48b7-953a-88056684a68f"},"vehicle_type_id":"4","last_reported":1728227327,"current_range_meters":33600,"station_id":"ce4bgqh2rcd13ifvqc4g","pricing_plan_id":"cebpf4jnsgd1na2vs0mg"},{"bike_id":"582d7183-5ea6-4486-b144-16cba887077a","system_id":"levelo_inurba_marseille","lat":43.33596,"lon":5.41018,"is_reserved":false,"is_disabled":false,"rental_uris":{"android":"levelo://app?vid=582d7183-5ea6-4486-b144-16cba887077a","ios":"levelo://app?vid=582d7183-5ea6-4486-b144-16cba887077a"},"vehicle_type_id":"4","last_reported":1728227327,"current_range_meters":13600,"station_id":"ce4bhqh2rcd13ifvqhmg","pricing_plan_id":"cebpf4jnsgd1na2vs0mg"},{"bike_id":"27c5f2a9-8158-45c6-b742-4db159c5f60d","system_id":"levelo_inurba_marseille","lat":43.31328,"lon":5.397,"is_reserved":false,"is_disabled":false,"rental_uris":{"android":"levelo://app?vid=27c5f2a9-8158-45c6-b742-4db159c5f60d","ios":"levelo://app?vid=27c5f2a9-8158-45c6-b742-4db159c5f60d"},"vehicle_type_id":"4","last_reported":1728227327,"current_range_meters":30400,"station_id":"ce4bgvp2rcd13ifvqcu0","pricing_plan_id":"cebpf4jnsgd1na2vs0mg"},{"bike_id":"7b370d99-5247-45ef-a303-548109cf04e4","system_id":"levelo_inurba_marseille","lat":43.25723,"lon":5.41106,"is_reserved":false,"is_disabled":false,"rental_uris":{"android":"levelo://app?vid=7b370d99-5247-45ef-a303-548109cf04e4","ios":"levelo://app?vid=7b370d99-5247-45ef-a303-548109cf04e4"},"vehicle_type_id":"4","last_reported":1728227327,"current_range_meters":6800,"station_id":"ce4bhkp2rcd13ifvqgd0","pricing_plan_id":"cebpf4jnsgd1na2vs0mg"},{"bike_id":"1d0e3faa-ee78-4da5-a96f-abfd136c29bb","system_id":"levelo_inurba_marseille","lat":43.32478,"lon":5.36561,"is_reserved":false,"is_disabled":false,"rental_uris":{"android":"levelo://app?vid=1d0e3faa-ee78-4da5-a96f-abfd136c29bb","ios":"levelo://app?vid=1d0e3faa-ee78-4da5-a96f-abfd136c29bb"},"vehicle_type_id":"4","last_reported":1728227327,"current_range_meters":24400,"station_id":"ce4bhs12rcd13ifvqhvg","pricing_plan_id":"cebpf4jnsgd1na2vs0mg"},{"bike_id":"b9d5ed39-73a1-4edc-90a2-69983d25182d","system_id":"levelo_inurba_marseille","lat":43.30553,"lon":5.36527,"is_reserved":false,"is_disabled":false,"rental_uris":{"android":"levelo://app?vid=b9d5ed39-73a1-4edc-90a2-69983d25182d","ios":"levelo://app?vid=b9d5ed39-73a1-4edc-90a2-69983d25182d"},"vehicle_type_id":"4","last_reported":1728227327,"current_range_meters":32800,"station_id":"ce4bgs12rcd13ifvqcag","pricing_plan_id":"cebpf4jnsgd1na2vs0mg"},{"bike_id":"7ad7fc7b-baf7-4072-abb8-048ea21028fd","system_id":"levelo_inurba_marseille","lat":43.250164,"lon":5.389294,"is_reserved":false,"is_disabled":false,"rental_uris":{"android":"levelo://app?vid=7ad7fc7b-baf7-4072-abb8-048ea21028fd","ios":"levelo://app?vid=7ad7fc7b-baf7-4072-abb8-048ea21028fd"},"vehicle_type_id":"4","last_reported":1728227327,"current_range_meters":16400,"station_id":"ce4bhgp2rcd13ifvqfd0","pricing_plan_id":"cebpf4jnsgd1na2vs0mg"},{"bike_id":"3af48eb3-1d1f-4a32-a948-7cc05add2405","system_id":"levelo_inurba_marseille","lat":43.21346,"lon":5.34936,"is_reserved":false,"is_disabled":false,"rental_uris":{"android":"levelo://app?vid=3af48eb3-1d1f-4a32-a948-7cc05add2405","ios":"levelo://app?vid=3af48eb3-1d1f-4a32-a948-7cc05add2405"},"vehicle_type_id":"4","last_reported":1728227327,"current_range_meters":30800,"station_id":"crv51consjfaj9uu89c0","pricing_plan_id":"cebpf4jnsgd1na2vs0mg"},{"bike_id":"77e44f96-8992-4ec5-ba2c-5e51b9e5b288","system_id":"levelo_inurba_marseille","lat":43.27057,"lon":5.38785,"is_reserved":false,"is_disabled":false,"rental_uris":{"android":"levelo://app?vid=77e44f96-8992-4ec5-ba2c-5e51b9e5b288","ios":"levelo://app?vid=77e44f96-8992-4ec5-ba2c-5e51b9e5b288"},"vehicle_type_id":"4","last_reported":1728227327,"current_range_meters":36000,"station_id":"","pricing_plan_id":"cebpf4jnsgd1na2vs0mg"},{"bike_id":"274052d4-8897-4348-86a6-97938341d2c5","system_id":"levelo_inurba_marseille","lat":43.30797,"lon":5.43512,"is_reserved":false,"is_disabled":false,"rental_uris":{"android":"levelo://app?vid=274052d4-8897-4348-86a6-97938341d2c5","ios":"levelo://app?vid=274052d4-8897-4348-86a6-97938341d2c5"},"vehicle_type_id":"4","last_reported":1728227327,"current_range_meters":3600,"station_id":"ce4bhph2rcd13ifvqheg","pricing_plan_id":"cebpf4jnsgd1na2vs0mg"},{"bike_id":"dd164524-3c0c-4135-9b32-9ab6e84f90a0","system_id":"levelo_inurba_marseille","lat":43.26571,"lon":5.39002,"is_reserved":false,"is_disabled":false,"rental_uris":{"android":"levelo://app?vid=dd164524-3c0c-4135-9b32-9ab6e84f90a0","ios":"levelo://app?vid=dd164524-3c0c-4135-9b32-9ab6e84f90a0"},"vehicle_type_id":"4","last_reported":1728227327,"current_range_meters":30800,"station_id":"ce4bhe12rcd13ifvqf30","pricing_plan_id":"cebpf4jnsgd1na2vs0mg"},{"bike_id":"b51ee6d2-4574-4587-a7f0-3852397ae634","system_id":"levelo_inurba_marseille","lat":43.22931,"lon":5.3538,"is_reserved":false,"is_disabled":false,"rental_uris":{"android":"levelo://app?vid=b51ee6d2-4574-4587-a7f0-3852397ae634","ios":"levelo://app?vid=b51ee6d2-4574-4587-a7f0-3852397ae634"},"vehicle_type_id":"4","last_reported":1728227327,"current_range_meters":36000,"station_id":"cpo3532slgdg3j2ikp40","pricing_plan_id":"cebpf4jnsgd1na2vs0mg"},{"bike_id":"4f5038fe-9ccd-4d04-a6cd-afe04d9be89f","system_id":"levelo_inurba_marseille","lat":43.27376,"lon":5.36247,"is_reserved":false,"is_disabled":false,"rental_uris":{"android":"levelo://app?vid=4f5038fe-9ccd-4d04-a6cd-afe04d9be89f","ios":"levelo://app?vid=4f5038fe-9ccd-4d04-a6cd-afe04d9be89f"},"vehicle_type_id":"4","last_reported":1728227327,"current_range_meters":32000,"station_id":"ce4bhbh2rcd13ifvqeo0","pricing_plan_id":"cebpf4jnsgd1na2vs0mg"},{"bike_id":"9a9089a2-5035-4aef-a4bf-4fe8652fcf76","system_id":"levelo_inurba_marseille","lat":43.32479,"lon":5.36569,"is_reserved":false,"is_disabled":false,"rental_uris":{"android":"levelo://app?vid=9a9089a2-5035-4aef-a4bf-4fe8652fcf76","ios":"levelo://app?vid=9a9089a2-5035-4aef-a4bf-4fe8652fcf76"},"vehicle_type_id":"4","last_reported":1728227327,"current_range_meters":18800,"station_id":"ce4bhs12rcd13ifvqhvg","pricing_plan_id":"cebpf4jnsgd1na2vs0mg"},{"bike_id":"188731d3-4ad5-4355-a8c3-0ac8542617f5","system_id":"levelo_inurba_marseille","lat":43.27613,"lon":5.36117,"is_reserved":false,"is_disabled":false,"rental_uris":{"android":"levelo://app?vid=188731d3-4ad5-4355-a8c3-0ac8542617f5","ios":"levelo://app?vid=188731d3-4ad5-4355-a8c3-0ac8542617f5"},"vehicle_type_id":"4","last_reported":1728227327,"current_range_meters":38800,"station_id":"ce4bgj92rcd13ifvqbe0","pricing_plan_id":"cebpf4jnsgd1na2vs0mg"},{"bike_id":"4e0c83a2-b0c3-4894-8559-e509681998d3","system_id":"levelo_inurba_marseille","lat":43.31117,"lon":5.38326,"is_reserved":false,"is_disabled":false,"rental_uris":{"android":"levelo://app?vid=4e0c83a2-b0c3-4894-8559-e509681998d3","ios":"levelo://app?vid=4e0c83a2-b0c3-4894-8559-e509681998d3"},"vehicle_type_id":"4","last_reported":1728227327,"current_range_meters":8400,"station_id":"ce4bgv92rcd13ifvqcr0","pricing_plan_id":"cebpf4jnsgd1na2vs0mg"},{"bike_id":"a76ee3fd-363a-4d57-9618-b37ded534ce5","system_id":"levelo_inurba_marseille","lat":43.24386,"lon":5.37058,"is_reserved":false,"is_disabled":false,"rental_uris":{"android":"levelo://app?vid=a76ee3fd-363a-4d57-9618-b37ded534ce5","ios":"levelo://app?vid=a76ee3fd-363a-4d57-9618-b37ded534ce5"},"vehicle_type_id":"4","last_reported":1728227327,"current_range_meters":38400,"station_id":"ce4bhhh2rcd13ifvqfk0","pricing_plan_id":"cebpf4jnsgd1na2vs0mg"},{"bike_id":"2065273b-78f3-4762-819c-5046fb35b33f","system_id":"levelo_inurba_marseille","lat":43.29421,"lon":5.38623,"is_reserved":false,"is_disabled":false,"rental_uris":{"android":"levelo://app?vid=2065273b-78f3-4762-819c-5046fb35b33f","ios":"levelo://app?vid=2065273b-78f3-4762-819c-5046fb35b33f"},"vehicle_type_id":"4","last_reported":1728227327,"current_range_meters":29600,"station_id":"ce4bh2h2rcd13ifvqdh0","pricing_plan_id":"cebpf4jnsgd1na2vs0mg"},{"bike_id":"ae53a9d1-01ac-447b-a4c7-269e1c5ac403","system_id":"levelo_inurba_marseille","lat":43.31822,"lon":5.40632,"is_reserved":false,"is_disabled":false,"rental_uris":{"android":"levelo://app?vid=ae53a9d1-01ac-447b-a4c7-269e1c5ac403","ios":"levelo://app?vid=ae53a9d1-01ac-447b-a4c7-269e1c5ac403"},"vehicle_type_id":"4","last_reported":1728227327,"current_range_meters":11200,"station_id":"","pricing_plan_id":"cebpf4jnsgd1na2vs0mg"},{"bike_id":"fcfb7376-b9ce-46ef-8fd8-6e6603765083","system_id":"levelo_inurba_marseille","lat":43.30647,"lon":5.40107,"is_reserved":false,"is_disabled":false,"rental_uris":{"android":"levelo://app?vid=fcfb7376-b9ce-46ef-8fd8-6e6603765083","ios":"levelo://app?vid=fcfb7376-b9ce-46ef-8fd8-6e6603765083"},"vehicle_type_id":"4","last_reported":1728227327,"current_range_meters":36000,"station_id":"ce4bh112rcd13ifvqda0","pricing_plan_id":"cebpf4jnsgd1na2vs0mg"},{"bike_id":"e3eeb2a1-76fb-48c7-9c50-b223d287f872","system_id":"levelo_inurba_marseille","lat":43.264177,"lon":5.368075,"is_reserved":false,"is_disabled":false,"rental_uris":{"android":"levelo://app?vid=e3eeb2a1-76fb-48c7-9c50-b223d287f872","ios":"levelo://app?vid=e3eeb2a1-76fb-48c7-9c50-b223d287f872"},"vehicle_type_id":"4","last_reported":1728227327,"current_range_meters":12000,"station_id":"ce4bgih2rcd13ifvqba0","pricing_plan_id":"cebpf4jnsgd1na2vs0mg"},{"bike_id":"770e5c5f-9902-407a-855b-94c015258c57","system_id":"levelo_inurba_marseille","lat":43.3043,"lon":5.38882,"is_reserved":false,"is_disabled":false,"rental_uris":{"android":"levelo://app?vid=770e5c5f-9902-407a-855b-94c015258c57","ios":"levelo://app?vid=770e5c5f-9902-407a-855b-94c015258c57"},"vehicle_type_id":"4","last_reported":1728227327,"current_range_meters":38800,"station_id":"ce4bgk12rcd13ifvqbi0","pricing_plan_id":"cebpf4jnsgd1na2vs0mg"},{"bike_id":"0799dd84-ec86-4743-ad18-370f21b4b4c5","system_id":"levelo_inurba_marseille","lat":43.31324,"lon":5.39688,"is_reserved":false,"is_disabled":false,"rental_uris":{"android":"levelo://app?vid=0799dd84-ec86-4743-ad18-370f21b4b4c5","ios":"levelo://app?vid=0799dd84-ec86-4743-ad18-370f21b4b4c5"},"vehicle_type_id":"4","last_reported":1728227327,"current_range_meters":16800,"station_id":"ce4bgvp2rcd13ifvqcu0","pricing_plan_id":"cebpf4jnsgd1na2vs0mg"},{"bike_id":"c50e441c-d247-4c47-85e3-c59071bb20fa","system_id":"levelo_inurba_marseille","lat":43.21344,"lon":5.34938,"is_reserved":false,"is_disabled":false,"rental_uris":{"android":"levelo://app?vid=c50e441c-d247-4c47-85e3-c59071bb20fa","ios":"levelo://app?vid=c50e441c-d247-4c47-85e3-c59071bb20fa"},"vehicle_type_id":"4","last_reported":1728227327,"current_range_meters":29600,"station_id":"crv51consjfaj9uu89c0","pricing_plan_id":"cebpf4jnsgd1na2vs0mg"},{"bike_id":"b39c4916-4417-4523-8be5-8fb177a6f3de","system_id":"levelo_inurba_marseille","lat":43.29277,"lon":5.3683,"is_reserved":false,"is_disabled":false,"rental_uris":{"android":"levelo://app?vid=b39c4916-4417-4523-8be5-8fb177a6f3de","ios":"levelo://app?vid=b39c4916-4417-4523-8be5-8fb177a6f3de"},"vehicle_type_id":"4","last_reported":1728227327,"current_range_meters":38800,"station_id":"ce4bhbp2rcd13ifvqesg","pricing_plan_id":"cebpf4jnsgd1na2vs0mg"},{"bike_id":"13ddd84a-c17d-4ff4-97c0-d9330910ac53","system_id":"levelo_inurba_marseille","lat":43.26803,"lon":5.40273,"is_reserved":false,"is_disabled":false,"rental_uris":{"android":"levelo://app?vid=13ddd84a-c17d-4ff4-97c0-d9330910ac53","ios":"levelo://app?vid=13ddd84a-c17d-4ff4-97c0-d9330910ac53"},"vehicle_type_id":"4","last_reported":1728227327,"current_range_meters":4000,"station_id":"ce501612rcd8frsf0b60","pricing_plan_id":"cebpf4jnsgd1na2vs0mg"},{"bike_id":"b1838a8a-5724-48f4-8b08-ccb2775a3430","system_id":"levelo_inurba_marseille","lat":43.30539,"lon":5.36517,"is_reserved":false,"is_disabled":false,"rental_uris":{"android":"levelo://app?vid=b1838a8a-5724-48f4-8b08-ccb2775a3430","ios":"levelo://app?vid=b1838a8a-5724-48f4-8b08-ccb2775a3430"},"vehicle_type_id":"4","last_reported":1728227327,"current_range_meters":14400,"station_id":"ce4bgs12rcd13ifvqcag","pricing_plan_id":"cebpf4jnsgd1na2vs0mg"},{"bike_id":"91605665-f5dd-4531-b9fd-1413326ef0f9","system_id":"levelo_inurba_marseille","lat":43.24167,"lon":5.3639,"is_reserved":false,"is_disabled":false,"rental_uris":{"android":"levelo://app?vid=91605665-f5dd-4531-b9fd-1413326ef0f9","ios":"levelo://app?vid=91605665-f5dd-4531-b9fd-1413326ef0f9"},"vehicle_type_id":"4","last_reported":1728227327,"current_range_meters":9600,"station_id":"cpo36qri1sfpv3e86is0","pricing_plan_id":"cebpf4jnsgd1na2vs0mg"},{"bike_id":"aa8b7634-d2bd-40a9-9fe1-85de70302078","system_id":"levelo_inurba_marseille","lat":43.30137,"lon":5.38777,"is_reserved":false,"is_disabled":false,"rental_uris":{"android":"levelo://app?vid=aa8b7634-d2bd-40a9-9fe1-85de70302078","ios":"levelo://app?vid=aa8b7634-d2bd-40a9-9fe1-85de70302078"},"vehicle_type_id":"4","last_reported":1728227327,"current_range_meters":17600,"station_id":"ce4bghh2rcd13ifvqb60","pricing_plan_id":"cebpf4jnsgd1na2vs0mg"},{"bike_id":"4fa0f25d-4195-4998-b068-750471257d33","system_id":"levelo_inurba_marseille","lat":43.262,"lon":5.37927,"is_reserved":false,"is_disabled":false,"rental_uris":{"android":"levelo://app?vid=4fa0f25d-4195-4998-b068-750471257d33","ios":"levelo://app?vid=4fa0f25d-4195-4998-b068-750471257d33"},"vehicle_type_id":"4","last_reported":1728227327,"current_range_meters":17600,"station_id":"ce4bhjp2rcd13ifvqg90","pricing_plan_id":"cebpf4jnsgd1na2vs0mg"},{"bike_id":"bdefae95-7cc5-4880-bfcb-b1af39586be0","system_id":"levelo_inurba_marseille","lat":43.32654,"lon":5.4099,"is_reserved":false,"is_disabled":false,"rental_uris":{"android":"levelo://app?vid=bdefae95-7cc5-4880-bfcb-b1af39586be0","ios":"levelo://app?vid=bdefae95-7cc5-4880-bfcb-b1af39586be0"},"vehicle_type_id":"4","last_reported":1728227327,"current_range_meters":36400,"station_id":"ce4bhpp2rcd13ifvqhgg","pricing_plan_id":"cebpf4jnsgd1na2vs0mg"},{"bike_id":"7f2584c3-186b-4ca9-b416-bee639b50e12","system_id":"levelo_inurba_marseille","lat":43.2294,"lon":5.35378,"is_reserved":false,"is_disabled":false,"rental_uris":{"android":"levelo://app?vid=7f2584c3-186b-4ca9-b416-bee639b50e12","ios":"levelo://app?vid=7f2584c3-186b-4ca9-b416-bee639b50e12"},"vehicle_type_id":"4","last_reported":1728227327,"current_range_meters":28400,"station_id":"cpo3532slgdg3j2ikp40","pricing_plan_id":"cebpf4jnsgd1na2vs0mg"},{"bike_id":"0c2dfba0-c6f8-486e-b3c0-08dfd47b6ec4","system_id":"levelo_inurba_marseille","lat":43.30321,"lon":5.36885,"is_reserved":false,"is_disabled":false,"rental_uris":{"android":"levelo://app?vid=0c2dfba0-c6f8-486e-b3c0-08dfd47b6ec4","ios":"levelo://app?vid=0c2dfba0-c6f8-486e-b3c0-08dfd47b6ec4"},"vehicle_type_id":"4","last_reported":1728227327,"current_range_meters":39200,"station_id":"ce4bgqh2rcd13ifvqc5g","pricing_plan_id":"cebpf4jnsgd1na2vs0mg"},{"bike_id":"1d152269-c2fa-4900-bfa9-f20a095e29df","system_id":"levelo_inurba_marseille","lat":43.25721,"lon":5.41107,"is_reserved":false,"is_disabled":false,"rental_uris":{"android":"levelo://app?vid=1d152269-c2fa-4900-bfa9-f20a095e29df","ios":"levelo://app?vid=1d152269-c2fa-4900-bfa9-f20a095e29df"},"vehicle_type_id":"4","last_reported":1728227327,"current_range_meters":38800,"station_id":"ce4bhkp2rcd13ifvqgd0","pricing_plan_id":"cebpf4jnsgd1na2vs0mg"},{"bike_id":"5182113f-8908-4825-903e-5a46e19bca5b","system_id":"levelo_inurba_marseille","lat":43.32472,"lon":5.36569,"is_reserved":false,"is_disabled":false,"rental_uris":{"android":"levelo://app?vid=5182113f-8908-4825-903e-5a46e19bca5b","ios":"levelo://app?vid=5182113f-8908-4825-903e-5a46e19bca5b"},"vehicle_type_id":"4","last_reported":1728227327,"current_range_meters":6000,"station_id":"ce4bhs12rcd13ifvqhvg","pricing_plan_id":"cebpf4jnsgd1na2vs0mg"},{"bike_id":"e03c9d0c-17ae-4003-b903-fd8aa9951041","system_id":"levelo_inurba_marseille","lat":43.33743,"lon":5.37441,"is_reserved":false,"is_disabled":false,"rental_uris":{"android":"levelo://app?vid=e03c9d0c-17ae-4003-b903-fd8aa9951041","ios":"levelo://app?vid=e03c9d0c-17ae-4003-b903-fd8aa9951041"},"vehicle_type_id":"4","last_reported":1728227327,"current_range_meters":33200,"station_id":"","pricing_plan_id":"cebpf4jnsgd1na2vs0mg"},{"bike_id":"2c112032-0c06-445b-965c-ddea6029b20c","system_id":"levelo_inurba_marseille","lat":43.30902,"lon":5.37203,"is_reserved":false,"is_disabled":false,"rental_uris":{"android":"levelo://app?vid=2c112032-0c06-445b-965c-ddea6029b20c","ios":"levelo://app?vid=2c112032-0c06-445b-965c-ddea6029b20c"},"vehicle_type_id":"4","last_reported":1728227327,"current_range_meters":12000,"station_id":"ce4bguh2rcd13ifvqckg","pricing_plan_id":"cebpf4jnsgd1na2vs0mg"},{"bike_id":"7e72eaeb-a6fb-4a67-8744-c824fa494a02","system_id":"levelo_inurba_marseille","lat":43.258677,"lon":5.398903,"is_reserved":false,"is_disabled":false,"rental_uris":{"android":"levelo://app?vid=7e72eaeb-a6fb-4a67-8744-c824fa494a02","ios":"levelo://app?vid=7e72eaeb-a6fb-4a67-8744-c824fa494a02"},"vehicle_type_id":"4","last_reported":1728227327,"current_range_meters":8400,"station_id":"ce4bhl92rcd13ifvqghg","pricing_plan_id":"cebpf4jnsgd1na2vs0mg"},{"bike_id":"fadcf6aa-e1cf-44d1-88d8-678c1291d969","system_id":"levelo_inurba_marseille","lat":43.32341,"lon":5.40626,"is_reserved":false,"is_disabled":false,"rental_uris":{"android":"levelo://app?vid=fadcf6aa-e1cf-44d1-88d8-678c1291d969","ios":"levelo://app?vid=fadcf6aa-e1cf-44d1-88d8-678c1291d969"},"vehicle_type_id":"4","last_reported":1728227327,"current_range_meters":37600,"station_id":"ce4bhq92rcd13ifvqhjg","pricing_plan_id":"cebpf4jnsgd1na2vs0mg"},{"bike_id":"b3e6156c-5886-4610-8644-453f863a0d14","system_id":"levelo_inurba_marseille","lat":43.27069,"lon":5.42274,"is_reserved":false,"is_disabled":false,"rental_uris":{"android":"levelo://app?vid=b3e6156c-5886-4610-8644-453f863a0d14","ios":"levelo://app?vid=b3e6156c-5886-4610-8644-453f863a0d14"},"vehicle_type_id":"4","last_reported":1728227327,"current_range_meters":28800,"station_id":"ce4bhk92rcd13ifvqgb0","pricing_plan_id":"cebpf4jnsgd1na2vs0mg"},{"bike_id":"fbec104b-cb10-4ee6-8280-b085019e42b0","system_id":"levelo_inurba_marseille","lat":43.22934,"lon":5.35381,"is_reserved":false,"is_disabled":false,"rental_uris":{"android":"levelo://app?vid=fbec104b-cb10-4ee6-8280-b085019e42b0","ios":"levelo://app?vid=fbec104b-cb10-4ee6-8280-b085019e42b0"},"vehicle_type_id":"4","last_reported":1728227327,"current_range_meters":32000,"station_id":"cpo3532slgdg3j2ikp40","pricing_plan_id":"cebpf4jnsgd1na2vs0mg"},{"bike_id":"916602a9-8858-4004-8f54-ec62dd5afd7d","system_id":"levelo_inurba_marseille","lat":43.29168,"lon":5.3715,"is_reserved":false,"is_disabled":false,"rental_uris":{"android":"levelo://app?vid=916602a9-8858-4004-8f54-ec62dd5afd7d","ios":"levelo://app?vid=916602a9-8858-4004-8f54-ec62dd5afd7d"},"vehicle_type_id":"4","last_reported":1728227327,"current_range_meters":37600,"station_id":"ce4bha92rcd13ifvqeh0","pricing_plan_id":"cebpf4jnsgd1na2vs0mg"},{"bike_id":"3b0ecdd2-778f-4574-9ccf-4b706a5b2360","system_id":"levelo_inurba_marseille","lat":43.2135,"lon":5.34936,"is_reserved":false,"is_disabled":false,"rental_uris":{"android":"levelo://app?vid=3b0ecdd2-778f-4574-9ccf-4b706a5b2360","ios":"levelo://app?vid=3b0ecdd2-778f-4574-9ccf-4b706a5b2360"},"vehicle_type_id":"4","last_reported":1728227327,"current_range_meters":19600,"station_id":"crv51consjfaj9uu89c0","pricing_plan_id":"cebpf4jnsgd1na2vs0mg"},{"bike_id":"fac1c5fc-5723-49dd-a1c9-4e58fd52cefd","system_id":"levelo_inurba_marseille","lat":43.30433,"lon":5.38899,"is_reserved":false,"is_disabled":false,"rental_uris":{"android":"levelo://app?vid=fac1c5fc-5723-49dd-a1c9-4e58fd52cefd","ios":"levelo://app?vid=fac1c5fc-5723-49dd-a1c9-4e58fd52cefd"},"vehicle_type_id":"4","last_reported":1728227327,"current_range_meters":38800,"station_id":"ce4bgk12rcd13ifvqbi0","pricing_plan_id":"cebpf4jnsgd1na2vs0mg"},{"bike_id":"24963a71-29fc-4b78-bc58-245c9bead978","system_id":"levelo_inurba_marseille","lat":43.33016,"lon":5.3904,"is_reserved":false,"is_disabled":false,"rental_uris":{"android":"levelo://app?vid=24963a71-29fc-4b78-bc58-245c9bead978","ios":"levelo://app?vid=24963a71-29fc-4b78-bc58-245c9bead978"},"vehicle_type_id":"4","last_reported":1728227327,"current_range_meters":38400,"station_id":"ce4bhr92rcd13ifvqhrg","pricing_plan_id":"cebpf4jnsgd1na2vs0mg"},{"bike_id":"292f0c84-a190-47c3-b7f2-36048537c2cf","system_id":"levelo_inurba_marseille","lat":43.31094,"lon":5.36717,"is_reserved":false,"is_disabled":false,"rental_uris":{"android":"levelo://app?vid=292f0c84-a190-47c3-b7f2-36048537c2cf","ios":"levelo://app?vid=292f0c84-a190-47c3-b7f2-36048537c2cf"},"vehicle_type_id":"4","last_reported":1728227327,"current_range_meters":3600,"station_id":"ce4bgl92rcd13ifvqbq0","pricing_plan_id":"cebpf4jnsgd1na2vs0mg"},{"bike_id":"ec3eb167-e791-49e3-b15b-5aa952c92ee2","system_id":"levelo_inurba_marseille","lat":43.29717,"lon":5.37706,"is_reserved":false,"is_disabled":false,"rental_uris":{"android":"levelo://app?vid=ec3eb167-e791-49e3-b15b-5aa952c92ee2","ios":"levelo://app?vid=ec3eb167-e791-49e3-b15b-5aa952c92ee2"},"vehicle_type_id":"4","last_reported":1728227327,"current_range_meters":20000,"station_id":"ce4bgkh2rcd13ifvqbl0","pricing_plan_id":"cebpf4jnsgd1na2vs0mg"},{"bike_id":"3788be54-f989-46d7-9658-11843522d394","system_id":"levelo_inurba_marseille","lat":43.25821,"lon":5.3943,"is_reserved":false,"is_disabled":false,"rental_uris":{"android":"levelo://app?vid=3788be54-f989-46d7-9658-11843522d394","ios":"levelo://app?vid=3788be54-f989-46d7-9658-11843522d394"},"vehicle_type_id":"4","last_reported":1728227327,"current_range_meters":37600,"station_id":"ce4bhip2rcd13ifvqft0","pricing_plan_id":"cebpf4jnsgd1na2vs0mg"},{"bike_id":"b803b63c-b0ba-4334-9db5-d69d334cfb5b","system_id":"levelo_inurba_marseille","lat":43.30208,"lon":5.39464,"is_reserved":false,"is_disabled":false,"rental_uris":{"android":"levelo://app?vid=b803b63c-b0ba-4334-9db5-d69d334cfb5b","ios":"levelo://app?vid=b803b63c-b0ba-4334-9db5-d69d334cfb5b"},"vehicle_type_id":"4","last_reported":1728227327,"current_range_meters":34800,"station_id":"ce4bh0p2rcd13ifvqd70","pricing_plan_id":"cebpf4jnsgd1na2vs0mg"},{"bike_id":"c95eacf5-b89b-4bca-8095-1c680992358d","system_id":"levelo_inurba_marseille","lat":43.290283,"lon":5.386485,"is_reserved":false,"is_disabled":false,"rental_uris":{"android":"levelo://app?vid=c95eacf5-b89b-4bca-8095-1c680992358d","ios":"levelo://app?vid=c95eacf5-b89b-4bca-8095-1c680992358d"},"vehicle_type_id":"4","last_reported":1728227327,"current_range_meters":38000,"station_id":"ce4bgl12rcd13ifvqbo0","pricing_plan_id":"cebpf4jnsgd1na2vs0mg"},{"bike_id":"efcba5d3-9582-4639-8612-723f74ead2e8","system_id":"levelo_inurba_marseille","lat":43.26214,"lon":5.37443,"is_reserved":false,"is_disabled":false,"rental_uris":{"android":"levelo://app?vid=efcba5d3-9582-4639-8612-723f74ead2e8","ios":"levelo://app?vid=efcba5d3-9582-4639-8612-723f74ead2e8"},"vehicle_type_id":"4","last_reported":1728227327,"current_range_meters":16400,"station_id":"ce4bhgp2rcd13ifvqfc0","pricing_plan_id":"cebpf4jnsgd1na2vs0mg"},{"bike_id":"e7b8aaf0-0288-475a-a597-c740c558d3f0","system_id":"levelo_inurba_marseille","lat":43.29928,"lon":5.36531,"is_reserved":false,"is_disabled":false,"rental_uris":{"android":"levelo://app?vid=e7b8aaf0-0288-475a-a597-c740c558d3f0","ios":"levelo://app?vid=e7b8aaf0-0288-475a-a597-c740c558d3f0"},"vehicle_type_id":"4","last_reported":1728227327,"current_range_meters":24400,"station_id":"ce4bgm92rcd13ifvqbr0","pricing_plan_id":"cebpf4jnsgd1na2vs0mg"},{"bike_id":"6856d22e-440d-40d9-809f-3167dacdbdc3","system_id":"levelo_inurba_marseille","lat":43.337444,"lon":5.374475,"is_reserved":false,"is_disabled":false,"rental_uris":{"android":"levelo://app?vid=6856d22e-440d-40d9-809f-3167dacdbdc3","ios":"levelo://app?vid=6856d22e-440d-40d9-809f-3167dacdbdc3"},"vehicle_type_id":"4","last_reported":1728227327,"current_range_meters":14400,"station_id":"","pricing_plan_id":"cebpf4jnsgd1na2vs0mg"},{"bike_id":"64bd957e-b978-44cb-a85c-928d627d24ec","system_id":"levelo_inurba_marseille","lat":43.35424,"lon":5.35869,"is_reserved":false,"is_disabled":false,"rental_uris":{"android":"levelo://app?vid=64bd957e-b978-44cb-a85c-928d627d24ec","ios":"levelo://app?vid=64bd957e-b978-44cb-a85c-928d627d24ec"},"vehicle_type_id":"4","last_reported":1728227327,"current_range_meters":2800,"station_id":"","pricing_plan_id":"cebpf4jnsgd1na2vs0mg"},{"bike_id":"d7e70e7a-11ef-4436-bef7-5c513c402b93","system_id":"levelo_inurba_marseille","lat":43.31479,"lon":5.37307,"is_reserved":false,"is_disabled":false,"rental_uris":{"android":"levelo://app?vid=d7e70e7a-11ef-4436-bef7-5c513c402b93","ios":"levelo://app?vid=d7e70e7a-11ef-4436-bef7-5c513c402b93"},"vehicle_type_id":"4","last_reported":1728227327,"current_range_meters":26000,"station_id":"ce4bgt12rcd13ifvqcd0","pricing_plan_id":"cebpf4jnsgd1na2vs0mg"},{"bike_id":"85622047-a035-49d4-b4ec-a72f4c78ac04","system_id":"levelo_inurba_marseille","lat":43.28338,"lon":5.38107,"is_reserved":false,"is_disabled":false,"rental_uris":{"android":"levelo://app?vid=85622047-a035-49d4-b4ec-a72f4c78ac04","ios":"levelo://app?vid=85622047-a035-49d4-b4ec-a72f4c78ac04"},"vehicle_type_id":"4","last_reported":1728227327,"current_range_meters":31200,"station_id":"ce4bh412rcd13ifvqdr0","pricing_plan_id":"cebpf4jnsgd1na2vs0mg"},{"bike_id":"79d4ce44-dde0-4856-adfb-9d048612b764","system_id":"levelo_inurba_marseille","lat":43.2134,"lon":5.34942,"is_reserved":false,"is_disabled":false,"rental_uris":{"android":"levelo://app?vid=79d4ce44-dde0-4856-adfb-9d048612b764","ios":"levelo://app?vid=79d4ce44-dde0-4856-adfb-9d048612b764"},"vehicle_type_id":"4","last_reported":1728227327,"current_range_meters":33600,"station_id":"crv51consjfaj9uu89c0","pricing_plan_id":"cebpf4jnsgd1na2vs0mg"},{"bike_id":"6668a0c3-33de-4932-a622-00c4a001393a","system_id":"levelo_inurba_marseille","lat":43.30308,"lon":5.36899,"is_reserved":false,"is_disabled":false,"rental_uris":{"android":"levelo://app?vid=6668a0c3-33de-4932-a622-00c4a001393a","ios":"levelo://app?vid=6668a0c3-33de-4932-a622-00c4a001393a"},"vehicle_type_id":"4","last_reported":1728227327,"current_range_meters":38800,"station_id":"ce4bgqh2rcd13ifvqc5g","pricing_plan_id":"cebpf4jnsgd1na2vs0mg"},{"bike_id":"6362dd7e-711b-4b82-af8e-291ea8f6ea1e","system_id":"levelo_inurba_marseille","lat":43.21342,"lon":5.34946,"is_reserved":false,"is_disabled":false,"rental_uris":{"android":"levelo://app?vid=6362dd7e-711b-4b82-af8e-291ea8f6ea1e","ios":"levelo://app?vid=6362dd7e-711b-4b82-af8e-291ea8f6ea1e"},"vehicle_type_id":"4","last_reported":1728227327,"current_range_meters":30400,"station_id":"crv51consjfaj9uu89c0","pricing_plan_id":"cebpf4jnsgd1na2vs0mg"},{"bike_id":"9f8202da-1767-4639-be1a-058a6ad96a61","system_id":"levelo_inurba_marseille","lat":43.32109,"lon":5.36766,"is_reserved":false,"is_disabled":false,"rental_uris":{"android":"levelo://app?vid=9f8202da-1767-4639-be1a-058a6ad96a61","ios":"levelo://app?vid=9f8202da-1767-4639-be1a-058a6ad96a61"},"vehicle_type_id":"4","last_reported":1728227327,"current_range_meters":20400,"station_id":"ce4bhrh2rcd13ifvqhug","pricing_plan_id":"cebpf4jnsgd1na2vs0mg"},{"bike_id":"63a295d5-ccee-4f60-bccd-f695698ce0bb","system_id":"levelo_inurba_marseille","lat":43.26554,"lon":5.37279,"is_reserved":false,"is_disabled":false,"rental_uris":{"android":"levelo://app?vid=63a295d5-ccee-4f60-bccd-f695698ce0bb","ios":"levelo://app?vid=63a295d5-ccee-4f60-bccd-f695698ce0bb"},"vehicle_type_id":"4","last_reported":1728227327,"current_range_meters":20400,"station_id":"ce4bhg12rcd13ifvqf70","pricing_plan_id":"cebpf4jnsgd1na2vs0mg"},{"bike_id":"aecd39b0-25c1-4970-97e1-7c0a07657f51","system_id":"levelo_inurba_marseille","lat":43.32336,"lon":5.40618,"is_reserved":false,"is_disabled":false,"rental_uris":{"android":"levelo://app?vid=aecd39b0-25c1-4970-97e1-7c0a07657f51","ios":"levelo://app?vid=aecd39b0-25c1-4970-97e1-7c0a07657f51"},"vehicle_type_id":"4","last_reported":1728227327,"current_range_meters":19200,"station_id":"ce4bhq92rcd13ifvqhjg","pricing_plan_id":"cebpf4jnsgd1na2vs0mg"},{"bike_id":"922b75fe-e52a-49a2-ba1d-aa2180fe1417","system_id":"levelo_inurba_marseille","lat":43.30551,"lon":5.36528,"is_reserved":false,"is_disabled":false,"rental_uris":{"android":"levelo://app?vid=922b75fe-e52a-49a2-ba1d-aa2180fe1417","ios":"levelo://app?vid=922b75fe-e52a-49a2-ba1d-aa2180fe1417"},"vehicle_type_id":"4","last_reported":1728227327,"current_range_meters":38800,"station_id":"ce4bgs12rcd13ifvqcag","pricing_plan_id":"cebpf4jnsgd1na2vs0mg"},{"bike_id":"2635360e-2b1e-4a55-94e8-170ce835a25b","system_id":"levelo_inurba_marseille","lat":43.2993,"lon":5.36532,"is_reserved":false,"is_disabled":false,"rental_uris":{"android":"levelo://app?vid=2635360e-2b1e-4a55-94e8-170ce835a25b","ios":"levelo://app?vid=2635360e-2b1e-4a55-94e8-170ce835a25b"},"vehicle_type_id":"4","last_reported":1728227327,"current_range_meters":36000,"station_id":"ce4bgm92rcd13ifvqbr0","pricing_plan_id":"cebpf4jnsgd1na2vs0mg"},{"bike_id":"e81a97aa-20d7-4368-9416-cafa994e3364","system_id":"levelo_inurba_marseille","lat":43.288757,"lon":5.378713,"is_reserved":false,"is_disabled":false,"rental_uris":{"android":"levelo://app?vid=e81a97aa-20d7-4368-9416-cafa994e3364","ios":"levelo://app?vid=e81a97aa-20d7-4368-9416-cafa994e3364"},"vehicle_type_id":"4","last_reported":1728227327,"current_range_meters":22000,"station_id":"ce4bh9p2rcd13ifvqec0","pricing_plan_id":"cebpf4jnsgd1na2vs0mg"},{"bike_id":"2d6b6017-1a56-414f-8b5a-3621622c2838","system_id":"levelo_inurba_marseille","lat":43.30641,"lon":5.40098,"is_reserved":false,"is_disabled":false,"rental_uris":{"android":"levelo://app?vid=2d6b6017-1a56-414f-8b5a-3621622c2838","ios":"levelo://app?vid=2d6b6017-1a56-414f-8b5a-3621622c2838"},"vehicle_type_id":"4","last_reported":1728227327,"current_range_meters":4000,"station_id":"ce4bh112rcd13ifvqda0","pricing_plan_id":"cebpf4jnsgd1na2vs0mg"},{"bike_id":"091e2877-d686-4435-97d8-44c9b3713089","system_id":"levelo_inurba_marseille","lat":43.30526,"lon":5.36536,"is_reserved":false,"is_disabled":false,"rental_uris":{"android":"levelo://app?vid=091e2877-d686-4435-97d8-44c9b3713089","ios":"levelo://app?vid=091e2877-d686-4435-97d8-44c9b3713089"},"vehicle_type_id":"4","last_reported":1728227327,"current_range_meters":38800,"station_id":"ce4bgs12rcd13ifvqcag","pricing_plan_id":"cebpf4jnsgd1na2vs0mg"},{"bike_id":"5db9eaf8-e4f5-4ac4-87ee-abb45a57b17e","system_id":"levelo_inurba_marseille","lat":43.31273,"lon":5.40167,"is_reserved":false,"is_disabled":false,"rental_uris":{"android":"levelo://app?vid=5db9eaf8-e4f5-4ac4-87ee-abb45a57b17e","ios":"levelo://app?vid=5db9eaf8-e4f5-4ac4-87ee-abb45a57b17e"},"vehicle_type_id":"4","last_reported":1728227327,"current_range_meters":28000,"station_id":"ce4bh092rcd13ifvqd30","pricing_plan_id":"cebpf4jnsgd1na2vs0mg"},{"bike_id":"abe4a8d5-2b8d-40f9-aef3-b3710ae95292","system_id":"levelo_inurba_marseille","lat":43.312286,"lon":5.368534,"is_reserved":false,"is_disabled":false,"rental_uris":{"android":"levelo://app?vid=abe4a8d5-2b8d-40f9-aef3-b3710ae95292","ios":"levelo://app?vid=abe4a8d5-2b8d-40f9-aef3-b3710ae95292"},"vehicle_type_id":"4","last_reported":1728227327,"current_range_meters":29600,"station_id":"ce4bgl92rcd13ifvqbq0","pricing_plan_id":"cebpf4jnsgd1na2vs0mg"},{"bike_id":"fbab334e-6568-46ac-88f7-b856d9d2d598","system_id":"levelo_inurba_marseille","lat":43.23194,"lon":5.35548,"is_reserved":false,"is_disabled":false,"rental_uris":{"android":"levelo://app?vid=fbab334e-6568-46ac-88f7-b856d9d2d598","ios":"levelo://app?vid=fbab334e-6568-46ac-88f7-b856d9d2d598"},"vehicle_type_id":"4","last_reported":1728227327,"current_range_meters":25600,"station_id":"ce4bhu92rcd13ifvqi70","pricing_plan_id":"cebpf4jnsgd1na2vs0mg"},{"bike_id":"1043a868-f533-4594-865b-f504e8e65b7c","system_id":"levelo_inurba_marseille","lat":43.21368,"lon":5.34942,"is_reserved":false,"is_disabled":false,"rental_uris":{"android":"levelo://app?vid=1043a868-f533-4594-865b-f504e8e65b7c","ios":"levelo://app?vid=1043a868-f533-4594-865b-f504e8e65b7c"},"vehicle_type_id":"4","last_reported":1728227327,"current_range_meters":7200,"station_id":"","pricing_plan_id":"cebpf4jnsgd1na2vs0mg"},{"bike_id":"8caf0cdd-d9f9-412c-9b33-63f2ab56e7f8","system_id":"levelo_inurba_marseille","lat":43.25118,"lon":5.40312,"is_reserved":false,"is_disabled":false,"rental_uris":{"android":"levelo://app?vid=8caf0cdd-d9f9-412c-9b33-63f2ab56e7f8","ios":"levelo://app?vid=8caf0cdd-d9f9-412c-9b33-63f2ab56e7f8"},"vehicle_type_id":"4","last_reported":1728227327,"current_range_meters":14400,"station_id":"ce4bhlh2rcd13ifvqgig","pricing_plan_id":"cebpf4jnsgd1na2vs0mg"},