{"last_updated":1769116380,"ttl":60,"version":"2.2","data":{"bikes":[{"bike_id":"6a834cca-1107-46ce-a852-97045d1233df","system_id":"levelo_inurba_marseille","lat":43.250003,"lon":5.389279,"is_reserved":false,"is_disabled":false,"rental_uris":{"android":"levelo://app?vid=6a834cca-1107-46ce-a852-97045d1233df","ios":"levelo://app?vid=6a834cca-1107-46ce-a852-97045d1233df"},"vehicle_type_id":"4","last_reported":1769116381,"current_range_meters":2800,"station_id":"ce4bhgp2rcd13ifvqfd0","pricing_plan_id":"cebpf4jnsgd1na2vs0mg"},{"bike_id":"32781058-15ad-4cd6-bd65-88de1011a3ff","system_id":"levelo_inurba_marseille","lat":43.2866,"lon":5.38731,"is_reserved":false,"is_disabled":false,"rental_uris":{"android":"levelo://app?vid=32781058-15ad-4cd6-bd65-88de1011a3ff","ios":"levelo://app?vid=32781058-15ad-4cd6-bd65-88de1011a3ff"},"vehicle_type_id":"4","last_reported":1769116381,"current_range_meters":2800,"station_id":"ce4bh492rcd13ifvqdug","pricing_plan_id":"cebpf4jnsgd1na2vs0mg"},{"bike_id":"e87d00b3-c954-47d8-8b5c-e1d279e5112d","system_id":"levelo_inurba_marseille","lat":43.27958,"lon":5.38752,"is_reserved":false,"is_disabled":false,"rental_uris":{"android":"levelo://app?vid=e87d00b3-c954-47d8-8b5c-e1d279e5112d","ios":"levelo://app?vid=e87d00b3-c954-47d8-8b5c-e1d279e5112d"},"vehicle_type_id":"4","last_reported":1769116381,"current_range_meters":2800,"station_id":"ce4bhg12rcd13ifvqf80","pricing_plan_id":"cebpf4jnsgd1na2vs0mg"},{"bike_id":"206441f8-aeae-4f5a-aba6-5de70a26d57c","system_id":"levelo_inurba_marseille","lat":43.2654,"lon":5.37296,"is_reserved":false,"is_disabled":false,"rental_uris":{"android":"levelo://app?vid=206441f8-aeae-4f5a-aba6-5de70a26d57c","ios":"levelo://app?vid=206441f8-aeae-4f5a-aba6-5de70a26d57c"},"vehicle_type_id":"4","last_reported":1769116381,"current_range_meters":2800,"station_id":"ce4bhg12rcd13ifvqf70","pricing_plan_id":"cebpf4jnsgd1na2vs0mg"},{"bike_id":"fe2a828f-710f-491e-b529-f22ca09a8365","system_id":"levelo_inurba_marseille","lat":43.30745,"lon":5.40943,"is_reserved":false,"is_disabled":false,"rental_uris":{"android":"levelo://app?vid=fe2a828f-710f-491e-b529-f22ca09a8365","ios":"levelo://app?vid=fe2a828f-710f-491e-b529-f22ca09a8365"},"vehicle_type_id":"4","last_reported":1769116381,"current_range_meters":2800,"station_id":"","pricing_plan_id":"cebpf4jnsgd1na2vs0mg"},{"bike_id":"6c4e672c-68ac-448f-be9f-20bcb8c02f5c","system_id":"levelo_inurba_marseille","lat":43.23951,"lon":5.36678,"is_reserved":false,"is_disabled":false,"rental_uris":{"android":"levelo://app?vid=6c4e672c-68ac-448f-be9f-20bcb8c02f5c","ios":"levelo://app?vid=6c4e672c-68ac-448f-be9f-20bcb8c02f5c"},"vehicle_type_id":"4","last_reported":1769116381,"current_range_meters":2800,"station_id":"ce4bhi12rcd13ifvqfp0","pricing_plan_id":"cebpf4jnsgd1na2vs0mg"},{"bike_id":"9dcbfcab-91bd-4a02-ba64-15e2df65b4a0","system_id":"levelo_inurba_marseille","lat":43.29519,"lon":5.39405,"is_reserved":false,"is_disabled":false,"rental_uris":{"android":"levelo://app?vid=9dcbfcab-91bd-4a02-ba64-15e2df65b4a0","ios":"levelo://app?vid=9dcbfcab-91bd-4a02-ba64-15e2df65b4a0"},"vehicle_type_id":"4","last_reported":1769116381,"current_range_meters":2800,"station_id":"ce4bh292rcd13ifvqdf0","pricing_plan_id":"cebpf4jnsgd1na2vs0mg"},{"bike_id":"ef6fae58-91e5-4bb7-aaac-7e9985256503","system_id":"levelo_inurba_marseille","lat":43.29258,"lon":5.40924,"is_reserved":false,"is_disabled":false,"rental_uris":{"android":"levelo://app?vid=ef6fae58-91e5-4bb7-aaac-7e9985256503","ios":"levelo://app?vid=ef6fae58-91e5-4bb7-aaac-7e9985256503"},"vehicle_type_id":"4","last_reported":1769116381,"current_range_meters":2800,"station_id":"ce4bh192rcd13ifvqdc0","pricing_plan_id":"cebpf4jnsgd1na2vs0mg"},{"bike_id":"94d782ce-d646-4a15-909c-4c48f4840c8d","system_id":"levelo_inurba_marseille","lat":43.25815,"lon":5.39434,"is_reserved":false,"is_disabled":false,"rental_uris":{"android":"levelo://app?vid=94d782ce-d646-4a15-909c-4c48f4840c8d","ios":"levelo://app?vid=94d782ce-d646-4a15-909c-4c48f4840c8d"},"vehicle_type_id":"4","last_reported":1769116381,"current_range_meters":2800,"station_id":"ce4bhip2rcd13ifvqft0","pricing_plan_id":"cebpf4jnsgd1na2vs0mg"},{"bike_id":"3a86c55a-2f60-41ec-b5de-04c4359e8f2d","system_id":"levelo_inurba_marseille","lat":43.28441,"lon":5.39152,"is_reserved":false,"is_disabled":false,"rental_uris":{"android":"levelo://app?vid=3a86c55a-2f60-41ec-b5de-04c4359e8f2d","ios":"levelo://app?vid=3a86c55a-2f60-41ec-b5de-04c4359e8f2d"},"vehicle_type_id":"4","last_reported":1769116381,"current_range_meters":3200,"station_id":"ce4bhoh2rcd13ifvqh5g","pricing_plan_id":"cebpf4jnsgd1na2vs0mg"},{"bike_id":"44369433-3722-49bf-8266-c5a873737108","system_id":"levelo_inurba_marseille","lat":43.23789,"lon":5.36625,"is_reserved":false,"is_disabled":false,"rental_uris":{"android":"levelo://app?vid=44369433-3722-49bf-8266-c5a873737108","ios":"levelo://app?vid=44369433-3722-49bf-8266-c5a873737108"},"vehicle_type_id":"4","last_reported":1769116381,"current_range_meters":3200,"station_id":"st_d3nk18o9ro0c73en2l3g","pricing_plan_id":"cebpf4jnsgd1na2vs0mg"},{"bike_id":"d3f11aea-b576-4185-aa30-1235ffc9b1f0","system_id":"levelo_inurba_marseille","lat":43.29245,"lon":5.37633,"is_reserved":false,"is_disabled":false,"rental_uris":{"android":"levelo://app?vid=d3f11aea-b576-4185-aa30-1235ffc9b1f0","ios":"levelo://app?vid=d3f11aea-b576-4185-aa30-1235ffc9b1f0"},"vehicle_type_id":"4","last_reported":1769116381,"current_range_meters":3200,"station_id":"ce4bgi12rcd13ifvqb80","pricing_plan_id":"cebpf4jnsgd1na2vs0mg"},{"bike_id":"e57d2a63-9ea0-4782-b853-84f83ca06d65","system_id":"levelo_inurba_marseille","lat":43.294361,"lon":5.397567,"is_reserved":false,"is_disabled":false,"rental_uris":{"android":"levelo://app?vid=e57d2a63-9ea0-4782-b853-84f83ca06d65","ios":"levelo://app?vid=e57d2a63-9ea0-4782-b853-84f83ca06d65"},"vehicle_type_id":"4","last_reported":1769116381,"current_range_meters":3200,"station_id":"ce4bh3h2rcd13ifvqdo0","pricing_plan_id":"cebpf4jnsgd1na2vs0mg"},{"bike_id":"f3a01c85-86e9-4a7c-837b-602faf4bbfde","system_id":"levelo_inurba_marseille","lat":43.27993,"lon":5.38681,"is_reserved":false,"is_disabled":false,"rental_uris":{"android":"levelo://app?vid=f3a01c85-86e9-4a7c-837b-602faf4bbfde","ios":"levelo://app?vid=f3a01c85-86e9-4a7c-837b-602faf4bbfde"},"vehicle_type_id":"4","last_reported":1769116381,"current_range_meters":3200,"station_id":"","pricing_plan_id":"cebpf4jnsgd1na2vs0mg"},{"bike_id":"2e75e802-a6c8-46fe-9349-45e67405972a","system_id":"levelo_inurba_marseille","lat":43.31528,"lon":5.38038,"is_reserved":false,"is_disabled":false,"rental_uris":{"android":"levelo://app?vid=2e75e802-a6c8-46fe-9349-45e67405972a","ios":"levelo://app?vid=2e75e802-a6c8-46fe-9349-45e67405972a"},"vehicle_type_id":"4","last_reported":1769116381,"current_range_meters":3200,"station_id":"ce4bhsp2rcd13ifvqi50","pricing_plan_id":"cebpf4jnsgd1na2vs0mg"},{"bike_id":"24da7d1f-4c31-464c-8591-7c8451c98bcf","system_id":"levelo_inurba_marseille","lat":43.23147,"lon":5.43726,"is_reserved":false,"is_disabled":false,"rental_uris":{"android":"levelo://app?vid=24da7d1f-4c31-464c-8591-7c8451c98bcf","ios":"levelo://app?vid=24da7d1f-4c31-464c-8591-7c8451c98bcf"},"vehicle_type_id":"4","last_reported":1769116381,"current_range_meters":3200,"station_id":"ce4bhmp2rcd13ifvqgog","pricing_plan_id":"cebpf4jnsgd1na2vs0mg"},{"bike_id":"f0f4a5dd-cd91-498f-a7a2-9ab2e0e111cb","system_id":"levelo_inurba_marseille","lat":43.29055,"lon":5.35914,"is_reserved":false,"is_disabled":false,"rental_uris":{"android":"levelo://app?vid=f0f4a5dd-cd91-498f-a7a2-9ab2e0e111cb","ios":"levelo://app?vid=f0f4a5dd-cd91-498f-a7a2-9ab2e0e111cb"},"vehicle_type_id":"4","last_reported":1769116381,"current_range_meters":3200,"station_id":"ce4bha92rcd13ifvqeg0","pricing_plan_id":"cebpf4jnsgd1na2vs0mg"},{"bike_id":"70942bdb-cce8-4766-ba54-c7a8cb5b950f","system_id":"levelo_inurba_marseille","lat":43.25576,"lon":5.38227,"is_reserved":false,"is_disabled":false,"rental_uris":{"android":"levelo://app?vid=70942bdb-cce8-4766-ba54-c7a8cb5b950f","ios":"levelo://app?vid=70942bdb-cce8-4766-ba54-c7a8cb5b950f"},"vehicle_type_id":"4","last_reported":1769116381,"current_range_meters":3200,"station_id":"ce4bhih2rcd13ifvqfs0","pricing_plan_id":"cebpf4jnsgd1na2vs0mg"},{"bike_id":"7e161157-0cb6-4b47-8c78-bae0a480e4dd","system_id":"levelo_inurba_marseille","lat":43.30934,"lon":5.40147,"is_reserved":false,"is_disabled":false,"rental_uris":{"android":"levelo://app?vid=7e161157-0cb6-4b47-8c78-bae0a480e4dd","ios":"levelo://app?vid=7e161157-0cb6-4b47-8c78-bae0a480e4dd"},"vehicle_type_id":"4","last_reported":1769116381,"current_range_meters":3200,"station_id":"ce4bgvp2rcd13ifvqct0","pricing_plan_id":"cebpf4jnsgd1na2vs0mg"},{"bike_id":"99c4d33e-a334-4bcb-904f-4b07c1407b59","system_id":"levelo_inurba_marseille","lat":43.25405,"lon":5.41892,"is_reserved":false,"is_disabled":false,"rental_uris":{"android":"levelo://app?vid=99c4d33e-a334-4bcb-904f-4b07c1407b59","ios":"levelo://app?vid=99c4d33e-a334-4bcb-904f-4b07c1407b59"},"vehicle_type_id":"4","last_reported":1769116381,"current_range_meters":3200,"station_id":"","pricing_plan_id":"cebpf4jnsgd1na2vs0mg"},{"bike_id":"a4d44896-ca37-4d0e-8595-a2aee6d5f8ab","system_id":"levelo_inurba_marseille","lat":43.32096,"lon":5.36788,"is_reserved":false,"is_disabled":false,"rental_uris":{"android":"levelo://app?vid=a4d44896-ca37-4d0e-8595-a2aee6d5f8ab","ios":"levelo://app?vid=a4d44896-ca37-4d0e-8595-a2aee6d5f8ab"},"vehicle_type_id":"4","last_reported":1769116381,"current_range_meters":3200,"station_id":"ce4bhrh2rcd13ifvqhug","pricing_plan_id":"cebpf4jnsgd1na2vs0mg"},{"bike_id":"bf22db13-58cd-4393-9cf1-d411f7c0b6e4","system_id":"levelo_inurba_marseille","lat":43.29908,"lon":5.39776,"is_reserved":false,"is_disabled":false,"rental_uris":{"android":"levelo://app?vid=bf22db13-58cd-4393-9cf1-d411f7c0b6e4","ios":"levelo://app?vid=bf22db13-58cd-4393-9cf1-d411f7c0b6e4"},"vehicle_type_id":"4","last_reported":1769116381,"current_range_meters":3200,"station_id":"ce4bh0h2rcd13ifvqd50","pricing_plan_id":"cebpf4jnsgd1na2vs0mg"},{"bike_id":"c6df5a11-88ac-4c2d-966f-46bd5174cf60","system_id":"levelo_inurba_marseille","lat":43.28154,"lon":5.42658,"is_reserved":false,"is_disabled":false,"rental_uris":{"android":"levelo://app?vid=c6df5a11-88ac-4c2d-966f-46bd5174cf60","ios":"levelo://app?vid=c6df5a11-88ac-4c2d-966f-46bd5174cf60"},"vehicle_type_id":"4","last_reported":1769116381,"current_range_meters":3600,"station_id":"ce4bhnh2rcd13ifvqgug","pricing_plan_id":"cebpf4jnsgd1na2vs0mg"},{"bike_id":"1f374d1d-5345-4f57-ac3a-925f20df0c7e","system_id":"levelo_inurba_marseille","lat":43.22549,"lon":5.41637,"is_reserved":false,"is_disabled":false,"rental_uris":{"android":"levelo://app?vid=1f374d1d-5345-4f57-ac3a-925f20df0c7e","ios":"levelo://app?vid=1f374d1d-5345-4f57-ac3a-925f20df0c7e"},"vehicle_type_id":"4","last_reported":1769116381,"current_range_meters":3600,"station_id":"st_d2o4gvlbi1j2169b742g","pricing_plan_id":"cebpf4jnsgd1na2vs0mg"},{"bike_id":"ebc59118-e1a4-482d-84d0-eafb34b0b9ea","system_id":"levelo_inurba_marseille","lat":43.23787,"lon":5.36644,"is_reserved":false,"is_disabled":false,"rental_uris":{"android":"levelo://app?vid=ebc59118-e1a4-482d-84d0-eafb34b0b9ea","ios":"levelo://app?vid=ebc59118-e1a4-482d-84d0-eafb34b0b9ea"},"vehicle_type_id":"4","last_reported":1769116381,"current_range_meters":3600,"station_id":"st_d3nk18o9ro0c73en2l3g","pricing_plan_id":"cebpf4jnsgd1na2vs0mg"},{"bike_id":"092d7fea-e7a2-4278-89f1-4598b2c3628d","system_id":"levelo_inurba_marseille","lat":43.3014,"lon":5.37419,"is_reserved":false,"is_disabled":true,"rental_uris":{"android":"levelo://app?vid=092d7fea-e7a2-4278-89f1-4598b2c3628d","ios":"levelo://app?vid=092d7fea-e7a2-4278-89f1-4598b2c3628d"},"vehicle_type_id":"4","last_reported":1769116381,"current_range_meters":3600,"station_id":"ce4bgs92rcd13ifvqcc0","pricing_plan_id":"cebpf4jnsgd1na2vs0mg"},{"bike_id":"607c435d-5fb0-4f63-b221-a58bdcfdc9c2","system_id":"levelo_inurba_marseille","lat":43.24998,"lon":5.38921,"is_reserved":false,"is_disabled":false,"rental_uris":{"android":"levelo://app?vid=607c435d-5fb0-4f63-b221-a58bdcfdc9c2","ios":"levelo://app?vid=607c435d-5fb0-4f63-b221-a58bdcfdc9c2"},"vehicle_type_id":"4","last_reported":1769116381,"current_range_meters":3600,"station_id":"ce4bhgp2rcd13ifvqfd0","pricing_plan_id":"cebpf4jnsgd1na2vs0mg"},{"bike_id":"dde7b0e0-bbd1-44de-82f6-999f8e69694c","system_id":"levelo_inurba_marseille","lat":43.2552,"lon":5.37657,"is_reserved":false,"is_disabled":false,"rental_uris":{"android":"levelo://app?vid=dde7b0e0-bbd1-44de-82f6-999f8e69694c","ios":"levelo://app?vid=dde7b0e0-bbd1-44de-82f6-999f8e69694c"},"vehicle_type_id":"4","last_reported":1769116381,"current_range_meters":3600,"station_id":"ce4bhh12rcd13ifvqff0","pricing_plan_id":"cebpf4jnsgd1na2vs0mg"},{"bike_id":"a0846daa-a8a2-4372-a16e-0ccd0ab2b1a5","system_id":"levelo_inurba_marseille","lat":43.28998,"lon":5.37853,"is_reserved":false,"is_disabled":false,"rental_uris":{"android":"levelo://app?vid=a0846daa-a8a2-4372-a16e-0ccd0ab2b1a5","ios":"levelo://app?vid=a0846daa-a8a2-4372-a16e-0ccd0ab2b1a5"},"vehicle_type_id":"4","last_reported":1769116381,"current_range_meters":3600,"station_id":"ce4bh9p2rcd13ifvqed0","pricing_plan_id":"cebpf4jnsgd1na2vs0mg"},{"bike_id":"d8f34b5e-d831-4a3d-8643-93f2f2dfecae","system_id":"levelo_inurba_marseille","lat":43.2417,"lon":5.364068,"is_reserved":false,"is_disabled":false,"rental_uris":{"android":"levelo://app?vid=d8f34b5e-d831-4a3d-8643-93f2f2dfecae","ios":"levelo://app?vid=d8f34b5e-d831-4a3d-8643-93f2f2dfecae"},"vehicle_type_id":"4","last_reported":1769116381,"current_range_meters":3600,"station_id":"cpo36qri1sfpv3e86is0","pricing_plan_id":"cebpf4jnsgd1na2vs0mg"},{"bike_id":"3998b630-1550-4129-b95e-2d12a38501a1","system_id":"levelo_inurba_marseille","lat":43.25566,"lon":5.3823,"is_reserved":false,"is_disabled":false,"rental_uris":{"android":"levelo://app?vid=3998b630-1550-4129-b95e-2d12a38501a1","ios":"levelo://app?vid=3998b630-1550-4129-b95e-2d12a38501a1"},"vehicle_type_id":"4","last_reported":1769116381,"current_range_meters":3600,"station_id":"ce4bhih2rcd13ifvqfs0","pricing_plan_id":"cebpf4jnsgd1na2vs0mg"},{"bike_id":"545e4f83-e51a-49da-ad95-1c0f7558160f","system_id":"levelo_inurba_marseille","lat":43.24809,"lon":5.37449,"is_reserved":false,"is_disabled":false,"rental_uris":{"android":"levelo://app?vid=545e4f83-e51a-49da-ad95-1c0f7558160f","ios":"levelo://app?vid=545e4f83-e51a-49da-ad95-1c0f7558160f"},"vehicle_type_id":"4","last_reported":1769116381,"current_range_meters":3600,"station_id":"ce4bhgh2rcd13ifvqfb0","pricing_plan_id":"cebpf4jnsgd1na2vs0mg"},{"bike_id":"133dd31b-7e8b-494a-b027-d9d75407821f","system_id":"levelo_inurba_marseille","lat":43.324739,"lon":5.365385,"is_reserved":false,"is_disabled":false,"rental_uris":{"android":"levelo://app?vid=133dd31b-7e8b-494a-b027-d9d75407821f","ios":"levelo://app?vid=133dd31b-7e8b-494a-b027-d9d75407821f"},"vehicle_type_id":"4","last_reported":1769116381,"current_range_meters":3600,"station_id":"ce4bhs12rcd13ifvqhvg","pricing_plan_id":"cebpf4jnsgd1na2vs0mg"},{"bike_id":"b05d35a6-a4b1-4f68-ab22-eac501a6370f","system_id":"levelo_inurba_marseille","lat":43.32356,"lon":5.3676,"is_reserved":false,"is_disabled":false,"rental_uris":{"android":"levelo://app?vid=b05d35a6-a4b1-4f68-ab22-eac501a6370f","ios":"levelo://app?vid=b05d35a6-a4b1-4f68-ab22-eac501a6370f"},"vehicle_type_id":"4","last_reported":1769116381,"current_range_meters":3600,"station_id":"ce4bhsh2rcd13ifvqi2g","pricing_plan_id":"cebpf4jnsgd1na2vs0mg"},{"bike_id":"4b64b372-e92e-4b0a-9fdc-10a99889c121","system_id":"levelo_inurba_marseille","lat":43.2655,"lon":5.37292,"is_reserved":false,"is_disabled":false,"rental_uris":{"android":"levelo://app?vid=4b64b372-e92e-4b0a-9fdc-10a99889c121","ios":"levelo://app?vid=4b64b372-e92e-4b0a-9fdc-10a99889c121"},"vehicle_type_id":"4","last_reported":1769116381,"current_range_meters":3600,"station_id":"ce4bhg12rcd13ifvqf70","pricing_plan_id":"cebpf4jnsgd1na2vs0mg"},{"bike_id":"6e5945d3-4381-4918-a229-f818950efa50","system_id":"levelo_inurba_marseille","lat":43.24071,"lon":5.37746,"is_reserved":false,"is_disabled":false,"rental_uris":{"android":"levelo://app?vid=6e5945d3-4381-4918-a229-f818950efa50","ios":"levelo://app?vid=6e5945d3-4381-4918-a229-f818950efa50"},"vehicle_type_id":"4","last_reported":1769116381,"current_range_meters":3600,"station_id":"ce4bhnp2rcd13ifvqgvg","pricing_plan_id":"cebpf4jnsgd1na2vs0mg"},{"bike_id":"6327ee48-c483-4513-854a-267a753affd9","system_id":"levelo_inurba_marseille","lat":43.28478,"lon":5.48396,"is_reserved":false,"is_disabled":false,"rental_uris":{"android":"levelo://app?vid=6327ee48-c483-4513-854a-267a753affd9","ios":"levelo://app?vid=6327ee48-c483-4513-854a-267a753affd9"},"vehicle_type_id":"4","last_reported":1769116381,"current_range_meters":3600,"station_id":"st_d3svhcjqgbts73a3dn0g","pricing_plan_id":"cebpf4jnsgd1na2vs0mg"},{"bike_id":"bd3222b3-dffe-4214-a25c-da1b23e1c71b","system_id":"levelo_inurba_marseille","lat":43.32345,"lon":5.36762,"is_reserved":false,"is_disabled":false,"rental_uris":{"android":"levelo://app?vid=bd3222b3-dffe-4214-a25c-da1b23e1c71b","ios":"levelo://app?vid=bd3222b3-dffe-4214-a25c-da1b23e1c71b"},"vehicle_type_id":"4","last_reported":1769116381,"current_range_meters":4000,"station_id":"ce4bhsh2rcd13ifvqi2g","pricing_plan_id":"cebpf4jnsgd1na2vs0mg"},{"bike_id":"1b08a942-2c69-4e01-bc42-2d47d9de5a32","system_id":"levelo_inurba_marseille","lat":43.26542,"lon":5.39064,"is_reserved":false,"is_disabled":false,"rental_uris":{"android":"levelo://app?vid=1b08a942-2c69-4e01-bc42-2d47d9de5a32","ios":"levelo://app?vid=1b08a942-2c69-4e01-bc42-2d47d9de5a32"},"vehicle_type_id":"4","last_reported":1769116381,"current_range_meters":4000,"station_id":"ce4bhe12rcd13ifvqf30","pricing_plan_id":"cebpf4jnsgd1na2vs0mg"},{"bike_id":"3e13f48c-d8db-48f2-a8d2-6e314da3eb54","system_id":"levelo_inurba_marseille","lat":43.27907,"lon":5.39608,"is_reserved":false,"is_disabled":false,"rental_uris":{"android":"levelo://app?vid=3e13f48c-d8db-48f2-a8d2-6e314da3eb54","ios":"levelo://app?vid=3e13f48c-d8db-48f2-a8d2-6e314da3eb54"},"vehicle_type_id":"4","last_reported":1769116381,"current_range_meters":4000,"station_id":"ce4bhf92rcd13ifvqf40","pricing_plan_id":"cebpf4jnsgd1na2vs0mg"},{"bike_id":"f6e312ec-f82c-42c8-931c-4e25b5107ca9","system_id":"levelo_inurba_marseille","lat":43.29277,"lon":5.36846,"is_reserved":false,"is_disabled":false,"rental_uris":{"android":"levelo://app?vid=f6e312ec-f82c-42c8-931c-4e25b5107ca9","ios":"levelo://app?vid=f6e312ec-f82c-42c8-931c-4e25b5107ca9"},"vehicle_type_id":"4","last_reported":1769116381,"current_range_meters":4000,"station_id":"ce4bhbp2rcd13ifvqesg","pricing_plan_id":"cebpf4jnsgd1na2vs0mg"},{"bike_id":"811e4109-4554-441e-908e-4c588b5c7adf","system_id":"levelo_inurba_marseille","lat":43.29732,"lon":5.36902,"is_reserved":false,"is_disabled":false,"rental_uris":{"android":"levelo://app?vid=811e4109-4554-441e-908e-4c588b5c7adf","ios":"levelo://app?vid=811e4109-4554-441e-908e-4c588b5c7adf"},"vehicle_type_id":"4","last_reported":1769116381,"current_range_meters":4000,"station_id":"","pricing_plan_id":"cebpf4jnsgd1na2vs0mg"},{"bike_id":"8d51da67-a56b-4de5-8f4b-74de1e7e7ab7","system_id":"levelo_inurba_marseille","lat":43.2637,"lon":5.41076,"is_reserved":false,"is_disabled":false,"rental_uris":{"android":"levelo://app?vid=8d51da67-a56b-4de5-8f4b-74de1e7e7ab7","ios":"levelo://app?vid=8d51da67-a56b-4de5-8f4b-74de1e7e7ab7"},"vehicle_type_id":"4","last_reported":1769116381,"current_range_meters":4000,"station_id":"st_d4e5ca6na9uc73bfl5fg","pricing_plan_id":"cebpf4jnsgd1na2vs0mg"},{"bike_id":"2f17a935-b837-4701-9720-040a9db4d867","system_id":"levelo_inurba_marseille","lat":43.304108,"lon":5.387754,"is_reserved":false,"is_disabled":false,"rental_uris":{"android":"levelo://app?vid=2f17a935-b837-4701-9720-040a9db4d867","ios":"levelo://app?vid=2f17a935-b837-4701-9720-040a9db4d867"},"vehicle_type_id":"4","last_reported":1769116381,"current_range_meters":4000,"station_id":"ce4bgk12rcd13ifvqbi0","pricing_plan_id":"cebpf4jnsgd1na2vs0mg"},{"bike_id":"ddac16df-da7b-4c1e-8c96-25bd2dbc1226","system_id":"levelo_inurba_marseille","lat":43.3236,"lon":5.36754,"is_reserved":false,"is_disabled":false,"rental_uris":{"android":"levelo://app?vid=ddac16df-da7b-4c1e-8c96-25bd2dbc1226","ios":"levelo://app?vid=ddac16df-da7b-4c1e-8c96-25bd2dbc1226"},"vehicle_type_id":"4","last_reported":1769116381,"current_range_meters":4000,"station_id":"ce4bhsh2rcd13ifvqi2g","pricing_plan_id":"cebpf4jnsgd1na2vs0mg"},{"bike_id":"aec5c08c-9f05-47e9-bb02-2d63b83fc483","system_id":"levelo_inurba_marseille","lat":43.26739,"lon":5.39237,"is_reserved":false,"is_disabled":false,"rental_uris":{"android":"levelo://app?vid=aec5c08c-9f05-47e9-bb02-2d63b83fc483","ios":"levelo://app?vid=aec5c08c-9f05-47e9-bb02-2d63b83fc483"},"vehicle_type_id":"4","last_reported":1769116381,"current_range_meters":4000,"station_id":"","pricing_plan_id":"cebpf4jnsgd1na2vs0mg"},{"bike_id":"1c87468c-0694-400c-96d1-63b9a843aac3","system_id":"levelo_inurba_marseille","lat":43.29515,"lon":5.3851,"is_reserved":false,"is_disabled":false,"rental_uris":{"android":"levelo://app?vid=1c87468c-0694-400c-96d1-63b9a843aac3","ios":"levelo://app?vid=1c87468c-0694-400c-96d1-63b9a843aac3"},"vehicle_type_id":"4","last_reported":1769116381,"current_range_meters":4000,"station_id":"ce4bgih2rcd13ifvqba0","pricing_plan_id":"cebpf4jnsgd1na2vs0mg"},{"bike_id":"c51139f6-7e60-4a58-9b11-4557a31ee89e","system_id":"levelo_inurba_marseille","lat":43.28395,"lon":5.37529,"is_reserved":false,"is_disabled":false,"rental_uris":{"android":"levelo://app?vid=c51139f6-7e60-4a58-9b11-4557a31ee89e","ios":"levelo://app?vid=c51139f6-7e60-4a58-9b11-4557a31ee89e"},"vehicle_type_id":"4","last_reported":1769116381,"current_range_meters":4000,"station_id":"ce4bh412rcd13ifvqds0","pricing_plan_id":"cebpf4jnsgd1na2vs0mg"},{"bike_id":"a7dca984-2a89-4f7d-a4b2-c4b75083a65d","system_id":"levelo_inurba_marseille","lat":43.24641,"lon":5.38899,"is_reserved":false,"is_disabled":false,"rental_uris":{"android":"levelo://app?vid=a7dca984-2a89-4f7d-a4b2-c4b75083a65d","ios":"levelo://app?vid=a7dca984-2a89-4f7d-a4b2-c4b75083a65d"},"vehicle_type_id":"4","last_reported":1769116381,"current_range_meters":4000,"station_id":"ce4bh392rcd13ifvqdl0","pricing_plan_id":"cebpf4jnsgd1na2vs0mg"},{"bike_id":"0cf10c45-e9bb-4cdc-a3ca-bdcd22336018","system_id":"levelo_inurba_marseille","lat":43.309,"lon":5.39639,"is_reserved":false,"is_disabled":false,"rental_uris":{"android":"levelo://app?vid=0cf10c45-e9bb-4cdc-a3ca-bdcd22336018","ios":"levelo://app?vid=0cf10c45-e9bb-4cdc-a3ca-bdcd22336018"},"vehicle_type_id":"4","last_reported":1769116381,"current_range_meters":4000,"station_id":"ce4bh012rcd13ifvqcv0","pricing_plan_id":"cebpf4jnsgd1na2vs0mg"},{"bike_id":"af3e4ec7-913b-43cf-991c-29cf9d90a50c","system_id":"levelo_inurba_marseille","lat":43.3105,"lon":5.37152,"is_reserved":false,"is_disabled":false,"rental_uris":{"android":"levelo://app?vid=af3e4ec7-913b-43cf-991c-29cf9d90a50c","ios":"levelo://app?vid=af3e4ec7-913b-43cf-991c-29cf9d90a50c"},"vehicle_type_id":"4","last_reported":1769116381,"current_range_meters":4000,"station_id":"st_d4kl2rp97mjs73e7tdfg","pricing_plan_id":"cebpf4jnsgd1na2vs0mg"},{"bike_id":"737cdf6e-8c2e-4b43-8e7d-478c69e4c6a4","system_id":"levelo_inurba_marseille","lat":43.33076,"lon":5.39012,"is_reserved":false,"is_disabled":false,"rental_uris":{"android":"levelo://app?vid=737cdf6e-8c2e-4b43-8e7d-478c69e4c6a4","ios":"levelo://app?vid=737cdf6e-8c2e-4b43-8e7d-478c69e4c6a4"},"vehicle_type_id":"4","last_reported":1769116381,"current_range_meters":4000,"station_id":"","pricing_plan_id":"cebpf4jnsgd1na2vs0mg"},{"bike_id":"f0476e2c-bd66-47a8-a329-2199a6d16dc3","system_id":"levelo_inurba_marseille","lat":43.30522,"lon":5.36549,"is_reserved":false,"is_disabled":false,"rental_uris":{"android":"levelo://app?vid=f0476e2c-bd66-47a8-a329-2199a6d16dc3","ios":"levelo://app?vid=f0476e2c-bd66-47a8-a329-2199a6d16dc3"},"vehicle_type_id":"4","last_reported":1769116381,"current_range_meters":4000,"station_id":"ce4bgs12rcd13ifvqcag","pricing_plan_id":"cebpf4jnsgd1na2vs0mg"},{"bike_id":"ef2bad25-e21e-4331-9ced-740ab233247f","system_id":"levelo_inurba_marseille","lat":43.29525,"lon":5.38532,"is_reserved":false,"is_disabled":false,"rental_uris":{"android":"levelo://app?vid=ef2bad25-e21e-4331-9ced-740ab233247f","ios":"levelo://app?vid=ef2bad25-e21e-4331-9ced-740ab233247f"},"vehicle_type_id":"4","last_reported":1769116381,"current_range_meters":4400,"station_id":"ce4bgih2rcd13ifvqba0","pricing_plan_id":"cebpf4jnsgd1na2vs0mg"},{"bike_id":"678c733f-fced-47ea-807c-5d7e2a79ef87","system_id":"levelo_inurba_marseille","lat":43.29197,"lon":5.39323,"is_reserved":false,"is_disabled":false,"rental_uris":{"android":"levelo://app?vid=678c733f-fced-47ea-807c-5d7e2a79ef87","ios":"levelo://app?vid=678c733f-fced-47ea-807c-5d7e2a79ef87"},"vehicle_type_id":"4","last_reported":1769116381,"current_range_meters":4400,"station_id":"ce4bh192rcd13ifvqdd0","pricing_plan_id":"cebpf4jnsgd1na2vs0mg"},{"bike_id":"27677e2d-3c4b-4fc1-8023-993656695abf","system_id":"levelo_inurba_marseille","lat":43.30208,"lon":5.39463,"is_reserved":false,"is_disabled":false,"rental_uris":{"android":"levelo://app?vid=27677e2d-3c4b-4fc1-8023-993656695abf","ios":"levelo://app?vid=27677e2d-3c4b-4fc1-8023-993656695abf"},"vehicle_type_id":"4","last_reported":1769116381,"current_range_meters":4400,"station_id":"ce4bh0p2rcd13ifvqd70","pricing_plan_id":"cebpf4jnsgd1na2vs0mg"},{"bike_id":"c0969b4f-ec39-4b3a-8439-b78f56b59286","system_id":"levelo_inurba_marseille","lat":43.31097,"lon":5.38478,"is_reserved":false,"is_disabled":false,"rental_uris":{"android":"levelo://app?vid=c0969b4f-ec39-4b3a-8439-b78f56b59286","ios":"levelo://app?vid=c0969b4f-ec39-4b3a-8439-b78f56b59286"},"vehicle_type_id":"4","last_reported":1769116381,"current_range_meters":4400,"station_id":"","pricing_plan_id":"cebpf4jnsgd1na2vs0mg"},{"bike_id":"a51cbeea-4727-42ca-af14-f7fda5a0e6b2","system_id":"levelo_inurba_marseille","lat":43.28659,"lon":5.36345,"is_reserved":false,"is_disabled":false,"rental_uris":{"android":"levelo://app?vid=a51cbeea-4727-42ca-af14-f7fda5a0e6b2","ios":"levelo://app?vid=a51cbeea-4727-42ca-af14-f7fda5a0e6b2"},"vehicle_type_id":"4","last_reported":1769116381,"current_range_meters":4400,"station_id":"ce4bhah2rcd13ifvqej0","pricing_plan_id":"cebpf4jnsgd1na2vs0mg"},{"bike_id":"f909883c-4edd-4352-ba22-83e48def0e80","system_id":"levelo_inurba_marseille","lat":43.30911,"lon":5.40176,"is_reserved":false,"is_disabled":false,"rental_uris":{"android":"levelo://app?vid=f909883c-4edd-4352-ba22-83e48def0e80","ios":"levelo://app?vid=f909883c-4edd-4352-ba22-83e48def0e80"},"vehicle_type_id":"4","last_reported":1769116381,"current_range_meters":4400,"station_id":"ce4bgvp2rcd13ifvqct0","pricing_plan_id":"cebpf4jnsgd1na2vs0mg"},{"bike_id":"3e1e7cd6-747e-436f-9dfc-cc107703c283","system_id":"levelo_inurba_marseille","lat":43.291294,"lon":5.394773,"is_reserved":false,"is_disabled":false,"rental_uris":{"android":"levelo://app?vid=3e1e7cd6-747e-436f-9dfc-cc107703c283","ios":"levelo://app?vid=3e1e7cd6-747e-436f-9dfc-cc107703c283"},"vehicle_type_id":"4","last_reported":1769116381,"current_range_meters":4800,"station_id":"ce4bh192rcd13ifvqdd0","pricing_plan_id":"cebpf4jnsgd1na2vs0mg"},{"bike_id":"5a0b5ced-2864-4e44-a912-b5c12eabb027","system_id":"levelo_inurba_marseille","lat":43.25723,"lon":5.4109,"is_reserved":false,"is_disabled":false,"rental_uris":{"android":"levelo://app?vid=5a0b5ced-2864-4e44-a912-b5c12eabb027","ios":"levelo://app?vid=5a0b5ced-2864-4e44-a912-b5c12eabb027"},"vehicle_type_id":"4","last_reported":1769116381,"current_range_meters":4800,"station_id":"ce4bhkp2rcd13ifvqgd0","pricing_plan_id":"cebpf4jnsgd1na2vs0mg"},{"bike_id":"29ee5554-c251-413b-83c6-6d4bc04dda1c","system_id":"levelo_inurba_marseille","lat":43.290348,"lon":5.359074,"is_reserved":false,"is_disabled":false,"rental_uris":{"android":"levelo://app?vid=29ee5554-c251-413b-83c6-6d4bc04dda1c","ios":"levelo://app?vid=29ee5554-c251-413b-83c6-6d4bc04dda1c"},"vehicle_type_id":"4","last_reported":1769116381,"current_range_meters":4800,"station_id":"ce4bha92rcd13ifvqeg0","pricing_plan_id":"cebpf4jnsgd1na2vs0mg"},{"bike_id":"f6eb85c1-f53f-4dc1-8797-0471cff4e32e","system_id":"levelo_inurba_marseille","lat":43.28536,"lon":5.39094,"is_reserved":false,"is_disabled":false,"rental_uris":{"android":"levelo://app?vid=f6eb85c1-f53f-4dc1-8797-0471cff4e32e","ios":"levelo://app?vid=f6eb85c1-f53f-4dc1-8797-0471cff4e32e"},"vehicle_type_id":"4","last_reported":1769116381,"current_range_meters":4800,"station_id":"","pricing_plan_id":"cebpf4jnsgd1na2vs0mg"},{"bike_id":"2ff3fdc1-d72f-46a0-9897-afa495a44533","system_id":"levelo_inurba_marseille","lat":43.24175,"lon":5.39708,"is_reserved":false,"is_disabled":false,"rental_uris":{"android":"levelo://app?vid=2ff3fdc1-d72f-46a0-9897-afa495a44533","ios":"levelo://app?vid=2ff3fdc1-d72f-46a0-9897-afa495a44533"},"vehicle_type_id":"4","last_reported":1769116381,"current_range_meters":4800,"station_id":"ce4bhn12rcd13ifvqgpg","pricing_plan_id":"cebpf4jnsgd1na2vs0mg"},{"bike_id":"e650fd1b-0212-42d3-ad1a-f0a421e763fb","system_id":"levelo_inurba_marseille","lat":43.2905,"lon":5.37174,"is_reserved":false,"is_disabled":false,"rental_uris":{"android":"levelo://app?vid=e650fd1b-0212-42d3-ad1a-f0a421e763fb","ios":"levelo://app?vid=e650fd1b-0212-42d3-ad1a-f0a421e763fb"},"vehicle_type_id":"4","last_reported":1769116381,"current_range_meters":4800,"station_id":"ce4bh5p2rcd13ifvqe4g","pricing_plan_id":"cebpf4jnsgd1na2vs0mg"},{"bike_id":"7ab1f6f3-fb3a-4974-a751-bccdce944be9","system_id":"levelo_inurba_marseille","lat":43.31362,"lon":5.39658,"is_reserved":false,"is_disabled":false,"rental_uris":{"android":"levelo://app?vid=7ab1f6f3-fb3a-4974-a751-bccdce944be9","ios":"levelo://app?vid=7ab1f6f3-fb3a-4974-a751-bccdce944be9"},"vehicle_type_id":"4","last_reported":1769116381,"current_range_meters":4800,"station_id":"ce4bgvp2rcd13ifvqcu0","pricing_plan_id":"cebpf4jnsgd1na2vs0mg"},{"bike_id":"d7a66618-8b2e-466d-b773-83bae00d870c","system_id":"levelo_inurba_marseille","lat":43.237895,"lon":5.366347,"is_reserved":false,"is_disabled":false,"rental_uris":{"android":"levelo://app?vid=d7a66618-8b2e-466d-b773-83bae00d870c","ios":"levelo://app?vid=d7a66618-8b2e-466d-b773-83bae00d870c"},"vehicle_type_id":"4","last_reported":1769116381,"current_range_meters":4800,"station_id":"st_d3nk18o9ro0c73en2l3g","pricing_plan_id":"cebpf4jnsgd1na2vs0mg"},{"bike_id":"62931247-4aff-4f68-9011-cb1aa7863151","system_id":"levelo_inurba_marseille","lat":43.25567,"lon":5.38222,"is_reserved":false,"is_disabled":false,"rental_uris":{"android":"levelo://app?vid=62931247-4aff-4f68-9011-cb1aa7863151","ios":"levelo://app?vid=62931247-4aff-4f68-9011-cb1aa7863151"},"vehicle_type_id":"4","last_reported":1769116381,"current_range_meters":4800,"station_id":"ce4bhih2rcd13ifvqfs0","pricing_plan_id":"cebpf4jnsgd1na2vs0mg"},{"bike_id":"3206456b-45fe-4b57-ad6e-10515c2f78b7","system_id":"levelo_inurba_marseille","lat":43.24492,"lon":5.42512,"is_reserved":false,"is_disabled":false,"rental_uris":{"android":"levelo://app?vid=3206456b-45fe-4b57-ad6e-10515c2f78b7","ios":"levelo://app?vid=3206456b-45fe-4b57-ad6e-10515c2f78b7"},"vehicle_type_id":"4","last_reported":1769116381,"current_range_meters":4800,"station_id":"st_d4a3vfp97mjs738cd8kg","pricing_plan_id":"cebpf4jnsgd1na2vs0mg"},{"bike_id":"b5531798-e2ff-403c-add9-ba913c188cba","system_id":"levelo_inurba_marseille","lat":43.32473,"lon":5.3656,"is_reserved":false,"is_disabled":false,"rental_uris":{"android":"levelo://app?vid=b5531798-e2ff-403c-add9-ba913c188cba","ios":"levelo://app?vid=b5531798-e2ff-403c-add9-ba913c188cba"},"vehicle_type_id":"4","last_reported":1769116381,"current_range_meters":5600,"station_id":"ce4bhs12rcd13ifvqhvg","pricing_plan_id":"cebpf4jnsgd1na2vs0mg"},{"bike_id":"a6110c34-a25c-43e2-b2cf-d90d5bd9d5eb","system_id":"levelo_inurba_marseille","lat":43.27983,"lon":5.41668,"is_reserved":false,"is_disabled":false,"rental_uris":{"android":"levelo://app?vid=a6110c34-a25c-43e2-b2cf-d90d5bd9d5eb","ios":"levelo://app?vid=a6110c34-a25c-43e2-b2cf-d90d5bd9d5eb"},"vehicle_type_id":"4","last_reported":1769116381,"current_range_meters":5600,"station_id":"ce4bho12rcd13ifvqh1g","pricing_plan_id":"cebpf4jnsgd1na2vs0mg"},{"bike_id":"68226070-db87-4f3a-bcca-d8c5e4b321f8","system_id":"levelo_inurba_marseille","lat":43.30291,"lon":5.37618,"is_reserved":false,"is_disabled":false,"rental_uris":{"android":"levelo://app?vid=68226070-db87-4f3a-bcca-d8c5e4b321f8","ios":"levelo://app?vid=68226070-db87-4f3a-bcca-d8c5e4b321f8"},"vehicle_type_id":"4","last_reported":1769116381,"current_range_meters":5600,"station_id":"","pricing_plan_id":"cebpf4jnsgd1na2vs0mg"},{"bike_id":"c1bbfc44-868e-41cc-a3f9-f190df3e03a4","system_id":"levelo_inurba_marseille","lat":43.29592,"lon":5.37734,"is_reserved":false,"is_disabled":false,"rental_uris":{"android":"levelo://app?vid=c1bbfc44-868e-41cc-a3f9-f190df3e03a4","ios":"levelo://app?vid=c1bbfc44-868e-41cc-a3f9-f190df3e03a4"},"vehicle_type_id":"4","last_reported":1769116381,"current_range_meters":5600,"station_id":"ce4bgi92rcd13ifvqb90","pricing_plan_id":"cebpf4jnsgd1na2vs0mg"},{"bike_id":"db52c014-7507-43f9-8010-c9eb4d059d84","system_id":"levelo_inurba_marseille","lat":43.25066,"lon":5.39549,"is_reserved":false,"is_disabled":false,"rental_uris":{"android":"levelo://app?vid=db52c014-7507-43f9-8010-c9eb4d059d84","ios":"levelo://app?vid=db52c014-7507-43f9-8010-c9eb4d059d84"},"vehicle_type_id":"4","last_reported":1769116381,"current_range_meters":5600,"station_id":"ce4bhm12rcd13ifvqgkg","pricing_plan_id":"cebpf4jnsgd1na2vs0mg"},{"bike_id":"c038f5bf-5bd5-4e5a-93ac-4d2848183e94","system_id":"levelo_inurba_marseille","lat":43.29529,"lon":5.38537,"is_reserved":false,"is_disabled":false,"rental_uris":{"android":"levelo://app?vid=c038f5bf-5bd5-4e5a-93ac-4d2848183e94","ios":"levelo://app?vid=c038f5bf-5bd5-4e5a-93ac-4d2848183e94"},"vehicle_type_id":"4","last_reported":1769116381,"current_range_meters":5600,"station_id":"ce4bgih2rcd13ifvqba0","pricing_plan_id":"cebpf4jnsgd1na2vs0mg"},{"bike_id":"f98220fc-889d-44fd-83c4-b74d36c9d0de","system_id":"levelo_inurba_marseille","lat":43.30126,"lon":5.4312,"is_reserved":false,"is_disabled":false,"rental_uris":{"android":"levelo://app?vid=f98220fc-889d-44fd-83c4-b74d36c9d0de","ios":"levelo://app?vid=f98220fc-889d-44fd-83c4-b74d36c9d0de"},"vehicle_type_id":"4","last_reported":1769116381,"current_range_meters":5600,"station_id":"st_d3js3co5814s73ftftug","pricing_plan_id":"cebpf4jnsgd1na2vs0mg"},{"bike_id":"80b81104-5c81-46bc-8a2f-bdb0033c82a8","system_id":"levelo_inurba_marseille","lat":43.28561,"lon":5.39493,"is_reserved":false,"is_disabled":false,"rental_uris":{"android":"levelo://app?vid=80b81104-5c81-46bc-8a2f-bdb0033c82a8","ios":"levelo://app?vid=80b81104-5c81-46bc-8a2f-bdb0033c82a8"},"vehicle_type_id":"4","last_reported":1769116381,"current_range_meters":5600,"station_id":"ce4bh292rcd13ifvqdg0","pricing_plan_id":"cebpf4jnsgd1na2vs0mg"},{"bike_id":"f39628e7-f451-4af8-80af-ee31b074b0b2","system_id":"levelo_inurba_marseille","lat":43.285331,"lon":5.440828,"is_reserved":false,"is_disabled":false,"rental_uris":{"android":"levelo://app?vid=f39628e7-f451-4af8-80af-ee31b074b0b2","ios":"levelo://app?vid=f39628e7-f451-4af8-80af-ee31b074b0b2"},"vehicle_type_id":"4","last_reported":1769116381,"current_range_meters":5600,"station_id":"st_d3j3df2ikq2c7380ej80","pricing_plan_id":"cebpf4jnsgd1na2vs0mg"},{"bike_id":"66b52710-c980-4dbe-934a-c3e8ffc0f9e1","system_id":"levelo_inurba_marseille","lat":43.33157,"lon":5.37693,"is_reserved":false,"is_disabled":false,"rental_uris":{"android":"levelo://app?vid=66b52710-c980-4dbe-934a-c3e8ffc0f9e1","ios":"levelo://app?vid=66b52710-c980-4dbe-934a-c3e8ffc0f9e1"},"vehicle_type_id":"4","last_reported":1769116381,"current_range_meters":5600,"station_id":"st_d46cu089ee8s73dldbu0","pricing_plan_id":"cebpf4jnsgd1na2vs0mg"},{"bike_id":"4ad9a7dd-c8ce-4335-a6c9-a76193d97d97","system_id":"levelo_inurba_marseille","lat":43.29512,"lon":5.39405,"is_reserved":false,"is_disabled":false,"rental_uris":{"android":"levelo://app?vid=4ad9a7dd-c8ce-4335-a6c9-a76193d97d97","ios":"levelo://app?vid=4ad9a7dd-c8ce-4335-a6c9-a76193d97d97"},"vehicle_type_id":"4","last_reported":1769116381,"current_range_meters":5600,"station_id":"ce4bh292rcd13ifvqdf0","pricing_plan_id":"cebpf4jnsgd1na2vs0mg"},{"bike_id":"8aedde56-ec30-4ed0-8472-f98f086de579","system_id":"levelo_inurba_marseille","lat":43.30449,"lon":5.37534,"is_reserved":false,"is_disabled":false,"rental_uris":{"android":"levelo://app?vid=8aedde56-ec30-4ed0-8472-f98f086de579","ios":"levelo://app?vid=8aedde56-ec30-4ed0-8472-f98f086de579"},"vehicle_type_id":"4","last_reported":1769116381,"current_range_meters":5600,"station_id":"","pricing_plan_id":"cebpf4jnsgd1na2vs0mg"},{"bike_id":"5b8789d8-8a74-46cb-9a03-3650cf54c996","system_id":"levelo_inurba_marseille","lat":43.24657,"lon":5.43138,"is_reserved":false,"is_disabled":false,"rental_uris":{"android":"levelo://app?vid=5b8789d8-8a74-46cb-9a03-3650cf54c996","ios":"levelo://app?vid=5b8789d8-8a74-46cb-9a03-3650cf54c996"},"vehicle_type_id":"4","last_reported":1769116381,"current_range_meters":5600,"station_id":"st_d2m6c4gdas8pm72e190g","pricing_plan_id":"cebpf4jnsgd1na2vs0mg"},{"bike_id":"c11faaac-eca6-4ce6-8839-b7eb66c57162","system_id":"levelo_inurba_marseille","lat":43.28147,"lon":5.42639,"is_reserved":false,"is_disabled":false,"rental_uris":{"android":"levelo://app?vid=c11faaac-eca6-4ce6-8839-b7eb66c57162","ios":"levelo://app?vid=c11faaac-eca6-4ce6-8839-b7eb66c57162"},"vehicle_type_id":"4","last_reported":1769116381,"current_range_meters":6000,"station_id":"ce4bhnh2rcd13ifvqgug","pricing_plan_id":"cebpf4jnsgd1na2vs0mg"},{"bike_id":"020cfd6a-f32a-46f1-8621-8c0d452c270c","system_id":"levelo_inurba_marseille","lat":43.29014,"lon":5.37585,"is_reserved":false,"is_disabled":false,"rental_uris":{"android":"levelo://app?vid=020cfd6a-f32a-46f1-8621-8c0d452c270c","ios":"levelo://app?vid=020cfd6a-f32a-46f1-8621-8c0d452c270c"},"vehicle_type_id":"4","last_reported":1769116381,"current_range_meters":6000,"station_id":"ce4bh692rcd13ifvqe90","pricing_plan_id":"cebpf4jnsgd1na2vs0mg"},{"bike_id":"d8344329-153b-4a08-9de8-fc84530e10b9","system_id":"levelo_inurba_marseille","lat":43.23789,"lon":5.36621,"is_reserved":false,"is_disabled":false,"rental_uris":{"android":"levelo://app?vid=d8344329-153b-4a08-9de8-fc84530e10b9","ios":"levelo://app?vid=d8344329-153b-4a08-9de8-fc84530e10b9"},"vehicle_type_id":"4","last_reported":1769116381,"current_range_meters":6000,"station_id":"st_d3nk18o9ro0c73en2l3g","pricing_plan_id":"cebpf4jnsgd1na2vs0mg"},{"bike_id":"55c31193-5a38-4c12-b181-254d504a975b","system_id":"levelo_inurba_marseille","lat":43.30127,"lon":5.43102,"is_reserved":false,"is_disabled":false,"rental_uris":{"android":"levelo://app?vid=55c31193-5a38-4c12-b181-254d504a975b","ios":"levelo://app?vid=55c31193-5a38-4c12-b181-254d504a975b"},"vehicle_type_id":"4","last_reported":1769116381,"current_range_meters":6000,"station_id":"st_d3js3co5814s73ftftug","pricing_plan_id":"cebpf4jnsgd1na2vs0mg"},{"bike_id":"5f4c7ac4-6b5a-4640-bf71-a81a7db3c254","system_id":"levelo_inurba_marseille","lat":43.29243,"lon":5.40123,"is_reserved":false,"is_disabled":false,"rental_uris":{"android":"levelo://app?vid=5f4c7ac4-6b5a-4640-bf71-a81a7db3c254","ios":"levelo://app?vid=5f4c7ac4-6b5a-4640-bf71-a81a7db3c254"},"vehicle_type_id":"4","last_reported":1769116381,"current_range_meters":6000,"station_id":"ce4bh312rcd13ifvqdk0","pricing_plan_id":"cebpf4jnsgd1na2vs0mg"},{"bike_id":"8980ba22-c59a-4e3a-954a-445b611772e8","system_id":"levelo_inurba_marseille","lat":43.29268,"lon":5.4014,"is_reserved":false,"is_disabled":false,"rental_uris":{"android":"levelo://app?vid=8980ba22-c59a-4e3a-954a-445b611772e8","ios":"levelo://app?vid=8980ba22-c59a-4e3a-954a-445b611772e8"},"vehicle_type_id":"4","last_reported":1769116381,"current_range_meters":6000,"station_id":"ce4bh312rcd13ifvqdk0","pricing_plan_id":"cebpf4jnsgd1na2vs0mg"},{"bike_id":"9d86a94f-f259-4bff-8fc3-bc1bf1b477e4","system_id":"levelo_inurba_marseille","lat":43.25856,"lon":5.41823,"is_reserved":false,"is_disabled":false,"rental_uris":{"android":"levelo://app?vid=9d86a94f-f259-4bff-8fc3-bc1bf1b477e4","ios":"levelo://app?vid=9d86a94f-f259-4bff-8fc3-bc1bf1b477e4"},"vehicle_type_id":"4","last_reported":1769116381,"current_range_meters":6000,"station_id":"","pricing_plan_id":"cebpf4jnsgd1na2vs0mg"},{"bike_id":"9442084c-3381-47e8-b2dc-95ca76f97342","system_id":"levelo_inurba_marseille","lat":43.25025,"lon":5.38912,"is_reserved":false,"is_disabled":false,"rental_uris":{"android":"levelo://app?vid=9442084c-3381-47e8-b2dc-95ca76f97342","ios":"levelo://app?vid=9442084c-3381-47e8-b2dc-95ca76f97342"},"vehicle_type_id":"4","last_reported":1769116381,"current_range_meters":6000,"station_id":"ce4bhgp2rcd13ifvqfd0","pricing_plan_id":"cebpf4jnsgd1na2vs0mg"},{"bike_id":"6fedd87d-43f4-49d4-8c29-92430be6252f","system_id":"levelo_inurba_marseille","lat":43.28096,"lon":5.36644,"is_reserved":false,"is_disabled":false,"rental_uris":{"android":"levelo://app?vid=6fedd87d-43f4-49d4-8c29-92430be6252f","ios":"levelo://app?vid=6fedd87d-43f4-49d4-8c29-92430be6252f"},"vehicle_type_id":"4","last_reported":1769116381,"current_range_meters":6000,"station_id":"","pricing_plan_id":"cebpf4jnsgd1na2vs0mg"},{"bike_id":"d266ded5-1eac-4edc-a34e-2b3f93037bbe","system_id":"levelo_inurba_marseille","lat":43.29279,"lon":5.38465,"is_reserved":false,"is_disabled":false,"rental_uris":{"android":"levelo://app?vid=d266ded5-1eac-4edc-a34e-2b3f93037bbe","ios":"levelo://app?vid=d266ded5-1eac-4edc-a34e-2b3f93037bbe"},"vehicle_type_id":"4","last_reported":1769116381,"current_range_meters":6000,"station_id":"ce4bh692rcd13ifvqea0","pricing_plan_id":"cebpf4jnsgd1na2vs0mg"},{"bike_id":"22bc6d8e-7e0c-4234-afe0-c88e2589ac70","system_id":"levelo_inurba_marseille","lat":43.27178,"lon":5.39772,"is_reserved":false,"is_disabled":false,"rental_uris":{"android":"levelo://app?vid=22bc6d8e-7e0c-4234-afe0-c88e2589ac70","ios":"levelo://app?vid=22bc6d8e-7e0c-4234-afe0-c88e2589ac70"},"vehicle_type_id":"4","last_reported":1769116381,"current_range_meters":6000,"station_id":"","pricing_plan_id":"cebpf4jnsgd1na2vs0mg"},{"bike_id":"861bb7de-0e5d-4b2e-aab7-e5d1b3a5eab9","system_id":"levelo_inurba_marseille","lat":43.23151,"lon":5.43716,"is_reserved":false,"is_disabled":false,"rental_uris":{"android":"levelo://app?vid=861bb7de-0e5d-4b2e-aab7-e5d1b3a5eab9","ios":"levelo://app?vid=861bb7de-0e5d-4b2e-aab7-e5d1b3a5eab9"},"vehicle_type_id":"4","last_reported":1769116381,"current_range_meters":6000,"station_id":"ce4bhmp2rcd13ifvqgog","pricing_plan_id":"cebpf4jnsgd1na2vs0mg"},{"bike_id":"04c0685c-1fbe-454f-9299-7c48cd9463b1","system_id":"levelo_inurba_marseille","lat":43.28917,"lon":5.38403,"is_reserved":false,"is_disabled":false,"rental_uris":{"android":"levelo://app?vid=04c0685c-1fbe-454f-9299-7c48cd9463b1","ios":"levelo://app?vid=04c0685c-1fbe-454f-9299-7c48cd9463b1"},"vehicle_type_id":"4","last_reported":1769116381,"current_range_meters":6000,"station_id":"ce4bh612rcd13ifvqe6g","pricing_plan_id":"cebpf4jnsgd1na2vs0mg"},{"bike_id":"23be2248-935f-4deb-84d8-cac812d65bb5","system_id":"levelo_inurba_marseille","lat":43.29524,"lon":5.39037,"is_reserved":false,"is_disabled":false,"rental_uris":{"android":"levelo://app?vid=23be2248-935f-4deb-84d8-cac812d65bb5","ios":"levelo://app?vid=23be2248-935f-4deb-84d8-cac812d65bb5"},"vehicle_type_id":"4","last_reported":1769116381,"current_range_meters":6000,"station_id":"ce4bh3p2rcd13ifvqdp0","pricing_plan_id":"cebpf4jnsgd1na2vs0mg"},{"bike_id":"596c41c7-2beb-4c3c-8922-aa97d708cd66","system_id":"levelo_inurba_marseille","lat":43.32355,"lon":5.3675,"is_reserved":false,"is_disabled":false,"rental_uris":{"android":"levelo://app?vid=596c41c7-2beb-4c3c-8922-aa97d708cd66","ios":"levelo://app?vid=596c41c7-2beb-4c3c-8922-aa97d708cd66"},"vehicle_type_id":"4","last_reported":1769116381,"current_range_meters":6000,"station_id":"ce4bhsh2rcd13ifvqi2g","pricing_plan_id":"cebpf4jnsgd1na2vs0mg"},{"bike_id":"09299833-1cab-4d88-9fd7-ec3ed736bdf9","system_id":"levelo_inurba_marseille","lat":43.25714,"lon":5.42261,"is_reserved":false,"is_disabled":false,"rental_uris":{"android":"levelo://app?vid=09299833-1cab-4d88-9fd7-ec3ed736bdf9","ios":"levelo://app?vid=09299833-1cab-4d88-9fd7-ec3ed736bdf9"},"vehicle_type_id":"4","last_reported":1769116381,"current_range_meters":6000,"station_id":"","pricing_plan_id":"cebpf4jnsgd1na2vs0mg"},{"bike_id":"865fbdbf-9a0e-4ff1-ae30-a4b8c336a915","system_id":"levelo_inurba_marseille","lat":43.239665,"lon":5.366349,"is_reserved":false,"is_disabled":false,"rental_uris":{"android":"levelo://app?vid=865fbdbf-9a0e-4ff1-ae30-a4b8c336a915","ios":"levelo://app?vid=865fbdbf-9a0e-4ff1-ae30-a4b8c336a915"},"vehicle_type_id":"4","last_reported":1769116381,"current_range_meters":6000,"station_id":"ce4bhi12rcd13ifvqfp0","pricing_plan_id":"cebpf4jnsgd1na2vs0mg"},{"bike_id":"5b94d29f-9636-4aaa-b03f-06ecb5d9af2a","system_id":"levelo_inurba_marseille","lat":43.26062,"lon":5.39394,"is_reserved":false,"is_disabled":false,"rental_uris":{"android":"levelo://app?vid=5b94d29f-9636-4aaa-b03f-06ecb5d9af2a","ios":"levelo://app?vid=5b94d29f-9636-4aaa-b03f-06ecb5d9af2a"},"vehicle_type_id":"4","last_reported":1769116381,"current_range_meters":6400,"station_id":"ce4bhh92rcd13ifvqfj0","pricing_plan_id":"cebpf4jnsgd1na2vs0mg"},{"bike_id":"733d2f54-cd81-4838-963b-331436b0807a","system_id":"levelo_inurba_marseille","lat":43.28132,"lon":5.42666,"is_reserved":false,"is_disabled":false,"rental_uris":{"android":"levelo://app?vid=733d2f54-cd81-4838-963b-331436b0807a","ios":"levelo://app?vid=733d2f54-cd81-4838-963b-331436b0807a"},"vehicle_type_id":"4","last_reported":1769116381,"current_range_meters":6400,"station_id":"ce4bhnh2rcd13ifvqgug","pricing_plan_id":"cebpf4jnsgd1na2vs0mg"},{"bike_id":"b97a8031-6fa5-416e-b2f2-ada6d13ab344","system_id":"levelo_inurba_marseille","lat":43.28268,"lon":5.35062,"is_reserved":false,"is_disabled":false,"rental_uris":{"android":"levelo://app?vid=b97a8031-6fa5-416e-b2f2-ada6d13ab344","ios":"levelo://app?vid=b97a8031-6fa5-416e-b2f2-ada6d13ab344"},"vehicle_type_id":"4","last_reported":1769116381,"current_range_meters":6400,"station_id":"ce4bhbp2rcd13ifvqerg","pricing_plan_id":"cebpf4jnsgd1na2vs0mg"},{"bike_id":"7877d9c7-59ee-4390-bb00-aaef4ca7cd0d","system_id":"levelo_inurba_marseille","lat":43.29188,"lon":5.35798,"is_reserved":false,"is_disabled":false,"rental_uris":{"android":"levelo://app?vid=7877d9c7-59ee-4390-bb00-aaef4ca7cd0d","ios":"levelo://app?vid=7877d9c7-59ee-4390-bb00-aaef4ca7cd0d"},"vehicle_type_id":"4","last_reported":1769116381,"current_range_meters":6400,"station_id":"ce4bhb12rcd13ifvqel0","pricing_plan_id":"cebpf4jnsgd1na2vs0mg"},{"bike_id":"252d1ca3-554f-4154-899d-c9bb694bcf1e","system_id":"levelo_inurba_marseille","lat":43.3025,"lon":5.4005,"is_reserved":false,"is_disabled":false,"rental_uris":{"android":"levelo://app?vid=252d1ca3-554f-4154-899d-c9bb694bcf1e","ios":"levelo://app?vid=252d1ca3-554f-4154-899d-c9bb694bcf1e"},"vehicle_type_id":"4","last_reported":1769116381,"current_range_meters":6400,"station_id":"ce4bgvh2rcd13ifvqcs0","pricing_plan_id":"cebpf4jnsgd1na2vs0mg"},{"bike_id":"f9143ecb-aade-4bb9-990c-9859476787e9","system_id":"levelo_inurba_marseille","lat":43.23749,"lon":5.36661,"is_reserved":false,"is_disabled":false,"rental_uris":{"android":"levelo://app?vid=f9143ecb-aade-4bb9-990c-9859476787e9","ios":"levelo://app?vid=f9143ecb-aade-4bb9-990c-9859476787e9"},"vehicle_type_id":"4","last_reported":1769116381,"current_range_meters":6400,"station_id":"st_d3nk18o9ro0c73en2l3g","pricing_plan_id":"cebpf4jnsgd1na2vs0mg"},{"bike_id":"3b364841-63d1-4d4f-bb34-83c89b251a49","system_id":"levelo_inurba_marseille","lat":43.308905,"lon":5.372013,"is_reserved":false,"is_disabled":false,"rental_uris":{"android":"levelo://app?vid=3b364841-63d1-4d4f-bb34-83c89b251a49","ios":"levelo://app?vid=3b364841-63d1-4d4f-bb34-83c89b251a49"},"vehicle_type_id":"4","last_reported":1769116381,"current_range_meters":6400,"station_id":"ce4bguh2rcd13ifvqckg","pricing_plan_id":"cebpf4jnsgd1na2vs0mg"},{"bike_id":"513168dc-8a13-41ea-8994-991b9739c1c6","system_id":"levelo_inurba_marseille","lat":43.26558,"lon":5.39025,"is_reserved":false,"is_disabled":false,"rental_uris":{"android":"levelo://app?vid=513168dc-8a13-41ea-8994-991b9739c1c6","ios":"levelo://app?vid=513168dc-8a13-41ea-8994-991b9739c1c6"},"vehicle_type_id":"4","last_reported":1769116381,"current_range_meters":6400,"station_id":"ce4bhe12rcd13ifvqf30","pricing_plan_id":"cebpf4jnsgd1na2vs0mg"},{"bike_id":"c808d22f-bfbf-45b2-8e82-64886a1b6908","system_id":"levelo_inurba_marseille","lat":43.29241,"lon":5.38443,"is_reserved":false,"is_disabled":false,"rental_uris":{"android":"levelo://app?vid=c808d22f-bfbf-45b2-8e82-64886a1b6908","ios":"levelo://app?vid=c808d22f-bfbf-45b2-8e82-64886a1b6908"},"vehicle_type_id":"4","last_reported":1769116381,"current_range_meters":6400,"station_id":"ce4bh692rcd13ifvqea0","pricing_plan_id":"cebpf4jnsgd1na2vs0mg"},{"bike_id":"bfb393b2-23ff-41fa-960f-ead817f6b5c8","system_id":"levelo_inurba_marseille","lat":43.24543,"lon":5.39528,"is_reserved":false,"is_disabled":false,"rental_uris":{"android":"levelo://app?vid=bfb393b2-23ff-41fa-960f-ead817f6b5c8","ios":"levelo://app?vid=bfb393b2-23ff-41fa-960f-ead817f6b5c8"},"vehicle_type_id":"4","last_reported":1769116381,"current_range_meters":6400,"station_id":"ce4bhlp2rcd13ifvqgjg","pricing_plan_id":"cebpf4jnsgd1na2vs0mg"},{"bike_id":"2faa9769-4266-4c72-8541-5804fbbf8cb8","system_id":"levelo_inurba_marseille","lat":43.29264,"lon":5.37447,"is_reserved":false,"is_disabled":false,"rental_uris":{"android":"levelo://app?vid=2faa9769-4266-4c72-8541-5804fbbf8cb8","ios":"levelo://app?vid=2faa9769-4266-4c72-8541-5804fbbf8cb8"},"vehicle_type_id":"4","last_reported":1769116381,"current_range_meters":6400,"station_id":"ce4bgi12rcd13ifvqb70","pricing_plan_id":"cebpf4jnsgd1na2vs0mg"},{"bike_id":"6cde08db-2d60-4fc0-a7d5-505f4f93c6d4","system_id":"levelo_inurba_marseille","lat":43.3355,"lon":5.3749,"is_reserved":false,"is_disabled":false,"rental_uris":{"android":"levelo://app?vid=6cde08db-2d60-4fc0-a7d5-505f4f93c6d4","ios":"levelo://app?vid=6cde08db-2d60-4fc0-a7d5-505f4f93c6d4"},"vehicle_type_id":"4","last_reported":1769116381,"current_range_meters":6400,"station_id":"","pricing_plan_id":"cebpf4jnsgd1na2vs0mg"},{"bike_id":"388b114a-8850-48cb-a6c0-9e3ca0916a10","system_id":"levelo_inurba_marseille","lat":43.265701,"lon":5.390004,"is_reserved":false,"is_disabled":false,"rental_uris":{"android":"levelo://app?vid=388b114a-8850-48cb-a6c0-9e3ca0916a10","ios":"levelo://app?vid=388b114a-8850-48cb-a6c0-9e3ca0916a10"},"vehicle_type_id":"4","last_reported":1769116381,"current_range_meters":6400,"station_id":"ce4bhe12rcd13ifvqf30","pricing_plan_id":"cebpf4jnsgd1na2vs0mg"},{"bike_id":"dfb6b791-badd-4621-9306-ea3c833e2455","system_id":"levelo_inurba_marseille","lat":43.32724,"lon":5.40874,"is_reserved":false,"is_disabled":false,"rental_uris":{"android":"levelo://app?vid=dfb6b791-badd-4621-9306-ea3c833e2455","ios":"levelo://app?vid=dfb6b791-badd-4621-9306-ea3c833e2455"},"vehicle_type_id":"4","last_reported":1769116381,"current_range_meters":6400,"station_id":"","pricing_plan_id":"cebpf4jnsgd1na2vs0mg"},{"bike_id":"12d65139-8fbd-418b-8523-1b0952363e37","system_id":"levelo_inurba_marseille","lat":43.246471,"lon":5.388878,"is_reserved":false,"is_disabled":false,"rental_uris":{"android":"levelo://app?vid=12d65139-8fbd-418b-8523-1b0952363e37","ios":"levelo://app?vid=12d65139-8fbd-418b-8523-1b0952363e37"},"vehicle_type_id":"4","last_reported":1769116381,"current_range_meters":6800,"station_id":"ce4bhg12rcd13ifvqf60","pricing_plan_id":"cebpf4jnsgd1na2vs0mg"},{"bike_id":"090da4bf-e1ff-427c-b741-8d3293006606","system_id":"levelo_inurba_marseille","lat":43.23192,"lon":5.35547,"is_reserved":false,"is_disabled":false,"rental_uris":{"android":"levelo://app?vid=090da4bf-e1ff-427c-b741-8d3293006606","ios":"levelo://app?vid=090da4bf-e1ff-427c-b741-8d3293006606"},"vehicle_type_id":"4","last_reported":1769116381,"current_range_meters":6800,"station_id":"ce4bhu92rcd13ifvqi70","pricing_plan_id":"cebpf4jnsgd1na2vs0mg"},{"bike_id":"7b6f35b3-5a17-462f-ba3b-47fca9a5daaa","system_id":"levelo_inurba_marseille","lat":43.29263,"lon":5.38435,"is_reserved":false,"is_disabled":false,"rental_uris":{"android":"levelo://app?vid=7b6f35b3-5a17-462f-ba3b-47fca9a5daaa","ios":"levelo://app?vid=7b6f35b3-5a17-462f-ba3b-47fca9a5daaa"},"vehicle_type_id":"4","last_reported":1769116381,"current_range_meters":6800,"station_id":"ce4bh692rcd13ifvqea0","pricing_plan_id":"cebpf4jnsgd1na2vs0mg"},{"bike_id":"983dfa04-9e71-401d-b498-feaefa1c2d24","system_id":"levelo_inurba_marseille","lat":43.27008,"lon":5.39216,"is_reserved":false,"is_disabled":false,"rental_uris":{"android":"levelo://app?vid=983dfa04-9e71-401d-b498-feaefa1c2d24","ios":"levelo://app?vid=983dfa04-9e71-401d-b498-feaefa1c2d24"},"vehicle_type_id":"4","last_reported":1769116381,"current_range_meters":6800,"station_id":"","pricing_plan_id":"cebpf4jnsgd1na2vs0mg"},{"bike_id":"01ca9894-5796-4506-9eaf-a36caedfb835","system_id":"levelo_inurba_marseille","lat":43.29549,"lon":5.39034,"is_reserved":false,"is_disabled":false,"rental_uris":{"android":"levelo://app?vid=01ca9894-5796-4506-9eaf-a36caedfb835","ios":"levelo://app?vid=01ca9894-5796-4506-9eaf-a36caedfb835"},"vehicle_type_id":"4","last_reported":1769116381,"current_range_meters":6800,"station_id":"ce4bh3p2rcd13ifvqdp0","pricing_plan_id":"cebpf4jnsgd1na2vs0mg"},{"bike_id":"26b75af5-7ae4-4c9e-852d-f4607cbb3b5b","system_id":"levelo_inurba_marseille","lat":43.24545,"lon":5.39558,"is_reserved":false,"is_disabled":false,"rental_uris":{"android":"levelo://app?vid=26b75af5-7ae4-4c9e-852d-f4607cbb3b5b","ios":"levelo://app?vid=26b75af5-7ae4-4c9e-852d-f4607cbb3b5b"},"vehicle_type_id":"4","last_reported":1769116381,"current_range_meters":6800,"station_id":"ce4bhlp2rcd13ifvqgjg","pricing_plan_id":"cebpf4jnsgd1na2vs0mg"},{"bike_id":"0778e492-acc3-42fb-a1ee-b55e9a064825","system_id":"levelo_inurba_marseille","lat":43.28839,"lon":5.35861,"is_reserved":false,"is_disabled":false,"rental_uris":{"android":"levelo://app?vid=0778e492-acc3-42fb-a1ee-b55e9a064825","ios":"levelo://app?vid=0778e492-acc3-42fb-a1ee-b55e9a064825"},"vehicle_type_id":"4","last_reported":1769116381,"current_range_meters":6800,"station_id":"ce4bhb12rcd13ifvqem0","pricing_plan_id":"cebpf4jnsgd1na2vs0mg"},{"bike_id":"7728f11d-50ee-43e2-81c1-636a44c48647","system_id":"levelo_inurba_marseille","lat":43.32,"lon":5.38153,"is_reserved":false,"is_disabled":false,"rental_uris":{"android":"levelo://app?vid=7728f11d-50ee-43e2-81c1-636a44c48647","ios":"levelo://app?vid=7728f11d-50ee-43e2-81c1-636a44c48647"},"vehicle_type_id":"4","last_reported":1769116381,"current_range_meters":6800,"station_id":"ce4bhr12rcd13ifvqhpg","pricing_plan_id":"cebpf4jnsgd1na2vs0mg"},{"bike_id":"2fa28398-73c6-40b0-abd2-13b571db7bc0","system_id":"levelo_inurba_marseille","lat":43.26193,"lon":5.37925,"is_reserved":false,"is_disabled":false,"rental_uris":{"android":"levelo://app?vid=2fa28398-73c6-40b0-abd2-13b571db7bc0","ios":"levelo://app?vid=2fa28398-73c6-40b0-abd2-13b571db7bc0"},"vehicle_type_id":"4","last_reported":1769116381,"current_range_meters":6800,"station_id":"ce4bhjp2rcd13ifvqg90","pricing_plan_id":"cebpf4jnsgd1na2vs0mg"},{"bike_id":"fb3ff625-62fd-4ae8-9254-8c4981e04e71","system_id":"levelo_inurba_marseille","lat":43.33156,"lon":5.37698,"is_reserved":false,"is_disabled":false,"rental_uris":{"android":"levelo://app?vid=fb3ff625-62fd-4ae8-9254-8c4981e04e71","ios":"levelo://app?vid=fb3ff625-62fd-4ae8-9254-8c4981e04e71"},"vehicle_type_id":"4","last_reported":1769116381,"current_range_meters":6800,"station_id":"st_d46cu089ee8s73dldbu0","pricing_plan_id":"cebpf4jnsgd1na2vs0mg"},{"bike_id":"2bd7b052-198e-4662-8aa6-61b0cac79738","system_id":"levelo_inurba_marseille","lat":43.27272,"lon":5.39095,"is_reserved":false,"is_disabled":false,"rental_uris":{"android":"levelo://app?vid=2bd7b052-198e-4662-8aa6-61b0cac79738","ios":"levelo://app?vid=2bd7b052-198e-4662-8aa6-61b0cac79738"},"vehicle_type_id":"4","last_reported":1769116381,"current_range_meters":6800,"station_id":"ce4bhgp2rcd13ifvqfe0","pricing_plan_id":"cebpf4jnsgd1na2vs0mg"},{"bike_id":"e424e9fc-65e8-494a-b965-9d5ec24de2d7","system_id":"levelo_inurba_marseille","lat":43.308832,"lon":5.396299,"is_reserved":false,"is_disabled":false,"rental_uris":{"android":"levelo://app?vid=e424e9fc-65e8-494a-b965-9d5ec24de2d7","ios":"levelo://app?vid=e424e9fc-65e8-494a-b965-9d5ec24de2d7"},"vehicle_type_id":"4","last_reported":1769116381,"current_range_meters":7200,"station_id":"ce4bh012rcd13ifvqcv0","pricing_plan_id":"cebpf4jnsgd1na2vs0mg"},{"bike_id":"3e2deb9e-e71a-4d11-940d-76cd444019bd","system_id":"levelo_inurba_marseille","lat":43.30106,"lon":5.43069,"is_reserved":false,"is_disabled":false,"rental_uris":{"android":"levelo://app?vid=3e2deb9e-e71a-4d11-940d-76cd444019bd","ios":"levelo://app?vid=3e2deb9e-e71a-4d11-940d-76cd444019bd"},"vehicle_type_id":"4","last_reported":1769116381,"current_range_meters":7200,"station_id":"st_d3js3co5814s73ftftug","pricing_plan_id":"cebpf4jnsgd1na2vs0mg"},{"bike_id":"6055bb6e-3d5f-4359-bcc3-e96115ee8c1f","system_id":"levelo_inurba_marseille","lat":43.25572,"lon":5.38228,"is_reserved":false,"is_disabled":false,"rental_uris":{"android":"levelo://app?vid=6055bb6e-3d5f-4359-bcc3-e96115ee8c1f","ios":"levelo://app?vid=6055bb6e-3d5f-4359-bcc3-e96115ee8c1f"},"vehicle_type_id":"4","last_reported":1769116381,"current_range_meters":7200,"station_id":"ce4bhih2rcd13ifvqfs0","pricing_plan_id":"cebpf4jnsgd1na2vs0mg"},{"bike_id":"78927c7e-88dd-4257-a271-cfe10a84277a","system_id":"levelo_inurba_marseille","lat":43.29197,"lon":5.35793,"is_reserved":false,"is_disabled":false,"rental_uris":{"android":"levelo://app?vid=78927c7e-88dd-4257-a271-cfe10a84277a","ios":"levelo://app?vid=78927c7e-88dd-4257-a271-cfe10a84277a"},"vehicle_type_id":"4","last_reported":1769116381,"current_range_meters":7200,"station_id":"ce4bhb12rcd13ifvqel0","pricing_plan_id":"cebpf4jnsgd1na2vs0mg"},{"bike_id":"fd925f8e-899e-40ec-9287-4e65251eafb1","system_id":"levelo_inurba_marseille","lat":43.26836,"lon":5.38495,"is_reserved":false,"is_disabled":false,"rental_uris":{"android":"levelo://app?vid=fd925f8e-899e-40ec-9287-4e65251eafb1","ios":"levelo://app?vid=fd925f8e-899e-40ec-9287-4e65251eafb1"},"vehicle_type_id":"4","last_reported":1769116381,"current_range_meters":7200,"station_id":"","pricing_plan_id":"cebpf4jnsgd1na2vs0mg"},{"bike_id":"8293963f-3f4a-4a79-ad33-d56ccdfdb8ee","system_id":"levelo_inurba_marseille","lat":43.29598,"lon":5.38084,"is_reserved":false,"is_disabled":false,"rental_uris":{"android":"levelo://app?vid=8293963f-3f4a-4a79-ad33-d56ccdfdb8ee","ios":"levelo://app?vid=8293963f-3f4a-4a79-ad33-d56ccdfdb8ee"},"vehicle_type_id":"4","last_reported":1769116381,"current_range_meters":7200,"station_id":"ce4bgl12rcd13ifvqbo0","pricing_plan_id":"cebpf4jnsgd1na2vs0mg"},{"bike_id":"a1cf0267-a9c6-4cb7-b49a-598a4cc67209","system_id":"levelo_inurba_marseille","lat":43.23186,"lon":5.35541,"is_reserved":false,"is_disabled":false,"rental_uris":{"android":"levelo://app?vid=a1cf0267-a9c6-4cb7-b49a-598a4cc67209","ios":"levelo://app?vid=a1cf0267-a9c6-4cb7-b49a-598a4cc67209"},"vehicle_type_id":"4","last_reported":1769116381,"current_range_meters":7200,"station_id":"ce4bhu92rcd13ifvqi70","pricing_plan_id":"cebpf4jnsgd1na2vs0mg"},{"bike_id":"9864eb71-e1a9-41e3-a300-f80070833647","system_id":"levelo_inurba_marseille","lat":43.26551,"lon":5.40311,"is_reserved":false,"is_disabled":false,"rental_uris":{"android":"levelo://app?vid=9864eb71-e1a9-41e3-a300-f80070833647","ios":"levelo://app?vid=9864eb71-e1a9-41e3-a300-f80070833647"},"vehicle_type_id":"4","last_reported":1769116381,"current_range_meters":7200,"station_id":"ce4bhmp2rcd13ifvqgng","pricing_plan_id":"cebpf4jnsgd1na2vs0mg"},{"bike_id":"c858963e-174c-4de6-a8e9-7bd8f29fee6e","system_id":"levelo_inurba_marseille","lat":43.29516,"lon":5.39398,"is_reserved":false,"is_disabled":false,"rental_uris":{"android":"levelo://app?vid=c858963e-174c-4de6-a8e9-7bd8f29fee6e","ios":"levelo://app?vid=c858963e-174c-4de6-a8e9-7bd8f29fee6e"},"vehicle_type_id":"4","last_reported":1769116381,"current_range_meters":7200,"station_id":"ce4bh292rcd13ifvqdf0","pricing_plan_id":"cebpf4jnsgd1na2vs0mg"},{"bike_id":"89bb703e-1fd9-403b-abd6-798f35ab61ac","system_id":"levelo_inurba_marseille","lat":43.30135,"lon":5.39873,"is_reserved":false,"is_disabled":false,"rental_uris":{"android":"levelo://app?vid=89bb703e-1fd9-403b-abd6-798f35ab61ac","ios":"levelo://app?vid=89bb703e-1fd9-403b-abd6-798f35ab61ac"},"vehicle_type_id":"4","last_reported":1769116381,"current_range_meters":7200,"station_id":"ce4bh0h2rcd13ifvqd40","pricing_plan_id":"cebpf4jnsgd1na2vs0mg"},{"bike_id":"541d5a44-dde4-426d-8d84-9ca52b8319ea","system_id":"levelo_inurba_marseille","lat":43.32067,"lon":5.4153,"is_reserved":false,"is_disabled":false,"rental_uris":{"android":"levelo://app?vid=541d5a44-dde4-426d-8d84-9ca52b8319ea","ios":"levelo://app?vid=541d5a44-dde4-426d-8d84-9ca52b8319ea"},"vehicle_type_id":"4","last_reported":1769116381,"current_range_meters":7200,"station_id":"ce4bhq92rcd13ifvqhkg","pricing_plan_id":"cebpf4jnsgd1na2vs0mg"},{"bike_id":"ae72a7f7-0a78-43a1-a80c-a2893de3e9bb","system_id":"levelo_inurba_marseille","lat":43.24808,"lon":5.3746,"is_reserved":false,"is_disabled":false,"rental_uris":{"android":"levelo://app?vid=ae72a7f7-0a78-43a1-a80c-a2893de3e9bb","ios":"levelo://app?vid=ae72a7f7-0a78-43a1-a80c-a2893de3e9bb"},"vehicle_type_id":"4","last_reported":1769116381,"current_range_meters":7200,"station_id":"ce4bhgh2rcd13ifvqfb0","pricing_plan_id":"cebpf4jnsgd1na2vs0mg"},{"bike_id":"c462c4a3-3f5e-4fd1-8a2f-56615210c468","system_id":"levelo_inurba_marseille","lat":43.25807,"lon":5.38593,"is_reserved":false,"is_disabled":false,"rental_uris":{"android":"levelo://app?vid=c462c4a3-3f5e-4fd1-8a2f-56615210c468","ios":"levelo://app?vid=c462c4a3-3f5e-4fd1-8a2f-56615210c468"},"vehicle_type_id":"4","last_reported":1769116381,"current_range_meters":7200,"station_id":"","pricing_plan_id":"cebpf4jnsgd1na2vs0mg"},{"bike_id":"16c7dbf1-0dee-4524-b5b5-b3c16b297eba","system_id":"levelo_inurba_marseille","lat":43.31285,"lon":5.40206,"is_reserved":false,"is_disabled":false,"rental_uris":{"android":"levelo://app?vid=16c7dbf1-0dee-4524-b5b5-b3c16b297eba","ios":"levelo://app?vid=16c7dbf1-0dee-4524-b5b5-b3c16b297eba"},"vehicle_type_id":"4","last_reported":1769116381,"current_range_meters":7200,"station_id":"ce4bh092rcd13ifvqd30","pricing_plan_id":"cebpf4jnsgd1na2vs0mg"},{"bike_id":"9bcc74ff-bb21-459b-8c89-b1049e46743c","system_id":"levelo_inurba_marseille","lat":43.24628,"lon":5.43136,"is_reserved":false,"is_disabled":false,"rental_uris":{"android":"levelo://app?vid=9bcc74ff-bb21-459b-8c89-b1049e46743c","ios":"levelo://app?vid=9bcc74ff-bb21-459b-8c89-b1049e46743c"},"vehicle_type_id":"4","last_reported":1769116381,"current_range_meters":7200,"station_id":"st_d2m6c4gdas8pm72e190g","pricing_plan_id":"cebpf4jnsgd1na2vs0mg"},{"bike_id":"76c35779-008a-4542-847a-b15bc71b9b71","system_id":"levelo_inurba_marseille","lat":43.246512,"lon":5.388888,"is_reserved":false,"is_disabled":false,"rental_uris":{"android":"levelo://app?vid=76c35779-008a-4542-847a-b15bc71b9b71","ios":"levelo://app?vid=76c35779-008a-4542-847a-b15bc71b9b71"},"vehicle_type_id":"4","last_reported":1769116381,"current_range_meters":7200,"station_id":"","pricing_plan_id":"cebpf4jnsgd1na2vs0mg"},{"bike_id":"40e5e2c7-0e64-4220-a47b-eba55999faf7","system_id":"levelo_inurba_marseille","lat":43.22576,"lon":5.41593,"is_reserved":false,"is_disabled":false,"rental_uris":{"android":"levelo://app?vid=40e5e2c7-0e64-4220-a47b-eba55999faf7","ios":"levelo://app?vid=40e5e2c7-0e64-4220-a47b-eba55999faf7"},"vehicle_type_id":"4","last_reported":1769116381,"current_range_meters":7200,"station_id":"st_d2o4gvlbi1j2169b742g","pricing_plan_id":"cebpf4jnsgd1na2vs0mg"},{"bike_id":"5774ccfd-14a6-43af-ad10-c65f799a2b31","system_id":"levelo_inurba_marseille","lat":43.28407,"lon":5.37509,"is_reserved":false,"is_disabled":false,"rental_uris":{"android":"levelo://app?vid=5774ccfd-14a6-43af-ad10-c65f799a2b31","ios":"levelo://app?vid=5774ccfd-14a6-43af-ad10-c65f799a2b31"},"vehicle_type_id":"4","last_reported":1769116381,"current_range_meters":7200,"station_id":"ce4bh412rcd13ifvqds0","pricing_plan_id":"cebpf4jnsgd1na2vs0mg"},{"bike_id":"c9c91417-1c93-40bd-ac7d-c76d147f675b","system_id":"levelo_inurba_marseille","lat":43.25012,"lon":5.3892,"is_reserved":false,"is_disabled":false,"rental_uris":{"android":"levelo://app?vid=c9c91417-1c93-40bd-ac7d-c76d147f675b","ios":"levelo://app?vid=c9c91417-1c93-40bd-ac7d-c76d147f675b"},"vehicle_type_id":"4","last_reported":1769116381,"current_range_meters":7200,"station_id":"ce4bhgp2rcd13ifvqfd0","pricing_plan_id":"cebpf4jnsgd1na2vs0mg"},{"bike_id":"52324e19-023b-48fb-8087-dd5cc8dd26f9","system_id":"levelo_inurba_marseille","lat":43.29258,"lon":5.38437,"is_reserved":false,"is_disabled":false,"rental_uris":{"android":"levelo://app?vid=52324e19-023b-48fb-8087-dd5cc8dd26f9","ios":"levelo://app?vid=52324e19-023b-48fb-8087-dd5cc8dd26f9"},"vehicle_type_id":"4","last_reported":1769116381,"current_range_meters":7200,"station_id":"ce4bh692rcd13ifvqea0","pricing_plan_id":"cebpf4jnsgd1na2vs0mg"},{"bike_id":"f1fb0a22-1545-470e-8b10-232e1fcf620f","system_id":"levelo_inurba_marseille","lat":43.2794,"lon":5.41052,"is_reserved":false,"is_disabled":false,"rental_uris":{"android":"levelo://app?vid=f1fb0a22-1545-470e-8b10-232e1fcf620f","ios":"levelo://app?vid=f1fb0a22-1545-470e-8b10-232e1fcf620f"},"vehicle_type_id":"4","last_reported":1769116381,"current_range_meters":7200,"station_id":"ce4bhnp2rcd13ifvqh0g","pricing_plan_id":"cebpf4jnsgd1na2vs0mg"},{"bike_id":"07eceb74-6a95-40d2-bb91-34d09033e737","system_id":"levelo_inurba_marseille","lat":43.27364,"lon":5.3625,"is_reserved":false,"is_disabled":false,"rental_uris":{"android":"levelo://app?vid=07eceb74-6a95-40d2-bb91-34d09033e737","ios":"levelo://app?vid=07eceb74-6a95-40d2-bb91-34d09033e737"},"vehicle_type_id":"4","last_reported":1769116381,"current_range_meters":7200,"station_id":"ce4bhbh2rcd13ifvqeo0","pricing_plan_id":"cebpf4jnsgd1na2vs0mg"},{"bike_id":"92c9c3a8-e4be-4529-9e45-499f497fe286","system_id":"levelo_inurba_marseille","lat":43.31111,"lon":5.37807,"is_reserved":false,"is_disabled":false,"rental_uris":{"android":"levelo://app?vid=92c9c3a8-e4be-4529-9e45-499f497fe286","ios":"levelo://app?vid=92c9c3a8-e4be-4529-9e45-499f497fe286"},"vehicle_type_id":"4","last_reported":1769116381,"current_range_meters":7200,"station_id":"ce4bgt92rcd13ifvqcg0","pricing_plan_id":"cebpf4jnsgd1na2vs0mg"},{"bike_id":"436a31be-69ae-46d2-9f22-806921ec8f8a","system_id":"levelo_inurba_marseille","lat":43.23195,"lon":5.39991,"is_reserved":false,"is_disabled":false,"rental_uris":{"android":"levelo://app?vid=436a31be-69ae-46d2-9f22-806921ec8f8a","ios":"levelo://app?vid=436a31be-69ae-46d2-9f22-806921ec8f8a"},"vehicle_type_id":"4","last_reported":1769116381,"current_range_meters":7200,"station_id":"ce4bhn12rcd13ifvqgqg","pricing_plan_id":"cebpf4jnsgd1na2vs0mg"},{"bike_id":"7a44288c-76ef-42bd-aa63-09fedbfa4f09","system_id":"levelo_inurba_marseille","lat":43.24468,"lon":5.42554,"is_reserved":false,"is_disabled":false,"rental_uris":{"android":"levelo://app?vid=7a44288c-76ef-42bd-aa63-09fedbfa4f09","ios":"levelo://app?vid=7a44288c-76ef-42bd-aa63-09fedbfa4f09"},"vehicle_type_id":"4","last_reported":1769116381,"current_range_meters":7200,"station_id":"st_d4a3vfp97mjs738cd8kg","pricing_plan_id":"cebpf4jnsgd1na2vs0mg"},{"bike_id":"dc46bf46-763d-4b7a-9b3b-47e7a09bc6be","system_id":"levelo_inurba_marseille","lat":43.32186,"lon":5.40588,"is_reserved":false,"is_disabled":false,"rental_uris":{"android":"levelo://app?vid=dc46bf46-763d-4b7a-9b3b-47e7a09bc6be","ios":"levelo://app?vid=dc46bf46-763d-4b7a-9b3b-47e7a09bc6be"},"vehicle_type_id":"4","last_reported":1769116381,"current_range_meters":7200,"station_id":"","pricing_plan_id":"cebpf4jnsgd1na2vs0mg"},{"bike_id":"cbd6d55e-5809-4853-9878-dbbf6af6a148","system_id":"levelo_inurba_marseille","lat":43.2887,"lon":5.42507,"is_reserved":false,"is_disabled":false,"rental_uris":{"android":"levelo://app?vid=cbd6d55e-5809-4853-9878-dbbf6af6a148","ios":"levelo://app?vid=cbd6d55e-5809-4853-9878-dbbf6af6a148"},"vehicle_type_id":"4","last_reported":1769116381,"current_range_meters":8000,"station_id":"st_d3b462108ojc7389ooeg","pricing_plan_id":"cebpf4jnsgd1na2vs0mg"},{"bike_id":"68e91371-ec19-4980-808d-6b1e83d2095c","system_id":"levelo_inurba_marseille","lat":43.27909,"lon":5.3959,"is_reserved":false,"is_disabled":false,"rental_uris":{"android":"levelo://app?vid=68e91371-ec19-4980-808d-6b1e83d2095c","ios":"levelo://app?vid=68e91371-ec19-4980-808d-6b1e83d2095c"},"vehicle_type_id":"4","last_reported":1769116381,"current_range_meters":8000,"station_id":"ce4bhf92rcd13ifvqf40","pricing_plan_id":"cebpf4jnsgd1na2vs0mg"},{"bike_id":"ddcb7194-82dc-49b9-9531-85c1db3d6fc4","system_id":"levelo_inurba_marseille","lat":43.24632,"lon":5.389,"is_reserved":false,"is_disabled":true,"rental_uris":{"android":"levelo://app?vid=ddcb7194-82dc-49b9-9531-85c1db3d6fc4","ios":"levelo://app?vid=ddcb7194-82dc-49b9-9531-85c1db3d6fc4"},"vehicle_type_id":"4","last_reported":1769116381,"current_range_meters":8000,"station_id":"ce4bhg12rcd13ifvqf60","pricing_plan_id":"cebpf4jnsgd1na2vs0mg"},{"bike_id":"c810b0da-c681-48b0-962c-29a278949d7e","system_id":"levelo_inurba_marseille","lat":43.22934,"lon":5.35382,"is_reserved":false,"is_disabled":false,"rental_uris":{"android":"levelo://app?vid=c810b0da-c681-48b0-962c-29a278949d7e","ios":"levelo://app?vid=c810b0da-c681-48b0-962c-29a278949d7e"},"vehicle_type_id":"4","last_reported":1769116381,"current_range_meters":8000,"station_id":"cpo3532slgdg3j2ikp40","pricing_plan_id":"cebpf4jnsgd1na2vs0mg"},{"bike_id":"65808b18-3604-4fd3-9b1d-c1fd09908835","system_id":"levelo_inurba_marseille","lat":43.253337,"lon":5.421682,"is_reserved":false,"is_disabled":false,"rental_uris":{"android":"levelo://app?vid=65808b18-3604-4fd3-9b1d-c1fd09908835","ios":"levelo://app?vid=65808b18-3604-4fd3-9b1d-c1fd09908835"},"vehicle_type_id":"4","last_reported":1769116381,"current_range_meters":8000,"station_id":"st_d2m65c5bi1j21697t3ng","pricing_plan_id":"cebpf4jnsgd1na2vs0mg"},{"bike_id":"4289f0cf-d95b-41d5-8ced-ea98ca673e4a","system_id":"levelo_inurba_marseille","lat":43.246927,"lon":5.381537,"is_reserved":false,"is_disabled":false,"rental_uris":{"android":"levelo://app?vid=4289f0cf-d95b-41d5-8ced-ea98ca673e4a","ios":"levelo://app?vid=4289f0cf-d95b-41d5-8ced-ea98ca673e4a"},"vehicle_type_id":"4","last_reported":1769116381,"current_range_meters":8000,"station_id":"ce4bhih2rcd13ifvqfr0","pricing_plan_id":"cebpf4jnsgd1na2vs0mg"},{"bike_id":"acd9753d-26e3-4f04-bd58-d34a3f6a0ad6","system_id":"levelo_inurba_marseille","lat":43.32464,"lon":5.36594,"is_reserved":false,"is_disabled":false,"rental_uris":{"android":"levelo://app?vid=acd9753d-26e3-4f04-bd58-d34a3f6a0ad6","ios":"levelo://app?vid=acd9753d-26e3-4f04-bd58-d34a3f6a0ad6"},"vehicle_type_id":"4","last_reported":1769116381,"current_range_meters":8000,"station_id":"ce4bhs12rcd13ifvqhvg","pricing_plan_id":"cebpf4jnsgd1na2vs0mg"},{"bike_id":"cc9f4717-497d-46b4-8770-89f5df0571cd","system_id":"levelo_inurba_marseille","lat":43.24363,"lon":5.37101,"is_reserved":false,"is_disabled":false,"rental_uris":{"android":"levelo://app?vid=cc9f4717-497d-46b4-8770-89f5df0571cd","ios":"levelo://app?vid=cc9f4717-497d-46b4-8770-89f5df0571cd"},"vehicle_type_id":"4","last_reported":1769116381,"current_range_meters":8000,"station_id":"ce4bhhh2rcd13ifvqfk0","pricing_plan_id":"cebpf4jnsgd1na2vs0mg"},{"bike_id":"7f8b115f-437f-48ac-a2b5-2ea2826153f9","system_id":"levelo_inurba_marseille","lat":43.31283,"lon":5.40169,"is_reserved":false,"is_disabled":false,"rental_uris":{"android":"levelo://app?vid=7f8b115f-437f-48ac-a2b5-2ea2826153f9","ios":"levelo://app?vid=7f8b115f-437f-48ac-a2b5-2ea2826153f9"},"vehicle_type_id":"4","last_reported":1769116381,"current_range_meters":8000,"station_id":"ce4bh092rcd13ifvqd30","pricing_plan_id":"cebpf4jnsgd1na2vs0mg"},{"bike_id":"603d6808-3fb8-4be0-b8fb-08adadd3d93c","system_id":"levelo_inurba_marseille","lat":43.28685,"lon":5.38662,"is_reserved":false,"is_disabled":false,"rental_uris":{"android":"levelo://app?vid=603d6808-3fb8-4be0-b8fb-08adadd3d93c","ios":"levelo://app?vid=603d6808-3fb8-4be0-b8fb-08adadd3d93c"},"vehicle_type_id":"4","last_reported":1769116381,"current_range_meters":8000,"station_id":"ce4bh492rcd13ifvqdug","pricing_plan_id":"cebpf4jnsgd1na2vs0mg"},{"bike_id":"15015e57-ac59-4038-bc9a-c0a8b0cb2f03","system_id":"levelo_inurba_marseille","lat":43.29295,"lon":5.37422,"is_reserved":false,"is_disabled":false,"rental_uris":{"android":"levelo://app?vid=15015e57-ac59-4038-bc9a-c0a8b0cb2f03","ios":"levelo://app?vid=15015e57-ac59-4038-bc9a-c0a8b0cb2f03"},"vehicle_type_id":"4","last_reported":1769116381,"current_range_meters":8000,"station_id":"ce4bgi12rcd13ifvqb70","pricing_plan_id":"cebpf4jnsgd1na2vs0mg"},{"bike_id":"2403f0bf-de39-4f6c-b1d8-f725bb90dee3","system_id":"levelo_inurba_marseille","lat":43.24179,"lon":5.36348,"is_reserved":false,"is_disabled":false,"rental_uris":{"android":"levelo://app?vid=2403f0bf-de39-4f6c-b1d8-f725bb90dee3","ios":"levelo://app?vid=2403f0bf-de39-4f6c-b1d8-f725bb90dee3"},"vehicle_type_id":"4","last_reported":1769116381,"current_range_meters":8000,"station_id":"cpo36qri1sfpv3e86is0","pricing_plan_id":"cebpf4jnsgd1na2vs0mg"},{"bike_id":"249a4cf7-06f6-4fea-96cc-c9c6b750c37f","system_id":"levelo_inurba_marseille","lat":43.24161,"lon":5.36386,"is_reserved":false,"is_disabled":false,"rental_uris":{"android":"levelo://app?vid=249a4cf7-06f6-4fea-96cc-c9c6b750c37f","ios":"levelo://app?vid=249a4cf7-06f6-4fea-96cc-c9c6b750c37f"},"vehicle_type_id":"4","last_reported":1769116381,"current_range_meters":8000,"station_id":"cpo36qri1sfpv3e86is0","pricing_plan_id":"cebpf4jnsgd1na2vs0mg"},{"bike_id":"65a6842e-5fed-466b-9131-4e1d873c7f6a","system_id":"levelo_inurba_marseille","lat":43.30096,"lon":5.39098,"is_reserved":false,"is_disabled":true,"rental_uris":{"android":"levelo://app?vid=65a6842e-5fed-466b-9131-4e1d873c7f6a","ios":"levelo://app?vid=65a6842e-5fed-466b-9131-4e1d873c7f6a"},"vehicle_type_id":"4","last_reported":1769116381,"current_range_meters":8000,"station_id":"ce4bh192rcd13ifvqdb0","pricing_plan_id":"cebpf4jnsgd1na2vs0mg"},{"bike_id":"0cb45920-8e19-4d63-9944-61d25080fade","system_id":"levelo_inurba_marseille","lat":43.29321,"lon":5.37439,"is_reserved":false,"is_disabled":false,"rental_uris":{"android":"levelo://app?vid=0cb45920-8e19-4d63-9944-61d25080fade","ios":"levelo://app?vid=0cb45920-8e19-4d63-9944-61d25080fade"},"vehicle_type_id":"4","last_reported":1769116381,"current_range_meters":8000,"station_id":"ce4bgi12rcd13ifvqb70","pricing_plan_id":"cebpf4jnsgd1na2vs0mg"},{"bike_id":"7ba23323-6ddc-445c-8627-b0bc6c465bc3","system_id":"levelo_inurba_marseille","lat":43.32448,"lon":5.36566,"is_reserved":false,"is_disabled":false,"rental_uris":{"android":"levelo://app?vid=7ba23323-6ddc-445c-8627-b0bc6c465bc3","ios":"levelo://app?vid=7ba23323-6ddc-445c-8627-b0bc6c465bc3"},"vehicle_type_id":"4","last_reported":1769116381,"current_range_meters":8000,"station_id":"ce4bhs12rcd13ifvqhvg","pricing_plan_id":"cebpf4jnsgd1na2vs0mg"},{"bike_id":"0f3ab52f-5900-407d-adf2-c47497925b64","system_id":"levelo_inurba_marseille","lat":43.26561,"lon":5.3729,"is_reserved":false,"is_disabled":false,"rental_uris":{"android":"levelo://app?vid=0f3ab52f-5900-407d-adf2-c47497925b64","ios":"levelo://app?vid=0f3ab52f-5900-407d-adf2-c47497925b64"},"vehicle_type_id":"4","last_reported":1769116381,"current_range_meters":8000,"station_id":"ce4bhg12rcd13ifvqf70","pricing_plan_id":"cebpf4jnsgd1na2vs0mg"},{"bike_id":"ab95198a-0541-44ea-85d9-2eebfae49d1c","system_id":"levelo_inurba_marseille","lat":43.29248,"lon":5.38453,"is_reserved":false,"is_disabled":false,"rental_uris":{"android":"levelo://app?vid=ab95198a-0541-44ea-85d9-2eebfae49d1c","ios":"levelo://app?vid=ab95198a-0541-44ea-85d9-2eebfae49d1c"},"vehicle_type_id":"4","last_reported":1769116381,"current_range_meters":8000,"station_id":"ce4bh692rcd13ifvqea0","pricing_plan_id":"cebpf4jnsgd1na2vs0mg"},{"bike_id":"a8bc38a5-32d2-4fb9-8b3f-cd01c856c19f","system_id":"levelo_inurba_marseille","lat":43.27813,"lon":5.40708,"is_reserved":false,"is_disabled":false,"rental_uris":{"android":"levelo://app?vid=a8bc38a5-32d2-4fb9-8b3f-cd01c856c19f","ios":"levelo://app?vid=a8bc38a5-32d2-4fb9-8b3f-cd01c856c19f"},"vehicle_type_id":"4","last_reported":1769116381,"current_range_meters":8000,"station_id":"ce4bhnh2rcd13ifvqgtg","pricing_plan_id":"cebpf4jnsgd1na2vs0mg"},{"bike_id":"20c1cc69-3a0d-4679-b45c-9954ef47fca5","system_id":"levelo_inurba_marseille","lat":43.23052,"lon":5.35484,"is_reserved":false,"is_disabled":false,"rental_uris":{"android":"levelo://app?vid=20c1cc69-3a0d-4679-b45c-9954ef47fca5","ios":"levelo://app?vid=20c1cc69-3a0d-4679-b45c-9954ef47fca5"},"vehicle_type_id":"4","last_reported":1769116381,"current_range_meters":8000,"station_id":"cpo3342slgdg3j2ifvpg","pricing_plan_id":"cebpf4jnsgd1na2vs0mg"},{"bike_id":"af257af0-7355-46df-9fa7-96bb17af1d36","system_id":"levelo_inurba_marseille","lat":43.29028,"lon":5.38652,"is_reserved":false,"is_disabled":false,"rental_uris":{"android":"levelo://app?vid=af257af0-7355-46df-9fa7-96bb17af1d36","ios":"levelo://app?vid=af257af0-7355-46df-9fa7-96bb17af1d36"},"vehicle_type_id":"4","last_reported":1769116381,"current_range_meters":8000,"station_id":"ce4bh4p2rcd13ifvqe0g","pricing_plan_id":"cebpf4jnsgd1na2vs0mg"},{"bike_id":"3d5f4b0c-7332-4168-a551-64cc0bf5ed08","system_id":"levelo_inurba_marseille","lat":43.31362,"lon":5.38496,"is_reserved":false,"is_disabled":false,"rental_uris":{"android":"levelo://app?vid=3d5f4b0c-7332-4168-a551-64cc0bf5ed08","ios":"levelo://app?vid=3d5f4b0c-7332-4168-a551-64cc0bf5ed08"},"vehicle_type_id":"4","last_reported":1769116381,"current_range_meters":8000,"station_id":"ce4bgt92rcd13ifvqcf0","pricing_plan_id":"cebpf4jnsgd1na2vs0mg"},{"bike_id":"d96c61dd-ca47-4226-9179-23e9d7901a17","system_id":"levelo_inurba_marseille","lat":43.29521,"lon":5.39045,"is_reserved":false,"is_disabled":false,"rental_uris":{"android":"levelo://app?vid=d96c61dd-ca47-4226-9179-23e9d7901a17","ios":"levelo://app?vid=d96c61dd-ca47-4226-9179-23e9d7901a17"},"vehicle_type_id":"4","last_reported":1769116381,"current_range_meters":8000,"station_id":"ce4bh3p2rcd13ifvqdp0","pricing_plan_id":"cebpf4jnsgd1na2vs0mg"},{"bike_id":"8611998d-0eb0-4d09-9a98-bddf6d8c9d6f","system_id":"levelo_inurba_marseille","lat":43.29794,"lon":5.3933,"is_reserved":false,"is_disabled":false,"rental_uris":{"android":"levelo://app?vid=8611998d-0eb0-4d09-9a98-bddf6d8c9d6f","ios":"levelo://app?vid=8611998d-0eb0-4d09-9a98-bddf6d8c9d6f"},"vehicle_type_id":"4","last_reported":1769116381,"current_range_meters":8000,"station_id":"chh1huq6cuj3fo74tm60","pricing_plan_id":"cebpf4jnsgd1na2vs0mg"},{"bike_id":"324cd82f-1083-4204-b317-811809b2300e","system_id":"levelo_inurba_marseille","lat":43.29183,"lon":5.37293,"is_reserved":false,"is_disabled":false,"rental_uris":{"android":"levelo://app?vid=324cd82f-1083-4204-b317-811809b2300e","ios":"levelo://app?vid=324cd82f-1083-4204-b317-811809b2300e"},"vehicle_type_id":"4","last_reported":1769116381,"current_range_meters":8000,"station_id":"","pricing_plan_id":"cebpf4jnsgd1na2vs0mg"},{"bike_id":"884b714b-de31-400c-acad-491c87710532","system_id":"levelo_inurba_marseille","lat":43.29899,"lon":5.43675,"is_reserved":false,"is_disabled":false,"rental_uris":{"android":"levelo://app?vid=884b714b-de31-400c-acad-491c87710532","ios":"levelo://app?vid=884b714b-de31-400c-acad-491c87710532"},"vehicle_type_id":"4","last_reported":1769116381,"current_range_meters":8000,"station_id":"ce4bhpp2rcd13ifvqhfg","pricing_plan_id":"cebpf4jnsgd1na2vs0mg"},{"bike_id":"ac2d2279-078e-427c-a271-5dd6e4133a48","system_id":"levelo_inurba_marseille","lat":43.31329,"lon":5.39689,"is_reserved":false,"is_disabled":false,"rental_uris":{"android":"levelo://app?vid=ac2d2279-078e-427c-a271-5dd6e4133a48","ios":"levelo://app?vid=ac2d2279-078e-427c-a271-5dd6e4133a48"},"vehicle_type_id":"4","last_reported":1769116381,"current_range_meters":8000,"station_id":"ce4bgvp2rcd13ifvqcu0","pricing_plan_id":"cebpf4jnsgd1na2vs0mg"},{"bike_id":"5624fca0-ed3f-471c-9e6d-3f26c2821af0","system_id":"levelo_inurba_marseille","lat":43.29022,"lon":5.38634,"is_reserved":false,"is_disabled":false,"rental_uris":{"android":"levelo://app?vid=5624fca0-ed3f-471c-9e6d-3f26c2821af0","ios":"levelo://app?vid=5624fca0-ed3f-471c-9e6d-3f26c2821af0"},"vehicle_type_id":"4","last_reported":1769116381,"current_range_meters":8400,"station_id":"ce4bh4p2rcd13ifvqe0g","pricing_plan_id":"cebpf4jnsgd1na2vs0mg"},{"bike_id":"7875bc43-910a-4950-822b-37f57971d302","system_id":"levelo_inurba_marseille","lat":43.2927,"lon":5.38452,"is_reserved":false,"is_disabled":false,"rental_uris":{"android":"levelo://app?vid=7875bc43-910a-4950-822b-37f57971d302","ios":"levelo://app?vid=7875bc43-910a-4950-822b-37f57971d302"},"vehicle_type_id":"4","last_reported":1769116381,"current_range_meters":8400,"station_id":"ce4bh692rcd13ifvqea0","pricing_plan_id":"cebpf4jnsgd1na2vs0mg"},{"bike_id":"4f3b62f2-f7a1-409e-b99e-8910c96cab89","system_id":"levelo_inurba_marseille","lat":43.30378,"lon":5.42475,"is_reserved":false,"is_disabled":false,"rental_uris":{"android":"levelo://app?vid=4f3b62f2-f7a1-409e-b99e-8910c96cab89","ios":"levelo://app?vid=4f3b62f2-f7a1-409e-b99e-8910c96cab89"},"vehicle_type_id":"4","last_reported":1769116381,"current_range_meters":8400,"station_id":"ce4bhoh2rcd13ifvqh6g","pricing_plan_id":"cebpf4jnsgd1na2vs0mg"},{"bike_id":"3a74fd4c-a28d-4b0f-8d92-363ade241f9b","system_id":"levelo_inurba_marseille","lat":43.29533,"lon":5.3906,"is_reserved":false,"is_disabled":false,"rental_uris":{"android":"levelo://app?vid=3a74fd4c-a28d-4b0f-8d92-363ade241f9b","ios":"levelo://app?vid=3a74fd4c-a28d-4b0f-8d92-363ade241f9b"},"vehicle_type_id":"4","last_reported":1769116381,"current_range_meters":8400,"station_id":"ce4bh3p2rcd13ifvqdp0","pricing_plan_id":"cebpf4jnsgd1na2vs0mg"},{"bike_id":"dcaca286-10d8-44fb-a8e8-d4128ccf9b29","system_id":"levelo_inurba_marseille","lat":43.23182,"lon":5.39985,"is_reserved":false,"is_disabled":false,"rental_uris":{"android":"levelo://app?vid=dcaca286-10d8-44fb-a8e8-d4128ccf9b29","ios":"levelo://app?vid=dcaca286-10d8-44fb-a8e8-d4128ccf9b29"},"vehicle_type_id":"4","last_reported":1769116381,"current_range_meters":8400,"station_id":"ce4bhn12rcd13ifvqgqg","pricing_plan_id":"cebpf4jnsgd1na2vs0mg"},{"bike_id":"1936b619-1a76-4ddf-9a38-bbaea5d229fe","system_id":"levelo_inurba_marseille","lat":43.295377,"lon":5.385466,"is_reserved":false,"is_disabled":false,"rental_uris":{"android":"levelo://app?vid=1936b619-1a76-4ddf-9a38-bbaea5d229fe","ios":"levelo://app?vid=1936b619-1a76-4ddf-9a38-bbaea5d229fe"},"vehicle_type_id":"4","last_reported":1769116381,"current_range_meters":8400,"station_id":"ce4bgih2rcd13ifvqba0","pricing_plan_id":"cebpf4jnsgd1na2vs0mg"},{"bike_id":"4caa22e2-d859-4a19-bd59-4b424ef0c350","system_id":"levelo_inurba_marseille","lat":43.29294,"lon":5.38488,"is_reserved":false,"is_disabled":false,"rental_uris":{"android":"levelo://app?vid=4caa22e2-d859-4a19-bd59-4b424ef0c350","ios":"levelo://app?vid=4caa22e2-d859-4a19-bd59-4b424ef0c350"},"vehicle_type_id":"4","last_reported":1769116381,"current_range_meters":8400,"station_id":"","pricing_plan_id":"cebpf4jnsgd1na2vs0mg"},{"bike_id":"f2413f15-e0b6-4f03-bb3a-1e94b23daeef","system_id":"levelo_inurba_marseille","lat":43.246601,"lon":5.381549,"is_reserved":false,"is_disabled":false,"rental_uris":{"android":"levelo://app?vid=f2413f15-e0b6-4f03-bb3a-1e94b23daeef","ios":"levelo://app?vid=f2413f15-e0b6-4f03-bb3a-1e94b23daeef"},"vehicle_type_id":"4","last_reported":1769116381,"current_range_meters":8400,"station_id":"ce4bhih2rcd13ifvqfr0","pricing_plan_id":"cebpf4jnsgd1na2vs0mg"},{"bike_id":"ba4dbbff-8d2b-4731-b2d8-2ba2461db1db","system_id":"levelo_inurba_marseille","lat":43.28855,"lon":5.4251,"is_reserved":false,"is_disabled":false,"rental_uris":{"android":"levelo://app?vid=ba4dbbff-8d2b-4731-b2d8-2ba2461db1db","ios":"levelo://app?vid=ba4dbbff-8d2b-4731-b2d8-2ba2461db1db"},"vehicle_type_id":"4","last_reported":1769116381,"current_range_meters":8400,"station_id":"st_d3b462108ojc7389ooeg","pricing_plan_id":"cebpf4jnsgd1na2vs0mg"},{"bike_id":"05d6e816-c599-4137-a30a-5127b06dbfc0","system_id":"levelo_inurba_marseille","lat":43.281542,"lon":5.426376,"is_reserved":false,"is_disabled":false,"rental_uris":{"android":"levelo://app?vid=05d6e816-c599-4137-a30a-5127b06dbfc0","ios":"levelo://app?vid=05d6e816-c599-4137-a30a-5127b06dbfc0"},"vehicle_type_id":"4","last_reported":1769116381,"current_range_meters":8400,"station_id":"ce4bhnh2rcd13ifvqgug","pricing_plan_id":"cebpf4jnsgd1na2vs0mg"},{"bike_id":"945b75a6-cb60-4db3-b411-8a275b15016e","system_id":"levelo_inurba_marseille","lat":43.25007,"lon":5.38926,"is_reserved":false,"is_disabled":false,"rental_uris":{"android":"levelo://app?vid=945b75a6-cb60-4db3-b411-8a275b15016e","ios":"levelo://app?vid=945b75a6-cb60-4db3-b411-8a275b15016e"},"vehicle_type_id":"4","last_reported":1769116381,"current_range_meters":8400,"station_id":"ce4bhgp2rcd13ifvqfd0","pricing_plan_id":"cebpf4jnsgd1na2vs0mg"},{"bike_id":"e06e3f65-305e-48b5-958e-74768ec937a6","system_id":"levelo_inurba_marseille","lat":43.300244,"lon":5.409376,"is_reserved":false,"is_disabled":false,"rental_uris":{"android":"levelo://app?vid=e06e3f65-305e-48b5-958e-74768ec937a6","ios":"levelo://app?vid=e06e3f65-305e-48b5-958e-74768ec937a6"},"vehicle_type_id":"4","last_reported":1769116381,"current_range_meters":8400,"station_id":"","pricing_plan_id":"cebpf4jnsgd1na2vs0mg"},{"bike_id":"11e3415c-5f3b-4ead-a1ad-e801ec8c2563","system_id":"levelo_inurba_marseille","lat":43.29254,"lon":5.37633,"is_reserved":false,"is_disabled":false,"rental_uris":{"android":"levelo://app?vid=11e3415c-5f3b-4ead-a1ad-e801ec8c2563","ios":"levelo://app?vid=11e3415c-5f3b-4ead-a1ad-e801ec8c2563"},"vehicle_type_id":"4","last_reported":1769116381,"current_range_meters":8400,"station_id":"ce4bgi12rcd13ifvqb80","pricing_plan_id":"cebpf4jnsgd1na2vs0mg"},{"bike_id":"5d1207ab-0e87-4310-afc2-9979e87deba0","system_id":"levelo_inurba_marseille","lat":43.28569,"lon":5.39497,"is_reserved":false,"is_disabled":false,"rental_uris":{"android":"levelo://app?vid=5d1207ab-0e87-4310-afc2-9979e87deba0","ios":"levelo://app?vid=5d1207ab-0e87-4310-afc2-9979e87deba0"},"vehicle_type_id":"4","last_reported":1769116381,"current_range_meters":8400,"station_id":"ce4bh292rcd13ifvqdg0","pricing_plan_id":"cebpf4jnsgd1na2vs0mg"},{"bike_id":"92295e8e-aa68-4e38-8fb7-fb93e0d44651","system_id":"levelo_inurba_marseille","lat":43.23196,"lon":5.35546,"is_reserved":false,"is_disabled":false,"rental_uris":{"android":"levelo://app?vid=92295e8e-aa68-4e38-8fb7-fb93e0d44651","ios":"levelo://app?vid=92295e8e-aa68-4e38-8fb7-fb93e0d44651"},"vehicle_type_id":"4","last_reported":1769116381,"current_range_meters":8400,"station_id":"ce4bhu92rcd13ifvqi70","pricing_plan_id":"cebpf4jnsgd1na2vs0mg"},{"bike_id":"f48205a8-2171-4595-be8e-e00694a26684","system_id":"levelo_inurba_marseille","lat":43.30893,"lon":5.39629,"is_reserved":false,"is_disabled":false,"rental_uris":{"android":"levelo://app?vid=f48205a8-2171-4595-be8e-e00694a26684","ios":"levelo://app?vid=f48205a8-2171-4595-be8e-e00694a26684"},"vehicle_type_id":"4","last_reported":1769116381,"current_range_meters":8400,"station_id":"ce4bh012rcd13ifvqcv0","pricing_plan_id":"cebpf4jnsgd1na2vs0mg"},{"bike_id":"13e94721-c518-4ff0-a255-455e8cb712ba","system_id":"levelo_inurba_marseille","lat":43.30091,"lon":5.39038,"is_reserved":false,"is_disabled":false,"rental_uris":{"android":"levelo://app?vid=13e94721-c518-4ff0-a255-455e8cb712ba","ios":"levelo://app?vid=13e94721-c518-4ff0-a255-455e8cb712ba"},"vehicle_type_id":"4","last_reported":1769116381,"current_range_meters":8400,"station_id":"ce4bh192rcd13ifvqdb0","pricing_plan_id":"cebpf4jnsgd1na2vs0mg"},{"bike_id":"5af97c13-50bf-480d-9ccf-e967f679b3a6","system_id":"levelo_inurba_marseille","lat":43.28395,"lon":5.37507,"is_reserved":false,"is_disabled":false,"rental_uris":{"android":"levelo://app?vid=5af97c13-50bf-480d-9ccf-e967f679b3a6","ios":"levelo://app?vid=5af97c13-50bf-480d-9ccf-e967f679b3a6"},"vehicle_type_id":"4","last_reported":1769116381,"current_range_meters":8400,"station_id":"ce4bh412rcd13ifvqds0","pricing_plan_id":"cebpf4jnsgd1na2vs0mg"},{"bike_id":"9f9c4f85-7d9e-4e8a-9123-cbd1f8de03db","system_id":"levelo_inurba_marseille","lat":43.31835,"lon":5.38975,"is_reserved":false,"is_disabled":false,"rental_uris":{"android":"levelo://app?vid=9f9c4f85-7d9e-4e8a-9123-cbd1f8de03db","ios":"levelo://app?vid=9f9c4f85-7d9e-4e8a-9123-cbd1f8de03db"},"vehicle_type_id":"4","last_reported":1769116381,"current_range_meters":8400,"station_id":"","pricing_plan_id":"cebpf4jnsgd1na2vs0mg"},{"bike_id":"c0aa94d7-4de2-48d3-9511-5346e0a25601","system_id":"levelo_inurba_marseille","lat":43.254963,"lon":5.37637,"is_reserved":false,"is_disabled":false,"rental_uris":{"android":"levelo://app?vid=c0aa94d7-4de2-48d3-9511-5346e0a25601","ios":"levelo://app?vid=c0aa94d7-4de2-48d3-9511-5346e0a25601"},"vehicle_type_id":"4","last_reported":1769116381,"current_range_meters":8400,"station_id":"ce4bhh12rcd13ifvqff0","pricing_plan_id":"cebpf4jnsgd1na2vs0mg"},{"bike_id":"70aa8391-3c8c-41ab-8c43-1b3661572c84","system_id":"levelo_inurba_marseille","lat":43.24675,"lon":5.38132,"is_reserved":false,"is_disabled":false,"rental_uris":{"android":"levelo://app?vid=70aa8391-3c8c-41ab-8c43-1b3661572c84","ios":"levelo://app?vid=70aa8391-3c8c-41ab-8c43-1b3661572c84"},"vehicle_type_id":"4","last_reported":1769116381,"current_range_meters":8400,"station_id":"ce4bhih2rcd13ifvqfr0","pricing_plan_id":"cebpf4jnsgd1na2vs0mg"},{"bike_id":"3ceb4388-6cc5-4ff4-b32c-76f5f4981409","system_id":"levelo_inurba_marseille","lat":43.23181,"lon":5.39973,"is_reserved":false,"is_disabled":false,"rental_uris":{"android":"levelo://app?vid=3ceb4388-6cc5-4ff4-b32c-76f5f4981409","ios":"levelo://app?vid=3ceb4388-6cc5-4ff4-b32c-76f5f4981409"},"vehicle_type_id":"4","last_reported":1769116381,"current_range_meters":8400,"station_id":"ce4bhn12rcd13ifvqgqg","pricing_plan_id":"cebpf4jnsgd1na2vs0mg"},{"bike_id":"dfd7598e-a0e7-4cbb-8bc0-69f51592cff8","system_id":"levelo_inurba_marseille","lat":43.29888,"lon":5.37631,"is_reserved":false,"is_disabled":false,"rental_uris":{"android":"levelo://app?vid=dfd7598e-a0e7-4cbb-8bc0-69f51592cff8","ios":"levelo://app?vid=dfd7598e-a0e7-4cbb-8bc0-69f51592cff8"},"vehicle_type_id":"4","last_reported":1769116381,"current_range_meters":8800,"station_id":"","pricing_plan_id":"cebpf4jnsgd1na2vs0mg"},{"bike_id":"a82b56a7-e276-4a28-871c-41edca205cf4","system_id":"levelo_inurba_marseille","lat":43.29876,"lon":5.38897,"is_reserved":false,"is_disabled":false,"rental_uris":{"android":"levelo://app?vid=a82b56a7-e276-4a28-871c-41edca205cf4","ios":"levelo://app?vid=a82b56a7-e276-4a28-871c-41edca205cf4"},"vehicle_type_id":"4","last_reported":1769116381,"current_range_meters":8800,"station_id":"ce4bh392rcd13ifvqdl0","pricing_plan_id":"cebpf4jnsgd1na2vs0mg"},{"bike_id":"0f8f6788-d5a9-4b2e-9581-49e936277d7c","system_id":"levelo_inurba_marseille","lat":43.25343,"lon":5.42171,"is_reserved":false,"is_disabled":false,"rental_uris":{"android":"levelo://app?vid=0f8f6788-d5a9-4b2e-9581-49e936277d7c","ios":"levelo://app?vid=0f8f6788-d5a9-4b2e-9581-49e936277d7c"},"vehicle_type_id":"4","last_reported":1769116381,"current_range_meters":8800,"station_id":"st_d2m65c5bi1j21697t3ng","pricing_plan_id":"cebpf4jnsgd1na2vs0mg"},{"bike_id":"d2dd2bd5-35c6-4cf8-86dc-87c4bf274249","system_id":"levelo_inurba_marseille","lat":43.24644,"lon":5.38885,"is_reserved":false,"is_disabled":false,"rental_uris":{"android":"levelo://app?vid=d2dd2bd5-35c6-4cf8-86dc-87c4bf274249","ios":"levelo://app?vid=d2dd2bd5-35c6-4cf8-86dc-87c4bf274249"},"vehicle_type_id":"4","last_reported":1769116381,"current_range_meters":8800,"station_id":"ce4bhg12rcd13ifvqf60","pricing_plan_id":"cebpf4jnsgd1na2vs0mg"},{"bike_id":"ac38a438-4179-4ac1-8c09-396dc592af6b","system_id":"levelo_inurba_marseille","lat":43.23171,"lon":5.40022,"is_reserved":false,"is_disabled":false,"rental_uris":{"android":"levelo://app?vid=ac38a438-4179-4ac1-8c09-396dc592af6b","ios":"levelo://app?vid=ac38a438-4179-4ac1-8c09-396dc592af6b"},"vehicle_type_id":"4","last_reported":1769116381,"current_range_meters":8800,"station_id":"ce4bhn12rcd13ifvqgqg","pricing_plan_id":"cebpf4jnsgd1na2vs0mg"},{"bike_id":"b57df7ad-97cd-44b3-a204-ea83c250292c","system_id":"levelo_inurba_marseille","lat":43.23196,"lon":5.3555,"is_reserved":false,"is_disabled":false,"rental_uris":{"android":"levelo://app?vid=b57df7ad-97cd-44b3-a204-ea83c250292c","ios":"levelo://app?vid=b57df7ad-97cd-44b3-a204-ea83c250292c"},"vehicle_type_id":"4","last_reported":1769116381,"current_range_meters":8800,"station_id":"ce4bhu92rcd13ifvqi70","pricing_plan_id":"cebpf4jnsgd1na2vs0mg"},{"bike_id":"45babb45-93f7-4f3b-b6b9-60f993fef36c","system_id":"levelo_inurba_marseille","lat":43.32371,"lon":5.36768,"is_reserved":false,"is_disabled":false,"rental_uris":{"android":"levelo://app?vid=45babb45-93f7-4f3b-b6b9-60f993fef36c","ios":"levelo://app?vid=45babb45-93f7-4f3b-b6b9-60f993fef36c"},"vehicle_type_id":"4","last_reported":1769116381,"current_range_meters":8800,"station_id":"ce4bhsh2rcd13ifvqi2g","pricing_plan_id":"cebpf4jnsgd1na2vs0mg"},{"bike_id":"0a88c2b5-0d9d-4754-b851-e0b601e52480","system_id":"levelo_inurba_marseille","lat":43.28487,"lon":5.3841,"is_reserved":false,"is_disabled":false,"rental_uris":{"android":"levelo://app?vid=0a88c2b5-0d9d-4754-b851-e0b601e52480","ios":"levelo://app?vid=0a88c2b5-0d9d-4754-b851-e0b601e52480"},"vehicle_type_id":"4","last_reported":1769116381,"current_range_meters":8800,"station_id":"ce4bh512rcd13ifvqe3g","pricing_plan_id":"cebpf4jnsgd1na2vs0mg"},{"bike_id":"dc86df38-ab18-4f35-a55f-c999e0b04597","system_id":"levelo_inurba_marseille","lat":43.29265,"lon":5.38447,"is_reserved":false,"is_disabled":false,"rental_uris":{"android":"levelo://app?vid=dc86df38-ab18-4f35-a55f-c999e0b04597","ios":"levelo://app?vid=dc86df38-ab18-4f35-a55f-c999e0b04597"},"vehicle_type_id":"4","last_reported":1769116381,"current_range_meters":8800,"station_id":"ce4bh692rcd13ifvqea0","pricing_plan_id":"cebpf4jnsgd1na2vs0mg"},{"bike_id":"5560fc7f-1e40-4887-b56f-d8792953a489","system_id":"levelo_inurba_marseille","lat":43.2417,"lon":5.36381,"is_reserved":false,"is_disabled":false,"rental_uris":{"android":"levelo://app?vid=5560fc7f-1e40-4887-b56f-d8792953a489","ios":"levelo://app?vid=5560fc7f-1e40-4887-b56f-d8792953a489"},"vehicle_type_id":"4","last_reported":1769116381,"current_range_meters":8800,"station_id":"cpo36qri1sfpv3e86is0","pricing_plan_id":"cebpf4jnsgd1na2vs0mg"},{"bike_id":"24b92ae7-5464-4b77-b1a2-3b457617dd02","system_id":"levelo_inurba_marseille","lat":43.23143,"lon":5.43709,"is_reserved":false,"is_disabled":false,"rental_uris":{"android":"levelo://app?vid=24b92ae7-5464-4b77-b1a2-3b457617dd02","ios":"levelo://app?vid=24b92ae7-5464-4b77-b1a2-3b457617dd02"},"vehicle_type_id":"4","last_reported":1769116381,"current_range_meters":8800,"station_id":"ce4bhmp2rcd13ifvqgog","pricing_plan_id":"cebpf4jnsgd1na2vs0mg"},{"bike_id":"e34f4239-baba-4e6a-84ef-f4dae6ae359b","system_id":"levelo_inurba_marseille","lat":43.29538,"lon":5.39051,"is_reserved":false,"is_disabled":false,"rental_uris":{"android":"levelo://app?vid=e34f4239-baba-4e6a-84ef-f4dae6ae359b","ios":"levelo://app?vid=e34f4239-baba-4e6a-84ef-f4dae6ae359b"},"vehicle_type_id":"4","last_reported":1769116381,"current_range_meters":8800,"station_id":"ce4bh3p2rcd13ifvqdp0","pricing_plan_id":"cebpf4jnsgd1na2vs0mg"},{"bike_id":"16590669-22b9-475f-acf3-c7e2ee0e80fd","system_id":"levelo_inurba_marseille","lat":43.25013,"lon":5.38922,"is_reserved":false,"is_disabled":false,"rental_uris":{"android":"levelo://app?vid=16590669-22b9-475f-acf3-c7e2ee0e80fd","ios":"levelo://app?vid=16590669-22b9-475f-acf3-c7e2ee0e80fd"},"vehicle_type_id":"4","last_reported":1769116381,"current_range_meters":8800,"station_id":"ce4bhgp2rcd13ifvqfd0","pricing_plan_id":"cebpf4jnsgd1na2vs0mg"},{"bike_id":"f8232e93-d68a-43c9-9f2f-a35d2a45af2c","system_id":"levelo_inurba_marseille","lat":43.27236,"lon":5.39974,"is_reserved":false,"is_disabled":false,"rental_uris":{"android":"levelo://app?vid=f8232e93-d68a-43c9-9f2f-a35d2a45af2c","ios":"levelo://app?vid=f8232e93-d68a-43c9-9f2f-a35d2a45af2c"},"vehicle_type_id":"4","last_reported":1769116381,"current_range_meters":9200,"station_id":"","pricing_plan_id":"cebpf4jnsgd1na2vs0mg"},{"bike_id":"26bd6ab6-4b40-4c45-b7dc-920d50072930","system_id":"levelo_inurba_marseille","lat":43.28433,"lon":5.392,"is_reserved":false,"is_disabled":false,"rental_uris":{"android":"levelo://app?vid=26bd6ab6-4b40-4c45-b7dc-920d50072930","ios":"levelo://app?vid=26bd6ab6-4b40-4c45-b7dc-920d50072930"},"vehicle_type_id":"4","last_reported":1769116381,"current_range_meters":9200,"station_id":"ce4bhoh2rcd13ifvqh5g","pricing_plan_id":"cebpf4jnsgd1na2vs0mg"},{"bike_id":"5ed4e9d2-631e-4b69-8907-913cd14f0cf9","system_id":"levelo_inurba_marseille","lat":43.25826,"lon":5.39451,"is_reserved":false,"is_disabled":false,"rental_uris":{"android":"levelo://app?vid=5ed4e9d2-631e-4b69-8907-913cd14f0cf9","ios":"levelo://app?vid=5ed4e9d2-631e-4b69-8907-913cd14f0cf9"},"vehicle_type_id":"4","last_reported":1769116381,"current_range_meters":9200,"station_id":"ce4bhip2rcd13ifvqft0","pricing_plan_id":"cebpf4jnsgd1na2vs0mg"},{"bike_id":"c7f92e70-4d41-44dd-811f-917546dd060e","system_id":"levelo_inurba_marseille","lat":43.30543,"lon":5.36717,"is_reserved":false,"is_disabled":false,"rental_uris":{"android":"levelo://app?vid=c7f92e70-4d41-44dd-811f-917546dd060e","ios":"levelo://app?vid=c7f92e70-4d41-44dd-811f-917546dd060e"},"vehicle_type_id":"4","last_reported":1769116381,"current_range_meters":9200,"station_id":"ce4bgrp2rcd13ifvqc9g","pricing_plan_id":"cebpf4jnsgd1na2vs0mg"},{"bike_id":"9b45898e-68f4-47fa-9e2a-d93357bd073d","system_id":"levelo_inurba_marseille","lat":43.24813,"lon":5.37457,"is_reserved":false,"is_disabled":false,"rental_uris":{"android":"levelo://app?vid=9b45898e-68f4-47fa-9e2a-d93357bd073d","ios":"levelo://app?vid=9b45898e-68f4-47fa-9e2a-d93357bd073d"},"vehicle_type_id":"4","last_reported":1769116381,"current_range_meters":9200,"station_id":"ce4bhgh2rcd13ifvqfb0","pricing_plan_id":"cebpf4jnsgd1na2vs0mg"},{"bike_id":"b773bbbb-d72b-4b38-92a3-28fca628ed6c","system_id":"levelo_inurba_marseille","lat":43.22934,"lon":5.3537,"is_reserved":false,"is_disabled":false,"rental_uris":{"android":"levelo://app?vid=b773bbbb-d72b-4b38-92a3-28fca628ed6c","ios":"levelo://app?vid=b773bbbb-d72b-4b38-92a3-28fca628ed6c"},"vehicle_type_id":"4","last_reported":1769116381,"current_range_meters":9200,"station_id":"cpo3532slgdg3j2ikp40","pricing_plan_id":"cebpf4jnsgd1na2vs0mg"},{"bike_id":"6a7e8b47-1abf-4350-a831-a2c7f0807730","system_id":"levelo_inurba_marseille","lat":43.28615,"lon":5.35101,"is_reserved":false,"is_disabled":false,"rental_uris":{"android":"levelo://app?vid=6a7e8b47-1abf-4350-a831-a2c7f0807730","ios":"levelo://app?vid=6a7e8b47-1abf-4350-a831-a2c7f0807730"},"vehicle_type_id":"4","last_reported":1769116381,"current_range_meters":9200,"station_id":"ce4bhch2rcd13ifvqeug","pricing_plan_id":"cebpf4jnsgd1na2vs0mg"},{"bike_id":"57016dd5-e14f-4361-af26-04d61b953e77","system_id":"levelo_inurba_marseille","lat":43.29534,"lon":5.39048,"is_reserved":false,"is_disabled":false,"rental_uris":{"android":"levelo://app?vid=57016dd5-e14f-4361-af26-04d61b953e77","ios":"levelo://app?vid=57016dd5-e14f-4361-af26-04d61b953e77"},"vehicle_type_id":"4","last_reported":1769116381,"current_range_meters":9200,"station_id":"ce4bh3p2rcd13ifvqdp0","pricing_plan_id":"cebpf4jnsgd1na2vs0mg"},