{"last_updated":1769937613,"ttl":60,"version":"2.2","data":{"bikes":[{"bike_id":"667f7189-0ff0-4468-a821-96f30d95245d","system_id":"levelo_inurba_marseille","lat":43.29901,"lon":5.43681,"is_reserved":false,"is_disabled":false,"rental_uris":{"android":"levelo://app?vid=667f7189-0ff0-4468-a821-96f30d95245d","ios":"levelo://app?vid=667f7189-0ff0-4468-a821-96f30d95245d"},"vehicle_type_id":"4","last_reported":1769937613,"current_range_meters":2800,"station_id":"ce4bhpp2rcd13ifvqhfg","pricing_plan_id":"cebpf4jnsgd1na2vs0mg"},{"bike_id":"f99c0e56-a861-4817-a5cc-7aa9138a394f","system_id":"levelo_inurba_marseille","lat":43.27062,"lon":5.38294,"is_reserved":false,"is_disabled":false,"rental_uris":{"android":"levelo://app?vid=f99c0e56-a861-4817-a5cc-7aa9138a394f","ios":"levelo://app?vid=f99c0e56-a861-4817-a5cc-7aa9138a394f"},"vehicle_type_id":"4","last_reported":1769937613,"current_range_meters":2800,"station_id":"st_d3n2fo6cfp8s73cte1j0","pricing_plan_id":"cebpf4jnsgd1na2vs0mg"},{"bike_id":"cd0a500f-4a41-4a8c-a0cd-79a4e015ddcf","system_id":"levelo_inurba_marseille","lat":43.29253,"lon":5.40901,"is_reserved":false,"is_disabled":false,"rental_uris":{"android":"levelo://app?vid=cd0a500f-4a41-4a8c-a0cd-79a4e015ddcf","ios":"levelo://app?vid=cd0a500f-4a41-4a8c-a0cd-79a4e015ddcf"},"vehicle_type_id":"4","last_reported":1769937613,"current_range_meters":2800,"station_id":"ce4bh192rcd13ifvqdc0","pricing_plan_id":"cebpf4jnsgd1na2vs0mg"},{"bike_id":"880586ef-6fbd-48f3-a326-6ebac57e39cd","system_id":"levelo_inurba_marseille","lat":43.25513,"lon":5.37653,"is_reserved":false,"is_disabled":false,"rental_uris":{"android":"levelo://app?vid=880586ef-6fbd-48f3-a326-6ebac57e39cd","ios":"levelo://app?vid=880586ef-6fbd-48f3-a326-6ebac57e39cd"},"vehicle_type_id":"4","last_reported":1769937613,"current_range_meters":2800,"station_id":"ce4bhh12rcd13ifvqff0","pricing_plan_id":"cebpf4jnsgd1na2vs0mg"},{"bike_id":"a633dcb8-69cc-416a-ac75-271c195c29ed","system_id":"levelo_inurba_marseille","lat":43.25544,"lon":5.3764,"is_reserved":false,"is_disabled":false,"rental_uris":{"android":"levelo://app?vid=a633dcb8-69cc-416a-ac75-271c195c29ed","ios":"levelo://app?vid=a633dcb8-69cc-416a-ac75-271c195c29ed"},"vehicle_type_id":"4","last_reported":1769937613,"current_range_meters":2800,"station_id":"ce4bhh12rcd13ifvqff0","pricing_plan_id":"cebpf4jnsgd1na2vs0mg"},{"bike_id":"4561b101-df9b-4a07-8c08-785ae7c91c29","system_id":"levelo_inurba_marseille","lat":43.30016,"lon":5.38417,"is_reserved":false,"is_disabled":false,"rental_uris":{"android":"levelo://app?vid=4561b101-df9b-4a07-8c08-785ae7c91c29","ios":"levelo://app?vid=4561b101-df9b-4a07-8c08-785ae7c91c29"},"vehicle_type_id":"4","last_reported":1769937613,"current_range_meters":2800,"station_id":"","pricing_plan_id":"cebpf4jnsgd1na2vs0mg"},{"bike_id":"a10fd5ac-f488-49bb-9865-a9b9fcb4d879","system_id":"levelo_inurba_marseille","lat":43.32386,"lon":5.37438,"is_reserved":false,"is_disabled":false,"rental_uris":{"android":"levelo://app?vid=a10fd5ac-f488-49bb-9865-a9b9fcb4d879","ios":"levelo://app?vid=a10fd5ac-f488-49bb-9865-a9b9fcb4d879"},"vehicle_type_id":"4","last_reported":1769937613,"current_range_meters":3200,"station_id":"","pricing_plan_id":"cebpf4jnsgd1na2vs0mg"},{"bike_id":"f955b312-f85f-4776-bb87-c1f9bceb8274","system_id":"levelo_inurba_marseille","lat":43.22557,"lon":5.4164,"is_reserved":false,"is_disabled":false,"rental_uris":{"android":"levelo://app?vid=f955b312-f85f-4776-bb87-c1f9bceb8274","ios":"levelo://app?vid=f955b312-f85f-4776-bb87-c1f9bceb8274"},"vehicle_type_id":"4","last_reported":1769937613,"current_range_meters":3200,"station_id":"st_d2o4gvlbi1j2169b742g","pricing_plan_id":"cebpf4jnsgd1na2vs0mg"},{"bike_id":"7cf2279d-37fb-4eea-9fcd-fa006a6f498b","system_id":"levelo_inurba_marseille","lat":43.27366,"lon":5.36257,"is_reserved":false,"is_disabled":false,"rental_uris":{"android":"levelo://app?vid=7cf2279d-37fb-4eea-9fcd-fa006a6f498b","ios":"levelo://app?vid=7cf2279d-37fb-4eea-9fcd-fa006a6f498b"},"vehicle_type_id":"4","last_reported":1769937613,"current_range_meters":3200,"station_id":"ce4bhbh2rcd13ifvqeo0","pricing_plan_id":"cebpf4jnsgd1na2vs0mg"},{"bike_id":"db89fefb-6011-4017-8d46-077ffa4c12c9","system_id":"levelo_inurba_marseille","lat":43.29665,"lon":5.36608,"is_reserved":false,"is_disabled":false,"rental_uris":{"android":"levelo://app?vid=db89fefb-6011-4017-8d46-077ffa4c12c9","ios":"levelo://app?vid=db89fefb-6011-4017-8d46-077ffa4c12c9"},"vehicle_type_id":"4","last_reported":1769937613,"current_range_meters":3200,"station_id":"ce4bgn12rcd13ifvqbt0","pricing_plan_id":"cebpf4jnsgd1na2vs0mg"},{"bike_id":"1adbbfc3-50de-4f6d-8fd3-70470a85d8ae","system_id":"levelo_inurba_marseille","lat":43.27943,"lon":5.41042,"is_reserved":false,"is_disabled":false,"rental_uris":{"android":"levelo://app?vid=1adbbfc3-50de-4f6d-8fd3-70470a85d8ae","ios":"levelo://app?vid=1adbbfc3-50de-4f6d-8fd3-70470a85d8ae"},"vehicle_type_id":"4","last_reported":1769937613,"current_range_meters":3200,"station_id":"ce4bhnp2rcd13ifvqh0g","pricing_plan_id":"cebpf4jnsgd1na2vs0mg"},{"bike_id":"1ffbab79-d371-4c31-bc02-2a8eac2538a6","system_id":"levelo_inurba_marseille","lat":43.27174,"lon":5.40995,"is_reserved":false,"is_disabled":false,"rental_uris":{"android":"levelo://app?vid=1ffbab79-d371-4c31-bc02-2a8eac2538a6","ios":"levelo://app?vid=1ffbab79-d371-4c31-bc02-2a8eac2538a6"},"vehicle_type_id":"4","last_reported":1769937613,"current_range_meters":3200,"station_id":"ce4bhl12rcd13ifvqgf0","pricing_plan_id":"cebpf4jnsgd1na2vs0mg"},{"bike_id":"e063da5b-4820-4962-b1c8-99eec874281e","system_id":"levelo_inurba_marseille","lat":43.23199,"lon":5.39982,"is_reserved":false,"is_disabled":true,"rental_uris":{"android":"levelo://app?vid=e063da5b-4820-4962-b1c8-99eec874281e","ios":"levelo://app?vid=e063da5b-4820-4962-b1c8-99eec874281e"},"vehicle_type_id":"4","last_reported":1769937613,"current_range_meters":3600,"station_id":"ce4bhn12rcd13ifvqgqg","pricing_plan_id":"cebpf4jnsgd1na2vs0mg"},{"bike_id":"1b187523-973b-43bd-a56f-a5d6c41d569b","system_id":"levelo_inurba_marseille","lat":43.2982,"lon":5.44063,"is_reserved":false,"is_disabled":false,"rental_uris":{"android":"levelo://app?vid=1b187523-973b-43bd-a56f-a5d6c41d569b","ios":"levelo://app?vid=1b187523-973b-43bd-a56f-a5d6c41d569b"},"vehicle_type_id":"4","last_reported":1769937613,"current_range_meters":3600,"station_id":"st_d3jp68qikq2c7381ktn0","pricing_plan_id":"cebpf4jnsgd1na2vs0mg"},{"bike_id":"e62bf17d-777c-405e-87cc-f81784440870","system_id":"levelo_inurba_marseille","lat":43.25323,"lon":5.42204,"is_reserved":false,"is_disabled":false,"rental_uris":{"android":"levelo://app?vid=e62bf17d-777c-405e-87cc-f81784440870","ios":"levelo://app?vid=e62bf17d-777c-405e-87cc-f81784440870"},"vehicle_type_id":"4","last_reported":1769937613,"current_range_meters":3600,"station_id":"st_d2m65c5bi1j21697t3ng","pricing_plan_id":"cebpf4jnsgd1na2vs0mg"},{"bike_id":"7c6316c3-adfe-4f40-b002-3c5fb60962df","system_id":"levelo_inurba_marseille","lat":43.23154,"lon":5.43703,"is_reserved":false,"is_disabled":false,"rental_uris":{"android":"levelo://app?vid=7c6316c3-adfe-4f40-b002-3c5fb60962df","ios":"levelo://app?vid=7c6316c3-adfe-4f40-b002-3c5fb60962df"},"vehicle_type_id":"4","last_reported":1769937613,"current_range_meters":3600,"station_id":"ce4bhmp2rcd13ifvqgog","pricing_plan_id":"cebpf4jnsgd1na2vs0mg"},{"bike_id":"f4d6efa2-00bd-44bb-b3f9-95bebe7bedd2","system_id":"levelo_inurba_marseille","lat":43.3021,"lon":5.3793,"is_reserved":false,"is_disabled":false,"rental_uris":{"android":"levelo://app?vid=f4d6efa2-00bd-44bb-b3f9-95bebe7bedd2","ios":"levelo://app?vid=f4d6efa2-00bd-44bb-b3f9-95bebe7bedd2"},"vehicle_type_id":"4","last_reported":1769937613,"current_range_meters":3600,"station_id":"","pricing_plan_id":"cebpf4jnsgd1na2vs0mg"},{"bike_id":"d8d7d7c6-6bfe-4fb0-85f9-b02b994f2a2a","system_id":"levelo_inurba_marseille","lat":43.2922,"lon":5.3605,"is_reserved":false,"is_disabled":true,"rental_uris":{"android":"levelo://app?vid=d8d7d7c6-6bfe-4fb0-85f9-b02b994f2a2a","ios":"levelo://app?vid=d8d7d7c6-6bfe-4fb0-85f9-b02b994f2a2a"},"vehicle_type_id":"4","last_reported":1769937613,"current_range_meters":4000,"station_id":"ce4bhbh2rcd13ifvqeqg","pricing_plan_id":"cebpf4jnsgd1na2vs0mg"},{"bike_id":"cb8754db-0f06-4415-bd43-a4ea287a2fdc","system_id":"levelo_inurba_marseille","lat":43.292725,"lon":5.384529,"is_reserved":false,"is_disabled":false,"rental_uris":{"android":"levelo://app?vid=cb8754db-0f06-4415-bd43-a4ea287a2fdc","ios":"levelo://app?vid=cb8754db-0f06-4415-bd43-a4ea287a2fdc"},"vehicle_type_id":"4","last_reported":1769937613,"current_range_meters":4000,"station_id":"ce4bh692rcd13ifvqea0","pricing_plan_id":"cebpf4jnsgd1na2vs0mg"},{"bike_id":"055d8d39-c891-472e-8a0d-a9ee39d8b8c7","system_id":"levelo_inurba_marseille","lat":43.331544,"lon":5.376858,"is_reserved":false,"is_disabled":true,"rental_uris":{"android":"levelo://app?vid=055d8d39-c891-472e-8a0d-a9ee39d8b8c7","ios":"levelo://app?vid=055d8d39-c891-472e-8a0d-a9ee39d8b8c7"},"vehicle_type_id":"4","last_reported":1769937613,"current_range_meters":4000,"station_id":"st_d46cu089ee8s73dldbu0","pricing_plan_id":"cebpf4jnsgd1na2vs0mg"},{"bike_id":"6259a571-4c97-41bc-9e30-1f15710670c6","system_id":"levelo_inurba_marseille","lat":43.24685,"lon":5.40105,"is_reserved":false,"is_disabled":false,"rental_uris":{"android":"levelo://app?vid=6259a571-4c97-41bc-9e30-1f15710670c6","ios":"levelo://app?vid=6259a571-4c97-41bc-9e30-1f15710670c6"},"vehicle_type_id":"4","last_reported":1769937613,"current_range_meters":4000,"station_id":"","pricing_plan_id":"cebpf4jnsgd1na2vs0mg"},{"bike_id":"abdf906c-1d02-4d03-a8b9-85b3b5a13392","system_id":"levelo_inurba_marseille","lat":43.31517,"lon":5.37271,"is_reserved":false,"is_disabled":false,"rental_uris":{"android":"levelo://app?vid=abdf906c-1d02-4d03-a8b9-85b3b5a13392","ios":"levelo://app?vid=abdf906c-1d02-4d03-a8b9-85b3b5a13392"},"vehicle_type_id":"4","last_reported":1769937613,"current_range_meters":4000,"station_id":"","pricing_plan_id":"cebpf4jnsgd1na2vs0mg"},{"bike_id":"a891a3e9-1684-45b3-a1bd-6420fb24c00f","system_id":"levelo_inurba_marseille","lat":43.29229,"lon":5.36073,"is_reserved":false,"is_disabled":false,"rental_uris":{"android":"levelo://app?vid=a891a3e9-1684-45b3-a1bd-6420fb24c00f","ios":"levelo://app?vid=a891a3e9-1684-45b3-a1bd-6420fb24c00f"},"vehicle_type_id":"4","last_reported":1769937613,"current_range_meters":4000,"station_id":"ce4bhbh2rcd13ifvqeqg","pricing_plan_id":"cebpf4jnsgd1na2vs0mg"},{"bike_id":"e0a954d6-819c-4021-8d0c-f1ef581b8ddb","system_id":"levelo_inurba_marseille","lat":43.29235,"lon":5.38425,"is_reserved":false,"is_disabled":true,"rental_uris":{"android":"levelo://app?vid=e0a954d6-819c-4021-8d0c-f1ef581b8ddb","ios":"levelo://app?vid=e0a954d6-819c-4021-8d0c-f1ef581b8ddb"},"vehicle_type_id":"4","last_reported":1769937613,"current_range_meters":4000,"station_id":"ce4bh692rcd13ifvqea0","pricing_plan_id":"cebpf4jnsgd1na2vs0mg"},{"bike_id":"126f0f08-61cc-4a91-b5e4-336294f6c642","system_id":"levelo_inurba_marseille","lat":43.28407,"lon":5.35003,"is_reserved":false,"is_disabled":false,"rental_uris":{"android":"levelo://app?vid=126f0f08-61cc-4a91-b5e4-336294f6c642","ios":"levelo://app?vid=126f0f08-61cc-4a91-b5e4-336294f6c642"},"vehicle_type_id":"4","last_reported":1769937613,"current_range_meters":4000,"station_id":"ce4bhbh2rcd13ifvqepg","pricing_plan_id":"cebpf4jnsgd1na2vs0mg"},{"bike_id":"3c07e8db-1d64-4b7a-879d-8b774c3d7e0c","system_id":"levelo_inurba_marseille","lat":43.27378,"lon":5.36263,"is_reserved":false,"is_disabled":false,"rental_uris":{"android":"levelo://app?vid=3c07e8db-1d64-4b7a-879d-8b774c3d7e0c","ios":"levelo://app?vid=3c07e8db-1d64-4b7a-879d-8b774c3d7e0c"},"vehicle_type_id":"4","last_reported":1769937613,"current_range_meters":4400,"station_id":"ce4bhbh2rcd13ifvqeo0","pricing_plan_id":"cebpf4jnsgd1na2vs0mg"},{"bike_id":"a591b198-ffd8-42c1-96f8-07f7188eff82","system_id":"levelo_inurba_marseille","lat":43.2556,"lon":5.38242,"is_reserved":false,"is_disabled":false,"rental_uris":{"android":"levelo://app?vid=a591b198-ffd8-42c1-96f8-07f7188eff82","ios":"levelo://app?vid=a591b198-ffd8-42c1-96f8-07f7188eff82"},"vehicle_type_id":"4","last_reported":1769937613,"current_range_meters":4800,"station_id":"ce4bhih2rcd13ifvqfs0","pricing_plan_id":"cebpf4jnsgd1na2vs0mg"},{"bike_id":"51487434-2c5b-44ec-b6f1-b2d802fd5baf","system_id":"levelo_inurba_marseille","lat":43.295842,"lon":5.367472,"is_reserved":false,"is_disabled":false,"rental_uris":{"android":"levelo://app?vid=51487434-2c5b-44ec-b6f1-b2d802fd5baf","ios":"levelo://app?vid=51487434-2c5b-44ec-b6f1-b2d802fd5baf"},"vehicle_type_id":"4","last_reported":1769937613,"current_range_meters":4800,"station_id":"ce4bgph2rcd13ifvqc2g","pricing_plan_id":"cebpf4jnsgd1na2vs0mg"},{"bike_id":"318133aa-3b05-4452-b847-cf5a32021652","system_id":"levelo_inurba_marseille","lat":43.25088,"lon":5.39524,"is_reserved":false,"is_disabled":false,"rental_uris":{"android":"levelo://app?vid=318133aa-3b05-4452-b847-cf5a32021652","ios":"levelo://app?vid=318133aa-3b05-4452-b847-cf5a32021652"},"vehicle_type_id":"4","last_reported":1769937613,"current_range_meters":4800,"station_id":"ce4bhm12rcd13ifvqgkg","pricing_plan_id":"cebpf4jnsgd1na2vs0mg"},{"bike_id":"bd0b3557-9fd7-4e9c-b122-eda4f40b316d","system_id":"levelo_inurba_marseille","lat":43.248111,"lon":5.374548,"is_reserved":false,"is_disabled":false,"rental_uris":{"android":"levelo://app?vid=bd0b3557-9fd7-4e9c-b122-eda4f40b316d","ios":"levelo://app?vid=bd0b3557-9fd7-4e9c-b122-eda4f40b316d"},"vehicle_type_id":"4","last_reported":1769937613,"current_range_meters":5600,"station_id":"ce4bhgh2rcd13ifvqfb0","pricing_plan_id":"cebpf4jnsgd1na2vs0mg"},{"bike_id":"9b0b72ce-8292-47cd-b165-f4a28fe1cfff","system_id":"levelo_inurba_marseille","lat":43.28496,"lon":5.38525,"is_reserved":false,"is_disabled":true,"rental_uris":{"android":"levelo://app?vid=9b0b72ce-8292-47cd-b165-f4a28fe1cfff","ios":"levelo://app?vid=9b0b72ce-8292-47cd-b165-f4a28fe1cfff"},"vehicle_type_id":"4","last_reported":1769937613,"current_range_meters":5600,"station_id":"ce4bh512rcd13ifvqe3g","pricing_plan_id":"cebpf4jnsgd1na2vs0mg"},{"bike_id":"e6219b3f-4a46-45f5-a259-299d165290b0","system_id":"levelo_inurba_marseille","lat":43.26731,"lon":5.39494,"is_reserved":false,"is_disabled":false,"rental_uris":{"android":"levelo://app?vid=e6219b3f-4a46-45f5-a259-299d165290b0","ios":"levelo://app?vid=e6219b3f-4a46-45f5-a259-299d165290b0"},"vehicle_type_id":"4","last_reported":1769937613,"current_range_meters":5600,"station_id":"ce4bhh12rcd13ifvqfg0","pricing_plan_id":"cebpf4jnsgd1na2vs0mg"},{"bike_id":"55269124-210c-4720-a685-887b130d9dbe","system_id":"levelo_inurba_marseille","lat":43.2315,"lon":5.43713,"is_reserved":false,"is_disabled":false,"rental_uris":{"android":"levelo://app?vid=55269124-210c-4720-a685-887b130d9dbe","ios":"levelo://app?vid=55269124-210c-4720-a685-887b130d9dbe"},"vehicle_type_id":"4","last_reported":1769937613,"current_range_meters":5600,"station_id":"ce4bhmp2rcd13ifvqgog","pricing_plan_id":"cebpf4jnsgd1na2vs0mg"},{"bike_id":"a4c4467a-de4f-4b56-8893-ebacb492a7a6","system_id":"levelo_inurba_marseille","lat":43.25337,"lon":5.42169,"is_reserved":false,"is_disabled":false,"rental_uris":{"android":"levelo://app?vid=a4c4467a-de4f-4b56-8893-ebacb492a7a6","ios":"levelo://app?vid=a4c4467a-de4f-4b56-8893-ebacb492a7a6"},"vehicle_type_id":"4","last_reported":1769937613,"current_range_meters":5600,"station_id":"st_d2m65c5bi1j21697t3ng","pricing_plan_id":"cebpf4jnsgd1na2vs0mg"},{"bike_id":"9a51c59d-9df1-4272-bf8a-962f7f317a04","system_id":"levelo_inurba_marseille","lat":43.25505,"lon":5.3764,"is_reserved":false,"is_disabled":false,"rental_uris":{"android":"levelo://app?vid=9a51c59d-9df1-4272-bf8a-962f7f317a04","ios":"levelo://app?vid=9a51c59d-9df1-4272-bf8a-962f7f317a04"},"vehicle_type_id":"4","last_reported":1769937613,"current_range_meters":5600,"station_id":"ce4bhh12rcd13ifvqff0","pricing_plan_id":"cebpf4jnsgd1na2vs0mg"},{"bike_id":"cbd2b069-d3d5-4340-9dd6-17dbd63057c5","system_id":"levelo_inurba_marseille","lat":43.29597,"lon":5.39586,"is_reserved":false,"is_disabled":false,"rental_uris":{"android":"levelo://app?vid=cbd2b069-d3d5-4340-9dd6-17dbd63057c5","ios":"levelo://app?vid=cbd2b069-d3d5-4340-9dd6-17dbd63057c5"},"vehicle_type_id":"4","last_reported":1769937613,"current_range_meters":5600,"station_id":"","pricing_plan_id":"cebpf4jnsgd1na2vs0mg"},{"bike_id":"04da1df6-4b42-4515-bc71-2524c0008b6a","system_id":"levelo_inurba_marseille","lat":43.27465,"lon":5.4359,"is_reserved":false,"is_disabled":false,"rental_uris":{"android":"levelo://app?vid=04da1df6-4b42-4515-bc71-2524c0008b6a","ios":"levelo://app?vid=04da1df6-4b42-4515-bc71-2524c0008b6a"},"vehicle_type_id":"4","last_reported":1769937613,"current_range_meters":6000,"station_id":"","pricing_plan_id":"cebpf4jnsgd1na2vs0mg"},{"bike_id":"e17fafcf-c85c-46cd-aeba-830af14a1980","system_id":"levelo_inurba_marseille","lat":43.27556,"lon":5.38444,"is_reserved":false,"is_disabled":false,"rental_uris":{"android":"levelo://app?vid=e17fafcf-c85c-46cd-aeba-830af14a1980","ios":"levelo://app?vid=e17fafcf-c85c-46cd-aeba-830af14a1980"},"vehicle_type_id":"4","last_reported":1769937613,"current_range_meters":6000,"station_id":"ce4bhh92rcd13ifvqfi0","pricing_plan_id":"cebpf4jnsgd1na2vs0mg"},{"bike_id":"18fac332-3f37-4402-a2c5-fd894778b438","system_id":"levelo_inurba_marseille","lat":43.30152,"lon":5.38086,"is_reserved":false,"is_disabled":false,"rental_uris":{"android":"levelo://app?vid=18fac332-3f37-4402-a2c5-fd894778b438","ios":"levelo://app?vid=18fac332-3f37-4402-a2c5-fd894778b438"},"vehicle_type_id":"4","last_reported":1769937613,"current_range_meters":6000,"station_id":"ce4bgjp2rcd13ifvqbh0","pricing_plan_id":"cebpf4jnsgd1na2vs0mg"},{"bike_id":"e385d1cd-1cb5-4e3d-8733-264efbfc417e","system_id":"levelo_inurba_marseille","lat":43.29617,"lon":5.4061,"is_reserved":false,"is_disabled":false,"rental_uris":{"android":"levelo://app?vid=e385d1cd-1cb5-4e3d-8733-264efbfc417e","ios":"levelo://app?vid=e385d1cd-1cb5-4e3d-8733-264efbfc417e"},"vehicle_type_id":"4","last_reported":1769937613,"current_range_meters":6000,"station_id":"ce4bh0h2rcd13ifvqd60","pricing_plan_id":"cebpf4jnsgd1na2vs0mg"},{"bike_id":"0b54222e-0ec6-491f-b1f2-77bedbbe81bd","system_id":"levelo_inurba_marseille","lat":43.29025,"lon":5.35928,"is_reserved":false,"is_disabled":false,"rental_uris":{"android":"levelo://app?vid=0b54222e-0ec6-491f-b1f2-77bedbbe81bd","ios":"levelo://app?vid=0b54222e-0ec6-491f-b1f2-77bedbbe81bd"},"vehicle_type_id":"4","last_reported":1769937613,"current_range_meters":6000,"station_id":"ce4bha92rcd13ifvqeg0","pricing_plan_id":"cebpf4jnsgd1na2vs0mg"},{"bike_id":"a0f4c4d9-b17d-4551-87f4-b3e192df9153","system_id":"levelo_inurba_marseille","lat":43.23038,"lon":5.35484,"is_reserved":false,"is_disabled":false,"rental_uris":{"android":"levelo://app?vid=a0f4c4d9-b17d-4551-87f4-b3e192df9153","ios":"levelo://app?vid=a0f4c4d9-b17d-4551-87f4-b3e192df9153"},"vehicle_type_id":"4","last_reported":1769937613,"current_range_meters":6000,"station_id":"cpo3342slgdg3j2ifvpg","pricing_plan_id":"cebpf4jnsgd1na2vs0mg"},{"bike_id":"9378c7cb-4c3a-475f-ba28-80a4781f7ffa","system_id":"levelo_inurba_marseille","lat":43.29755,"lon":5.4279,"is_reserved":false,"is_disabled":false,"rental_uris":{"android":"levelo://app?vid=9378c7cb-4c3a-475f-ba28-80a4781f7ffa","ios":"levelo://app?vid=9378c7cb-4c3a-475f-ba28-80a4781f7ffa"},"vehicle_type_id":"4","last_reported":1769937613,"current_range_meters":6000,"station_id":"st_d3md5207bmas73dh9klg","pricing_plan_id":"cebpf4jnsgd1na2vs0mg"},{"bike_id":"b27a0d4f-f345-47b9-b9a8-196c40313931","system_id":"levelo_inurba_marseille","lat":43.28414,"lon":5.35038,"is_reserved":false,"is_disabled":false,"rental_uris":{"android":"levelo://app?vid=b27a0d4f-f345-47b9-b9a8-196c40313931","ios":"levelo://app?vid=b27a0d4f-f345-47b9-b9a8-196c40313931"},"vehicle_type_id":"4","last_reported":1769937613,"current_range_meters":6000,"station_id":"","pricing_plan_id":"cebpf4jnsgd1na2vs0mg"},{"bike_id":"4ae21097-68ff-4a44-bcb7-3e142e11d517","system_id":"levelo_inurba_marseille","lat":43.24172,"lon":5.36404,"is_reserved":false,"is_disabled":false,"rental_uris":{"android":"levelo://app?vid=4ae21097-68ff-4a44-bcb7-3e142e11d517","ios":"levelo://app?vid=4ae21097-68ff-4a44-bcb7-3e142e11d517"},"vehicle_type_id":"4","last_reported":1769937613,"current_range_meters":6000,"station_id":"cpo36qri1sfpv3e86is0","pricing_plan_id":"cebpf4jnsgd1na2vs0mg"},{"bike_id":"7725ea14-335e-4d54-91ac-40d50e39e00e","system_id":"levelo_inurba_marseille","lat":43.23183,"lon":5.39976,"is_reserved":false,"is_disabled":false,"rental_uris":{"android":"levelo://app?vid=7725ea14-335e-4d54-91ac-40d50e39e00e","ios":"levelo://app?vid=7725ea14-335e-4d54-91ac-40d50e39e00e"},"vehicle_type_id":"4","last_reported":1769937613,"current_range_meters":6000,"station_id":"ce4bhn12rcd13ifvqgqg","pricing_plan_id":"cebpf4jnsgd1na2vs0mg"},{"bike_id":"3d2668d9-3c48-4068-83fd-9f01b377bc30","system_id":"levelo_inurba_marseille","lat":43.32118,"lon":5.36777,"is_reserved":false,"is_disabled":false,"rental_uris":{"android":"levelo://app?vid=3d2668d9-3c48-4068-83fd-9f01b377bc30","ios":"levelo://app?vid=3d2668d9-3c48-4068-83fd-9f01b377bc30"},"vehicle_type_id":"4","last_reported":1769937613,"current_range_meters":6000,"station_id":"ce4bhrh2rcd13ifvqhug","pricing_plan_id":"cebpf4jnsgd1na2vs0mg"},{"bike_id":"d4d18011-2bf0-4a2b-a896-7a5c21af3b9d","system_id":"levelo_inurba_marseille","lat":43.28468,"lon":5.4843,"is_reserved":false,"is_disabled":false,"rental_uris":{"android":"levelo://app?vid=d4d18011-2bf0-4a2b-a896-7a5c21af3b9d","ios":"levelo://app?vid=d4d18011-2bf0-4a2b-a896-7a5c21af3b9d"},"vehicle_type_id":"4","last_reported":1769937613,"current_range_meters":6000,"station_id":"st_d3svhcjqgbts73a3dn0g","pricing_plan_id":"cebpf4jnsgd1na2vs0mg"},{"bike_id":"837f081a-e646-4c00-93df-f959748be000","system_id":"levelo_inurba_marseille","lat":43.24674,"lon":5.38159,"is_reserved":false,"is_disabled":false,"rental_uris":{"android":"levelo://app?vid=837f081a-e646-4c00-93df-f959748be000","ios":"levelo://app?vid=837f081a-e646-4c00-93df-f959748be000"},"vehicle_type_id":"4","last_reported":1769937613,"current_range_meters":6000,"station_id":"ce4bhih2rcd13ifvqfr0","pricing_plan_id":"cebpf4jnsgd1na2vs0mg"},{"bike_id":"5be20501-8e04-4673-9119-891aadf1acc1","system_id":"levelo_inurba_marseille","lat":43.284839,"lon":5.483904,"is_reserved":false,"is_disabled":false,"rental_uris":{"android":"levelo://app?vid=5be20501-8e04-4673-9119-891aadf1acc1","ios":"levelo://app?vid=5be20501-8e04-4673-9119-891aadf1acc1"},"vehicle_type_id":"4","last_reported":1769937613,"current_range_meters":6000,"station_id":"","pricing_plan_id":"cebpf4jnsgd1na2vs0mg"},{"bike_id":"1f7b8b6d-e79f-4d5a-80ba-1168600653c7","system_id":"levelo_inurba_marseille","lat":43.23197,"lon":5.35558,"is_reserved":false,"is_disabled":false,"rental_uris":{"android":"levelo://app?vid=1f7b8b6d-e79f-4d5a-80ba-1168600653c7","ios":"levelo://app?vid=1f7b8b6d-e79f-4d5a-80ba-1168600653c7"},"vehicle_type_id":"4","last_reported":1769937613,"current_range_meters":6000,"station_id":"ce4bhu92rcd13ifvqi70","pricing_plan_id":"cebpf4jnsgd1na2vs0mg"},{"bike_id":"f2a245ea-8a14-40a3-84a5-33a456f768b2","system_id":"levelo_inurba_marseille","lat":43.30256,"lon":5.37722,"is_reserved":false,"is_disabled":false,"rental_uris":{"android":"levelo://app?vid=f2a245ea-8a14-40a3-84a5-33a456f768b2","ios":"levelo://app?vid=f2a245ea-8a14-40a3-84a5-33a456f768b2"},"vehicle_type_id":"4","last_reported":1769937613,"current_range_meters":6000,"station_id":"ce4bguh2rcd13ifvqcj0","pricing_plan_id":"cebpf4jnsgd1na2vs0mg"},{"bike_id":"d5e67bfe-03c5-4643-9903-6eac267b87da","system_id":"levelo_inurba_marseille","lat":43.24,"lon":5.37833,"is_reserved":false,"is_disabled":false,"rental_uris":{"android":"levelo://app?vid=d5e67bfe-03c5-4643-9903-6eac267b87da","ios":"levelo://app?vid=d5e67bfe-03c5-4643-9903-6eac267b87da"},"vehicle_type_id":"4","last_reported":1769937613,"current_range_meters":6000,"station_id":"","pricing_plan_id":"cebpf4jnsgd1na2vs0mg"},{"bike_id":"7bd46305-b209-4807-8a44-605f196b92c2","system_id":"levelo_inurba_marseille","lat":43.284,"lon":5.37532,"is_reserved":false,"is_disabled":false,"rental_uris":{"android":"levelo://app?vid=7bd46305-b209-4807-8a44-605f196b92c2","ios":"levelo://app?vid=7bd46305-b209-4807-8a44-605f196b92c2"},"vehicle_type_id":"4","last_reported":1769937613,"current_range_meters":6400,"station_id":"ce4bh412rcd13ifvqds0","pricing_plan_id":"cebpf4jnsgd1na2vs0mg"},{"bike_id":"eae001be-3b34-469f-b5f5-7615da95a4ed","system_id":"levelo_inurba_marseille","lat":43.278069,"lon":5.40735,"is_reserved":false,"is_disabled":false,"rental_uris":{"android":"levelo://app?vid=eae001be-3b34-469f-b5f5-7615da95a4ed","ios":"levelo://app?vid=eae001be-3b34-469f-b5f5-7615da95a4ed"},"vehicle_type_id":"4","last_reported":1769937613,"current_range_meters":6400,"station_id":"ce4bhnh2rcd13ifvqgtg","pricing_plan_id":"cebpf4jnsgd1na2vs0mg"},{"bike_id":"6790413e-4740-4289-a22f-d3e7a54257b6","system_id":"levelo_inurba_marseille","lat":43.2533,"lon":5.42171,"is_reserved":false,"is_disabled":false,"rental_uris":{"android":"levelo://app?vid=6790413e-4740-4289-a22f-d3e7a54257b6","ios":"levelo://app?vid=6790413e-4740-4289-a22f-d3e7a54257b6"},"vehicle_type_id":"4","last_reported":1769937613,"current_range_meters":6400,"station_id":"st_d2m65c5bi1j21697t3ng","pricing_plan_id":"cebpf4jnsgd1na2vs0mg"},{"bike_id":"7a4412cf-c498-4121-be46-049419c026d4","system_id":"levelo_inurba_marseille","lat":43.27943,"lon":5.4104,"is_reserved":false,"is_disabled":false,"rental_uris":{"android":"levelo://app?vid=7a4412cf-c498-4121-be46-049419c026d4","ios":"levelo://app?vid=7a4412cf-c498-4121-be46-049419c026d4"},"vehicle_type_id":"4","last_reported":1769937613,"current_range_meters":6400,"station_id":"ce4bhnp2rcd13ifvqh0g","pricing_plan_id":"cebpf4jnsgd1na2vs0mg"},{"bike_id":"f47b5364-d86e-414e-a4d7-612bcf40da53","system_id":"levelo_inurba_marseille","lat":43.24168,"lon":5.36402,"is_reserved":false,"is_disabled":false,"rental_uris":{"android":"levelo://app?vid=f47b5364-d86e-414e-a4d7-612bcf40da53","ios":"levelo://app?vid=f47b5364-d86e-414e-a4d7-612bcf40da53"},"vehicle_type_id":"4","last_reported":1769937613,"current_range_meters":6400,"station_id":"cpo36qri1sfpv3e86is0","pricing_plan_id":"cebpf4jnsgd1na2vs0mg"},{"bike_id":"e66c0050-63ae-4842-902f-7ed4f4ed8737","system_id":"levelo_inurba_marseille","lat":43.22546,"lon":5.41642,"is_reserved":false,"is_disabled":false,"rental_uris":{"android":"levelo://app?vid=e66c0050-63ae-4842-902f-7ed4f4ed8737","ios":"levelo://app?vid=e66c0050-63ae-4842-902f-7ed4f4ed8737"},"vehicle_type_id":"4","last_reported":1769937613,"current_range_meters":6400,"station_id":"st_d2o4gvlbi1j2169b742g","pricing_plan_id":"cebpf4jnsgd1na2vs0mg"},{"bike_id":"ce82ab3e-8722-48bf-b3dc-98421a0f2a7b","system_id":"levelo_inurba_marseille","lat":43.29629,"lon":5.406,"is_reserved":false,"is_disabled":false,"rental_uris":{"android":"levelo://app?vid=ce82ab3e-8722-48bf-b3dc-98421a0f2a7b","ios":"levelo://app?vid=ce82ab3e-8722-48bf-b3dc-98421a0f2a7b"},"vehicle_type_id":"4","last_reported":1769937613,"current_range_meters":6400,"station_id":"ce4bh0h2rcd13ifvqd60","pricing_plan_id":"cebpf4jnsgd1na2vs0mg"},{"bike_id":"38b77181-b3ce-4754-b533-7792bcc3267e","system_id":"levelo_inurba_marseille","lat":43.27378,"lon":5.36262,"is_reserved":false,"is_disabled":false,"rental_uris":{"android":"levelo://app?vid=38b77181-b3ce-4754-b533-7792bcc3267e","ios":"levelo://app?vid=38b77181-b3ce-4754-b533-7792bcc3267e"},"vehicle_type_id":"4","last_reported":1769937613,"current_range_meters":6400,"station_id":"ce4bhbh2rcd13ifvqeo0","pricing_plan_id":"cebpf4jnsgd1na2vs0mg"},{"bike_id":"ccd91842-56ad-439e-893f-220a7e358296","system_id":"levelo_inurba_marseille","lat":43.24082,"lon":5.37742,"is_reserved":false,"is_disabled":false,"rental_uris":{"android":"levelo://app?vid=ccd91842-56ad-439e-893f-220a7e358296","ios":"levelo://app?vid=ccd91842-56ad-439e-893f-220a7e358296"},"vehicle_type_id":"4","last_reported":1769937613,"current_range_meters":6400,"station_id":"ce4bhnp2rcd13ifvqgvg","pricing_plan_id":"cebpf4jnsgd1na2vs0mg"},{"bike_id":"9c2cc992-186a-4b4e-a8c4-2416ec14609e","system_id":"levelo_inurba_marseille","lat":43.25881,"lon":5.39896,"is_reserved":false,"is_disabled":false,"rental_uris":{"android":"levelo://app?vid=9c2cc992-186a-4b4e-a8c4-2416ec14609e","ios":"levelo://app?vid=9c2cc992-186a-4b4e-a8c4-2416ec14609e"},"vehicle_type_id":"4","last_reported":1769937613,"current_range_meters":6400,"station_id":"ce4bhl92rcd13ifvqghg","pricing_plan_id":"cebpf4jnsgd1na2vs0mg"},{"bike_id":"ea996b6a-e4df-4475-a81a-600ad94271b6","system_id":"levelo_inurba_marseille","lat":43.30285,"lon":5.39793,"is_reserved":false,"is_disabled":false,"rental_uris":{"android":"levelo://app?vid=ea996b6a-e4df-4475-a81a-600ad94271b6","ios":"levelo://app?vid=ea996b6a-e4df-4475-a81a-600ad94271b6"},"vehicle_type_id":"4","last_reported":1769937613,"current_range_meters":6400,"station_id":"","pricing_plan_id":"cebpf4jnsgd1na2vs0mg"},{"bike_id":"bcd58453-c6d3-458d-8c23-f0e115fa2945","system_id":"levelo_inurba_marseille","lat":43.28867,"lon":5.4251,"is_reserved":false,"is_disabled":false,"rental_uris":{"android":"levelo://app?vid=bcd58453-c6d3-458d-8c23-f0e115fa2945","ios":"levelo://app?vid=bcd58453-c6d3-458d-8c23-f0e115fa2945"},"vehicle_type_id":"4","last_reported":1769937613,"current_range_meters":6400,"station_id":"st_d3b462108ojc7389ooeg","pricing_plan_id":"cebpf4jnsgd1na2vs0mg"},{"bike_id":"e701a3f7-2e1f-487e-bad5-83c9140f1723","system_id":"levelo_inurba_marseille","lat":43.31777,"lon":5.37376,"is_reserved":false,"is_disabled":false,"rental_uris":{"android":"levelo://app?vid=e701a3f7-2e1f-487e-bad5-83c9140f1723","ios":"levelo://app?vid=e701a3f7-2e1f-487e-bad5-83c9140f1723"},"vehicle_type_id":"4","last_reported":1769937613,"current_range_meters":6400,"station_id":"","pricing_plan_id":"cebpf4jnsgd1na2vs0mg"},{"bike_id":"0e681b67-3fdf-40b6-b942-590e1536d0c5","system_id":"levelo_inurba_marseille","lat":43.24392,"lon":5.3708,"is_reserved":false,"is_disabled":false,"rental_uris":{"android":"levelo://app?vid=0e681b67-3fdf-40b6-b942-590e1536d0c5","ios":"levelo://app?vid=0e681b67-3fdf-40b6-b942-590e1536d0c5"},"vehicle_type_id":"4","last_reported":1769937613,"current_range_meters":6400,"station_id":"ce4bhhh2rcd13ifvqfk0","pricing_plan_id":"cebpf4jnsgd1na2vs0mg"},{"bike_id":"9ec284a7-5619-4e2b-9311-1a9349102c34","system_id":"levelo_inurba_marseille","lat":43.2446,"lon":5.42542,"is_reserved":false,"is_disabled":false,"rental_uris":{"android":"levelo://app?vid=9ec284a7-5619-4e2b-9311-1a9349102c34","ios":"levelo://app?vid=9ec284a7-5619-4e2b-9311-1a9349102c34"},"vehicle_type_id":"4","last_reported":1769937613,"current_range_meters":6400,"station_id":"st_d4a3vfp97mjs738cd8kg","pricing_plan_id":"cebpf4jnsgd1na2vs0mg"},{"bike_id":"74856cd2-f709-469e-b628-27ee18812e7c","system_id":"levelo_inurba_marseille","lat":43.2815,"lon":5.42666,"is_reserved":false,"is_disabled":false,"rental_uris":{"android":"levelo://app?vid=74856cd2-f709-469e-b628-27ee18812e7c","ios":"levelo://app?vid=74856cd2-f709-469e-b628-27ee18812e7c"},"vehicle_type_id":"4","last_reported":1769937613,"current_range_meters":6400,"station_id":"ce4bhnh2rcd13ifvqgug","pricing_plan_id":"cebpf4jnsgd1na2vs0mg"},{"bike_id":"cda423b0-114c-4365-aeb1-89fb80c8de39","system_id":"levelo_inurba_marseille","lat":43.24794,"lon":5.37456,"is_reserved":false,"is_disabled":false,"rental_uris":{"android":"levelo://app?vid=cda423b0-114c-4365-aeb1-89fb80c8de39","ios":"levelo://app?vid=cda423b0-114c-4365-aeb1-89fb80c8de39"},"vehicle_type_id":"4","last_reported":1769937613,"current_range_meters":6800,"station_id":"ce4bhgh2rcd13ifvqfb0","pricing_plan_id":"cebpf4jnsgd1na2vs0mg"},{"bike_id":"f63ad825-b273-458f-bf2e-2ef630e3fede","system_id":"levelo_inurba_marseille","lat":43.22553,"lon":5.41652,"is_reserved":false,"is_disabled":false,"rental_uris":{"android":"levelo://app?vid=f63ad825-b273-458f-bf2e-2ef630e3fede","ios":"levelo://app?vid=f63ad825-b273-458f-bf2e-2ef630e3fede"},"vehicle_type_id":"4","last_reported":1769937613,"current_range_meters":6800,"station_id":"st_d2o4gvlbi1j2169b742g","pricing_plan_id":"cebpf4jnsgd1na2vs0mg"},{"bike_id":"1b85baa8-054d-452c-96ac-e14de5f87229","system_id":"levelo_inurba_marseille","lat":43.26563,"lon":5.40336,"is_reserved":false,"is_disabled":false,"rental_uris":{"android":"levelo://app?vid=1b85baa8-054d-452c-96ac-e14de5f87229","ios":"levelo://app?vid=1b85baa8-054d-452c-96ac-e14de5f87229"},"vehicle_type_id":"4","last_reported":1769937613,"current_range_meters":6800,"station_id":"ce4bhmp2rcd13ifvqgng","pricing_plan_id":"cebpf4jnsgd1na2vs0mg"},{"bike_id":"fb793f9e-27c8-4aa6-9e5b-d172f980944b","system_id":"levelo_inurba_marseille","lat":43.27938,"lon":5.4106,"is_reserved":false,"is_disabled":true,"rental_uris":{"android":"levelo://app?vid=fb793f9e-27c8-4aa6-9e5b-d172f980944b","ios":"levelo://app?vid=fb793f9e-27c8-4aa6-9e5b-d172f980944b"},"vehicle_type_id":"4","last_reported":1769937613,"current_range_meters":6800,"station_id":"ce4bhnp2rcd13ifvqh0g","pricing_plan_id":"cebpf4jnsgd1na2vs0mg"},{"bike_id":"0209bc56-beb4-4095-b758-2ebe14281480","system_id":"levelo_inurba_marseille","lat":43.28724,"lon":5.36102,"is_reserved":false,"is_disabled":false,"rental_uris":{"android":"levelo://app?vid=0209bc56-beb4-4095-b758-2ebe14281480","ios":"levelo://app?vid=0209bc56-beb4-4095-b758-2ebe14281480"},"vehicle_type_id":"4","last_reported":1769937613,"current_range_meters":6800,"station_id":"cki0cbj6b192h4jlfktg","pricing_plan_id":"cebpf4jnsgd1na2vs0mg"},{"bike_id":"7b7db75c-73f6-43d8-99e5-1231f9f68fc9","system_id":"levelo_inurba_marseille","lat":43.27926,"lon":5.39589,"is_reserved":false,"is_disabled":false,"rental_uris":{"android":"levelo://app?vid=7b7db75c-73f6-43d8-99e5-1231f9f68fc9","ios":"levelo://app?vid=7b7db75c-73f6-43d8-99e5-1231f9f68fc9"},"vehicle_type_id":"4","last_reported":1769937613,"current_range_meters":6800,"station_id":"ce4bhf92rcd13ifvqf40","pricing_plan_id":"cebpf4jnsgd1na2vs0mg"},{"bike_id":"3471e8e7-8da3-45e0-a561-cdc2e5b04adf","system_id":"levelo_inurba_marseille","lat":43.2461,"lon":5.43153,"is_reserved":false,"is_disabled":false,"rental_uris":{"android":"levelo://app?vid=3471e8e7-8da3-45e0-a561-cdc2e5b04adf","ios":"levelo://app?vid=3471e8e7-8da3-45e0-a561-cdc2e5b04adf"},"vehicle_type_id":"4","last_reported":1769937613,"current_range_meters":6800,"station_id":"st_d2m6c4gdas8pm72e190g","pricing_plan_id":"cebpf4jnsgd1na2vs0mg"},{"bike_id":"d0765df0-cc90-4cba-8b79-61ce95080b49","system_id":"levelo_inurba_marseille","lat":43.22589,"lon":5.41624,"is_reserved":false,"is_disabled":false,"rental_uris":{"android":"levelo://app?vid=d0765df0-cc90-4cba-8b79-61ce95080b49","ios":"levelo://app?vid=d0765df0-cc90-4cba-8b79-61ce95080b49"},"vehicle_type_id":"4","last_reported":1769937613,"current_range_meters":6800,"station_id":"st_d2o4gvlbi1j2169b742g","pricing_plan_id":"cebpf4jnsgd1na2vs0mg"},{"bike_id":"6ceb9059-7b97-4347-94e0-23342b519359","system_id":"levelo_inurba_marseille","lat":43.2957,"lon":5.39363,"is_reserved":false,"is_disabled":false,"rental_uris":{"android":"levelo://app?vid=6ceb9059-7b97-4347-94e0-23342b519359","ios":"levelo://app?vid=6ceb9059-7b97-4347-94e0-23342b519359"},"vehicle_type_id":"4","last_reported":1769937613,"current_range_meters":6800,"station_id":"","pricing_plan_id":"cebpf4jnsgd1na2vs0mg"},{"bike_id":"1b262235-a4c8-42b2-9b62-c37b9e14300f","system_id":"levelo_inurba_marseille","lat":43.27812,"lon":5.40718,"is_reserved":false,"is_disabled":false,"rental_uris":{"android":"levelo://app?vid=1b262235-a4c8-42b2-9b62-c37b9e14300f","ios":"levelo://app?vid=1b262235-a4c8-42b2-9b62-c37b9e14300f"},"vehicle_type_id":"4","last_reported":1769937613,"current_range_meters":6800,"station_id":"ce4bhnh2rcd13ifvqgtg","pricing_plan_id":"cebpf4jnsgd1na2vs0mg"},{"bike_id":"16fde6d1-f51a-48e7-a728-f69430b0136e","system_id":"levelo_inurba_marseille","lat":43.24397,"lon":5.37085,"is_reserved":false,"is_disabled":false,"rental_uris":{"android":"levelo://app?vid=16fde6d1-f51a-48e7-a728-f69430b0136e","ios":"levelo://app?vid=16fde6d1-f51a-48e7-a728-f69430b0136e"},"vehicle_type_id":"4","last_reported":1769937613,"current_range_meters":6800,"station_id":"ce4bhhh2rcd13ifvqfk0","pricing_plan_id":"cebpf4jnsgd1na2vs0mg"},{"bike_id":"3a9d9d6b-764f-4558-a4a3-5611921af6a1","system_id":"levelo_inurba_marseille","lat":43.27949,"lon":5.4104,"is_reserved":false,"is_disabled":false,"rental_uris":{"android":"levelo://app?vid=3a9d9d6b-764f-4558-a4a3-5611921af6a1","ios":"levelo://app?vid=3a9d9d6b-764f-4558-a4a3-5611921af6a1"},"vehicle_type_id":"4","last_reported":1769937613,"current_range_meters":6800,"station_id":"ce4bhnp2rcd13ifvqh0g","pricing_plan_id":"cebpf4jnsgd1na2vs0mg"},{"bike_id":"180701fc-3466-4739-9acb-7f11e893ebe6","system_id":"levelo_inurba_marseille","lat":43.24461,"lon":5.42552,"is_reserved":false,"is_disabled":false,"rental_uris":{"android":"levelo://app?vid=180701fc-3466-4739-9acb-7f11e893ebe6","ios":"levelo://app?vid=180701fc-3466-4739-9acb-7f11e893ebe6"},"vehicle_type_id":"4","last_reported":1769937613,"current_range_meters":6800,"station_id":"st_d4a3vfp97mjs738cd8kg","pricing_plan_id":"cebpf4jnsgd1na2vs0mg"},{"bike_id":"b233dd4b-f1ae-41da-a580-dcfbbd843fa2","system_id":"levelo_inurba_marseille","lat":43.30765,"lon":5.3767,"is_reserved":false,"is_disabled":false,"rental_uris":{"android":"levelo://app?vid=b233dd4b-f1ae-41da-a580-dcfbbd843fa2","ios":"levelo://app?vid=b233dd4b-f1ae-41da-a580-dcfbbd843fa2"},"vehicle_type_id":"4","last_reported":1769937613,"current_range_meters":6800,"station_id":"ce4bgv92rcd13ifvqcq0","pricing_plan_id":"cebpf4jnsgd1na2vs0mg"},{"bike_id":"5a24432b-b7ab-43a0-9cbd-10c4e13ca14b","system_id":"levelo_inurba_marseille","lat":43.28954,"lon":5.36603,"is_reserved":false,"is_disabled":false,"rental_uris":{"android":"levelo://app?vid=5a24432b-b7ab-43a0-9cbd-10c4e13ca14b","ios":"levelo://app?vid=5a24432b-b7ab-43a0-9cbd-10c4e13ca14b"},"vehicle_type_id":"4","last_reported":1769937613,"current_range_meters":6800,"station_id":"ce4bhap2rcd13ifvqek0","pricing_plan_id":"cebpf4jnsgd1na2vs0mg"},{"bike_id":"8a25a112-bffb-4bc9-b86f-e44087c71e58","system_id":"levelo_inurba_marseille","lat":43.28221,"lon":5.39054,"is_reserved":false,"is_disabled":false,"rental_uris":{"android":"levelo://app?vid=8a25a112-bffb-4bc9-b86f-e44087c71e58","ios":"levelo://app?vid=8a25a112-bffb-4bc9-b86f-e44087c71e58"},"vehicle_type_id":"4","last_reported":1769937613,"current_range_meters":6800,"station_id":"ce4bhn92rcd13ifvqgsg","pricing_plan_id":"cebpf4jnsgd1na2vs0mg"},{"bike_id":"d3215a18-ac25-47b2-bc57-dcaef897eb36","system_id":"levelo_inurba_marseille","lat":43.31406,"lon":5.38549,"is_reserved":false,"is_disabled":false,"rental_uris":{"android":"levelo://app?vid=d3215a18-ac25-47b2-bc57-dcaef897eb36","ios":"levelo://app?vid=d3215a18-ac25-47b2-bc57-dcaef897eb36"},"vehicle_type_id":"4","last_reported":1769937613,"current_range_meters":7200,"station_id":"","pricing_plan_id":"cebpf4jnsgd1na2vs0mg"},{"bike_id":"1b9e7bf5-f399-4b7a-935f-44d1badb48a9","system_id":"levelo_inurba_marseille","lat":43.292661,"lon":5.384371,"is_reserved":false,"is_disabled":false,"rental_uris":{"android":"levelo://app?vid=1b9e7bf5-f399-4b7a-935f-44d1badb48a9","ios":"levelo://app?vid=1b9e7bf5-f399-4b7a-935f-44d1badb48a9"},"vehicle_type_id":"4","last_reported":1769937613,"current_range_meters":7200,"station_id":"ce4bh3p2rcd13ifvqdp0","pricing_plan_id":"cebpf4jnsgd1na2vs0mg"},{"bike_id":"8d19955e-e09c-4b47-a6e3-ae607dbe5088","system_id":"levelo_inurba_marseille","lat":43.26351,"lon":5.37156,"is_reserved":false,"is_disabled":true,"rental_uris":{"android":"levelo://app?vid=8d19955e-e09c-4b47-a6e3-ae607dbe5088","ios":"levelo://app?vid=8d19955e-e09c-4b47-a6e3-ae607dbe5088"},"vehicle_type_id":"4","last_reported":1769937613,"current_range_meters":7200,"station_id":"","pricing_plan_id":"cebpf4jnsgd1na2vs0mg"},{"bike_id":"39a0c9b8-bd19-456f-ac9a-f7111895b8d4","system_id":"levelo_inurba_marseille","lat":43.24049,"lon":5.37782,"is_reserved":false,"is_disabled":false,"rental_uris":{"android":"levelo://app?vid=39a0c9b8-bd19-456f-ac9a-f7111895b8d4","ios":"levelo://app?vid=39a0c9b8-bd19-456f-ac9a-f7111895b8d4"},"vehicle_type_id":"4","last_reported":1769937613,"current_range_meters":7200,"station_id":"ce4bhnp2rcd13ifvqgvg","pricing_plan_id":"cebpf4jnsgd1na2vs0mg"},{"bike_id":"2c9d9ec4-87d2-4a0f-9375-615bf9c41c46","system_id":"levelo_inurba_marseille","lat":43.26218,"lon":5.37488,"is_reserved":false,"is_disabled":false,"rental_uris":{"android":"levelo://app?vid=2c9d9ec4-87d2-4a0f-9375-615bf9c41c46","ios":"levelo://app?vid=2c9d9ec4-87d2-4a0f-9375-615bf9c41c46"},"vehicle_type_id":"4","last_reported":1769937613,"current_range_meters":7200,"station_id":"","pricing_plan_id":"cebpf4jnsgd1na2vs0mg"},{"bike_id":"767dc731-f365-45e9-b7a0-0144ed9ff9a5","system_id":"levelo_inurba_marseille","lat":43.312141,"lon":5.368531,"is_reserved":false,"is_disabled":false,"rental_uris":{"android":"levelo://app?vid=767dc731-f365-45e9-b7a0-0144ed9ff9a5","ios":"levelo://app?vid=767dc731-f365-45e9-b7a0-0144ed9ff9a5"},"vehicle_type_id":"4","last_reported":1769937613,"current_range_meters":7200,"station_id":"ce4bgl92rcd13ifvqbq0","pricing_plan_id":"cebpf4jnsgd1na2vs0mg"},{"bike_id":"26bd2557-3046-4212-82fc-da1fdbd42b2c","system_id":"levelo_inurba_marseille","lat":43.28492,"lon":5.44067,"is_reserved":false,"is_disabled":false,"rental_uris":{"android":"levelo://app?vid=26bd2557-3046-4212-82fc-da1fdbd42b2c","ios":"levelo://app?vid=26bd2557-3046-4212-82fc-da1fdbd42b2c"},"vehicle_type_id":"4","last_reported":1769937613,"current_range_meters":7200,"station_id":"","pricing_plan_id":"cebpf4jnsgd1na2vs0mg"},{"bike_id":"e19dcbee-55f5-4a14-8d7c-7f5193d4d389","system_id":"levelo_inurba_marseille","lat":43.27936,"lon":5.41033,"is_reserved":false,"is_disabled":false,"rental_uris":{"android":"levelo://app?vid=e19dcbee-55f5-4a14-8d7c-7f5193d4d389","ios":"levelo://app?vid=e19dcbee-55f5-4a14-8d7c-7f5193d4d389"},"vehicle_type_id":"4","last_reported":1769937613,"current_range_meters":7200,"station_id":"ce4bhnp2rcd13ifvqh0g","pricing_plan_id":"cebpf4jnsgd1na2vs0mg"},{"bike_id":"f74d4c3d-96e9-4afd-9bc9-921171cd5c0f","system_id":"levelo_inurba_marseille","lat":43.27832,"lon":5.40713,"is_reserved":false,"is_disabled":false,"rental_uris":{"android":"levelo://app?vid=f74d4c3d-96e9-4afd-9bc9-921171cd5c0f","ios":"levelo://app?vid=f74d4c3d-96e9-4afd-9bc9-921171cd5c0f"},"vehicle_type_id":"4","last_reported":1769937613,"current_range_meters":7200,"station_id":"ce4bhnh2rcd13ifvqgtg","pricing_plan_id":"cebpf4jnsgd1na2vs0mg"},{"bike_id":"17f7a6ee-3ea2-47b2-a6b2-af428a254ad3","system_id":"levelo_inurba_marseille","lat":43.28622,"lon":5.35103,"is_reserved":false,"is_disabled":false,"rental_uris":{"android":"levelo://app?vid=17f7a6ee-3ea2-47b2-a6b2-af428a254ad3","ios":"levelo://app?vid=17f7a6ee-3ea2-47b2-a6b2-af428a254ad3"},"vehicle_type_id":"4","last_reported":1769937613,"current_range_meters":7200,"station_id":"ce4bhch2rcd13ifvqeug","pricing_plan_id":"cebpf4jnsgd1na2vs0mg"},{"bike_id":"99da9daa-2a07-4749-a52e-c8ec1377f28d","system_id":"levelo_inurba_marseille","lat":43.23194,"lon":5.35552,"is_reserved":false,"is_disabled":false,"rental_uris":{"android":"levelo://app?vid=99da9daa-2a07-4749-a52e-c8ec1377f28d","ios":"levelo://app?vid=99da9daa-2a07-4749-a52e-c8ec1377f28d"},"vehicle_type_id":"4","last_reported":1769937613,"current_range_meters":7200,"station_id":"ce4bhu92rcd13ifvqi70","pricing_plan_id":"cebpf4jnsgd1na2vs0mg"},{"bike_id":"bd3e9f4a-b909-4049-a15b-7cd6caee90b2","system_id":"levelo_inurba_marseille","lat":43.30156,"lon":5.38085,"is_reserved":false,"is_disabled":false,"rental_uris":{"android":"levelo://app?vid=bd3e9f4a-b909-4049-a15b-7cd6caee90b2","ios":"levelo://app?vid=bd3e9f4a-b909-4049-a15b-7cd6caee90b2"},"vehicle_type_id":"4","last_reported":1769937613,"current_range_meters":7200,"station_id":"ce4bgjp2rcd13ifvqbh0","pricing_plan_id":"cebpf4jnsgd1na2vs0mg"},{"bike_id":"0b595329-88a5-4dab-8a2c-b70bbda22e84","system_id":"levelo_inurba_marseille","lat":43.2791,"lon":5.41075,"is_reserved":false,"is_disabled":false,"rental_uris":{"android":"levelo://app?vid=0b595329-88a5-4dab-8a2c-b70bbda22e84","ios":"levelo://app?vid=0b595329-88a5-4dab-8a2c-b70bbda22e84"},"vehicle_type_id":"4","last_reported":1769937613,"current_range_meters":7200,"station_id":"ce4bhnp2rcd13ifvqh0g","pricing_plan_id":"cebpf4jnsgd1na2vs0mg"},{"bike_id":"ee39f90f-3222-4732-9961-b784c72f0999","system_id":"levelo_inurba_marseille","lat":43.231914,"lon":5.355508,"is_reserved":false,"is_disabled":false,"rental_uris":{"android":"levelo://app?vid=ee39f90f-3222-4732-9961-b784c72f0999","ios":"levelo://app?vid=ee39f90f-3222-4732-9961-b784c72f0999"},"vehicle_type_id":"4","last_reported":1769937613,"current_range_meters":7200,"station_id":"ce4bhu92rcd13ifvqi70","pricing_plan_id":"cebpf4jnsgd1na2vs0mg"},{"bike_id":"5b4c0c7a-c0c9-4273-96c2-faded5f9cc26","system_id":"levelo_inurba_marseille","lat":43.2791,"lon":5.41061,"is_reserved":false,"is_disabled":false,"rental_uris":{"android":"levelo://app?vid=5b4c0c7a-c0c9-4273-96c2-faded5f9cc26","ios":"levelo://app?vid=5b4c0c7a-c0c9-4273-96c2-faded5f9cc26"},"vehicle_type_id":"4","last_reported":1769937613,"current_range_meters":8000,"station_id":"ce4bhnp2rcd13ifvqh0g","pricing_plan_id":"cebpf4jnsgd1na2vs0mg"},{"bike_id":"667a8115-c025-4bf7-9ff4-f5acd84dd723","system_id":"levelo_inurba_marseille","lat":43.2984,"lon":5.44049,"is_reserved":false,"is_disabled":false,"rental_uris":{"android":"levelo://app?vid=667a8115-c025-4bf7-9ff4-f5acd84dd723","ios":"levelo://app?vid=667a8115-c025-4bf7-9ff4-f5acd84dd723"},"vehicle_type_id":"4","last_reported":1769937613,"current_range_meters":8000,"station_id":"","pricing_plan_id":"cebpf4jnsgd1na2vs0mg"},{"bike_id":"87a354e2-aacd-4ec9-ade6-6f6c8860ce28","system_id":"levelo_inurba_marseille","lat":43.280325,"lon":5.369443,"is_reserved":false,"is_disabled":false,"rental_uris":{"android":"levelo://app?vid=87a354e2-aacd-4ec9-ade6-6f6c8860ce28","ios":"levelo://app?vid=87a354e2-aacd-4ec9-ade6-6f6c8860ce28"},"vehicle_type_id":"4","last_reported":1769937613,"current_range_meters":8000,"station_id":"ce4bha12rcd13ifvqef0","pricing_plan_id":"cebpf4jnsgd1na2vs0mg"},{"bike_id":"7538f3bc-c504-457b-8867-886447e19dda","system_id":"levelo_inurba_marseille","lat":43.28046,"lon":5.36958,"is_reserved":false,"is_disabled":false,"rental_uris":{"android":"levelo://app?vid=7538f3bc-c504-457b-8867-886447e19dda","ios":"levelo://app?vid=7538f3bc-c504-457b-8867-886447e19dda"},"vehicle_type_id":"4","last_reported":1769937613,"current_range_meters":8000,"station_id":"ce4bha12rcd13ifvqef0","pricing_plan_id":"cebpf4jnsgd1na2vs0mg"},{"bike_id":"96d123f9-faf8-40c5-907a-62a2b83e9d23","system_id":"levelo_inurba_marseille","lat":43.3169,"lon":5.40479,"is_reserved":false,"is_disabled":false,"rental_uris":{"android":"levelo://app?vid=96d123f9-faf8-40c5-907a-62a2b83e9d23","ios":"levelo://app?vid=96d123f9-faf8-40c5-907a-62a2b83e9d23"},"vehicle_type_id":"4","last_reported":1769937613,"current_range_meters":8000,"station_id":"ce4bh012rcd13ifvqd00","pricing_plan_id":"cebpf4jnsgd1na2vs0mg"},{"bike_id":"b839137b-0a8e-4fb5-af84-e07b5e0e60bc","system_id":"levelo_inurba_marseille","lat":43.26384,"lon":5.41066,"is_reserved":false,"is_disabled":false,"rental_uris":{"android":"levelo://app?vid=b839137b-0a8e-4fb5-af84-e07b5e0e60bc","ios":"levelo://app?vid=b839137b-0a8e-4fb5-af84-e07b5e0e60bc"},"vehicle_type_id":"4","last_reported":1769937613,"current_range_meters":8000,"station_id":"st_d4e5ca6na9uc73bfl5fg","pricing_plan_id":"cebpf4jnsgd1na2vs0mg"},{"bike_id":"c264a993-cd3d-4651-98f5-66184e7cd94c","system_id":"levelo_inurba_marseille","lat":43.23961,"lon":5.36647,"is_reserved":false,"is_disabled":false,"rental_uris":{"android":"levelo://app?vid=c264a993-cd3d-4651-98f5-66184e7cd94c","ios":"levelo://app?vid=c264a993-cd3d-4651-98f5-66184e7cd94c"},"vehicle_type_id":"4","last_reported":1769937613,"current_range_meters":8000,"station_id":"ce4bhi12rcd13ifvqfp0","pricing_plan_id":"cebpf4jnsgd1na2vs0mg"},{"bike_id":"93e60425-8aae-4f4b-b447-57ef8147db67","system_id":"levelo_inurba_marseille","lat":43.28477,"lon":5.48403,"is_reserved":false,"is_disabled":false,"rental_uris":{"android":"levelo://app?vid=93e60425-8aae-4f4b-b447-57ef8147db67","ios":"levelo://app?vid=93e60425-8aae-4f4b-b447-57ef8147db67"},"vehicle_type_id":"4","last_reported":1769937613,"current_range_meters":8000,"station_id":"","pricing_plan_id":"cebpf4jnsgd1na2vs0mg"},{"bike_id":"5e1c4385-fefc-40d8-9043-9539df7efdd8","system_id":"levelo_inurba_marseille","lat":43.337444,"lon":5.374475,"is_reserved":false,"is_disabled":false,"rental_uris":{"android":"levelo://app?vid=5e1c4385-fefc-40d8-9043-9539df7efdd8","ios":"levelo://app?vid=5e1c4385-fefc-40d8-9043-9539df7efdd8"},"vehicle_type_id":"4","last_reported":1769937613,"current_range_meters":8000,"station_id":"ce4bhbp2rcd13ifvqesg","pricing_plan_id":"cebpf4jnsgd1na2vs0mg"},{"bike_id":"a83ea1a8-da73-4f21-a894-c7d25c9bf681","system_id":"levelo_inurba_marseille","lat":43.30932,"lon":5.40171,"is_reserved":false,"is_disabled":false,"rental_uris":{"android":"levelo://app?vid=a83ea1a8-da73-4f21-a894-c7d25c9bf681","ios":"levelo://app?vid=a83ea1a8-da73-4f21-a894-c7d25c9bf681"},"vehicle_type_id":"4","last_reported":1769937613,"current_range_meters":8000,"station_id":"ce4bgvp2rcd13ifvqct0","pricing_plan_id":"cebpf4jnsgd1na2vs0mg"},{"bike_id":"1b66b988-980e-4a67-85f9-95de820b03bb","system_id":"levelo_inurba_marseille","lat":43.3106,"lon":5.38356,"is_reserved":false,"is_disabled":false,"rental_uris":{"android":"levelo://app?vid=1b66b988-980e-4a67-85f9-95de820b03bb","ios":"levelo://app?vid=1b66b988-980e-4a67-85f9-95de820b03bb"},"vehicle_type_id":"4","last_reported":1769937613,"current_range_meters":8000,"station_id":"ce4bgv92rcd13ifvqcr0","pricing_plan_id":"cebpf4jnsgd1na2vs0mg"},{"bike_id":"5ae045ad-f8a1-4282-8e95-bd3bfad6b000","system_id":"levelo_inurba_marseille","lat":43.32038,"lon":5.41569,"is_reserved":false,"is_disabled":false,"rental_uris":{"android":"levelo://app?vid=5ae045ad-f8a1-4282-8e95-bd3bfad6b000","ios":"levelo://app?vid=5ae045ad-f8a1-4282-8e95-bd3bfad6b000"},"vehicle_type_id":"4","last_reported":1769937613,"current_range_meters":8000,"station_id":"ce4bhq92rcd13ifvqhkg","pricing_plan_id":"cebpf4jnsgd1na2vs0mg"},{"bike_id":"fdb152c1-6e47-4a4a-a2d9-3ab5de199a7b","system_id":"levelo_inurba_marseille","lat":43.258689,"lon":5.398935,"is_reserved":false,"is_disabled":false,"rental_uris":{"android":"levelo://app?vid=fdb152c1-6e47-4a4a-a2d9-3ab5de199a7b","ios":"levelo://app?vid=fdb152c1-6e47-4a4a-a2d9-3ab5de199a7b"},"vehicle_type_id":"4","last_reported":1769937613,"current_range_meters":8000,"station_id":"ce4bhl92rcd13ifvqghg","pricing_plan_id":"cebpf4jnsgd1na2vs0mg"},{"bike_id":"4e9c4013-698b-41c0-b7c8-ea7e558f61a3","system_id":"levelo_inurba_marseille","lat":43.267768,"lon":5.394181,"is_reserved":false,"is_disabled":false,"rental_uris":{"android":"levelo://app?vid=4e9c4013-698b-41c0-b7c8-ea7e558f61a3","ios":"levelo://app?vid=4e9c4013-698b-41c0-b7c8-ea7e558f61a3"},"vehicle_type_id":"4","last_reported":1769937613,"current_range_meters":8000,"station_id":"ce4bhh12rcd13ifvqfg0","pricing_plan_id":"cebpf4jnsgd1na2vs0mg"},{"bike_id":"fb24d3d1-fd60-4775-b723-157c13e8fff0","system_id":"levelo_inurba_marseille","lat":43.25483,"lon":5.3768,"is_reserved":false,"is_disabled":false,"rental_uris":{"android":"levelo://app?vid=fb24d3d1-fd60-4775-b723-157c13e8fff0","ios":"levelo://app?vid=fb24d3d1-fd60-4775-b723-157c13e8fff0"},"vehicle_type_id":"4","last_reported":1769937613,"current_range_meters":8000,"station_id":"ce4bhh12rcd13ifvqff0","pricing_plan_id":"cebpf4jnsgd1na2vs0mg"},{"bike_id":"967e1832-468e-48d4-b164-1bb5ff385d3e","system_id":"levelo_inurba_marseille","lat":43.24627,"lon":5.43144,"is_reserved":false,"is_disabled":false,"rental_uris":{"android":"levelo://app?vid=967e1832-468e-48d4-b164-1bb5ff385d3e","ios":"levelo://app?vid=967e1832-468e-48d4-b164-1bb5ff385d3e"},"vehicle_type_id":"4","last_reported":1769937613,"current_range_meters":8000,"station_id":"st_d2m6c4gdas8pm72e190g","pricing_plan_id":"cebpf4jnsgd1na2vs0mg"},{"bike_id":"75e7e0f4-e18b-4bc3-90c8-b9bce55601cb","system_id":"levelo_inurba_marseille","lat":43.25443,"lon":5.42495,"is_reserved":false,"is_disabled":false,"rental_uris":{"android":"levelo://app?vid=75e7e0f4-e18b-4bc3-90c8-b9bce55601cb","ios":"levelo://app?vid=75e7e0f4-e18b-4bc3-90c8-b9bce55601cb"},"vehicle_type_id":"4","last_reported":1769937613,"current_range_meters":8000,"station_id":"","pricing_plan_id":"cebpf4jnsgd1na2vs0mg"},{"bike_id":"fadbe387-3d5b-4703-ac68-6d85711afca8","system_id":"levelo_inurba_marseille","lat":43.29278,"lon":5.40913,"is_reserved":false,"is_disabled":false,"rental_uris":{"android":"levelo://app?vid=fadbe387-3d5b-4703-ac68-6d85711afca8","ios":"levelo://app?vid=fadbe387-3d5b-4703-ac68-6d85711afca8"},"vehicle_type_id":"4","last_reported":1769937613,"current_range_meters":8000,"station_id":"ce4bh192rcd13ifvqdc0","pricing_plan_id":"cebpf4jnsgd1na2vs0mg"},{"bike_id":"b4fbeb64-1fb9-4178-ae15-4108561043c9","system_id":"levelo_inurba_marseille","lat":43.24647,"lon":5.38897,"is_reserved":false,"is_disabled":false,"rental_uris":{"android":"levelo://app?vid=b4fbeb64-1fb9-4178-ae15-4108561043c9","ios":"levelo://app?vid=b4fbeb64-1fb9-4178-ae15-4108561043c9"},"vehicle_type_id":"4","last_reported":1769937613,"current_range_meters":8400,"station_id":"ce4bhg12rcd13ifvqf60","pricing_plan_id":"cebpf4jnsgd1na2vs0mg"},{"bike_id":"0a1300ad-2f14-46b7-8956-d36a4a430b42","system_id":"levelo_inurba_marseille","lat":43.247994,"lon":5.374478,"is_reserved":false,"is_disabled":false,"rental_uris":{"android":"levelo://app?vid=0a1300ad-2f14-46b7-8956-d36a4a430b42","ios":"levelo://app?vid=0a1300ad-2f14-46b7-8956-d36a4a430b42"},"vehicle_type_id":"4","last_reported":1769937613,"current_range_meters":8400,"station_id":"ce4bhgh2rcd13ifvqfb0","pricing_plan_id":"cebpf4jnsgd1na2vs0mg"},{"bike_id":"a825a34e-c66c-4578-9dd4-68f63a09f21e","system_id":"levelo_inurba_marseille","lat":43.27376,"lon":5.36289,"is_reserved":false,"is_disabled":false,"rental_uris":{"android":"levelo://app?vid=a825a34e-c66c-4578-9dd4-68f63a09f21e","ios":"levelo://app?vid=a825a34e-c66c-4578-9dd4-68f63a09f21e"},"vehicle_type_id":"4","last_reported":1769937613,"current_range_meters":8400,"station_id":"ce4bhbh2rcd13ifvqeo0","pricing_plan_id":"cebpf4jnsgd1na2vs0mg"},{"bike_id":"a5fa5eb4-dba4-4657-ad87-40acdd8b2f31","system_id":"levelo_inurba_marseille","lat":43.31076,"lon":5.42442,"is_reserved":false,"is_disabled":false,"rental_uris":{"android":"levelo://app?vid=a5fa5eb4-dba4-4657-ad87-40acdd8b2f31","ios":"levelo://app?vid=a5fa5eb4-dba4-4657-ad87-40acdd8b2f31"},"vehicle_type_id":"4","last_reported":1769937613,"current_range_meters":8400,"station_id":"ce4bhp92rcd13ifvqhag","pricing_plan_id":"cebpf4jnsgd1na2vs0mg"},{"bike_id":"d07d82e6-52b3-44b0-8ed0-bd413300e13f","system_id":"levelo_inurba_marseille","lat":43.24627,"lon":5.43151,"is_reserved":false,"is_disabled":false,"rental_uris":{"android":"levelo://app?vid=d07d82e6-52b3-44b0-8ed0-bd413300e13f","ios":"levelo://app?vid=d07d82e6-52b3-44b0-8ed0-bd413300e13f"},"vehicle_type_id":"4","last_reported":1769937613,"current_range_meters":8400,"station_id":"st_d2m6c4gdas8pm72e190g","pricing_plan_id":"cebpf4jnsgd1na2vs0mg"},{"bike_id":"d431d2dc-fe64-4d55-be3e-18b6291747e9","system_id":"levelo_inurba_marseille","lat":43.23062,"lon":5.35487,"is_reserved":false,"is_disabled":false,"rental_uris":{"android":"levelo://app?vid=d431d2dc-fe64-4d55-be3e-18b6291747e9","ios":"levelo://app?vid=d431d2dc-fe64-4d55-be3e-18b6291747e9"},"vehicle_type_id":"4","last_reported":1769937613,"current_range_meters":8400,"station_id":"cpo3342slgdg3j2ifvpg","pricing_plan_id":"cebpf4jnsgd1na2vs0mg"},{"bike_id":"33073528-1e22-401a-900c-0ca191a8c4cf","system_id":"levelo_inurba_marseille","lat":43.22549,"lon":5.41645,"is_reserved":false,"is_disabled":false,"rental_uris":{"android":"levelo://app?vid=33073528-1e22-401a-900c-0ca191a8c4cf","ios":"levelo://app?vid=33073528-1e22-401a-900c-0ca191a8c4cf"},"vehicle_type_id":"4","last_reported":1769937613,"current_range_meters":8400,"station_id":"st_d2o4gvlbi1j2169b742g","pricing_plan_id":"cebpf4jnsgd1na2vs0mg"},{"bike_id":"2ddc5516-895c-4920-8137-93ebf9f5c69d","system_id":"levelo_inurba_marseille","lat":43.251848,"lon":5.375305,"is_reserved":false,"is_disabled":false,"rental_uris":{"android":"levelo://app?vid=2ddc5516-895c-4920-8137-93ebf9f5c69d","ios":"levelo://app?vid=2ddc5516-895c-4920-8137-93ebf9f5c69d"},"vehicle_type_id":"4","last_reported":1769937613,"current_range_meters":8400,"station_id":"ce4bhgh2rcd13ifvqfb0","pricing_plan_id":"cebpf4jnsgd1na2vs0mg"},{"bike_id":"fd887aca-98e1-464f-84ac-e7817b808a75","system_id":"levelo_inurba_marseille","lat":43.24387,"lon":5.37072,"is_reserved":false,"is_disabled":false,"rental_uris":{"android":"levelo://app?vid=fd887aca-98e1-464f-84ac-e7817b808a75","ios":"levelo://app?vid=fd887aca-98e1-464f-84ac-e7817b808a75"},"vehicle_type_id":"4","last_reported":1769937613,"current_range_meters":8400,"station_id":"ce4bhhh2rcd13ifvqfk0","pricing_plan_id":"cebpf4jnsgd1na2vs0mg"},{"bike_id":"a9976113-461f-4068-baa6-28ae0013e332","system_id":"levelo_inurba_marseille","lat":43.2535,"lon":5.42162,"is_reserved":false,"is_disabled":false,"rental_uris":{"android":"levelo://app?vid=a9976113-461f-4068-baa6-28ae0013e332","ios":"levelo://app?vid=a9976113-461f-4068-baa6-28ae0013e332"},"vehicle_type_id":"4","last_reported":1769937613,"current_range_meters":8400,"station_id":"st_d2m65c5bi1j21697t3ng","pricing_plan_id":"cebpf4jnsgd1na2vs0mg"},{"bike_id":"2b052603-1775-4258-80ad-ae63b6286ef5","system_id":"levelo_inurba_marseille","lat":43.29728,"lon":5.35957,"is_reserved":false,"is_disabled":true,"rental_uris":{"android":"levelo://app?vid=2b052603-1775-4258-80ad-ae63b6286ef5","ios":"levelo://app?vid=2b052603-1775-4258-80ad-ae63b6286ef5"},"vehicle_type_id":"4","last_reported":1769937613,"current_range_meters":8400,"station_id":"","pricing_plan_id":"cebpf4jnsgd1na2vs0mg"},{"bike_id":"58982c61-2f00-4e02-b620-223b4d372a1d","system_id":"levelo_inurba_marseille","lat":43.25598,"lon":5.38184,"is_reserved":false,"is_disabled":false,"rental_uris":{"android":"levelo://app?vid=58982c61-2f00-4e02-b620-223b4d372a1d","ios":"levelo://app?vid=58982c61-2f00-4e02-b620-223b4d372a1d"},"vehicle_type_id":"4","last_reported":1769937613,"current_range_meters":8400,"station_id":"ce4bhih2rcd13ifvqfs0","pricing_plan_id":"cebpf4jnsgd1na2vs0mg"},{"bike_id":"f1afd73d-ec70-4dba-ac5d-df0bb8cc8cb8","system_id":"levelo_inurba_marseille","lat":43.24627,"lon":5.43155,"is_reserved":false,"is_disabled":false,"rental_uris":{"android":"levelo://app?vid=f1afd73d-ec70-4dba-ac5d-df0bb8cc8cb8","ios":"levelo://app?vid=f1afd73d-ec70-4dba-ac5d-df0bb8cc8cb8"},"vehicle_type_id":"4","last_reported":1769937613,"current_range_meters":8800,"station_id":"st_d2m6c4gdas8pm72e190g","pricing_plan_id":"cebpf4jnsgd1na2vs0mg"},{"bike_id":"d2ee53f1-49b6-44a6-a171-d364ff8162cf","system_id":"levelo_inurba_marseille","lat":43.33372,"lon":5.43107,"is_reserved":false,"is_disabled":false,"rental_uris":{"android":"levelo://app?vid=d2ee53f1-49b6-44a6-a171-d364ff8162cf","ios":"levelo://app?vid=d2ee53f1-49b6-44a6-a171-d364ff8162cf"},"vehicle_type_id":"4","last_reported":1769937613,"current_range_meters":8800,"station_id":"","pricing_plan_id":"cebpf4jnsgd1na2vs0mg"},{"bike_id":"8a9caeca-dfdf-438d-b0bf-186e18fcd4d1","system_id":"levelo_inurba_marseille","lat":43.30768,"lon":5.37653,"is_reserved":false,"is_disabled":false,"rental_uris":{"android":"levelo://app?vid=8a9caeca-dfdf-438d-b0bf-186e18fcd4d1","ios":"levelo://app?vid=8a9caeca-dfdf-438d-b0bf-186e18fcd4d1"},"vehicle_type_id":"4","last_reported":1769937613,"current_range_meters":8800,"station_id":"ce4bgv92rcd13ifvqcq0","pricing_plan_id":"cebpf4jnsgd1na2vs0mg"},{"bike_id":"cb16a0fb-a0f9-4601-ab2a-91a6d88760fa","system_id":"levelo_inurba_marseille","lat":43.26555,"lon":5.40346,"is_reserved":false,"is_disabled":false,"rental_uris":{"android":"levelo://app?vid=cb16a0fb-a0f9-4601-ab2a-91a6d88760fa","ios":"levelo://app?vid=cb16a0fb-a0f9-4601-ab2a-91a6d88760fa"},"vehicle_type_id":"4","last_reported":1769937613,"current_range_meters":8800,"station_id":"ce4bhmp2rcd13ifvqgng","pricing_plan_id":"cebpf4jnsgd1na2vs0mg"},{"bike_id":"770f2f22-15f8-4987-b971-690af65785ff","system_id":"levelo_inurba_marseille","lat":43.26564,"lon":5.40329,"is_reserved":false,"is_disabled":false,"rental_uris":{"android":"levelo://app?vid=770f2f22-15f8-4987-b971-690af65785ff","ios":"levelo://app?vid=770f2f22-15f8-4987-b971-690af65785ff"},"vehicle_type_id":"4","last_reported":1769937613,"current_range_meters":8800,"station_id":"ce4bhmp2rcd13ifvqgng","pricing_plan_id":"cebpf4jnsgd1na2vs0mg"},{"bike_id":"b00753f6-9e43-40ef-9959-628446071746","system_id":"levelo_inurba_marseille","lat":43.27806,"lon":5.40733,"is_reserved":false,"is_disabled":true,"rental_uris":{"android":"levelo://app?vid=b00753f6-9e43-40ef-9959-628446071746","ios":"levelo://app?vid=b00753f6-9e43-40ef-9959-628446071746"},"vehicle_type_id":"4","last_reported":1769937613,"current_range_meters":8800,"station_id":"ce4bhnh2rcd13ifvqgtg","pricing_plan_id":"cebpf4jnsgd1na2vs0mg"},{"bike_id":"31bd0591-0491-4b97-b2ee-1c98269b28b7","system_id":"levelo_inurba_marseille","lat":43.29022,"lon":5.3812,"is_reserved":false,"is_disabled":false,"rental_uris":{"android":"levelo://app?vid=31bd0591-0491-4b97-b2ee-1c98269b28b7","ios":"levelo://app?vid=31bd0591-0491-4b97-b2ee-1c98269b28b7"},"vehicle_type_id":"4","last_reported":1769937613,"current_range_meters":8800,"station_id":"ce4bh4p2rcd13ifvqe1g","pricing_plan_id":"cebpf4jnsgd1na2vs0mg"},{"bike_id":"4ad2da66-d00a-4006-af72-87c62567c87f","system_id":"levelo_inurba_marseille","lat":43.310319,"lon":5.385996,"is_reserved":false,"is_disabled":false,"rental_uris":{"android":"levelo://app?vid=4ad2da66-d00a-4006-af72-87c62567c87f","ios":"levelo://app?vid=4ad2da66-d00a-4006-af72-87c62567c87f"},"vehicle_type_id":"4","last_reported":1769937613,"current_range_meters":8800,"station_id":"","pricing_plan_id":"cebpf4jnsgd1na2vs0mg"},{"bike_id":"3b3a202d-165e-435b-bccc-86ec2425e7db","system_id":"levelo_inurba_marseille","lat":43.24494,"lon":5.42542,"is_reserved":false,"is_disabled":false,"rental_uris":{"android":"levelo://app?vid=3b3a202d-165e-435b-bccc-86ec2425e7db","ios":"levelo://app?vid=3b3a202d-165e-435b-bccc-86ec2425e7db"},"vehicle_type_id":"4","last_reported":1769937613,"current_range_meters":8800,"station_id":"st_d4a3vfp97mjs738cd8kg","pricing_plan_id":"cebpf4jnsgd1na2vs0mg"},{"bike_id":"fef69268-649b-47e7-8506-c54d12be9f6f","system_id":"levelo_inurba_marseille","lat":43.29011,"lon":5.35599,"is_reserved":false,"is_disabled":false,"rental_uris":{"android":"levelo://app?vid=fef69268-649b-47e7-8506-c54d12be9f6f","ios":"levelo://app?vid=fef69268-649b-47e7-8506-c54d12be9f6f"},"vehicle_type_id":"4","last_reported":1769937613,"current_range_meters":8800,"station_id":"ce4bhb92rcd13ifvqen0","pricing_plan_id":"cebpf4jnsgd1na2vs0mg"},{"bike_id":"6632b7eb-39fd-4ac6-ab18-a3a8fd79732f","system_id":"levelo_inurba_marseille","lat":43.30877,"lon":5.37151,"is_reserved":false,"is_disabled":false,"rental_uris":{"android":"levelo://app?vid=6632b7eb-39fd-4ac6-ab18-a3a8fd79732f","ios":"levelo://app?vid=6632b7eb-39fd-4ac6-ab18-a3a8fd79732f"},"vehicle_type_id":"4","last_reported":1769937613,"current_range_meters":8800,"station_id":"ce4bguh2rcd13ifvqckg","pricing_plan_id":"cebpf4jnsgd1na2vs0mg"},{"bike_id":"988398a3-7ea1-401c-9290-5cadcd4b0590","system_id":"levelo_inurba_marseille","lat":43.2499,"lon":5.38963,"is_reserved":false,"is_disabled":false,"rental_uris":{"android":"levelo://app?vid=988398a3-7ea1-401c-9290-5cadcd4b0590","ios":"levelo://app?vid=988398a3-7ea1-401c-9290-5cadcd4b0590"},"vehicle_type_id":"4","last_reported":1769937613,"current_range_meters":8800,"station_id":"ce4bhgp2rcd13ifvqfd0","pricing_plan_id":"cebpf4jnsgd1na2vs0mg"},{"bike_id":"ebb622ce-2e34-4608-825d-106c128c2dda","system_id":"levelo_inurba_marseille","lat":43.29038,"lon":5.37557,"is_reserved":false,"is_disabled":false,"rental_uris":{"android":"levelo://app?vid=ebb622ce-2e34-4608-825d-106c128c2dda","ios":"levelo://app?vid=ebb622ce-2e34-4608-825d-106c128c2dda"},"vehicle_type_id":"4","last_reported":1769937613,"current_range_meters":8800,"station_id":"ce4bh692rcd13ifvqe90","pricing_plan_id":"cebpf4jnsgd1na2vs0mg"},{"bike_id":"6a3abae2-fb8c-40ee-86c3-dba4ebed61da","system_id":"levelo_inurba_marseille","lat":43.289304,"lon":5.366398,"is_reserved":false,"is_disabled":false,"rental_uris":{"android":"levelo://app?vid=6a3abae2-fb8c-40ee-86c3-dba4ebed61da","ios":"levelo://app?vid=6a3abae2-fb8c-40ee-86c3-dba4ebed61da"},"vehicle_type_id":"4","last_reported":1769937613,"current_range_meters":9200,"station_id":"ce4bhap2rcd13ifvqek0","pricing_plan_id":"cebpf4jnsgd1na2vs0mg"},{"bike_id":"3c9bc6df-6dc5-4749-8484-3a081a572fd1","system_id":"levelo_inurba_marseille","lat":43.26682,"lon":5.38275,"is_reserved":false,"is_disabled":false,"rental_uris":{"android":"levelo://app?vid=3c9bc6df-6dc5-4749-8484-3a081a572fd1","ios":"levelo://app?vid=3c9bc6df-6dc5-4749-8484-3a081a572fd1"},"vehicle_type_id":"4","last_reported":1769937613,"current_range_meters":9200,"station_id":"ce4bhg92rcd13ifvqf90","pricing_plan_id":"cebpf4jnsgd1na2vs0mg"},{"bike_id":"048a79c5-c12f-49b1-93db-c588b46435c1","system_id":"levelo_inurba_marseille","lat":43.29028,"lon":5.37549,"is_reserved":false,"is_disabled":false,"rental_uris":{"android":"levelo://app?vid=048a79c5-c12f-49b1-93db-c588b46435c1","ios":"levelo://app?vid=048a79c5-c12f-49b1-93db-c588b46435c1"},"vehicle_type_id":"4","last_reported":1769937613,"current_range_meters":9200,"station_id":"ce4bh692rcd13ifvqe90","pricing_plan_id":"cebpf4jnsgd1na2vs0mg"},{"bike_id":"004df261-4f08-4a49-a173-244244948504","system_id":"levelo_inurba_marseille","lat":43.30002,"lon":5.37839,"is_reserved":false,"is_disabled":false,"rental_uris":{"android":"levelo://app?vid=004df261-4f08-4a49-a173-244244948504","ios":"levelo://app?vid=004df261-4f08-4a49-a173-244244948504"},"vehicle_type_id":"4","last_reported":1769937613,"current_range_meters":9200,"station_id":"","pricing_plan_id":"cebpf4jnsgd1na2vs0mg"},{"bike_id":"0ecf18fb-8921-4a5b-a356-3d9faee0a39a","system_id":"levelo_inurba_marseille","lat":43.26198,"lon":5.37935,"is_reserved":false,"is_disabled":false,"rental_uris":{"android":"levelo://app?vid=0ecf18fb-8921-4a5b-a356-3d9faee0a39a","ios":"levelo://app?vid=0ecf18fb-8921-4a5b-a356-3d9faee0a39a"},"vehicle_type_id":"4","last_reported":1769937613,"current_range_meters":9200,"station_id":"ce4bhjp2rcd13ifvqg90","pricing_plan_id":"cebpf4jnsgd1na2vs0mg"},{"bike_id":"4c50b102-00aa-40e2-83bd-5e90d2e54b17","system_id":"levelo_inurba_marseille","lat":43.28001,"lon":5.40004,"is_reserved":false,"is_disabled":false,"rental_uris":{"android":"levelo://app?vid=4c50b102-00aa-40e2-83bd-5e90d2e54b17","ios":"levelo://app?vid=4c50b102-00aa-40e2-83bd-5e90d2e54b17"},"vehicle_type_id":"4","last_reported":1769937613,"current_range_meters":9200,"station_id":"ce4bho92rcd13ifvqh4g","pricing_plan_id":"cebpf4jnsgd1na2vs0mg"},{"bike_id":"3974ebe5-3070-4140-8de4-6e1a67d32b2b","system_id":"levelo_inurba_marseille","lat":43.296,"lon":5.36736,"is_reserved":false,"is_disabled":false,"rental_uris":{"android":"levelo://app?vid=3974ebe5-3070-4140-8de4-6e1a67d32b2b","ios":"levelo://app?vid=3974ebe5-3070-4140-8de4-6e1a67d32b2b"},"vehicle_type_id":"4","last_reported":1769937613,"current_range_meters":9200,"station_id":"ce4bgph2rcd13ifvqc2g","pricing_plan_id":"cebpf4jnsgd1na2vs0mg"},{"bike_id":"282b4c58-6430-4481-adf2-6fc926d2a7c4","system_id":"levelo_inurba_marseille","lat":43.23188,"lon":5.35559,"is_reserved":false,"is_disabled":false,"rental_uris":{"android":"levelo://app?vid=282b4c58-6430-4481-adf2-6fc926d2a7c4","ios":"levelo://app?vid=282b4c58-6430-4481-adf2-6fc926d2a7c4"},"vehicle_type_id":"4","last_reported":1769937613,"current_range_meters":9200,"station_id":"ce4bhu92rcd13ifvqi70","pricing_plan_id":"cebpf4jnsgd1na2vs0mg"},{"bike_id":"bafe06f4-691a-42ad-b544-2647048d76df","system_id":"levelo_inurba_marseille","lat":43.23029,"lon":5.35501,"is_reserved":false,"is_disabled":false,"rental_uris":{"android":"levelo://app?vid=bafe06f4-691a-42ad-b544-2647048d76df","ios":"levelo://app?vid=bafe06f4-691a-42ad-b544-2647048d76df"},"vehicle_type_id":"4","last_reported":1769937613,"current_range_meters":9200,"station_id":"cpo3342slgdg3j2ifvpg","pricing_plan_id":"cebpf4jnsgd1na2vs0mg"},{"bike_id":"f152d78c-f2e0-4c77-8d6e-dd0072285ace","system_id":"levelo_inurba_marseille","lat":43.24948,"lon":5.40498,"is_reserved":false,"is_disabled":false,"rental_uris":{"android":"levelo://app?vid=f152d78c-f2e0-4c77-8d6e-dd0072285ace","ios":"levelo://app?vid=f152d78c-f2e0-4c77-8d6e-dd0072285ace"},"vehicle_type_id":"4","last_reported":1769937613,"current_range_meters":9200,"station_id":"st_d2ngiaodas8pm72gd1h0","pricing_plan_id":"cebpf4jnsgd1na2vs0mg"},{"bike_id":"2d4ebfca-65a9-45df-94a7-d7bd8832fb59","system_id":"levelo_inurba_marseille","lat":43.27372,"lon":5.36263,"is_reserved":false,"is_disabled":false,"rental_uris":{"android":"levelo://app?vid=2d4ebfca-65a9-45df-94a7-d7bd8832fb59","ios":"levelo://app?vid=2d4ebfca-65a9-45df-94a7-d7bd8832fb59"},"vehicle_type_id":"4","last_reported":1769937613,"current_range_meters":9200,"station_id":"ce4bhbh2rcd13ifvqeo0","pricing_plan_id":"cebpf4jnsgd1na2vs0mg"},{"bike_id":"d6fd3dc6-4a1a-42ff-a99a-2a4b414e13ca","system_id":"levelo_inurba_marseille","lat":43.25335,"lon":5.42184,"is_reserved":false,"is_disabled":false,"rental_uris":{"android":"levelo://app?vid=d6fd3dc6-4a1a-42ff-a99a-2a4b414e13ca","ios":"levelo://app?vid=d6fd3dc6-4a1a-42ff-a99a-2a4b414e13ca"},"vehicle_type_id":"4","last_reported":1769937613,"current_range_meters":9200,"station_id":"st_d2m65c5bi1j21697t3ng","pricing_plan_id":"cebpf4jnsgd1na2vs0mg"},{"bike_id":"2f4b03ff-6994-4226-a583-6c5a84583b0a","system_id":"levelo_inurba_marseille","lat":43.30159,"lon":5.38082,"is_reserved":false,"is_disabled":false,"rental_uris":{"android":"levelo://app?vid=2f4b03ff-6994-4226-a583-6c5a84583b0a","ios":"levelo://app?vid=2f4b03ff-6994-4226-a583-6c5a84583b0a"},"vehicle_type_id":"4","last_reported":1769937613,"current_range_meters":9600,"station_id":"ce4bgjp2rcd13ifvqbh0","pricing_plan_id":"cebpf4jnsgd1na2vs0mg"},{"bike_id":"d1a4c207-5791-4015-8c48-e9fcda8077be","system_id":"levelo_inurba_marseille","lat":43.33187,"lon":5.37664,"is_reserved":false,"is_disabled":false,"rental_uris":{"android":"levelo://app?vid=d1a4c207-5791-4015-8c48-e9fcda8077be","ios":"levelo://app?vid=d1a4c207-5791-4015-8c48-e9fcda8077be"},"vehicle_type_id":"4","last_reported":1769937613,"current_range_meters":9600,"station_id":"st_d46cu089ee8s73dldbu0","pricing_plan_id":"cebpf4jnsgd1na2vs0mg"},{"bike_id":"aee55d88-d26d-4627-9e7c-8992b0fd22f2","system_id":"levelo_inurba_marseille","lat":43.263743,"lon":5.41074,"is_reserved":false,"is_disabled":false,"rental_uris":{"android":"levelo://app?vid=aee55d88-d26d-4627-9e7c-8992b0fd22f2","ios":"levelo://app?vid=aee55d88-d26d-4627-9e7c-8992b0fd22f2"},"vehicle_type_id":"4","last_reported":1769937613,"current_range_meters":9600,"station_id":"st_d4e5ca6na9uc73bfl5fg","pricing_plan_id":"cebpf4jnsgd1na2vs0mg"},{"bike_id":"18339182-77f9-4bd7-b6c8-5a127c34ce31","system_id":"levelo_inurba_marseille","lat":43.26487,"lon":5.3957,"is_reserved":false,"is_disabled":false,"rental_uris":{"android":"levelo://app?vid=18339182-77f9-4bd7-b6c8-5a127c34ce31","ios":"levelo://app?vid=18339182-77f9-4bd7-b6c8-5a127c34ce31"},"vehicle_type_id":"4","last_reported":1769937613,"current_range_meters":9600,"station_id":"ce4bhi12rcd13ifvqfq0","pricing_plan_id":"cebpf4jnsgd1na2vs0mg"},{"bike_id":"67b22d03-789e-44cf-a597-0ecf35a562c9","system_id":"levelo_inurba_marseille","lat":43.270551,"lon":5.38293,"is_reserved":false,"is_disabled":false,"rental_uris":{"android":"levelo://app?vid=67b22d03-789e-44cf-a597-0ecf35a562c9","ios":"levelo://app?vid=67b22d03-789e-44cf-a597-0ecf35a562c9"},"vehicle_type_id":"4","last_reported":1769937613,"current_range_meters":9600,"station_id":"st_d3n2fo6cfp8s73cte1j0","pricing_plan_id":"cebpf4jnsgd1na2vs0mg"},{"bike_id":"8b53ec96-7258-480f-b1ad-7decfc3d6621","system_id":"levelo_inurba_marseille","lat":43.2963,"lon":5.38111,"is_reserved":false,"is_disabled":false,"rental_uris":{"android":"levelo://app?vid=8b53ec96-7258-480f-b1ad-7decfc3d6621","ios":"levelo://app?vid=8b53ec96-7258-480f-b1ad-7decfc3d6621"},"vehicle_type_id":"4","last_reported":1769937613,"current_range_meters":9600,"station_id":"ce4bgl12rcd13ifvqbo0","pricing_plan_id":"cebpf4jnsgd1na2vs0mg"},{"bike_id":"ead9d525-178d-43f7-b202-498aac541976","system_id":"levelo_inurba_marseille","lat":43.22564,"lon":5.41641,"is_reserved":false,"is_disabled":false,"rental_uris":{"android":"levelo://app?vid=ead9d525-178d-43f7-b202-498aac541976","ios":"levelo://app?vid=ead9d525-178d-43f7-b202-498aac541976"},"vehicle_type_id":"4","last_reported":1769937613,"current_range_meters":9600,"station_id":"st_d2o4gvlbi1j2169b742g","pricing_plan_id":"cebpf4jnsgd1na2vs0mg"},{"bike_id":"6a1861d6-3bd8-4d97-b5bb-6ee921eaa6b3","system_id":"levelo_inurba_marseille","lat":43.297054,"lon":5.365974,"is_reserved":false,"is_disabled":false,"rental_uris":{"android":"levelo://app?vid=6a1861d6-3bd8-4d97-b5bb-6ee921eaa6b3","ios":"levelo://app?vid=6a1861d6-3bd8-4d97-b5bb-6ee921eaa6b3"},"vehicle_type_id":"4","last_reported":1769937613,"current_range_meters":9600,"station_id":"ce4bgn12rcd13ifvqbt0","pricing_plan_id":"cebpf4jnsgd1na2vs0mg"},{"bike_id":"3a58788c-4a23-4531-9872-db4b04a34512","system_id":"levelo_inurba_marseille","lat":43.250079,"lon":5.389143,"is_reserved":false,"is_disabled":false,"rental_uris":{"android":"levelo://app?vid=3a58788c-4a23-4531-9872-db4b04a34512","ios":"levelo://app?vid=3a58788c-4a23-4531-9872-db4b04a34512"},"vehicle_type_id":"4","last_reported":1769937613,"current_range_meters":9600,"station_id":"ce4bhgp2rcd13ifvqfd0","pricing_plan_id":"cebpf4jnsgd1na2vs0mg"},{"bike_id":"b9a9097f-13d0-49a9-bb46-6f5237ccc9ec","system_id":"levelo_inurba_marseille","lat":43.27379,"lon":5.3626,"is_reserved":false,"is_disabled":false,"rental_uris":{"android":"levelo://app?vid=b9a9097f-13d0-49a9-bb46-6f5237ccc9ec","ios":"levelo://app?vid=b9a9097f-13d0-49a9-bb46-6f5237ccc9ec"},"vehicle_type_id":"4","last_reported":1769937613,"current_range_meters":9600,"station_id":"ce4bhbh2rcd13ifvqeo0","pricing_plan_id":"cebpf4jnsgd1na2vs0mg"},{"bike_id":"b26b7a51-932a-4045-96ca-602fdf1f8264","system_id":"levelo_inurba_marseille","lat":43.23067,"lon":5.35489,"is_reserved":false,"is_disabled":false,"rental_uris":{"android":"levelo://app?vid=b26b7a51-932a-4045-96ca-602fdf1f8264","ios":"levelo://app?vid=b26b7a51-932a-4045-96ca-602fdf1f8264"},"vehicle_type_id":"4","last_reported":1769937613,"current_range_meters":9600,"station_id":"cpo3342slgdg3j2ifvpg","pricing_plan_id":"cebpf4jnsgd1na2vs0mg"},{"bike_id":"48defe86-fd01-4bdf-bb58-0b96240d5da2","system_id":"levelo_inurba_marseille","lat":43.28485,"lon":5.4838,"is_reserved":false,"is_disabled":false,"rental_uris":{"android":"levelo://app?vid=48defe86-fd01-4bdf-bb58-0b96240d5da2","ios":"levelo://app?vid=48defe86-fd01-4bdf-bb58-0b96240d5da2"},"vehicle_type_id":"4","last_reported":1769937613,"current_range_meters":9600,"station_id":"st_d3svhcjqgbts73a3dn0g","pricing_plan_id":"cebpf4jnsgd1na2vs0mg"},{"bike_id":"e09e2717-153b-489f-b446-f480f14d97b2","system_id":"levelo_inurba_marseille","lat":43.27956,"lon":5.41042,"is_reserved":false,"is_disabled":false,"rental_uris":{"android":"levelo://app?vid=e09e2717-153b-489f-b446-f480f14d97b2","ios":"levelo://app?vid=e09e2717-153b-489f-b446-f480f14d97b2"},"vehicle_type_id":"4","last_reported":1769937613,"current_range_meters":10000,"station_id":"ce4bhnp2rcd13ifvqh0g","pricing_plan_id":"cebpf4jnsgd1na2vs0mg"},{"bike_id":"fcc56630-d6aa-427a-9b6b-6381e911d09d","system_id":"levelo_inurba_marseille","lat":43.27949,"lon":5.41047,"is_reserved":false,"is_disabled":false,"rental_uris":{"android":"levelo://app?vid=fcc56630-d6aa-427a-9b6b-6381e911d09d","ios":"levelo://app?vid=fcc56630-d6aa-427a-9b6b-6381e911d09d"},"vehicle_type_id":"4","last_reported":1769937613,"current_range_meters":10000,"station_id":"ce4bhnp2rcd13ifvqh0g","pricing_plan_id":"cebpf4jnsgd1na2vs0mg"},{"bike_id":"7dedd366-c8c3-488a-8716-316bc1150e26","system_id":"levelo_inurba_marseille","lat":43.29578,"lon":5.39958,"is_reserved":false,"is_disabled":false,"rental_uris":{"android":"levelo://app?vid=7dedd366-c8c3-488a-8716-316bc1150e26","ios":"levelo://app?vid=7dedd366-c8c3-488a-8716-316bc1150e26"},"vehicle_type_id":"4","last_reported":1769937613,"current_range_meters":10000,"station_id":"ce4bh312rcd13ifvqdj0","pricing_plan_id":"cebpf4jnsgd1na2vs0mg"},{"bike_id":"7c0d9424-4c16-451a-a5e1-26585d6883f7","system_id":"levelo_inurba_marseille","lat":43.28851,"lon":5.42544,"is_reserved":false,"is_disabled":false,"rental_uris":{"android":"levelo://app?vid=7c0d9424-4c16-451a-a5e1-26585d6883f7","ios":"levelo://app?vid=7c0d9424-4c16-451a-a5e1-26585d6883f7"},"vehicle_type_id":"4","last_reported":1769937613,"current_range_meters":10000,"station_id":"st_d3b462108ojc7389ooeg","pricing_plan_id":"cebpf4jnsgd1na2vs0mg"},{"bike_id":"4b39f1cc-8d5c-4330-8483-0300616cf7c0","system_id":"levelo_inurba_marseille","lat":43.24066,"lon":5.36365,"is_reserved":false,"is_disabled":false,"rental_uris":{"android":"levelo://app?vid=4b39f1cc-8d5c-4330-8483-0300616cf7c0","ios":"levelo://app?vid=4b39f1cc-8d5c-4330-8483-0300616cf7c0"},"vehicle_type_id":"4","last_reported":1769937613,"current_range_meters":10000,"station_id":"","pricing_plan_id":"cebpf4jnsgd1na2vs0mg"},{"bike_id":"da4baa9f-76eb-4760-9c99-0d3e638c4fe4","system_id":"levelo_inurba_marseille","lat":43.24502,"lon":5.42537,"is_reserved":false,"is_disabled":false,"rental_uris":{"android":"levelo://app?vid=da4baa9f-76eb-4760-9c99-0d3e638c4fe4","ios":"levelo://app?vid=da4baa9f-76eb-4760-9c99-0d3e638c4fe4"},"vehicle_type_id":"4","last_reported":1769937613,"current_range_meters":10000,"station_id":"st_d4a3vfp97mjs738cd8kg","pricing_plan_id":"cebpf4jnsgd1na2vs0mg"},{"bike_id":"f262e999-95d5-4479-a877-6f525f4e2f96","system_id":"levelo_inurba_marseille","lat":43.31177,"lon":5.38715,"is_reserved":false,"is_disabled":false,"rental_uris":{"android":"levelo://app?vid=f262e999-95d5-4479-a877-6f525f4e2f96","ios":"levelo://app?vid=f262e999-95d5-4479-a877-6f525f4e2f96"},"vehicle_type_id":"4","last_reported":1769937613,"current_range_meters":10000,"station_id":"ce4bgv12rcd13ifvqcp0","pricing_plan_id":"cebpf4jnsgd1na2vs0mg"},{"bike_id":"e1d85e8f-816e-43e5-832f-fa3bb6c7d9fd","system_id":"levelo_inurba_marseille","lat":43.29809,"lon":5.44073,"is_reserved":false,"is_disabled":false,"rental_uris":{"android":"levelo://app?vid=e1d85e8f-816e-43e5-832f-fa3bb6c7d9fd","ios":"levelo://app?vid=e1d85e8f-816e-43e5-832f-fa3bb6c7d9fd"},"vehicle_type_id":"4","last_reported":1769937613,"current_range_meters":10000,"station_id":"st_d3jp68qikq2c7381ktn0","pricing_plan_id":"cebpf4jnsgd1na2vs0mg"},{"bike_id":"4d614b31-2487-459c-80b4-20568895cab0","system_id":"levelo_inurba_marseille","lat":43.24031,"lon":5.37798,"is_reserved":false,"is_disabled":true,"rental_uris":{"android":"levelo://app?vid=4d614b31-2487-459c-80b4-20568895cab0","ios":"levelo://app?vid=4d614b31-2487-459c-80b4-20568895cab0"},"vehicle_type_id":"4","last_reported":1769937613,"current_range_meters":10000,"station_id":"ce4bhnp2rcd13ifvqgvg","pricing_plan_id":"cebpf4jnsgd1na2vs0mg"},{"bike_id":"87f90149-6480-46ae-8bf1-4d309b1a7c08","system_id":"levelo_inurba_marseille","lat":43.25317,"lon":5.42157,"is_reserved":false,"is_disabled":false,"rental_uris":{"android":"levelo://app?vid=87f90149-6480-46ae-8bf1-4d309b1a7c08","ios":"levelo://app?vid=87f90149-6480-46ae-8bf1-4d309b1a7c08"},"vehicle_type_id":"4","last_reported":1769937613,"current_range_meters":10000,"station_id":"st_d2m65c5bi1j21697t3ng","pricing_plan_id":"cebpf4jnsgd1na2vs0mg"},{"bike_id":"647e8c67-198d-4317-8b12-fb4881b15010","system_id":"levelo_inurba_marseille","lat":43.297532,"lon":5.364516,"is_reserved":false,"is_disabled":false,"rental_uris":{"android":"levelo://app?vid=647e8c67-198d-4317-8b12-fb4881b15010","ios":"levelo://app?vid=647e8c67-198d-4317-8b12-fb4881b15010"},"vehicle_type_id":"4","last_reported":1769937613,"current_range_meters":10000,"station_id":"","pricing_plan_id":"cebpf4jnsgd1na2vs0mg"},{"bike_id":"5f8c5bb9-3364-4a5b-a6a2-b3e874e3a885","system_id":"levelo_inurba_marseille","lat":43.23959,"lon":5.3666,"is_reserved":false,"is_disabled":false,"rental_uris":{"android":"levelo://app?vid=5f8c5bb9-3364-4a5b-a6a2-b3e874e3a885","ios":"levelo://app?vid=5f8c5bb9-3364-4a5b-a6a2-b3e874e3a885"},"vehicle_type_id":"4","last_reported":1769937613,"current_range_meters":10000,"station_id":"ce4bhi12rcd13ifvqfp0","pricing_plan_id":"cebpf4jnsgd1na2vs0mg"},{"bike_id":"80f86e00-c283-4a17-a19a-e4aecae6582f","system_id":"levelo_inurba_marseille","lat":43.29203,"lon":5.39323,"is_reserved":false,"is_disabled":true,"rental_uris":{"android":"levelo://app?vid=80f86e00-c283-4a17-a19a-e4aecae6582f","ios":"levelo://app?vid=80f86e00-c283-4a17-a19a-e4aecae6582f"},"vehicle_type_id":"4","last_reported":1769937613,"current_range_meters":10000,"station_id":"ce4bh192rcd13ifvqdd0","pricing_plan_id":"cebpf4jnsgd1na2vs0mg"},{"bike_id":"598c3be9-e516-4a68-8ee3-e84cf24002f9","system_id":"levelo_inurba_marseille","lat":43.2502,"lon":5.38954,"is_reserved":false,"is_disabled":true,"rental_uris":{"android":"levelo://app?vid=598c3be9-e516-4a68-8ee3-e84cf24002f9","ios":"levelo://app?vid=598c3be9-e516-4a68-8ee3-e84cf24002f9"},"vehicle_type_id":"4","last_reported":1769937613,"current_range_meters":10000,"station_id":"ce4bhgp2rcd13ifvqfd0","pricing_plan_id":"cebpf4jnsgd1na2vs0mg"},{"bike_id":"bb0a8617-eeb8-4c5c-819e-78e4a9bf65c3","system_id":"levelo_inurba_marseille","lat":43.27945,"lon":5.4105,"is_reserved":false,"is_disabled":false,"rental_uris":{"android":"levelo://app?vid=bb0a8617-eeb8-4c5c-819e-78e4a9bf65c3","ios":"levelo://app?vid=bb0a8617-eeb8-4c5c-819e-78e4a9bf65c3"},"vehicle_type_id":"4","last_reported":1769937613,"current_range_meters":10000,"station_id":"ce4bhnp2rcd13ifvqh0g","pricing_plan_id":"cebpf4jnsgd1na2vs0mg"},{"bike_id":"8659a37c-d753-41da-9ce3-905c08503bac","system_id":"levelo_inurba_marseille","lat":43.31221,"lon":5.36856,"is_reserved":false,"is_disabled":false,"rental_uris":{"android":"levelo://app?vid=8659a37c-d753-41da-9ce3-905c08503bac","ios":"levelo://app?vid=8659a37c-d753-41da-9ce3-905c08503bac"},"vehicle_type_id":"4","last_reported":1769937613,"current_range_meters":10000,"station_id":"ce4bgl92rcd13ifvqbq0","pricing_plan_id":"cebpf4jnsgd1na2vs0mg"},{"bike_id":"d009f6e8-f4d6-4329-a549-cf33f5ef9bb8","system_id":"levelo_inurba_marseille","lat":43.3112,"lon":5.38451,"is_reserved":false,"is_disabled":false,"rental_uris":{"android":"levelo://app?vid=d009f6e8-f4d6-4329-a549-cf33f5ef9bb8","ios":"levelo://app?vid=d009f6e8-f4d6-4329-a549-cf33f5ef9bb8"},"vehicle_type_id":"4","last_reported":1769937613,"current_range_meters":10000,"station_id":"","pricing_plan_id":"cebpf4jnsgd1na2vs0mg"},{"bike_id":"cfdd203d-4fe1-4edb-9f7f-90b019fcd76e","system_id":"levelo_inurba_marseille","lat":43.2465,"lon":5.38904,"is_reserved":false,"is_disabled":false,"rental_uris":{"android":"levelo://app?vid=cfdd203d-4fe1-4edb-9f7f-90b019fcd76e","ios":"levelo://app?vid=cfdd203d-4fe1-4edb-9f7f-90b019fcd76e"},"vehicle_type_id":"4","last_reported":1769937613,"current_range_meters":10800,"station_id":"ce4bhg12rcd13ifvqf60","pricing_plan_id":"cebpf4jnsgd1na2vs0mg"},{"bike_id":"6f19f971-321b-4d5e-a90c-c93c6e3bcf21","system_id":"levelo_inurba_marseille","lat":43.30384,"lon":5.38223,"is_reserved":false,"is_disabled":false,"rental_uris":{"android":"levelo://app?vid=6f19f971-321b-4d5e-a90c-c93c6e3bcf21","ios":"levelo://app?vid=6f19f971-321b-4d5e-a90c-c93c6e3bcf21"},"vehicle_type_id":"4","last_reported":1769937613,"current_range_meters":10800,"station_id":"","pricing_plan_id":"cebpf4jnsgd1na2vs0mg"},{"bike_id":"46f0f3f7-4130-4488-aad8-caec724f7d56","system_id":"levelo_inurba_marseille","lat":43.25345,"lon":5.42172,"is_reserved":false,"is_disabled":false,"rental_uris":{"android":"levelo://app?vid=46f0f3f7-4130-4488-aad8-caec724f7d56","ios":"levelo://app?vid=46f0f3f7-4130-4488-aad8-caec724f7d56"},"vehicle_type_id":"4","last_reported":1769937613,"current_range_meters":10800,"station_id":"st_d2m65c5bi1j21697t3ng","pricing_plan_id":"cebpf4jnsgd1na2vs0mg"},{"bike_id":"d64baf67-1a62-4b86-9aae-88e7781f3b30","system_id":"levelo_inurba_marseille","lat":43.23197,"lon":5.39983,"is_reserved":false,"is_disabled":false,"rental_uris":{"android":"levelo://app?vid=d64baf67-1a62-4b86-9aae-88e7781f3b30","ios":"levelo://app?vid=d64baf67-1a62-4b86-9aae-88e7781f3b30"},"vehicle_type_id":"4","last_reported":1769937613,"current_range_meters":10800,"station_id":"ce4bhn12rcd13ifvqgqg","pricing_plan_id":"cebpf4jnsgd1na2vs0mg"},{"bike_id":"b9492e8c-e129-4f3e-9ce0-2b4736a3cb8b","system_id":"levelo_inurba_marseille","lat":43.21749,"lon":5.346,"is_reserved":false,"is_disabled":false,"rental_uris":{"android":"levelo://app?vid=b9492e8c-e129-4f3e-9ce0-2b4736a3cb8b","ios":"levelo://app?vid=b9492e8c-e129-4f3e-9ce0-2b4736a3cb8b"},"vehicle_type_id":"4","last_reported":1769937613,"current_range_meters":10800,"station_id":"st_cvj6r9ubvosntc0bgbag","pricing_plan_id":"cebpf4jnsgd1na2vs0mg"},{"bike_id":"fff7e7d9-a5a2-4648-8c64-acd8db891467","system_id":"levelo_inurba_marseille","lat":43.26218,"lon":5.40462,"is_reserved":false,"is_disabled":true,"rental_uris":{"android":"levelo://app?vid=fff7e7d9-a5a2-4648-8c64-acd8db891467","ios":"levelo://app?vid=fff7e7d9-a5a2-4648-8c64-acd8db891467"},"vehicle_type_id":"4","last_reported":1769937613,"current_range_meters":10800,"station_id":"ce4bhmh2rcd13ifvqgmg","pricing_plan_id":"cebpf4jnsgd1na2vs0mg"},{"bike_id":"ae18926c-2f80-4500-9ae1-cf409909b93a","system_id":"levelo_inurba_marseille","lat":43.292498,"lon":5.409014,"is_reserved":false,"is_disabled":false,"rental_uris":{"android":"levelo://app?vid=ae18926c-2f80-4500-9ae1-cf409909b93a","ios":"levelo://app?vid=ae18926c-2f80-4500-9ae1-cf409909b93a"},"vehicle_type_id":"4","last_reported":1769937613,"current_range_meters":10800,"station_id":"ce4bh192rcd13ifvqdc0","pricing_plan_id":"cebpf4jnsgd1na2vs0mg"},{"bike_id":"af1e5efa-1423-4eee-9d0b-b4d3c012e705","system_id":"levelo_inurba_marseille","lat":43.30918,"lon":5.40182,"is_reserved":false,"is_disabled":false,"rental_uris":{"android":"levelo://app?vid=af1e5efa-1423-4eee-9d0b-b4d3c012e705","ios":"levelo://app?vid=af1e5efa-1423-4eee-9d0b-b4d3c012e705"},"vehicle_type_id":"4","last_reported":1769937613,"current_range_meters":10800,"station_id":"ce4bgvp2rcd13ifvqct0","pricing_plan_id":"cebpf4jnsgd1na2vs0mg"},{"bike_id":"afe84324-1d29-4315-ac45-bffe6560ad9a","system_id":"levelo_inurba_marseille","lat":43.29906,"lon":5.43682,"is_reserved":false,"is_disabled":false,"rental_uris":{"android":"levelo://app?vid=afe84324-1d29-4315-ac45-bffe6560ad9a","ios":"levelo://app?vid=afe84324-1d29-4315-ac45-bffe6560ad9a"},"vehicle_type_id":"4","last_reported":1769937613,"current_range_meters":10800,"station_id":"ce4bhpp2rcd13ifvqhfg","pricing_plan_id":"cebpf4jnsgd1na2vs0mg"},{"bike_id":"e88e1399-a6a6-4d7e-b9d2-c3d0c70dccda","system_id":"levelo_inurba_marseille","lat":43.23966,"lon":5.3663,"is_reserved":false,"is_disabled":false,"rental_uris":{"android":"levelo://app?vid=e88e1399-a6a6-4d7e-b9d2-c3d0c70dccda","ios":"levelo://app?vid=e88e1399-a6a6-4d7e-b9d2-c3d0c70dccda"},"vehicle_type_id":"4","last_reported":1769937613,"current_range_meters":10800,"station_id":"ce4bhi12rcd13ifvqfp0","pricing_plan_id":"cebpf4jnsgd1na2vs0mg"},{"bike_id":"a5c77962-cc3c-4612-90c4-1e017df7a73c","system_id":"levelo_inurba_marseille","lat":43.2734,"lon":5.39063,"is_reserved":false,"is_disabled":false,"rental_uris":{"android":"levelo://app?vid=a5c77962-cc3c-4612-90c4-1e017df7a73c","ios":"levelo://app?vid=a5c77962-cc3c-4612-90c4-1e017df7a73c"},"vehicle_type_id":"4","last_reported":1769937613,"current_range_meters":10800,"station_id":"ce4bhgp2rcd13ifvqfe0","pricing_plan_id":"cebpf4jnsgd1na2vs0mg"},{"bike_id":"2c2c4a97-bd3d-479d-8fa3-2384b522232d","system_id":"levelo_inurba_marseille","lat":43.253931,"lon":5.418922,"is_reserved":false,"is_disabled":false,"rental_uris":{"android":"levelo://app?vid=2c2c4a97-bd3d-479d-8fa3-2384b522232d","ios":"levelo://app?vid=2c2c4a97-bd3d-479d-8fa3-2384b522232d"},"vehicle_type_id":"4","last_reported":1769937613,"current_range_meters":10800,"station_id":"","pricing_plan_id":"cebpf4jnsgd1na2vs0mg"},{"bike_id":"42f3911a-939e-4889-9561-3c06517c8f7e","system_id":"levelo_inurba_marseille","lat":43.26734,"lon":5.39535,"is_reserved":false,"is_disabled":true,"rental_uris":{"android":"levelo://app?vid=42f3911a-939e-4889-9561-3c06517c8f7e","ios":"levelo://app?vid=42f3911a-939e-4889-9561-3c06517c8f7e"},"vehicle_type_id":"4","last_reported":1769937613,"current_range_meters":11200,"station_id":"ce4bhh12rcd13ifvqfg0","pricing_plan_id":"cebpf4jnsgd1na2vs0mg"},{"bike_id":"a4a78e26-f7cc-42fe-a5d9-4836263a9354","system_id":"levelo_inurba_marseille","lat":43.33184,"lon":5.3768,"is_reserved":false,"is_disabled":false,"rental_uris":{"android":"levelo://app?vid=a4a78e26-f7cc-42fe-a5d9-4836263a9354","ios":"levelo://app?vid=a4a78e26-f7cc-42fe-a5d9-4836263a9354"},"vehicle_type_id":"4","last_reported":1769937613,"current_range_meters":11200,"station_id":"st_d46cu089ee8s73dldbu0","pricing_plan_id":"cebpf4jnsgd1na2vs0mg"},{"bike_id":"182de0a5-2ac9-441b-9a5e-741871822d76","system_id":"levelo_inurba_marseille","lat":43.23199,"lon":5.35549,"is_reserved":false,"is_disabled":false,"rental_uris":{"android":"levelo://app?vid=182de0a5-2ac9-441b-9a5e-741871822d76","ios":"levelo://app?vid=182de0a5-2ac9-441b-9a5e-741871822d76"},"vehicle_type_id":"4","last_reported":1769937613,"current_range_meters":11200,"station_id":"ce4bhu92rcd13ifvqi70","pricing_plan_id":"cebpf4jnsgd1na2vs0mg"},{"bike_id":"3bdfdbfd-4a2c-4cef-a1ef-828fe31f005e","system_id":"levelo_inurba_marseille","lat":43.24162,"lon":5.36407,"is_reserved":false,"is_disabled":false,"rental_uris":{"android":"levelo://app?vid=3bdfdbfd-4a2c-4cef-a1ef-828fe31f005e","ios":"levelo://app?vid=3bdfdbfd-4a2c-4cef-a1ef-828fe31f005e"},"vehicle_type_id":"4","last_reported":1769937613,"current_range_meters":11200,"station_id":"cpo36qri1sfpv3e86is0","pricing_plan_id":"cebpf4jnsgd1na2vs0mg"},{"bike_id":"699fc3ea-19e6-4008-9215-dab40aaf679b","system_id":"levelo_inurba_marseille","lat":43.3059,"lon":5.37255,"is_reserved":false,"is_disabled":false,"rental_uris":{"android":"levelo://app?vid=699fc3ea-19e6-4008-9215-dab40aaf679b","ios":"levelo://app?vid=699fc3ea-19e6-4008-9215-dab40aaf679b"},"vehicle_type_id":"4","last_reported":1769937613,"current_range_meters":11200,"station_id":"ce4bgqh2rcd13ifvqc4g","pricing_plan_id":"cebpf4jnsgd1na2vs0mg"},{"bike_id":"a8f5d52d-e62b-4d66-a84a-4feb1ec831ef","system_id":"levelo_inurba_marseille","lat":43.29162,"lon":5.36096,"is_reserved":false,"is_disabled":false,"rental_uris":{"android":"levelo://app?vid=a8f5d52d-e62b-4d66-a84a-4feb1ec831ef","ios":"levelo://app?vid=a8f5d52d-e62b-4d66-a84a-4feb1ec831ef"},"vehicle_type_id":"4","last_reported":1769937613,"current_range_meters":11200,"station_id":"","pricing_plan_id":"cebpf4jnsgd1na2vs0mg"},{"bike_id":"4a54a576-b4c1-4a36-b8e1-0bb96c9429b6","system_id":"levelo_inurba_marseille","lat":43.279699,"lon":5.441763,"is_reserved":false,"is_disabled":false,"rental_uris":{"android":"levelo://app?vid=4a54a576-b4c1-4a36-b8e1-0bb96c9429b6","ios":"levelo://app?vid=4a54a576-b4c1-4a36-b8e1-0bb96c9429b6"},"vehicle_type_id":"4","last_reported":1769937613,"current_range_meters":11200,"station_id":"","pricing_plan_id":"cebpf4jnsgd1na2vs0mg"},{"bike_id":"5d0d47a8-756c-475a-969a-b713ee9b7b0d","system_id":"levelo_inurba_marseille","lat":43.31061,"lon":5.393391,"is_reserved":false,"is_disabled":false,"rental_uris":{"android":"levelo://app?vid=5d0d47a8-756c-475a-969a-b713ee9b7b0d","ios":"levelo://app?vid=5d0d47a8-756c-475a-969a-b713ee9b7b0d"},"vehicle_type_id":"4","last_reported":1769937613,"current_range_meters":11600,"station_id":"","pricing_plan_id":"cebpf4jnsgd1na2vs0mg"},{"bike_id":"2ebe3d1a-eb9d-4119-9eb6-9d700362d893","system_id":"levelo_inurba_marseille","lat":43.2416,"lon":5.39752,"is_reserved":false,"is_disabled":false,"rental_uris":{"android":"levelo://app?vid=2ebe3d1a-eb9d-4119-9eb6-9d700362d893","ios":"levelo://app?vid=2ebe3d1a-eb9d-4119-9eb6-9d700362d893"},"vehicle_type_id":"4","last_reported":1769937613,"current_range_meters":11600,"station_id":"ce4bhn12rcd13ifvqgpg","pricing_plan_id":"cebpf4jnsgd1na2vs0mg"},{"bike_id":"c727b0e5-6d02-4d30-8ab7-176d38c9e150","system_id":"levelo_inurba_marseille","lat":43.317211,"lon":5.423931,"is_reserved":false,"is_disabled":false,"rental_uris":{"android":"levelo://app?vid=c727b0e5-6d02-4d30-8ab7-176d38c9e150","ios":"levelo://app?vid=c727b0e5-6d02-4d30-8ab7-176d38c9e150"},"vehicle_type_id":"4","last_reported":1769937613,"current_range_meters":11600,"station_id":"ce4bhp92rcd13ifvqhbg","pricing_plan_id":"cebpf4jnsgd1na2vs0mg"},{"bike_id":"3b92c8bc-0cff-474f-afbf-78db16afe2d8","system_id":"levelo_inurba_marseille","lat":43.3076,"lon":5.40705,"is_reserved":false,"is_disabled":false,"rental_uris":{"android":"levelo://app?vid=3b92c8bc-0cff-474f-afbf-78db16afe2d8","ios":"levelo://app?vid=3b92c8bc-0cff-474f-afbf-78db16afe2d8"},"vehicle_type_id":"4","last_reported":1769937613,"current_range_meters":11600,"station_id":"","pricing_plan_id":"cebpf4jnsgd1na2vs0mg"},{"bike_id":"3aad8f5e-d4bd-49bb-acbc-8f1a4d891281","system_id":"levelo_inurba_marseille","lat":43.292552,"lon":5.368488,"is_reserved":false,"is_disabled":false,"rental_uris":{"android":"levelo://app?vid=3aad8f5e-d4bd-49bb-acbc-8f1a4d891281","ios":"levelo://app?vid=3aad8f5e-d4bd-49bb-acbc-8f1a4d891281"},"vehicle_type_id":"4","last_reported":1769937613,"current_range_meters":11600,"station_id":"ce4bhbp2rcd13ifvqesg","pricing_plan_id":"cebpf4jnsgd1na2vs0mg"},{"bike_id":"79edff70-1f72-40ce-929a-ac4782b62d06","system_id":"levelo_inurba_marseille","lat":43.28867,"lon":5.42515,"is_reserved":false,"is_disabled":false,"rental_uris":{"android":"levelo://app?vid=79edff70-1f72-40ce-929a-ac4782b62d06","ios":"levelo://app?vid=79edff70-1f72-40ce-929a-ac4782b62d06"},"vehicle_type_id":"4","last_reported":1769937613,"current_range_meters":11600,"station_id":"st_d3b462108ojc7389ooeg","pricing_plan_id":"cebpf4jnsgd1na2vs0mg"},{"bike_id":"139b021b-e06e-4f51-80db-d6697d1dd1aa","system_id":"levelo_inurba_marseille","lat":43.26067,"lon":5.39393,"is_reserved":false,"is_disabled":false,"rental_uris":{"android":"levelo://app?vid=139b021b-e06e-4f51-80db-d6697d1dd1aa","ios":"levelo://app?vid=139b021b-e06e-4f51-80db-d6697d1dd1aa"},"vehicle_type_id":"4","last_reported":1769937613,"current_range_meters":11600,"station_id":"ce4bhh92rcd13ifvqfj0","pricing_plan_id":"cebpf4jnsgd1na2vs0mg"},{"bike_id":"3af275a8-d1ad-4abc-8eb9-6913e4f0f729","system_id":"levelo_inurba_marseille","lat":43.26807,"lon":5.39409,"is_reserved":false,"is_disabled":false,"rental_uris":{"android":"levelo://app?vid=3af275a8-d1ad-4abc-8eb9-6913e4f0f729","ios":"levelo://app?vid=3af275a8-d1ad-4abc-8eb9-6913e4f0f729"},"vehicle_type_id":"4","last_reported":1769937613,"current_range_meters":11600,"station_id":"ce4bhh12rcd13ifvqfg0","pricing_plan_id":"cebpf4jnsgd1na2vs0mg"},{"bike_id":"94cbe5a1-172e-4cc9-bb27-f3369919b100","system_id":"levelo_inurba_marseille","lat":43.24073,"lon":5.37726,"is_reserved":false,"is_disabled":false,"rental_uris":{"android":"levelo://app?vid=94cbe5a1-172e-4cc9-bb27-f3369919b100","ios":"levelo://app?vid=94cbe5a1-172e-4cc9-bb27-f3369919b100"},"vehicle_type_id":"4","last_reported":1769937613,"current_range_meters":12000,"station_id":"ce4bhnp2rcd13ifvqgvg","pricing_plan_id":"cebpf4jnsgd1na2vs0mg"},{"bike_id":"3b6aa705-27f6-4d9f-9ced-8f2916c79c9e","system_id":"levelo_inurba_marseille","lat":43.30803,"lon":5.37647,"is_reserved":false,"is_disabled":false,"rental_uris":{"android":"levelo://app?vid=3b6aa705-27f6-4d9f-9ced-8f2916c79c9e","ios":"levelo://app?vid=3b6aa705-27f6-4d9f-9ced-8f2916c79c9e"},"vehicle_type_id":"4","last_reported":1769937613,"current_range_meters":12000,"station_id":"ce4bgv92rcd13ifvqcq0","pricing_plan_id":"cebpf4jnsgd1na2vs0mg"},{"bike_id":"297d13dc-a8fe-4c7e-ab4e-c67c01d72bc9","system_id":"levelo_inurba_marseille","lat":43.26687,"lon":5.38272,"is_reserved":false,"is_disabled":false,"rental_uris":{"android":"levelo://app?vid=297d13dc-a8fe-4c7e-ab4e-c67c01d72bc9","ios":"levelo://app?vid=297d13dc-a8fe-4c7e-ab4e-c67c01d72bc9"},"vehicle_type_id":"4","last_reported":1769937613,"current_range_meters":12000,"station_id":"ce4bhg92rcd13ifvqf90","pricing_plan_id":"cebpf4jnsgd1na2vs0mg"},{"bike_id":"f4bef384-efce-4dfc-97cd-21cc8e160d07","system_id":"levelo_inurba_marseille","lat":43.31721,"lon":5.42397,"is_reserved":false,"is_disabled":false,"rental_uris":{"android":"levelo://app?vid=f4bef384-efce-4dfc-97cd-21cc8e160d07","ios":"levelo://app?vid=f4bef384-efce-4dfc-97cd-21cc8e160d07"},"vehicle_type_id":"4","last_reported":1769937613,"current_range_meters":12000,"station_id":"ce4bhp92rcd13ifvqhbg","pricing_plan_id":"cebpf4jnsgd1na2vs0mg"},{"bike_id":"d3253cf1-2246-4b9c-902d-6676b439fd5e","system_id":"levelo_inurba_marseille","lat":43.21759,"lon":5.34598,"is_reserved":false,"is_disabled":false,"rental_uris":{"android":"levelo://app?vid=d3253cf1-2246-4b9c-902d-6676b439fd5e","ios":"levelo://app?vid=d3253cf1-2246-4b9c-902d-6676b439fd5e"},"vehicle_type_id":"4","last_reported":1769937613,"current_range_meters":12000,"station_id":"st_cvj6r9ubvosntc0bgbag","pricing_plan_id":"cebpf4jnsgd1na2vs0mg"},{"bike_id":"cd51f784-a77c-4831-b04b-afe6fd280c95","system_id":"levelo_inurba_marseille","lat":43.23208,"lon":5.35549,"is_reserved":false,"is_disabled":false,"rental_uris":{"android":"levelo://app?vid=cd51f784-a77c-4831-b04b-afe6fd280c95","ios":"levelo://app?vid=cd51f784-a77c-4831-b04b-afe6fd280c95"},"vehicle_type_id":"4","last_reported":1769937613,"current_range_meters":12000,"station_id":"ce4bhu92rcd13ifvqi70","pricing_plan_id":"cebpf4jnsgd1na2vs0mg"},{"bike_id":"2b052bd0-3bc4-43b0-8598-b1177ae4951e","system_id":"levelo_inurba_marseille","lat":43.302795,"lon":5.377174,"is_reserved":false,"is_disabled":false,"rental_uris":{"android":"levelo://app?vid=2b052bd0-3bc4-43b0-8598-b1177ae4951e","ios":"levelo://app?vid=2b052bd0-3bc4-43b0-8598-b1177ae4951e"},"vehicle_type_id":"4","last_reported":1769937613,"current_range_meters":12400,"station_id":"ce4bguh2rcd13ifvqcj0","pricing_plan_id":"cebpf4jnsgd1na2vs0mg"},{"bike_id":"1ffbf4c6-ed2a-4597-a740-6d4a84e10707","system_id":"levelo_inurba_marseille","lat":43.27907,"lon":5.40619,"is_reserved":false,"is_disabled":false,"rental_uris":{"android":"levelo://app?vid=1ffbf4c6-ed2a-4597-a740-6d4a84e10707","ios":"levelo://app?vid=1ffbf4c6-ed2a-4597-a740-6d4a84e10707"},"vehicle_type_id":"4","last_reported":1769937613,"current_range_meters":12400,"station_id":"","pricing_plan_id":"cebpf4jnsgd1na2vs0mg"},{"bike_id":"a01b0c10-1531-44d5-ba0b-45624517091d","system_id":"levelo_inurba_marseille","lat":43.2823,"lon":5.39041,"is_reserved":false,"is_disabled":false,"rental_uris":{"android":"levelo://app?vid=a01b0c10-1531-44d5-ba0b-45624517091d","ios":"levelo://app?vid=a01b0c10-1531-44d5-ba0b-45624517091d"},"vehicle_type_id":"4","last_reported":1769937613,"current_range_meters":12400,"station_id":"ce4bhn92rcd13ifvqgsg","pricing_plan_id":"cebpf4jnsgd1na2vs0mg"},{"bike_id":"c88f9465-a510-4461-98b8-3d9f208918d0","system_id":"levelo_inurba_marseille","lat":43.22558,"lon":5.41653,"is_reserved":false,"is_disabled":false,"rental_uris":{"android":"levelo://app?vid=c88f9465-a510-4461-98b8-3d9f208918d0","ios":"levelo://app?vid=c88f9465-a510-4461-98b8-3d9f208918d0"},"vehicle_type_id":"4","last_reported":1769937613,"current_range_meters":12400,"station_id":"st_d2o4gvlbi1j2169b742g","pricing_plan_id":"cebpf4jnsgd1na2vs0mg"},