{"last_updated":1727785076,"ttl":60,"version":"2.2","data":{"bikes":[{"bike_id":"4d3cd05f-bdaf-46df-aa6a-2f774239d020","system_id":"levelo_inurba_marseille","lat":43.24389,"lon":5.37061,"is_reserved":false,"is_disabled":false,"rental_uris":{"android":"levelo://app?vid=4d3cd05f-bdaf-46df-aa6a-2f774239d020","ios":"levelo://app?vid=4d3cd05f-bdaf-46df-aa6a-2f774239d020"},"vehicle_type_id":"4","last_reported":1727785076,"current_range_meters":24000,"station_id":"ce4bhhh2rcd13ifvqfk0","pricing_plan_id":"cebpf4jnsgd1na2vs0mg"},{"bike_id":"9f41d294-0e92-442d-b078-d41772fd4b68","system_id":"levelo_inurba_marseille","lat":43.29175,"lon":5.37147,"is_reserved":false,"is_disabled":false,"rental_uris":{"android":"levelo://app?vid=9f41d294-0e92-442d-b078-d41772fd4b68","ios":"levelo://app?vid=9f41d294-0e92-442d-b078-d41772fd4b68"},"vehicle_type_id":"4","last_reported":1727785076,"current_range_meters":34800,"station_id":"ce4bha92rcd13ifvqeh0","pricing_plan_id":"cebpf4jnsgd1na2vs0mg"},{"bike_id":"4a48e797-cf2c-42df-81d0-c7c5c98ee50f","system_id":"levelo_inurba_marseille","lat":43.33605,"lon":5.41033,"is_reserved":false,"is_disabled":false,"rental_uris":{"android":"levelo://app?vid=4a48e797-cf2c-42df-81d0-c7c5c98ee50f","ios":"levelo://app?vid=4a48e797-cf2c-42df-81d0-c7c5c98ee50f"},"vehicle_type_id":"4","last_reported":1727785076,"current_range_meters":24000,"station_id":"ce4bhqh2rcd13ifvqhmg","pricing_plan_id":"cebpf4jnsgd1na2vs0mg"},{"bike_id":"45278508-ffed-42b8-b0fa-7766eabb2075","system_id":"levelo_inurba_marseille","lat":43.34144,"lon":5.40907,"is_reserved":false,"is_disabled":false,"rental_uris":{"android":"levelo://app?vid=45278508-ffed-42b8-b0fa-7766eabb2075","ios":"levelo://app?vid=45278508-ffed-42b8-b0fa-7766eabb2075"},"vehicle_type_id":"4","last_reported":1727785076,"current_range_meters":39200,"station_id":"ce4bhqh2rcd13ifvqhlg","pricing_plan_id":"cebpf4jnsgd1na2vs0mg"},{"bike_id":"f215035d-f5b6-43e8-99f4-4c5f82476236","system_id":"levelo_inurba_marseille","lat":43.29372,"lon":5.37858,"is_reserved":false,"is_disabled":false,"rental_uris":{"android":"levelo://app?vid=f215035d-f5b6-43e8-99f4-4c5f82476236","ios":"levelo://app?vid=f215035d-f5b6-43e8-99f4-4c5f82476236"},"vehicle_type_id":"4","last_reported":1727785076,"current_range_meters":38000,"station_id":"ce4bgjh2rcd13ifvqbf0","pricing_plan_id":"cebpf4jnsgd1na2vs0mg"},{"bike_id":"dad62afc-f55e-4d7d-8a4c-c944cff61821","system_id":"levelo_inurba_marseille","lat":43.24398,"lon":5.3704,"is_reserved":false,"is_disabled":false,"rental_uris":{"android":"levelo://app?vid=dad62afc-f55e-4d7d-8a4c-c944cff61821","ios":"levelo://app?vid=dad62afc-f55e-4d7d-8a4c-c944cff61821"},"vehicle_type_id":"4","last_reported":1727785076,"current_range_meters":32000,"station_id":"ce4bhhh2rcd13ifvqfk0","pricing_plan_id":"cebpf4jnsgd1na2vs0mg"},{"bike_id":"4e94225f-8fb8-4cc8-a30e-3b7edaea1e7c","system_id":"levelo_inurba_marseille","lat":43.29911,"lon":5.38135,"is_reserved":false,"is_disabled":false,"rental_uris":{"android":"levelo://app?vid=4e94225f-8fb8-4cc8-a30e-3b7edaea1e7c","ios":"levelo://app?vid=4e94225f-8fb8-4cc8-a30e-3b7edaea1e7c"},"vehicle_type_id":"4","last_reported":1727785076,"current_range_meters":38000,"station_id":"ce4bgj12rcd13ifvqbc0","pricing_plan_id":"cebpf4jnsgd1na2vs0mg"},{"bike_id":"513c5bd8-bf1f-4410-a827-c1858341840c","system_id":"levelo_inurba_marseille","lat":43.24385,"lon":5.37055,"is_reserved":false,"is_disabled":false,"rental_uris":{"android":"levelo://app?vid=513c5bd8-bf1f-4410-a827-c1858341840c","ios":"levelo://app?vid=513c5bd8-bf1f-4410-a827-c1858341840c"},"vehicle_type_id":"4","last_reported":1727785076,"current_range_meters":28400,"station_id":"ce4bhhh2rcd13ifvqfk0","pricing_plan_id":"cebpf4jnsgd1na2vs0mg"},{"bike_id":"f7ab1ff5-e3c9-48ef-bb52-3f7e8d2513a3","system_id":"levelo_inurba_marseille","lat":43.30534,"lon":5.36708,"is_reserved":false,"is_disabled":false,"rental_uris":{"android":"levelo://app?vid=f7ab1ff5-e3c9-48ef-bb52-3f7e8d2513a3","ios":"levelo://app?vid=f7ab1ff5-e3c9-48ef-bb52-3f7e8d2513a3"},"vehicle_type_id":"4","last_reported":1727785076,"current_range_meters":6400,"station_id":"ce4bgrp2rcd13ifvqc9g","pricing_plan_id":"cebpf4jnsgd1na2vs0mg"},{"bike_id":"89a04316-5fe6-4814-b577-c2af214f628a","system_id":"levelo_inurba_marseille","lat":43.31356,"lon":5.36706,"is_reserved":false,"is_disabled":false,"rental_uris":{"android":"levelo://app?vid=89a04316-5fe6-4814-b577-c2af214f628a","ios":"levelo://app?vid=89a04316-5fe6-4814-b577-c2af214f628a"},"vehicle_type_id":"4","last_reported":1727785076,"current_range_meters":17200,"station_id":"ce4bgr92rcd13ifvqc6g","pricing_plan_id":"cebpf4jnsgd1na2vs0mg"},{"bike_id":"c2bf92e5-d159-48ae-9be4-ccff36ece381","system_id":"levelo_inurba_marseille","lat":43.26683,"lon":5.38266,"is_reserved":false,"is_disabled":false,"rental_uris":{"android":"levelo://app?vid=c2bf92e5-d159-48ae-9be4-ccff36ece381","ios":"levelo://app?vid=c2bf92e5-d159-48ae-9be4-ccff36ece381"},"vehicle_type_id":"4","last_reported":1727785076,"current_range_meters":30400,"station_id":"ce4bhg92rcd13ifvqf90","pricing_plan_id":"cebpf4jnsgd1na2vs0mg"},{"bike_id":"96fc2d61-401a-4679-b3d0-fe240de168f4","system_id":"levelo_inurba_marseille","lat":43.33762,"lon":5.3745,"is_reserved":false,"is_disabled":false,"rental_uris":{"android":"levelo://app?vid=96fc2d61-401a-4679-b3d0-fe240de168f4","ios":"levelo://app?vid=96fc2d61-401a-4679-b3d0-fe240de168f4"},"vehicle_type_id":"4","last_reported":1727785076,"current_range_meters":38800,"station_id":"","pricing_plan_id":"cebpf4jnsgd1na2vs0mg"},{"bike_id":"2cd5cf64-7bd7-44fb-8824-407a58c677f2","system_id":"levelo_inurba_marseille","lat":43.29917,"lon":5.37464,"is_reserved":false,"is_disabled":false,"rental_uris":{"android":"levelo://app?vid=2cd5cf64-7bd7-44fb-8824-407a58c677f2","ios":"levelo://app?vid=2cd5cf64-7bd7-44fb-8824-407a58c677f2"},"vehicle_type_id":"4","last_reported":1727785076,"current_range_meters":28400,"station_id":"ce4bgjh2rcd13ifvqbg0","pricing_plan_id":"cebpf4jnsgd1na2vs0mg"},{"bike_id":"bb4b662a-ee89-4f01-884b-960d14f67fbc","system_id":"levelo_inurba_marseille","lat":43.29272,"lon":5.36841,"is_reserved":false,"is_disabled":false,"rental_uris":{"android":"levelo://app?vid=bb4b662a-ee89-4f01-884b-960d14f67fbc","ios":"levelo://app?vid=bb4b662a-ee89-4f01-884b-960d14f67fbc"},"vehicle_type_id":"4","last_reported":1727785076,"current_range_meters":28400,"station_id":"ce4bhbp2rcd13ifvqesg","pricing_plan_id":"cebpf4jnsgd1na2vs0mg"},{"bike_id":"5f047b3a-008f-4fb2-adba-915aa292918b","system_id":"levelo_inurba_marseille","lat":43.24084,"lon":5.37746,"is_reserved":false,"is_disabled":false,"rental_uris":{"android":"levelo://app?vid=5f047b3a-008f-4fb2-adba-915aa292918b","ios":"levelo://app?vid=5f047b3a-008f-4fb2-adba-915aa292918b"},"vehicle_type_id":"4","last_reported":1727785076,"current_range_meters":4400,"station_id":"ce4bhnp2rcd13ifvqgvg","pricing_plan_id":"cebpf4jnsgd1na2vs0mg"},{"bike_id":"2c0e794a-30f4-49de-9c6a-06f4f686c801","system_id":"levelo_inurba_marseille","lat":43.28481,"lon":5.38409,"is_reserved":false,"is_disabled":false,"rental_uris":{"android":"levelo://app?vid=2c0e794a-30f4-49de-9c6a-06f4f686c801","ios":"levelo://app?vid=2c0e794a-30f4-49de-9c6a-06f4f686c801"},"vehicle_type_id":"4","last_reported":1727785076,"current_range_meters":20800,"station_id":"ce4bh512rcd13ifvqe3g","pricing_plan_id":"cebpf4jnsgd1na2vs0mg"},{"bike_id":"9e03787a-2278-4bc0-9f90-d1b5cb4d5e8e","system_id":"levelo_inurba_marseille","lat":43.30536,"lon":5.36535,"is_reserved":false,"is_disabled":false,"rental_uris":{"android":"levelo://app?vid=9e03787a-2278-4bc0-9f90-d1b5cb4d5e8e","ios":"levelo://app?vid=9e03787a-2278-4bc0-9f90-d1b5cb4d5e8e"},"vehicle_type_id":"4","last_reported":1727785076,"current_range_meters":35600,"station_id":"ce4bgs12rcd13ifvqcag","pricing_plan_id":"cebpf4jnsgd1na2vs0mg"},{"bike_id":"8f1780a2-f7d8-4984-96f3-4ef093b0331a","system_id":"levelo_inurba_marseille","lat":43.28856,"lon":5.39316,"is_reserved":false,"is_disabled":false,"rental_uris":{"android":"levelo://app?vid=8f1780a2-f7d8-4984-96f3-4ef093b0331a","ios":"levelo://app?vid=8f1780a2-f7d8-4984-96f3-4ef093b0331a"},"vehicle_type_id":"4","last_reported":1727785076,"current_range_meters":18000,"station_id":"ce4bh2p2rcd13ifvqdi0","pricing_plan_id":"cebpf4jnsgd1na2vs0mg"},{"bike_id":"72c175b3-8814-4ae8-b803-a051779554ca","system_id":"levelo_inurba_marseille","lat":43.29904,"lon":5.38138,"is_reserved":false,"is_disabled":false,"rental_uris":{"android":"levelo://app?vid=72c175b3-8814-4ae8-b803-a051779554ca","ios":"levelo://app?vid=72c175b3-8814-4ae8-b803-a051779554ca"},"vehicle_type_id":"4","last_reported":1727785076,"current_range_meters":34000,"station_id":"ce4bgj12rcd13ifvqbc0","pricing_plan_id":"cebpf4jnsgd1na2vs0mg"},{"bike_id":"2b296205-0c7c-467c-adf5-00cda03d15aa","system_id":"levelo_inurba_marseille","lat":43.28723,"lon":5.37932,"is_reserved":false,"is_disabled":false,"rental_uris":{"android":"levelo://app?vid=2b296205-0c7c-467c-adf5-00cda03d15aa","ios":"levelo://app?vid=2b296205-0c7c-467c-adf5-00cda03d15aa"},"vehicle_type_id":"4","last_reported":1727785076,"current_range_meters":38800,"station_id":"ce4bh9p2rcd13ifvqec0","pricing_plan_id":"cebpf4jnsgd1na2vs0mg"},{"bike_id":"74dcd09d-9212-4b44-9964-c7ba6bc4fdfc","system_id":"levelo_inurba_marseille","lat":43.25943,"lon":5.40905,"is_reserved":false,"is_disabled":false,"rental_uris":{"android":"levelo://app?vid=74dcd09d-9212-4b44-9964-c7ba6bc4fdfc","ios":"levelo://app?vid=74dcd09d-9212-4b44-9964-c7ba6bc4fdfc"},"vehicle_type_id":"4","last_reported":1727785076,"current_range_meters":30000,"station_id":"ce4bhm92rcd13ifvqglg","pricing_plan_id":"cebpf4jnsgd1na2vs0mg"},{"bike_id":"df6c3633-bc05-4cc6-9fc7-c8831364a947","system_id":"levelo_inurba_marseille","lat":43.337444,"lon":5.374475,"is_reserved":false,"is_disabled":false,"rental_uris":{"android":"levelo://app?vid=df6c3633-bc05-4cc6-9fc7-c8831364a947","ios":"levelo://app?vid=df6c3633-bc05-4cc6-9fc7-c8831364a947"},"vehicle_type_id":"4","last_reported":1727785076,"current_range_meters":37600,"station_id":"","pricing_plan_id":"cebpf4jnsgd1na2vs0mg"},{"bike_id":"d49c5623-5fed-4c58-8816-8efe931717e3","system_id":"levelo_inurba_marseille","lat":43.28482,"lon":5.38539,"is_reserved":false,"is_disabled":false,"rental_uris":{"android":"levelo://app?vid=d49c5623-5fed-4c58-8816-8efe931717e3","ios":"levelo://app?vid=d49c5623-5fed-4c58-8816-8efe931717e3"},"vehicle_type_id":"4","last_reported":1727785076,"current_range_meters":38800,"station_id":"ce4bh8p2rcd13ifvqeb0","pricing_plan_id":"cebpf4jnsgd1na2vs0mg"},{"bike_id":"e800e260-db0f-4e29-85bd-3defa56158c3","system_id":"levelo_inurba_marseille","lat":43.274923,"lon":5.396382,"is_reserved":false,"is_disabled":false,"rental_uris":{"android":"levelo://app?vid=e800e260-db0f-4e29-85bd-3defa56158c3","ios":"levelo://app?vid=e800e260-db0f-4e29-85bd-3defa56158c3"},"vehicle_type_id":"4","last_reported":1727785076,"current_range_meters":28000,"station_id":"ce4bhdp2rcd13ifvqf20","pricing_plan_id":"cebpf4jnsgd1na2vs0mg"},{"bike_id":"8a6771bf-caa7-45b8-a67c-b42d94664051","system_id":"levelo_inurba_marseille","lat":43.30149,"lon":5.38084,"is_reserved":false,"is_disabled":false,"rental_uris":{"android":"levelo://app?vid=8a6771bf-caa7-45b8-a67c-b42d94664051","ios":"levelo://app?vid=8a6771bf-caa7-45b8-a67c-b42d94664051"},"vehicle_type_id":"4","last_reported":1727785076,"current_range_meters":24000,"station_id":"ce4bgjp2rcd13ifvqbh0","pricing_plan_id":"cebpf4jnsgd1na2vs0mg"},{"bike_id":"5d350a1b-192f-4cfd-91df-42cbbf8cd788","system_id":"levelo_inurba_marseille","lat":43.289581,"lon":5.366323,"is_reserved":false,"is_disabled":false,"rental_uris":{"android":"levelo://app?vid=5d350a1b-192f-4cfd-91df-42cbbf8cd788","ios":"levelo://app?vid=5d350a1b-192f-4cfd-91df-42cbbf8cd788"},"vehicle_type_id":"4","last_reported":1727785076,"current_range_meters":3600,"station_id":"ce4bhah2rcd13ifvqej0","pricing_plan_id":"cebpf4jnsgd1na2vs0mg"},{"bike_id":"3d11f216-fb42-4730-9044-32a3cf293045","system_id":"levelo_inurba_marseille","lat":43.302429,"lon":5.374441,"is_reserved":false,"is_disabled":false,"rental_uris":{"android":"levelo://app?vid=3d11f216-fb42-4730-9044-32a3cf293045","ios":"levelo://app?vid=3d11f216-fb42-4730-9044-32a3cf293045"},"vehicle_type_id":"4","last_reported":1727785076,"current_range_meters":5600,"station_id":"ce4bguh2rcd13ifvqckg","pricing_plan_id":"cebpf4jnsgd1na2vs0mg"},{"bike_id":"cda7da42-3b1a-4306-ac4b-c0997b8af557","system_id":"levelo_inurba_marseille","lat":43.33026,"lon":5.39037,"is_reserved":false,"is_disabled":false,"rental_uris":{"android":"levelo://app?vid=cda7da42-3b1a-4306-ac4b-c0997b8af557","ios":"levelo://app?vid=cda7da42-3b1a-4306-ac4b-c0997b8af557"},"vehicle_type_id":"4","last_reported":1727785076,"current_range_meters":16400,"station_id":"ce4bhr92rcd13ifvqhrg","pricing_plan_id":"cebpf4jnsgd1na2vs0mg"},{"bike_id":"67971196-7a2f-4541-928e-d72a0c5995eb","system_id":"levelo_inurba_marseille","lat":43.28036,"lon":5.36961,"is_reserved":false,"is_disabled":false,"rental_uris":{"android":"levelo://app?vid=67971196-7a2f-4541-928e-d72a0c5995eb","ios":"levelo://app?vid=67971196-7a2f-4541-928e-d72a0c5995eb"},"vehicle_type_id":"4","last_reported":1727785076,"current_range_meters":36800,"station_id":"ce4bha12rcd13ifvqef0","pricing_plan_id":"cebpf4jnsgd1na2vs0mg"},{"bike_id":"4a0cfbf3-aa34-4cb6-8530-1df0e6aeb2e1","system_id":"levelo_inurba_marseille","lat":43.28356,"lon":5.38102,"is_reserved":false,"is_disabled":false,"rental_uris":{"android":"levelo://app?vid=4a0cfbf3-aa34-4cb6-8530-1df0e6aeb2e1","ios":"levelo://app?vid=4a0cfbf3-aa34-4cb6-8530-1df0e6aeb2e1"},"vehicle_type_id":"4","last_reported":1727785076,"current_range_meters":38400,"station_id":"ce4bh412rcd13ifvqdr0","pricing_plan_id":"cebpf4jnsgd1na2vs0mg"},{"bike_id":"07bae44a-3c21-410c-bd81-38def0f93d17","system_id":"levelo_inurba_marseille","lat":43.25004,"lon":5.3892,"is_reserved":false,"is_disabled":false,"rental_uris":{"android":"levelo://app?vid=07bae44a-3c21-410c-bd81-38def0f93d17","ios":"levelo://app?vid=07bae44a-3c21-410c-bd81-38def0f93d17"},"vehicle_type_id":"4","last_reported":1727785076,"current_range_meters":24400,"station_id":"ce4bhgp2rcd13ifvqfd0","pricing_plan_id":"cebpf4jnsgd1na2vs0mg"},{"bike_id":"8b6093db-3634-446a-b668-55835c0dbcfb","system_id":"levelo_inurba_marseille","lat":43.2593,"lon":5.40909,"is_reserved":false,"is_disabled":false,"rental_uris":{"android":"levelo://app?vid=8b6093db-3634-446a-b668-55835c0dbcfb","ios":"levelo://app?vid=8b6093db-3634-446a-b668-55835c0dbcfb"},"vehicle_type_id":"4","last_reported":1727785076,"current_range_meters":4400,"station_id":"ce4bhm92rcd13ifvqglg","pricing_plan_id":"cebpf4jnsgd1na2vs0mg"},{"bike_id":"b8057273-e047-4c72-91b3-408e03117520","system_id":"levelo_inurba_marseille","lat":43.28852,"lon":5.39323,"is_reserved":false,"is_disabled":false,"rental_uris":{"android":"levelo://app?vid=b8057273-e047-4c72-91b3-408e03117520","ios":"levelo://app?vid=b8057273-e047-4c72-91b3-408e03117520"},"vehicle_type_id":"4","last_reported":1727785076,"current_range_meters":38400,"station_id":"ce4bh2p2rcd13ifvqdi0","pricing_plan_id":"cebpf4jnsgd1na2vs0mg"},{"bike_id":"a68ff47d-766e-4c99-add1-fe1fb4bf793c","system_id":"levelo_inurba_marseille","lat":43.30889,"lon":5.37195,"is_reserved":false,"is_disabled":false,"rental_uris":{"android":"levelo://app?vid=a68ff47d-766e-4c99-add1-fe1fb4bf793c","ios":"levelo://app?vid=a68ff47d-766e-4c99-add1-fe1fb4bf793c"},"vehicle_type_id":"4","last_reported":1727785076,"current_range_meters":2800,"station_id":"ce4bguh2rcd13ifvqckg","pricing_plan_id":"cebpf4jnsgd1na2vs0mg"},{"bike_id":"e5301814-7634-4e6d-9b97-97d90f175f55","system_id":"levelo_inurba_marseille","lat":43.29792,"lon":5.39344,"is_reserved":false,"is_disabled":false,"rental_uris":{"android":"levelo://app?vid=e5301814-7634-4e6d-9b97-97d90f175f55","ios":"levelo://app?vid=e5301814-7634-4e6d-9b97-97d90f175f55"},"vehicle_type_id":"4","last_reported":1727785076,"current_range_meters":18800,"station_id":"chh1huq6cuj3fo74tm60","pricing_plan_id":"cebpf4jnsgd1na2vs0mg"},{"bike_id":"64d4da6a-d17c-411a-afd5-8ed42407c294","system_id":"levelo_inurba_marseille","lat":43.26214,"lon":5.37438,"is_reserved":false,"is_disabled":false,"rental_uris":{"android":"levelo://app?vid=64d4da6a-d17c-411a-afd5-8ed42407c294","ios":"levelo://app?vid=64d4da6a-d17c-411a-afd5-8ed42407c294"},"vehicle_type_id":"4","last_reported":1727785076,"current_range_meters":8800,"station_id":"ce4bhgp2rcd13ifvqfc0","pricing_plan_id":"cebpf4jnsgd1na2vs0mg"},{"bike_id":"7cc2fa07-b5f4-4791-a0b2-e28a135d4f88","system_id":"levelo_inurba_marseille","lat":43.25,"lon":5.389325,"is_reserved":false,"is_disabled":false,"rental_uris":{"android":"levelo://app?vid=7cc2fa07-b5f4-4791-a0b2-e28a135d4f88","ios":"levelo://app?vid=7cc2fa07-b5f4-4791-a0b2-e28a135d4f88"},"vehicle_type_id":"4","last_reported":1727785076,"current_range_meters":8400,"station_id":"ce4bhgp2rcd13ifvqfd0","pricing_plan_id":"cebpf4jnsgd1na2vs0mg"},{"bike_id":"d31dc3a9-7258-48c9-9755-2b732f25a3f9","system_id":"levelo_inurba_marseille","lat":43.28356,"lon":5.38095,"is_reserved":false,"is_disabled":false,"rental_uris":{"android":"levelo://app?vid=d31dc3a9-7258-48c9-9755-2b732f25a3f9","ios":"levelo://app?vid=d31dc3a9-7258-48c9-9755-2b732f25a3f9"},"vehicle_type_id":"4","last_reported":1727785076,"current_range_meters":20400,"station_id":"ce4bh412rcd13ifvqdr0","pricing_plan_id":"cebpf4jnsgd1na2vs0mg"},{"bike_id":"d8b58681-9556-4640-a208-d91d0fc1bcc2","system_id":"levelo_inurba_marseille","lat":43.30158,"lon":5.38086,"is_reserved":false,"is_disabled":false,"rental_uris":{"android":"levelo://app?vid=d8b58681-9556-4640-a208-d91d0fc1bcc2","ios":"levelo://app?vid=d8b58681-9556-4640-a208-d91d0fc1bcc2"},"vehicle_type_id":"4","last_reported":1727785076,"current_range_meters":8400,"station_id":"ce4bgjp2rcd13ifvqbh0","pricing_plan_id":"cebpf4jnsgd1na2vs0mg"},{"bike_id":"f7f2d3bd-21a0-496a-9933-485f8c2a6d1a","system_id":"levelo_inurba_marseille","lat":43.29809,"lon":5.38104,"is_reserved":false,"is_disabled":false,"rental_uris":{"android":"levelo://app?vid=f7f2d3bd-21a0-496a-9933-485f8c2a6d1a","ios":"levelo://app?vid=f7f2d3bd-21a0-496a-9933-485f8c2a6d1a"},"vehicle_type_id":"4","last_reported":1727785076,"current_range_meters":10800,"station_id":"ce4bgip2rcd13ifvqbb0","pricing_plan_id":"cebpf4jnsgd1na2vs0mg"},{"bike_id":"f59d79df-3ff2-4195-bdc2-73fc91938d99","system_id":"levelo_inurba_marseille","lat":43.29786,"lon":5.37103,"is_reserved":false,"is_disabled":false,"rental_uris":{"android":"levelo://app?vid=f59d79df-3ff2-4195-bdc2-73fc91938d99","ios":"levelo://app?vid=f59d79df-3ff2-4195-bdc2-73fc91938d99"},"vehicle_type_id":"4","last_reported":1727785076,"current_range_meters":38400,"station_id":"ce4bgop2rcd13ifvqc1g","pricing_plan_id":"cebpf4jnsgd1na2vs0mg"},{"bike_id":"604e72d5-40ff-49b8-a4d8-d69985e2ea33","system_id":"levelo_inurba_marseille","lat":43.24392,"lon":5.37062,"is_reserved":false,"is_disabled":false,"rental_uris":{"android":"levelo://app?vid=604e72d5-40ff-49b8-a4d8-d69985e2ea33","ios":"levelo://app?vid=604e72d5-40ff-49b8-a4d8-d69985e2ea33"},"vehicle_type_id":"4","last_reported":1727785076,"current_range_meters":24400,"station_id":"ce4bhhh2rcd13ifvqfk0","pricing_plan_id":"cebpf4jnsgd1na2vs0mg"},{"bike_id":"1dcdcf5f-3bcb-4a0d-b1b8-2ae7e82479ef","system_id":"levelo_inurba_marseille","lat":43.23154,"lon":5.437,"is_reserved":false,"is_disabled":false,"rental_uris":{"android":"levelo://app?vid=1dcdcf5f-3bcb-4a0d-b1b8-2ae7e82479ef","ios":"levelo://app?vid=1dcdcf5f-3bcb-4a0d-b1b8-2ae7e82479ef"},"vehicle_type_id":"4","last_reported":1727785076,"current_range_meters":17600,"station_id":"ce4bhmp2rcd13ifvqgog","pricing_plan_id":"cebpf4jnsgd1na2vs0mg"},{"bike_id":"4ff78b03-5f77-4417-b002-f0630bdf39d5","system_id":"levelo_inurba_marseille","lat":43.28629,"lon":5.38468,"is_reserved":false,"is_disabled":false,"rental_uris":{"android":"levelo://app?vid=4ff78b03-5f77-4417-b002-f0630bdf39d5","ios":"levelo://app?vid=4ff78b03-5f77-4417-b002-f0630bdf39d5"},"vehicle_type_id":"4","last_reported":1727785076,"current_range_meters":4400,"station_id":"","pricing_plan_id":"cebpf4jnsgd1na2vs0mg"},{"bike_id":"61655881-16c9-4131-ab8d-8f63c999894c","system_id":"levelo_inurba_marseille","lat":43.30556,"lon":5.36534,"is_reserved":false,"is_disabled":false,"rental_uris":{"android":"levelo://app?vid=61655881-16c9-4131-ab8d-8f63c999894c","ios":"levelo://app?vid=61655881-16c9-4131-ab8d-8f63c999894c"},"vehicle_type_id":"4","last_reported":1727785076,"current_range_meters":39200,"station_id":"ce4bgs12rcd13ifvqcag","pricing_plan_id":"cebpf4jnsgd1na2vs0mg"},{"bike_id":"25f3ec03-6ef5-4357-af34-edef5e5de05d","system_id":"levelo_inurba_marseille","lat":43.2931,"lon":5.37176,"is_reserved":false,"is_disabled":false,"rental_uris":{"android":"levelo://app?vid=25f3ec03-6ef5-4357-af34-edef5e5de05d","ios":"levelo://app?vid=25f3ec03-6ef5-4357-af34-edef5e5de05d"},"vehicle_type_id":"4","last_reported":1727785076,"current_range_meters":16400,"station_id":"ce4bgh92rcd13ifvqb40","pricing_plan_id":"cebpf4jnsgd1na2vs0mg"},{"bike_id":"5e7c9ca1-667d-4eae-88e1-e28e738f1ee2","system_id":"levelo_inurba_marseille","lat":43.28348,"lon":5.38098,"is_reserved":false,"is_disabled":false,"rental_uris":{"android":"levelo://app?vid=5e7c9ca1-667d-4eae-88e1-e28e738f1ee2","ios":"levelo://app?vid=5e7c9ca1-667d-4eae-88e1-e28e738f1ee2"},"vehicle_type_id":"4","last_reported":1727785076,"current_range_meters":20000,"station_id":"ce4bh412rcd13ifvqdr0","pricing_plan_id":"cebpf4jnsgd1na2vs0mg"},{"bike_id":"691cccc0-f9a1-48ae-a4d5-c7c6876adda9","system_id":"levelo_inurba_marseille","lat":43.29168,"lon":5.37156,"is_reserved":false,"is_disabled":false,"rental_uris":{"android":"levelo://app?vid=691cccc0-f9a1-48ae-a4d5-c7c6876adda9","ios":"levelo://app?vid=691cccc0-f9a1-48ae-a4d5-c7c6876adda9"},"vehicle_type_id":"4","last_reported":1727785076,"current_range_meters":14000,"station_id":"ce4bha92rcd13ifvqeh0","pricing_plan_id":"cebpf4jnsgd1na2vs0mg"},{"bike_id":"b0798a41-6c3f-40c2-8818-c3f80b1c83d4","system_id":"levelo_inurba_marseille","lat":43.29902,"lon":5.3744,"is_reserved":false,"is_disabled":false,"rental_uris":{"android":"levelo://app?vid=b0798a41-6c3f-40c2-8818-c3f80b1c83d4","ios":"levelo://app?vid=b0798a41-6c3f-40c2-8818-c3f80b1c83d4"},"vehicle_type_id":"4","last_reported":1727785076,"current_range_meters":38800,"station_id":"ce4bgjh2rcd13ifvqbg0","pricing_plan_id":"cebpf4jnsgd1na2vs0mg"},{"bike_id":"339388e8-ee6b-4b29-9911-0612c4420461","system_id":"levelo_inurba_marseille","lat":43.337444,"lon":5.374475,"is_reserved":false,"is_disabled":false,"rental_uris":{"android":"levelo://app?vid=339388e8-ee6b-4b29-9911-0612c4420461","ios":"levelo://app?vid=339388e8-ee6b-4b29-9911-0612c4420461"},"vehicle_type_id":"4","last_reported":1727785076,"current_range_meters":36400,"station_id":"","pricing_plan_id":"cebpf4jnsgd1na2vs0mg"},{"bike_id":"d9fd8afb-6462-461f-bbdf-40b3c02f2ac3","system_id":"levelo_inurba_marseille","lat":43.28938,"lon":5.36638,"is_reserved":false,"is_disabled":false,"rental_uris":{"android":"levelo://app?vid=d9fd8afb-6462-461f-bbdf-40b3c02f2ac3","ios":"levelo://app?vid=d9fd8afb-6462-461f-bbdf-40b3c02f2ac3"},"vehicle_type_id":"4","last_reported":1727785076,"current_range_meters":12800,"station_id":"ce4bhap2rcd13ifvqek0","pricing_plan_id":"cebpf4jnsgd1na2vs0mg"},{"bike_id":"7fb5d065-2ef8-4492-8b6f-c63a16373982","system_id":"levelo_inurba_marseille","lat":43.30538,"lon":5.36535,"is_reserved":false,"is_disabled":false,"rental_uris":{"android":"levelo://app?vid=7fb5d065-2ef8-4492-8b6f-c63a16373982","ios":"levelo://app?vid=7fb5d065-2ef8-4492-8b6f-c63a16373982"},"vehicle_type_id":"4","last_reported":1727785076,"current_range_meters":39200,"station_id":"ce4bgs12rcd13ifvqcag","pricing_plan_id":"cebpf4jnsgd1na2vs0mg"},{"bike_id":"29bfe8f6-35ce-4ce5-9356-d699d53efb1a","system_id":"levelo_inurba_marseille","lat":43.26926,"lon":5.38922,"is_reserved":false,"is_disabled":false,"rental_uris":{"android":"levelo://app?vid=29bfe8f6-35ce-4ce5-9356-d699d53efb1a","ios":"levelo://app?vid=29bfe8f6-35ce-4ce5-9356-d699d53efb1a"},"vehicle_type_id":"4","last_reported":1727785076,"current_range_meters":25600,"station_id":"ce4bhhh2rcd13ifvqfl0","pricing_plan_id":"cebpf4jnsgd1na2vs0mg"},{"bike_id":"5bdc1fa4-140d-433c-819d-10b9de658c4f","system_id":"levelo_inurba_marseille","lat":43.26036,"lon":5.37549,"is_reserved":false,"is_disabled":false,"rental_uris":{"android":"levelo://app?vid=5bdc1fa4-140d-433c-819d-10b9de658c4f","ios":"levelo://app?vid=5bdc1fa4-140d-433c-819d-10b9de658c4f"},"vehicle_type_id":"4","last_reported":1727785076,"current_range_meters":24800,"station_id":"ce4bhgh2rcd13ifvqfa0","pricing_plan_id":"cebpf4jnsgd1na2vs0mg"},{"bike_id":"124a8ed2-1c58-4041-ab48-a7a9e97fff28","system_id":"levelo_inurba_marseille","lat":43.29031,"lon":5.38653,"is_reserved":false,"is_disabled":false,"rental_uris":{"android":"levelo://app?vid=124a8ed2-1c58-4041-ab48-a7a9e97fff28","ios":"levelo://app?vid=124a8ed2-1c58-4041-ab48-a7a9e97fff28"},"vehicle_type_id":"4","last_reported":1727785076,"current_range_meters":32800,"station_id":"ce4bh4p2rcd13ifvqe0g","pricing_plan_id":"cebpf4jnsgd1na2vs0mg"},{"bike_id":"cd2611f6-aeab-4776-b590-bb0713ecd670","system_id":"levelo_inurba_marseille","lat":43.29033,"lon":5.37576,"is_reserved":false,"is_disabled":false,"rental_uris":{"android":"levelo://app?vid=cd2611f6-aeab-4776-b590-bb0713ecd670","ios":"levelo://app?vid=cd2611f6-aeab-4776-b590-bb0713ecd670"},"vehicle_type_id":"4","last_reported":1727785076,"current_range_meters":24000,"station_id":"ce4bh692rcd13ifvqe90","pricing_plan_id":"cebpf4jnsgd1na2vs0mg"},{"bike_id":"97192ff1-2f08-45b5-b0b8-0e080d498121","system_id":"levelo_inurba_marseille","lat":43.29977,"lon":5.38481,"is_reserved":false,"is_disabled":false,"rental_uris":{"android":"levelo://app?vid=97192ff1-2f08-45b5-b0b8-0e080d498121","ios":"levelo://app?vid=97192ff1-2f08-45b5-b0b8-0e080d498121"},"vehicle_type_id":"4","last_reported":1727785076,"current_range_meters":18800,"station_id":"ce4bgj92rcd13ifvqbd0","pricing_plan_id":"cebpf4jnsgd1na2vs0mg"},{"bike_id":"b51756b0-e301-4536-b089-af7163c9001e","system_id":"levelo_inurba_marseille","lat":43.2917,"lon":5.37154,"is_reserved":false,"is_disabled":false,"rental_uris":{"android":"levelo://app?vid=b51756b0-e301-4536-b089-af7163c9001e","ios":"levelo://app?vid=b51756b0-e301-4536-b089-af7163c9001e"},"vehicle_type_id":"4","last_reported":1727785076,"current_range_meters":37600,"station_id":"ce4bha92rcd13ifvqeh0","pricing_plan_id":"cebpf4jnsgd1na2vs0mg"},{"bike_id":"bbefbc5f-3973-42ac-9f83-3ea4c3a29a15","system_id":"levelo_inurba_marseille","lat":43.30533,"lon":5.36713,"is_reserved":false,"is_disabled":false,"rental_uris":{"android":"levelo://app?vid=bbefbc5f-3973-42ac-9f83-3ea4c3a29a15","ios":"levelo://app?vid=bbefbc5f-3973-42ac-9f83-3ea4c3a29a15"},"vehicle_type_id":"4","last_reported":1727785076,"current_range_meters":22800,"station_id":"ce4bgrp2rcd13ifvqc9g","pricing_plan_id":"cebpf4jnsgd1na2vs0mg"},{"bike_id":"d212d70f-7dda-4e79-9d49-0ac230e11217","system_id":"levelo_inurba_marseille","lat":43.30147,"lon":5.37419,"is_reserved":false,"is_disabled":false,"rental_uris":{"android":"levelo://app?vid=d212d70f-7dda-4e79-9d49-0ac230e11217","ios":"levelo://app?vid=d212d70f-7dda-4e79-9d49-0ac230e11217"},"vehicle_type_id":"4","last_reported":1727785076,"current_range_meters":39200,"station_id":"ce4bgs92rcd13ifvqcc0","pricing_plan_id":"cebpf4jnsgd1na2vs0mg"},{"bike_id":"5d34d44a-5657-4046-9997-746fa7323ea5","system_id":"levelo_inurba_marseille","lat":43.32554,"lon":5.41424,"is_reserved":false,"is_disabled":false,"rental_uris":{"android":"levelo://app?vid=5d34d44a-5657-4046-9997-746fa7323ea5","ios":"levelo://app?vid=5d34d44a-5657-4046-9997-746fa7323ea5"},"vehicle_type_id":"4","last_reported":1727785076,"current_range_meters":37600,"station_id":"ce4bhq12rcd13ifvqhhg","pricing_plan_id":"cebpf4jnsgd1na2vs0mg"},{"bike_id":"b7a06c15-fbae-4e6d-9d26-8f35f2a29c03","system_id":"levelo_inurba_marseille","lat":43.293583,"lon":5.3786,"is_reserved":false,"is_disabled":false,"rental_uris":{"android":"levelo://app?vid=b7a06c15-fbae-4e6d-9d26-8f35f2a29c03","ios":"levelo://app?vid=b7a06c15-fbae-4e6d-9d26-8f35f2a29c03"},"vehicle_type_id":"4","last_reported":1727785076,"current_range_meters":19600,"station_id":"ce4bgjh2rcd13ifvqbf0","pricing_plan_id":"cebpf4jnsgd1na2vs0mg"},{"bike_id":"f7c6c955-cc82-4f05-99a6-2e4db603fe2c","system_id":"levelo_inurba_marseille","lat":43.28935,"lon":5.36383,"is_reserved":false,"is_disabled":false,"rental_uris":{"android":"levelo://app?vid=f7c6c955-cc82-4f05-99a6-2e4db603fe2c","ios":"levelo://app?vid=f7c6c955-cc82-4f05-99a6-2e4db603fe2c"},"vehicle_type_id":"4","last_reported":1727785076,"current_range_meters":19600,"station_id":"ce4bhc92rcd13ifvqetg","pricing_plan_id":"cebpf4jnsgd1na2vs0mg"},{"bike_id":"b1f09baf-efb6-4048-8222-4ed4e16cbf39","system_id":"levelo_inurba_marseille","lat":43.23157,"lon":5.43706,"is_reserved":false,"is_disabled":false,"rental_uris":{"android":"levelo://app?vid=b1f09baf-efb6-4048-8222-4ed4e16cbf39","ios":"levelo://app?vid=b1f09baf-efb6-4048-8222-4ed4e16cbf39"},"vehicle_type_id":"4","last_reported":1727785076,"current_range_meters":8800,"station_id":"ce4bhmp2rcd13ifvqgog","pricing_plan_id":"cebpf4jnsgd1na2vs0mg"},{"bike_id":"92a67c18-53cb-447a-b79b-7d2e880274dd","system_id":"levelo_inurba_marseille","lat":43.29572,"lon":5.37529,"is_reserved":false,"is_disabled":false,"rental_uris":{"android":"levelo://app?vid=92a67c18-53cb-447a-b79b-7d2e880274dd","ios":"levelo://app?vid=92a67c18-53cb-447a-b79b-7d2e880274dd"},"vehicle_type_id":"4","last_reported":1727785076,"current_range_meters":22000,"station_id":"ce4bgh92rcd13ifvqb50","pricing_plan_id":"cebpf4jnsgd1na2vs0mg"},{"bike_id":"d0babadb-8879-488e-92f8-d76769a9b0e4","system_id":"levelo_inurba_marseille","lat":43.30543,"lon":5.36523,"is_reserved":false,"is_disabled":false,"rental_uris":{"android":"levelo://app?vid=d0babadb-8879-488e-92f8-d76769a9b0e4","ios":"levelo://app?vid=d0babadb-8879-488e-92f8-d76769a9b0e4"},"vehicle_type_id":"4","last_reported":1727785076,"current_range_meters":22400,"station_id":"ce4bgs12rcd13ifvqcag","pricing_plan_id":"cebpf4jnsgd1na2vs0mg"},{"bike_id":"15c22990-2d4a-4918-8987-ddda9dc099c8","system_id":"levelo_inurba_marseille","lat":43.29714,"lon":5.37688,"is_reserved":false,"is_disabled":false,"rental_uris":{"android":"levelo://app?vid=15c22990-2d4a-4918-8987-ddda9dc099c8","ios":"levelo://app?vid=15c22990-2d4a-4918-8987-ddda9dc099c8"},"vehicle_type_id":"4","last_reported":1727785076,"current_range_meters":32400,"station_id":"ce4bgkh2rcd13ifvqbl0","pricing_plan_id":"cebpf4jnsgd1na2vs0mg"},{"bike_id":"e8560880-ddbc-4e01-9d15-6d231a661d5a","system_id":"levelo_inurba_marseille","lat":43.337444,"lon":5.374475,"is_reserved":false,"is_disabled":false,"rental_uris":{"android":"levelo://app?vid=e8560880-ddbc-4e01-9d15-6d231a661d5a","ios":"levelo://app?vid=e8560880-ddbc-4e01-9d15-6d231a661d5a"},"vehicle_type_id":"4","last_reported":1727785076,"current_range_meters":34800,"station_id":"","pricing_plan_id":"cebpf4jnsgd1na2vs0mg"},{"bike_id":"072068d7-44bd-4da9-b04c-e5846e47b5e9","system_id":"levelo_inurba_marseille","lat":43.306,"lon":5.37214,"is_reserved":false,"is_disabled":false,"rental_uris":{"android":"levelo://app?vid=072068d7-44bd-4da9-b04c-e5846e47b5e9","ios":"levelo://app?vid=072068d7-44bd-4da9-b04c-e5846e47b5e9"},"vehicle_type_id":"4","last_reported":1727785076,"current_range_meters":38800,"station_id":"ce4bgqh2rcd13ifvqc4g","pricing_plan_id":"cebpf4jnsgd1na2vs0mg"},{"bike_id":"c5f2155c-6558-494e-a8fc-839be277c485","system_id":"levelo_inurba_marseille","lat":43.302009,"lon":5.394394,"is_reserved":false,"is_disabled":false,"rental_uris":{"android":"levelo://app?vid=c5f2155c-6558-494e-a8fc-839be277c485","ios":"levelo://app?vid=c5f2155c-6558-494e-a8fc-839be277c485"},"vehicle_type_id":"4","last_reported":1727785076,"current_range_meters":28000,"station_id":"ce4bh0p2rcd13ifvqd70","pricing_plan_id":"cebpf4jnsgd1na2vs0mg"},{"bike_id":"cfdb47d3-1507-413a-a1c8-ccda97b2d99f","system_id":"levelo_inurba_marseille","lat":43.31494,"lon":5.37297,"is_reserved":false,"is_disabled":false,"rental_uris":{"android":"levelo://app?vid=cfdb47d3-1507-413a-a1c8-ccda97b2d99f","ios":"levelo://app?vid=cfdb47d3-1507-413a-a1c8-ccda97b2d99f"},"vehicle_type_id":"4","last_reported":1727785076,"current_range_meters":40000,"station_id":"ce4bgt12rcd13ifvqcd0","pricing_plan_id":"cebpf4jnsgd1na2vs0mg"},{"bike_id":"a0c2a9c7-b740-44cb-a396-e5b7c7d739f0","system_id":"levelo_inurba_marseille","lat":43.28858,"lon":5.35856,"is_reserved":false,"is_disabled":false,"rental_uris":{"android":"levelo://app?vid=a0c2a9c7-b740-44cb-a396-e5b7c7d739f0","ios":"levelo://app?vid=a0c2a9c7-b740-44cb-a396-e5b7c7d739f0"},"vehicle_type_id":"4","last_reported":1727785076,"current_range_meters":26800,"station_id":"ce4bhb12rcd13ifvqem0","pricing_plan_id":"cebpf4jnsgd1na2vs0mg"},{"bike_id":"8d4202c1-600e-4b76-8f35-67352ceb15f6","system_id":"levelo_inurba_marseille","lat":43.29425,"lon":5.37417,"is_reserved":false,"is_disabled":false,"rental_uris":{"android":"levelo://app?vid=8d4202c1-600e-4b76-8f35-67352ceb15f6","ios":"levelo://app?vid=8d4202c1-600e-4b76-8f35-67352ceb15f6"},"vehicle_type_id":"4","last_reported":1727785076,"current_range_meters":14400,"station_id":"ce4bgkp2rcd13ifvqbmg","pricing_plan_id":"cebpf4jnsgd1na2vs0mg"},{"bike_id":"75960af8-fffd-4ef8-8d0e-0797703cf66f","system_id":"levelo_inurba_marseille","lat":43.30608,"lon":5.37227,"is_reserved":false,"is_disabled":false,"rental_uris":{"android":"levelo://app?vid=75960af8-fffd-4ef8-8d0e-0797703cf66f","ios":"levelo://app?vid=75960af8-fffd-4ef8-8d0e-0797703cf66f"},"vehicle_type_id":"4","last_reported":1727785076,"current_range_meters":2000,"station_id":"ce4bgqh2rcd13ifvqc4g","pricing_plan_id":"cebpf4jnsgd1na2vs0mg"},{"bike_id":"d0f65785-8fdf-4cf1-a675-729295860d7a","system_id":"levelo_inurba_marseille","lat":43.25943,"lon":5.40893,"is_reserved":false,"is_disabled":false,"rental_uris":{"android":"levelo://app?vid=d0f65785-8fdf-4cf1-a675-729295860d7a","ios":"levelo://app?vid=d0f65785-8fdf-4cf1-a675-729295860d7a"},"vehicle_type_id":"4","last_reported":1727785076,"current_range_meters":30000,"station_id":"ce4bhm92rcd13ifvqglg","pricing_plan_id":"cebpf4jnsgd1na2vs0mg"},{"bike_id":"b1f8a7ee-01e1-42e9-95fa-3579c106bb86","system_id":"levelo_inurba_marseille","lat":43.28481,"lon":5.38417,"is_reserved":false,"is_disabled":false,"rental_uris":{"android":"levelo://app?vid=b1f8a7ee-01e1-42e9-95fa-3579c106bb86","ios":"levelo://app?vid=b1f8a7ee-01e1-42e9-95fa-3579c106bb86"},"vehicle_type_id":"4","last_reported":1727785076,"current_range_meters":2800,"station_id":"ce4bh512rcd13ifvqe3g","pricing_plan_id":"cebpf4jnsgd1na2vs0mg"},{"bike_id":"85024af8-7004-4d74-8be7-15da03426b4b","system_id":"levelo_inurba_marseille","lat":43.30597,"lon":5.37213,"is_reserved":false,"is_disabled":false,"rental_uris":{"android":"levelo://app?vid=85024af8-7004-4d74-8be7-15da03426b4b","ios":"levelo://app?vid=85024af8-7004-4d74-8be7-15da03426b4b"},"vehicle_type_id":"4","last_reported":1727785076,"current_range_meters":29600,"station_id":"ce4bgqh2rcd13ifvqc4g","pricing_plan_id":"cebpf4jnsgd1na2vs0mg"},{"bike_id":"9e688441-fbf4-4486-be93-8e4901a6f95f","system_id":"levelo_inurba_marseille","lat":43.28495,"lon":5.39444,"is_reserved":false,"is_disabled":false,"rental_uris":{"android":"levelo://app?vid=9e688441-fbf4-4486-be93-8e4901a6f95f","ios":"levelo://app?vid=9e688441-fbf4-4486-be93-8e4901a6f95f"},"vehicle_type_id":"4","last_reported":1727785076,"current_range_meters":18000,"station_id":"ce4bhoh2rcd13ifvqh5g","pricing_plan_id":"cebpf4jnsgd1na2vs0mg"},{"bike_id":"b86487ba-d9fb-4659-83c9-51345025e8af","system_id":"levelo_inurba_marseille","lat":43.282867,"lon":5.350491,"is_reserved":false,"is_disabled":false,"rental_uris":{"android":"levelo://app?vid=b86487ba-d9fb-4659-83c9-51345025e8af","ios":"levelo://app?vid=b86487ba-d9fb-4659-83c9-51345025e8af"},"vehicle_type_id":"4","last_reported":1727785076,"current_range_meters":26800,"station_id":"ce4bhbp2rcd13ifvqerg","pricing_plan_id":"cebpf4jnsgd1na2vs0mg"},{"bike_id":"50305594-e6c6-40fb-bf65-29fabca2b0cb","system_id":"levelo_inurba_marseille","lat":43.28418,"lon":5.34989,"is_reserved":false,"is_disabled":false,"rental_uris":{"android":"levelo://app?vid=50305594-e6c6-40fb-bf65-29fabca2b0cb","ios":"levelo://app?vid=50305594-e6c6-40fb-bf65-29fabca2b0cb"},"vehicle_type_id":"4","last_reported":1727785076,"current_range_meters":35200,"station_id":"ce4bhbh2rcd13ifvqepg","pricing_plan_id":"cebpf4jnsgd1na2vs0mg"},{"bike_id":"a6f47134-244e-42f1-a1c7-323d39548d9f","system_id":"levelo_inurba_marseille","lat":43.30539,"lon":5.36705,"is_reserved":false,"is_disabled":false,"rental_uris":{"android":"levelo://app?vid=a6f47134-244e-42f1-a1c7-323d39548d9f","ios":"levelo://app?vid=a6f47134-244e-42f1-a1c7-323d39548d9f"},"vehicle_type_id":"4","last_reported":1727785076,"current_range_meters":9200,"station_id":"ce4bgrp2rcd13ifvqc9g","pricing_plan_id":"cebpf4jnsgd1na2vs0mg"},{"bike_id":"0fa1b806-30ca-4295-8579-e914f7d6f08d","system_id":"levelo_inurba_marseille","lat":43.30162,"lon":5.38087,"is_reserved":false,"is_disabled":false,"rental_uris":{"android":"levelo://app?vid=0fa1b806-30ca-4295-8579-e914f7d6f08d","ios":"levelo://app?vid=0fa1b806-30ca-4295-8579-e914f7d6f08d"},"vehicle_type_id":"4","last_reported":1727785076,"current_range_meters":30400,"station_id":"ce4bgjp2rcd13ifvqbh0","pricing_plan_id":"cebpf4jnsgd1na2vs0mg"},{"bike_id":"56437861-461b-4eee-83e2-ce433efd7d8c","system_id":"levelo_inurba_marseille","lat":43.27497,"lon":5.42447,"is_reserved":false,"is_disabled":false,"rental_uris":{"android":"levelo://app?vid=56437861-461b-4eee-83e2-ce433efd7d8c","ios":"levelo://app?vid=56437861-461b-4eee-83e2-ce433efd7d8c"},"vehicle_type_id":"4","last_reported":1727785076,"current_range_meters":26800,"station_id":"ce4bhn92rcd13ifvqgrg","pricing_plan_id":"cebpf4jnsgd1na2vs0mg"},{"bike_id":"02d17221-9ae1-4962-a332-180765a3a2ce","system_id":"levelo_inurba_marseille","lat":43.25091,"lon":5.39516,"is_reserved":false,"is_disabled":false,"rental_uris":{"android":"levelo://app?vid=02d17221-9ae1-4962-a332-180765a3a2ce","ios":"levelo://app?vid=02d17221-9ae1-4962-a332-180765a3a2ce"},"vehicle_type_id":"4","last_reported":1727785076,"current_range_meters":16400,"station_id":"ce4bhm12rcd13ifvqgkg","pricing_plan_id":"cebpf4jnsgd1na2vs0mg"},{"bike_id":"1e15770c-2a3e-4554-8b80-4a8f5a55ee54","system_id":"levelo_inurba_marseille","lat":43.30946,"lon":5.40136,"is_reserved":false,"is_disabled":false,"rental_uris":{"android":"levelo://app?vid=1e15770c-2a3e-4554-8b80-4a8f5a55ee54","ios":"levelo://app?vid=1e15770c-2a3e-4554-8b80-4a8f5a55ee54"},"vehicle_type_id":"4","last_reported":1727785076,"current_range_meters":28400,"station_id":"ce4bgvp2rcd13ifvqct0","pricing_plan_id":"cebpf4jnsgd1na2vs0mg"},{"bike_id":"a6237345-5e76-46b8-8b2d-bce4d678fe66","system_id":"levelo_inurba_marseille","lat":43.24073,"lon":5.3775,"is_reserved":false,"is_disabled":false,"rental_uris":{"android":"levelo://app?vid=a6237345-5e76-46b8-8b2d-bce4d678fe66","ios":"levelo://app?vid=a6237345-5e76-46b8-8b2d-bce4d678fe66"},"vehicle_type_id":"4","last_reported":1727785076,"current_range_meters":38800,"station_id":"ce4bhnp2rcd13ifvqgvg","pricing_plan_id":"cebpf4jnsgd1na2vs0mg"},{"bike_id":"695c6edc-9d98-4011-8dff-68578c4ede8a","system_id":"levelo_inurba_marseille","lat":43.23151,"lon":5.43711,"is_reserved":false,"is_disabled":false,"rental_uris":{"android":"levelo://app?vid=695c6edc-9d98-4011-8dff-68578c4ede8a","ios":"levelo://app?vid=695c6edc-9d98-4011-8dff-68578c4ede8a"},"vehicle_type_id":"4","last_reported":1727785076,"current_range_meters":20000,"station_id":"ce4bhmp2rcd13ifvqgog","pricing_plan_id":"cebpf4jnsgd1na2vs0mg"},{"bike_id":"84d71951-9102-4dba-82f9-38c882b9fa03","system_id":"levelo_inurba_marseille","lat":43.30282,"lon":5.37695,"is_reserved":false,"is_disabled":false,"rental_uris":{"android":"levelo://app?vid=84d71951-9102-4dba-82f9-38c882b9fa03","ios":"levelo://app?vid=84d71951-9102-4dba-82f9-38c882b9fa03"},"vehicle_type_id":"4","last_reported":1727785076,"current_range_meters":28800,"station_id":"ce4bguh2rcd13ifvqcj0","pricing_plan_id":"cebpf4jnsgd1na2vs0mg"},{"bike_id":"f8f518e3-bd48-40f5-801a-4ead88758ee2","system_id":"levelo_inurba_marseille","lat":43.32116,"lon":5.36769,"is_reserved":false,"is_disabled":false,"rental_uris":{"android":"levelo://app?vid=f8f518e3-bd48-40f5-801a-4ead88758ee2","ios":"levelo://app?vid=f8f518e3-bd48-40f5-801a-4ead88758ee2"},"vehicle_type_id":"4","last_reported":1727785076,"current_range_meters":16000,"station_id":"ce4bhrh2rcd13ifvqhug","pricing_plan_id":"cebpf4jnsgd1na2vs0mg"},{"bike_id":"915107d4-ff2d-41e6-96d6-034251ae5d86","system_id":"levelo_inurba_marseille","lat":43.29908,"lon":5.38154,"is_reserved":false,"is_disabled":false,"rental_uris":{"android":"levelo://app?vid=915107d4-ff2d-41e6-96d6-034251ae5d86","ios":"levelo://app?vid=915107d4-ff2d-41e6-96d6-034251ae5d86"},"vehicle_type_id":"4","last_reported":1727785076,"current_range_meters":36400,"station_id":"ce4bgj12rcd13ifvqbc0","pricing_plan_id":"cebpf4jnsgd1na2vs0mg"},{"bike_id":"1aff9951-d4f4-457c-bcdf-12ab5ff93f4d","system_id":"levelo_inurba_marseille","lat":43.33028,"lon":5.39037,"is_reserved":false,"is_disabled":false,"rental_uris":{"android":"levelo://app?vid=1aff9951-d4f4-457c-bcdf-12ab5ff93f4d","ios":"levelo://app?vid=1aff9951-d4f4-457c-bcdf-12ab5ff93f4d"},"vehicle_type_id":"4","last_reported":1727785076,"current_range_meters":34000,"station_id":"ce4bhr92rcd13ifvqhrg","pricing_plan_id":"cebpf4jnsgd1na2vs0mg"},{"bike_id":"8ba8e9f1-24ce-4979-9bc5-20233844bcd5","system_id":"levelo_inurba_marseille","lat":43.27965,"lon":5.38724,"is_reserved":false,"is_disabled":false,"rental_uris":{"android":"levelo://app?vid=8ba8e9f1-24ce-4979-9bc5-20233844bcd5","ios":"levelo://app?vid=8ba8e9f1-24ce-4979-9bc5-20233844bcd5"},"vehicle_type_id":"4","last_reported":1727785076,"current_range_meters":30400,"station_id":"ce4bhg12rcd13ifvqf80","pricing_plan_id":"cebpf4jnsgd1na2vs0mg"},{"bike_id":"509b6b8c-8628-4465-966a-65f4426825ae","system_id":"levelo_inurba_marseille","lat":43.295294,"lon":5.390415,"is_reserved":false,"is_disabled":false,"rental_uris":{"android":"levelo://app?vid=509b6b8c-8628-4465-966a-65f4426825ae","ios":"levelo://app?vid=509b6b8c-8628-4465-966a-65f4426825ae"},"vehicle_type_id":"4","last_reported":1727785076,"current_range_meters":38400,"station_id":"ce4bh3p2rcd13ifvqdp0","pricing_plan_id":"cebpf4jnsgd1na2vs0mg"},{"bike_id":"c35beb10-b895-41bd-a818-5a6490048628","system_id":"levelo_inurba_marseille","lat":43.30892,"lon":5.37202,"is_reserved":false,"is_disabled":false,"rental_uris":{"android":"levelo://app?vid=c35beb10-b895-41bd-a818-5a6490048628","ios":"levelo://app?vid=c35beb10-b895-41bd-a818-5a6490048628"},"vehicle_type_id":"4","last_reported":1727785076,"current_range_meters":30800,"station_id":"ce4bguh2rcd13ifvqckg","pricing_plan_id":"cebpf4jnsgd1na2vs0mg"},{"bike_id":"5126d721-77da-4764-88b8-66722a0e5378","system_id":"levelo_inurba_marseille","lat":43.30458,"lon":5.37908,"is_reserved":false,"is_disabled":false,"rental_uris":{"android":"levelo://app?vid=5126d721-77da-4764-88b8-66722a0e5378","ios":"levelo://app?vid=5126d721-77da-4764-88b8-66722a0e5378"},"vehicle_type_id":"4","last_reported":1727785076,"current_range_meters":5600,"station_id":"ce4bgup2rcd13ifvqcn0","pricing_plan_id":"cebpf4jnsgd1na2vs0mg"},{"bike_id":"67e2b1cc-88ae-4079-9e18-7d8e5c4b6145","system_id":"levelo_inurba_marseille","lat":43.29604,"lon":5.38097,"is_reserved":false,"is_disabled":false,"rental_uris":{"android":"levelo://app?vid=67e2b1cc-88ae-4079-9e18-7d8e5c4b6145","ios":"levelo://app?vid=67e2b1cc-88ae-4079-9e18-7d8e5c4b6145"},"vehicle_type_id":"4","last_reported":1727785076,"current_range_meters":16400,"station_id":"ce4bgl12rcd13ifvqbo0","pricing_plan_id":"cebpf4jnsgd1na2vs0mg"},{"bike_id":"4a10ad72-1b9a-44a9-94b7-49cef5af705c","system_id":"levelo_inurba_marseille","lat":43.27572,"lon":5.38412,"is_reserved":false,"is_disabled":false,"rental_uris":{"android":"levelo://app?vid=4a10ad72-1b9a-44a9-94b7-49cef5af705c","ios":"levelo://app?vid=4a10ad72-1b9a-44a9-94b7-49cef5af705c"},"vehicle_type_id":"4","last_reported":1727785076,"current_range_meters":38800,"station_id":"ce4bhh92rcd13ifvqfi0","pricing_plan_id":"cebpf4jnsgd1na2vs0mg"},{"bike_id":"410644d8-520b-4b38-8e29-0e0374c810a9","system_id":"levelo_inurba_marseille","lat":43.3135,"lon":5.36712,"is_reserved":false,"is_disabled":false,"rental_uris":{"android":"levelo://app?vid=410644d8-520b-4b38-8e29-0e0374c810a9","ios":"levelo://app?vid=410644d8-520b-4b38-8e29-0e0374c810a9"},"vehicle_type_id":"4","last_reported":1727785076,"current_range_meters":36400,"station_id":"ce4bgr92rcd13ifvqc6g","pricing_plan_id":"cebpf4jnsgd1na2vs0mg"},{"bike_id":"1b3929ff-63cb-4698-b62d-3d67d6d917e7","system_id":"levelo_inurba_marseille","lat":43.25112,"lon":5.40326,"is_reserved":false,"is_disabled":false,"rental_uris":{"android":"levelo://app?vid=1b3929ff-63cb-4698-b62d-3d67d6d917e7","ios":"levelo://app?vid=1b3929ff-63cb-4698-b62d-3d67d6d917e7"},"vehicle_type_id":"4","last_reported":1727785076,"current_range_meters":13600,"station_id":"ce4bhlh2rcd13ifvqgig","pricing_plan_id":"cebpf4jnsgd1na2vs0mg"},{"bike_id":"47baaaf4-67e9-49bf-ac84-296284db9e21","system_id":"levelo_inurba_marseille","lat":43.30919,"lon":5.36842,"is_reserved":false,"is_disabled":false,"rental_uris":{"android":"levelo://app?vid=47baaaf4-67e9-49bf-ac84-296284db9e21","ios":"levelo://app?vid=47baaaf4-67e9-49bf-ac84-296284db9e21"},"vehicle_type_id":"4","last_reported":1727785076,"current_range_meters":30800,"station_id":"ce4bgn92rcd13ifvqbvg","pricing_plan_id":"cebpf4jnsgd1na2vs0mg"},{"bike_id":"8ec59c82-03ea-4396-8cc3-f3e95d97d7ca","system_id":"levelo_inurba_marseille","lat":43.30532,"lon":5.367,"is_reserved":false,"is_disabled":false,"rental_uris":{"android":"levelo://app?vid=8ec59c82-03ea-4396-8cc3-f3e95d97d7ca","ios":"levelo://app?vid=8ec59c82-03ea-4396-8cc3-f3e95d97d7ca"},"vehicle_type_id":"4","last_reported":1727785076,"current_range_meters":8000,"station_id":"ce4bgrp2rcd13ifvqc9g","pricing_plan_id":"cebpf4jnsgd1na2vs0mg"},{"bike_id":"cf956e50-7a0a-4c09-9164-921b1286950b","system_id":"levelo_inurba_marseille","lat":43.29801,"lon":5.38101,"is_reserved":false,"is_disabled":false,"rental_uris":{"android":"levelo://app?vid=cf956e50-7a0a-4c09-9164-921b1286950b","ios":"levelo://app?vid=cf956e50-7a0a-4c09-9164-921b1286950b"},"vehicle_type_id":"4","last_reported":1727785076,"current_range_meters":33600,"station_id":"ce4bgip2rcd13ifvqbb0","pricing_plan_id":"cebpf4jnsgd1na2vs0mg"},{"bike_id":"89486415-9219-46fe-8b31-61986f58b86f","system_id":"levelo_inurba_marseille","lat":43.306,"lon":5.37209,"is_reserved":false,"is_disabled":false,"rental_uris":{"android":"levelo://app?vid=89486415-9219-46fe-8b31-61986f58b86f","ios":"levelo://app?vid=89486415-9219-46fe-8b31-61986f58b86f"},"vehicle_type_id":"4","last_reported":1727785076,"current_range_meters":34800,"station_id":"ce4bgqh2rcd13ifvqc4g","pricing_plan_id":"cebpf4jnsgd1na2vs0mg"},{"bike_id":"e2973350-a192-4ad7-997e-932573a214dd","system_id":"levelo_inurba_marseille","lat":43.23149,"lon":5.4372,"is_reserved":false,"is_disabled":false,"rental_uris":{"android":"levelo://app?vid=e2973350-a192-4ad7-997e-932573a214dd","ios":"levelo://app?vid=e2973350-a192-4ad7-997e-932573a214dd"},"vehicle_type_id":"4","last_reported":1727785076,"current_range_meters":25600,"station_id":"ce4bhmp2rcd13ifvqgog","pricing_plan_id":"cebpf4jnsgd1na2vs0mg"},{"bike_id":"d995d233-d2fe-4db9-b69b-baa1337469bf","system_id":"levelo_inurba_marseille","lat":43.26721,"lon":5.40133,"is_reserved":false,"is_disabled":false,"rental_uris":{"android":"levelo://app?vid=d995d233-d2fe-4db9-b69b-baa1337469bf","ios":"levelo://app?vid=d995d233-d2fe-4db9-b69b-baa1337469bf"},"vehicle_type_id":"4","last_reported":1727785076,"current_range_meters":13600,"station_id":"ce4bhm92rcd13ifvqglg","pricing_plan_id":"cebpf4jnsgd1na2vs0mg"},{"bike_id":"1ba7b6fd-e265-4d06-8e20-b26ba84ee730","system_id":"levelo_inurba_marseille","lat":43.23153,"lon":5.43704,"is_reserved":false,"is_disabled":false,"rental_uris":{"android":"levelo://app?vid=1ba7b6fd-e265-4d06-8e20-b26ba84ee730","ios":"levelo://app?vid=1ba7b6fd-e265-4d06-8e20-b26ba84ee730"},"vehicle_type_id":"4","last_reported":1727785076,"current_range_meters":22800,"station_id":"ce4bhmp2rcd13ifvqgog","pricing_plan_id":"cebpf4jnsgd1na2vs0mg"},{"bike_id":"42f8a450-f3b8-4143-a611-4f4639d51f92","system_id":"levelo_inurba_marseille","lat":43.27564,"lon":5.38429,"is_reserved":false,"is_disabled":false,"rental_uris":{"android":"levelo://app?vid=42f8a450-f3b8-4143-a611-4f4639d51f92","ios":"levelo://app?vid=42f8a450-f3b8-4143-a611-4f4639d51f92"},"vehicle_type_id":"4","last_reported":1727785076,"current_range_meters":33600,"station_id":"ce4bhh92rcd13ifvqfi0","pricing_plan_id":"cebpf4jnsgd1na2vs0mg"},{"bike_id":"d703e973-87af-4ed0-9e34-e48cb301d7b2","system_id":"levelo_inurba_marseille","lat":43.29812,"lon":5.38107,"is_reserved":false,"is_disabled":false,"rental_uris":{"android":"levelo://app?vid=d703e973-87af-4ed0-9e34-e48cb301d7b2","ios":"levelo://app?vid=d703e973-87af-4ed0-9e34-e48cb301d7b2"},"vehicle_type_id":"4","last_reported":1727785076,"current_range_meters":30400,"station_id":"ce4bgip2rcd13ifvqbb0","pricing_plan_id":"cebpf4jnsgd1na2vs0mg"},{"bike_id":"a0b07b7c-5757-458f-a27a-60cb7b5aaa42","system_id":"levelo_inurba_marseille","lat":43.30309,"lon":5.36914,"is_reserved":false,"is_disabled":false,"rental_uris":{"android":"levelo://app?vid=a0b07b7c-5757-458f-a27a-60cb7b5aaa42","ios":"levelo://app?vid=a0b07b7c-5757-458f-a27a-60cb7b5aaa42"},"vehicle_type_id":"4","last_reported":1727785076,"current_range_meters":38800,"station_id":"ce4bgqh2rcd13ifvqc5g","pricing_plan_id":"cebpf4jnsgd1na2vs0mg"},{"bike_id":"d609dda2-9e88-492a-9ec1-1ee759ae8664","system_id":"levelo_inurba_marseille","lat":43.33029,"lon":5.39034,"is_reserved":false,"is_disabled":false,"rental_uris":{"android":"levelo://app?vid=d609dda2-9e88-492a-9ec1-1ee759ae8664","ios":"levelo://app?vid=d609dda2-9e88-492a-9ec1-1ee759ae8664"},"vehicle_type_id":"4","last_reported":1727785076,"current_range_meters":6400,"station_id":"ce4bhr92rcd13ifvqhrg","pricing_plan_id":"cebpf4jnsgd1na2vs0mg"},{"bike_id":"b652f429-09b8-4697-9c1b-3b9adc3c55d8","system_id":"levelo_inurba_marseille","lat":43.26871,"lon":5.39135,"is_reserved":false,"is_disabled":false,"rental_uris":{"android":"levelo://app?vid=b652f429-09b8-4697-9c1b-3b9adc3c55d8","ios":"levelo://app?vid=b652f429-09b8-4697-9c1b-3b9adc3c55d8"},"vehicle_type_id":"4","last_reported":1727785076,"current_range_meters":8000,"station_id":"","pricing_plan_id":"cebpf4jnsgd1na2vs0mg"},{"bike_id":"5dae140b-ae00-44fd-86ea-3df3ccfe95d2","system_id":"levelo_inurba_marseille","lat":43.29899,"lon":5.3814,"is_reserved":false,"is_disabled":false,"rental_uris":{"android":"levelo://app?vid=5dae140b-ae00-44fd-86ea-3df3ccfe95d2","ios":"levelo://app?vid=5dae140b-ae00-44fd-86ea-3df3ccfe95d2"},"vehicle_type_id":"4","last_reported":1727785076,"current_range_meters":26000,"station_id":"ce4bgj12rcd13ifvqbc0","pricing_plan_id":"cebpf4jnsgd1na2vs0mg"},{"bike_id":"09cce354-8b56-4a01-8379-fcec9e7693fb","system_id":"levelo_inurba_marseille","lat":43.26568,"lon":5.39014,"is_reserved":false,"is_disabled":false,"rental_uris":{"android":"levelo://app?vid=09cce354-8b56-4a01-8379-fcec9e7693fb","ios":"levelo://app?vid=09cce354-8b56-4a01-8379-fcec9e7693fb"},"vehicle_type_id":"4","last_reported":1727785076,"current_range_meters":8000,"station_id":"ce4bhe12rcd13ifvqf30","pricing_plan_id":"cebpf4jnsgd1na2vs0mg"},{"bike_id":"9fbffb25-4814-4ee1-9ede-e19d0e2bc2b0","system_id":"levelo_inurba_marseille","lat":43.29194,"lon":5.35818,"is_reserved":false,"is_disabled":false,"rental_uris":{"android":"levelo://app?vid=9fbffb25-4814-4ee1-9ede-e19d0e2bc2b0","ios":"levelo://app?vid=9fbffb25-4814-4ee1-9ede-e19d0e2bc2b0"},"vehicle_type_id":"4","last_reported":1727785076,"current_range_meters":6000,"station_id":"ce4bhb12rcd13ifvqel0","pricing_plan_id":"cebpf4jnsgd1na2vs0mg"},{"bike_id":"63948fa4-ae6d-4866-abff-02440e87cd47","system_id":"levelo_inurba_marseille","lat":43.24394,"lon":5.37054,"is_reserved":false,"is_disabled":false,"rental_uris":{"android":"levelo://app?vid=63948fa4-ae6d-4866-abff-02440e87cd47","ios":"levelo://app?vid=63948fa4-ae6d-4866-abff-02440e87cd47"},"vehicle_type_id":"4","last_reported":1727785076,"current_range_meters":36400,"station_id":"ce4bhhh2rcd13ifvqfk0","pricing_plan_id":"cebpf4jnsgd1na2vs0mg"},{"bike_id":"a8fc0768-b1c4-4fb6-acb3-e03ec6d1ced8","system_id":"levelo_inurba_marseille","lat":43.27954,"lon":5.41051,"is_reserved":false,"is_disabled":false,"rental_uris":{"android":"levelo://app?vid=a8fc0768-b1c4-4fb6-acb3-e03ec6d1ced8","ios":"levelo://app?vid=a8fc0768-b1c4-4fb6-acb3-e03ec6d1ced8"},"vehicle_type_id":"4","last_reported":1727785076,"current_range_meters":9600,"station_id":"ce4bhnp2rcd13ifvqh0g","pricing_plan_id":"cebpf4jnsgd1na2vs0mg"},{"bike_id":"7a8b241f-57ad-4336-b3e1-9209d3fac587","system_id":"levelo_inurba_marseille","lat":43.313441,"lon":5.367197,"is_reserved":false,"is_disabled":false,"rental_uris":{"android":"levelo://app?vid=7a8b241f-57ad-4336-b3e1-9209d3fac587","ios":"levelo://app?vid=7a8b241f-57ad-4336-b3e1-9209d3fac587"},"vehicle_type_id":"4","last_reported":1727785076,"current_range_meters":39200,"station_id":"ce4bgr92rcd13ifvqc6g","pricing_plan_id":"cebpf4jnsgd1na2vs0mg"},{"bike_id":"4f88b262-594a-4a5b-8dae-fb3678519a46","system_id":"levelo_inurba_marseille","lat":43.30426,"lon":5.388908,"is_reserved":false,"is_disabled":false,"rental_uris":{"android":"levelo://app?vid=4f88b262-594a-4a5b-8dae-fb3678519a46","ios":"levelo://app?vid=4f88b262-594a-4a5b-8dae-fb3678519a46"},"vehicle_type_id":"4","last_reported":1727785076,"current_range_meters":27600,"station_id":"ce4bgk12rcd13ifvqbi0","pricing_plan_id":"cebpf4jnsgd1na2vs0mg"},{"bike_id":"56831e9b-bf40-4a57-b517-2c18fd0aceb7","system_id":"levelo_inurba_marseille","lat":43.29062,"lon":5.35913,"is_reserved":false,"is_disabled":false,"rental_uris":{"android":"levelo://app?vid=56831e9b-bf40-4a57-b517-2c18fd0aceb7","ios":"levelo://app?vid=56831e9b-bf40-4a57-b517-2c18fd0aceb7"},"vehicle_type_id":"4","last_reported":1727785076,"current_range_meters":17600,"station_id":"ce4bha92rcd13ifvqeg0","pricing_plan_id":"cebpf4jnsgd1na2vs0mg"},{"bike_id":"3afc4416-7bd5-4e0c-ac83-d1668226d114","system_id":"levelo_inurba_marseille","lat":43.29796,"lon":5.39485,"is_reserved":false,"is_disabled":false,"rental_uris":{"android":"levelo://app?vid=3afc4416-7bd5-4e0c-ac83-d1668226d114","ios":"levelo://app?vid=3afc4416-7bd5-4e0c-ac83-d1668226d114"},"vehicle_type_id":"4","last_reported":1727785076,"current_range_meters":20800,"station_id":"ce4bh0p2rcd13ifvqd70","pricing_plan_id":"cebpf4jnsgd1na2vs0mg"},{"bike_id":"ef56d4c0-295a-42fd-8b32-179256c00cc1","system_id":"levelo_inurba_marseille","lat":43.261955,"lon":5.37447,"is_reserved":false,"is_disabled":false,"rental_uris":{"android":"levelo://app?vid=ef56d4c0-295a-42fd-8b32-179256c00cc1","ios":"levelo://app?vid=ef56d4c0-295a-42fd-8b32-179256c00cc1"},"vehicle_type_id":"4","last_reported":1727785076,"current_range_meters":38800,"station_id":"","pricing_plan_id":"cebpf4jnsgd1na2vs0mg"},{"bike_id":"f452b8ce-1dec-4070-b48f-9a302cb899c2","system_id":"levelo_inurba_marseille","lat":43.24075,"lon":5.37762,"is_reserved":false,"is_disabled":false,"rental_uris":{"android":"levelo://app?vid=f452b8ce-1dec-4070-b48f-9a302cb899c2","ios":"levelo://app?vid=f452b8ce-1dec-4070-b48f-9a302cb899c2"},"vehicle_type_id":"4","last_reported":1727785076,"current_range_meters":35600,"station_id":"ce4bhnp2rcd13ifvqgvg","pricing_plan_id":"cebpf4jnsgd1na2vs0mg"},{"bike_id":"bb07ba2e-e01c-4c54-9ca3-0e34c97947c5","system_id":"levelo_inurba_marseille","lat":43.30101,"lon":5.39099,"is_reserved":false,"is_disabled":false,"rental_uris":{"android":"levelo://app?vid=bb07ba2e-e01c-4c54-9ca3-0e34c97947c5","ios":"levelo://app?vid=bb07ba2e-e01c-4c54-9ca3-0e34c97947c5"},"vehicle_type_id":"4","last_reported":1727785076,"current_range_meters":11600,"station_id":"ce4bh192rcd13ifvqdb0","pricing_plan_id":"cebpf4jnsgd1na2vs0mg"},{"bike_id":"383284dd-ae95-4a60-ac6b-52360c454bd4","system_id":"levelo_inurba_marseille","lat":43.29038,"lon":5.37566,"is_reserved":false,"is_disabled":false,"rental_uris":{"android":"levelo://app?vid=383284dd-ae95-4a60-ac6b-52360c454bd4","ios":"levelo://app?vid=383284dd-ae95-4a60-ac6b-52360c454bd4"},"vehicle_type_id":"4","last_reported":1727785076,"current_range_meters":39200,"station_id":"ce4bh692rcd13ifvqe90","pricing_plan_id":"cebpf4jnsgd1na2vs0mg"},{"bike_id":"8b562ce2-65b8-43ff-bcd5-d8c8400254e3","system_id":"levelo_inurba_marseille","lat":43.26686,"lon":5.3827,"is_reserved":false,"is_disabled":false,"rental_uris":{"android":"levelo://app?vid=8b562ce2-65b8-43ff-bcd5-d8c8400254e3","ios":"levelo://app?vid=8b562ce2-65b8-43ff-bcd5-d8c8400254e3"},"vehicle_type_id":"4","last_reported":1727785076,"current_range_meters":32400,"station_id":"ce4bhg92rcd13ifvqf90","pricing_plan_id":"cebpf4jnsgd1na2vs0mg"},{"bike_id":"054478a3-c03e-475c-9c9a-6dd766ee9251","system_id":"levelo_inurba_marseille","lat":43.28441,"lon":5.39211,"is_reserved":false,"is_disabled":false,"rental_uris":{"android":"levelo://app?vid=054478a3-c03e-475c-9c9a-6dd766ee9251","ios":"levelo://app?vid=054478a3-c03e-475c-9c9a-6dd766ee9251"},"vehicle_type_id":"4","last_reported":1727785076,"current_range_meters":15200,"station_id":"ce4bhoh2rcd13ifvqh5g","pricing_plan_id":"cebpf4jnsgd1na2vs0mg"},{"bike_id":"c5981733-e312-45df-b8b8-a36866880411","system_id":"levelo_inurba_marseille","lat":43.27495,"lon":5.42446,"is_reserved":false,"is_disabled":false,"rental_uris":{"android":"levelo://app?vid=c5981733-e312-45df-b8b8-a36866880411","ios":"levelo://app?vid=c5981733-e312-45df-b8b8-a36866880411"},"vehicle_type_id":"4","last_reported":1727785076,"current_range_meters":30400,"station_id":"ce4bhn92rcd13ifvqgrg","pricing_plan_id":"cebpf4jnsgd1na2vs0mg"},{"bike_id":"18c4d620-a633-4cb8-9334-04bba9ce7045","system_id":"levelo_inurba_marseille","lat":43.29894,"lon":5.38906,"is_reserved":false,"is_disabled":false,"rental_uris":{"android":"levelo://app?vid=18c4d620-a633-4cb8-9334-04bba9ce7045","ios":"levelo://app?vid=18c4d620-a633-4cb8-9334-04bba9ce7045"},"vehicle_type_id":"4","last_reported":1727785076,"current_range_meters":26000,"station_id":"ce4bh392rcd13ifvqdl0","pricing_plan_id":"cebpf4jnsgd1na2vs0mg"},{"bike_id":"4f04f60f-e66b-49d6-89b0-44a4e9adf7ff","system_id":"levelo_inurba_marseille","lat":43.27815,"lon":5.40712,"is_reserved":false,"is_disabled":false,"rental_uris":{"android":"levelo://app?vid=4f04f60f-e66b-49d6-89b0-44a4e9adf7ff","ios":"levelo://app?vid=4f04f60f-e66b-49d6-89b0-44a4e9adf7ff"},"vehicle_type_id":"4","last_reported":1727785076,"current_range_meters":14800,"station_id":"ce4bhnh2rcd13ifvqgtg","pricing_plan_id":"cebpf4jnsgd1na2vs0mg"},{"bike_id":"c7b21881-7c15-4c2c-af57-4c71ec184763","system_id":"levelo_inurba_marseille","lat":43.29892,"lon":5.38902,"is_reserved":false,"is_disabled":false,"rental_uris":{"android":"levelo://app?vid=c7b21881-7c15-4c2c-af57-4c71ec184763","ios":"levelo://app?vid=c7b21881-7c15-4c2c-af57-4c71ec184763"},"vehicle_type_id":"4","last_reported":1727785076,"current_range_meters":8000,"station_id":"ce4bh392rcd13ifvqdl0","pricing_plan_id":"cebpf4jnsgd1na2vs0mg"},{"bike_id":"0673a1b2-9bba-4fc1-a56f-375d48d6ec67","system_id":"levelo_inurba_marseille","lat":43.2738,"lon":5.36256,"is_reserved":false,"is_disabled":false,"rental_uris":{"android":"levelo://app?vid=0673a1b2-9bba-4fc1-a56f-375d48d6ec67","ios":"levelo://app?vid=0673a1b2-9bba-4fc1-a56f-375d48d6ec67"},"vehicle_type_id":"4","last_reported":1727785076,"current_range_meters":9200,"station_id":"ce4bhbh2rcd13ifvqeo0","pricing_plan_id":"cebpf4jnsgd1na2vs0mg"},{"bike_id":"13df4bc2-2ce7-4695-b7cb-9e18df87bb67","system_id":"levelo_inurba_marseille","lat":43.23155,"lon":5.43705,"is_reserved":false,"is_disabled":false,"rental_uris":{"android":"levelo://app?vid=13df4bc2-2ce7-4695-b7cb-9e18df87bb67","ios":"levelo://app?vid=13df4bc2-2ce7-4695-b7cb-9e18df87bb67"},"vehicle_type_id":"4","last_reported":1727785076,"current_range_meters":24800,"station_id":"ce4bhmp2rcd13ifvqgog","pricing_plan_id":"cebpf4jnsgd1na2vs0mg"},{"bike_id":"b3f47936-1ea0-4982-b4a5-9cb648374f37","system_id":"levelo_inurba_marseille","lat":43.2293,"lon":5.35379,"is_reserved":false,"is_disabled":false,"rental_uris":{"android":"levelo://app?vid=b3f47936-1ea0-4982-b4a5-9cb648374f37","ios":"levelo://app?vid=b3f47936-1ea0-4982-b4a5-9cb648374f37"},"vehicle_type_id":"4","last_reported":1727785076,"current_range_meters":21600,"station_id":"cpo3532slgdg3j2ikp40","pricing_plan_id":"cebpf4jnsgd1na2vs0mg"},{"bike_id":"ff59ce61-208f-4504-a746-bed845900e53","system_id":"levelo_inurba_marseille","lat":43.289734,"lon":5.378385,"is_reserved":false,"is_disabled":false,"rental_uris":{"android":"levelo://app?vid=ff59ce61-208f-4504-a746-bed845900e53","ios":"levelo://app?vid=ff59ce61-208f-4504-a746-bed845900e53"},"vehicle_type_id":"4","last_reported":1727785076,"current_range_meters":10000,"station_id":"ce4bh9p2rcd13ifvqed0","pricing_plan_id":"cebpf4jnsgd1na2vs0mg"},{"bike_id":"21997ce8-c724-4af0-87e1-24855577cda0","system_id":"levelo_inurba_marseille","lat":43.3376,"lon":5.37481,"is_reserved":false,"is_disabled":false,"rental_uris":{"android":"levelo://app?vid=21997ce8-c724-4af0-87e1-24855577cda0","ios":"levelo://app?vid=21997ce8-c724-4af0-87e1-24855577cda0"},"vehicle_type_id":"4","last_reported":1727785076,"current_range_meters":38800,"station_id":"","pricing_plan_id":"cebpf4jnsgd1na2vs0mg"},{"bike_id":"6fb4485c-0852-4e14-8bee-aab0d596d0c4","system_id":"levelo_inurba_marseille","lat":43.28726,"lon":5.37936,"is_reserved":false,"is_disabled":false,"rental_uris":{"android":"levelo://app?vid=6fb4485c-0852-4e14-8bee-aab0d596d0c4","ios":"levelo://app?vid=6fb4485c-0852-4e14-8bee-aab0d596d0c4"},"vehicle_type_id":"4","last_reported":1727785076,"current_range_meters":6000,"station_id":"ce4bh9p2rcd13ifvqec0","pricing_plan_id":"cebpf4jnsgd1na2vs0mg"},{"bike_id":"8547d1e9-f568-4ddb-8360-570e5c021db3","system_id":"levelo_inurba_marseille","lat":43.2994,"lon":5.36545,"is_reserved":false,"is_disabled":false,"rental_uris":{"android":"levelo://app?vid=8547d1e9-f568-4ddb-8360-570e5c021db3","ios":"levelo://app?vid=8547d1e9-f568-4ddb-8360-570e5c021db3"},"vehicle_type_id":"4","last_reported":1727785076,"current_range_meters":34000,"station_id":"ce4bgm92rcd13ifvqbr0","pricing_plan_id":"cebpf4jnsgd1na2vs0mg"},{"bike_id":"bf7b89f3-f744-46fc-ae98-1b351af221f4","system_id":"levelo_inurba_marseille","lat":43.30153,"lon":5.38788,"is_reserved":false,"is_disabled":false,"rental_uris":{"android":"levelo://app?vid=bf7b89f3-f744-46fc-ae98-1b351af221f4","ios":"levelo://app?vid=bf7b89f3-f744-46fc-ae98-1b351af221f4"},"vehicle_type_id":"4","last_reported":1727785076,"current_range_meters":36400,"station_id":"ce4bghh2rcd13ifvqb60","pricing_plan_id":"cebpf4jnsgd1na2vs0mg"},{"bike_id":"1293f3c1-259b-4342-85fd-2008f83f5e2a","system_id":"levelo_inurba_marseille","lat":43.26565,"lon":5.39023,"is_reserved":false,"is_disabled":false,"rental_uris":{"android":"levelo://app?vid=1293f3c1-259b-4342-85fd-2008f83f5e2a","ios":"levelo://app?vid=1293f3c1-259b-4342-85fd-2008f83f5e2a"},"vehicle_type_id":"4","last_reported":1727785076,"current_range_meters":35600,"station_id":"ce4bhe12rcd13ifvqf30","pricing_plan_id":"cebpf4jnsgd1na2vs0mg"},{"bike_id":"bb0db29b-307e-4e3c-9fb8-089947d27aae","system_id":"levelo_inurba_marseille","lat":43.30536,"lon":5.36527,"is_reserved":false,"is_disabled":false,"rental_uris":{"android":"levelo://app?vid=bb0db29b-307e-4e3c-9fb8-089947d27aae","ios":"levelo://app?vid=bb0db29b-307e-4e3c-9fb8-089947d27aae"},"vehicle_type_id":"4","last_reported":1727785076,"current_range_meters":34000,"station_id":"ce4bgs12rcd13ifvqcag","pricing_plan_id":"cebpf4jnsgd1na2vs0mg"},{"bike_id":"277493fc-cefa-4f59-8d17-e1ae4d4b8047","system_id":"levelo_inurba_marseille","lat":43.30195,"lon":5.36629,"is_reserved":false,"is_disabled":false,"rental_uris":{"android":"levelo://app?vid=277493fc-cefa-4f59-8d17-e1ae4d4b8047","ios":"levelo://app?vid=277493fc-cefa-4f59-8d17-e1ae4d4b8047"},"vehicle_type_id":"4","last_reported":1727785076,"current_range_meters":37600,"station_id":"ce4bgrh2rcd13ifvqc8g","pricing_plan_id":"cebpf4jnsgd1na2vs0mg"},{"bike_id":"d2edc833-f155-44d7-a16c-3f9e01381e91","system_id":"levelo_inurba_marseille","lat":43.29169,"lon":5.37151,"is_reserved":false,"is_disabled":false,"rental_uris":{"android":"levelo://app?vid=d2edc833-f155-44d7-a16c-3f9e01381e91","ios":"levelo://app?vid=d2edc833-f155-44d7-a16c-3f9e01381e91"},"vehicle_type_id":"4","last_reported":1727785076,"current_range_meters":38000,"station_id":"ce4bha92rcd13ifvqeh0","pricing_plan_id":"cebpf4jnsgd1na2vs0mg"},{"bike_id":"17346577-f0d6-4544-b4b0-1fd855e7857c","system_id":"levelo_inurba_marseille","lat":43.279063,"lon":5.380207,"is_reserved":false,"is_disabled":false,"rental_uris":{"android":"levelo://app?vid=17346577-f0d6-4544-b4b0-1fd855e7857c","ios":"levelo://app?vid=17346577-f0d6-4544-b4b0-1fd855e7857c"},"vehicle_type_id":"4","last_reported":1727785076,"current_range_meters":27600,"station_id":"ce4bhf92rcd13ifvqf50","pricing_plan_id":"cebpf4jnsgd1na2vs0mg"},{"bike_id":"c2d4a157-c47d-4c58-a1b1-29897ba28d31","system_id":"levelo_inurba_marseille","lat":43.25587,"lon":5.38236,"is_reserved":false,"is_disabled":false,"rental_uris":{"android":"levelo://app?vid=c2d4a157-c47d-4c58-a1b1-29897ba28d31","ios":"levelo://app?vid=c2d4a157-c47d-4c58-a1b1-29897ba28d31"},"vehicle_type_id":"4","last_reported":1727785076,"current_range_meters":20800,"station_id":"ce4bhih2rcd13ifvqfs0","pricing_plan_id":"cebpf4jnsgd1na2vs0mg"},{"bike_id":"507af9aa-79f8-4e66-bc82-e635952e27ce","system_id":"levelo_inurba_marseille","lat":43.30559,"lon":5.3653,"is_reserved":false,"is_disabled":false,"rental_uris":{"android":"levelo://app?vid=507af9aa-79f8-4e66-bc82-e635952e27ce","ios":"levelo://app?vid=507af9aa-79f8-4e66-bc82-e635952e27ce"},"vehicle_type_id":"4","last_reported":1727785076,"current_range_meters":36000,"station_id":"ce4bgs12rcd13ifvqcag","pricing_plan_id":"cebpf4jnsgd1na2vs0mg"},{"bike_id":"f0501c38-8b64-40c9-a5be-0ba82d406f7d","system_id":"levelo_inurba_marseille","lat":43.28934,"lon":5.36627,"is_reserved":false,"is_disabled":false,"rental_uris":{"android":"levelo://app?vid=f0501c38-8b64-40c9-a5be-0ba82d406f7d","ios":"levelo://app?vid=f0501c38-8b64-40c9-a5be-0ba82d406f7d"},"vehicle_type_id":"4","last_reported":1727785076,"current_range_meters":32000,"station_id":"ce4bhap2rcd13ifvqek0","pricing_plan_id":"cebpf4jnsgd1na2vs0mg"},{"bike_id":"cbc9caa0-791f-48be-b6cd-e5218b3c417e","system_id":"levelo_inurba_marseille","lat":43.28708,"lon":5.3998,"is_reserved":false,"is_disabled":false,"rental_uris":{"android":"levelo://app?vid=cbc9caa0-791f-48be-b6cd-e5218b3c417e","ios":"levelo://app?vid=cbc9caa0-791f-48be-b6cd-e5218b3c417e"},"vehicle_type_id":"4","last_reported":1727785076,"current_range_meters":12000,"station_id":"ce4bho92rcd13ifvqh3g","pricing_plan_id":"cebpf4jnsgd1na2vs0mg"},{"bike_id":"ab728a23-caf1-4bd3-910f-0549e57950ad","system_id":"levelo_inurba_marseille","lat":43.23149,"lon":5.43722,"is_reserved":false,"is_disabled":false,"rental_uris":{"android":"levelo://app?vid=ab728a23-caf1-4bd3-910f-0549e57950ad","ios":"levelo://app?vid=ab728a23-caf1-4bd3-910f-0549e57950ad"},"vehicle_type_id":"4","last_reported":1727785076,"current_range_meters":3600,"station_id":"ce4bhmp2rcd13ifvqgog","pricing_plan_id":"cebpf4jnsgd1na2vs0mg"},{"bike_id":"3a5dc3fd-5531-4af9-ae8b-0ede616a22b3","system_id":"levelo_inurba_marseille","lat":43.23179,"lon":5.39983,"is_reserved":false,"is_disabled":false,"rental_uris":{"android":"levelo://app?vid=3a5dc3fd-5531-4af9-ae8b-0ede616a22b3","ios":"levelo://app?vid=3a5dc3fd-5531-4af9-ae8b-0ede616a22b3"},"vehicle_type_id":"4","last_reported":1727785076,"current_range_meters":12800,"station_id":"ce4bhn12rcd13ifvqgqg","pricing_plan_id":"cebpf4jnsgd1na2vs0mg"},{"bike_id":"fe546efa-4b18-48de-9d1e-efef2e98d685","system_id":"levelo_inurba_marseille","lat":43.30543,"lon":5.36708,"is_reserved":false,"is_disabled":false,"rental_uris":{"android":"levelo://app?vid=fe546efa-4b18-48de-9d1e-efef2e98d685","ios":"levelo://app?vid=fe546efa-4b18-48de-9d1e-efef2e98d685"},"vehicle_type_id":"4","last_reported":1727785076,"current_range_meters":32000,"station_id":"ce4bgrp2rcd13ifvqc9g","pricing_plan_id":"cebpf4jnsgd1na2vs0mg"},{"bike_id":"91cf515d-1f46-434d-91d8-ee7600fdaf84","system_id":"levelo_inurba_marseille","lat":43.32043,"lon":5.41562,"is_reserved":false,"is_disabled":false,"rental_uris":{"android":"levelo://app?vid=91cf515d-1f46-434d-91d8-ee7600fdaf84","ios":"levelo://app?vid=91cf515d-1f46-434d-91d8-ee7600fdaf84"},"vehicle_type_id":"4","last_reported":1727785076,"current_range_meters":24000,"station_id":"ce4bhq92rcd13ifvqhkg","pricing_plan_id":"cebpf4jnsgd1na2vs0mg"},{"bike_id":"d7ce7a5c-b08f-49b4-8b23-521e5b122803","system_id":"levelo_inurba_marseille","lat":43.23153,"lon":5.43699,"is_reserved":false,"is_disabled":false,"rental_uris":{"android":"levelo://app?vid=d7ce7a5c-b08f-49b4-8b23-521e5b122803","ios":"levelo://app?vid=d7ce7a5c-b08f-49b4-8b23-521e5b122803"},"vehicle_type_id":"4","last_reported":1727785076,"current_range_meters":16400,"station_id":"ce4bhmp2rcd13ifvqgog","pricing_plan_id":"cebpf4jnsgd1na2vs0mg"},{"bike_id":"07b5a74b-d824-4607-9a9d-31a616d5b59d","system_id":"levelo_inurba_marseille","lat":43.33764,"lon":5.37461,"is_reserved":false,"is_disabled":false,"rental_uris":{"android":"levelo://app?vid=07b5a74b-d824-4607-9a9d-31a616d5b59d","ios":"levelo://app?vid=07b5a74b-d824-4607-9a9d-31a616d5b59d"},"vehicle_type_id":"4","last_reported":1727785076,"current_range_meters":38800,"station_id":"","pricing_plan_id":"cebpf4jnsgd1na2vs0mg"},{"bike_id":"bd5a218e-8c35-4d32-8771-74b25cc6c288","system_id":"levelo_inurba_marseille","lat":43.26953,"lon":5.38626,"is_reserved":false,"is_disabled":false,"rental_uris":{"android":"levelo://app?vid=bd5a218e-8c35-4d32-8771-74b25cc6c288","ios":"levelo://app?vid=bd5a218e-8c35-4d32-8771-74b25cc6c288"},"vehicle_type_id":"4","last_reported":1727785076,"current_range_meters":38800,"station_id":"ce4bhh92rcd13ifvqfh0","pricing_plan_id":"cebpf4jnsgd1na2vs0mg"},{"bike_id":"1baa860c-a7a2-467b-9004-25f4e0d2380c","system_id":"levelo_inurba_marseille","lat":43.29795,"lon":5.38113,"is_reserved":false,"is_disabled":false,"rental_uris":{"android":"levelo://app?vid=1baa860c-a7a2-467b-9004-25f4e0d2380c","ios":"levelo://app?vid=1baa860c-a7a2-467b-9004-25f4e0d2380c"},"vehicle_type_id":"4","last_reported":1727785076,"current_range_meters":6800,"station_id":"ce4bgip2rcd13ifvqbb0","pricing_plan_id":"cebpf4jnsgd1na2vs0mg"},{"bike_id":"2b3c0bbf-c674-4b7e-8e56-ca3998f7f6c6","system_id":"levelo_inurba_marseille","lat":43.30467,"lon":5.37908,"is_reserved":false,"is_disabled":false,"rental_uris":{"android":"levelo://app?vid=2b3c0bbf-c674-4b7e-8e56-ca3998f7f6c6","ios":"levelo://app?vid=2b3c0bbf-c674-4b7e-8e56-ca3998f7f6c6"},"vehicle_type_id":"4","last_reported":1727785076,"current_range_meters":30000,"station_id":"ce4bgup2rcd13ifvqcn0","pricing_plan_id":"cebpf4jnsgd1na2vs0mg"},{"bike_id":"acb787c4-9c59-4b85-8997-f10dd67ce106","system_id":"levelo_inurba_marseille","lat":43.30202,"lon":5.3662,"is_reserved":false,"is_disabled":false,"rental_uris":{"android":"levelo://app?vid=acb787c4-9c59-4b85-8997-f10dd67ce106","ios":"levelo://app?vid=acb787c4-9c59-4b85-8997-f10dd67ce106"},"vehicle_type_id":"4","last_reported":1727785076,"current_range_meters":8800,"station_id":"ce4bgrh2rcd13ifvqc8g","pricing_plan_id":"cebpf4jnsgd1na2vs0mg"},{"bike_id":"22164014-f70e-4ff1-8f41-3ed15f5117fb","system_id":"levelo_inurba_marseille","lat":43.28435,"lon":5.39181,"is_reserved":false,"is_disabled":false,"rental_uris":{"android":"levelo://app?vid=22164014-f70e-4ff1-8f41-3ed15f5117fb","ios":"levelo://app?vid=22164014-f70e-4ff1-8f41-3ed15f5117fb"},"vehicle_type_id":"4","last_reported":1727785076,"current_range_meters":12000,"station_id":"ce4bh292rcd13ifvqdg0","pricing_plan_id":"cebpf4jnsgd1na2vs0mg"},{"bike_id":"8f64f2d6-2fb9-4030-8e61-47c767c8f9e0","system_id":"levelo_inurba_marseille","lat":43.25586,"lon":5.38222,"is_reserved":false,"is_disabled":false,"rental_uris":{"android":"levelo://app?vid=8f64f2d6-2fb9-4030-8e61-47c767c8f9e0","ios":"levelo://app?vid=8f64f2d6-2fb9-4030-8e61-47c767c8f9e0"},"vehicle_type_id":"4","last_reported":1727785076,"current_range_meters":25200,"station_id":"ce4bhih2rcd13ifvqfs0","pricing_plan_id":"cebpf4jnsgd1na2vs0mg"},{"bike_id":"e132d7d3-7aba-4c8e-a492-69cfd9e96c4e","system_id":"levelo_inurba_marseille","lat":43.296204,"lon":5.371514,"is_reserved":false,"is_disabled":false,"rental_uris":{"android":"levelo://app?vid=e132d7d3-7aba-4c8e-a492-69cfd9e96c4e","ios":"levelo://app?vid=e132d7d3-7aba-4c8e-a492-69cfd9e96c4e"},"vehicle_type_id":"4","last_reported":1727785076,"current_range_meters":38000,"station_id":"ce4bgnh2rcd13ifvqc0g","pricing_plan_id":"cebpf4jnsgd1na2vs0mg"},{"bike_id":"e3347d76-27d9-4ee5-ac2e-399f475d7675","system_id":"levelo_inurba_marseille","lat":43.27903,"lon":5.38004,"is_reserved":false,"is_disabled":false,"rental_uris":{"android":"levelo://app?vid=e3347d76-27d9-4ee5-ac2e-399f475d7675","ios":"levelo://app?vid=e3347d76-27d9-4ee5-ac2e-399f475d7675"},"vehicle_type_id":"4","last_reported":1727785076,"current_range_meters":30800,"station_id":"ce4bhf92rcd13ifvqf50","pricing_plan_id":"cebpf4jnsgd1na2vs0mg"},{"bike_id":"2d1e394b-c65c-48dd-8f6c-7fbd688f784e","system_id":"levelo_inurba_marseille","lat":43.31753,"lon":5.39022,"is_reserved":false,"is_disabled":false,"rental_uris":{"android":"levelo://app?vid=2d1e394b-c65c-48dd-8f6c-7fbd688f784e","ios":"levelo://app?vid=2d1e394b-c65c-48dd-8f6c-7fbd688f784e"},"vehicle_type_id":"4","last_reported":1727785076,"current_range_meters":10800,"station_id":"ce4bhqp2rcd13ifvqhng","pricing_plan_id":"cebpf4jnsgd1na2vs0mg"},{"bike_id":"9fdb61b4-442c-4eff-9d3b-cf7f40325237","system_id":"levelo_inurba_marseille","lat":43.29572,"lon":5.37497,"is_reserved":false,"is_disabled":false,"rental_uris":{"android":"levelo://app?vid=9fdb61b4-442c-4eff-9d3b-cf7f40325237","ios":"levelo://app?vid=9fdb61b4-442c-4eff-9d3b-cf7f40325237"},"vehicle_type_id":"4","last_reported":1727785076,"current_range_meters":36800,"station_id":"ce4bgh92rcd13ifvqb50","pricing_plan_id":"cebpf4jnsgd1na2vs0mg"},{"bike_id":"8d57fd45-56ae-4b32-b35a-ff2dabe7cd75","system_id":"levelo_inurba_marseille","lat":43.26062,"lon":5.39397,"is_reserved":false,"is_disabled":false,"rental_uris":{"android":"levelo://app?vid=8d57fd45-56ae-4b32-b35a-ff2dabe7cd75","ios":"levelo://app?vid=8d57fd45-56ae-4b32-b35a-ff2dabe7cd75"},"vehicle_type_id":"4","last_reported":1727785076,"current_range_meters":8000,"station_id":"ce4bhh92rcd13ifvqfj0","pricing_plan_id":"cebpf4jnsgd1na2vs0mg"},{"bike_id":"ab80b424-bfc5-4709-9b95-a2bee6a56f64","system_id":"levelo_inurba_marseille","lat":43.32301,"lon":5.38265,"is_reserved":false,"is_disabled":false,"rental_uris":{"android":"levelo://app?vid=ab80b424-bfc5-4709-9b95-a2bee6a56f64","ios":"levelo://app?vid=ab80b424-bfc5-4709-9b95-a2bee6a56f64"},"vehicle_type_id":"4","last_reported":1727785076,"current_range_meters":38800,"station_id":"ce4bhr12rcd13ifvqhqg","pricing_plan_id":"cebpf4jnsgd1na2vs0mg"},{"bike_id":"2bfd4452-d854-4ea1-8b71-db38f940202a","system_id":"levelo_inurba_marseille","lat":43.30532,"lon":5.36705,"is_reserved":false,"is_disabled":false,"rental_uris":{"android":"levelo://app?vid=2bfd4452-d854-4ea1-8b71-db38f940202a","ios":"levelo://app?vid=2bfd4452-d854-4ea1-8b71-db38f940202a"},"vehicle_type_id":"4","last_reported":1727785076,"current_range_meters":36000,"station_id":"ce4bgrp2rcd13ifvqc9g","pricing_plan_id":"cebpf4jnsgd1na2vs0mg"},{"bike_id":"e3032f9d-4cf2-460c-b529-d9dc0db3ec9c","system_id":"levelo_inurba_marseille","lat":43.29259,"lon":5.36845,"is_reserved":false,"is_disabled":false,"rental_uris":{"android":"levelo://app?vid=e3032f9d-4cf2-460c-b529-d9dc0db3ec9c","ios":"levelo://app?vid=e3032f9d-4cf2-460c-b529-d9dc0db3ec9c"},"vehicle_type_id":"4","last_reported":1727785076,"current_range_meters":38800,"station_id":"ce4bhbp2rcd13ifvqesg","pricing_plan_id":"cebpf4jnsgd1na2vs0mg"},{"bike_id":"157abced-53dc-49f0-8be0-a1a494696491","system_id":"levelo_inurba_marseille","lat":43.25938,"lon":5.40903,"is_reserved":false,"is_disabled":false,"rental_uris":{"android":"levelo://app?vid=157abced-53dc-49f0-8be0-a1a494696491","ios":"levelo://app?vid=157abced-53dc-49f0-8be0-a1a494696491"},"vehicle_type_id":"4","last_reported":1727785076,"current_range_meters":31200,"station_id":"ce4bhm92rcd13ifvqglg","pricing_plan_id":"cebpf4jnsgd1na2vs0mg"},{"bike_id":"dd05cf58-177b-4d66-8ca2-fe7872404e55","system_id":"levelo_inurba_marseille","lat":43.23153,"lon":5.43707,"is_reserved":false,"is_disabled":false,"rental_uris":{"android":"levelo://app?vid=dd05cf58-177b-4d66-8ca2-fe7872404e55","ios":"levelo://app?vid=dd05cf58-177b-4d66-8ca2-fe7872404e55"},"vehicle_type_id":"4","last_reported":1727785076,"current_range_meters":32400,"station_id":"ce4bhmp2rcd13ifvqgog","pricing_plan_id":"cebpf4jnsgd1na2vs0mg"},{"bike_id":"ec86ebc0-4bac-4cde-b1c8-7ad0517396dd","system_id":"levelo_inurba_marseille","lat":43.23152,"lon":5.437,"is_reserved":false,"is_disabled":false,"rental_uris":{"android":"levelo://app?vid=ec86ebc0-4bac-4cde-b1c8-7ad0517396dd","ios":"levelo://app?vid=ec86ebc0-4bac-4cde-b1c8-7ad0517396dd"},"vehicle_type_id":"4","last_reported":1727785076,"current_range_meters":9600,"station_id":"ce4bhmp2rcd13ifvqgog","pricing_plan_id":"cebpf4jnsgd1na2vs0mg"},{"bike_id":"f493192b-13c6-47a1-9573-739dd32e633f","system_id":"levelo_inurba_marseille","lat":43.337444,"lon":5.374475,"is_reserved":false,"is_disabled":false,"rental_uris":{"android":"levelo://app?vid=f493192b-13c6-47a1-9573-739dd32e633f","ios":"levelo://app?vid=f493192b-13c6-47a1-9573-739dd32e633f"},"vehicle_type_id":"4","last_reported":1727785076,"current_range_meters":17200,"station_id":"","pricing_plan_id":"cebpf4jnsgd1na2vs0mg"},{"bike_id":"212206ff-fd53-4c9a-b7f8-41b240aa41b0","system_id":"levelo_inurba_marseille","lat":43.30318,"lon":5.36887,"is_reserved":false,"is_disabled":false,"rental_uris":{"android":"levelo://app?vid=212206ff-fd53-4c9a-b7f8-41b240aa41b0","ios":"levelo://app?vid=212206ff-fd53-4c9a-b7f8-41b240aa41b0"},"vehicle_type_id":"4","last_reported":1727785076,"current_range_meters":12000,"station_id":"ce4bgqh2rcd13ifvqc5g","pricing_plan_id":"cebpf4jnsgd1na2vs0mg"},{"bike_id":"3dab0a02-c252-4bc7-9c17-a17097a1ad7c","system_id":"levelo_inurba_marseille","lat":43.27499,"lon":5.42454,"is_reserved":false,"is_disabled":false,"rental_uris":{"android":"levelo://app?vid=3dab0a02-c252-4bc7-9c17-a17097a1ad7c","ios":"levelo://app?vid=3dab0a02-c252-4bc7-9c17-a17097a1ad7c"},"vehicle_type_id":"4","last_reported":1727785076,"current_range_meters":14400,"station_id":"ce4bhn92rcd13ifvqgrg","pricing_plan_id":"cebpf4jnsgd1na2vs0mg"},{"bike_id":"8703bcf1-8807-48a1-9dff-1bc4fd084e21","system_id":"levelo_inurba_marseille","lat":43.30781,"lon":5.3765,"is_reserved":false,"is_disabled":false,"rental_uris":{"android":"levelo://app?vid=8703bcf1-8807-48a1-9dff-1bc4fd084e21","ios":"levelo://app?vid=8703bcf1-8807-48a1-9dff-1bc4fd084e21"},"vehicle_type_id":"4","last_reported":1727785076,"current_range_meters":9600,"station_id":"ce4bgv92rcd13ifvqcq0","pricing_plan_id":"cebpf4jnsgd1na2vs0mg"},{"bike_id":"85235cf6-1531-4f2d-a042-82f76cfb71da","system_id":"levelo_inurba_marseille","lat":43.29334,"lon":5.41154,"is_reserved":false,"is_disabled":false,"rental_uris":{"android":"levelo://app?vid=85235cf6-1531-4f2d-a042-82f76cfb71da","ios":"levelo://app?vid=85235cf6-1531-4f2d-a042-82f76cfb71da"},"vehicle_type_id":"4","last_reported":1727785076,"current_range_meters":2800,"station_id":"","pricing_plan_id":"cebpf4jnsgd1na2vs0mg"},{"bike_id":"8864ce64-4139-4b69-9d65-e9b4daf2b46f","system_id":"levelo_inurba_marseille","lat":43.27574,"lon":5.38414,"is_reserved":false,"is_disabled":false,"rental_uris":{"android":"levelo://app?vid=8864ce64-4139-4b69-9d65-e9b4daf2b46f","ios":"levelo://app?vid=8864ce64-4139-4b69-9d65-e9b4daf2b46f"},"vehicle_type_id":"4","last_reported":1727785076,"current_range_meters":14000,"station_id":"ce4bhh92rcd13ifvqfi0","pricing_plan_id":"cebpf4jnsgd1na2vs0mg"},{"bike_id":"ccf3579c-8d3c-4498-bd27-bb25c067a958","system_id":"levelo_inurba_marseille","lat":43.28586,"lon":5.35079,"is_reserved":false,"is_disabled":false,"rental_uris":{"android":"levelo://app?vid=ccf3579c-8d3c-4498-bd27-bb25c067a958","ios":"levelo://app?vid=ccf3579c-8d3c-4498-bd27-bb25c067a958"},"vehicle_type_id":"4","last_reported":1727785076,"current_range_meters":29600,"station_id":"ce4bhah2rcd13ifvqej0","pricing_plan_id":"cebpf4jnsgd1na2vs0mg"},{"bike_id":"d0f3ba74-2db6-4276-a970-d6d9e934005a","system_id":"levelo_inurba_marseille","lat":43.3373,"lon":5.39179,"is_reserved":false,"is_disabled":false,"rental_uris":{"android":"levelo://app?vid=d0f3ba74-2db6-4276-a970-d6d9e934005a","ios":"levelo://app?vid=d0f3ba74-2db6-4276-a970-d6d9e934005a"},"vehicle_type_id":"4","last_reported":1727785076,"current_range_meters":6000,"station_id":"ce4bhr92rcd13ifvqhsg","pricing_plan_id":"cebpf4jnsgd1na2vs0mg"},{"bike_id":"377ab625-c190-4da1-844c-cfdf1d91ebdf","system_id":"levelo_inurba_marseille","lat":43.29599,"lon":5.38101,"is_reserved":false,"is_disabled":false,"rental_uris":{"android":"levelo://app?vid=377ab625-c190-4da1-844c-cfdf1d91ebdf","ios":"levelo://app?vid=377ab625-c190-4da1-844c-cfdf1d91ebdf"},"vehicle_type_id":"4","last_reported":1727785076,"current_range_meters":12800,"station_id":"ce4bgl12rcd13ifvqbo0","pricing_plan_id":"cebpf4jnsgd1na2vs0mg"},{"bike_id":"d1884546-c1ac-4a25-8524-789ccd6e7ce2","system_id":"levelo_inurba_marseille","lat":43.31485,"lon":5.37306,"is_reserved":false,"is_disabled":false,"rental_uris":{"android":"levelo://app?vid=d1884546-c1ac-4a25-8524-789ccd6e7ce2","ios":"levelo://app?vid=d1884546-c1ac-4a25-8524-789ccd6e7ce2"},"vehicle_type_id":"4","last_reported":1727785076,"current_range_meters":9600,"station_id":"ce4bgt12rcd13ifvqcd0","pricing_plan_id":"cebpf4jnsgd1na2vs0mg"},{"bike_id":"007845ee-5414-4411-80f1-39caf3732984","system_id":"levelo_inurba_marseille","lat":43.26687,"lon":5.38268,"is_reserved":false,"is_disabled":false,"rental_uris":{"android":"levelo://app?vid=007845ee-5414-4411-80f1-39caf3732984","ios":"levelo://app?vid=007845ee-5414-4411-80f1-39caf3732984"},"vehicle_type_id":"4","last_reported":1727785076,"current_range_meters":39200,"station_id":"ce4bhg92rcd13ifvqf90","pricing_plan_id":"cebpf4jnsgd1na2vs0mg"},{"bike_id":"eef0ff24-2e3f-471a-8736-b680248f123f","system_id":"levelo_inurba_marseille","lat":43.31716,"lon":5.37756,"is_reserved":false,"is_disabled":false,"rental_uris":{"android":"levelo://app?vid=eef0ff24-2e3f-471a-8736-b680248f123f","ios":"levelo://app?vid=eef0ff24-2e3f-471a-8736-b680248f123f"},"vehicle_type_id":"4","last_reported":1727785076,"current_range_meters":38800,"station_id":"ce4bgth2rcd13ifvqch0","pricing_plan_id":"cebpf4jnsgd1na2vs0mg"},{"bike_id":"13e197e3-79f3-4373-a63f-d268933d0bcc","system_id":"levelo_inurba_marseille","lat":43.23192,"lon":5.39989,"is_reserved":false,"is_disabled":false,"rental_uris":{"android":"levelo://app?vid=13e197e3-79f3-4373-a63f-d268933d0bcc","ios":"levelo://app?vid=13e197e3-79f3-4373-a63f-d268933d0bcc"},"vehicle_type_id":"4","last_reported":1727785076,"current_range_meters":3200,"station_id":"ce4bhlp2rcd13ifvqgjg","pricing_plan_id":"cebpf4jnsgd1na2vs0mg"},{"bike_id":"8242e6eb-fd41-4817-a9cf-b841c69370f1","system_id":"levelo_inurba_marseille","lat":43.29108,"lon":5.38089,"is_reserved":false,"is_disabled":false,"rental_uris":{"android":"levelo://app?vid=8242e6eb-fd41-4817-a9cf-b841c69370f1","ios":"levelo://app?vid=8242e6eb-fd41-4817-a9cf-b841c69370f1"},"vehicle_type_id":"4","last_reported":1727785076,"current_range_meters":16000,"station_id":"ce4bh512rcd13ifvqe2g","pricing_plan_id":"cebpf4jnsgd1na2vs0mg"},{"bike_id":"007cd8f4-202e-4a0b-a22f-1270b64cf322","system_id":"levelo_inurba_marseille","lat":43.24081,"lon":5.37742,"is_reserved":false,"is_disabled":false,"rental_uris":{"android":"levelo://app?vid=007cd8f4-202e-4a0b-a22f-1270b64cf322","ios":"levelo://app?vid=007cd8f4-202e-4a0b-a22f-1270b64cf322"},"vehicle_type_id":"4","last_reported":1727785076,"current_range_meters":11200,"station_id":"ce4bhnp2rcd13ifvqgvg","pricing_plan_id":"cebpf4jnsgd1na2vs0mg"},{"bike_id":"192ce763-2190-4bb3-9b30-f9dd2d733a32","system_id":"levelo_inurba_marseille","lat":43.30219,"lon":5.39469,"is_reserved":false,"is_disabled":false,"rental_uris":{"android":"levelo://app?vid=192ce763-2190-4bb3-9b30-f9dd2d733a32","ios":"levelo://app?vid=192ce763-2190-4bb3-9b30-f9dd2d733a32"},"vehicle_type_id":"4","last_reported":1727785076,"current_range_meters":33200,"station_id":"ce4bh0p2rcd13ifvqd70","pricing_plan_id":"cebpf4jnsgd1na2vs0mg"},{"bike_id":"9711c5af-ceda-4c50-b517-1e16cc14a4c7","system_id":"levelo_inurba_marseille","lat":43.23151,"lon":5.43719,"is_reserved":false,"is_disabled":false,"rental_uris":{"android":"levelo://app?vid=9711c5af-ceda-4c50-b517-1e16cc14a4c7","ios":"levelo://app?vid=9711c5af-ceda-4c50-b517-1e16cc14a4c7"},"vehicle_type_id":"4","last_reported":1727785076,"current_range_meters":10000,"station_id":"ce4bhmp2rcd13ifvqgog","pricing_plan_id":"cebpf4jnsgd1na2vs0mg"},{"bike_id":"50af470c-bea7-47e2-a705-26610490fed1","system_id":"levelo_inurba_marseille","lat":43.30595,"lon":5.39359,"is_reserved":false,"is_disabled":false,"rental_uris":{"android":"levelo://app?vid=50af470c-bea7-47e2-a705-26610490fed1","ios":"levelo://app?vid=50af470c-bea7-47e2-a705-26610490fed1"},"vehicle_type_id":"4","last_reported":1727785076,"current_range_meters":28400,"station_id":"ce4bh0p2rcd13ifvqd80","pricing_plan_id":"cebpf4jnsgd1na2vs0mg"},{"bike_id":"183a5897-0984-468d-b2c4-9e8bedad54b5","system_id":"levelo_inurba_marseille","lat":43.27488,"lon":5.42453,"is_reserved":false,"is_disabled":false,"rental_uris":{"android":"levelo://app?vid=183a5897-0984-468d-b2c4-9e8bedad54b5","ios":"levelo://app?vid=183a5897-0984-468d-b2c4-9e8bedad54b5"},"vehicle_type_id":"4","last_reported":1727785076,"current_range_meters":30400,"station_id":"ce4bhn92rcd13ifvqgrg","pricing_plan_id":"cebpf4jnsgd1na2vs0mg"},{"bike_id":"9a4977d9-af5f-434a-b72f-5e805c7b2c44","system_id":"levelo_inurba_marseille","lat":43.31491,"lon":5.37302,"is_reserved":false,"is_disabled":false,"rental_uris":{"android":"levelo://app?vid=9a4977d9-af5f-434a-b72f-5e805c7b2c44","ios":"levelo://app?vid=9a4977d9-af5f-434a-b72f-5e805c7b2c44"},"vehicle_type_id":"4","last_reported":1727785076,"current_range_meters":28400,"station_id":"ce4bgt12rcd13ifvqcd0","pricing_plan_id":"cebpf4jnsgd1na2vs0mg"},{"bike_id":"73409e8e-b250-4771-8847-14f14296e42c","system_id":"levelo_inurba_marseille","lat":43.27814,"lon":5.40709,"is_reserved":false,"is_disabled":false,"rental_uris":{"android":"levelo://app?vid=73409e8e-b250-4771-8847-14f14296e42c","ios":"levelo://app?vid=73409e8e-b250-4771-8847-14f14296e42c"},"vehicle_type_id":"4","last_reported":1727785076,"current_range_meters":38400,"station_id":"ce4bhnh2rcd13ifvqgtg","pricing_plan_id":"cebpf4jnsgd1na2vs0mg"},{"bike_id":"d4d2478d-5fa0-4118-84cb-b9be7e3a78d4","system_id":"levelo_inurba_marseille","lat":43.26493,"lon":5.39545,"is_reserved":false,"is_disabled":false,"rental_uris":{"android":"levelo://app?vid=d4d2478d-5fa0-4118-84cb-b9be7e3a78d4","ios":"levelo://app?vid=d4d2478d-5fa0-4118-84cb-b9be7e3a78d4"},"vehicle_type_id":"4","last_reported":1727785076,"current_range_meters":17200,"station_id":"ce4bhi12rcd13ifvqfq0","pricing_plan_id":"cebpf4jnsgd1na2vs0mg"},{"bike_id":"a2ca83da-f3d3-49a1-a9a2-7b55b27691b8","system_id":"levelo_inurba_marseille","lat":43.29685,"lon":5.37283,"is_reserved":false,"is_disabled":false,"rental_uris":{"android":"levelo://app?vid=a2ca83da-f3d3-49a1-a9a2-7b55b27691b8","ios":"levelo://app?vid=a2ca83da-f3d3-49a1-a9a2-7b55b27691b8"},"vehicle_type_id":"4","last_reported":1727785076,"current_range_meters":32800,"station_id":"ce4bgk12rcd13ifvqbj0","pricing_plan_id":"cebpf4jnsgd1na2vs0mg"},{"bike_id":"ac900e6d-31b9-4ec7-b7e1-33f8c3a7c43a","system_id":"levelo_inurba_marseille","lat":43.30533,"lon":5.38424,"is_reserved":false,"is_disabled":false,"rental_uris":{"android":"levelo://app?vid=ac900e6d-31b9-4ec7-b7e1-33f8c3a7c43a","ios":"levelo://app?vid=ac900e6d-31b9-4ec7-b7e1-33f8c3a7c43a"},"vehicle_type_id":"4","last_reported":1727785076,"current_range_meters":35200,"station_id":"ce4bgg92rcd13ifvqb30","pricing_plan_id":"cebpf4jnsgd1na2vs0mg"},{"bike_id":"428941fe-1629-4895-bd4f-74ef001e791c","system_id":"levelo_inurba_marseille","lat":43.23156,"lon":5.4371,"is_reserved":false,"is_disabled":false,"rental_uris":{"android":"levelo://app?vid=428941fe-1629-4895-bd4f-74ef001e791c","ios":"levelo://app?vid=428941fe-1629-4895-bd4f-74ef001e791c"},"vehicle_type_id":"4","last_reported":1727785076,"current_range_meters":28400,"station_id":"ce4bhmp2rcd13ifvqgog","pricing_plan_id":"cebpf4jnsgd1na2vs0mg"},{"bike_id":"a642ec0d-7f83-468b-8c5b-6f1af1ec9181","system_id":"levelo_inurba_marseille","lat":43.26937,"lon":5.38915,"is_reserved":false,"is_disabled":false,"rental_uris":{"android":"levelo://app?vid=a642ec0d-7f83-468b-8c5b-6f1af1ec9181","ios":"levelo://app?vid=a642ec0d-7f83-468b-8c5b-6f1af1ec9181"},"vehicle_type_id":"4","last_reported":1727785076,"current_range_meters":29600,"station_id":"ce4bhhh2rcd13ifvqfl0","pricing_plan_id":"cebpf4jnsgd1na2vs0mg"},{"bike_id":"a1677d4a-77fb-40b9-a09a-80f3a50eae1e","system_id":"levelo_inurba_marseille","lat":43.28944,"lon":5.36626,"is_reserved":false,"is_disabled":false,"rental_uris":{"android":"levelo://app?vid=a1677d4a-77fb-40b9-a09a-80f3a50eae1e","ios":"levelo://app?vid=a1677d4a-77fb-40b9-a09a-80f3a50eae1e"},"vehicle_type_id":"4","last_reported":1727785076,"current_range_meters":38800,"station_id":"ce4bhap2rcd13ifvqek0","pricing_plan_id":"cebpf4jnsgd1na2vs0mg"},{"bike_id":"b572c40c-5246-4f80-ab5f-3c8e0860d297","system_id":"levelo_inurba_marseille","lat":43.29292,"lon":5.37456,"is_reserved":false,"is_disabled":false,"rental_uris":{"android":"levelo://app?vid=b572c40c-5246-4f80-ab5f-3c8e0860d297","ios":"levelo://app?vid=b572c40c-5246-4f80-ab5f-3c8e0860d297"},"vehicle_type_id":"4","last_reported":1727785076,"current_range_meters":8800,"station_id":"ce4bgi12rcd13ifvqb70","pricing_plan_id":"cebpf4jnsgd1na2vs0mg"},{"bike_id":"0cd2142c-5562-430f-861b-4e7329de9689","system_id":"levelo_inurba_marseille","lat":43.32293,"lon":5.38264,"is_reserved":false,"is_disabled":false,"rental_uris":{"android":"levelo://app?vid=0cd2142c-5562-430f-861b-4e7329de9689","ios":"levelo://app?vid=0cd2142c-5562-430f-861b-4e7329de9689"},"vehicle_type_id":"4","last_reported":1727785076,"current_range_meters":11200,"station_id":"ce4bhr12rcd13ifvqhqg","pricing_plan_id":"cebpf4jnsgd1na2vs0mg"},{"bike_id":"93ed9f32-8eb6-478d-a260-0497e84375eb","system_id":"levelo_inurba_marseille","lat":43.31884,"lon":5.40731,"is_reserved":false,"is_disabled":false,"rental_uris":{"android":"levelo://app?vid=93ed9f32-8eb6-478d-a260-0497e84375eb","ios":"levelo://app?vid=93ed9f32-8eb6-478d-a260-0497e84375eb"},"vehicle_type_id":"4","last_reported":1727785076,"current_range_meters":38000,"station_id":"ce4bhq12rcd13ifvqhig","pricing_plan_id":"cebpf4jnsgd1na2vs0mg"},{"bike_id":"c3c075d2-ebf9-4ee9-b2af-844c97e33fbb","system_id":"levelo_inurba_marseille","lat":43.29505,"lon":5.38797,"is_reserved":false,"is_disabled":false,"rental_uris":{"android":"levelo://app?vid=c3c075d2-ebf9-4ee9-b2af-844c97e33fbb","ios":"levelo://app?vid=c3c075d2-ebf9-4ee9-b2af-844c97e33fbb"},"vehicle_type_id":"4","last_reported":1727785076,"current_range_meters":20400,"station_id":"ce4bhb12rcd13ifvqel0","pricing_plan_id":"cebpf4jnsgd1na2vs0mg"},{"bike_id":"b0e18e0c-c9a0-40d2-a481-9d2d4a3cef1d","system_id":"levelo_inurba_marseille","lat":43.26933,"lon":5.38913,"is_reserved":false,"is_disabled":false,"rental_uris":{"android":"levelo://app?vid=b0e18e0c-c9a0-40d2-a481-9d2d4a3cef1d","ios":"levelo://app?vid=b0e18e0c-c9a0-40d2-a481-9d2d4a3cef1d"},"vehicle_type_id":"4","last_reported":1727785076,"current_range_meters":40000,"station_id":"ce4bhhh2rcd13ifvqfl0","pricing_plan_id":"cebpf4jnsgd1na2vs0mg"},{"bike_id":"d5462c4f-27d0-4050-9adb-ac87f8709501","system_id":"levelo_inurba_marseille","lat":43.32512,"lon":5.36564,"is_reserved":false,"is_disabled":false,"rental_uris":{"android":"levelo://app?vid=d5462c4f-27d0-4050-9adb-ac87f8709501","ios":"levelo://app?vid=d5462c4f-27d0-4050-9adb-ac87f8709501"},"vehicle_type_id":"4","last_reported":1727785076,"current_range_meters":27200,"station_id":"ce4bhs12rcd13ifvqhvg","pricing_plan_id":"cebpf4jnsgd1na2vs0mg"},{"bike_id":"d00c2e8e-fb70-4e37-8485-19cdd0b9fc98","system_id":"levelo_inurba_marseille","lat":43.257202,"lon":5.411143,"is_reserved":false,"is_disabled":false,"rental_uris":{"android":"levelo://app?vid=d00c2e8e-fb70-4e37-8485-19cdd0b9fc98","ios":"levelo://app?vid=d00c2e8e-fb70-4e37-8485-19cdd0b9fc98"},"vehicle_type_id":"4","last_reported":1727785076,"current_range_meters":16400,"station_id":"ce4bhkp2rcd13ifvqgd0","pricing_plan_id":"cebpf4jnsgd1na2vs0mg"},{"bike_id":"9096bd7b-c660-4365-bf80-565dc682badb","system_id":"levelo_inurba_marseille","lat":43.31712,"lon":5.37751,"is_reserved":false,"is_disabled":false,"rental_uris":{"android":"levelo://app?vid=9096bd7b-c660-4365-bf80-565dc682badb","ios":"levelo://app?vid=9096bd7b-c660-4365-bf80-565dc682badb"},"vehicle_type_id":"4","last_reported":1727785076,"current_range_meters":38800,"station_id":"ce4bgth2rcd13ifvqch0","pricing_plan_id":"cebpf4jnsgd1na2vs0mg"},{"bike_id":"c84e5d59-30fc-4713-b481-61636401509d","system_id":"levelo_inurba_marseille","lat":43.26567,"lon":5.39002,"is_reserved":false,"is_disabled":false,"rental_uris":{"android":"levelo://app?vid=c84e5d59-30fc-4713-b481-61636401509d","ios":"levelo://app?vid=c84e5d59-30fc-4713-b481-61636401509d"},"vehicle_type_id":"4","last_reported":1727785076,"current_range_meters":24800,"station_id":"ce4bhe12rcd13ifvqf30","pricing_plan_id":"cebpf4jnsgd1na2vs0mg"},{"bike_id":"a0df0cef-a026-41dc-9390-a3b65f866c5c","system_id":"levelo_inurba_marseille","lat":43.26952,"lon":5.38627,"is_reserved":false,"is_disabled":false,"rental_uris":{"android":"levelo://app?vid=a0df0cef-a026-41dc-9390-a3b65f866c5c","ios":"levelo://app?vid=a0df0cef-a026-41dc-9390-a3b65f866c5c"},"vehicle_type_id":"4","last_reported":1727785076,"current_range_meters":29600,"station_id":"ce4bhh92rcd13ifvqfh0","pricing_plan_id":"cebpf4jnsgd1na2vs0mg"},{"bike_id":"49684db7-3714-42a3-b963-4e9fbad83496","system_id":"levelo_inurba_marseille","lat":43.288596,"lon":5.393102,"is_reserved":false,"is_disabled":false,"rental_uris":{"android":"levelo://app?vid=49684db7-3714-42a3-b963-4e9fbad83496","ios":"levelo://app?vid=49684db7-3714-42a3-b963-4e9fbad83496"},"vehicle_type_id":"4","last_reported":1727785076,"current_range_meters":27600,"station_id":"ce4bh2p2rcd13ifvqdi0","pricing_plan_id":"cebpf4jnsgd1na2vs0mg"},{"bike_id":"2d7439c9-83ec-4fba-a8cc-813889000f94","system_id":"levelo_inurba_marseille","lat":43.23194,"lon":5.35556,"is_reserved":false,"is_disabled":false,"rental_uris":{"android":"levelo://app?vid=2d7439c9-83ec-4fba-a8cc-813889000f94","ios":"levelo://app?vid=2d7439c9-83ec-4fba-a8cc-813889000f94"},"vehicle_type_id":"4","last_reported":1727785076,"current_range_meters":37600,"station_id":"ce4bhu92rcd13ifvqi70","pricing_plan_id":"cebpf4jnsgd1na2vs0mg"},{"bike_id":"283c0a19-b0ec-4986-9e09-c097d5d27e38","system_id":"levelo_inurba_marseille","lat":43.23153,"lon":5.43702,"is_reserved":false,"is_disabled":false,"rental_uris":{"android":"levelo://app?vid=283c0a19-b0ec-4986-9e09-c097d5d27e38","ios":"levelo://app?vid=283c0a19-b0ec-4986-9e09-c097d5d27e38"},"vehicle_type_id":"4","last_reported":1727785076,"current_range_meters":38400,"station_id":"ce4bhmp2rcd13ifvqgog","pricing_plan_id":"cebpf4jnsgd1na2vs0mg"},{"bike_id":"82e95409-69d7-4d50-a92e-e7f84edf9553","system_id":"levelo_inurba_marseille","lat":43.30606,"lon":5.37215,"is_reserved":false,"is_disabled":false,"rental_uris":{"android":"levelo://app?vid=82e95409-69d7-4d50-a92e-e7f84edf9553","ios":"levelo://app?vid=82e95409-69d7-4d50-a92e-e7f84edf9553"},"vehicle_type_id":"4","last_reported":1727785076,"current_range_meters":38800,"station_id":"ce4bgqh2rcd13ifvqc4g","pricing_plan_id":"cebpf4jnsgd1na2vs0mg"},{"bike_id":"b24c5e01-c56f-4e77-8471-c089ded50c3a","system_id":"levelo_inurba_marseille","lat":43.31495,"lon":5.37306,"is_reserved":false,"is_disabled":false,"rental_uris":{"android":"levelo://app?vid=b24c5e01-c56f-4e77-8471-c089ded50c3a","ios":"levelo://app?vid=b24c5e01-c56f-4e77-8471-c089ded50c3a"},"vehicle_type_id":"4","last_reported":1727785076,"current_range_meters":36800,"station_id":"ce4bgt12rcd13ifvqcd0","pricing_plan_id":"cebpf4jnsgd1na2vs0mg"},{"bike_id":"ec165253-bda4-4bac-82a7-037e6bfb341b","system_id":"levelo_inurba_marseille","lat":43.30537,"lon":5.36707,"is_reserved":false,"is_disabled":false,"rental_uris":{"android":"levelo://app?vid=ec165253-bda4-4bac-82a7-037e6bfb341b","ios":"levelo://app?vid=ec165253-bda4-4bac-82a7-037e6bfb341b"},"vehicle_type_id":"4","last_reported":1727785076,"current_range_meters":30800,"station_id":"ce4bgrp2rcd13ifvqc9g","pricing_plan_id":"cebpf4jnsgd1na2vs0mg"},{"bike_id":"7ca72c88-3cc0-4f31-82fe-b110805188de","system_id":"levelo_inurba_marseille","lat":43.26955,"lon":5.38627,"is_reserved":false,"is_disabled":false,"rental_uris":{"android":"levelo://app?vid=7ca72c88-3cc0-4f31-82fe-b110805188de","ios":"levelo://app?vid=7ca72c88-3cc0-4f31-82fe-b110805188de"},"vehicle_type_id":"4","last_reported":1727785076,"current_range_meters":32000,"station_id":"ce4bhh92rcd13ifvqfh0","pricing_plan_id":"cebpf4jnsgd1na2vs0mg"},{"bike_id":"cc0a7f5d-1ff8-4de2-8e46-8430e23ab933","system_id":"levelo_inurba_marseille","lat":43.31086,"lon":5.4243,"is_reserved":false,"is_disabled":false,"rental_uris":{"android":"levelo://app?vid=cc0a7f5d-1ff8-4de2-8e46-8430e23ab933","ios":"levelo://app?vid=cc0a7f5d-1ff8-4de2-8e46-8430e23ab933"},"vehicle_type_id":"4","last_reported":1727785076,"current_range_meters":37600,"station_id":"ce4bhp92rcd13ifvqhag","pricing_plan_id":"cebpf4jnsgd1na2vs0mg"},{"bike_id":"73facc25-96a3-4509-b07e-5c34850115eb","system_id":"levelo_inurba_marseille","lat":43.27978,"lon":5.38735,"is_reserved":false,"is_disabled":false,"rental_uris":{"android":"levelo://app?vid=73facc25-96a3-4509-b07e-5c34850115eb","ios":"levelo://app?vid=73facc25-96a3-4509-b07e-5c34850115eb"},"vehicle_type_id":"4","last_reported":1727785076,"current_range_meters":28000,"station_id":"ce4bhg12rcd13ifvqf80","pricing_plan_id":"cebpf4jnsgd1na2vs0mg"},{"bike_id":"52a76648-cdb2-499d-aa68-a9a9d61c874b","system_id":"levelo_inurba_marseille","lat":43.25933,"lon":5.40906,"is_reserved":false,"is_disabled":false,"rental_uris":{"android":"levelo://app?vid=52a76648-cdb2-499d-aa68-a9a9d61c874b","ios":"levelo://app?vid=52a76648-cdb2-499d-aa68-a9a9d61c874b"},"vehicle_type_id":"4","last_reported":1727785076,"current_range_meters":11200,"station_id":"ce4bhm92rcd13ifvqglg","pricing_plan_id":"cebpf4jnsgd1na2vs0mg"},{"bike_id":"62aa40df-ae75-4c18-b57e-0a852e3028d3","system_id":"levelo_inurba_marseille","lat":43.30147,"lon":5.38785,"is_reserved":false,"is_disabled":false,"rental_uris":{"android":"levelo://app?vid=62aa40df-ae75-4c18-b57e-0a852e3028d3","ios":"levelo://app?vid=62aa40df-ae75-4c18-b57e-0a852e3028d3"},"vehicle_type_id":"4","last_reported":1727785076,"current_range_meters":24000,"station_id":"ce4bghh2rcd13ifvqb60","pricing_plan_id":"cebpf4jnsgd1na2vs0mg"},{"bike_id":"315a585a-e855-4580-baa6-6a8ca9a4be61","system_id":"levelo_inurba_marseille","lat":43.293,"lon":5.37455,"is_reserved":false,"is_disabled":false,"rental_uris":{"android":"levelo://app?vid=315a585a-e855-4580-baa6-6a8ca9a4be61","ios":"levelo://app?vid=315a585a-e855-4580-baa6-6a8ca9a4be61"},"vehicle_type_id":"4","last_reported":1727785076,"current_range_meters":18000,"station_id":"ce4bgi12rcd13ifvqb70","pricing_plan_id":"cebpf4jnsgd1na2vs0mg"},