{"last_updated":1703563731,"ttl":30,"version":"2.2","data":{"bikes":[{"bike_id":"c81a6dc9-f6f1-4757-a863-6f2e98e0bd8b","system_id":"levelo_inurba_marseille","lat":43.312239,"lon":5.368562,"is_reserved":false,"is_disabled":false,"rental_uris":{"android":"levelo://app?vid=c81a6dc9-f6f1-4757-a863-6f2e98e0bd8b","ios":"levelo://app?vid=c81a6dc9-f6f1-4757-a863-6f2e98e0bd8b"},"vehicle_type_id":"4","last_reported":1703563731,"current_range_meters":30000,"station_id":"ce4bgl92rcd13ifvqbq0","pricing_plan_id":"free"},{"bike_id":"6e23419d-4c8a-49d5-9746-07762211e5d6","system_id":"levelo_inurba_marseille","lat":43.312229,"lon":5.368553,"is_reserved":false,"is_disabled":false,"rental_uris":{"android":"levelo://app?vid=6e23419d-4c8a-49d5-9746-07762211e5d6","ios":"levelo://app?vid=6e23419d-4c8a-49d5-9746-07762211e5d6"},"vehicle_type_id":"4","last_reported":1703563731,"current_range_meters":30400,"station_id":"ce4bgl92rcd13ifvqbq0","pricing_plan_id":"free"},{"bike_id":"199bdff0-0a22-4389-b670-1ad3d6a26ebd","system_id":"levelo_inurba_marseille","lat":43.312268,"lon":5.368584,"is_reserved":false,"is_disabled":false,"rental_uris":{"android":"levelo://app?vid=199bdff0-0a22-4389-b670-1ad3d6a26ebd","ios":"levelo://app?vid=199bdff0-0a22-4389-b670-1ad3d6a26ebd"},"vehicle_type_id":"4","last_reported":1703563731,"current_range_meters":18800,"station_id":"ce4bgl92rcd13ifvqbq0","pricing_plan_id":"free"},{"bike_id":"03d3923e-593f-40f3-b167-c1e438adf6cb","system_id":"levelo_inurba_marseille","lat":43.31232,"lon":5.368612,"is_reserved":false,"is_disabled":false,"rental_uris":{"android":"levelo://app?vid=03d3923e-593f-40f3-b167-c1e438adf6cb","ios":"levelo://app?vid=03d3923e-593f-40f3-b167-c1e438adf6cb"},"vehicle_type_id":"4","last_reported":1703563731,"current_range_meters":30800,"station_id":"ce4bgl92rcd13ifvqbq0","pricing_plan_id":"free"},{"bike_id":"5638fa84-5757-41eb-9f19-89da68b06bc4","system_id":"levelo_inurba_marseille","lat":43.312239,"lon":5.368562,"is_reserved":false,"is_disabled":false,"rental_uris":{"android":"levelo://app?vid=5638fa84-5757-41eb-9f19-89da68b06bc4","ios":"levelo://app?vid=5638fa84-5757-41eb-9f19-89da68b06bc4"},"vehicle_type_id":"4","last_reported":1703563731,"current_range_meters":29200,"station_id":"ce4bgl92rcd13ifvqbq0","pricing_plan_id":"free"},{"bike_id":"90c4e781-4718-4887-9d11-bc440c61018f","system_id":"levelo_inurba_marseille","lat":43.30899,"lon":5.368413,"is_reserved":false,"is_disabled":false,"rental_uris":{"android":"levelo://app?vid=90c4e781-4718-4887-9d11-bc440c61018f","ios":"levelo://app?vid=90c4e781-4718-4887-9d11-bc440c61018f"},"vehicle_type_id":"4","last_reported":1703563731,"current_range_meters":18000,"station_id":"ce4bgn92rcd13ifvqbvg","pricing_plan_id":"free"},{"bike_id":"cead5cf2-2178-4f12-9569-d1238c5ed777","system_id":"levelo_inurba_marseille","lat":43.314811,"lon":5.373103,"is_reserved":false,"is_disabled":false,"rental_uris":{"android":"levelo://app?vid=cead5cf2-2178-4f12-9569-d1238c5ed777","ios":"levelo://app?vid=cead5cf2-2178-4f12-9569-d1238c5ed777"},"vehicle_type_id":"4","last_reported":1703563731,"current_range_meters":30800,"station_id":"ce4bgt12rcd13ifvqcd0","pricing_plan_id":"free"},{"bike_id":"f9f6c3c1-2a3f-4f53-bc23-91f720b0b23d","system_id":"levelo_inurba_marseille","lat":43.314811,"lon":5.373103,"is_reserved":false,"is_disabled":false,"rental_uris":{"android":"levelo://app?vid=f9f6c3c1-2a3f-4f53-bc23-91f720b0b23d","ios":"levelo://app?vid=f9f6c3c1-2a3f-4f53-bc23-91f720b0b23d"},"vehicle_type_id":"4","last_reported":1703563731,"current_range_meters":26400,"station_id":"ce4bgt12rcd13ifvqcd0","pricing_plan_id":"free"},{"bike_id":"5f162392-05c8-45d3-a5c7-3c645c8f8d32","system_id":"levelo_inurba_marseille","lat":43.309039,"lon":5.371797,"is_reserved":false,"is_disabled":false,"rental_uris":{"android":"levelo://app?vid=5f162392-05c8-45d3-a5c7-3c645c8f8d32","ios":"levelo://app?vid=5f162392-05c8-45d3-a5c7-3c645c8f8d32"},"vehicle_type_id":"4","last_reported":1703563731,"current_range_meters":28400,"station_id":"ce4bguh2rcd13ifvqckg","pricing_plan_id":"free"},{"bike_id":"cc2f4e4f-2b28-4e84-be8f-32c8a171c9e1","system_id":"levelo_inurba_marseille","lat":43.316268,"lon":5.373107,"is_reserved":false,"is_disabled":false,"rental_uris":{"android":"levelo://app?vid=cc2f4e4f-2b28-4e84-be8f-32c8a171c9e1","ios":"levelo://app?vid=cc2f4e4f-2b28-4e84-be8f-32c8a171c9e1"},"vehicle_type_id":"4","last_reported":1703563731,"current_range_meters":29600,"station_id":"","pricing_plan_id":"free"},{"bike_id":"d2be49f4-d512-450f-80de-370a6da97420","system_id":"levelo_inurba_marseille","lat":43.318964,"lon":5.36877,"is_reserved":false,"is_disabled":false,"rental_uris":{"android":"levelo://app?vid=d2be49f4-d512-450f-80de-370a6da97420","ios":"levelo://app?vid=d2be49f4-d512-450f-80de-370a6da97420"},"vehicle_type_id":"4","last_reported":1703563731,"current_range_meters":8000,"station_id":"","pricing_plan_id":"free"},{"bike_id":"ed0ee458-d167-4624-8c61-96e3c5ea9645","system_id":"levelo_inurba_marseille","lat":43.305706,"lon":5.365654,"is_reserved":false,"is_disabled":false,"rental_uris":{"android":"levelo://app?vid=ed0ee458-d167-4624-8c61-96e3c5ea9645","ios":"levelo://app?vid=ed0ee458-d167-4624-8c61-96e3c5ea9645"},"vehicle_type_id":"4","last_reported":1703563731,"current_range_meters":3200,"station_id":"ce4bgs12rcd13ifvqcag","pricing_plan_id":"free"},{"bike_id":"24b37bd0-8315-4b3e-b807-9300dfd12c66","system_id":"levelo_inurba_marseille","lat":43.30966,"lon":5.37654,"is_reserved":false,"is_disabled":false,"rental_uris":{"android":"levelo://app?vid=24b37bd0-8315-4b3e-b807-9300dfd12c66","ios":"levelo://app?vid=24b37bd0-8315-4b3e-b807-9300dfd12c66"},"vehicle_type_id":"4","last_reported":1703563731,"current_range_meters":14800,"station_id":"","pricing_plan_id":"free"},{"bike_id":"9da7b9f5-5d93-479d-ba27-aaf17f9e3710","system_id":"levelo_inurba_marseille","lat":43.305989,"lon":5.37225,"is_reserved":false,"is_disabled":false,"rental_uris":{"android":"levelo://app?vid=9da7b9f5-5d93-479d-ba27-aaf17f9e3710","ios":"levelo://app?vid=9da7b9f5-5d93-479d-ba27-aaf17f9e3710"},"vehicle_type_id":"4","last_reported":1703563731,"current_range_meters":29200,"station_id":"ce4bgqh2rcd13ifvqc4g","pricing_plan_id":"free"},{"bike_id":"5a5c19bd-2852-4b8d-8cf6-f2c9bb53a79d","system_id":"levelo_inurba_marseille","lat":43.311131,"lon":5.377651,"is_reserved":false,"is_disabled":false,"rental_uris":{"android":"levelo://app?vid=5a5c19bd-2852-4b8d-8cf6-f2c9bb53a79d","ios":"levelo://app?vid=5a5c19bd-2852-4b8d-8cf6-f2c9bb53a79d"},"vehicle_type_id":"4","last_reported":1703563731,"current_range_meters":25600,"station_id":"ce4bgt92rcd13ifvqcg0","pricing_plan_id":"free"},{"bike_id":"a3653722-7878-4751-9775-51566a1a16ca","system_id":"levelo_inurba_marseille","lat":43.311131,"lon":5.377651,"is_reserved":false,"is_disabled":false,"rental_uris":{"android":"levelo://app?vid=a3653722-7878-4751-9775-51566a1a16ca","ios":"levelo://app?vid=a3653722-7878-4751-9775-51566a1a16ca"},"vehicle_type_id":"4","last_reported":1703563731,"current_range_meters":22400,"station_id":"ce4bgt92rcd13ifvqcg0","pricing_plan_id":"free"},{"bike_id":"01c47931-569a-48c3-9891-42dc90e36b1a","system_id":"levelo_inurba_marseille","lat":43.311131,"lon":5.377651,"is_reserved":false,"is_disabled":false,"rental_uris":{"android":"levelo://app?vid=01c47931-569a-48c3-9891-42dc90e36b1a","ios":"levelo://app?vid=01c47931-569a-48c3-9891-42dc90e36b1a"},"vehicle_type_id":"4","last_reported":1703563731,"current_range_meters":14800,"station_id":"ce4bgt92rcd13ifvqcg0","pricing_plan_id":"free"},{"bike_id":"5a73aab7-09b4-48d6-b54c-5aaa4ec3dcc0","system_id":"levelo_inurba_marseille","lat":43.311131,"lon":5.377651,"is_reserved":false,"is_disabled":false,"rental_uris":{"android":"levelo://app?vid=5a73aab7-09b4-48d6-b54c-5aaa4ec3dcc0","ios":"levelo://app?vid=5a73aab7-09b4-48d6-b54c-5aaa4ec3dcc0"},"vehicle_type_id":"4","last_reported":1703563731,"current_range_meters":9200,"station_id":"ce4bgt92rcd13ifvqcg0","pricing_plan_id":"free"},{"bike_id":"693bab79-617b-49b0-a20f-464e84378b4a","system_id":"levelo_inurba_marseille","lat":43.311209,"lon":5.377641,"is_reserved":false,"is_disabled":false,"rental_uris":{"android":"levelo://app?vid=693bab79-617b-49b0-a20f-464e84378b4a","ios":"levelo://app?vid=693bab79-617b-49b0-a20f-464e84378b4a"},"vehicle_type_id":"4","last_reported":1703563731,"current_range_meters":9600,"station_id":"ce4bgt92rcd13ifvqcg0","pricing_plan_id":"free"},{"bike_id":"757d7b06-9591-43f4-9f2e-8e8a6701d35e","system_id":"levelo_inurba_marseille","lat":43.31125,"lon":5.377654,"is_reserved":false,"is_disabled":false,"rental_uris":{"android":"levelo://app?vid=757d7b06-9591-43f4-9f2e-8e8a6701d35e","ios":"levelo://app?vid=757d7b06-9591-43f4-9f2e-8e8a6701d35e"},"vehicle_type_id":"4","last_reported":1703563731,"current_range_meters":18400,"station_id":"ce4bgt92rcd13ifvqcg0","pricing_plan_id":"free"},{"bike_id":"9c0a7070-f843-4178-9889-659edeccc0a2","system_id":"levelo_inurba_marseille","lat":43.311218,"lon":5.377664,"is_reserved":false,"is_disabled":false,"rental_uris":{"android":"levelo://app?vid=9c0a7070-f843-4178-9889-659edeccc0a2","ios":"levelo://app?vid=9c0a7070-f843-4178-9889-659edeccc0a2"},"vehicle_type_id":"4","last_reported":1703563731,"current_range_meters":24400,"station_id":"ce4bgt92rcd13ifvqcg0","pricing_plan_id":"free"},{"bike_id":"988c8d7f-bb79-4a6c-b63c-0e5007b7494b","system_id":"levelo_inurba_marseille","lat":43.311133,"lon":5.37769,"is_reserved":false,"is_disabled":false,"rental_uris":{"android":"levelo://app?vid=988c8d7f-bb79-4a6c-b63c-0e5007b7494b","ios":"levelo://app?vid=988c8d7f-bb79-4a6c-b63c-0e5007b7494b"},"vehicle_type_id":"4","last_reported":1703563731,"current_range_meters":10800,"station_id":"ce4bgt92rcd13ifvqcg0","pricing_plan_id":"free"},{"bike_id":"dc5a4c34-a3cc-4323-b990-5ba6f1e272f6","system_id":"levelo_inurba_marseille","lat":43.311131,"lon":5.377651,"is_reserved":false,"is_disabled":false,"rental_uris":{"android":"levelo://app?vid=dc5a4c34-a3cc-4323-b990-5ba6f1e272f6","ios":"levelo://app?vid=dc5a4c34-a3cc-4323-b990-5ba6f1e272f6"},"vehicle_type_id":"4","last_reported":1703563731,"current_range_meters":20800,"station_id":"ce4bgt92rcd13ifvqcg0","pricing_plan_id":"free"},{"bike_id":"d3de8212-6286-49a4-b0d3-fd02d927aba1","system_id":"levelo_inurba_marseille","lat":43.311174,"lon":5.377741,"is_reserved":false,"is_disabled":false,"rental_uris":{"android":"levelo://app?vid=d3de8212-6286-49a4-b0d3-fd02d927aba1","ios":"levelo://app?vid=d3de8212-6286-49a4-b0d3-fd02d927aba1"},"vehicle_type_id":"4","last_reported":1703563731,"current_range_meters":29200,"station_id":"ce4bgt92rcd13ifvqcg0","pricing_plan_id":"free"},{"bike_id":"f5e03ce7-a9c7-4dd0-b852-c208cf042145","system_id":"levelo_inurba_marseille","lat":43.307945,"lon":5.376487,"is_reserved":false,"is_disabled":false,"rental_uris":{"android":"levelo://app?vid=f5e03ce7-a9c7-4dd0-b852-c208cf042145","ios":"levelo://app?vid=f5e03ce7-a9c7-4dd0-b852-c208cf042145"},"vehicle_type_id":"4","last_reported":1703563731,"current_range_meters":26000,"station_id":"ce4bgv92rcd13ifvqcq0","pricing_plan_id":"free"},{"bike_id":"a595995d-ca34-4930-a8fc-5ab581fe8d5e","system_id":"levelo_inurba_marseille","lat":43.307945,"lon":5.376487,"is_reserved":false,"is_disabled":false,"rental_uris":{"android":"levelo://app?vid=a595995d-ca34-4930-a8fc-5ab581fe8d5e","ios":"levelo://app?vid=a595995d-ca34-4930-a8fc-5ab581fe8d5e"},"vehicle_type_id":"4","last_reported":1703563731,"current_range_meters":29600,"station_id":"ce4bgv92rcd13ifvqcq0","pricing_plan_id":"free"},{"bike_id":"e950d396-0361-4faf-a36d-4463a53c6f99","system_id":"levelo_inurba_marseille","lat":43.317075,"lon":5.377367,"is_reserved":false,"is_disabled":false,"rental_uris":{"android":"levelo://app?vid=e950d396-0361-4faf-a36d-4463a53c6f99","ios":"levelo://app?vid=e950d396-0361-4faf-a36d-4463a53c6f99"},"vehicle_type_id":"4","last_reported":1703563731,"current_range_meters":14800,"station_id":"ce4bgth2rcd13ifvqch0","pricing_plan_id":"free"},{"bike_id":"e6eefbd8-ecea-42cb-8c7a-0640952ddaea","system_id":"levelo_inurba_marseille","lat":43.31778,"lon":5.37908,"is_reserved":false,"is_disabled":false,"rental_uris":{"android":"levelo://app?vid=e6eefbd8-ecea-42cb-8c7a-0640952ddaea","ios":"levelo://app?vid=e6eefbd8-ecea-42cb-8c7a-0640952ddaea"},"vehicle_type_id":"4","last_reported":1703563731,"current_range_meters":21200,"station_id":"","pricing_plan_id":"free"},{"bike_id":"ef105d1c-f939-4984-a867-8e83b6ea2d00","system_id":"levelo_inurba_marseille","lat":43.308012,"lon":5.381511,"is_reserved":false,"is_disabled":false,"rental_uris":{"android":"levelo://app?vid=ef105d1c-f939-4984-a867-8e83b6ea2d00","ios":"levelo://app?vid=ef105d1c-f939-4984-a867-8e83b6ea2d00"},"vehicle_type_id":"4","last_reported":1703563731,"current_range_meters":16000,"station_id":"ce4bgt12rcd13ifvqce0","pricing_plan_id":"free"},{"bike_id":"229bf2d1-d7ea-45b8-a9e5-3e136a1e156c","system_id":"levelo_inurba_marseille","lat":43.308012,"lon":5.381511,"is_reserved":false,"is_disabled":false,"rental_uris":{"android":"levelo://app?vid=229bf2d1-d7ea-45b8-a9e5-3e136a1e156c","ios":"levelo://app?vid=229bf2d1-d7ea-45b8-a9e5-3e136a1e156c"},"vehicle_type_id":"4","last_reported":1703563731,"current_range_meters":29600,"station_id":"ce4bgt12rcd13ifvqce0","pricing_plan_id":"free"},{"bike_id":"ad66302c-bb27-48a2-a02f-94a6a5b512f3","system_id":"levelo_inurba_marseille","lat":43.308012,"lon":5.381511,"is_reserved":false,"is_disabled":false,"rental_uris":{"android":"levelo://app?vid=ad66302c-bb27-48a2-a02f-94a6a5b512f3","ios":"levelo://app?vid=ad66302c-bb27-48a2-a02f-94a6a5b512f3"},"vehicle_type_id":"4","last_reported":1703563731,"current_range_meters":25200,"station_id":"ce4bgt12rcd13ifvqce0","pricing_plan_id":"free"},{"bike_id":"b0787be5-4497-48ab-a3e6-bdf8e9978161","system_id":"levelo_inurba_marseille","lat":43.308012,"lon":5.381511,"is_reserved":false,"is_disabled":false,"rental_uris":{"android":"levelo://app?vid=b0787be5-4497-48ab-a3e6-bdf8e9978161","ios":"levelo://app?vid=b0787be5-4497-48ab-a3e6-bdf8e9978161"},"vehicle_type_id":"4","last_reported":1703563731,"current_range_meters":30800,"station_id":"ce4bgt12rcd13ifvqce0","pricing_plan_id":"free"},{"bike_id":"a1e72ce1-f608-4e4e-a7fb-e2cd494c0466","system_id":"levelo_inurba_marseille","lat":43.308012,"lon":5.381511,"is_reserved":false,"is_disabled":false,"rental_uris":{"android":"levelo://app?vid=a1e72ce1-f608-4e4e-a7fb-e2cd494c0466","ios":"levelo://app?vid=a1e72ce1-f608-4e4e-a7fb-e2cd494c0466"},"vehicle_type_id":"4","last_reported":1703563731,"current_range_meters":3600,"station_id":"ce4bgt12rcd13ifvqce0","pricing_plan_id":"free"},{"bike_id":"cf197552-f0ad-4f9e-84d7-f131d006ff1e","system_id":"levelo_inurba_marseille","lat":43.308012,"lon":5.381511,"is_reserved":false,"is_disabled":false,"rental_uris":{"android":"levelo://app?vid=cf197552-f0ad-4f9e-84d7-f131d006ff1e","ios":"levelo://app?vid=cf197552-f0ad-4f9e-84d7-f131d006ff1e"},"vehicle_type_id":"4","last_reported":1703563731,"current_range_meters":11200,"station_id":"ce4bgt12rcd13ifvqce0","pricing_plan_id":"free"},{"bike_id":"21e71235-fdd5-4d4f-9399-89406a8a7b58","system_id":"levelo_inurba_marseille","lat":43.308012,"lon":5.381511,"is_reserved":false,"is_disabled":false,"rental_uris":{"android":"levelo://app?vid=21e71235-fdd5-4d4f-9399-89406a8a7b58","ios":"levelo://app?vid=21e71235-fdd5-4d4f-9399-89406a8a7b58"},"vehicle_type_id":"4","last_reported":1703563731,"current_range_meters":0,"station_id":"ce4bgt12rcd13ifvqce0","pricing_plan_id":"free"},{"bike_id":"7a4c5a25-8cae-495c-a8f7-f324eb7efd52","system_id":"levelo_inurba_marseille","lat":43.30464,"lon":5.37895,"is_reserved":false,"is_disabled":false,"rental_uris":{"android":"levelo://app?vid=7a4c5a25-8cae-495c-a8f7-f324eb7efd52","ios":"levelo://app?vid=7a4c5a25-8cae-495c-a8f7-f324eb7efd52"},"vehicle_type_id":"4","last_reported":1703563731,"current_range_meters":20000,"station_id":"ce4bgup2rcd13ifvqcn0","pricing_plan_id":"free"},{"bike_id":"c179e3f6-d96b-484f-8c69-1c965447df14","system_id":"levelo_inurba_marseille","lat":43.324771,"lon":5.36557,"is_reserved":false,"is_disabled":false,"rental_uris":{"android":"levelo://app?vid=c179e3f6-d96b-484f-8c69-1c965447df14","ios":"levelo://app?vid=c179e3f6-d96b-484f-8c69-1c965447df14"},"vehicle_type_id":"4","last_reported":1703563731,"current_range_meters":30800,"station_id":"ce4bhs12rcd13ifvqhvg","pricing_plan_id":"free"},{"bike_id":"f5c0e4d6-16bd-47eb-ba92-aa201d0984ce","system_id":"levelo_inurba_marseille","lat":43.324771,"lon":5.36557,"is_reserved":false,"is_disabled":false,"rental_uris":{"android":"levelo://app?vid=f5c0e4d6-16bd-47eb-ba92-aa201d0984ce","ios":"levelo://app?vid=f5c0e4d6-16bd-47eb-ba92-aa201d0984ce"},"vehicle_type_id":"4","last_reported":1703563731,"current_range_meters":30800,"station_id":"ce4bhs12rcd13ifvqhvg","pricing_plan_id":"free"},{"bike_id":"673afe24-13ca-4117-906e-0ada444292f1","system_id":"levelo_inurba_marseille","lat":43.324771,"lon":5.36557,"is_reserved":false,"is_disabled":false,"rental_uris":{"android":"levelo://app?vid=673afe24-13ca-4117-906e-0ada444292f1","ios":"levelo://app?vid=673afe24-13ca-4117-906e-0ada444292f1"},"vehicle_type_id":"4","last_reported":1703563731,"current_range_meters":23200,"station_id":"ce4bhs12rcd13ifvqhvg","pricing_plan_id":"free"},{"bike_id":"0f2f937d-76fd-40c6-b60d-f8845eb7f120","system_id":"levelo_inurba_marseille","lat":43.30143,"lon":5.37413,"is_reserved":false,"is_disabled":false,"rental_uris":{"android":"levelo://app?vid=0f2f937d-76fd-40c6-b60d-f8845eb7f120","ios":"levelo://app?vid=0f2f937d-76fd-40c6-b60d-f8845eb7f120"},"vehicle_type_id":"4","last_reported":1703563731,"current_range_meters":15200,"station_id":"ce4bgs92rcd13ifvqcc0","pricing_plan_id":"free"},{"bike_id":"9011995a-6fb0-4e38-9a9b-bdcc1110a2a4","system_id":"levelo_inurba_marseille","lat":43.303535,"lon":5.378495,"is_reserved":false,"is_disabled":false,"rental_uris":{"android":"levelo://app?vid=9011995a-6fb0-4e38-9a9b-bdcc1110a2a4","ios":"levelo://app?vid=9011995a-6fb0-4e38-9a9b-bdcc1110a2a4"},"vehicle_type_id":"4","last_reported":1703563731,"current_range_meters":20400,"station_id":"","pricing_plan_id":"free"},{"bike_id":"cdb1cb72-d3c0-429e-a3cb-2512205bb9fe","system_id":"levelo_inurba_marseille","lat":43.30143,"lon":5.37413,"is_reserved":false,"is_disabled":false,"rental_uris":{"android":"levelo://app?vid=cdb1cb72-d3c0-429e-a3cb-2512205bb9fe","ios":"levelo://app?vid=cdb1cb72-d3c0-429e-a3cb-2512205bb9fe"},"vehicle_type_id":"4","last_reported":1703563731,"current_range_meters":28400,"station_id":"ce4bgs92rcd13ifvqcc0","pricing_plan_id":"free"},{"bike_id":"93f8fb21-a5a0-4c1a-91d1-c0567aaac083","system_id":"levelo_inurba_marseille","lat":43.319935,"lon":5.381699,"is_reserved":false,"is_disabled":false,"rental_uris":{"android":"levelo://app?vid=93f8fb21-a5a0-4c1a-91d1-c0567aaac083","ios":"levelo://app?vid=93f8fb21-a5a0-4c1a-91d1-c0567aaac083"},"vehicle_type_id":"4","last_reported":1703563731,"current_range_meters":24400,"station_id":"ce4bhr12rcd13ifvqhpg","pricing_plan_id":"free"},{"bike_id":"28941dab-2134-4d7a-bbf7-eba2c6616dfb","system_id":"levelo_inurba_marseille","lat":43.319935,"lon":5.381699,"is_reserved":false,"is_disabled":false,"rental_uris":{"android":"levelo://app?vid=28941dab-2134-4d7a-bbf7-eba2c6616dfb","ios":"levelo://app?vid=28941dab-2134-4d7a-bbf7-eba2c6616dfb"},"vehicle_type_id":"4","last_reported":1703563731,"current_range_meters":19200,"station_id":"ce4bhr12rcd13ifvqhpg","pricing_plan_id":"free"},{"bike_id":"70b0ad2a-6533-4324-9176-53aa3f1f6a7a","system_id":"levelo_inurba_marseille","lat":43.32,"lon":5.3814,"is_reserved":false,"is_disabled":false,"rental_uris":{"android":"levelo://app?vid=70b0ad2a-6533-4324-9176-53aa3f1f6a7a","ios":"levelo://app?vid=70b0ad2a-6533-4324-9176-53aa3f1f6a7a"},"vehicle_type_id":"4","last_reported":1703563731,"current_range_meters":4400,"station_id":"ce4bhr12rcd13ifvqhpg","pricing_plan_id":"free"},{"bike_id":"94a3ebcd-0c4e-449c-a10d-4ce3f1b66e63","system_id":"levelo_inurba_marseille","lat":43.313571,"lon":5.384829,"is_reserved":false,"is_disabled":false,"rental_uris":{"android":"levelo://app?vid=94a3ebcd-0c4e-449c-a10d-4ce3f1b66e63","ios":"levelo://app?vid=94a3ebcd-0c4e-449c-a10d-4ce3f1b66e63"},"vehicle_type_id":"4","last_reported":1703563731,"current_range_meters":31200,"station_id":"ce4bgt92rcd13ifvqcf0","pricing_plan_id":"free"},{"bike_id":"6777e4af-9a82-4dc8-b196-2f44ff862d69","system_id":"levelo_inurba_marseille","lat":43.313571,"lon":5.384829,"is_reserved":false,"is_disabled":false,"rental_uris":{"android":"levelo://app?vid=6777e4af-9a82-4dc8-b196-2f44ff862d69","ios":"levelo://app?vid=6777e4af-9a82-4dc8-b196-2f44ff862d69"},"vehicle_type_id":"4","last_reported":1703563731,"current_range_meters":30000,"station_id":"ce4bgt92rcd13ifvqcf0","pricing_plan_id":"free"},{"bike_id":"bde236ab-7f3b-43db-8fed-22a76f00eb35","system_id":"levelo_inurba_marseille","lat":43.313571,"lon":5.384829,"is_reserved":false,"is_disabled":false,"rental_uris":{"android":"levelo://app?vid=bde236ab-7f3b-43db-8fed-22a76f00eb35","ios":"levelo://app?vid=bde236ab-7f3b-43db-8fed-22a76f00eb35"},"vehicle_type_id":"4","last_reported":1703563731,"current_range_meters":31200,"station_id":"ce4bgt92rcd13ifvqcf0","pricing_plan_id":"free"},{"bike_id":"e469245c-d31a-45c2-94bd-d7d556dea335","system_id":"levelo_inurba_marseille","lat":43.313571,"lon":5.384829,"is_reserved":false,"is_disabled":false,"rental_uris":{"android":"levelo://app?vid=e469245c-d31a-45c2-94bd-d7d556dea335","ios":"levelo://app?vid=e469245c-d31a-45c2-94bd-d7d556dea335"},"vehicle_type_id":"4","last_reported":1703563731,"current_range_meters":29200,"station_id":"ce4bgt92rcd13ifvqcf0","pricing_plan_id":"free"},{"bike_id":"b26b2b33-f8e1-4efa-bfc1-7e9278bee934","system_id":"levelo_inurba_marseille","lat":43.313571,"lon":5.384829,"is_reserved":false,"is_disabled":false,"rental_uris":{"android":"levelo://app?vid=b26b2b33-f8e1-4efa-bfc1-7e9278bee934","ios":"levelo://app?vid=b26b2b33-f8e1-4efa-bfc1-7e9278bee934"},"vehicle_type_id":"4","last_reported":1703563731,"current_range_meters":21200,"station_id":"ce4bgt92rcd13ifvqcf0","pricing_plan_id":"free"},{"bike_id":"f4b3e50f-30c2-4fad-8ab1-4f6739011a14","system_id":"levelo_inurba_marseille","lat":43.313571,"lon":5.384829,"is_reserved":false,"is_disabled":false,"rental_uris":{"android":"levelo://app?vid=f4b3e50f-30c2-4fad-8ab1-4f6739011a14","ios":"levelo://app?vid=f4b3e50f-30c2-4fad-8ab1-4f6739011a14"},"vehicle_type_id":"4","last_reported":1703563731,"current_range_meters":29200,"station_id":"ce4bgt92rcd13ifvqcf0","pricing_plan_id":"free"},{"bike_id":"27aef149-ae08-45f5-9ff8-976f0c03b2e1","system_id":"levelo_inurba_marseille","lat":43.299724,"lon":5.371829,"is_reserved":false,"is_disabled":false,"rental_uris":{"android":"levelo://app?vid=27aef149-ae08-45f5-9ff8-976f0c03b2e1","ios":"levelo://app?vid=27aef149-ae08-45f5-9ff8-976f0c03b2e1"},"vehicle_type_id":"4","last_reported":1703563731,"current_range_meters":26800,"station_id":"ce4bgr92rcd13ifvqc7g","pricing_plan_id":"free"},{"bike_id":"3a21796f-521a-4ee5-b26e-ba8190bec170","system_id":"levelo_inurba_marseille","lat":43.299724,"lon":5.371829,"is_reserved":false,"is_disabled":false,"rental_uris":{"android":"levelo://app?vid=3a21796f-521a-4ee5-b26e-ba8190bec170","ios":"levelo://app?vid=3a21796f-521a-4ee5-b26e-ba8190bec170"},"vehicle_type_id":"4","last_reported":1703563731,"current_range_meters":26800,"station_id":"ce4bgr92rcd13ifvqc7g","pricing_plan_id":"free"},{"bike_id":"679a64a2-6867-404f-976c-c82f9dfd4ac8","system_id":"levelo_inurba_marseille","lat":43.305364,"lon":5.384119,"is_reserved":false,"is_disabled":false,"rental_uris":{"android":"levelo://app?vid=679a64a2-6867-404f-976c-c82f9dfd4ac8","ios":"levelo://app?vid=679a64a2-6867-404f-976c-c82f9dfd4ac8"},"vehicle_type_id":"4","last_reported":1703563731,"current_range_meters":22000,"station_id":"ce4bgg92rcd13ifvqb30","pricing_plan_id":"free"},{"bike_id":"14e113e1-e172-4c57-ae02-7bf73a95d21b","system_id":"levelo_inurba_marseille","lat":43.298433,"lon":5.362774,"is_reserved":false,"is_disabled":false,"rental_uris":{"android":"levelo://app?vid=14e113e1-e172-4c57-ae02-7bf73a95d21b","ios":"levelo://app?vid=14e113e1-e172-4c57-ae02-7bf73a95d21b"},"vehicle_type_id":"4","last_reported":1703563731,"current_range_meters":30000,"station_id":"ce4bgpp2rcd13ifvqc3g","pricing_plan_id":"free"},{"bike_id":"8b414ef6-e648-4831-9810-a223151100af","system_id":"levelo_inurba_marseille","lat":43.298433,"lon":5.362774,"is_reserved":false,"is_disabled":false,"rental_uris":{"android":"levelo://app?vid=8b414ef6-e648-4831-9810-a223151100af","ios":"levelo://app?vid=8b414ef6-e648-4831-9810-a223151100af"},"vehicle_type_id":"4","last_reported":1703563731,"current_range_meters":30400,"station_id":"ce4bgpp2rcd13ifvqc3g","pricing_plan_id":"free"},{"bike_id":"755e31db-0c7e-4e3e-9d1d-38bd7d5b4038","system_id":"levelo_inurba_marseille","lat":43.298433,"lon":5.362774,"is_reserved":false,"is_disabled":false,"rental_uris":{"android":"levelo://app?vid=755e31db-0c7e-4e3e-9d1d-38bd7d5b4038","ios":"levelo://app?vid=755e31db-0c7e-4e3e-9d1d-38bd7d5b4038"},"vehicle_type_id":"4","last_reported":1703563731,"current_range_meters":30800,"station_id":"ce4bgpp2rcd13ifvqc3g","pricing_plan_id":"free"},{"bike_id":"ffa18e00-56e1-42d2-b5e3-5555b04a51b4","system_id":"levelo_inurba_marseille","lat":43.298433,"lon":5.362774,"is_reserved":false,"is_disabled":false,"rental_uris":{"android":"levelo://app?vid=ffa18e00-56e1-42d2-b5e3-5555b04a51b4","ios":"levelo://app?vid=ffa18e00-56e1-42d2-b5e3-5555b04a51b4"},"vehicle_type_id":"4","last_reported":1703563731,"current_range_meters":30400,"station_id":"ce4bgpp2rcd13ifvqc3g","pricing_plan_id":"free"},{"bike_id":"033fb6d8-188a-4276-86a5-91d57eee5e75","system_id":"levelo_inurba_marseille","lat":43.31167,"lon":5.38708,"is_reserved":false,"is_disabled":false,"rental_uris":{"android":"levelo://app?vid=033fb6d8-188a-4276-86a5-91d57eee5e75","ios":"levelo://app?vid=033fb6d8-188a-4276-86a5-91d57eee5e75"},"vehicle_type_id":"4","last_reported":1703563731,"current_range_meters":9600,"station_id":"ce4bgv12rcd13ifvqcp0","pricing_plan_id":"free"},{"bike_id":"3540d652-83ee-4e54-82bb-c4527c65e1e6","system_id":"levelo_inurba_marseille","lat":43.299243,"lon":5.374807,"is_reserved":false,"is_disabled":false,"rental_uris":{"android":"levelo://app?vid=3540d652-83ee-4e54-82bb-c4527c65e1e6","ios":"levelo://app?vid=3540d652-83ee-4e54-82bb-c4527c65e1e6"},"vehicle_type_id":"4","last_reported":1703563731,"current_range_meters":23600,"station_id":"ce4bgjh2rcd13ifvqbg0","pricing_plan_id":"free"},{"bike_id":"0499cd73-dd0e-46a8-ab06-642255cb7ff9","system_id":"levelo_inurba_marseille","lat":43.311722,"lon":5.387247,"is_reserved":false,"is_disabled":false,"rental_uris":{"android":"levelo://app?vid=0499cd73-dd0e-46a8-ab06-642255cb7ff9","ios":"levelo://app?vid=0499cd73-dd0e-46a8-ab06-642255cb7ff9"},"vehicle_type_id":"4","last_reported":1703563731,"current_range_meters":30000,"station_id":"ce4bgv12rcd13ifvqcp0","pricing_plan_id":"free"},{"bike_id":"ab96af4a-dea2-445d-86c8-b091967ed0ee","system_id":"levelo_inurba_marseille","lat":43.311722,"lon":5.387247,"is_reserved":false,"is_disabled":false,"rental_uris":{"android":"levelo://app?vid=ab96af4a-dea2-445d-86c8-b091967ed0ee","ios":"levelo://app?vid=ab96af4a-dea2-445d-86c8-b091967ed0ee"},"vehicle_type_id":"4","last_reported":1703563731,"current_range_meters":26800,"station_id":"ce4bgv12rcd13ifvqcp0","pricing_plan_id":"free"},{"bike_id":"916a3e4e-4291-4c30-a6ac-c0fab32214fa","system_id":"levelo_inurba_marseille","lat":43.299243,"lon":5.37481,"is_reserved":false,"is_disabled":false,"rental_uris":{"android":"levelo://app?vid=916a3e4e-4291-4c30-a6ac-c0fab32214fa","ios":"levelo://app?vid=916a3e4e-4291-4c30-a6ac-c0fab32214fa"},"vehicle_type_id":"4","last_reported":1703563731,"current_range_meters":17600,"station_id":"ce4bgjh2rcd13ifvqbg0","pricing_plan_id":"free"},{"bike_id":"51714c4a-3132-4951-88ec-80e85fa125e8","system_id":"levelo_inurba_marseille","lat":43.327776,"lon":5.367021,"is_reserved":false,"is_disabled":false,"rental_uris":{"android":"levelo://app?vid=51714c4a-3132-4951-88ec-80e85fa125e8","ios":"levelo://app?vid=51714c4a-3132-4951-88ec-80e85fa125e8"},"vehicle_type_id":"4","last_reported":1703563731,"current_range_meters":6800,"station_id":"","pricing_plan_id":"free"},{"bike_id":"0557a924-af14-4caf-a7ba-286e85cba37f","system_id":"levelo_inurba_marseille","lat":43.297774,"lon":5.370875,"is_reserved":false,"is_disabled":false,"rental_uris":{"android":"levelo://app?vid=0557a924-af14-4caf-a7ba-286e85cba37f","ios":"levelo://app?vid=0557a924-af14-4caf-a7ba-286e85cba37f"},"vehicle_type_id":"4","last_reported":1703563731,"current_range_meters":29600,"station_id":"ce4bgop2rcd13ifvqc1g","pricing_plan_id":"free"},{"bike_id":"de708f00-7118-4d7c-9021-d7dcbd798473","system_id":"levelo_inurba_marseille","lat":43.32826,"lon":5.36673,"is_reserved":false,"is_disabled":false,"rental_uris":{"android":"levelo://app?vid=de708f00-7118-4d7c-9021-d7dcbd798473","ios":"levelo://app?vid=de708f00-7118-4d7c-9021-d7dcbd798473"},"vehicle_type_id":"4","last_reported":1703563731,"current_range_meters":27200,"station_id":"ce4bhs92rcd13ifvqi0g","pricing_plan_id":"free"},{"bike_id":"a448ca86-2b35-41e1-89c4-32a99bab0563","system_id":"levelo_inurba_marseille","lat":43.328371,"lon":5.366909,"is_reserved":false,"is_disabled":false,"rental_uris":{"android":"levelo://app?vid=a448ca86-2b35-41e1-89c4-32a99bab0563","ios":"levelo://app?vid=a448ca86-2b35-41e1-89c4-32a99bab0563"},"vehicle_type_id":"4","last_reported":1703563731,"current_range_meters":9600,"station_id":"ce4bhs92rcd13ifvqi0g","pricing_plan_id":"free"},{"bike_id":"6f67326a-1664-406f-9978-902e013e2357","system_id":"levelo_inurba_marseille","lat":43.32828,"lon":5.36674,"is_reserved":false,"is_disabled":false,"rental_uris":{"android":"levelo://app?vid=6f67326a-1664-406f-9978-902e013e2357","ios":"levelo://app?vid=6f67326a-1664-406f-9978-902e013e2357"},"vehicle_type_id":"4","last_reported":1703563731,"current_range_meters":12800,"station_id":"ce4bhs92rcd13ifvqi0g","pricing_plan_id":"free"},{"bike_id":"904f83aa-e9ab-401d-84c1-9edfed82b884","system_id":"levelo_inurba_marseille","lat":43.328371,"lon":5.366909,"is_reserved":false,"is_disabled":false,"rental_uris":{"android":"levelo://app?vid=904f83aa-e9ab-401d-84c1-9edfed82b884","ios":"levelo://app?vid=904f83aa-e9ab-401d-84c1-9edfed82b884"},"vehicle_type_id":"4","last_reported":1703563731,"current_range_meters":21200,"station_id":"ce4bhs92rcd13ifvqi0g","pricing_plan_id":"free"},{"bike_id":"5c89eee7-6e83-42b4-bd81-efdcf68f6666","system_id":"levelo_inurba_marseille","lat":43.32831,"lon":5.36679,"is_reserved":false,"is_disabled":false,"rental_uris":{"android":"levelo://app?vid=5c89eee7-6e83-42b4-bd81-efdcf68f6666","ios":"levelo://app?vid=5c89eee7-6e83-42b4-bd81-efdcf68f6666"},"vehicle_type_id":"4","last_reported":1703563731,"current_range_meters":28800,"station_id":"ce4bhs92rcd13ifvqi0g","pricing_plan_id":"free"},{"bike_id":"605ea525-b7e3-49e5-9226-8acaed7e2b8b","system_id":"levelo_inurba_marseille","lat":43.297163,"lon":5.365866,"is_reserved":false,"is_disabled":false,"rental_uris":{"android":"levelo://app?vid=605ea525-b7e3-49e5-9226-8acaed7e2b8b","ios":"levelo://app?vid=605ea525-b7e3-49e5-9226-8acaed7e2b8b"},"vehicle_type_id":"4","last_reported":1703563731,"current_range_meters":29200,"station_id":"ce4bgn12rcd13ifvqbt0","pricing_plan_id":"free"},{"bike_id":"d82e0fe3-0b0d-4ebc-8296-54c2b9d919cd","system_id":"levelo_inurba_marseille","lat":43.328333,"lon":5.36683,"is_reserved":false,"is_disabled":false,"rental_uris":{"android":"levelo://app?vid=d82e0fe3-0b0d-4ebc-8296-54c2b9d919cd","ios":"levelo://app?vid=d82e0fe3-0b0d-4ebc-8296-54c2b9d919cd"},"vehicle_type_id":"4","last_reported":1703563731,"current_range_meters":12000,"station_id":"ce4bhs92rcd13ifvqi0g","pricing_plan_id":"free"},{"bike_id":"eba6867d-6d75-4354-b206-2059ecdc5071","system_id":"levelo_inurba_marseille","lat":43.32834,"lon":5.36689,"is_reserved":false,"is_disabled":false,"rental_uris":{"android":"levelo://app?vid=eba6867d-6d75-4354-b206-2059ecdc5071","ios":"levelo://app?vid=eba6867d-6d75-4354-b206-2059ecdc5071"},"vehicle_type_id":"4","last_reported":1703563731,"current_range_meters":8400,"station_id":"ce4bhs92rcd13ifvqi0g","pricing_plan_id":"free"},{"bike_id":"b0a14b00-0a44-4068-a4e7-1e5960ad2b33","system_id":"levelo_inurba_marseille","lat":43.297163,"lon":5.365866,"is_reserved":false,"is_disabled":false,"rental_uris":{"android":"levelo://app?vid=b0a14b00-0a44-4068-a4e7-1e5960ad2b33","ios":"levelo://app?vid=b0a14b00-0a44-4068-a4e7-1e5960ad2b33"},"vehicle_type_id":"4","last_reported":1703563731,"current_range_meters":30400,"station_id":"ce4bgn12rcd13ifvqbt0","pricing_plan_id":"free"},{"bike_id":"b0820bb7-0f3d-4184-b295-60ce5f91e973","system_id":"levelo_inurba_marseille","lat":43.297163,"lon":5.365866,"is_reserved":false,"is_disabled":false,"rental_uris":{"android":"levelo://app?vid=b0820bb7-0f3d-4184-b295-60ce5f91e973","ios":"levelo://app?vid=b0820bb7-0f3d-4184-b295-60ce5f91e973"},"vehicle_type_id":"4","last_reported":1703563731,"current_range_meters":30400,"station_id":"ce4bgn12rcd13ifvqbt0","pricing_plan_id":"free"},{"bike_id":"0bb4153f-1504-485b-aa48-4570feec2be4","system_id":"levelo_inurba_marseille","lat":43.297163,"lon":5.365866,"is_reserved":false,"is_disabled":false,"rental_uris":{"android":"levelo://app?vid=0bb4153f-1504-485b-aa48-4570feec2be4","ios":"levelo://app?vid=0bb4153f-1504-485b-aa48-4570feec2be4"},"vehicle_type_id":"4","last_reported":1703563731,"current_range_meters":20400,"station_id":"ce4bgn12rcd13ifvqbt0","pricing_plan_id":"free"},{"bike_id":"921b424d-ad0d-4c7a-9d74-66e3a49bfa19","system_id":"levelo_inurba_marseille","lat":43.32934,"lon":5.36612,"is_reserved":false,"is_disabled":false,"rental_uris":{"android":"levelo://app?vid=921b424d-ad0d-4c7a-9d74-66e3a49bfa19","ios":"levelo://app?vid=921b424d-ad0d-4c7a-9d74-66e3a49bfa19"},"vehicle_type_id":"4","last_reported":1703563731,"current_range_meters":22400,"station_id":"","pricing_plan_id":"free"},{"bike_id":"168ff66e-d3f0-4405-8a42-4e492b51d94f","system_id":"levelo_inurba_marseille","lat":43.29588,"lon":5.36758,"is_reserved":false,"is_disabled":false,"rental_uris":{"android":"levelo://app?vid=168ff66e-d3f0-4405-8a42-4e492b51d94f","ios":"levelo://app?vid=168ff66e-d3f0-4405-8a42-4e492b51d94f"},"vehicle_type_id":"4","last_reported":1703563731,"current_range_meters":10400,"station_id":"ce4bgph2rcd13ifvqc2g","pricing_plan_id":"free"},{"bike_id":"06e957bd-df49-4d32-abc4-2e72cf631ab7","system_id":"levelo_inurba_marseille","lat":43.29573,"lon":5.367355,"is_reserved":false,"is_disabled":false,"rental_uris":{"android":"levelo://app?vid=06e957bd-df49-4d32-abc4-2e72cf631ab7","ios":"levelo://app?vid=06e957bd-df49-4d32-abc4-2e72cf631ab7"},"vehicle_type_id":"4","last_reported":1703563731,"current_range_meters":25600,"station_id":"ce4bgph2rcd13ifvqc2g","pricing_plan_id":"free"},{"bike_id":"d02211f6-dc3b-4cde-a469-41d942caaf96","system_id":"levelo_inurba_marseille","lat":43.296935,"lon":5.376544,"is_reserved":false,"is_disabled":false,"rental_uris":{"android":"levelo://app?vid=d02211f6-dc3b-4cde-a469-41d942caaf96","ios":"levelo://app?vid=d02211f6-dc3b-4cde-a469-41d942caaf96"},"vehicle_type_id":"4","last_reported":1703563731,"current_range_meters":26400,"station_id":"ce4bgkh2rcd13ifvqbl0","pricing_plan_id":"free"},{"bike_id":"91a9ae8b-2432-4d2e-9d2d-48c4ab3ffd37","system_id":"levelo_inurba_marseille","lat":43.296921,"lon":5.376579,"is_reserved":false,"is_disabled":false,"rental_uris":{"android":"levelo://app?vid=91a9ae8b-2432-4d2e-9d2d-48c4ab3ffd37","ios":"levelo://app?vid=91a9ae8b-2432-4d2e-9d2d-48c4ab3ffd37"},"vehicle_type_id":"4","last_reported":1703563731,"current_range_meters":28000,"station_id":"ce4bgkh2rcd13ifvqbl0","pricing_plan_id":"free"},{"bike_id":"25760431-afb7-427d-be44-bef580f97418","system_id":"levelo_inurba_marseille","lat":43.296921,"lon":5.376579,"is_reserved":false,"is_disabled":false,"rental_uris":{"android":"levelo://app?vid=25760431-afb7-427d-be44-bef580f97418","ios":"levelo://app?vid=25760431-afb7-427d-be44-bef580f97418"},"vehicle_type_id":"4","last_reported":1703563731,"current_range_meters":27600,"station_id":"ce4bgkh2rcd13ifvqbl0","pricing_plan_id":"free"},{"bike_id":"f8f64ece-6363-4d47-8124-7f69d646e7b2","system_id":"levelo_inurba_marseille","lat":43.309589,"lon":5.390258,"is_reserved":false,"is_disabled":false,"rental_uris":{"android":"levelo://app?vid=f8f64ece-6363-4d47-8124-7f69d646e7b2","ios":"levelo://app?vid=f8f64ece-6363-4d47-8124-7f69d646e7b2"},"vehicle_type_id":"4","last_reported":1703563731,"current_range_meters":30400,"station_id":"ce4bgup2rcd13ifvqco0","pricing_plan_id":"free"},{"bike_id":"89a283eb-dc87-422c-b7ed-761c11ff3d6f","system_id":"levelo_inurba_marseille","lat":43.309589,"lon":5.390258,"is_reserved":false,"is_disabled":false,"rental_uris":{"android":"levelo://app?vid=89a283eb-dc87-422c-b7ed-761c11ff3d6f","ios":"levelo://app?vid=89a283eb-dc87-422c-b7ed-761c11ff3d6f"},"vehicle_type_id":"4","last_reported":1703563731,"current_range_meters":26800,"station_id":"ce4bgup2rcd13ifvqco0","pricing_plan_id":"free"},{"bike_id":"8cdfb88e-e140-445a-b6b9-f417da148278","system_id":"levelo_inurba_marseille","lat":43.309589,"lon":5.390258,"is_reserved":false,"is_disabled":false,"rental_uris":{"android":"levelo://app?vid=8cdfb88e-e140-445a-b6b9-f417da148278","ios":"levelo://app?vid=8cdfb88e-e140-445a-b6b9-f417da148278"},"vehicle_type_id":"4","last_reported":1703563731,"current_range_meters":30400,"station_id":"ce4bgup2rcd13ifvqco0","pricing_plan_id":"free"},{"bike_id":"e468b69a-c2c7-4983-8a8e-63e98bcd23f1","system_id":"levelo_inurba_marseille","lat":43.317557,"lon":5.390173,"is_reserved":false,"is_disabled":false,"rental_uris":{"android":"levelo://app?vid=e468b69a-c2c7-4983-8a8e-63e98bcd23f1","ios":"levelo://app?vid=e468b69a-c2c7-4983-8a8e-63e98bcd23f1"},"vehicle_type_id":"4","last_reported":1703563731,"current_range_meters":30000,"station_id":"ce4bhqp2rcd13ifvqhng","pricing_plan_id":"free"},{"bike_id":"896981e7-d7d8-4396-8457-e74f0efbd3c0","system_id":"levelo_inurba_marseille","lat":43.298037,"lon":5.381066,"is_reserved":false,"is_disabled":false,"rental_uris":{"android":"levelo://app?vid=896981e7-d7d8-4396-8457-e74f0efbd3c0","ios":"levelo://app?vid=896981e7-d7d8-4396-8457-e74f0efbd3c0"},"vehicle_type_id":"4","last_reported":1703563731,"current_range_meters":28000,"station_id":"ce4bgip2rcd13ifvqbb0","pricing_plan_id":"free"},{"bike_id":"adaf1ec1-1576-4d92-98f8-5bebc30ae754","system_id":"levelo_inurba_marseille","lat":43.304278,"lon":5.388868,"is_reserved":false,"is_disabled":false,"rental_uris":{"android":"levelo://app?vid=adaf1ec1-1576-4d92-98f8-5bebc30ae754","ios":"levelo://app?vid=adaf1ec1-1576-4d92-98f8-5bebc30ae754"},"vehicle_type_id":"4","last_reported":1703563731,"current_range_meters":30000,"station_id":"ce4bgk12rcd13ifvqbi0","pricing_plan_id":"free"},{"bike_id":"3698a174-c9d0-4313-991e-4aeb2e4b52e8","system_id":"levelo_inurba_marseille","lat":43.309039,"lon":5.371797,"is_reserved":false,"is_disabled":false,"rental_uris":{"android":"levelo://app?vid=3698a174-c9d0-4313-991e-4aeb2e4b52e8","ios":"levelo://app?vid=3698a174-c9d0-4313-991e-4aeb2e4b52e8"},"vehicle_type_id":"4","last_reported":1703563731,"current_range_meters":9600,"station_id":"ce4bguh2rcd13ifvqckg","pricing_plan_id":"free"},{"bike_id":"c5c59b18-3bda-47a6-bc7e-c8fcc31ea777","system_id":"levelo_inurba_marseille","lat":43.298037,"lon":5.381066,"is_reserved":false,"is_disabled":false,"rental_uris":{"android":"levelo://app?vid=c5c59b18-3bda-47a6-bc7e-c8fcc31ea777","ios":"levelo://app?vid=c5c59b18-3bda-47a6-bc7e-c8fcc31ea777"},"vehicle_type_id":"4","last_reported":1703563731,"current_range_meters":25600,"station_id":"ce4bgip2rcd13ifvqbb0","pricing_plan_id":"free"},{"bike_id":"f4d47485-447d-436a-a0e0-2685883390a3","system_id":"levelo_inurba_marseille","lat":43.299717,"lon":5.384845,"is_reserved":false,"is_disabled":false,"rental_uris":{"android":"levelo://app?vid=f4d47485-447d-436a-a0e0-2685883390a3","ios":"levelo://app?vid=f4d47485-447d-436a-a0e0-2685883390a3"},"vehicle_type_id":"4","last_reported":1703563731,"current_range_meters":26000,"station_id":"ce4bgj92rcd13ifvqbd0","pricing_plan_id":"free"},{"bike_id":"92e95abc-9d2a-41e0-ba9f-2a6c71fb8e80","system_id":"levelo_inurba_marseille","lat":43.32367,"lon":5.388836,"is_reserved":false,"is_disabled":false,"rental_uris":{"android":"levelo://app?vid=92e95abc-9d2a-41e0-ba9f-2a6c71fb8e80","ios":"levelo://app?vid=92e95abc-9d2a-41e0-ba9f-2a6c71fb8e80"},"vehicle_type_id":"4","last_reported":1703563731,"current_range_meters":400,"station_id":"ce4bhqp2rcd13ifvqhog","pricing_plan_id":"free"},{"bike_id":"f0f12ac5-1666-4a3a-a9a8-494990a6c085","system_id":"levelo_inurba_marseille","lat":43.32367,"lon":5.388836,"is_reserved":false,"is_disabled":false,"rental_uris":{"android":"levelo://app?vid=f0f12ac5-1666-4a3a-a9a8-494990a6c085","ios":"levelo://app?vid=f0f12ac5-1666-4a3a-a9a8-494990a6c085"},"vehicle_type_id":"4","last_reported":1703563731,"current_range_meters":18000,"station_id":"ce4bhqp2rcd13ifvqhog","pricing_plan_id":"free"},{"bike_id":"e0f74817-3071-444d-9d77-cd26f5d66ea5","system_id":"levelo_inurba_marseille","lat":43.293259,"lon":5.371586,"is_reserved":false,"is_disabled":false,"rental_uris":{"android":"levelo://app?vid=e0f74817-3071-444d-9d77-cd26f5d66ea5","ios":"levelo://app?vid=e0f74817-3071-444d-9d77-cd26f5d66ea5"},"vehicle_type_id":"4","last_reported":1703563731,"current_range_meters":30000,"station_id":"ce4bgh92rcd13ifvqb40","pricing_plan_id":"free"},{"bike_id":"06bd850f-eb79-4fca-bf70-822288b6fc83","system_id":"levelo_inurba_marseille","lat":43.292749,"lon":5.368402,"is_reserved":false,"is_disabled":false,"rental_uris":{"android":"levelo://app?vid=06bd850f-eb79-4fca-bf70-822288b6fc83","ios":"levelo://app?vid=06bd850f-eb79-4fca-bf70-822288b6fc83"},"vehicle_type_id":"4","last_reported":1703563731,"current_range_meters":29200,"station_id":"ce4bhbp2rcd13ifvqesg","pricing_plan_id":"free"},{"bike_id":"66090169-56d0-4327-ac4a-5a0739ff15e9","system_id":"levelo_inurba_marseille","lat":43.292749,"lon":5.368402,"is_reserved":false,"is_disabled":false,"rental_uris":{"android":"levelo://app?vid=66090169-56d0-4327-ac4a-5a0739ff15e9","ios":"levelo://app?vid=66090169-56d0-4327-ac4a-5a0739ff15e9"},"vehicle_type_id":"4","last_reported":1703563731,"current_range_meters":12800,"station_id":"ce4bhbp2rcd13ifvqesg","pricing_plan_id":"free"},{"bike_id":"030d2fa3-310b-4963-800f-1cf053b25b8d","system_id":"levelo_inurba_marseille","lat":43.292749,"lon":5.368402,"is_reserved":false,"is_disabled":false,"rental_uris":{"android":"levelo://app?vid=030d2fa3-310b-4963-800f-1cf053b25b8d","ios":"levelo://app?vid=030d2fa3-310b-4963-800f-1cf053b25b8d"},"vehicle_type_id":"4","last_reported":1703563731,"current_range_meters":31200,"station_id":"ce4bhbp2rcd13ifvqesg","pricing_plan_id":"free"},{"bike_id":"884182bf-3c6d-48d3-b8eb-c4065d87ab20","system_id":"levelo_inurba_marseille","lat":43.305994,"lon":5.393687,"is_reserved":false,"is_disabled":false,"rental_uris":{"android":"levelo://app?vid=884182bf-3c6d-48d3-b8eb-c4065d87ab20","ios":"levelo://app?vid=884182bf-3c6d-48d3-b8eb-c4065d87ab20"},"vehicle_type_id":"4","last_reported":1703563731,"current_range_meters":30000,"station_id":"ce4bh0p2rcd13ifvqd80","pricing_plan_id":"free"},{"bike_id":"89867a69-c089-47be-910e-1c8a1d09a954","system_id":"levelo_inurba_marseille","lat":43.325932,"lon":5.388923,"is_reserved":false,"is_disabled":false,"rental_uris":{"android":"levelo://app?vid=89867a69-c089-47be-910e-1c8a1d09a954","ios":"levelo://app?vid=89867a69-c089-47be-910e-1c8a1d09a954"},"vehicle_type_id":"4","last_reported":1703563731,"current_range_meters":17200,"station_id":"","pricing_plan_id":"free"},{"bike_id":"ac11b11b-710c-4b46-b8d6-881b4f6ac1f2","system_id":"levelo_inurba_marseille","lat":43.2936,"lon":5.37835,"is_reserved":false,"is_disabled":false,"rental_uris":{"android":"levelo://app?vid=ac11b11b-710c-4b46-b8d6-881b4f6ac1f2","ios":"levelo://app?vid=ac11b11b-710c-4b46-b8d6-881b4f6ac1f2"},"vehicle_type_id":"4","last_reported":1703563731,"current_range_meters":27600,"station_id":"ce4bgjh2rcd13ifvqbf0","pricing_plan_id":"free"},{"bike_id":"2b8a7470-bf5d-4d76-95a7-5af72995e357","system_id":"levelo_inurba_marseille","lat":43.298742,"lon":5.389095,"is_reserved":false,"is_disabled":false,"rental_uris":{"android":"levelo://app?vid=2b8a7470-bf5d-4d76-95a7-5af72995e357","ios":"levelo://app?vid=2b8a7470-bf5d-4d76-95a7-5af72995e357"},"vehicle_type_id":"4","last_reported":1703563731,"current_range_meters":19200,"station_id":"","pricing_plan_id":"free"},{"bike_id":"511b17e2-5e78-4d33-84c5-ce65cb435dd6","system_id":"levelo_inurba_marseille","lat":43.291994,"lon":5.357886,"is_reserved":false,"is_disabled":false,"rental_uris":{"android":"levelo://app?vid=511b17e2-5e78-4d33-84c5-ce65cb435dd6","ios":"levelo://app?vid=511b17e2-5e78-4d33-84c5-ce65cb435dd6"},"vehicle_type_id":"4","last_reported":1703563731,"current_range_meters":21600,"station_id":"ce4bhb12rcd13ifvqel0","pricing_plan_id":"free"},{"bike_id":"559788c7-5ce5-4749-98b3-3bfad09f16ba","system_id":"levelo_inurba_marseille","lat":43.313291,"lon":5.396838,"is_reserved":false,"is_disabled":false,"rental_uris":{"android":"levelo://app?vid=559788c7-5ce5-4749-98b3-3bfad09f16ba","ios":"levelo://app?vid=559788c7-5ce5-4749-98b3-3bfad09f16ba"},"vehicle_type_id":"4","last_reported":1703563731,"current_range_meters":23600,"station_id":"ce4bgvp2rcd13ifvqcu0","pricing_plan_id":"free"},{"bike_id":"a09ebeed-7558-444f-95b7-aa722d223366","system_id":"levelo_inurba_marseille","lat":43.30889,"lon":5.396453,"is_reserved":false,"is_disabled":false,"rental_uris":{"android":"levelo://app?vid=a09ebeed-7558-444f-95b7-aa722d223366","ios":"levelo://app?vid=a09ebeed-7558-444f-95b7-aa722d223366"},"vehicle_type_id":"4","last_reported":1703563731,"current_range_meters":31200,"station_id":"ce4bh012rcd13ifvqcv0","pricing_plan_id":"free"},{"bike_id":"935c3644-4d70-4774-bca2-bde5dbd5623a","system_id":"levelo_inurba_marseille","lat":43.313291,"lon":5.396838,"is_reserved":false,"is_disabled":false,"rental_uris":{"android":"levelo://app?vid=935c3644-4d70-4774-bca2-bde5dbd5623a","ios":"levelo://app?vid=935c3644-4d70-4774-bca2-bde5dbd5623a"},"vehicle_type_id":"4","last_reported":1703563731,"current_range_meters":24400,"station_id":"ce4bgvp2rcd13ifvqcu0","pricing_plan_id":"free"},{"bike_id":"fd31e639-b4d6-44fe-89e4-c4adad49ce8d","system_id":"levelo_inurba_marseille","lat":43.313291,"lon":5.396838,"is_reserved":false,"is_disabled":false,"rental_uris":{"android":"levelo://app?vid=fd31e639-b4d6-44fe-89e4-c4adad49ce8d","ios":"levelo://app?vid=fd31e639-b4d6-44fe-89e4-c4adad49ce8d"},"vehicle_type_id":"4","last_reported":1703563731,"current_range_meters":24000,"station_id":"ce4bgvp2rcd13ifvqcu0","pricing_plan_id":"free"},{"bike_id":"2050bbd9-9ea3-4674-a01e-c5ff6f9b8ab7","system_id":"levelo_inurba_marseille","lat":43.313291,"lon":5.396838,"is_reserved":false,"is_disabled":false,"rental_uris":{"android":"levelo://app?vid=2050bbd9-9ea3-4674-a01e-c5ff6f9b8ab7","ios":"levelo://app?vid=2050bbd9-9ea3-4674-a01e-c5ff6f9b8ab7"},"vehicle_type_id":"4","last_reported":1703563731,"current_range_meters":31200,"station_id":"ce4bgvp2rcd13ifvqcu0","pricing_plan_id":"free"},{"bike_id":"fd7106b3-1b00-4cfd-b7e1-bebc56a9f351","system_id":"levelo_inurba_marseille","lat":43.313291,"lon":5.396838,"is_reserved":false,"is_disabled":false,"rental_uris":{"android":"levelo://app?vid=fd7106b3-1b00-4cfd-b7e1-bebc56a9f351","ios":"levelo://app?vid=fd7106b3-1b00-4cfd-b7e1-bebc56a9f351"},"vehicle_type_id":"4","last_reported":1703563731,"current_range_meters":20400,"station_id":"ce4bgvp2rcd13ifvqcu0","pricing_plan_id":"free"},{"bike_id":"3b6a2954-e5f3-459d-a612-236a61fd8a06","system_id":"levelo_inurba_marseille","lat":43.313291,"lon":5.396838,"is_reserved":false,"is_disabled":false,"rental_uris":{"android":"levelo://app?vid=3b6a2954-e5f3-459d-a612-236a61fd8a06","ios":"levelo://app?vid=3b6a2954-e5f3-459d-a612-236a61fd8a06"},"vehicle_type_id":"4","last_reported":1703563731,"current_range_meters":31200,"station_id":"ce4bgvp2rcd13ifvqcu0","pricing_plan_id":"free"},{"bike_id":"6098573f-4343-4363-b89f-9c71a3092806","system_id":"levelo_inurba_marseille","lat":43.290624,"lon":5.359245,"is_reserved":false,"is_disabled":false,"rental_uris":{"android":"levelo://app?vid=6098573f-4343-4363-b89f-9c71a3092806","ios":"levelo://app?vid=6098573f-4343-4363-b89f-9c71a3092806"},"vehicle_type_id":"4","last_reported":1703563731,"current_range_meters":30000,"station_id":"ce4bha92rcd13ifvqeg0","pricing_plan_id":"free"},{"bike_id":"fb7d75c1-b6db-48c1-9151-cfb26e121a64","system_id":"levelo_inurba_marseille","lat":43.290631,"lon":5.359244,"is_reserved":false,"is_disabled":false,"rental_uris":{"android":"levelo://app?vid=fb7d75c1-b6db-48c1-9151-cfb26e121a64","ios":"levelo://app?vid=fb7d75c1-b6db-48c1-9151-cfb26e121a64"},"vehicle_type_id":"4","last_reported":1703563731,"current_range_meters":31200,"station_id":"ce4bha92rcd13ifvqeg0","pricing_plan_id":"free"},{"bike_id":"77034b14-71e0-462c-bfe9-35de574dc949","system_id":"levelo_inurba_marseille","lat":43.290631,"lon":5.359244,"is_reserved":false,"is_disabled":false,"rental_uris":{"android":"levelo://app?vid=77034b14-71e0-462c-bfe9-35de574dc949","ios":"levelo://app?vid=77034b14-71e0-462c-bfe9-35de574dc949"},"vehicle_type_id":"4","last_reported":1703563731,"current_range_meters":22400,"station_id":"ce4bha92rcd13ifvqeg0","pricing_plan_id":"free"},{"bike_id":"a0fbc6e3-fe09-42d1-940e-0369d1c298c1","system_id":"levelo_inurba_marseille","lat":43.289184,"lon":5.366408,"is_reserved":false,"is_disabled":false,"rental_uris":{"android":"levelo://app?vid=a0fbc6e3-fe09-42d1-940e-0369d1c298c1","ios":"levelo://app?vid=a0fbc6e3-fe09-42d1-940e-0369d1c298c1"},"vehicle_type_id":"4","last_reported":1703563731,"current_range_meters":22400,"station_id":"ce4bhap2rcd13ifvqek0","pricing_plan_id":"free"},{"bike_id":"fc898687-6d60-457d-bbba-555d075dbf80","system_id":"levelo_inurba_marseille","lat":43.290327,"lon":5.375711,"is_reserved":false,"is_disabled":false,"rental_uris":{"android":"levelo://app?vid=fc898687-6d60-457d-bbba-555d075dbf80","ios":"levelo://app?vid=fc898687-6d60-457d-bbba-555d075dbf80"},"vehicle_type_id":"4","last_reported":1703563731,"current_range_meters":31200,"station_id":"ce4bh692rcd13ifvqe90","pricing_plan_id":"free"},{"bike_id":"bc16bce0-5c87-46cd-b425-7ff59d43aa0d","system_id":"levelo_inurba_marseille","lat":43.290327,"lon":5.375711,"is_reserved":false,"is_disabled":false,"rental_uris":{"android":"levelo://app?vid=bc16bce0-5c87-46cd-b425-7ff59d43aa0d","ios":"levelo://app?vid=bc16bce0-5c87-46cd-b425-7ff59d43aa0d"},"vehicle_type_id":"4","last_reported":1703563731,"current_range_meters":28000,"station_id":"ce4bh692rcd13ifvqe90","pricing_plan_id":"free"},{"bike_id":"f64b2816-740f-4ed3-9c66-5f8302a4b6ad","system_id":"levelo_inurba_marseille","lat":43.289184,"lon":5.366408,"is_reserved":false,"is_disabled":false,"rental_uris":{"android":"levelo://app?vid=f64b2816-740f-4ed3-9c66-5f8302a4b6ad","ios":"levelo://app?vid=f64b2816-740f-4ed3-9c66-5f8302a4b6ad"},"vehicle_type_id":"4","last_reported":1703563731,"current_range_meters":16800,"station_id":"ce4bhap2rcd13ifvqek0","pricing_plan_id":"free"},{"bike_id":"9cd786d2-ffff-45d8-90cb-364d95a9091d","system_id":"levelo_inurba_marseille","lat":43.294162,"lon":5.386292,"is_reserved":false,"is_disabled":false,"rental_uris":{"android":"levelo://app?vid=9cd786d2-ffff-45d8-90cb-364d95a9091d","ios":"levelo://app?vid=9cd786d2-ffff-45d8-90cb-364d95a9091d"},"vehicle_type_id":"4","last_reported":1703563731,"current_range_meters":30400,"station_id":"ce4bh2h2rcd13ifvqdh0","pricing_plan_id":"free"},{"bike_id":"62bf6474-2f5b-467a-9de4-44c81cb637ee","system_id":"levelo_inurba_marseille","lat":43.289184,"lon":5.366408,"is_reserved":false,"is_disabled":false,"rental_uris":{"android":"levelo://app?vid=62bf6474-2f5b-467a-9de4-44c81cb637ee","ios":"levelo://app?vid=62bf6474-2f5b-467a-9de4-44c81cb637ee"},"vehicle_type_id":"4","last_reported":1703563731,"current_range_meters":31200,"station_id":"ce4bhap2rcd13ifvqek0","pricing_plan_id":"free"},{"bike_id":"3cfe96a3-6060-479e-9672-44239fc6a538","system_id":"levelo_inurba_marseille","lat":43.289184,"lon":5.366408,"is_reserved":false,"is_disabled":false,"rental_uris":{"android":"levelo://app?vid=3cfe96a3-6060-479e-9672-44239fc6a538","ios":"levelo://app?vid=3cfe96a3-6060-479e-9672-44239fc6a538"},"vehicle_type_id":"4","last_reported":1703563731,"current_range_meters":26400,"station_id":"ce4bhap2rcd13ifvqek0","pricing_plan_id":"free"},{"bike_id":"ae4cf73e-bf5a-4fe0-9ca3-b2d1a28ccff7","system_id":"levelo_inurba_marseille","lat":43.289438,"lon":5.363985,"is_reserved":false,"is_disabled":false,"rental_uris":{"android":"levelo://app?vid=ae4cf73e-bf5a-4fe0-9ca3-b2d1a28ccff7","ios":"levelo://app?vid=ae4cf73e-bf5a-4fe0-9ca3-b2d1a28ccff7"},"vehicle_type_id":"4","last_reported":1703563731,"current_range_meters":30000,"station_id":"ce4bhc92rcd13ifvqetg","pricing_plan_id":"free"},{"bike_id":"9b541573-0f7c-4ea7-9a62-e1c365a7afab","system_id":"levelo_inurba_marseille","lat":43.292487,"lon":5.383089,"is_reserved":false,"is_disabled":false,"rental_uris":{"android":"levelo://app?vid=9b541573-0f7c-4ea7-9a62-e1c365a7afab","ios":"levelo://app?vid=9b541573-0f7c-4ea7-9a62-e1c365a7afab"},"vehicle_type_id":"4","last_reported":1703563731,"current_range_meters":9600,"station_id":"","pricing_plan_id":"free"},{"bike_id":"c1dddbb1-6e43-4a11-9a98-1329171787de","system_id":"levelo_inurba_marseille","lat":43.289468,"lon":5.363719,"is_reserved":false,"is_disabled":false,"rental_uris":{"android":"levelo://app?vid=c1dddbb1-6e43-4a11-9a98-1329171787de","ios":"levelo://app?vid=c1dddbb1-6e43-4a11-9a98-1329171787de"},"vehicle_type_id":"4","last_reported":1703563731,"current_range_meters":28000,"station_id":"ce4bhc92rcd13ifvqetg","pricing_plan_id":"free"},{"bike_id":"9c4ace09-f755-4f04-8d30-79dcc6ec4d99","system_id":"levelo_inurba_marseille","lat":43.289184,"lon":5.366408,"is_reserved":false,"is_disabled":false,"rental_uris":{"android":"levelo://app?vid=9c4ace09-f755-4f04-8d30-79dcc6ec4d99","ios":"levelo://app?vid=9c4ace09-f755-4f04-8d30-79dcc6ec4d99"},"vehicle_type_id":"4","last_reported":1703563731,"current_range_meters":19600,"station_id":"ce4bhap2rcd13ifvqek0","pricing_plan_id":"free"},{"bike_id":"123be526-0c34-40da-b8c5-23f36922cf15","system_id":"levelo_inurba_marseille","lat":43.304745,"lon":5.397987,"is_reserved":false,"is_disabled":false,"rental_uris":{"android":"levelo://app?vid=123be526-0c34-40da-b8c5-23f36922cf15","ios":"levelo://app?vid=123be526-0c34-40da-b8c5-23f36922cf15"},"vehicle_type_id":"4","last_reported":1703563731,"current_range_meters":25600,"station_id":"","pricing_plan_id":"free"},{"bike_id":"98d51770-9eed-4bc2-b0ce-719ecb7f2c73","system_id":"levelo_inurba_marseille","lat":43.290103,"lon":5.356114,"is_reserved":false,"is_disabled":false,"rental_uris":{"android":"levelo://app?vid=98d51770-9eed-4bc2-b0ce-719ecb7f2c73","ios":"levelo://app?vid=98d51770-9eed-4bc2-b0ce-719ecb7f2c73"},"vehicle_type_id":"4","last_reported":1703563731,"current_range_meters":30800,"station_id":"ce4bhb92rcd13ifvqen0","pricing_plan_id":"free"},{"bike_id":"90de7a9b-f686-4a8e-917b-ac839c3f6577","system_id":"levelo_inurba_marseille","lat":43.29001,"lon":5.35611,"is_reserved":false,"is_disabled":false,"rental_uris":{"android":"levelo://app?vid=90de7a9b-f686-4a8e-917b-ac839c3f6577","ios":"levelo://app?vid=90de7a9b-f686-4a8e-917b-ac839c3f6577"},"vehicle_type_id":"4","last_reported":1703563731,"current_range_meters":24800,"station_id":"ce4bhb92rcd13ifvqen0","pricing_plan_id":"free"},{"bike_id":"22313407-9d09-435f-b158-10ab3c8b5aa7","system_id":"levelo_inurba_marseille","lat":43.297875,"lon":5.393416,"is_reserved":false,"is_disabled":false,"rental_uris":{"android":"levelo://app?vid=22313407-9d09-435f-b158-10ab3c8b5aa7","ios":"levelo://app?vid=22313407-9d09-435f-b158-10ab3c8b5aa7"},"vehicle_type_id":"4","last_reported":1703563731,"current_range_meters":31200,"station_id":"chh1huq6cuj3fo74tm60","pricing_plan_id":"free"},{"bike_id":"796697e0-8c84-49a9-83a4-681fc60438e0","system_id":"levelo_inurba_marseille","lat":43.297873,"lon":5.393513,"is_reserved":false,"is_disabled":false,"rental_uris":{"android":"levelo://app?vid=796697e0-8c84-49a9-83a4-681fc60438e0","ios":"levelo://app?vid=796697e0-8c84-49a9-83a4-681fc60438e0"},"vehicle_type_id":"4","last_reported":1703563731,"current_range_meters":28800,"station_id":"chh1huq6cuj3fo74tm60","pricing_plan_id":"free"},{"bike_id":"5d1bde58-2c7b-438a-bd37-7bc100df62bf","system_id":"levelo_inurba_marseille","lat":43.33024,"lon":5.39037,"is_reserved":false,"is_disabled":false,"rental_uris":{"android":"levelo://app?vid=5d1bde58-2c7b-438a-bd37-7bc100df62bf","ios":"levelo://app?vid=5d1bde58-2c7b-438a-bd37-7bc100df62bf"},"vehicle_type_id":"4","last_reported":1703563731,"current_range_meters":14800,"station_id":"","pricing_plan_id":"free"},{"bike_id":"d66ba10a-fb8d-42bb-8cca-f983f5659773","system_id":"levelo_inurba_marseille","lat":43.330442,"lon":5.389148,"is_reserved":false,"is_disabled":false,"rental_uris":{"android":"levelo://app?vid=d66ba10a-fb8d-42bb-8cca-f983f5659773","ios":"levelo://app?vid=d66ba10a-fb8d-42bb-8cca-f983f5659773"},"vehicle_type_id":"4","last_reported":1703563731,"current_range_meters":10400,"station_id":"ce4bhr92rcd13ifvqhrg","pricing_plan_id":"free"},{"bike_id":"7244b12c-a4ed-4fcc-a53c-0222ae84e7e2","system_id":"levelo_inurba_marseille","lat":43.33118,"lon":5.389753,"is_reserved":false,"is_disabled":false,"rental_uris":{"android":"levelo://app?vid=7244b12c-a4ed-4fcc-a53c-0222ae84e7e2","ios":"levelo://app?vid=7244b12c-a4ed-4fcc-a53c-0222ae84e7e2"},"vehicle_type_id":"4","last_reported":1703563731,"current_range_meters":28000,"station_id":"","pricing_plan_id":"free"},{"bike_id":"eaf3efb5-7f3b-4978-8399-92e33ced4f65","system_id":"levelo_inurba_marseille","lat":43.2901,"lon":5.381269,"is_reserved":false,"is_disabled":false,"rental_uris":{"android":"levelo://app?vid=eaf3efb5-7f3b-4978-8399-92e33ced4f65","ios":"levelo://app?vid=eaf3efb5-7f3b-4978-8399-92e33ced4f65"},"vehicle_type_id":"4","last_reported":1703563731,"current_range_meters":28400,"station_id":"ce4bh4p2rcd13ifvqe1g","pricing_plan_id":"free"},{"bike_id":"a32b0f98-c5b3-4da9-8322-44322d6de289","system_id":"levelo_inurba_marseille","lat":43.312609,"lon":5.401662,"is_reserved":false,"is_disabled":false,"rental_uris":{"android":"levelo://app?vid=a32b0f98-c5b3-4da9-8322-44322d6de289","ios":"levelo://app?vid=a32b0f98-c5b3-4da9-8322-44322d6de289"},"vehicle_type_id":"4","last_reported":1703563731,"current_range_meters":4000,"station_id":"ce4bh092rcd13ifvqd30","pricing_plan_id":"free"},{"bike_id":"ac913228-1afe-45d2-9b3c-c844c5a1e18d","system_id":"levelo_inurba_marseille","lat":43.309371,"lon":5.401449,"is_reserved":false,"is_disabled":false,"rental_uris":{"android":"levelo://app?vid=ac913228-1afe-45d2-9b3c-c844c5a1e18d","ios":"levelo://app?vid=ac913228-1afe-45d2-9b3c-c844c5a1e18d"},"vehicle_type_id":"4","last_reported":1703563731,"current_range_meters":16800,"station_id":"ce4bgvp2rcd13ifvqct0","pricing_plan_id":"free"},{"bike_id":"5014564f-c195-4b0d-a178-04b0011391c8","system_id":"levelo_inurba_marseille","lat":43.309371,"lon":5.401449,"is_reserved":false,"is_disabled":false,"rental_uris":{"android":"levelo://app?vid=5014564f-c195-4b0d-a178-04b0011391c8","ios":"levelo://app?vid=5014564f-c195-4b0d-a178-04b0011391c8"},"vehicle_type_id":"4","last_reported":1703563731,"current_range_meters":24400,"station_id":"ce4bgvp2rcd13ifvqct0","pricing_plan_id":"free"},{"bike_id":"75637737-35ea-4ea3-a8b3-22367431bccc","system_id":"levelo_inurba_marseille","lat":43.30642,"lon":5.401031,"is_reserved":false,"is_disabled":false,"rental_uris":{"android":"levelo://app?vid=75637737-35ea-4ea3-a8b3-22367431bccc","ios":"levelo://app?vid=75637737-35ea-4ea3-a8b3-22367431bccc"},"vehicle_type_id":"4","last_reported":1703563731,"current_range_meters":15600,"station_id":"ce4bh112rcd13ifvqda0","pricing_plan_id":"free"},{"bike_id":"2833dfd8-3be6-4273-acec-b3d5598a1114","system_id":"levelo_inurba_marseille","lat":43.301117,"lon":5.398795,"is_reserved":false,"is_disabled":false,"rental_uris":{"android":"levelo://app?vid=2833dfd8-3be6-4273-acec-b3d5598a1114","ios":"levelo://app?vid=2833dfd8-3be6-4273-acec-b3d5598a1114"},"vehicle_type_id":"4","last_reported":1703563731,"current_range_meters":26000,"station_id":"ce4bh0h2rcd13ifvqd40","pricing_plan_id":"free"},{"bike_id":"1dc0891e-bdae-4471-9be5-e8ba59d42c01","system_id":"levelo_inurba_marseille","lat":43.28727,"lon":5.36078,"is_reserved":false,"is_disabled":false,"rental_uris":{"android":"levelo://app?vid=1dc0891e-bdae-4471-9be5-e8ba59d42c01","ios":"levelo://app?vid=1dc0891e-bdae-4471-9be5-e8ba59d42c01"},"vehicle_type_id":"4","last_reported":1703563731,"current_range_meters":27200,"station_id":"cki0cbj6b192h4jlfktg","pricing_plan_id":"free"},{"bike_id":"d1a4f31e-aafb-4816-b00c-5d47b6c25908","system_id":"levelo_inurba_marseille","lat":43.298681,"lon":5.397225,"is_reserved":false,"is_disabled":false,"rental_uris":{"android":"levelo://app?vid=d1a4f31e-aafb-4816-b00c-5d47b6c25908","ios":"levelo://app?vid=d1a4f31e-aafb-4816-b00c-5d47b6c25908"},"vehicle_type_id":"4","last_reported":1703563731,"current_range_meters":27200,"station_id":"ce4bh0h2rcd13ifvqd50","pricing_plan_id":"free"},{"bike_id":"790ac815-6fb3-4772-9fb6-1d8b35d6fe27","system_id":"levelo_inurba_marseille","lat":43.286961,"lon":5.373785,"is_reserved":false,"is_disabled":false,"rental_uris":{"android":"levelo://app?vid=790ac815-6fb3-4772-9fb6-1d8b35d6fe27","ios":"levelo://app?vid=790ac815-6fb3-4772-9fb6-1d8b35d6fe27"},"vehicle_type_id":"4","last_reported":1703563731,"current_range_meters":31200,"station_id":"ce4bh3p2rcd13ifvqdq0","pricing_plan_id":"free"},{"bike_id":"88c1e555-050c-4447-8b6e-626ddd3f4e8d","system_id":"levelo_inurba_marseille","lat":43.286591,"lon":5.363346,"is_reserved":false,"is_disabled":false,"rental_uris":{"android":"levelo://app?vid=88c1e555-050c-4447-8b6e-626ddd3f4e8d","ios":"levelo://app?vid=88c1e555-050c-4447-8b6e-626ddd3f4e8d"},"vehicle_type_id":"4","last_reported":1703563731,"current_range_meters":29600,"station_id":"ce4bhah2rcd13ifvqej0","pricing_plan_id":"free"},{"bike_id":"f1e6b07c-b097-4f5e-a548-e044341b46f6","system_id":"levelo_inurba_marseille","lat":43.286961,"lon":5.373785,"is_reserved":false,"is_disabled":false,"rental_uris":{"android":"levelo://app?vid=f1e6b07c-b097-4f5e-a548-e044341b46f6","ios":"levelo://app?vid=f1e6b07c-b097-4f5e-a548-e044341b46f6"},"vehicle_type_id":"4","last_reported":1703563731,"current_range_meters":22400,"station_id":"ce4bh3p2rcd13ifvqdq0","pricing_plan_id":"free"},{"bike_id":"793f134f-636b-496c-bedc-9dde1b695b1d","system_id":"levelo_inurba_marseille","lat":43.286961,"lon":5.373785,"is_reserved":false,"is_disabled":false,"rental_uris":{"android":"levelo://app?vid=793f134f-636b-496c-bedc-9dde1b695b1d","ios":"levelo://app?vid=793f134f-636b-496c-bedc-9dde1b695b1d"},"vehicle_type_id":"4","last_reported":1703563731,"current_range_meters":6000,"station_id":"ce4bh3p2rcd13ifvqdq0","pricing_plan_id":"free"},{"bike_id":"cf6b0593-f60e-45f1-a6fc-b32c1ecf3951","system_id":"levelo_inurba_marseille","lat":43.295173,"lon":5.394035,"is_reserved":false,"is_disabled":false,"rental_uris":{"android":"levelo://app?vid=cf6b0593-f60e-45f1-a6fc-b32c1ecf3951","ios":"levelo://app?vid=cf6b0593-f60e-45f1-a6fc-b32c1ecf3951"},"vehicle_type_id":"4","last_reported":1703563731,"current_range_meters":30800,"station_id":"ce4bh292rcd13ifvqdf0","pricing_plan_id":"free"},{"bike_id":"dc921da1-7160-4cab-abc8-33c03727931b","system_id":"levelo_inurba_marseille","lat":43.290345,"lon":5.38646,"is_reserved":false,"is_disabled":false,"rental_uris":{"android":"levelo://app?vid=dc921da1-7160-4cab-abc8-33c03727931b","ios":"levelo://app?vid=dc921da1-7160-4cab-abc8-33c03727931b"},"vehicle_type_id":"4","last_reported":1703563731,"current_range_meters":30000,"station_id":"ce4bh4p2rcd13ifvqe0g","pricing_plan_id":"free"},{"bike_id":"e7b4f42d-8789-4c22-a9ad-b8df2995cdc0","system_id":"levelo_inurba_marseille","lat":43.289307,"lon":5.38406,"is_reserved":false,"is_disabled":false,"rental_uris":{"android":"levelo://app?vid=e7b4f42d-8789-4c22-a9ad-b8df2995cdc0","ios":"levelo://app?vid=e7b4f42d-8789-4c22-a9ad-b8df2995cdc0"},"vehicle_type_id":"4","last_reported":1703563731,"current_range_meters":17600,"station_id":"ce4bh612rcd13ifvqe6g","pricing_plan_id":"free"},{"bike_id":"a0b03d8e-4166-4eac-aae3-14551c30d7f6","system_id":"levelo_inurba_marseille","lat":43.289307,"lon":5.38406,"is_reserved":false,"is_disabled":false,"rental_uris":{"android":"levelo://app?vid=a0b03d8e-4166-4eac-aae3-14551c30d7f6","ios":"levelo://app?vid=a0b03d8e-4166-4eac-aae3-14551c30d7f6"},"vehicle_type_id":"4","last_reported":1703563731,"current_range_meters":21200,"station_id":"ce4bh612rcd13ifvqe6g","pricing_plan_id":"free"},{"bike_id":"d59e8884-ab49-4eee-b8d1-c25f52a7bbc0","system_id":"levelo_inurba_marseille","lat":43.290345,"lon":5.38646,"is_reserved":false,"is_disabled":false,"rental_uris":{"android":"levelo://app?vid=d59e8884-ab49-4eee-b8d1-c25f52a7bbc0","ios":"levelo://app?vid=d59e8884-ab49-4eee-b8d1-c25f52a7bbc0"},"vehicle_type_id":"4","last_reported":1703563731,"current_range_meters":30400,"station_id":"ce4bh4p2rcd13ifvqe0g","pricing_plan_id":"free"},{"bike_id":"a4f81d61-acdb-444b-af8b-b6298de33ea6","system_id":"levelo_inurba_marseille","lat":43.290345,"lon":5.38646,"is_reserved":false,"is_disabled":false,"rental_uris":{"android":"levelo://app?vid=a4f81d61-acdb-444b-af8b-b6298de33ea6","ios":"levelo://app?vid=a4f81d61-acdb-444b-af8b-b6298de33ea6"},"vehicle_type_id":"4","last_reported":1703563731,"current_range_meters":30400,"station_id":"ce4bh4p2rcd13ifvqe0g","pricing_plan_id":"free"},{"bike_id":"137bbfc5-9177-4077-99a9-f5aca3ded894","system_id":"levelo_inurba_marseille","lat":43.290345,"lon":5.38646,"is_reserved":false,"is_disabled":false,"rental_uris":{"android":"levelo://app?vid=137bbfc5-9177-4077-99a9-f5aca3ded894","ios":"levelo://app?vid=137bbfc5-9177-4077-99a9-f5aca3ded894"},"vehicle_type_id":"4","last_reported":1703563731,"current_range_meters":31200,"station_id":"ce4bh4p2rcd13ifvqe0g","pricing_plan_id":"free"},{"bike_id":"6eb8d9bf-bb36-4f48-939a-2a05e59dc9ed","system_id":"levelo_inurba_marseille","lat":43.289307,"lon":5.38406,"is_reserved":false,"is_disabled":false,"rental_uris":{"android":"levelo://app?vid=6eb8d9bf-bb36-4f48-939a-2a05e59dc9ed","ios":"levelo://app?vid=6eb8d9bf-bb36-4f48-939a-2a05e59dc9ed"},"vehicle_type_id":"4","last_reported":1703563731,"current_range_meters":31200,"station_id":"ce4bh612rcd13ifvqe6g","pricing_plan_id":"free"},{"bike_id":"69043c95-7f11-44e3-9d9e-48493c9210d8","system_id":"levelo_inurba_marseille","lat":43.289307,"lon":5.38406,"is_reserved":false,"is_disabled":false,"rental_uris":{"android":"levelo://app?vid=69043c95-7f11-44e3-9d9e-48493c9210d8","ios":"levelo://app?vid=69043c95-7f11-44e3-9d9e-48493c9210d8"},"vehicle_type_id":"4","last_reported":1703563731,"current_range_meters":31200,"station_id":"ce4bh612rcd13ifvqe6g","pricing_plan_id":"free"},{"bike_id":"58287bc2-f798-447f-98f0-1feb0986d5f9","system_id":"levelo_inurba_marseille","lat":43.289307,"lon":5.38406,"is_reserved":false,"is_disabled":false,"rental_uris":{"android":"levelo://app?vid=58287bc2-f798-447f-98f0-1feb0986d5f9","ios":"levelo://app?vid=58287bc2-f798-447f-98f0-1feb0986d5f9"},"vehicle_type_id":"4","last_reported":1703563731,"current_range_meters":30800,"station_id":"ce4bh612rcd13ifvqe6g","pricing_plan_id":"free"},{"bike_id":"b1e2fac1-ee45-435a-901a-6584c957bb41","system_id":"levelo_inurba_marseille","lat":43.289307,"lon":5.38406,"is_reserved":false,"is_disabled":false,"rental_uris":{"android":"levelo://app?vid=b1e2fac1-ee45-435a-901a-6584c957bb41","ios":"levelo://app?vid=b1e2fac1-ee45-435a-901a-6584c957bb41"},"vehicle_type_id":"4","last_reported":1703563731,"current_range_meters":10400,"station_id":"ce4bh612rcd13ifvqe6g","pricing_plan_id":"free"},{"bike_id":"d971175b-09a8-4db4-b50d-80c8de73e879","system_id":"levelo_inurba_marseille","lat":43.290345,"lon":5.38646,"is_reserved":false,"is_disabled":false,"rental_uris":{"android":"levelo://app?vid=d971175b-09a8-4db4-b50d-80c8de73e879","ios":"levelo://app?vid=d971175b-09a8-4db4-b50d-80c8de73e879"},"vehicle_type_id":"4","last_reported":1703563731,"current_range_meters":22000,"station_id":"ce4bh4p2rcd13ifvqe0g","pricing_plan_id":"free"},{"bike_id":"7e829bda-2845-4e55-9917-ce53827c35af","system_id":"levelo_inurba_marseille","lat":43.302759,"lon":5.400793,"is_reserved":false,"is_disabled":false,"rental_uris":{"android":"levelo://app?vid=7e829bda-2845-4e55-9917-ce53827c35af","ios":"levelo://app?vid=7e829bda-2845-4e55-9917-ce53827c35af"},"vehicle_type_id":"4","last_reported":1703563731,"current_range_meters":31200,"station_id":"ce4bgvh2rcd13ifvqcs0","pricing_plan_id":"free"},{"bike_id":"1d6d2765-b86f-4dbb-b22e-8120456f6c79","system_id":"levelo_inurba_marseille","lat":43.302759,"lon":5.400793,"is_reserved":false,"is_disabled":false,"rental_uris":{"android":"levelo://app?vid=1d6d2765-b86f-4dbb-b22e-8120456f6c79","ios":"levelo://app?vid=1d6d2765-b86f-4dbb-b22e-8120456f6c79"},"vehicle_type_id":"4","last_reported":1703563731,"current_range_meters":26800,"station_id":"ce4bgvh2rcd13ifvqcs0","pricing_plan_id":"free"},{"bike_id":"b06074ef-2bdc-492f-8a62-f1079c7b33cd","system_id":"levelo_inurba_marseille","lat":43.302759,"lon":5.400793,"is_reserved":false,"is_disabled":false,"rental_uris":{"android":"levelo://app?vid=b06074ef-2bdc-492f-8a62-f1079c7b33cd","ios":"levelo://app?vid=b06074ef-2bdc-492f-8a62-f1079c7b33cd"},"vehicle_type_id":"4","last_reported":1703563731,"current_range_meters":30400,"station_id":"ce4bgvh2rcd13ifvqcs0","pricing_plan_id":"free"},{"bike_id":"9d25bbe6-6121-406d-8803-a340738149c8","system_id":"levelo_inurba_marseille","lat":43.289307,"lon":5.38406,"is_reserved":false,"is_disabled":false,"rental_uris":{"android":"levelo://app?vid=9d25bbe6-6121-406d-8803-a340738149c8","ios":"levelo://app?vid=9d25bbe6-6121-406d-8803-a340738149c8"},"vehicle_type_id":"4","last_reported":1703563731,"current_range_meters":31200,"station_id":"ce4bh612rcd13ifvqe6g","pricing_plan_id":"free"},{"bike_id":"c4491d0c-74af-4d88-864d-4c53251d5027","system_id":"levelo_inurba_marseille","lat":43.286039,"lon":5.370679,"is_reserved":false,"is_disabled":false,"rental_uris":{"android":"levelo://app?vid=c4491d0c-74af-4d88-864d-4c53251d5027","ios":"levelo://app?vid=c4491d0c-74af-4d88-864d-4c53251d5027"},"vehicle_type_id":"4","last_reported":1703563731,"current_range_meters":27200,"station_id":"ce4bht12rcd13ifvqi60","pricing_plan_id":"free"},{"bike_id":"e42f2d48-1eac-4ea9-97da-9a200b97c493","system_id":"levelo_inurba_marseille","lat":43.286082,"lon":5.370659,"is_reserved":false,"is_disabled":false,"rental_uris":{"android":"levelo://app?vid=e42f2d48-1eac-4ea9-97da-9a200b97c493","ios":"levelo://app?vid=e42f2d48-1eac-4ea9-97da-9a200b97c493"},"vehicle_type_id":"4","last_reported":1703563731,"current_range_meters":26800,"station_id":"ce4bht12rcd13ifvqi60","pricing_plan_id":"free"},{"bike_id":"0ade99fb-20fc-423b-a697-58876a6bf0b1","system_id":"levelo_inurba_marseille","lat":43.287066,"lon":5.379375,"is_reserved":false,"is_disabled":false,"rental_uris":{"android":"levelo://app?vid=0ade99fb-20fc-423b-a697-58876a6bf0b1","ios":"levelo://app?vid=0ade99fb-20fc-423b-a697-58876a6bf0b1"},"vehicle_type_id":"4","last_reported":1703563731,"current_range_meters":19600,"station_id":"ce4bh9p2rcd13ifvqec0","pricing_plan_id":"free"},{"bike_id":"10cebbf1-af0e-4a22-9946-79b30eaf225b","system_id":"levelo_inurba_marseille","lat":43.316821,"lon":5.404737,"is_reserved":false,"is_disabled":false,"rental_uris":{"android":"levelo://app?vid=10cebbf1-af0e-4a22-9946-79b30eaf225b","ios":"levelo://app?vid=10cebbf1-af0e-4a22-9946-79b30eaf225b"},"vehicle_type_id":"4","last_reported":1703563731,"current_range_meters":11200,"station_id":"ce4bh012rcd13ifvqd00","pricing_plan_id":"free"},{"bike_id":"9da4e2c0-85e0-48e8-84ca-a8131ebea362","system_id":"levelo_inurba_marseille","lat":43.316828,"lon":5.404723,"is_reserved":false,"is_disabled":false,"rental_uris":{"android":"levelo://app?vid=9da4e2c0-85e0-48e8-84ca-a8131ebea362","ios":"levelo://app?vid=9da4e2c0-85e0-48e8-84ca-a8131ebea362"},"vehicle_type_id":"4","last_reported":1703563731,"current_range_meters":26400,"station_id":"ce4bh012rcd13ifvqd00","pricing_plan_id":"free"},{"bike_id":"d3f87648-fa46-4e0f-85a3-39f063b748e0","system_id":"levelo_inurba_marseille","lat":43.33263,"lon":5.3943,"is_reserved":false,"is_disabled":false,"rental_uris":{"android":"levelo://app?vid=d3f87648-fa46-4e0f-85a3-39f063b748e0","ios":"levelo://app?vid=d3f87648-fa46-4e0f-85a3-39f063b748e0"},"vehicle_type_id":"4","last_reported":1703563731,"current_range_meters":29200,"station_id":"","pricing_plan_id":"free"},{"bike_id":"f16a6b9b-cf18-402f-b580-9f5494b3a1fa","system_id":"levelo_inurba_marseille","lat":43.291962,"lon":5.393136,"is_reserved":false,"is_disabled":false,"rental_uris":{"android":"levelo://app?vid=f16a6b9b-cf18-402f-b580-9f5494b3a1fa","ios":"levelo://app?vid=f16a6b9b-cf18-402f-b580-9f5494b3a1fa"},"vehicle_type_id":"4","last_reported":1703563731,"current_range_meters":9600,"station_id":"ce4bh192rcd13ifvqdd0","pricing_plan_id":"free"},{"bike_id":"7f6daaf6-8c88-4ae4-8839-35343aa252fd","system_id":"levelo_inurba_marseille","lat":43.292063,"lon":5.393295,"is_reserved":false,"is_disabled":false,"rental_uris":{"android":"levelo://app?vid=7f6daaf6-8c88-4ae4-8839-35343aa252fd","ios":"levelo://app?vid=7f6daaf6-8c88-4ae4-8839-35343aa252fd"},"vehicle_type_id":"4","last_reported":1703563731,"current_range_meters":31200,"station_id":"ce4bh192rcd13ifvqdd0","pricing_plan_id":"free"},{"bike_id":"82c00ffb-cb4f-4b90-94b6-9f251ef253b7","system_id":"levelo_inurba_marseille","lat":43.291994,"lon":5.392907,"is_reserved":false,"is_disabled":false,"rental_uris":{"android":"levelo://app?vid=82c00ffb-cb4f-4b90-94b6-9f251ef253b7","ios":"levelo://app?vid=82c00ffb-cb4f-4b90-94b6-9f251ef253b7"},"vehicle_type_id":"4","last_reported":1703563731,"current_range_meters":31200,"station_id":"ce4bh192rcd13ifvqdd0","pricing_plan_id":"free"},{"bike_id":"fcb2927b-41c2-46f0-a085-ab2a10a8a5ee","system_id":"levelo_inurba_marseille","lat":43.29194,"lon":5.393175,"is_reserved":false,"is_disabled":false,"rental_uris":{"android":"levelo://app?vid=fcb2927b-41c2-46f0-a085-ab2a10a8a5ee","ios":"levelo://app?vid=fcb2927b-41c2-46f0-a085-ab2a10a8a5ee"},"vehicle_type_id":"4","last_reported":1703563731,"current_range_meters":21200,"station_id":"ce4bh192rcd13ifvqdd0","pricing_plan_id":"free"},{"bike_id":"f7ed3370-523c-4c2f-845c-836ae642af5e","system_id":"levelo_inurba_marseille","lat":43.291974,"lon":5.39331,"is_reserved":false,"is_disabled":false,"rental_uris":{"android":"levelo://app?vid=f7ed3370-523c-4c2f-845c-836ae642af5e","ios":"levelo://app?vid=f7ed3370-523c-4c2f-845c-836ae642af5e"},"vehicle_type_id":"4","last_reported":1703563731,"current_range_meters":28800,"station_id":"ce4bh192rcd13ifvqdd0","pricing_plan_id":"free"},{"bike_id":"7efe8a1f-ea0a-49c2-80ea-2c3055c6387c","system_id":"levelo_inurba_marseille","lat":43.291994,"lon":5.392907,"is_reserved":false,"is_disabled":false,"rental_uris":{"android":"levelo://app?vid=7efe8a1f-ea0a-49c2-80ea-2c3055c6387c","ios":"levelo://app?vid=7efe8a1f-ea0a-49c2-80ea-2c3055c6387c"},"vehicle_type_id":"4","last_reported":1703563731,"current_range_meters":10400,"station_id":"ce4bh192rcd13ifvqdd0","pricing_plan_id":"free"},{"bike_id":"e2adfa7c-882e-48a1-9ee4-b36e6186ebbf","system_id":"levelo_inurba_marseille","lat":43.330912,"lon":5.396935,"is_reserved":false,"is_disabled":false,"rental_uris":{"android":"levelo://app?vid=e2adfa7c-882e-48a1-9ee4-b36e6186ebbf","ios":"levelo://app?vid=e2adfa7c-882e-48a1-9ee4-b36e6186ebbf"},"vehicle_type_id":"4","last_reported":1703563731,"current_range_meters":4400,"station_id":"","pricing_plan_id":"free"},{"bike_id":"89b601d7-1041-4206-a269-8c4b9f7560a5","system_id":"levelo_inurba_marseille","lat":43.284538,"lon":5.358657,"is_reserved":false,"is_disabled":false,"rental_uris":{"android":"levelo://app?vid=89b601d7-1041-4206-a269-8c4b9f7560a5","ios":"levelo://app?vid=89b601d7-1041-4206-a269-8c4b9f7560a5"},"vehicle_type_id":"4","last_reported":1703563731,"current_range_meters":30400,"station_id":"ce4bhah2rcd13ifvqei0","pricing_plan_id":"free"},{"bike_id":"6fce6cf9-3857-4ce7-8dd8-c8d6febadb9e","system_id":"levelo_inurba_marseille","lat":43.284538,"lon":5.358657,"is_reserved":false,"is_disabled":false,"rental_uris":{"android":"levelo://app?vid=6fce6cf9-3857-4ce7-8dd8-c8d6febadb9e","ios":"levelo://app?vid=6fce6cf9-3857-4ce7-8dd8-c8d6febadb9e"},"vehicle_type_id":"4","last_reported":1703563731,"current_range_meters":31200,"station_id":"ce4bhah2rcd13ifvqei0","pricing_plan_id":"free"},{"bike_id":"fbcd6f70-0756-4675-acb3-7efc3adc3d5d","system_id":"levelo_inurba_marseille","lat":43.284534,"lon":5.358662,"is_reserved":false,"is_disabled":false,"rental_uris":{"android":"levelo://app?vid=fbcd6f70-0756-4675-acb3-7efc3adc3d5d","ios":"levelo://app?vid=fbcd6f70-0756-4675-acb3-7efc3adc3d5d"},"vehicle_type_id":"4","last_reported":1703563731,"current_range_meters":28800,"station_id":"ce4bhah2rcd13ifvqei0","pricing_plan_id":"free"},{"bike_id":"ee8641c0-9856-478b-89a3-d33c38c3843a","system_id":"levelo_inurba_marseille","lat":43.284538,"lon":5.358657,"is_reserved":false,"is_disabled":false,"rental_uris":{"android":"levelo://app?vid=ee8641c0-9856-478b-89a3-d33c38c3843a","ios":"levelo://app?vid=ee8641c0-9856-478b-89a3-d33c38c3843a"},"vehicle_type_id":"4","last_reported":1703563731,"current_range_meters":26800,"station_id":"ce4bhah2rcd13ifvqei0","pricing_plan_id":"free"},{"bike_id":"77471a9f-769e-4b9a-b5ea-aa1134ace442","system_id":"levelo_inurba_marseille","lat":43.294314,"lon":5.397498,"is_reserved":false,"is_disabled":false,"rental_uris":{"android":"levelo://app?vid=77471a9f-769e-4b9a-b5ea-aa1134ace442","ios":"levelo://app?vid=77471a9f-769e-4b9a-b5ea-aa1134ace442"},"vehicle_type_id":"4","last_reported":1703563731,"current_range_meters":29200,"station_id":"ce4bh3h2rcd13ifvqdo0","pricing_plan_id":"free"},{"bike_id":"739a8e6f-1442-437a-9f38-ede859472acd","system_id":"levelo_inurba_marseille","lat":43.285856,"lon":5.350771,"is_reserved":false,"is_disabled":false,"rental_uris":{"android":"levelo://app?vid=739a8e6f-1442-437a-9f38-ede859472acd","ios":"levelo://app?vid=739a8e6f-1442-437a-9f38-ede859472acd"},"vehicle_type_id":"4","last_reported":1703563731,"current_range_meters":28400,"station_id":"ce4bhch2rcd13ifvqeug","pricing_plan_id":"free"},{"bike_id":"bdc90deb-ee84-4059-a9d5-d8c0dea7f16a","system_id":"levelo_inurba_marseille","lat":43.283998,"lon":5.375062,"is_reserved":false,"is_disabled":false,"rental_uris":{"android":"levelo://app?vid=bdc90deb-ee84-4059-a9d5-d8c0dea7f16a","ios":"levelo://app?vid=bdc90deb-ee84-4059-a9d5-d8c0dea7f16a"},"vehicle_type_id":"4","last_reported":1703563731,"current_range_meters":31200,"station_id":"ce4bh412rcd13ifvqds0","pricing_plan_id":"free"},{"bike_id":"48beaf25-d1bf-418f-9498-b59264478e75","system_id":"levelo_inurba_marseille","lat":43.283998,"lon":5.375062,"is_reserved":false,"is_disabled":false,"rental_uris":{"android":"levelo://app?vid=48beaf25-d1bf-418f-9498-b59264478e75","ios":"levelo://app?vid=48beaf25-d1bf-418f-9498-b59264478e75"},"vehicle_type_id":"4","last_reported":1703563731,"current_range_meters":20000,"station_id":"ce4bh412rcd13ifvqds0","pricing_plan_id":"free"},{"bike_id":"bcb850ea-4558-48f8-884b-17064076fc95","system_id":"levelo_inurba_marseille","lat":43.283998,"lon":5.375062,"is_reserved":false,"is_disabled":false,"rental_uris":{"android":"levelo://app?vid=bcb850ea-4558-48f8-884b-17064076fc95","ios":"levelo://app?vid=bcb850ea-4558-48f8-884b-17064076fc95"},"vehicle_type_id":"4","last_reported":1703563731,"current_range_meters":18000,"station_id":"ce4bh412rcd13ifvqds0","pricing_plan_id":"free"},{"bike_id":"039ceecd-3506-4419-ad48-bf31b196e9b3","system_id":"levelo_inurba_marseille","lat":43.283998,"lon":5.375062,"is_reserved":false,"is_disabled":false,"rental_uris":{"android":"levelo://app?vid=039ceecd-3506-4419-ad48-bf31b196e9b3","ios":"levelo://app?vid=039ceecd-3506-4419-ad48-bf31b196e9b3"},"vehicle_type_id":"4","last_reported":1703563731,"current_range_meters":30000,"station_id":"ce4bh412rcd13ifvqds0","pricing_plan_id":"free"},{"bike_id":"4b388e93-8359-494a-93e7-a691dd1edc09","system_id":"levelo_inurba_marseille","lat":43.331527,"lon":5.398182,"is_reserved":false,"is_disabled":false,"rental_uris":{"android":"levelo://app?vid=4b388e93-8359-494a-93e7-a691dd1edc09","ios":"levelo://app?vid=4b388e93-8359-494a-93e7-a691dd1edc09"},"vehicle_type_id":"4","last_reported":1703563731,"current_range_meters":28000,"station_id":"","pricing_plan_id":"free"},{"bike_id":"c8e4841c-10ff-4802-9b08-54b764c03bb3","system_id":"levelo_inurba_marseille","lat":43.319179,"lon":5.407725,"is_reserved":false,"is_disabled":false,"rental_uris":{"android":"levelo://app?vid=c8e4841c-10ff-4802-9b08-54b764c03bb3","ios":"levelo://app?vid=c8e4841c-10ff-4802-9b08-54b764c03bb3"},"vehicle_type_id":"4","last_reported":1703563731,"current_range_meters":31600,"station_id":"ce4bhq12rcd13ifvqhig","pricing_plan_id":"free"},{"bike_id":"b6959909-e0e7-44c4-a573-87bbbeee6101","system_id":"levelo_inurba_marseille","lat":43.319179,"lon":5.407725,"is_reserved":false,"is_disabled":false,"rental_uris":{"android":"levelo://app?vid=b6959909-e0e7-44c4-a573-87bbbeee6101","ios":"levelo://app?vid=b6959909-e0e7-44c4-a573-87bbbeee6101"},"vehicle_type_id":"4","last_reported":1703563731,"current_range_meters":31200,"station_id":"ce4bhq12rcd13ifvqhig","pricing_plan_id":"free"},{"bike_id":"c2a4e9fa-d127-4873-a166-c6085deebf8d","system_id":"levelo_inurba_marseille","lat":43.319179,"lon":5.407725,"is_reserved":false,"is_disabled":false,"rental_uris":{"android":"levelo://app?vid=c2a4e9fa-d127-4873-a166-c6085deebf8d","ios":"levelo://app?vid=c2a4e9fa-d127-4873-a166-c6085deebf8d"},"vehicle_type_id":"4","last_reported":1703563731,"current_range_meters":28000,"station_id":"ce4bhq12rcd13ifvqhig","pricing_plan_id":"free"},{"bike_id":"ff6ebe2d-10e0-4bee-8d5b-0d34d0573673","system_id":"levelo_inurba_marseille","lat":43.33718,"lon":5.391615,"is_reserved":false,"is_disabled":false,"rental_uris":{"android":"levelo://app?vid=ff6ebe2d-10e0-4bee-8d5b-0d34d0573673","ios":"levelo://app?vid=ff6ebe2d-10e0-4bee-8d5b-0d34d0573673"},"vehicle_type_id":"4","last_reported":1703563731,"current_range_meters":19200,"station_id":"ce4bhr92rcd13ifvqhsg","pricing_plan_id":"free"},{"bike_id":"9960fa43-3a3b-4d5b-8fe2-258b49d47b49","system_id":"levelo_inurba_marseille","lat":43.323464,"lon":5.406297,"is_reserved":false,"is_disabled":false,"rental_uris":{"android":"levelo://app?vid=9960fa43-3a3b-4d5b-8fe2-258b49d47b49","ios":"levelo://app?vid=9960fa43-3a3b-4d5b-8fe2-258b49d47b49"},"vehicle_type_id":"4","last_reported":1703563731,"current_range_meters":28000,"station_id":"ce4bhq92rcd13ifvqhjg","pricing_plan_id":"free"},{"bike_id":"a330c8f1-3748-4c5a-a422-58099001eb59","system_id":"levelo_inurba_marseille","lat":43.284793,"lon":5.384119,"is_reserved":false,"is_disabled":false,"rental_uris":{"android":"levelo://app?vid=a330c8f1-3748-4c5a-a422-58099001eb59","ios":"levelo://app?vid=a330c8f1-3748-4c5a-a422-58099001eb59"},"vehicle_type_id":"4","last_reported":1703563731,"current_range_meters":30800,"station_id":"ce4bh512rcd13ifvqe3g","pricing_plan_id":"free"},{"bike_id":"c23bfb09-46f4-4c45-a8df-1c4a34a35133","system_id":"levelo_inurba_marseille","lat":43.284793,"lon":5.384119,"is_reserved":false,"is_disabled":false,"rental_uris":{"android":"levelo://app?vid=c23bfb09-46f4-4c45-a8df-1c4a34a35133","ios":"levelo://app?vid=c23bfb09-46f4-4c45-a8df-1c4a34a35133"},"vehicle_type_id":"4","last_reported":1703563731,"current_range_meters":29200,"station_id":"ce4bh512rcd13ifvqe3g","pricing_plan_id":"free"},{"bike_id":"4446f8db-8bfd-4d22-b530-3587c3d04e1c","system_id":"levelo_inurba_marseille","lat":43.297946,"lon":5.404063,"is_reserved":false,"is_disabled":false,"rental_uris":{"android":"levelo://app?vid=4446f8db-8bfd-4d22-b530-3587c3d04e1c","ios":"levelo://app?vid=4446f8db-8bfd-4d22-b530-3587c3d04e1c"},"vehicle_type_id":"4","last_reported":1703563731,"current_range_meters":27600,"station_id":"ce4bh112rcd13ifvqd90","pricing_plan_id":"free"},{"bike_id":"083b1d94-37b7-4f65-ad73-6ccd228910b2","system_id":"levelo_inurba_marseille","lat":43.288501,"lon":5.393087,"is_reserved":false,"is_disabled":false,"rental_uris":{"android":"levelo://app?vid=083b1d94-37b7-4f65-ad73-6ccd228910b2","ios":"levelo://app?vid=083b1d94-37b7-4f65-ad73-6ccd228910b2"},"vehicle_type_id":"4","last_reported":1703563731,"current_range_meters":31200,"station_id":"ce4bh2p2rcd13ifvqdi0","pricing_plan_id":"free"},{"bike_id":"f2f1ff8c-db1f-4a4e-bd4a-93f4fadac928","system_id":"levelo_inurba_marseille","lat":43.288501,"lon":5.393087,"is_reserved":false,"is_disabled":false,"rental_uris":{"android":"levelo://app?vid=f2f1ff8c-db1f-4a4e-bd4a-93f4fadac928","ios":"levelo://app?vid=f2f1ff8c-db1f-4a4e-bd4a-93f4fadac928"},"vehicle_type_id":"4","last_reported":1703563731,"current_range_meters":22000,"station_id":"ce4bh2p2rcd13ifvqdi0","pricing_plan_id":"free"},{"bike_id":"21c5977c-e44d-4792-8049-9fddceb8af16","system_id":"levelo_inurba_marseille","lat":43.283494,"lon":5.380945,"is_reserved":false,"is_disabled":false,"rental_uris":{"android":"levelo://app?vid=21c5977c-e44d-4792-8049-9fddceb8af16","ios":"levelo://app?vid=21c5977c-e44d-4792-8049-9fddceb8af16"},"vehicle_type_id":"4","last_reported":1703563731,"current_range_meters":28400,"station_id":"ce4bh412rcd13ifvqdr0","pricing_plan_id":"free"},{"bike_id":"947337ad-8e07-4f0c-baac-ef42a7c1a269","system_id":"levelo_inurba_marseille","lat":43.283494,"lon":5.380945,"is_reserved":false,"is_disabled":false,"rental_uris":{"android":"levelo://app?vid=947337ad-8e07-4f0c-baac-ef42a7c1a269","ios":"levelo://app?vid=947337ad-8e07-4f0c-baac-ef42a7c1a269"},"vehicle_type_id":"4","last_reported":1703563731,"current_range_meters":27200,"station_id":"ce4bh412rcd13ifvqdr0","pricing_plan_id":"free"},{"bike_id":"e485450b-2736-4f4c-b94b-0da5a69b88aa","system_id":"levelo_inurba_marseille","lat":43.33385,"lon":5.39822,"is_reserved":false,"is_disabled":false,"rental_uris":{"android":"levelo://app?vid=e485450b-2736-4f4c-b94b-0da5a69b88aa","ios":"levelo://app?vid=e485450b-2736-4f4c-b94b-0da5a69b88aa"},"vehicle_type_id":"4","last_reported":1703563731,"current_range_meters":24000,"station_id":"","pricing_plan_id":"free"},{"bike_id":"ebbbdec0-9f54-4c60-a0d7-9d8e824a6cff","system_id":"levelo_inurba_marseille","lat":43.284217,"lon":5.349697,"is_reserved":false,"is_disabled":false,"rental_uris":{"android":"levelo://app?vid=ebbbdec0-9f54-4c60-a0d7-9d8e824a6cff","ios":"levelo://app?vid=ebbbdec0-9f54-4c60-a0d7-9d8e824a6cff"},"vehicle_type_id":"4","last_reported":1703563731,"current_range_meters":25600,"station_id":"ce4bhbh2rcd13ifvqepg","pricing_plan_id":"free"},{"bike_id":"3ce3aabc-b68d-4c3e-a9f1-aed7cb134479","system_id":"levelo_inurba_marseille","lat":43.292724,"lon":5.401131,"is_reserved":false,"is_disabled":false,"rental_uris":{"android":"levelo://app?vid=3ce3aabc-b68d-4c3e-a9f1-aed7cb134479","ios":"levelo://app?vid=3ce3aabc-b68d-4c3e-a9f1-aed7cb134479"},"vehicle_type_id":"4","last_reported":1703563731,"current_range_meters":8400,"station_id":"ce4bh312rcd13ifvqdk0","pricing_plan_id":"free"},{"bike_id":"67c860af-a545-462e-a832-ee135739c3ac","system_id":"levelo_inurba_marseille","lat":43.292724,"lon":5.401131,"is_reserved":false,"is_disabled":false,"rental_uris":{"android":"levelo://app?vid=67c860af-a545-462e-a832-ee135739c3ac","ios":"levelo://app?vid=67c860af-a545-462e-a832-ee135739c3ac"},"vehicle_type_id":"4","last_reported":1703563731,"current_range_meters":30000,"station_id":"ce4bh312rcd13ifvqdk0","pricing_plan_id":"free"},{"bike_id":"6e5263b3-89cd-47ec-b2ac-b9c98b7365c8","system_id":"levelo_inurba_marseille","lat":43.292724,"lon":5.401131,"is_reserved":false,"is_disabled":false,"rental_uris":{"android":"levelo://app?vid=6e5263b3-89cd-47ec-b2ac-b9c98b7365c8","ios":"levelo://app?vid=6e5263b3-89cd-47ec-b2ac-b9c98b7365c8"},"vehicle_type_id":"4","last_reported":1703563731,"current_range_meters":24800,"station_id":"ce4bh312rcd13ifvqdk0","pricing_plan_id":"free"},{"bike_id":"23f42c90-f703-4dcb-9a0b-9ef346f75e5f","system_id":"levelo_inurba_marseille","lat":43.292724,"lon":5.401131,"is_reserved":false,"is_disabled":false,"rental_uris":{"android":"levelo://app?vid=23f42c90-f703-4dcb-9a0b-9ef346f75e5f","ios":"levelo://app?vid=23f42c90-f703-4dcb-9a0b-9ef346f75e5f"},"vehicle_type_id":"4","last_reported":1703563731,"current_range_meters":31200,"station_id":"ce4bh312rcd13ifvqdk0","pricing_plan_id":"free"},{"bike_id":"2c868722-ead2-4a2a-9832-7433fb8fa5d0","system_id":"levelo_inurba_marseille","lat":43.292724,"lon":5.401131,"is_reserved":false,"is_disabled":false,"rental_uris":{"android":"levelo://app?vid=2c868722-ead2-4a2a-9832-7433fb8fa5d0","ios":"levelo://app?vid=2c868722-ead2-4a2a-9832-7433fb8fa5d0"},"vehicle_type_id":"4","last_reported":1703563731,"current_range_meters":18400,"station_id":"ce4bh312rcd13ifvqdk0","pricing_plan_id":"free"},{"bike_id":"3e354e7a-9409-4433-bad8-323656faecfb","system_id":"levelo_inurba_marseille","lat":43.292724,"lon":5.401131,"is_reserved":false,"is_disabled":false,"rental_uris":{"android":"levelo://app?vid=3e354e7a-9409-4433-bad8-323656faecfb","ios":"levelo://app?vid=3e354e7a-9409-4433-bad8-323656faecfb"},"vehicle_type_id":"4","last_reported":1703563731,"current_range_meters":26000,"station_id":"ce4bh312rcd13ifvqdk0","pricing_plan_id":"free"},{"bike_id":"353cde31-cc8d-40f2-9681-7fefb09b4248","system_id":"levelo_inurba_marseille","lat":43.283502,"lon":5.386471,"is_reserved":false,"is_disabled":false,"rental_uris":{"android":"levelo://app?vid=353cde31-cc8d-40f2-9681-7fefb09b4248","ios":"levelo://app?vid=353cde31-cc8d-40f2-9681-7fefb09b4248"},"vehicle_type_id":"4","last_reported":1703563731,"current_range_meters":31200,"station_id":"ce4bh492rcd13ifvqdvg","pricing_plan_id":"free"},{"bike_id":"ab9919cd-9d87-43a5-815e-a50389f1cfca","system_id":"levelo_inurba_marseille","lat":43.28268,"lon":5.350694,"is_reserved":false,"is_disabled":false,"rental_uris":{"android":"levelo://app?vid=ab9919cd-9d87-43a5-815e-a50389f1cfca","ios":"levelo://app?vid=ab9919cd-9d87-43a5-815e-a50389f1cfca"},"vehicle_type_id":"4","last_reported":1703563731,"current_range_meters":31200,"station_id":"ce4bhbp2rcd13ifvqerg","pricing_plan_id":"free"},{"bike_id":"eab693ef-28fa-44d6-9255-f2069bdb2eca","system_id":"levelo_inurba_marseille","lat":43.283502,"lon":5.386471,"is_reserved":false,"is_disabled":false,"rental_uris":{"android":"levelo://app?vid=eab693ef-28fa-44d6-9255-f2069bdb2eca","ios":"levelo://app?vid=eab693ef-28fa-44d6-9255-f2069bdb2eca"},"vehicle_type_id":"4","last_reported":1703563731,"current_range_meters":14000,"station_id":"ce4bh492rcd13ifvqdvg","pricing_plan_id":"free"},{"bike_id":"e4c77ab0-8855-4b37-a4aa-f63792fd4724","system_id":"levelo_inurba_marseille","lat":43.282647,"lon":5.350679,"is_reserved":false,"is_disabled":false,"rental_uris":{"android":"levelo://app?vid=e4c77ab0-8855-4b37-a4aa-f63792fd4724","ios":"levelo://app?vid=e4c77ab0-8855-4b37-a4aa-f63792fd4724"},"vehicle_type_id":"4","last_reported":1703563731,"current_range_meters":17600,"station_id":"ce4bhbp2rcd13ifvqerg","pricing_plan_id":"free"},{"bike_id":"b02f5bc1-8928-43c3-9ad0-daad87044c65","system_id":"levelo_inurba_marseille","lat":43.283502,"lon":5.386471,"is_reserved":false,"is_disabled":false,"rental_uris":{"android":"levelo://app?vid=b02f5bc1-8928-43c3-9ad0-daad87044c65","ios":"levelo://app?vid=b02f5bc1-8928-43c3-9ad0-daad87044c65"},"vehicle_type_id":"4","last_reported":1703563731,"current_range_meters":31200,"station_id":"ce4bh492rcd13ifvqdvg","pricing_plan_id":"free"},{"bike_id":"90343d47-14a8-4597-8b07-9d5cb78e47d9","system_id":"levelo_inurba_marseille","lat":43.283502,"lon":5.386471,"is_reserved":false,"is_disabled":false,"rental_uris":{"android":"levelo://app?vid=90343d47-14a8-4597-8b07-9d5cb78e47d9","ios":"levelo://app?vid=90343d47-14a8-4597-8b07-9d5cb78e47d9"},"vehicle_type_id":"4","last_reported":1703563731,"current_range_meters":7600,"station_id":"ce4bh492rcd13ifvqdvg","pricing_plan_id":"free"},{"bike_id":"245937c8-ae33-4b38-ad19-06dc584074a7","system_id":"levelo_inurba_marseille","lat":43.28039,"lon":5.369297,"is_reserved":false,"is_disabled":false,"rental_uris":{"android":"levelo://app?vid=245937c8-ae33-4b38-ad19-06dc584074a7","ios":"levelo://app?vid=245937c8-ae33-4b38-ad19-06dc584074a7"},"vehicle_type_id":"4","last_reported":1703563731,"current_range_meters":28400,"station_id":"ce4bha12rcd13ifvqef0","pricing_plan_id":"free"},{"bike_id":"fb7d0bc6-86ce-461d-86b8-b74184538e74","system_id":"levelo_inurba_marseille","lat":43.29041,"lon":5.399634,"is_reserved":false,"is_disabled":false,"rental_uris":{"android":"levelo://app?vid=fb7d0bc6-86ce-461d-86b8-b74184538e74","ios":"levelo://app?vid=fb7d0bc6-86ce-461d-86b8-b74184538e74"},"vehicle_type_id":"4","last_reported":1703563731,"current_range_meters":28400,"station_id":"ce4bh392rcd13ifvqdm0","pricing_plan_id":"free"},{"bike_id":"553e18cd-1f68-46c0-83c2-9bcb3e5d7688","system_id":"levelo_inurba_marseille","lat":43.283502,"lon":5.386471,"is_reserved":false,"is_disabled":false,"rental_uris":{"android":"levelo://app?vid=553e18cd-1f68-46c0-83c2-9bcb3e5d7688","ios":"levelo://app?vid=553e18cd-1f68-46c0-83c2-9bcb3e5d7688"},"vehicle_type_id":"4","last_reported":1703563731,"current_range_meters":17200,"station_id":"ce4bh492rcd13ifvqdvg","pricing_plan_id":"free"},{"bike_id":"e470c810-e00b-4004-984f-e8ac4ee05588","system_id":"levelo_inurba_marseille","lat":43.29633,"lon":5.40592,"is_reserved":false,"is_disabled":false,"rental_uris":{"android":"levelo://app?vid=e470c810-e00b-4004-984f-e8ac4ee05588","ios":"levelo://app?vid=e470c810-e00b-4004-984f-e8ac4ee05588"},"vehicle_type_id":"4","last_reported":1703563731,"current_range_meters":17200,"station_id":"ce4bh0h2rcd13ifvqd60","pricing_plan_id":"free"},{"bike_id":"3b1e13dc-4738-4e01-8c1c-d42078ed7023","system_id":"levelo_inurba_marseille","lat":43.29632,"lon":5.40593,"is_reserved":false,"is_disabled":false,"rental_uris":{"android":"levelo://app?vid=3b1e13dc-4738-4e01-8c1c-d42078ed7023","ios":"levelo://app?vid=3b1e13dc-4738-4e01-8c1c-d42078ed7023"},"vehicle_type_id":"4","last_reported":1703563731,"current_range_meters":16800,"station_id":"ce4bh0h2rcd13ifvqd60","pricing_plan_id":"free"},{"bike_id":"c9029fdb-6b28-4937-9e57-397e4a9d9c8f","system_id":"levelo_inurba_marseille","lat":43.281,"lon":5.37839,"is_reserved":false,"is_disabled":false,"rental_uris":{"android":"levelo://app?vid=c9029fdb-6b28-4937-9e57-397e4a9d9c8f","ios":"levelo://app?vid=c9029fdb-6b28-4937-9e57-397e4a9d9c8f"},"vehicle_type_id":"4","last_reported":1703563731,"current_range_meters":21200,"station_id":"ce4bha12rcd13ifvqee0","pricing_plan_id":"free"},{"bike_id":"c9b9528e-b886-4ad1-b739-64e9b7db55ce","system_id":"levelo_inurba_marseille","lat":43.281016,"lon":5.378482,"is_reserved":false,"is_disabled":false,"rental_uris":{"android":"levelo://app?vid=c9b9528e-b886-4ad1-b739-64e9b7db55ce","ios":"levelo://app?vid=c9b9528e-b886-4ad1-b739-64e9b7db55ce"},"vehicle_type_id":"4","last_reported":1703563731,"current_range_meters":27200,"station_id":"ce4bha12rcd13ifvqee0","pricing_plan_id":"free"},{"bike_id":"b249b881-2268-4fe7-b11a-6b7969ff6d3d","system_id":"levelo_inurba_marseille","lat":43.281,"lon":5.37849,"is_reserved":false,"is_disabled":false,"rental_uris":{"android":"levelo://app?vid=b249b881-2268-4fe7-b11a-6b7969ff6d3d","ios":"levelo://app?vid=b249b881-2268-4fe7-b11a-6b7969ff6d3d"},"vehicle_type_id":"4","last_reported":1703563731,"current_range_meters":27200,"station_id":"ce4bha12rcd13ifvqee0","pricing_plan_id":"free"},{"bike_id":"b06fa1c2-73ac-4c11-97f8-6cd45aefbeb3","system_id":"levelo_inurba_marseille","lat":43.29628,"lon":5.405988,"is_reserved":false,"is_disabled":false,"rental_uris":{"android":"levelo://app?vid=b06fa1c2-73ac-4c11-97f8-6cd45aefbeb3","ios":"levelo://app?vid=b06fa1c2-73ac-4c11-97f8-6cd45aefbeb3"},"vehicle_type_id":"4","last_reported":1703563731,"current_range_meters":24400,"station_id":"ce4bh0h2rcd13ifvqd60","pricing_plan_id":"free"},{"bike_id":"8db6b4f9-191b-4caa-9cb4-1dec4ffefaf6","system_id":"levelo_inurba_marseille","lat":43.29632,"lon":5.40602,"is_reserved":false,"is_disabled":false,"rental_uris":{"android":"levelo://app?vid=8db6b4f9-191b-4caa-9cb4-1dec4ffefaf6","ios":"levelo://app?vid=8db6b4f9-191b-4caa-9cb4-1dec4ffefaf6"},"vehicle_type_id":"4","last_reported":1703563731,"current_range_meters":26000,"station_id":"ce4bh0h2rcd13ifvqd60","pricing_plan_id":"free"},{"bike_id":"e0fc6142-98ef-4764-966c-e402f88b477e","system_id":"levelo_inurba_marseille","lat":43.29625,"lon":5.40597,"is_reserved":false,"is_disabled":false,"rental_uris":{"android":"levelo://app?vid=e0fc6142-98ef-4764-966c-e402f88b477e","ios":"levelo://app?vid=e0fc6142-98ef-4764-966c-e402f88b477e"},"vehicle_type_id":"4","last_reported":1703563731,"current_range_meters":14800,"station_id":"ce4bh0h2rcd13ifvqd60","pricing_plan_id":"free"},{"bike_id":"3b776f52-7413-4cce-99f1-fd1ab915becd","system_id":"levelo_inurba_marseille","lat":43.28097,"lon":5.37845,"is_reserved":false,"is_disabled":false,"rental_uris":{"android":"levelo://app?vid=3b776f52-7413-4cce-99f1-fd1ab915becd","ios":"levelo://app?vid=3b776f52-7413-4cce-99f1-fd1ab915becd"},"vehicle_type_id":"4","last_reported":1703563731,"current_range_meters":27200,"station_id":"ce4bha12rcd13ifvqee0","pricing_plan_id":"free"},{"bike_id":"d8a90793-66ed-413f-a51b-1cddee949aea","system_id":"levelo_inurba_marseille","lat":43.296265,"lon":5.405995,"is_reserved":false,"is_disabled":false,"rental_uris":{"android":"levelo://app?vid=d8a90793-66ed-413f-a51b-1cddee949aea","ios":"levelo://app?vid=d8a90793-66ed-413f-a51b-1cddee949aea"},"vehicle_type_id":"4","last_reported":1703563731,"current_range_meters":24400,"station_id":"ce4bh0h2rcd13ifvqd60","pricing_plan_id":"free"},{"bike_id":"c8a60e82-3aa3-4d1b-aaad-6cd1c7b2d919","system_id":"levelo_inurba_marseille","lat":43.296275,"lon":5.406063,"is_reserved":false,"is_disabled":false,"rental_uris":{"android":"levelo://app?vid=c8a60e82-3aa3-4d1b-aaad-6cd1c7b2d919","ios":"levelo://app?vid=c8a60e82-3aa3-4d1b-aaad-6cd1c7b2d919"},"vehicle_type_id":"4","last_reported":1703563731,"current_range_meters":25200,"station_id":"ce4bh0h2rcd13ifvqd60","pricing_plan_id":"free"},{"bike_id":"3f64d92d-bd78-4747-8a6e-ff5758299350","system_id":"levelo_inurba_marseille","lat":43.326605,"lon":5.409903,"is_reserved":false,"is_disabled":false,"rental_uris":{"android":"levelo://app?vid=3f64d92d-bd78-4747-8a6e-ff5758299350","ios":"levelo://app?vid=3f64d92d-bd78-4747-8a6e-ff5758299350"},"vehicle_type_id":"4","last_reported":1703563731,"current_range_meters":27200,"station_id":"ce4bhpp2rcd13ifvqhgg","pricing_plan_id":"free"},{"bike_id":"3be5b2ea-a08f-4fb2-a63f-0263ec672b46","system_id":"levelo_inurba_marseille","lat":43.279087,"lon":5.380114,"is_reserved":false,"is_disabled":false,"rental_uris":{"android":"levelo://app?vid=3be5b2ea-a08f-4fb2-a63f-0263ec672b46","ios":"levelo://app?vid=3be5b2ea-a08f-4fb2-a63f-0263ec672b46"},"vehicle_type_id":"4","last_reported":1703563731,"current_range_meters":23600,"station_id":"ce4bhf92rcd13ifvqf50","pricing_plan_id":"free"},{"bike_id":"ad3aa017-8929-41d3-a58b-9ea5d580ae65","system_id":"levelo_inurba_marseille","lat":43.287154,"lon":5.399979,"is_reserved":false,"is_disabled":false,"rental_uris":{"android":"levelo://app?vid=ad3aa017-8929-41d3-a58b-9ea5d580ae65","ios":"levelo://app?vid=ad3aa017-8929-41d3-a58b-9ea5d580ae65"},"vehicle_type_id":"4","last_reported":1703563731,"current_range_meters":18000,"station_id":"ce4bho92rcd13ifvqh3g","pricing_plan_id":"free"},