{"last_updated":1745439141,"ttl":60,"version":"2.2","data":{"bikes":[{"bike_id":"1a51ffb1-9a79-4bec-9ba5-e3a8a916919c","system_id":"levelo_inurba_marseille","lat":43.283478,"lon":5.381011,"is_reserved":false,"is_disabled":true,"rental_uris":{"android":"levelo://app?vid=1a51ffb1-9a79-4bec-9ba5-e3a8a916919c","ios":"levelo://app?vid=1a51ffb1-9a79-4bec-9ba5-e3a8a916919c"},"vehicle_type_id":"4","last_reported":1745439141,"current_range_meters":2800,"station_id":"ce4bh512rcd13ifvqe3g","pricing_plan_id":"cebpf4jnsgd1na2vs0mg"},{"bike_id":"fd329d73-d91a-41c7-89cf-ed671cee0a8f","system_id":"levelo_inurba_marseille","lat":43.255783,"lon":5.382487,"is_reserved":false,"is_disabled":true,"rental_uris":{"android":"levelo://app?vid=fd329d73-d91a-41c7-89cf-ed671cee0a8f","ios":"levelo://app?vid=fd329d73-d91a-41c7-89cf-ed671cee0a8f"},"vehicle_type_id":"4","last_reported":1745439141,"current_range_meters":2800,"station_id":"ce4bhih2rcd13ifvqfs0","pricing_plan_id":"cebpf4jnsgd1na2vs0mg"},{"bike_id":"fee4e145-5d90-4701-92ba-30c407d00925","system_id":"levelo_inurba_marseille","lat":43.29536,"lon":5.38547,"is_reserved":false,"is_disabled":false,"rental_uris":{"android":"levelo://app?vid=fee4e145-5d90-4701-92ba-30c407d00925","ios":"levelo://app?vid=fee4e145-5d90-4701-92ba-30c407d00925"},"vehicle_type_id":"4","last_reported":1745439141,"current_range_meters":2800,"station_id":"ce4bgih2rcd13ifvqba0","pricing_plan_id":"cebpf4jnsgd1na2vs0mg"},{"bike_id":"3bb80017-53f6-4063-befd-1aa33a62aef5","system_id":"levelo_inurba_marseille","lat":43.27811,"lon":5.40713,"is_reserved":false,"is_disabled":false,"rental_uris":{"android":"levelo://app?vid=3bb80017-53f6-4063-befd-1aa33a62aef5","ios":"levelo://app?vid=3bb80017-53f6-4063-befd-1aa33a62aef5"},"vehicle_type_id":"4","last_reported":1745439141,"current_range_meters":2800,"station_id":"ce4bhnh2rcd13ifvqgtg","pricing_plan_id":"cebpf4jnsgd1na2vs0mg"},{"bike_id":"a538e75e-ada1-4951-875f-69919feb24a6","system_id":"levelo_inurba_marseille","lat":43.28433,"lon":5.39206,"is_reserved":false,"is_disabled":false,"rental_uris":{"android":"levelo://app?vid=a538e75e-ada1-4951-875f-69919feb24a6","ios":"levelo://app?vid=a538e75e-ada1-4951-875f-69919feb24a6"},"vehicle_type_id":"4","last_reported":1745439141,"current_range_meters":3200,"station_id":"ce4bhoh2rcd13ifvqh5g","pricing_plan_id":"cebpf4jnsgd1na2vs0mg"},{"bike_id":"3798ef7a-14dc-4c36-b287-33e93ba3f27e","system_id":"levelo_inurba_marseille","lat":43.294304,"lon":5.386024,"is_reserved":false,"is_disabled":true,"rental_uris":{"android":"levelo://app?vid=3798ef7a-14dc-4c36-b287-33e93ba3f27e","ios":"levelo://app?vid=3798ef7a-14dc-4c36-b287-33e93ba3f27e"},"vehicle_type_id":"4","last_reported":1745439141,"current_range_meters":3200,"station_id":"ce4bh2h2rcd13ifvqdh0","pricing_plan_id":"cebpf4jnsgd1na2vs0mg"},{"bike_id":"00b03977-cadd-4a9c-9bd4-37274470a556","system_id":"levelo_inurba_marseille","lat":43.31356,"lon":5.38491,"is_reserved":false,"is_disabled":false,"rental_uris":{"android":"levelo://app?vid=00b03977-cadd-4a9c-9bd4-37274470a556","ios":"levelo://app?vid=00b03977-cadd-4a9c-9bd4-37274470a556"},"vehicle_type_id":"4","last_reported":1745439141,"current_range_meters":3200,"station_id":"ce4bgt92rcd13ifvqcf0","pricing_plan_id":"cebpf4jnsgd1na2vs0mg"},{"bike_id":"ae6dd9ab-2e30-4181-993e-6d14ad986f48","system_id":"levelo_inurba_marseille","lat":43.28429,"lon":5.34974,"is_reserved":false,"is_disabled":true,"rental_uris":{"android":"levelo://app?vid=ae6dd9ab-2e30-4181-993e-6d14ad986f48","ios":"levelo://app?vid=ae6dd9ab-2e30-4181-993e-6d14ad986f48"},"vehicle_type_id":"4","last_reported":1745439141,"current_range_meters":3200,"station_id":"ce4bhbh2rcd13ifvqepg","pricing_plan_id":"cebpf4jnsgd1na2vs0mg"},{"bike_id":"a8313e07-fc7d-46da-a852-e2be5019fefd","system_id":"levelo_inurba_marseille","lat":43.28921,"lon":5.384028,"is_reserved":false,"is_disabled":true,"rental_uris":{"android":"levelo://app?vid=a8313e07-fc7d-46da-a852-e2be5019fefd","ios":"levelo://app?vid=a8313e07-fc7d-46da-a852-e2be5019fefd"},"vehicle_type_id":"4","last_reported":1745439141,"current_range_meters":3600,"station_id":"ce4bh612rcd13ifvqe6g","pricing_plan_id":"cebpf4jnsgd1na2vs0mg"},{"bike_id":"023dc62e-0acd-4e96-932b-01918b80e05f","system_id":"levelo_inurba_marseille","lat":43.30014,"lon":5.38292,"is_reserved":false,"is_disabled":false,"rental_uris":{"android":"levelo://app?vid=023dc62e-0acd-4e96-932b-01918b80e05f","ios":"levelo://app?vid=023dc62e-0acd-4e96-932b-01918b80e05f"},"vehicle_type_id":"4","last_reported":1745439141,"current_range_meters":3600,"station_id":"","pricing_plan_id":"cebpf4jnsgd1na2vs0mg"},{"bike_id":"4d1a1486-ab7d-464d-b12d-6737085f856d","system_id":"levelo_inurba_marseille","lat":43.30442,"lon":5.38883,"is_reserved":false,"is_disabled":false,"rental_uris":{"android":"levelo://app?vid=4d1a1486-ab7d-464d-b12d-6737085f856d","ios":"levelo://app?vid=4d1a1486-ab7d-464d-b12d-6737085f856d"},"vehicle_type_id":"4","last_reported":1745439141,"current_range_meters":3200,"station_id":"ce4bgk12rcd13ifvqbi0","pricing_plan_id":"cebpf4jnsgd1na2vs0mg"},{"bike_id":"395173be-cba5-47ed-b856-228e441b96fe","system_id":"levelo_inurba_marseille","lat":43.31264,"lon":5.40179,"is_reserved":false,"is_disabled":false,"rental_uris":{"android":"levelo://app?vid=395173be-cba5-47ed-b856-228e441b96fe","ios":"levelo://app?vid=395173be-cba5-47ed-b856-228e441b96fe"},"vehicle_type_id":"4","last_reported":1745439141,"current_range_meters":4400,"station_id":"ce4bh092rcd13ifvqd30","pricing_plan_id":"cebpf4jnsgd1na2vs0mg"},{"bike_id":"a6a63b77-10bc-40bf-b98d-3733700e7988","system_id":"levelo_inurba_marseille","lat":43.30556,"lon":5.3841,"is_reserved":false,"is_disabled":false,"rental_uris":{"android":"levelo://app?vid=a6a63b77-10bc-40bf-b98d-3733700e7988","ios":"levelo://app?vid=a6a63b77-10bc-40bf-b98d-3733700e7988"},"vehicle_type_id":"4","last_reported":1745439141,"current_range_meters":4400,"station_id":"ce4bgg92rcd13ifvqb30","pricing_plan_id":"cebpf4jnsgd1na2vs0mg"},{"bike_id":"b20d135e-abff-4701-a5ed-ac3e2451c023","system_id":"levelo_inurba_marseille","lat":43.27075,"lon":5.4229,"is_reserved":false,"is_disabled":false,"rental_uris":{"android":"levelo://app?vid=b20d135e-abff-4701-a5ed-ac3e2451c023","ios":"levelo://app?vid=b20d135e-abff-4701-a5ed-ac3e2451c023"},"vehicle_type_id":"4","last_reported":1745439141,"current_range_meters":4400,"station_id":"ce4bhk92rcd13ifvqgb0","pricing_plan_id":"cebpf4jnsgd1na2vs0mg"},{"bike_id":"53e76e69-542e-498c-be3c-54ee74e28889","system_id":"levelo_inurba_marseille","lat":43.2972,"lon":5.36636,"is_reserved":false,"is_disabled":true,"rental_uris":{"android":"levelo://app?vid=53e76e69-542e-498c-be3c-54ee74e28889","ios":"levelo://app?vid=53e76e69-542e-498c-be3c-54ee74e28889"},"vehicle_type_id":"4","last_reported":1745439141,"current_range_meters":4800,"station_id":"ce4bgn12rcd13ifvqbt0","pricing_plan_id":"cebpf4jnsgd1na2vs0mg"},{"bike_id":"44e73dd2-2af1-4a69-bad4-ca98b108ffef","system_id":"levelo_inurba_marseille","lat":43.30137,"lon":5.38773,"is_reserved":false,"is_disabled":false,"rental_uris":{"android":"levelo://app?vid=44e73dd2-2af1-4a69-bad4-ca98b108ffef","ios":"levelo://app?vid=44e73dd2-2af1-4a69-bad4-ca98b108ffef"},"vehicle_type_id":"4","last_reported":1745439141,"current_range_meters":5600,"station_id":"ce4bghh2rcd13ifvqb60","pricing_plan_id":"cebpf4jnsgd1na2vs0mg"},{"bike_id":"004b1d69-e02f-4230-9e37-a438368f2d35","system_id":"levelo_inurba_marseille","lat":43.28444,"lon":5.39211,"is_reserved":false,"is_disabled":false,"rental_uris":{"android":"levelo://app?vid=004b1d69-e02f-4230-9e37-a438368f2d35","ios":"levelo://app?vid=004b1d69-e02f-4230-9e37-a438368f2d35"},"vehicle_type_id":"4","last_reported":1745439141,"current_range_meters":5600,"station_id":"ce4bhoh2rcd13ifvqh5g","pricing_plan_id":"cebpf4jnsgd1na2vs0mg"},{"bike_id":"399d81de-8498-40c8-81df-c145b8d8fb2d","system_id":"levelo_inurba_marseille","lat":43.31047,"lon":5.38359,"is_reserved":false,"is_disabled":false,"rental_uris":{"android":"levelo://app?vid=399d81de-8498-40c8-81df-c145b8d8fb2d","ios":"levelo://app?vid=399d81de-8498-40c8-81df-c145b8d8fb2d"},"vehicle_type_id":"4","last_reported":1745439141,"current_range_meters":6000,"station_id":"ce4bgv92rcd13ifvqcr0","pricing_plan_id":"cebpf4jnsgd1na2vs0mg"},{"bike_id":"a9c0910a-b11c-4847-bba6-2bd5a68a1eb4","system_id":"levelo_inurba_marseille","lat":43.298782,"lon":5.389014,"is_reserved":false,"is_disabled":false,"rental_uris":{"android":"levelo://app?vid=a9c0910a-b11c-4847-bba6-2bd5a68a1eb4","ios":"levelo://app?vid=a9c0910a-b11c-4847-bba6-2bd5a68a1eb4"},"vehicle_type_id":"4","last_reported":1745439141,"current_range_meters":6000,"station_id":"","pricing_plan_id":"cebpf4jnsgd1na2vs0mg"},{"bike_id":"8d2789be-d356-436f-bee5-111c80e6604e","system_id":"levelo_inurba_marseille","lat":43.24162,"lon":5.36395,"is_reserved":false,"is_disabled":false,"rental_uris":{"android":"levelo://app?vid=8d2789be-d356-436f-bee5-111c80e6604e","ios":"levelo://app?vid=8d2789be-d356-436f-bee5-111c80e6604e"},"vehicle_type_id":"4","last_reported":1745439141,"current_range_meters":6000,"station_id":"cpo36qri1sfpv3e86is0","pricing_plan_id":"cebpf4jnsgd1na2vs0mg"},{"bike_id":"b15e82a3-109e-455a-b15c-70ffeaef2bcc","system_id":"levelo_inurba_marseille","lat":43.25873,"lon":5.399,"is_reserved":false,"is_disabled":false,"rental_uris":{"android":"levelo://app?vid=b15e82a3-109e-455a-b15c-70ffeaef2bcc","ios":"levelo://app?vid=b15e82a3-109e-455a-b15c-70ffeaef2bcc"},"vehicle_type_id":"4","last_reported":1745439141,"current_range_meters":6000,"station_id":"ce4bhl92rcd13ifvqghg","pricing_plan_id":"cebpf4jnsgd1na2vs0mg"},{"bike_id":"42d09c0e-4f24-4f85-8a1d-e4595083b1c8","system_id":"levelo_inurba_marseille","lat":43.2884,"lon":5.39299,"is_reserved":false,"is_disabled":false,"rental_uris":{"android":"levelo://app?vid=42d09c0e-4f24-4f85-8a1d-e4595083b1c8","ios":"levelo://app?vid=42d09c0e-4f24-4f85-8a1d-e4595083b1c8"},"vehicle_type_id":"4","last_reported":1745439141,"current_range_meters":6000,"station_id":"ce4bh2p2rcd13ifvqdi0","pricing_plan_id":"cebpf4jnsgd1na2vs0mg"},{"bike_id":"67e80e12-0df0-47a3-a76c-955808049931","system_id":"levelo_inurba_marseille","lat":43.2319,"lon":5.3998,"is_reserved":false,"is_disabled":false,"rental_uris":{"android":"levelo://app?vid=67e80e12-0df0-47a3-a76c-955808049931","ios":"levelo://app?vid=67e80e12-0df0-47a3-a76c-955808049931"},"vehicle_type_id":"4","last_reported":1745439141,"current_range_meters":6400,"station_id":"ce4bhn12rcd13ifvqgqg","pricing_plan_id":"cebpf4jnsgd1na2vs0mg"},{"bike_id":"62603431-7ffe-4763-a417-ccc1e93f51e0","system_id":"levelo_inurba_marseille","lat":43.265561,"lon":5.390426,"is_reserved":false,"is_disabled":false,"rental_uris":{"android":"levelo://app?vid=62603431-7ffe-4763-a417-ccc1e93f51e0","ios":"levelo://app?vid=62603431-7ffe-4763-a417-ccc1e93f51e0"},"vehicle_type_id":"4","last_reported":1745439141,"current_range_meters":6400,"station_id":"ce4bhe12rcd13ifvqf30","pricing_plan_id":"cebpf4jnsgd1na2vs0mg"},{"bike_id":"e88ac0aa-172e-418f-9134-2e3c247b5863","system_id":"levelo_inurba_marseille","lat":43.23965,"lon":5.36618,"is_reserved":false,"is_disabled":false,"rental_uris":{"android":"levelo://app?vid=e88ac0aa-172e-418f-9134-2e3c247b5863","ios":"levelo://app?vid=e88ac0aa-172e-418f-9134-2e3c247b5863"},"vehicle_type_id":"4","last_reported":1745439141,"current_range_meters":6800,"station_id":"ce4bhi12rcd13ifvqfp0","pricing_plan_id":"cebpf4jnsgd1na2vs0mg"},{"bike_id":"d9c2b2da-6dbc-4382-a71e-bb063a82da23","system_id":"levelo_inurba_marseille","lat":43.32286,"lon":5.38266,"is_reserved":false,"is_disabled":false,"rental_uris":{"android":"levelo://app?vid=d9c2b2da-6dbc-4382-a71e-bb063a82da23","ios":"levelo://app?vid=d9c2b2da-6dbc-4382-a71e-bb063a82da23"},"vehicle_type_id":"4","last_reported":1745439141,"current_range_meters":7200,"station_id":"ce4bhr12rcd13ifvqhqg","pricing_plan_id":"cebpf4jnsgd1na2vs0mg"},{"bike_id":"c94e26c1-7575-4802-86ec-0bd6f82482cc","system_id":"levelo_inurba_marseille","lat":43.28622,"lon":5.37042,"is_reserved":false,"is_disabled":false,"rental_uris":{"android":"levelo://app?vid=c94e26c1-7575-4802-86ec-0bd6f82482cc","ios":"levelo://app?vid=c94e26c1-7575-4802-86ec-0bd6f82482cc"},"vehicle_type_id":"4","last_reported":1745439141,"current_range_meters":6800,"station_id":"ce4bht12rcd13ifvqi60","pricing_plan_id":"cebpf4jnsgd1na2vs0mg"},{"bike_id":"0b7a9109-7668-4db4-9724-d01cac3cc1a1","system_id":"levelo_inurba_marseille","lat":43.29162,"lon":5.40996,"is_reserved":false,"is_disabled":false,"rental_uris":{"android":"levelo://app?vid=0b7a9109-7668-4db4-9724-d01cac3cc1a1","ios":"levelo://app?vid=0b7a9109-7668-4db4-9724-d01cac3cc1a1"},"vehicle_type_id":"4","last_reported":1745439141,"current_range_meters":6800,"station_id":"","pricing_plan_id":"cebpf4jnsgd1na2vs0mg"},{"bike_id":"76a2d1fc-92f8-43c8-9711-df98ce3080d6","system_id":"levelo_inurba_marseille","lat":43.28715,"lon":5.37409,"is_reserved":false,"is_disabled":false,"rental_uris":{"android":"levelo://app?vid=76a2d1fc-92f8-43c8-9711-df98ce3080d6","ios":"levelo://app?vid=76a2d1fc-92f8-43c8-9711-df98ce3080d6"},"vehicle_type_id":"4","last_reported":1745439141,"current_range_meters":7200,"station_id":"ce4bh3p2rcd13ifvqdq0","pricing_plan_id":"cebpf4jnsgd1na2vs0mg"},{"bike_id":"6d654830-ff88-4894-b299-9d7aebc9aab6","system_id":"levelo_inurba_marseille","lat":43.30138,"lon":5.39864,"is_reserved":false,"is_disabled":false,"rental_uris":{"android":"levelo://app?vid=6d654830-ff88-4894-b299-9d7aebc9aab6","ios":"levelo://app?vid=6d654830-ff88-4894-b299-9d7aebc9aab6"},"vehicle_type_id":"4","last_reported":1745439141,"current_range_meters":4400,"station_id":"ce4bh0h2rcd13ifvqd40","pricing_plan_id":"cebpf4jnsgd1na2vs0mg"},{"bike_id":"f7889748-d9da-4a0d-a4b5-6ffb90fef077","system_id":"levelo_inurba_marseille","lat":43.31758,"lon":5.39024,"is_reserved":false,"is_disabled":false,"rental_uris":{"android":"levelo://app?vid=f7889748-d9da-4a0d-a4b5-6ffb90fef077","ios":"levelo://app?vid=f7889748-d9da-4a0d-a4b5-6ffb90fef077"},"vehicle_type_id":"4","last_reported":1745439141,"current_range_meters":7200,"station_id":"ce4bhqp2rcd13ifvqhng","pricing_plan_id":"cebpf4jnsgd1na2vs0mg"},{"bike_id":"e37792a6-f349-4512-8625-113ccd6f5c99","system_id":"levelo_inurba_marseille","lat":43.27969,"lon":5.40004,"is_reserved":false,"is_disabled":true,"rental_uris":{"android":"levelo://app?vid=e37792a6-f349-4512-8625-113ccd6f5c99","ios":"levelo://app?vid=e37792a6-f349-4512-8625-113ccd6f5c99"},"vehicle_type_id":"4","last_reported":1745439141,"current_range_meters":7200,"station_id":"ce4bho92rcd13ifvqh4g","pricing_plan_id":"cebpf4jnsgd1na2vs0mg"},{"bike_id":"d831aeeb-35e9-42e3-9de0-30dc6bd211ca","system_id":"levelo_inurba_marseille","lat":43.30303,"lon":5.39225,"is_reserved":false,"is_disabled":false,"rental_uris":{"android":"levelo://app?vid=d831aeeb-35e9-42e3-9de0-30dc6bd211ca","ios":"levelo://app?vid=d831aeeb-35e9-42e3-9de0-30dc6bd211ca"},"vehicle_type_id":"4","last_reported":1745439141,"current_range_meters":7200,"station_id":"ce4bgkh2rcd13ifvqbk0","pricing_plan_id":"cebpf4jnsgd1na2vs0mg"},{"bike_id":"4a674357-85b5-4791-a7a3-5618a96c0a75","system_id":"levelo_inurba_marseille","lat":43.27933,"lon":5.41046,"is_reserved":false,"is_disabled":false,"rental_uris":{"android":"levelo://app?vid=4a674357-85b5-4791-a7a3-5618a96c0a75","ios":"levelo://app?vid=4a674357-85b5-4791-a7a3-5618a96c0a75"},"vehicle_type_id":"4","last_reported":1745439141,"current_range_meters":7200,"station_id":"ce4bhnp2rcd13ifvqh0g","pricing_plan_id":"cebpf4jnsgd1na2vs0mg"},{"bike_id":"c57f642b-1ae5-4a44-94e3-924f21538523","system_id":"levelo_inurba_marseille","lat":43.30884,"lon":5.3963,"is_reserved":false,"is_disabled":false,"rental_uris":{"android":"levelo://app?vid=c57f642b-1ae5-4a44-94e3-924f21538523","ios":"levelo://app?vid=c57f642b-1ae5-4a44-94e3-924f21538523"},"vehicle_type_id":"4","last_reported":1745439141,"current_range_meters":7200,"station_id":"ce4bh012rcd13ifvqcv0","pricing_plan_id":"cebpf4jnsgd1na2vs0mg"},{"bike_id":"6cdf78e5-d312-42f7-a4ef-e64d6f3149ee","system_id":"levelo_inurba_marseille","lat":43.323445,"lon":5.40614,"is_reserved":false,"is_disabled":false,"rental_uris":{"android":"levelo://app?vid=6cdf78e5-d312-42f7-a4ef-e64d6f3149ee","ios":"levelo://app?vid=6cdf78e5-d312-42f7-a4ef-e64d6f3149ee"},"vehicle_type_id":"4","last_reported":1745439141,"current_range_meters":7200,"station_id":"ce4bhq92rcd13ifvqhjg","pricing_plan_id":"cebpf4jnsgd1na2vs0mg"},{"bike_id":"3dd50929-80e8-4861-abf3-0cc06f516279","system_id":"levelo_inurba_marseille","lat":43.24071,"lon":5.37755,"is_reserved":false,"is_disabled":false,"rental_uris":{"android":"levelo://app?vid=3dd50929-80e8-4861-abf3-0cc06f516279","ios":"levelo://app?vid=3dd50929-80e8-4861-abf3-0cc06f516279"},"vehicle_type_id":"4","last_reported":1745439141,"current_range_meters":7200,"station_id":"ce4bhnp2rcd13ifvqgvg","pricing_plan_id":"cebpf4jnsgd1na2vs0mg"},{"bike_id":"d71e5110-a181-4390-b3db-18202b6a9d1c","system_id":"levelo_inurba_marseille","lat":43.28357,"lon":5.38099,"is_reserved":false,"is_disabled":false,"rental_uris":{"android":"levelo://app?vid=d71e5110-a181-4390-b3db-18202b6a9d1c","ios":"levelo://app?vid=d71e5110-a181-4390-b3db-18202b6a9d1c"},"vehicle_type_id":"4","last_reported":1745439141,"current_range_meters":7200,"station_id":"ce4bh412rcd13ifvqdr0","pricing_plan_id":"cebpf4jnsgd1na2vs0mg"},{"bike_id":"01041c87-ac65-4b7a-8391-0a330c119308","system_id":"levelo_inurba_marseille","lat":43.31242,"lon":5.36868,"is_reserved":false,"is_disabled":false,"rental_uris":{"android":"levelo://app?vid=01041c87-ac65-4b7a-8391-0a330c119308","ios":"levelo://app?vid=01041c87-ac65-4b7a-8391-0a330c119308"},"vehicle_type_id":"4","last_reported":1745439141,"current_range_meters":8000,"station_id":"ce4bgl92rcd13ifvqbq0","pricing_plan_id":"cebpf4jnsgd1na2vs0mg"},{"bike_id":"0f36c06d-b34a-4b6a-9c76-b87640418fc7","system_id":"levelo_inurba_marseille","lat":43.23092,"lon":5.35492,"is_reserved":false,"is_disabled":false,"rental_uris":{"android":"levelo://app?vid=0f36c06d-b34a-4b6a-9c76-b87640418fc7","ios":"levelo://app?vid=0f36c06d-b34a-4b6a-9c76-b87640418fc7"},"vehicle_type_id":"4","last_reported":1745439141,"current_range_meters":8000,"station_id":"cpo3342slgdg3j2ifvpg","pricing_plan_id":"cebpf4jnsgd1na2vs0mg"},{"bike_id":"93dcb0c2-3d8d-42dd-8355-d01251b8dd6b","system_id":"levelo_inurba_marseille","lat":43.26554,"lon":5.39037,"is_reserved":false,"is_disabled":false,"rental_uris":{"android":"levelo://app?vid=93dcb0c2-3d8d-42dd-8355-d01251b8dd6b","ios":"levelo://app?vid=93dcb0c2-3d8d-42dd-8355-d01251b8dd6b"},"vehicle_type_id":"4","last_reported":1745439141,"current_range_meters":8400,"station_id":"ce4bhe12rcd13ifvqf30","pricing_plan_id":"cebpf4jnsgd1na2vs0mg"},{"bike_id":"e5d8cf2a-9551-4f01-b365-35558d069dad","system_id":"levelo_inurba_marseille","lat":43.2737,"lon":5.36261,"is_reserved":false,"is_disabled":true,"rental_uris":{"android":"levelo://app?vid=e5d8cf2a-9551-4f01-b365-35558d069dad","ios":"levelo://app?vid=e5d8cf2a-9551-4f01-b365-35558d069dad"},"vehicle_type_id":"4","last_reported":1745439141,"current_range_meters":8400,"station_id":"ce4bhbh2rcd13ifvqeo0","pricing_plan_id":"cebpf4jnsgd1na2vs0mg"},{"bike_id":"4097e7f9-f416-4c0d-bbb3-28486db56493","system_id":"levelo_inurba_marseille","lat":43.28936,"lon":5.36647,"is_reserved":false,"is_disabled":false,"rental_uris":{"android":"levelo://app?vid=4097e7f9-f416-4c0d-bbb3-28486db56493","ios":"levelo://app?vid=4097e7f9-f416-4c0d-bbb3-28486db56493"},"vehicle_type_id":"4","last_reported":1745439141,"current_range_meters":8400,"station_id":"ce4bhap2rcd13ifvqek0","pricing_plan_id":"cebpf4jnsgd1na2vs0mg"},{"bike_id":"9e413059-7cf1-4bcb-94d0-d441a1bc78ba","system_id":"levelo_inurba_marseille","lat":43.28722,"lon":5.3738,"is_reserved":false,"is_disabled":false,"rental_uris":{"android":"levelo://app?vid=9e413059-7cf1-4bcb-94d0-d441a1bc78ba","ios":"levelo://app?vid=9e413059-7cf1-4bcb-94d0-d441a1bc78ba"},"vehicle_type_id":"4","last_reported":1745439141,"current_range_meters":8400,"station_id":"ce4bh3p2rcd13ifvqdq0","pricing_plan_id":"cebpf4jnsgd1na2vs0mg"},{"bike_id":"80066cef-5d64-4a49-9561-7e2ce806f875","system_id":"levelo_inurba_marseille","lat":43.31354,"lon":5.38497,"is_reserved":false,"is_disabled":false,"rental_uris":{"android":"levelo://app?vid=80066cef-5d64-4a49-9561-7e2ce806f875","ios":"levelo://app?vid=80066cef-5d64-4a49-9561-7e2ce806f875"},"vehicle_type_id":"4","last_reported":1745439141,"current_range_meters":8400,"station_id":"ce4bgt92rcd13ifvqcf0","pricing_plan_id":"cebpf4jnsgd1na2vs0mg"},{"bike_id":"49c0f902-eac7-4a79-adf0-d142aff51e11","system_id":"levelo_inurba_marseille","lat":43.24161,"lon":5.36395,"is_reserved":false,"is_disabled":false,"rental_uris":{"android":"levelo://app?vid=49c0f902-eac7-4a79-adf0-d142aff51e11","ios":"levelo://app?vid=49c0f902-eac7-4a79-adf0-d142aff51e11"},"vehicle_type_id":"4","last_reported":1745439141,"current_range_meters":8400,"station_id":"cpo36qri1sfpv3e86is0","pricing_plan_id":"cebpf4jnsgd1na2vs0mg"},{"bike_id":"dad7fce6-c989-477c-a1e2-e0ed34d8f0d9","system_id":"levelo_inurba_marseille","lat":43.28841,"lon":5.39307,"is_reserved":false,"is_disabled":false,"rental_uris":{"android":"levelo://app?vid=dad7fce6-c989-477c-a1e2-e0ed34d8f0d9","ios":"levelo://app?vid=dad7fce6-c989-477c-a1e2-e0ed34d8f0d9"},"vehicle_type_id":"4","last_reported":1745439141,"current_range_meters":8400,"station_id":"ce4bh2p2rcd13ifvqdi0","pricing_plan_id":"cebpf4jnsgd1na2vs0mg"},{"bike_id":"df41f4cf-2e07-4232-a725-253239aa3a1d","system_id":"levelo_inurba_marseille","lat":43.29701,"lon":5.37709,"is_reserved":false,"is_disabled":false,"rental_uris":{"android":"levelo://app?vid=df41f4cf-2e07-4232-a725-253239aa3a1d","ios":"levelo://app?vid=df41f4cf-2e07-4232-a725-253239aa3a1d"},"vehicle_type_id":"4","last_reported":1745439141,"current_range_meters":11600,"station_id":"ce4bgkh2rcd13ifvqbl0","pricing_plan_id":"cebpf4jnsgd1na2vs0mg"},{"bike_id":"24db7984-1359-45eb-baef-06faf93e6ff6","system_id":"levelo_inurba_marseille","lat":43.34691,"lon":5.3456,"is_reserved":false,"is_disabled":false,"rental_uris":{"android":"levelo://app?vid=24db7984-1359-45eb-baef-06faf93e6ff6","ios":"levelo://app?vid=24db7984-1359-45eb-baef-06faf93e6ff6"},"vehicle_type_id":"4","last_reported":1745439141,"current_range_meters":8800,"station_id":"","pricing_plan_id":"cebpf4jnsgd1na2vs0mg"},{"bike_id":"7affd995-e96b-402e-86ac-a786554a4a0f","system_id":"levelo_inurba_marseille","lat":43.30777,"lon":5.3765,"is_reserved":false,"is_disabled":false,"rental_uris":{"android":"levelo://app?vid=7affd995-e96b-402e-86ac-a786554a4a0f","ios":"levelo://app?vid=7affd995-e96b-402e-86ac-a786554a4a0f"},"vehicle_type_id":"4","last_reported":1745439141,"current_range_meters":8800,"station_id":"ce4bgv92rcd13ifvqcq0","pricing_plan_id":"cebpf4jnsgd1na2vs0mg"},{"bike_id":"c11b8e6c-53f6-4b89-8bb3-db13714c5b10","system_id":"levelo_inurba_marseille","lat":43.28903,"lon":5.36662,"is_reserved":false,"is_disabled":false,"rental_uris":{"android":"levelo://app?vid=c11b8e6c-53f6-4b89-8bb3-db13714c5b10","ios":"levelo://app?vid=c11b8e6c-53f6-4b89-8bb3-db13714c5b10"},"vehicle_type_id":"4","last_reported":1745439141,"current_range_meters":8800,"station_id":"ce4bhap2rcd13ifvqek0","pricing_plan_id":"cebpf4jnsgd1na2vs0mg"},{"bike_id":"6dc662e4-2c4b-4f97-a96e-edc2ccb3389f","system_id":"levelo_inurba_marseille","lat":43.30355,"lon":5.41874,"is_reserved":false,"is_disabled":false,"rental_uris":{"android":"levelo://app?vid=6dc662e4-2c4b-4f97-a96e-edc2ccb3389f","ios":"levelo://app?vid=6dc662e4-2c4b-4f97-a96e-edc2ccb3389f"},"vehicle_type_id":"4","last_reported":1745439141,"current_range_meters":8800,"station_id":"ce4bhop2rcd13ifvqh7g","pricing_plan_id":"cebpf4jnsgd1na2vs0mg"},{"bike_id":"fbb6be43-75ac-4697-af84-df6581464ee0","system_id":"levelo_inurba_marseille","lat":43.2396,"lon":5.36631,"is_reserved":false,"is_disabled":false,"rental_uris":{"android":"levelo://app?vid=fbb6be43-75ac-4697-af84-df6581464ee0","ios":"levelo://app?vid=fbb6be43-75ac-4697-af84-df6581464ee0"},"vehicle_type_id":"4","last_reported":1745439141,"current_range_meters":8800,"station_id":"ce4bhi12rcd13ifvqfp0","pricing_plan_id":"cebpf4jnsgd1na2vs0mg"},{"bike_id":"c52f77ae-077c-414b-9907-e819fbb6cccb","system_id":"levelo_inurba_marseille","lat":43.28945,"lon":5.36637,"is_reserved":false,"is_disabled":false,"rental_uris":{"android":"levelo://app?vid=c52f77ae-077c-414b-9907-e819fbb6cccb","ios":"levelo://app?vid=c52f77ae-077c-414b-9907-e819fbb6cccb"},"vehicle_type_id":"4","last_reported":1745439141,"current_range_meters":9200,"station_id":"ce4bhap2rcd13ifvqek0","pricing_plan_id":"cebpf4jnsgd1na2vs0mg"},{"bike_id":"2444db48-73b9-4f67-9dc6-6e8bcceff093","system_id":"levelo_inurba_marseille","lat":43.29786,"lon":5.38107,"is_reserved":false,"is_disabled":true,"rental_uris":{"android":"levelo://app?vid=2444db48-73b9-4f67-9dc6-6e8bcceff093","ios":"levelo://app?vid=2444db48-73b9-4f67-9dc6-6e8bcceff093"},"vehicle_type_id":"4","last_reported":1745439141,"current_range_meters":9200,"station_id":"ce4bgip2rcd13ifvqbb0","pricing_plan_id":"cebpf4jnsgd1na2vs0mg"},{"bike_id":"4b5ad419-2a9e-4292-b343-3486796c2a93","system_id":"levelo_inurba_marseille","lat":43.28729,"lon":5.37386,"is_reserved":false,"is_disabled":false,"rental_uris":{"android":"levelo://app?vid=4b5ad419-2a9e-4292-b343-3486796c2a93","ios":"levelo://app?vid=4b5ad419-2a9e-4292-b343-3486796c2a93"},"vehicle_type_id":"4","last_reported":1745439141,"current_range_meters":9200,"station_id":"ce4bh3p2rcd13ifvqdq0","pricing_plan_id":"cebpf4jnsgd1na2vs0mg"},{"bike_id":"805ea2d5-ec08-4b13-ba23-87cc0a37bf03","system_id":"levelo_inurba_marseille","lat":43.24056,"lon":5.37765,"is_reserved":false,"is_disabled":false,"rental_uris":{"android":"levelo://app?vid=805ea2d5-ec08-4b13-ba23-87cc0a37bf03","ios":"levelo://app?vid=805ea2d5-ec08-4b13-ba23-87cc0a37bf03"},"vehicle_type_id":"4","last_reported":1745439141,"current_range_meters":9200,"station_id":"ce4bhnp2rcd13ifvqgvg","pricing_plan_id":"cebpf4jnsgd1na2vs0mg"},{"bike_id":"baf16995-e7d6-40d5-afca-58467ccd3dd8","system_id":"levelo_inurba_marseille","lat":43.27978,"lon":5.40031,"is_reserved":false,"is_disabled":false,"rental_uris":{"android":"levelo://app?vid=baf16995-e7d6-40d5-afca-58467ccd3dd8","ios":"levelo://app?vid=baf16995-e7d6-40d5-afca-58467ccd3dd8"},"vehicle_type_id":"4","last_reported":1745439141,"current_range_meters":9200,"station_id":"ce4bho92rcd13ifvqh4g","pricing_plan_id":"cebpf4jnsgd1na2vs0mg"},{"bike_id":"204f92a2-4a04-4ebc-b1d5-2adb0db59100","system_id":"levelo_inurba_marseille","lat":43.30288,"lon":5.391993,"is_reserved":false,"is_disabled":false,"rental_uris":{"android":"levelo://app?vid=204f92a2-4a04-4ebc-b1d5-2adb0db59100","ios":"levelo://app?vid=204f92a2-4a04-4ebc-b1d5-2adb0db59100"},"vehicle_type_id":"4","last_reported":1745439141,"current_range_meters":9200,"station_id":"ce4bgkh2rcd13ifvqbk0","pricing_plan_id":"cebpf4jnsgd1na2vs0mg"},{"bike_id":"5bfd0e48-878f-4418-8cfc-1cdb33e22723","system_id":"levelo_inurba_marseille","lat":43.28922,"lon":5.36638,"is_reserved":false,"is_disabled":false,"rental_uris":{"android":"levelo://app?vid=5bfd0e48-878f-4418-8cfc-1cdb33e22723","ios":"levelo://app?vid=5bfd0e48-878f-4418-8cfc-1cdb33e22723"},"vehicle_type_id":"4","last_reported":1745439141,"current_range_meters":9200,"station_id":"ce4bhap2rcd13ifvqek0","pricing_plan_id":"cebpf4jnsgd1na2vs0mg"},{"bike_id":"52f84127-8905-45fa-bd90-8493d2581302","system_id":"levelo_inurba_marseille","lat":43.281616,"lon":5.426386,"is_reserved":false,"is_disabled":false,"rental_uris":{"android":"levelo://app?vid=52f84127-8905-45fa-bd90-8493d2581302","ios":"levelo://app?vid=52f84127-8905-45fa-bd90-8493d2581302"},"vehicle_type_id":"4","last_reported":1745439141,"current_range_meters":9600,"station_id":"ce4bhnh2rcd13ifvqgug","pricing_plan_id":"cebpf4jnsgd1na2vs0mg"},{"bike_id":"235f2bae-0a04-4484-8459-9c3ece0a1b2c","system_id":"levelo_inurba_marseille","lat":43.30733,"lon":5.42452,"is_reserved":false,"is_disabled":false,"rental_uris":{"android":"levelo://app?vid=235f2bae-0a04-4484-8459-9c3ece0a1b2c","ios":"levelo://app?vid=235f2bae-0a04-4484-8459-9c3ece0a1b2c"},"vehicle_type_id":"4","last_reported":1745439141,"current_range_meters":9600,"station_id":"st_cvj6ca6bvosntc0bfgr0","pricing_plan_id":"cebpf4jnsgd1na2vs0mg"},{"bike_id":"87493743-cb2b-406f-ad2b-e7f6fa5e105b","system_id":"levelo_inurba_marseille","lat":43.28669,"lon":5.36352,"is_reserved":false,"is_disabled":false,"rental_uris":{"android":"levelo://app?vid=87493743-cb2b-406f-ad2b-e7f6fa5e105b","ios":"levelo://app?vid=87493743-cb2b-406f-ad2b-e7f6fa5e105b"},"vehicle_type_id":"4","last_reported":1745439141,"current_range_meters":9600,"station_id":"ce4bhah2rcd13ifvqej0","pricing_plan_id":"cebpf4jnsgd1na2vs0mg"},{"bike_id":"4f5ac7c4-fae3-469d-a49f-999fe327ce77","system_id":"levelo_inurba_marseille","lat":43.31984,"lon":5.38167,"is_reserved":false,"is_disabled":false,"rental_uris":{"android":"levelo://app?vid=4f5ac7c4-fae3-469d-a49f-999fe327ce77","ios":"levelo://app?vid=4f5ac7c4-fae3-469d-a49f-999fe327ce77"},"vehicle_type_id":"4","last_reported":1745439141,"current_range_meters":9600,"station_id":"ce4bhr12rcd13ifvqhpg","pricing_plan_id":"cebpf4jnsgd1na2vs0mg"},{"bike_id":"ec350b30-9b32-4c5f-aa22-3a10fc683fe2","system_id":"levelo_inurba_marseille","lat":43.293203,"lon":5.434593,"is_reserved":false,"is_disabled":false,"rental_uris":{"android":"levelo://app?vid=ec350b30-9b32-4c5f-aa22-3a10fc683fe2","ios":"levelo://app?vid=ec350b30-9b32-4c5f-aa22-3a10fc683fe2"},"vehicle_type_id":"4","last_reported":1745439141,"current_range_meters":9600,"station_id":"","pricing_plan_id":"cebpf4jnsgd1na2vs0mg"},{"bike_id":"ee6fe346-129a-4352-b7c7-aefa1e451c7a","system_id":"levelo_inurba_marseille","lat":43.306602,"lon":5.400825,"is_reserved":false,"is_disabled":true,"rental_uris":{"android":"levelo://app?vid=ee6fe346-129a-4352-b7c7-aefa1e451c7a","ios":"levelo://app?vid=ee6fe346-129a-4352-b7c7-aefa1e451c7a"},"vehicle_type_id":"4","last_reported":1745439141,"current_range_meters":10000,"station_id":"ce4bh112rcd13ifvqda0","pricing_plan_id":"cebpf4jnsgd1na2vs0mg"},{"bike_id":"92c3b340-d069-4f1c-b55b-44c52f19597b","system_id":"levelo_inurba_marseille","lat":43.28247,"lon":5.37812,"is_reserved":false,"is_disabled":false,"rental_uris":{"android":"levelo://app?vid=92c3b340-d069-4f1c-b55b-44c52f19597b","ios":"levelo://app?vid=92c3b340-d069-4f1c-b55b-44c52f19597b"},"vehicle_type_id":"4","last_reported":1745439141,"current_range_meters":10000,"station_id":"","pricing_plan_id":"cebpf4jnsgd1na2vs0mg"},{"bike_id":"ce371cbd-3bf5-4753-9338-4f3a30244326","system_id":"levelo_inurba_marseille","lat":43.28616,"lon":5.35095,"is_reserved":false,"is_disabled":false,"rental_uris":{"android":"levelo://app?vid=ce371cbd-3bf5-4753-9338-4f3a30244326","ios":"levelo://app?vid=ce371cbd-3bf5-4753-9338-4f3a30244326"},"vehicle_type_id":"4","last_reported":1745439141,"current_range_meters":10000,"station_id":"ce4bhch2rcd13ifvqeug","pricing_plan_id":"cebpf4jnsgd1na2vs0mg"},{"bike_id":"2004c257-de4e-477f-bebf-f14bd99a64ef","system_id":"levelo_inurba_marseille","lat":43.28475,"lon":5.3842,"is_reserved":false,"is_disabled":false,"rental_uris":{"android":"levelo://app?vid=2004c257-de4e-477f-bebf-f14bd99a64ef","ios":"levelo://app?vid=2004c257-de4e-477f-bebf-f14bd99a64ef"},"vehicle_type_id":"4","last_reported":1745439141,"current_range_meters":12800,"station_id":"ce4bh512rcd13ifvqe3g","pricing_plan_id":"cebpf4jnsgd1na2vs0mg"},{"bike_id":"3a3bedf2-0adb-4d0d-9782-0a51518983df","system_id":"levelo_inurba_marseille","lat":43.289215,"lon":5.38389,"is_reserved":false,"is_disabled":true,"rental_uris":{"android":"levelo://app?vid=3a3bedf2-0adb-4d0d-9782-0a51518983df","ios":"levelo://app?vid=3a3bedf2-0adb-4d0d-9782-0a51518983df"},"vehicle_type_id":"4","last_reported":1745439141,"current_range_meters":10000,"station_id":"ce4bh612rcd13ifvqe6g","pricing_plan_id":"cebpf4jnsgd1na2vs0mg"},{"bike_id":"7e9d26b8-b748-4e10-b3e2-977d9fd05087","system_id":"levelo_inurba_marseille","lat":43.32358,"lon":5.36752,"is_reserved":false,"is_disabled":false,"rental_uris":{"android":"levelo://app?vid=7e9d26b8-b748-4e10-b3e2-977d9fd05087","ios":"levelo://app?vid=7e9d26b8-b748-4e10-b3e2-977d9fd05087"},"vehicle_type_id":"4","last_reported":1745439141,"current_range_meters":10000,"station_id":"ce4bhsh2rcd13ifvqi2g","pricing_plan_id":"cebpf4jnsgd1na2vs0mg"},{"bike_id":"82bf8d6a-9c38-4a12-ada2-1a23fbe6c3ac","system_id":"levelo_inurba_marseille","lat":43.31076,"lon":5.38816,"is_reserved":false,"is_disabled":false,"rental_uris":{"android":"levelo://app?vid=82bf8d6a-9c38-4a12-ada2-1a23fbe6c3ac","ios":"levelo://app?vid=82bf8d6a-9c38-4a12-ada2-1a23fbe6c3ac"},"vehicle_type_id":"4","last_reported":1745439141,"current_range_meters":10000,"station_id":"","pricing_plan_id":"cebpf4jnsgd1na2vs0mg"},{"bike_id":"9c325fd4-f154-4a48-857e-569f4cc367f9","system_id":"levelo_inurba_marseille","lat":43.22928,"lon":5.35381,"is_reserved":false,"is_disabled":false,"rental_uris":{"android":"levelo://app?vid=9c325fd4-f154-4a48-857e-569f4cc367f9","ios":"levelo://app?vid=9c325fd4-f154-4a48-857e-569f4cc367f9"},"vehicle_type_id":"4","last_reported":1745439141,"current_range_meters":10000,"station_id":"cpo3532slgdg3j2ikp40","pricing_plan_id":"cebpf4jnsgd1na2vs0mg"},{"bike_id":"ff3c923d-f028-469a-b8cc-3d9110e756b6","system_id":"levelo_inurba_marseille","lat":43.27945,"lon":5.4104,"is_reserved":false,"is_disabled":false,"rental_uris":{"android":"levelo://app?vid=ff3c923d-f028-469a-b8cc-3d9110e756b6","ios":"levelo://app?vid=ff3c923d-f028-469a-b8cc-3d9110e756b6"},"vehicle_type_id":"4","last_reported":1745439141,"current_range_meters":10000,"station_id":"ce4bhnp2rcd13ifvqh0g","pricing_plan_id":"cebpf4jnsgd1na2vs0mg"},{"bike_id":"8c7cba96-a3d5-439a-9e64-c18b09dd7aa5","system_id":"levelo_inurba_marseille","lat":43.29546,"lon":5.42294,"is_reserved":false,"is_disabled":false,"rental_uris":{"android":"levelo://app?vid=8c7cba96-a3d5-439a-9e64-c18b09dd7aa5","ios":"levelo://app?vid=8c7cba96-a3d5-439a-9e64-c18b09dd7aa5"},"vehicle_type_id":"4","last_reported":1745439141,"current_range_meters":10000,"station_id":"ce4bhph2rcd13ifvqhdg","pricing_plan_id":"cebpf4jnsgd1na2vs0mg"},{"bike_id":"b96d48d5-fc65-423b-9a30-5d2c864e8939","system_id":"levelo_inurba_marseille","lat":43.22486,"lon":5.3479,"is_reserved":false,"is_disabled":false,"rental_uris":{"android":"levelo://app?vid=b96d48d5-fc65-423b-9a30-5d2c864e8939","ios":"levelo://app?vid=b96d48d5-fc65-423b-9a30-5d2c864e8939"},"vehicle_type_id":"4","last_reported":1745439141,"current_range_meters":10800,"station_id":"st_cvj5dfep6f1abm77gieg","pricing_plan_id":"cebpf4jnsgd1na2vs0mg"},{"bike_id":"a2160c97-457f-4fc0-9d23-54e10646deb1","system_id":"levelo_inurba_marseille","lat":43.29201,"lon":5.39344,"is_reserved":false,"is_disabled":false,"rental_uris":{"android":"levelo://app?vid=a2160c97-457f-4fc0-9d23-54e10646deb1","ios":"levelo://app?vid=a2160c97-457f-4fc0-9d23-54e10646deb1"},"vehicle_type_id":"4","last_reported":1745439141,"current_range_meters":10800,"station_id":"ce4bh192rcd13ifvqdd0","pricing_plan_id":"cebpf4jnsgd1na2vs0mg"},{"bike_id":"420db772-d16c-4135-bd19-abf9c8a32f78","system_id":"levelo_inurba_marseille","lat":43.29509,"lon":5.38559,"is_reserved":false,"is_disabled":false,"rental_uris":{"android":"levelo://app?vid=420db772-d16c-4135-bd19-abf9c8a32f78","ios":"levelo://app?vid=420db772-d16c-4135-bd19-abf9c8a32f78"},"vehicle_type_id":"4","last_reported":1745439141,"current_range_meters":10800,"station_id":"ce4bgih2rcd13ifvqba0","pricing_plan_id":"cebpf4jnsgd1na2vs0mg"},{"bike_id":"03bbc5db-7780-4675-a80f-8f0f510ae625","system_id":"levelo_inurba_marseille","lat":43.27992,"lon":5.40015,"is_reserved":false,"is_disabled":false,"rental_uris":{"android":"levelo://app?vid=03bbc5db-7780-4675-a80f-8f0f510ae625","ios":"levelo://app?vid=03bbc5db-7780-4675-a80f-8f0f510ae625"},"vehicle_type_id":"4","last_reported":1745439141,"current_range_meters":10800,"station_id":"ce4bho92rcd13ifvqh4g","pricing_plan_id":"cebpf4jnsgd1na2vs0mg"},{"bike_id":"d6a00241-8f25-44db-ac6d-8e84872db2a8","system_id":"levelo_inurba_marseille","lat":43.33704,"lon":5.3919,"is_reserved":false,"is_disabled":false,"rental_uris":{"android":"levelo://app?vid=d6a00241-8f25-44db-ac6d-8e84872db2a8","ios":"levelo://app?vid=d6a00241-8f25-44db-ac6d-8e84872db2a8"},"vehicle_type_id":"4","last_reported":1745439141,"current_range_meters":10800,"station_id":"ce4bhr92rcd13ifvqhsg","pricing_plan_id":"cebpf4jnsgd1na2vs0mg"},{"bike_id":"41d16cb7-c076-4ba9-8d6c-d69e3ec7a0f0","system_id":"levelo_inurba_marseille","lat":43.28844,"lon":5.39308,"is_reserved":false,"is_disabled":false,"rental_uris":{"android":"levelo://app?vid=41d16cb7-c076-4ba9-8d6c-d69e3ec7a0f0","ios":"levelo://app?vid=41d16cb7-c076-4ba9-8d6c-d69e3ec7a0f0"},"vehicle_type_id":"4","last_reported":1745439141,"current_range_meters":10800,"station_id":"ce4bh2p2rcd13ifvqdi0","pricing_plan_id":"cebpf4jnsgd1na2vs0mg"},{"bike_id":"5cec985c-475e-4a47-afd7-2118745a458f","system_id":"levelo_inurba_marseille","lat":43.22941,"lon":5.35398,"is_reserved":false,"is_disabled":false,"rental_uris":{"android":"levelo://app?vid=5cec985c-475e-4a47-afd7-2118745a458f","ios":"levelo://app?vid=5cec985c-475e-4a47-afd7-2118745a458f"},"vehicle_type_id":"4","last_reported":1745439141,"current_range_meters":10800,"station_id":"cpo3532slgdg3j2ikp40","pricing_plan_id":"cebpf4jnsgd1na2vs0mg"},{"bike_id":"61034bff-863b-4f17-b306-04653b14a109","system_id":"levelo_inurba_marseille","lat":43.30925,"lon":5.40147,"is_reserved":false,"is_disabled":true,"rental_uris":{"android":"levelo://app?vid=61034bff-863b-4f17-b306-04653b14a109","ios":"levelo://app?vid=61034bff-863b-4f17-b306-04653b14a109"},"vehicle_type_id":"4","last_reported":1745439141,"current_range_meters":11200,"station_id":"ce4bgvp2rcd13ifvqct0","pricing_plan_id":"cebpf4jnsgd1na2vs0mg"},{"bike_id":"abd226a8-d003-4133-b9d2-b7c952b7ead1","system_id":"levelo_inurba_marseille","lat":43.23056,"lon":5.35491,"is_reserved":false,"is_disabled":false,"rental_uris":{"android":"levelo://app?vid=abd226a8-d003-4133-b9d2-b7c952b7ead1","ios":"levelo://app?vid=abd226a8-d003-4133-b9d2-b7c952b7ead1"},"vehicle_type_id":"4","last_reported":1745439141,"current_range_meters":11200,"station_id":"cpo3342slgdg3j2ifvpg","pricing_plan_id":"cebpf4jnsgd1na2vs0mg"},{"bike_id":"730c7476-95c4-4e18-a1b3-3a935e74be04","system_id":"levelo_inurba_marseille","lat":43.29034,"lon":5.37557,"is_reserved":false,"is_disabled":true,"rental_uris":{"android":"levelo://app?vid=730c7476-95c4-4e18-a1b3-3a935e74be04","ios":"levelo://app?vid=730c7476-95c4-4e18-a1b3-3a935e74be04"},"vehicle_type_id":"4","last_reported":1745439141,"current_range_meters":11600,"station_id":"ce4bh692rcd13ifvqe90","pricing_plan_id":"cebpf4jnsgd1na2vs0mg"},{"bike_id":"3252adef-1ffc-4552-a434-d21d60b9ceac","system_id":"levelo_inurba_marseille","lat":43.31116,"lon":5.37758,"is_reserved":false,"is_disabled":false,"rental_uris":{"android":"levelo://app?vid=3252adef-1ffc-4552-a434-d21d60b9ceac","ios":"levelo://app?vid=3252adef-1ffc-4552-a434-d21d60b9ceac"},"vehicle_type_id":"4","last_reported":1745439141,"current_range_meters":11600,"station_id":"ce4bgt92rcd13ifvqcg0","pricing_plan_id":"cebpf4jnsgd1na2vs0mg"},{"bike_id":"f3b3d6b1-47b2-4bba-8bc2-82fa8aca8bef","system_id":"levelo_inurba_marseille","lat":43.29256,"lon":5.409137,"is_reserved":false,"is_disabled":false,"rental_uris":{"android":"levelo://app?vid=f3b3d6b1-47b2-4bba-8bc2-82fa8aca8bef","ios":"levelo://app?vid=f3b3d6b1-47b2-4bba-8bc2-82fa8aca8bef"},"vehicle_type_id":"4","last_reported":1745439141,"current_range_meters":12000,"station_id":"ce4bh4p2rcd13ifvqe1g","pricing_plan_id":"cebpf4jnsgd1na2vs0mg"},{"bike_id":"395e5fa2-6413-4d1d-9a3e-bf7daba12776","system_id":"levelo_inurba_marseille","lat":43.29899,"lon":5.38912,"is_reserved":false,"is_disabled":false,"rental_uris":{"android":"levelo://app?vid=395e5fa2-6413-4d1d-9a3e-bf7daba12776","ios":"levelo://app?vid=395e5fa2-6413-4d1d-9a3e-bf7daba12776"},"vehicle_type_id":"4","last_reported":1745439141,"current_range_meters":11600,"station_id":"ce4bh392rcd13ifvqdl0","pricing_plan_id":"cebpf4jnsgd1na2vs0mg"},{"bike_id":"8fb44261-49c3-4680-b8bd-36f293c27199","system_id":"levelo_inurba_marseille","lat":43.24038,"lon":5.37776,"is_reserved":false,"is_disabled":false,"rental_uris":{"android":"levelo://app?vid=8fb44261-49c3-4680-b8bd-36f293c27199","ios":"levelo://app?vid=8fb44261-49c3-4680-b8bd-36f293c27199"},"vehicle_type_id":"4","last_reported":1745439141,"current_range_meters":11600,"station_id":"ce4bhnp2rcd13ifvqgvg","pricing_plan_id":"cebpf4jnsgd1na2vs0mg"},{"bike_id":"66d3f2a2-5910-443a-9c4a-b4c3a7c14e40","system_id":"levelo_inurba_marseille","lat":43.30026,"lon":5.40943,"is_reserved":false,"is_disabled":false,"rental_uris":{"android":"levelo://app?vid=66d3f2a2-5910-443a-9c4a-b4c3a7c14e40","ios":"levelo://app?vid=66d3f2a2-5910-443a-9c4a-b4c3a7c14e40"},"vehicle_type_id":"4","last_reported":1745439141,"current_range_meters":11600,"station_id":"","pricing_plan_id":"cebpf4jnsgd1na2vs0mg"},{"bike_id":"f412b40d-a034-4260-bc36-008b0b97fb8c","system_id":"levelo_inurba_marseille","lat":43.29527,"lon":5.38562,"is_reserved":false,"is_disabled":false,"rental_uris":{"android":"levelo://app?vid=f412b40d-a034-4260-bc36-008b0b97fb8c","ios":"levelo://app?vid=f412b40d-a034-4260-bc36-008b0b97fb8c"},"vehicle_type_id":"4","last_reported":1745439141,"current_range_meters":11600,"station_id":"ce4bgih2rcd13ifvqba0","pricing_plan_id":"cebpf4jnsgd1na2vs0mg"},{"bike_id":"1b8b7145-49a7-4fe1-96a2-72a1d6e84a54","system_id":"levelo_inurba_marseille","lat":43.23063,"lon":5.35494,"is_reserved":false,"is_disabled":false,"rental_uris":{"android":"levelo://app?vid=1b8b7145-49a7-4fe1-96a2-72a1d6e84a54","ios":"levelo://app?vid=1b8b7145-49a7-4fe1-96a2-72a1d6e84a54"},"vehicle_type_id":"4","last_reported":1745439141,"current_range_meters":11600,"station_id":"cpo3342slgdg3j2ifvpg","pricing_plan_id":"cebpf4jnsgd1na2vs0mg"},{"bike_id":"a9502237-4d3b-406e-845d-c0ab0783c1ea","system_id":"levelo_inurba_marseille","lat":43.29203,"lon":5.39324,"is_reserved":false,"is_disabled":false,"rental_uris":{"android":"levelo://app?vid=a9502237-4d3b-406e-845d-c0ab0783c1ea","ios":"levelo://app?vid=a9502237-4d3b-406e-845d-c0ab0783c1ea"},"vehicle_type_id":"4","last_reported":1745439141,"current_range_meters":17600,"station_id":"ce4bh192rcd13ifvqdd0","pricing_plan_id":"cebpf4jnsgd1na2vs0mg"},{"bike_id":"c4f8bb0b-fdc6-4e60-817a-688ba93455cd","system_id":"levelo_inurba_marseille","lat":43.30918,"lon":5.40149,"is_reserved":false,"is_disabled":false,"rental_uris":{"android":"levelo://app?vid=c4f8bb0b-fdc6-4e60-817a-688ba93455cd","ios":"levelo://app?vid=c4f8bb0b-fdc6-4e60-817a-688ba93455cd"},"vehicle_type_id":"4","last_reported":1745439141,"current_range_meters":12000,"station_id":"ce4bgvp2rcd13ifvqct0","pricing_plan_id":"cebpf4jnsgd1na2vs0mg"},{"bike_id":"39b2c162-40db-4714-a229-015a16e87ce8","system_id":"levelo_inurba_marseille","lat":43.29935,"lon":5.36527,"is_reserved":false,"is_disabled":false,"rental_uris":{"android":"levelo://app?vid=39b2c162-40db-4714-a229-015a16e87ce8","ios":"levelo://app?vid=39b2c162-40db-4714-a229-015a16e87ce8"},"vehicle_type_id":"4","last_reported":1745439141,"current_range_meters":12400,"station_id":"ce4bgm92rcd13ifvqbr0","pricing_plan_id":"cebpf4jnsgd1na2vs0mg"},{"bike_id":"527ab9af-1602-4e3b-a3d5-77f5acec1ebf","system_id":"levelo_inurba_marseille","lat":43.26168,"lon":5.37481,"is_reserved":false,"is_disabled":true,"rental_uris":{"android":"levelo://app?vid=527ab9af-1602-4e3b-a3d5-77f5acec1ebf","ios":"levelo://app?vid=527ab9af-1602-4e3b-a3d5-77f5acec1ebf"},"vehicle_type_id":"4","last_reported":1745439141,"current_range_meters":12400,"station_id":"ce4bhgp2rcd13ifvqfc0","pricing_plan_id":"cebpf4jnsgd1na2vs0mg"},{"bike_id":"1ce84dc7-458b-4f31-b721-f47513c15013","system_id":"levelo_inurba_marseille","lat":43.29874,"lon":5.39739,"is_reserved":false,"is_disabled":false,"rental_uris":{"android":"levelo://app?vid=1ce84dc7-458b-4f31-b721-f47513c15013","ios":"levelo://app?vid=1ce84dc7-458b-4f31-b721-f47513c15013"},"vehicle_type_id":"4","last_reported":1745439141,"current_range_meters":12400,"station_id":"ce4bh0h2rcd13ifvqd50","pricing_plan_id":"cebpf4jnsgd1na2vs0mg"},{"bike_id":"859a7a58-2f61-40c0-ac82-b749779037f1","system_id":"levelo_inurba_marseille","lat":43.29901,"lon":5.38147,"is_reserved":false,"is_disabled":false,"rental_uris":{"android":"levelo://app?vid=859a7a58-2f61-40c0-ac82-b749779037f1","ios":"levelo://app?vid=859a7a58-2f61-40c0-ac82-b749779037f1"},"vehicle_type_id":"4","last_reported":1745439141,"current_range_meters":12400,"station_id":"ce4bgj12rcd13ifvqbc0","pricing_plan_id":"cebpf4jnsgd1na2vs0mg"},{"bike_id":"95ae69fe-48c7-448d-9e15-0cee7e21f859","system_id":"levelo_inurba_marseille","lat":43.29061,"lon":5.3716,"is_reserved":false,"is_disabled":false,"rental_uris":{"android":"levelo://app?vid=95ae69fe-48c7-448d-9e15-0cee7e21f859","ios":"levelo://app?vid=95ae69fe-48c7-448d-9e15-0cee7e21f859"},"vehicle_type_id":"4","last_reported":1745439141,"current_range_meters":12800,"station_id":"ce4bh5p2rcd13ifvqe4g","pricing_plan_id":"cebpf4jnsgd1na2vs0mg"},{"bike_id":"25970a8d-2362-441e-acd9-9e86ac0b9dfd","system_id":"levelo_inurba_marseille","lat":43.27068,"lon":5.42285,"is_reserved":false,"is_disabled":false,"rental_uris":{"android":"levelo://app?vid=25970a8d-2362-441e-acd9-9e86ac0b9dfd","ios":"levelo://app?vid=25970a8d-2362-441e-acd9-9e86ac0b9dfd"},"vehicle_type_id":"4","last_reported":1745439141,"current_range_meters":12800,"station_id":"ce4bhk92rcd13ifvqgb0","pricing_plan_id":"cebpf4jnsgd1na2vs0mg"},{"bike_id":"f4240832-be75-486f-be90-a38ce111aeef","system_id":"levelo_inurba_marseille","lat":43.30785,"lon":5.37645,"is_reserved":false,"is_disabled":false,"rental_uris":{"android":"levelo://app?vid=f4240832-be75-486f-be90-a38ce111aeef","ios":"levelo://app?vid=f4240832-be75-486f-be90-a38ce111aeef"},"vehicle_type_id":"4","last_reported":1745439141,"current_range_meters":12800,"station_id":"ce4bgv92rcd13ifvqcq0","pricing_plan_id":"cebpf4jnsgd1na2vs0mg"},{"bike_id":"7c6eb383-9965-4442-91bd-c7b12edd43c5","system_id":"levelo_inurba_marseille","lat":43.29537,"lon":5.38556,"is_reserved":false,"is_disabled":false,"rental_uris":{"android":"levelo://app?vid=7c6eb383-9965-4442-91bd-c7b12edd43c5","ios":"levelo://app?vid=7c6eb383-9965-4442-91bd-c7b12edd43c5"},"vehicle_type_id":"4","last_reported":1745439141,"current_range_meters":12800,"station_id":"ce4bgih2rcd13ifvqba0","pricing_plan_id":"cebpf4jnsgd1na2vs0mg"},{"bike_id":"6226e415-6972-4892-a365-5e0786a05a6a","system_id":"levelo_inurba_marseille","lat":43.31367,"lon":5.38502,"is_reserved":false,"is_disabled":false,"rental_uris":{"android":"levelo://app?vid=6226e415-6972-4892-a365-5e0786a05a6a","ios":"levelo://app?vid=6226e415-6972-4892-a365-5e0786a05a6a"},"vehicle_type_id":"4","last_reported":1745439141,"current_range_meters":13600,"station_id":"ce4bgt92rcd13ifvqcf0","pricing_plan_id":"cebpf4jnsgd1na2vs0mg"},{"bike_id":"a92e41fe-6c3a-4791-9ade-679105edaf4a","system_id":"levelo_inurba_marseille","lat":43.31052,"lon":5.38399,"is_reserved":false,"is_disabled":false,"rental_uris":{"android":"levelo://app?vid=a92e41fe-6c3a-4791-9ade-679105edaf4a","ios":"levelo://app?vid=a92e41fe-6c3a-4791-9ade-679105edaf4a"},"vehicle_type_id":"4","last_reported":1745439141,"current_range_meters":13600,"station_id":"ce4bgv92rcd13ifvqcr0","pricing_plan_id":"cebpf4jnsgd1na2vs0mg"},{"bike_id":"7e168725-4d64-4302-a96b-dfc8d5097467","system_id":"levelo_inurba_marseille","lat":43.31155,"lon":5.38674,"is_reserved":false,"is_disabled":false,"rental_uris":{"android":"levelo://app?vid=7e168725-4d64-4302-a96b-dfc8d5097467","ios":"levelo://app?vid=7e168725-4d64-4302-a96b-dfc8d5097467"},"vehicle_type_id":"4","last_reported":1745439141,"current_range_meters":13600,"station_id":"ce4bgv12rcd13ifvqcp0","pricing_plan_id":"cebpf4jnsgd1na2vs0mg"},{"bike_id":"4f3bdbf0-438c-4aff-990e-29c7aed66363","system_id":"levelo_inurba_marseille","lat":43.29853,"lon":5.36267,"is_reserved":false,"is_disabled":false,"rental_uris":{"android":"levelo://app?vid=4f3bdbf0-438c-4aff-990e-29c7aed66363","ios":"levelo://app?vid=4f3bdbf0-438c-4aff-990e-29c7aed66363"},"vehicle_type_id":"4","last_reported":1745439141,"current_range_meters":14000,"station_id":"ce4bgpp2rcd13ifvqc3g","pricing_plan_id":"cebpf4jnsgd1na2vs0mg"},{"bike_id":"001be0b9-cdf3-450d-9359-9771e014728d","system_id":"levelo_inurba_marseille","lat":43.29886,"lon":5.38911,"is_reserved":false,"is_disabled":false,"rental_uris":{"android":"levelo://app?vid=001be0b9-cdf3-450d-9359-9771e014728d","ios":"levelo://app?vid=001be0b9-cdf3-450d-9359-9771e014728d"},"vehicle_type_id":"4","last_reported":1745439141,"current_range_meters":13600,"station_id":"ce4bh392rcd13ifvqdl0","pricing_plan_id":"cebpf4jnsgd1na2vs0mg"},{"bike_id":"b4fcfeee-0222-4a82-93ab-f1ff8595565b","system_id":"levelo_inurba_marseille","lat":43.30404,"lon":5.39763,"is_reserved":false,"is_disabled":false,"rental_uris":{"android":"levelo://app?vid=b4fcfeee-0222-4a82-93ab-f1ff8595565b","ios":"levelo://app?vid=b4fcfeee-0222-4a82-93ab-f1ff8595565b"},"vehicle_type_id":"4","last_reported":1745439141,"current_range_meters":14400,"station_id":"ce4bh092rcd13ifvqd20","pricing_plan_id":"cebpf4jnsgd1na2vs0mg"},{"bike_id":"f3b4a793-e7f9-4e80-b9ff-5f6ef45d8fac","system_id":"levelo_inurba_marseille","lat":43.30323,"lon":5.36861,"is_reserved":false,"is_disabled":false,"rental_uris":{"android":"levelo://app?vid=f3b4a793-e7f9-4e80-b9ff-5f6ef45d8fac","ios":"levelo://app?vid=f3b4a793-e7f9-4e80-b9ff-5f6ef45d8fac"},"vehicle_type_id":"4","last_reported":1745439141,"current_range_meters":14400,"station_id":"ce4bgqh2rcd13ifvqc5g","pricing_plan_id":"cebpf4jnsgd1na2vs0mg"},{"bike_id":"01d0e668-3b04-4db3-8a63-2b7bd601d2b8","system_id":"levelo_inurba_marseille","lat":43.28153,"lon":5.42647,"is_reserved":false,"is_disabled":false,"rental_uris":{"android":"levelo://app?vid=01d0e668-3b04-4db3-8a63-2b7bd601d2b8","ios":"levelo://app?vid=01d0e668-3b04-4db3-8a63-2b7bd601d2b8"},"vehicle_type_id":"4","last_reported":1745439141,"current_range_meters":14000,"station_id":"ce4bhnh2rcd13ifvqgug","pricing_plan_id":"cebpf4jnsgd1na2vs0mg"},{"bike_id":"f8fa9b8f-c37a-470f-9c82-f8ac4179d191","system_id":"levelo_inurba_marseille","lat":43.28851,"lon":5.39329,"is_reserved":false,"is_disabled":false,"rental_uris":{"android":"levelo://app?vid=f8fa9b8f-c37a-470f-9c82-f8ac4179d191","ios":"levelo://app?vid=f8fa9b8f-c37a-470f-9c82-f8ac4179d191"},"vehicle_type_id":"4","last_reported":1745439141,"current_range_meters":14400,"station_id":"ce4bh2p2rcd13ifvqdi0","pricing_plan_id":"cebpf4jnsgd1na2vs0mg"},{"bike_id":"d065076b-e6ff-4294-afeb-ba7472f39efe","system_id":"levelo_inurba_marseille","lat":43.28457,"lon":5.35893,"is_reserved":false,"is_disabled":false,"rental_uris":{"android":"levelo://app?vid=d065076b-e6ff-4294-afeb-ba7472f39efe","ios":"levelo://app?vid=d065076b-e6ff-4294-afeb-ba7472f39efe"},"vehicle_type_id":"4","last_reported":1745439141,"current_range_meters":14400,"station_id":"","pricing_plan_id":"cebpf4jnsgd1na2vs0mg"},{"bike_id":"f31bee90-1c13-4189-9679-0326782d9854","system_id":"levelo_inurba_marseille","lat":43.3176,"lon":5.39013,"is_reserved":false,"is_disabled":false,"rental_uris":{"android":"levelo://app?vid=f31bee90-1c13-4189-9679-0326782d9854","ios":"levelo://app?vid=f31bee90-1c13-4189-9679-0326782d9854"},"vehicle_type_id":"4","last_reported":1745439141,"current_range_meters":14800,"station_id":"ce4bhqp2rcd13ifvqhng","pricing_plan_id":"cebpf4jnsgd1na2vs0mg"},{"bike_id":"46374c49-3adc-4c5a-8966-e00f056c0d57","system_id":"levelo_inurba_marseille","lat":43.27846,"lon":5.35442,"is_reserved":false,"is_disabled":false,"rental_uris":{"android":"levelo://app?vid=46374c49-3adc-4c5a-8966-e00f056c0d57","ios":"levelo://app?vid=46374c49-3adc-4c5a-8966-e00f056c0d57"},"vehicle_type_id":"4","last_reported":1745439141,"current_range_meters":14800,"station_id":"","pricing_plan_id":"cebpf4jnsgd1na2vs0mg"},{"bike_id":"8a68e572-b500-4fd3-a177-770466ef2a82","system_id":"levelo_inurba_marseille","lat":43.31486,"lon":5.38555,"is_reserved":false,"is_disabled":false,"rental_uris":{"android":"levelo://app?vid=8a68e572-b500-4fd3-a177-770466ef2a82","ios":"levelo://app?vid=8a68e572-b500-4fd3-a177-770466ef2a82"},"vehicle_type_id":"4","last_reported":1745439141,"current_range_meters":14800,"station_id":"","pricing_plan_id":"cebpf4jnsgd1na2vs0mg"},{"bike_id":"cc32285e-bf2e-4670-ba3f-a6c8f3cac609","system_id":"levelo_inurba_marseille","lat":43.28846,"lon":5.3586,"is_reserved":false,"is_disabled":false,"rental_uris":{"android":"levelo://app?vid=cc32285e-bf2e-4670-ba3f-a6c8f3cac609","ios":"levelo://app?vid=cc32285e-bf2e-4670-ba3f-a6c8f3cac609"},"vehicle_type_id":"4","last_reported":1745439141,"current_range_meters":14800,"station_id":"ce4bhb12rcd13ifvqem0","pricing_plan_id":"cebpf4jnsgd1na2vs0mg"},{"bike_id":"11ce02ec-5de1-4d28-b35b-b9d2498a4135","system_id":"levelo_inurba_marseille","lat":43.23058,"lon":5.35513,"is_reserved":false,"is_disabled":false,"rental_uris":{"android":"levelo://app?vid=11ce02ec-5de1-4d28-b35b-b9d2498a4135","ios":"levelo://app?vid=11ce02ec-5de1-4d28-b35b-b9d2498a4135"},"vehicle_type_id":"4","last_reported":1745439141,"current_range_meters":14800,"station_id":"cpo3342slgdg3j2ifvpg","pricing_plan_id":"cebpf4jnsgd1na2vs0mg"},{"bike_id":"54cb9ec8-06b4-4386-ad59-6b814c26bb70","system_id":"levelo_inurba_marseille","lat":43.29168,"lon":5.37166,"is_reserved":false,"is_disabled":false,"rental_uris":{"android":"levelo://app?vid=54cb9ec8-06b4-4386-ad59-6b814c26bb70","ios":"levelo://app?vid=54cb9ec8-06b4-4386-ad59-6b814c26bb70"},"vehicle_type_id":"4","last_reported":1745439141,"current_range_meters":14800,"station_id":"ce4bha92rcd13ifvqeh0","pricing_plan_id":"cebpf4jnsgd1na2vs0mg"},{"bike_id":"963fda9a-f720-4153-b038-02faf2043306","system_id":"levelo_inurba_marseille","lat":43.29262,"lon":5.37633,"is_reserved":false,"is_disabled":false,"rental_uris":{"android":"levelo://app?vid=963fda9a-f720-4153-b038-02faf2043306","ios":"levelo://app?vid=963fda9a-f720-4153-b038-02faf2043306"},"vehicle_type_id":"4","last_reported":1745439141,"current_range_meters":14800,"station_id":"ce4bgi12rcd13ifvqb80","pricing_plan_id":"cebpf4jnsgd1na2vs0mg"},{"bike_id":"546639fb-019c-4528-b7a7-e1f8e2987f0e","system_id":"levelo_inurba_marseille","lat":43.24646,"lon":5.38915,"is_reserved":false,"is_disabled":false,"rental_uris":{"android":"levelo://app?vid=546639fb-019c-4528-b7a7-e1f8e2987f0e","ios":"levelo://app?vid=546639fb-019c-4528-b7a7-e1f8e2987f0e"},"vehicle_type_id":"4","last_reported":1745439141,"current_range_meters":14400,"station_id":"ce4bhg12rcd13ifvqf60","pricing_plan_id":"cebpf4jnsgd1na2vs0mg"},{"bike_id":"30e08c8c-a2b6-45d6-9704-9460af4f4d07","system_id":"levelo_inurba_marseille","lat":43.31073,"lon":5.42437,"is_reserved":false,"is_disabled":false,"rental_uris":{"android":"levelo://app?vid=30e08c8c-a2b6-45d6-9704-9460af4f4d07","ios":"levelo://app?vid=30e08c8c-a2b6-45d6-9704-9460af4f4d07"},"vehicle_type_id":"4","last_reported":1745439141,"current_range_meters":14800,"station_id":"ce4bhp92rcd13ifvqhag","pricing_plan_id":"cebpf4jnsgd1na2vs0mg"},{"bike_id":"716b8428-36de-4a4e-bede-3f01e8feff4d","system_id":"levelo_inurba_marseille","lat":43.27999,"lon":5.40015,"is_reserved":false,"is_disabled":false,"rental_uris":{"android":"levelo://app?vid=716b8428-36de-4a4e-bede-3f01e8feff4d","ios":"levelo://app?vid=716b8428-36de-4a4e-bede-3f01e8feff4d"},"vehicle_type_id":"4","last_reported":1745439141,"current_range_meters":15200,"station_id":"ce4bho92rcd13ifvqh4g","pricing_plan_id":"cebpf4jnsgd1na2vs0mg"},{"bike_id":"a6e1ed00-763f-49cd-b46e-89149f63a8bc","system_id":"levelo_inurba_marseille","lat":43.29092,"lon":5.38124,"is_reserved":false,"is_disabled":false,"rental_uris":{"android":"levelo://app?vid=a6e1ed00-763f-49cd-b46e-89149f63a8bc","ios":"levelo://app?vid=a6e1ed00-763f-49cd-b46e-89149f63a8bc"},"vehicle_type_id":"4","last_reported":1745439141,"current_range_meters":15200,"station_id":"ce4bh512rcd13ifvqe2g","pricing_plan_id":"cebpf4jnsgd1na2vs0mg"},{"bike_id":"162104c9-c9c3-41e8-9022-0f16a6a968c6","system_id":"levelo_inurba_marseille","lat":43.3302,"lon":5.39053,"is_reserved":false,"is_disabled":false,"rental_uris":{"android":"levelo://app?vid=162104c9-c9c3-41e8-9022-0f16a6a968c6","ios":"levelo://app?vid=162104c9-c9c3-41e8-9022-0f16a6a968c6"},"vehicle_type_id":"4","last_reported":1745439141,"current_range_meters":15200,"station_id":"ce4bhr92rcd13ifvqhrg","pricing_plan_id":"cebpf4jnsgd1na2vs0mg"},{"bike_id":"a4b0f6e2-bbbc-412d-a87d-5843d18bf2e7","system_id":"levelo_inurba_marseille","lat":43.28658,"lon":5.36348,"is_reserved":false,"is_disabled":false,"rental_uris":{"android":"levelo://app?vid=a4b0f6e2-bbbc-412d-a87d-5843d18bf2e7","ios":"levelo://app?vid=a4b0f6e2-bbbc-412d-a87d-5843d18bf2e7"},"vehicle_type_id":"4","last_reported":1745439141,"current_range_meters":15200,"station_id":"ce4bhah2rcd13ifvqej0","pricing_plan_id":"cebpf4jnsgd1na2vs0mg"},{"bike_id":"6032ee94-1b3a-4688-8532-3fc5a0799d1b","system_id":"levelo_inurba_marseille","lat":43.29257,"lon":5.40905,"is_reserved":false,"is_disabled":false,"rental_uris":{"android":"levelo://app?vid=6032ee94-1b3a-4688-8532-3fc5a0799d1b","ios":"levelo://app?vid=6032ee94-1b3a-4688-8532-3fc5a0799d1b"},"vehicle_type_id":"4","last_reported":1745439141,"current_range_meters":15200,"station_id":"ce4bh192rcd13ifvqdc0","pricing_plan_id":"cebpf4jnsgd1na2vs0mg"},{"bike_id":"f01f41ce-3bd3-44bb-8639-82d695e1fe1a","system_id":"levelo_inurba_marseille","lat":43.30195,"lon":5.36631,"is_reserved":false,"is_disabled":false,"rental_uris":{"android":"levelo://app?vid=f01f41ce-3bd3-44bb-8639-82d695e1fe1a","ios":"levelo://app?vid=f01f41ce-3bd3-44bb-8639-82d695e1fe1a"},"vehicle_type_id":"4","last_reported":1745439141,"current_range_meters":15200,"station_id":"ce4bgrh2rcd13ifvqc8g","pricing_plan_id":"cebpf4jnsgd1na2vs0mg"},{"bike_id":"896ba6df-ef46-410a-b9bd-c8259e6843b5","system_id":"levelo_inurba_marseille","lat":43.29556,"lon":5.42284,"is_reserved":false,"is_disabled":false,"rental_uris":{"android":"levelo://app?vid=896ba6df-ef46-410a-b9bd-c8259e6843b5","ios":"levelo://app?vid=896ba6df-ef46-410a-b9bd-c8259e6843b5"},"vehicle_type_id":"4","last_reported":1745439141,"current_range_meters":15200,"station_id":"ce4bhph2rcd13ifvqhdg","pricing_plan_id":"cebpf4jnsgd1na2vs0mg"},{"bike_id":"cd729521-9324-4205-8e68-9742bcc97521","system_id":"levelo_inurba_marseille","lat":43.307983,"lon":5.381469,"is_reserved":false,"is_disabled":false,"rental_uris":{"android":"levelo://app?vid=cd729521-9324-4205-8e68-9742bcc97521","ios":"levelo://app?vid=cd729521-9324-4205-8e68-9742bcc97521"},"vehicle_type_id":"4","last_reported":1745439141,"current_range_meters":16000,"station_id":"ce4bgt12rcd13ifvqce0","pricing_plan_id":"cebpf4jnsgd1na2vs0mg"},{"bike_id":"fb31e0dc-90f8-46bd-90fa-299fce5a725d","system_id":"levelo_inurba_marseille","lat":43.28923,"lon":5.36667,"is_reserved":false,"is_disabled":false,"rental_uris":{"android":"levelo://app?vid=fb31e0dc-90f8-46bd-90fa-299fce5a725d","ios":"levelo://app?vid=fb31e0dc-90f8-46bd-90fa-299fce5a725d"},"vehicle_type_id":"4","last_reported":1745439141,"current_range_meters":16000,"station_id":"ce4bhap2rcd13ifvqek0","pricing_plan_id":"cebpf4jnsgd1na2vs0mg"},{"bike_id":"fc71bd1c-3854-48a5-8a4d-932d604b8ad6","system_id":"levelo_inurba_marseille","lat":43.28924,"lon":5.36646,"is_reserved":false,"is_disabled":false,"rental_uris":{"android":"levelo://app?vid=fc71bd1c-3854-48a5-8a4d-932d604b8ad6","ios":"levelo://app?vid=fc71bd1c-3854-48a5-8a4d-932d604b8ad6"},"vehicle_type_id":"4","last_reported":1745439141,"current_range_meters":16000,"station_id":"ce4bhap2rcd13ifvqek0","pricing_plan_id":"cebpf4jnsgd1na2vs0mg"},{"bike_id":"755abc1a-f797-479c-8e88-5f59f436c9d9","system_id":"levelo_inurba_marseille","lat":43.23974,"lon":5.36601,"is_reserved":false,"is_disabled":true,"rental_uris":{"android":"levelo://app?vid=755abc1a-f797-479c-8e88-5f59f436c9d9","ios":"levelo://app?vid=755abc1a-f797-479c-8e88-5f59f436c9d9"},"vehicle_type_id":"4","last_reported":1745439141,"current_range_meters":16000,"station_id":"ce4bhi12rcd13ifvqfp0","pricing_plan_id":"cebpf4jnsgd1na2vs0mg"},{"bike_id":"eaedb804-0e7c-4c63-a1b3-fcbc9ec36df3","system_id":"levelo_inurba_marseille","lat":43.28713,"lon":5.37401,"is_reserved":false,"is_disabled":false,"rental_uris":{"android":"levelo://app?vid=eaedb804-0e7c-4c63-a1b3-fcbc9ec36df3","ios":"levelo://app?vid=eaedb804-0e7c-4c63-a1b3-fcbc9ec36df3"},"vehicle_type_id":"4","last_reported":1745439141,"current_range_meters":16000,"station_id":"ce4bh3p2rcd13ifvqdq0","pricing_plan_id":"cebpf4jnsgd1na2vs0mg"},{"bike_id":"4c4334fd-83c9-4afe-b055-16cf90ed58e3","system_id":"levelo_inurba_marseille","lat":43.31324,"lon":5.39697,"is_reserved":false,"is_disabled":false,"rental_uris":{"android":"levelo://app?vid=4c4334fd-83c9-4afe-b055-16cf90ed58e3","ios":"levelo://app?vid=4c4334fd-83c9-4afe-b055-16cf90ed58e3"},"vehicle_type_id":"4","last_reported":1745439141,"current_range_meters":16000,"station_id":"ce4bgvp2rcd13ifvqcu0","pricing_plan_id":"cebpf4jnsgd1na2vs0mg"},{"bike_id":"d18bd5bc-b421-4d7b-aae6-4552a9cefd7b","system_id":"levelo_inurba_marseille","lat":43.21745,"lon":5.3461,"is_reserved":false,"is_disabled":false,"rental_uris":{"android":"levelo://app?vid=d18bd5bc-b421-4d7b-aae6-4552a9cefd7b","ios":"levelo://app?vid=d18bd5bc-b421-4d7b-aae6-4552a9cefd7b"},"vehicle_type_id":"4","last_reported":1745439141,"current_range_meters":16400,"station_id":"ce4bh8p2rcd13ifvqeb0","pricing_plan_id":"cebpf4jnsgd1na2vs0mg"},{"bike_id":"1898179b-bda2-47d4-9adf-00142f785ccc","system_id":"levelo_inurba_marseille","lat":43.30248,"lon":5.40055,"is_reserved":false,"is_disabled":false,"rental_uris":{"android":"levelo://app?vid=1898179b-bda2-47d4-9adf-00142f785ccc","ios":"levelo://app?vid=1898179b-bda2-47d4-9adf-00142f785ccc"},"vehicle_type_id":"4","last_reported":1745439141,"current_range_meters":14400,"station_id":"ce4bgvh2rcd13ifvqcs0","pricing_plan_id":"cebpf4jnsgd1na2vs0mg"},{"bike_id":"29c27f6c-b172-4d99-add3-c74bdfc6be20","system_id":"levelo_inurba_marseille","lat":43.33032,"lon":5.39046,"is_reserved":false,"is_disabled":false,"rental_uris":{"android":"levelo://app?vid=29c27f6c-b172-4d99-add3-c74bdfc6be20","ios":"levelo://app?vid=29c27f6c-b172-4d99-add3-c74bdfc6be20"},"vehicle_type_id":"4","last_reported":1745439141,"current_range_meters":16400,"station_id":"ce4bhr92rcd13ifvqhrg","pricing_plan_id":"cebpf4jnsgd1na2vs0mg"},{"bike_id":"305a8662-bc62-4326-b66d-c6d8c543cba5","system_id":"levelo_inurba_marseille","lat":43.31166,"lon":5.38729,"is_reserved":false,"is_disabled":false,"rental_uris":{"android":"levelo://app?vid=305a8662-bc62-4326-b66d-c6d8c543cba5","ios":"levelo://app?vid=305a8662-bc62-4326-b66d-c6d8c543cba5"},"vehicle_type_id":"4","last_reported":1745439141,"current_range_meters":16400,"station_id":"ce4bgv12rcd13ifvqcp0","pricing_plan_id":"cebpf4jnsgd1na2vs0mg"},{"bike_id":"bd4f0b28-c324-459c-8482-b4d9162923c5","system_id":"levelo_inurba_marseille","lat":43.28113,"lon":5.37842,"is_reserved":false,"is_disabled":false,"rental_uris":{"android":"levelo://app?vid=bd4f0b28-c324-459c-8482-b4d9162923c5","ios":"levelo://app?vid=bd4f0b28-c324-459c-8482-b4d9162923c5"},"vehicle_type_id":"4","last_reported":1745439141,"current_range_meters":16400,"station_id":"ce4bha12rcd13ifvqee0","pricing_plan_id":"cebpf4jnsgd1na2vs0mg"},{"bike_id":"7d2633a5-2cb0-46eb-8c00-357bd5fadfef","system_id":"levelo_inurba_marseille","lat":43.25499,"lon":5.37644,"is_reserved":false,"is_disabled":true,"rental_uris":{"android":"levelo://app?vid=7d2633a5-2cb0-46eb-8c00-357bd5fadfef","ios":"levelo://app?vid=7d2633a5-2cb0-46eb-8c00-357bd5fadfef"},"vehicle_type_id":"4","last_reported":1745439141,"current_range_meters":16400,"station_id":"ce4bhh12rcd13ifvqff0","pricing_plan_id":"cebpf4jnsgd1na2vs0mg"},{"bike_id":"0cc64a17-6499-4c13-9af4-3f227b287cec","system_id":"levelo_inurba_marseille","lat":43.31107,"lon":5.37778,"is_reserved":false,"is_disabled":false,"rental_uris":{"android":"levelo://app?vid=0cc64a17-6499-4c13-9af4-3f227b287cec","ios":"levelo://app?vid=0cc64a17-6499-4c13-9af4-3f227b287cec"},"vehicle_type_id":"4","last_reported":1745439141,"current_range_meters":16400,"station_id":"ce4bgt92rcd13ifvqcg0","pricing_plan_id":"cebpf4jnsgd1na2vs0mg"},{"bike_id":"cc353075-a067-4ea2-b064-f536bed302dc","system_id":"levelo_inurba_marseille","lat":43.30924,"lon":5.40158,"is_reserved":false,"is_disabled":false,"rental_uris":{"android":"levelo://app?vid=cc353075-a067-4ea2-b064-f536bed302dc","ios":"levelo://app?vid=cc353075-a067-4ea2-b064-f536bed302dc"},"vehicle_type_id":"4","last_reported":1745439141,"current_range_meters":16800,"station_id":"ce4bgvp2rcd13ifvqct0","pricing_plan_id":"cebpf4jnsgd1na2vs0mg"},{"bike_id":"dfd69b24-961c-414b-a74c-3d3f365a3276","system_id":"levelo_inurba_marseille","lat":43.25821,"lon":5.39437,"is_reserved":false,"is_disabled":false,"rental_uris":{"android":"levelo://app?vid=dfd69b24-961c-414b-a74c-3d3f365a3276","ios":"levelo://app?vid=dfd69b24-961c-414b-a74c-3d3f365a3276"},"vehicle_type_id":"4","last_reported":1745439141,"current_range_meters":16800,"station_id":"ce4bhip2rcd13ifvqft0","pricing_plan_id":"cebpf4jnsgd1na2vs0mg"},{"bike_id":"3189da2c-394c-4e40-a38b-4b11a1236001","system_id":"levelo_inurba_marseille","lat":43.27898,"lon":5.38002,"is_reserved":false,"is_disabled":false,"rental_uris":{"android":"levelo://app?vid=3189da2c-394c-4e40-a38b-4b11a1236001","ios":"levelo://app?vid=3189da2c-394c-4e40-a38b-4b11a1236001"},"vehicle_type_id":"4","last_reported":1745439141,"current_range_meters":16800,"station_id":"ce4bhf92rcd13ifvqf50","pricing_plan_id":"cebpf4jnsgd1na2vs0mg"},{"bike_id":"094e7cad-3c45-4db5-84d9-10a74c782100","system_id":"levelo_inurba_marseille","lat":43.32367,"lon":5.37601,"is_reserved":false,"is_disabled":false,"rental_uris":{"android":"levelo://app?vid=094e7cad-3c45-4db5-84d9-10a74c782100","ios":"levelo://app?vid=094e7cad-3c45-4db5-84d9-10a74c782100"},"vehicle_type_id":"4","last_reported":1745439141,"current_range_meters":16800,"station_id":"","pricing_plan_id":"cebpf4jnsgd1na2vs0mg"},{"bike_id":"415b2609-c0ae-472a-aa20-d8c246fb2a5e","system_id":"levelo_inurba_marseille","lat":43.31703,"lon":5.37774,"is_reserved":false,"is_disabled":false,"rental_uris":{"android":"levelo://app?vid=415b2609-c0ae-472a-aa20-d8c246fb2a5e","ios":"levelo://app?vid=415b2609-c0ae-472a-aa20-d8c246fb2a5e"},"vehicle_type_id":"4","last_reported":1745439141,"current_range_meters":16800,"station_id":"ce4bgth2rcd13ifvqch0","pricing_plan_id":"cebpf4jnsgd1na2vs0mg"},{"bike_id":"744b497d-90f8-4674-be6c-d52d0d2640c2","system_id":"levelo_inurba_marseille","lat":43.2952,"lon":5.37535,"is_reserved":false,"is_disabled":false,"rental_uris":{"android":"levelo://app?vid=744b497d-90f8-4674-be6c-d52d0d2640c2","ios":"levelo://app?vid=744b497d-90f8-4674-be6c-d52d0d2640c2"},"vehicle_type_id":"4","last_reported":1745439141,"current_range_meters":16800,"station_id":"ce4bgkp2rcd13ifvqbmg","pricing_plan_id":"cebpf4jnsgd1na2vs0mg"},{"bike_id":"8ab2ed8d-364c-4252-a36f-2dad9a4f2a15","system_id":"levelo_inurba_marseille","lat":43.23962,"lon":5.36632,"is_reserved":false,"is_disabled":false,"rental_uris":{"android":"levelo://app?vid=8ab2ed8d-364c-4252-a36f-2dad9a4f2a15","ios":"levelo://app?vid=8ab2ed8d-364c-4252-a36f-2dad9a4f2a15"},"vehicle_type_id":"4","last_reported":1745439141,"current_range_meters":16800,"station_id":"ce4bhi12rcd13ifvqfp0","pricing_plan_id":"cebpf4jnsgd1na2vs0mg"},{"bike_id":"168bb419-bbae-4ef3-a8cf-8b16a3287538","system_id":"levelo_inurba_marseille","lat":43.293166,"lon":5.371739,"is_reserved":false,"is_disabled":false,"rental_uris":{"android":"levelo://app?vid=168bb419-bbae-4ef3-a8cf-8b16a3287538","ios":"levelo://app?vid=168bb419-bbae-4ef3-a8cf-8b16a3287538"},"vehicle_type_id":"4","last_reported":1745439141,"current_range_meters":16800,"station_id":"ce4bhgh2rcd13ifvqfa0","pricing_plan_id":"cebpf4jnsgd1na2vs0mg"},{"bike_id":"d2f9ab38-d77b-417d-8e17-1403be698e41","system_id":"levelo_inurba_marseille","lat":43.24017,"lon":5.37704,"is_reserved":false,"is_disabled":false,"rental_uris":{"android":"levelo://app?vid=d2f9ab38-d77b-417d-8e17-1403be698e41","ios":"levelo://app?vid=d2f9ab38-d77b-417d-8e17-1403be698e41"},"vehicle_type_id":"4","last_reported":1745439141,"current_range_meters":16800,"station_id":"ce4bhnp2rcd13ifvqgvg","pricing_plan_id":"cebpf4jnsgd1na2vs0mg"},{"bike_id":"8d45bee7-bfce-433b-98c1-8f404b9b27b1","system_id":"levelo_inurba_marseille","lat":43.29865,"lon":5.39743,"is_reserved":false,"is_disabled":false,"rental_uris":{"android":"levelo://app?vid=8d45bee7-bfce-433b-98c1-8f404b9b27b1","ios":"levelo://app?vid=8d45bee7-bfce-433b-98c1-8f404b9b27b1"},"vehicle_type_id":"4","last_reported":1745439141,"current_range_meters":16800,"station_id":"ce4bh0h2rcd13ifvqd50","pricing_plan_id":"cebpf4jnsgd1na2vs0mg"},{"bike_id":"d99abc64-fc5e-4365-b2fd-7591e88627e8","system_id":"levelo_inurba_marseille","lat":43.31382,"lon":5.38498,"is_reserved":false,"is_disabled":false,"rental_uris":{"android":"levelo://app?vid=d99abc64-fc5e-4365-b2fd-7591e88627e8","ios":"levelo://app?vid=d99abc64-fc5e-4365-b2fd-7591e88627e8"},"vehicle_type_id":"4","last_reported":1745439141,"current_range_meters":16800,"station_id":"ce4bgt92rcd13ifvqcf0","pricing_plan_id":"cebpf4jnsgd1na2vs0mg"},{"bike_id":"d72cb5a9-505e-4cd0-aedd-a14239300a76","system_id":"levelo_inurba_marseille","lat":43.31235,"lon":5.36861,"is_reserved":false,"is_disabled":false,"rental_uris":{"android":"levelo://app?vid=d72cb5a9-505e-4cd0-aedd-a14239300a76","ios":"levelo://app?vid=d72cb5a9-505e-4cd0-aedd-a14239300a76"},"vehicle_type_id":"4","last_reported":1745439141,"current_range_meters":16800,"station_id":"ce4bgl92rcd13ifvqbq0","pricing_plan_id":"cebpf4jnsgd1na2vs0mg"},{"bike_id":"9ba4710b-9949-449a-9eb6-810b93fe255a","system_id":"levelo_inurba_marseille","lat":43.32475,"lon":5.36572,"is_reserved":false,"is_disabled":false,"rental_uris":{"android":"levelo://app?vid=9ba4710b-9949-449a-9eb6-810b93fe255a","ios":"levelo://app?vid=9ba4710b-9949-449a-9eb6-810b93fe255a"},"vehicle_type_id":"4","last_reported":1745439141,"current_range_meters":18800,"station_id":"ce4bhs12rcd13ifvqhvg","pricing_plan_id":"cebpf4jnsgd1na2vs0mg"},{"bike_id":"8dff3327-c704-4870-8401-73b9c1029785","system_id":"levelo_inurba_marseille","lat":43.25845,"lon":5.39939,"is_reserved":false,"is_disabled":true,"rental_uris":{"android":"levelo://app?vid=8dff3327-c704-4870-8401-73b9c1029785","ios":"levelo://app?vid=8dff3327-c704-4870-8401-73b9c1029785"},"vehicle_type_id":"4","last_reported":1745439141,"current_range_meters":17200,"station_id":"ce4bhl92rcd13ifvqghg","pricing_plan_id":"cebpf4jnsgd1na2vs0mg"},{"bike_id":"5f3c3424-8b6e-46c7-8a09-b16ed1d84059","system_id":"levelo_inurba_marseille","lat":43.24647,"lon":5.38893,"is_reserved":false,"is_disabled":false,"rental_uris":{"android":"levelo://app?vid=5f3c3424-8b6e-46c7-8a09-b16ed1d84059","ios":"levelo://app?vid=5f3c3424-8b6e-46c7-8a09-b16ed1d84059"},"vehicle_type_id":"4","last_reported":1745439141,"current_range_meters":14800,"station_id":"ce4bhg12rcd13ifvqf60","pricing_plan_id":"cebpf4jnsgd1na2vs0mg"},{"bike_id":"b32824d0-5e20-4294-a1f7-3ad2f10189a0","system_id":"levelo_inurba_marseille","lat":43.3107,"lon":5.38358,"is_reserved":false,"is_disabled":false,"rental_uris":{"android":"levelo://app?vid=b32824d0-5e20-4294-a1f7-3ad2f10189a0","ios":"levelo://app?vid=b32824d0-5e20-4294-a1f7-3ad2f10189a0"},"vehicle_type_id":"4","last_reported":1745439141,"current_range_meters":17200,"station_id":"ce4bgv92rcd13ifvqcr0","pricing_plan_id":"cebpf4jnsgd1na2vs0mg"},{"bike_id":"d14bbe39-3680-4a1c-a115-359332b42826","system_id":"levelo_inurba_marseille","lat":43.29031,"lon":5.3863,"is_reserved":false,"is_disabled":false,"rental_uris":{"android":"levelo://app?vid=d14bbe39-3680-4a1c-a115-359332b42826","ios":"levelo://app?vid=d14bbe39-3680-4a1c-a115-359332b42826"},"vehicle_type_id":"4","last_reported":1745439141,"current_range_meters":17200,"station_id":"ce4bh4p2rcd13ifvqe0g","pricing_plan_id":"cebpf4jnsgd1na2vs0mg"},{"bike_id":"6b11b64e-78f5-4f05-8c63-c592e726ebe8","system_id":"levelo_inurba_marseille","lat":43.25109,"lon":5.40349,"is_reserved":false,"is_disabled":false,"rental_uris":{"android":"levelo://app?vid=6b11b64e-78f5-4f05-8c63-c592e726ebe8","ios":"levelo://app?vid=6b11b64e-78f5-4f05-8c63-c592e726ebe8"},"vehicle_type_id":"4","last_reported":1745439141,"current_range_meters":17200,"station_id":"ce4bhlh2rcd13ifvqgig","pricing_plan_id":"cebpf4jnsgd1na2vs0mg"},{"bike_id":"b217c7a4-92b6-4872-91fa-f2c2827250cc","system_id":"levelo_inurba_marseille","lat":43.28823,"lon":5.39242,"is_reserved":false,"is_disabled":false,"rental_uris":{"android":"levelo://app?vid=b217c7a4-92b6-4872-91fa-f2c2827250cc","ios":"levelo://app?vid=b217c7a4-92b6-4872-91fa-f2c2827250cc"},"vehicle_type_id":"4","last_reported":1745439141,"current_range_meters":17200,"station_id":"","pricing_plan_id":"cebpf4jnsgd1na2vs0mg"},{"bike_id":"fa8a552a-d2d3-4e8d-8d8e-02bdba037836","system_id":"levelo_inurba_marseille","lat":43.230668,"lon":5.354898,"is_reserved":false,"is_disabled":false,"rental_uris":{"android":"levelo://app?vid=fa8a552a-d2d3-4e8d-8d8e-02bdba037836","ios":"levelo://app?vid=fa8a552a-d2d3-4e8d-8d8e-02bdba037836"},"vehicle_type_id":"4","last_reported":1745439141,"current_range_meters":17200,"station_id":"cpo3342slgdg3j2ifvpg","pricing_plan_id":"cebpf4jnsgd1na2vs0mg"},{"bike_id":"cd7c50e9-2fe2-4467-ad64-957ff7d0879a","system_id":"levelo_inurba_marseille","lat":43.317,"lon":5.3774,"is_reserved":false,"is_disabled":false,"rental_uris":{"android":"levelo://app?vid=cd7c50e9-2fe2-4467-ad64-957ff7d0879a","ios":"levelo://app?vid=cd7c50e9-2fe2-4467-ad64-957ff7d0879a"},"vehicle_type_id":"4","last_reported":1745439141,"current_range_meters":17200,"station_id":"ce4bgth2rcd13ifvqch0","pricing_plan_id":"cebpf4jnsgd1na2vs0mg"},{"bike_id":"8474b62d-17a3-464a-b403-fa96fd015be7","system_id":"levelo_inurba_marseille","lat":43.27667,"lon":5.38868,"is_reserved":false,"is_disabled":false,"rental_uris":{"android":"levelo://app?vid=8474b62d-17a3-464a-b403-fa96fd015be7","ios":"levelo://app?vid=8474b62d-17a3-464a-b403-fa96fd015be7"},"vehicle_type_id":"4","last_reported":1745439141,"current_range_meters":17200,"station_id":"ce4bhi12rcd13ifvqfo0","pricing_plan_id":"cebpf4jnsgd1na2vs0mg"},{"bike_id":"0ab3f01c-e3de-43e5-8c0a-9d42031791e5","system_id":"levelo_inurba_marseille","lat":43.30921,"lon":5.40136,"is_reserved":false,"is_disabled":false,"rental_uris":{"android":"levelo://app?vid=0ab3f01c-e3de-43e5-8c0a-9d42031791e5","ios":"levelo://app?vid=0ab3f01c-e3de-43e5-8c0a-9d42031791e5"},"vehicle_type_id":"4","last_reported":1745439141,"current_range_meters":17600,"station_id":"ce4bgvp2rcd13ifvqct0","pricing_plan_id":"cebpf4jnsgd1na2vs0mg"},{"bike_id":"87873093-27f5-49a2-8c34-ddd2205add84","system_id":"levelo_inurba_marseille","lat":43.28456,"lon":5.38454,"is_reserved":false,"is_disabled":true,"rental_uris":{"android":"levelo://app?vid=87873093-27f5-49a2-8c34-ddd2205add84","ios":"levelo://app?vid=87873093-27f5-49a2-8c34-ddd2205add84"},"vehicle_type_id":"4","last_reported":1745439141,"current_range_meters":17600,"station_id":"ce4bh512rcd13ifvqe3g","pricing_plan_id":"cebpf4jnsgd1na2vs0mg"},{"bike_id":"db056252-8124-434f-9af5-0f1f48aad5e4","system_id":"levelo_inurba_marseille","lat":43.29185,"lon":5.37146,"is_reserved":false,"is_disabled":false,"rental_uris":{"android":"levelo://app?vid=db056252-8124-434f-9af5-0f1f48aad5e4","ios":"levelo://app?vid=db056252-8124-434f-9af5-0f1f48aad5e4"},"vehicle_type_id":"4","last_reported":1745439141,"current_range_meters":17200,"station_id":"ce4bha92rcd13ifvqeh0","pricing_plan_id":"cebpf4jnsgd1na2vs0mg"},{"bike_id":"2ce4b7f3-b9d9-4b98-a654-e6d1021c8a35","system_id":"levelo_inurba_marseille","lat":43.2988,"lon":5.39732,"is_reserved":false,"is_disabled":false,"rental_uris":{"android":"levelo://app?vid=2ce4b7f3-b9d9-4b98-a654-e6d1021c8a35","ios":"levelo://app?vid=2ce4b7f3-b9d9-4b98-a654-e6d1021c8a35"},"vehicle_type_id":"4","last_reported":1745439141,"current_range_meters":17600,"station_id":"ce4bh0h2rcd13ifvqd50","pricing_plan_id":"cebpf4jnsgd1na2vs0mg"},{"bike_id":"abc0b4f6-6aaa-4af0-849f-9628fbaeeb23","system_id":"levelo_inurba_marseille","lat":43.29165,"lon":5.37157,"is_reserved":false,"is_disabled":false,"rental_uris":{"android":"levelo://app?vid=abc0b4f6-6aaa-4af0-849f-9628fbaeeb23","ios":"levelo://app?vid=abc0b4f6-6aaa-4af0-849f-9628fbaeeb23"},"vehicle_type_id":"4","last_reported":1745439141,"current_range_meters":17200,"station_id":"ce4bha92rcd13ifvqeh0","pricing_plan_id":"cebpf4jnsgd1na2vs0mg"},{"bike_id":"fd65d4b4-4895-43eb-b5d7-edcd6416456b","system_id":"levelo_inurba_marseille","lat":43.28293,"lon":5.35067,"is_reserved":false,"is_disabled":false,"rental_uris":{"android":"levelo://app?vid=fd65d4b4-4895-43eb-b5d7-edcd6416456b","ios":"levelo://app?vid=fd65d4b4-4895-43eb-b5d7-edcd6416456b"},"vehicle_type_id":"4","last_reported":1745439141,"current_range_meters":18000,"station_id":"ce4bhbp2rcd13ifvqerg","pricing_plan_id":"cebpf4jnsgd1na2vs0mg"},{"bike_id":"6d4d4cae-c0ce-4d66-94ac-cdce6c4dcd48","system_id":"levelo_inurba_marseille","lat":43.25719,"lon":5.41115,"is_reserved":false,"is_disabled":false,"rental_uris":{"android":"levelo://app?vid=6d4d4cae-c0ce-4d66-94ac-cdce6c4dcd48","ios":"levelo://app?vid=6d4d4cae-c0ce-4d66-94ac-cdce6c4dcd48"},"vehicle_type_id":"4","last_reported":1745439141,"current_range_meters":18000,"station_id":"ce4bhkp2rcd13ifvqgd0","pricing_plan_id":"cebpf4jnsgd1na2vs0mg"},{"bike_id":"6a1b385f-4c37-4399-89d8-2a1bce2af65b","system_id":"levelo_inurba_marseille","lat":43.33748,"lon":5.39169,"is_reserved":false,"is_disabled":false,"rental_uris":{"android":"levelo://app?vid=6a1b385f-4c37-4399-89d8-2a1bce2af65b","ios":"levelo://app?vid=6a1b385f-4c37-4399-89d8-2a1bce2af65b"},"vehicle_type_id":"4","last_reported":1745439141,"current_range_meters":18000,"station_id":"ce4bhr92rcd13ifvqhsg","pricing_plan_id":"cebpf4jnsgd1na2vs0mg"},{"bike_id":"02abeefe-a9d2-46dc-bb91-4bbf72551264","system_id":"levelo_inurba_marseille","lat":43.29251,"lon":5.38442,"is_reserved":false,"is_disabled":false,"rental_uris":{"android":"levelo://app?vid=02abeefe-a9d2-46dc-bb91-4bbf72551264","ios":"levelo://app?vid=02abeefe-a9d2-46dc-bb91-4bbf72551264"},"vehicle_type_id":"4","last_reported":1745439141,"current_range_meters":18000,"station_id":"ce4bh692rcd13ifvqea0","pricing_plan_id":"cebpf4jnsgd1na2vs0mg"},{"bike_id":"e63cd002-6ad1-4d6f-8d27-da2296ed4abf","system_id":"levelo_inurba_marseille","lat":43.29016,"lon":5.38616,"is_reserved":false,"is_disabled":false,"rental_uris":{"android":"levelo://app?vid=e63cd002-6ad1-4d6f-8d27-da2296ed4abf","ios":"levelo://app?vid=e63cd002-6ad1-4d6f-8d27-da2296ed4abf"},"vehicle_type_id":"4","last_reported":1745439141,"current_range_meters":18000,"station_id":"ce4bh4p2rcd13ifvqe0g","pricing_plan_id":"cebpf4jnsgd1na2vs0mg"},{"bike_id":"e2de0db0-ec50-44a0-b7a0-f453bf5c983d","system_id":"levelo_inurba_marseille","lat":43.30893,"lon":5.37198,"is_reserved":false,"is_disabled":false,"rental_uris":{"android":"levelo://app?vid=e2de0db0-ec50-44a0-b7a0-f453bf5c983d","ios":"levelo://app?vid=e2de0db0-ec50-44a0-b7a0-f453bf5c983d"},"vehicle_type_id":"4","last_reported":1745439141,"current_range_meters":17600,"station_id":"ce4bguh2rcd13ifvqckg","pricing_plan_id":"cebpf4jnsgd1na2vs0mg"},{"bike_id":"bd14c086-b21e-4360-b45c-7cb79e1d9f0e","system_id":"levelo_inurba_marseille","lat":43.31081,"lon":5.3835,"is_reserved":false,"is_disabled":false,"rental_uris":{"android":"levelo://app?vid=bd14c086-b21e-4360-b45c-7cb79e1d9f0e","ios":"levelo://app?vid=bd14c086-b21e-4360-b45c-7cb79e1d9f0e"},"vehicle_type_id":"4","last_reported":1745439141,"current_range_meters":18000,"station_id":"ce4bgv92rcd13ifvqcr0","pricing_plan_id":"cebpf4jnsgd1na2vs0mg"},{"bike_id":"a27b02de-b285-415b-8f35-d78f05d05fdf","system_id":"levelo_inurba_marseille","lat":43.28936,"lon":5.36632,"is_reserved":false,"is_disabled":false,"rental_uris":{"android":"levelo://app?vid=a27b02de-b285-415b-8f35-d78f05d05fdf","ios":"levelo://app?vid=a27b02de-b285-415b-8f35-d78f05d05fdf"},"vehicle_type_id":"4","last_reported":1745439141,"current_range_meters":18000,"station_id":"ce4bhap2rcd13ifvqek0","pricing_plan_id":"cebpf4jnsgd1na2vs0mg"},{"bike_id":"aeb5cd4e-f4f1-494f-a631-a248a581abe4","system_id":"levelo_inurba_marseille","lat":43.295324,"lon":5.385441,"is_reserved":false,"is_disabled":false,"rental_uris":{"android":"levelo://app?vid=aeb5cd4e-f4f1-494f-a631-a248a581abe4","ios":"levelo://app?vid=aeb5cd4e-f4f1-494f-a631-a248a581abe4"},"vehicle_type_id":"4","last_reported":1745439141,"current_range_meters":18000,"station_id":"ce4bgih2rcd13ifvqba0","pricing_plan_id":"cebpf4jnsgd1na2vs0mg"},{"bike_id":"4f68919f-000c-4a19-8495-0f5b6db98860","system_id":"levelo_inurba_marseille","lat":43.24671,"lon":5.38149,"is_reserved":false,"is_disabled":false,"rental_uris":{"android":"levelo://app?vid=4f68919f-000c-4a19-8495-0f5b6db98860","ios":"levelo://app?vid=4f68919f-000c-4a19-8495-0f5b6db98860"},"vehicle_type_id":"4","last_reported":1745439141,"current_range_meters":18800,"station_id":"ce4bhih2rcd13ifvqfr0","pricing_plan_id":"cebpf4jnsgd1na2vs0mg"},{"bike_id":"007b8d99-d89d-47a6-9fef-850944abb7db","system_id":"levelo_inurba_marseille","lat":43.31149,"lon":5.38727,"is_reserved":false,"is_disabled":false,"rental_uris":{"android":"levelo://app?vid=007b8d99-d89d-47a6-9fef-850944abb7db","ios":"levelo://app?vid=007b8d99-d89d-47a6-9fef-850944abb7db"},"vehicle_type_id":"4","last_reported":1745439141,"current_range_meters":18800,"station_id":"ce4bgv12rcd13ifvqcp0","pricing_plan_id":"cebpf4jnsgd1na2vs0mg"},{"bike_id":"452dd2ad-06aa-48d3-a4a0-0126a9e765e8","system_id":"levelo_inurba_marseille","lat":43.23953,"lon":5.36636,"is_reserved":false,"is_disabled":false,"rental_uris":{"android":"levelo://app?vid=452dd2ad-06aa-48d3-a4a0-0126a9e765e8","ios":"levelo://app?vid=452dd2ad-06aa-48d3-a4a0-0126a9e765e8"},"vehicle_type_id":"4","last_reported":1745439141,"current_range_meters":18800,"station_id":"ce4bhi12rcd13ifvqfp0","pricing_plan_id":"cebpf4jnsgd1na2vs0mg"},{"bike_id":"5dd12b3b-eef7-4dab-a6de-2ed4ff99da38","system_id":"levelo_inurba_marseille","lat":43.29038,"lon":5.37556,"is_reserved":false,"is_disabled":true,"rental_uris":{"android":"levelo://app?vid=5dd12b3b-eef7-4dab-a6de-2ed4ff99da38","ios":"levelo://app?vid=5dd12b3b-eef7-4dab-a6de-2ed4ff99da38"},"vehicle_type_id":"4","last_reported":1745439141,"current_range_meters":18800,"station_id":"ce4bh692rcd13ifvqe90","pricing_plan_id":"cebpf4jnsgd1na2vs0mg"},{"bike_id":"ab660249-0742-4ee6-9f3c-cbf7eabd0145","system_id":"levelo_inurba_marseille","lat":43.28604,"lon":5.3707,"is_reserved":false,"is_disabled":false,"rental_uris":{"android":"levelo://app?vid=ab660249-0742-4ee6-9f3c-cbf7eabd0145","ios":"levelo://app?vid=ab660249-0742-4ee6-9f3c-cbf7eabd0145"},"vehicle_type_id":"4","last_reported":1745439141,"current_range_meters":18800,"station_id":"ce4bht12rcd13ifvqi60","pricing_plan_id":"cebpf4jnsgd1na2vs0mg"},{"bike_id":"f77ff247-dda1-4996-9576-8d16c2dd9342","system_id":"levelo_inurba_marseille","lat":43.28952,"lon":5.3663,"is_reserved":false,"is_disabled":false,"rental_uris":{"android":"levelo://app?vid=f77ff247-dda1-4996-9576-8d16c2dd9342","ios":"levelo://app?vid=f77ff247-dda1-4996-9576-8d16c2dd9342"},"vehicle_type_id":"4","last_reported":1745439141,"current_range_meters":18800,"station_id":"ce4bhap2rcd13ifvqek0","pricing_plan_id":"cebpf4jnsgd1na2vs0mg"},{"bike_id":"334c6f92-13fa-4dea-9481-687f7c46de84","system_id":"levelo_inurba_marseille","lat":43.32658,"lon":5.36717,"is_reserved":false,"is_disabled":false,"rental_uris":{"android":"levelo://app?vid=334c6f92-13fa-4dea-9481-687f7c46de84","ios":"levelo://app?vid=334c6f92-13fa-4dea-9481-687f7c46de84"},"vehicle_type_id":"4","last_reported":1745439141,"current_range_meters":18800,"station_id":"","pricing_plan_id":"cebpf4jnsgd1na2vs0mg"},{"bike_id":"6fa93a30-9477-472b-911d-f334fbcc0d65","system_id":"levelo_inurba_marseille","lat":43.3015,"lon":5.38777,"is_reserved":false,"is_disabled":true,"rental_uris":{"android":"levelo://app?vid=6fa93a30-9477-472b-911d-f334fbcc0d65","ios":"levelo://app?vid=6fa93a30-9477-472b-911d-f334fbcc0d65"},"vehicle_type_id":"4","last_reported":1745439141,"current_range_meters":18800,"station_id":"ce4bghh2rcd13ifvqb60","pricing_plan_id":"cebpf4jnsgd1na2vs0mg"},{"bike_id":"37c023cf-4438-4a0a-93fa-5c4a100ea29e","system_id":"levelo_inurba_marseille","lat":43.31683,"lon":5.40477,"is_reserved":false,"is_disabled":false,"rental_uris":{"android":"levelo://app?vid=37c023cf-4438-4a0a-93fa-5c4a100ea29e","ios":"levelo://app?vid=37c023cf-4438-4a0a-93fa-5c4a100ea29e"},"vehicle_type_id":"4","last_reported":1745439141,"current_range_meters":18800,"station_id":"ce4bh012rcd13ifvqd00","pricing_plan_id":"cebpf4jnsgd1na2vs0mg"},{"bike_id":"d22ea4f2-8f98-44d3-90ff-4f9c723e6d2a","system_id":"levelo_inurba_marseille","lat":43.23954,"lon":5.36635,"is_reserved":false,"is_disabled":false,"rental_uris":{"android":"levelo://app?vid=d22ea4f2-8f98-44d3-90ff-4f9c723e6d2a","ios":"levelo://app?vid=d22ea4f2-8f98-44d3-90ff-4f9c723e6d2a"},"vehicle_type_id":"4","last_reported":1745439141,"current_range_meters":18800,"station_id":"ce4bhi12rcd13ifvqfp0","pricing_plan_id":"cebpf4jnsgd1na2vs0mg"},{"bike_id":"05789d63-1a14-4489-aad6-4361ab4352d6","system_id":"levelo_inurba_marseille","lat":43.31313,"lon":5.39701,"is_reserved":false,"is_disabled":false,"rental_uris":{"android":"levelo://app?vid=05789d63-1a14-4489-aad6-4361ab4352d6","ios":"levelo://app?vid=05789d63-1a14-4489-aad6-4361ab4352d6"},"vehicle_type_id":"4","last_reported":1745439141,"current_range_meters":18800,"station_id":"ce4bgvp2rcd13ifvqcu0","pricing_plan_id":"cebpf4jnsgd1na2vs0mg"},{"bike_id":"a5ccf778-40c7-43d1-8d46-99c2c68b3f38","system_id":"levelo_inurba_marseille","lat":43.28458,"lon":5.35895,"is_reserved":false,"is_disabled":false,"rental_uris":{"android":"levelo://app?vid=a5ccf778-40c7-43d1-8d46-99c2c68b3f38","ios":"levelo://app?vid=a5ccf778-40c7-43d1-8d46-99c2c68b3f38"},"vehicle_type_id":"4","last_reported":1745439141,"current_range_meters":19200,"station_id":"ce4bhah2rcd13ifvqei0","pricing_plan_id":"cebpf4jnsgd1na2vs0mg"},{"bike_id":"68d0ae5a-e8ca-4cca-8a98-a96c8c381da2","system_id":"levelo_inurba_marseille","lat":43.29839,"lon":5.36276,"is_reserved":false,"is_disabled":false,"rental_uris":{"android":"levelo://app?vid=68d0ae5a-e8ca-4cca-8a98-a96c8c381da2","ios":"levelo://app?vid=68d0ae5a-e8ca-4cca-8a98-a96c8c381da2"},"vehicle_type_id":"4","last_reported":1745439141,"current_range_meters":19200,"station_id":"ce4bgpp2rcd13ifvqc3g","pricing_plan_id":"cebpf4jnsgd1na2vs0mg"},{"bike_id":"19b1e669-c0ec-46a9-8c21-4f491a13468c","system_id":"levelo_inurba_marseille","lat":43.29531,"lon":5.38549,"is_reserved":false,"is_disabled":true,"rental_uris":{"android":"levelo://app?vid=19b1e669-c0ec-46a9-8c21-4f491a13468c","ios":"levelo://app?vid=19b1e669-c0ec-46a9-8c21-4f491a13468c"},"vehicle_type_id":"4","last_reported":1745439141,"current_range_meters":19200,"station_id":"ce4bgih2rcd13ifvqba0","pricing_plan_id":"cebpf4jnsgd1na2vs0mg"},{"bike_id":"0ff305e3-06b3-46ee-ae63-8fdc68e39216","system_id":"levelo_inurba_marseille","lat":43.30088,"lon":5.39085,"is_reserved":false,"is_disabled":false,"rental_uris":{"android":"levelo://app?vid=0ff305e3-06b3-46ee-ae63-8fdc68e39216","ios":"levelo://app?vid=0ff305e3-06b3-46ee-ae63-8fdc68e39216"},"vehicle_type_id":"4","last_reported":1745439141,"current_range_meters":19200,"station_id":"ce4bh192rcd13ifvqdb0","pricing_plan_id":"cebpf4jnsgd1na2vs0mg"},{"bike_id":"a8d73a12-c6a3-42b2-8269-7e15be63d656","system_id":"levelo_inurba_marseille","lat":43.29414,"lon":5.38626,"is_reserved":false,"is_disabled":false,"rental_uris":{"android":"levelo://app?vid=a8d73a12-c6a3-42b2-8269-7e15be63d656","ios":"levelo://app?vid=a8d73a12-c6a3-42b2-8269-7e15be63d656"},"vehicle_type_id":"4","last_reported":1745439141,"current_range_meters":19200,"station_id":"ce4bh2h2rcd13ifvqdh0","pricing_plan_id":"cebpf4jnsgd1na2vs0mg"},{"bike_id":"8b43b1fb-5cab-4db8-ae05-f66514d8855e","system_id":"levelo_inurba_marseille","lat":43.31258,"lon":5.37325,"is_reserved":false,"is_disabled":false,"rental_uris":{"android":"levelo://app?vid=8b43b1fb-5cab-4db8-ae05-f66514d8855e","ios":"levelo://app?vid=8b43b1fb-5cab-4db8-ae05-f66514d8855e"},"vehicle_type_id":"4","last_reported":1745439141,"current_range_meters":19200,"station_id":"","pricing_plan_id":"cebpf4jnsgd1na2vs0mg"},{"bike_id":"6d51da42-143e-4c42-8c35-29bec0272d31","system_id":"levelo_inurba_marseille","lat":43.28002,"lon":5.40007,"is_reserved":false,"is_disabled":false,"rental_uris":{"android":"levelo://app?vid=6d51da42-143e-4c42-8c35-29bec0272d31","ios":"levelo://app?vid=6d51da42-143e-4c42-8c35-29bec0272d31"},"vehicle_type_id":"4","last_reported":1745439141,"current_range_meters":19200,"station_id":"ce4bho92rcd13ifvqh4g","pricing_plan_id":"cebpf4jnsgd1na2vs0mg"},{"bike_id":"2655adba-5bd9-4da0-8cd3-5bc0123170f2","system_id":"levelo_inurba_marseille","lat":43.313643,"lon":5.384883,"is_reserved":false,"is_disabled":false,"rental_uris":{"android":"levelo://app?vid=2655adba-5bd9-4da0-8cd3-5bc0123170f2","ios":"levelo://app?vid=2655adba-5bd9-4da0-8cd3-5bc0123170f2"},"vehicle_type_id":"4","last_reported":1745439141,"current_range_meters":18800,"station_id":"ce4bgt92rcd13ifvqcf0","pricing_plan_id":"cebpf4jnsgd1na2vs0mg"},{"bike_id":"d67e280a-f708-44d7-ac1f-37a8ebf5003e","system_id":"levelo_inurba_marseille","lat":43.30192,"lon":5.39392,"is_reserved":false,"is_disabled":false,"rental_uris":{"android":"levelo://app?vid=d67e280a-f708-44d7-ac1f-37a8ebf5003e","ios":"levelo://app?vid=d67e280a-f708-44d7-ac1f-37a8ebf5003e"},"vehicle_type_id":"4","last_reported":1745439141,"current_range_meters":19200,"station_id":"","pricing_plan_id":"cebpf4jnsgd1na2vs0mg"},{"bike_id":"f21ab74f-470d-4a17-8c8f-038136cc064a","system_id":"levelo_inurba_marseille","lat":43.30585,"lon":5.3935,"is_reserved":false,"is_disabled":false,"rental_uris":{"android":"levelo://app?vid=f21ab74f-470d-4a17-8c8f-038136cc064a","ios":"levelo://app?vid=f21ab74f-470d-4a17-8c8f-038136cc064a"},"vehicle_type_id":"4","last_reported":1745439141,"current_range_meters":19200,"station_id":"ce4bh0p2rcd13ifvqd80","pricing_plan_id":"cebpf4jnsgd1na2vs0mg"},{"bike_id":"f84a84da-47e8-4864-9fa9-dfb4f507183d","system_id":"levelo_inurba_marseille","lat":43.29527,"lon":5.39036,"is_reserved":false,"is_disabled":false,"rental_uris":{"android":"levelo://app?vid=f84a84da-47e8-4864-9fa9-dfb4f507183d","ios":"levelo://app?vid=f84a84da-47e8-4864-9fa9-dfb4f507183d"},"vehicle_type_id":"4","last_reported":1745439141,"current_range_meters":19200,"station_id":"ce4bh3p2rcd13ifvqdp0","pricing_plan_id":"cebpf4jnsgd1na2vs0mg"},{"bike_id":"396a3d41-9754-4acf-aa46-c0426eec218f","system_id":"levelo_inurba_marseille","lat":43.29832,"lon":5.36248,"is_reserved":false,"is_disabled":false,"rental_uris":{"android":"levelo://app?vid=396a3d41-9754-4acf-aa46-c0426eec218f","ios":"levelo://app?vid=396a3d41-9754-4acf-aa46-c0426eec218f"},"vehicle_type_id":"4","last_reported":1745439141,"current_range_meters":19600,"station_id":"ce4bgpp2rcd13ifvqc3g","pricing_plan_id":"cebpf4jnsgd1na2vs0mg"},{"bike_id":"47190e3f-b500-4537-a213-0b80afe51449","system_id":"levelo_inurba_marseille","lat":43.24657,"lon":5.38161,"is_reserved":false,"is_disabled":false,"rental_uris":{"android":"levelo://app?vid=47190e3f-b500-4537-a213-0b80afe51449","ios":"levelo://app?vid=47190e3f-b500-4537-a213-0b80afe51449"},"vehicle_type_id":"4","last_reported":1745439141,"current_range_meters":19600,"station_id":"ce4bhih2rcd13ifvqfr0","pricing_plan_id":"cebpf4jnsgd1na2vs0mg"},{"bike_id":"83ce8635-e014-4d4b-b4bb-5f7a1fac789e","system_id":"levelo_inurba_marseille","lat":43.267,"lon":5.38258,"is_reserved":false,"is_disabled":true,"rental_uris":{"android":"levelo://app?vid=83ce8635-e014-4d4b-b4bb-5f7a1fac789e","ios":"levelo://app?vid=83ce8635-e014-4d4b-b4bb-5f7a1fac789e"},"vehicle_type_id":"4","last_reported":1745439141,"current_range_meters":19600,"station_id":"ce4bhg92rcd13ifvqf90","pricing_plan_id":"cebpf4jnsgd1na2vs0mg"},{"bike_id":"d189aa01-f401-4b2c-9cd5-f08fb0c17d10","system_id":"levelo_inurba_marseille","lat":43.29842,"lon":5.36282,"is_reserved":false,"is_disabled":false,"rental_uris":{"android":"levelo://app?vid=d189aa01-f401-4b2c-9cd5-f08fb0c17d10","ios":"levelo://app?vid=d189aa01-f401-4b2c-9cd5-f08fb0c17d10"},"vehicle_type_id":"4","last_reported":1745439141,"current_range_meters":19600,"station_id":"ce4bgpp2rcd13ifvqc3g","pricing_plan_id":"cebpf4jnsgd1na2vs0mg"},{"bike_id":"ab8406b2-4f8d-4381-8821-3db52b0a4d4d","system_id":"levelo_inurba_marseille","lat":43.27344,"lon":5.37871,"is_reserved":false,"is_disabled":false,"rental_uris":{"android":"levelo://app?vid=ab8406b2-4f8d-4381-8821-3db52b0a4d4d","ios":"levelo://app?vid=ab8406b2-4f8d-4381-8821-3db52b0a4d4d"},"vehicle_type_id":"4","last_reported":1745439141,"current_range_meters":19600,"station_id":"","pricing_plan_id":"cebpf4jnsgd1na2vs0mg"},{"bike_id":"fa5ca83c-1826-4818-98f1-ef2c2d4b37e0","system_id":"levelo_inurba_marseille","lat":43.2951,"lon":5.39058,"is_reserved":false,"is_disabled":false,"rental_uris":{"android":"levelo://app?vid=fa5ca83c-1826-4818-98f1-ef2c2d4b37e0","ios":"levelo://app?vid=fa5ca83c-1826-4818-98f1-ef2c2d4b37e0"},"vehicle_type_id":"4","last_reported":1745439141,"current_range_meters":19600,"station_id":"ce4bh3p2rcd13ifvqdp0","pricing_plan_id":"cebpf4jnsgd1na2vs0mg"},{"bike_id":"c8cc5bc6-4aee-4811-8513-2b242b7ce89b","system_id":"levelo_inurba_marseille","lat":43.2319,"lon":5.35545,"is_reserved":false,"is_disabled":false,"rental_uris":{"android":"levelo://app?vid=c8cc5bc6-4aee-4811-8513-2b242b7ce89b","ios":"levelo://app?vid=c8cc5bc6-4aee-4811-8513-2b242b7ce89b"},"vehicle_type_id":"4","last_reported":1745439141,"current_range_meters":19600,"station_id":"ce4bhu92rcd13ifvqi70","pricing_plan_id":"cebpf4jnsgd1na2vs0mg"},{"bike_id":"fbae3d13-4305-4309-b90d-8310a9527283","system_id":"levelo_inurba_marseille","lat":43.30825,"lon":5.37658,"is_reserved":false,"is_disabled":false,"rental_uris":{"android":"levelo://app?vid=fbae3d13-4305-4309-b90d-8310a9527283","ios":"levelo://app?vid=fbae3d13-4305-4309-b90d-8310a9527283"},"vehicle_type_id":"4","last_reported":1745439141,"current_range_meters":19600,"station_id":"ce4bgv92rcd13ifvqcq0","pricing_plan_id":"cebpf4jnsgd1na2vs0mg"},{"bike_id":"0a2f3df2-be5d-47f7-97b1-3871d48b5243","system_id":"levelo_inurba_marseille","lat":43.28438,"lon":5.35867,"is_reserved":false,"is_disabled":false,"rental_uris":{"android":"levelo://app?vid=0a2f3df2-be5d-47f7-97b1-3871d48b5243","ios":"levelo://app?vid=0a2f3df2-be5d-47f7-97b1-3871d48b5243"},"vehicle_type_id":"4","last_reported":1745439141,"current_range_meters":19600,"station_id":"ce4bhah2rcd13ifvqei0","pricing_plan_id":"cebpf4jnsgd1na2vs0mg"},{"bike_id":"6074cbe5-a674-4ae3-a6e2-30de81b3636a","system_id":"levelo_inurba_marseille","lat":43.29544,"lon":5.38532,"is_reserved":false,"is_disabled":false,"rental_uris":{"android":"levelo://app?vid=6074cbe5-a674-4ae3-a6e2-30de81b3636a","ios":"levelo://app?vid=6074cbe5-a674-4ae3-a6e2-30de81b3636a"},"vehicle_type_id":"4","last_reported":1745439141,"current_range_meters":19600,"station_id":"ce4bgih2rcd13ifvqba0","pricing_plan_id":"cebpf4jnsgd1na2vs0mg"},{"bike_id":"5d93145b-3803-43da-9ad2-3eb6ff8db475","system_id":"levelo_inurba_marseille","lat":43.2808,"lon":5.39663,"is_reserved":false,"is_disabled":false,"rental_uris":{"android":"levelo://app?vid=5d93145b-3803-43da-9ad2-3eb6ff8db475","ios":"levelo://app?vid=5d93145b-3803-43da-9ad2-3eb6ff8db475"},"vehicle_type_id":"4","last_reported":1745439141,"current_range_meters":20000,"station_id":"ce4bho12rcd13ifvqh2g","pricing_plan_id":"cebpf4jnsgd1na2vs0mg"},{"bike_id":"c5260414-53ea-4c4b-84bd-1a38f855ebd9","system_id":"levelo_inurba_marseille","lat":43.31057,"lon":5.38361,"is_reserved":false,"is_disabled":true,"rental_uris":{"android":"levelo://app?vid=c5260414-53ea-4c4b-84bd-1a38f855ebd9","ios":"levelo://app?vid=c5260414-53ea-4c4b-84bd-1a38f855ebd9"},"vehicle_type_id":"4","last_reported":1745439141,"current_range_meters":20000,"station_id":"ce4bgv92rcd13ifvqcr0","pricing_plan_id":"cebpf4jnsgd1na2vs0mg"},{"bike_id":"96f95ec8-2ec8-4f85-847e-9992741b9ee1","system_id":"levelo_inurba_marseille","lat":43.31056,"lon":5.38353,"is_reserved":false,"is_disabled":false,"rental_uris":{"android":"levelo://app?vid=96f95ec8-2ec8-4f85-847e-9992741b9ee1","ios":"levelo://app?vid=96f95ec8-2ec8-4f85-847e-9992741b9ee1"},"vehicle_type_id":"4","last_reported":1745439141,"current_range_meters":20000,"station_id":"ce4bgv92rcd13ifvqcr0","pricing_plan_id":"cebpf4jnsgd1na2vs0mg"},{"bike_id":"7a38cd50-7a93-4627-806c-1a69d66aceb3","system_id":"levelo_inurba_marseille","lat":43.307945,"lon":5.435299,"is_reserved":false,"is_disabled":false,"rental_uris":{"android":"levelo://app?vid=7a38cd50-7a93-4627-806c-1a69d66aceb3","ios":"levelo://app?vid=7a38cd50-7a93-4627-806c-1a69d66aceb3"},"vehicle_type_id":"4","last_reported":1745439141,"current_range_meters":20400,"station_id":"ce4bhph2rcd13ifvqheg","pricing_plan_id":"cebpf4jnsgd1na2vs0mg"},{"bike_id":"cadd2a19-c37c-493d-b003-1c5753f859f2","system_id":"levelo_inurba_marseille","lat":43.305561,"lon":5.384382,"is_reserved":false,"is_disabled":true,"rental_uris":{"android":"levelo://app?vid=cadd2a19-c37c-493d-b003-1c5753f859f2","ios":"levelo://app?vid=cadd2a19-c37c-493d-b003-1c5753f859f2"},"vehicle_type_id":"4","last_reported":1745439141,"current_range_meters":20400,"station_id":"ce4bgg92rcd13ifvqb30","pricing_plan_id":"cebpf4jnsgd1na2vs0mg"},{"bike_id":"e0475622-ca3c-4cc9-8273-63b58a33d69d","system_id":"levelo_inurba_marseille","lat":43.31715,"lon":5.43718,"is_reserved":false,"is_disabled":false,"rental_uris":{"android":"levelo://app?vid=e0475622-ca3c-4cc9-8273-63b58a33d69d","ios":"levelo://app?vid=e0475622-ca3c-4cc9-8273-63b58a33d69d"},"vehicle_type_id":"4","last_reported":1745439141,"current_range_meters":20400,"station_id":"ce4bhp92rcd13ifvqhcg","pricing_plan_id":"cebpf4jnsgd1na2vs0mg"},{"bike_id":"6b7a32a0-5784-407f-8b32-390ec2c31546","system_id":"levelo_inurba_marseille","lat":43.31534,"lon":5.38024,"is_reserved":false,"is_disabled":false,"rental_uris":{"android":"levelo://app?vid=6b7a32a0-5784-407f-8b32-390ec2c31546","ios":"levelo://app?vid=6b7a32a0-5784-407f-8b32-390ec2c31546"},"vehicle_type_id":"4","last_reported":1745439141,"current_range_meters":20400,"station_id":"ce4bhsp2rcd13ifvqi50","pricing_plan_id":"cebpf4jnsgd1na2vs0mg"},{"bike_id":"7369f2c7-ebee-4ebd-9536-6bdbca072cf3","system_id":"levelo_inurba_marseille","lat":43.28424,"lon":5.34974,"is_reserved":false,"is_disabled":false,"rental_uris":{"android":"levelo://app?vid=7369f2c7-ebee-4ebd-9536-6bdbca072cf3","ios":"levelo://app?vid=7369f2c7-ebee-4ebd-9536-6bdbca072cf3"},"vehicle_type_id":"4","last_reported":1745439141,"current_range_meters":20400,"station_id":"ce4bhbh2rcd13ifvqepg","pricing_plan_id":"cebpf4jnsgd1na2vs0mg"},{"bike_id":"34b8a630-6332-4a7f-8547-0034c7e4c3d7","system_id":"levelo_inurba_marseille","lat":43.29031,"lon":5.38138,"is_reserved":false,"is_disabled":false,"rental_uris":{"android":"levelo://app?vid=34b8a630-6332-4a7f-8547-0034c7e4c3d7","ios":"levelo://app?vid=34b8a630-6332-4a7f-8547-0034c7e4c3d7"},"vehicle_type_id":"4","last_reported":1745439141,"current_range_meters":20400,"station_id":"ce4bh4p2rcd13ifvqe1g","pricing_plan_id":"cebpf4jnsgd1na2vs0mg"},{"bike_id":"f74134c9-fbd7-4c33-bcd9-20ec07469f58","system_id":"levelo_inurba_marseille","lat":43.29555,"lon":5.42272,"is_reserved":false,"is_disabled":false,"rental_uris":{"android":"levelo://app?vid=f74134c9-fbd7-4c33-bcd9-20ec07469f58","ios":"levelo://app?vid=f74134c9-fbd7-4c33-bcd9-20ec07469f58"},"vehicle_type_id":"4","last_reported":1745439141,"current_range_meters":20400,"station_id":"ce4bhph2rcd13ifvqhdg","pricing_plan_id":"cebpf4jnsgd1na2vs0mg"},