{"last_updated":1767242336,"ttl":60,"version":"2.2","data":{"bikes":[{"bike_id":"8a3efd47-0c40-4ea8-a5ed-69012b4b8712","system_id":"levelo_inurba_marseille","lat":43.28517,"lon":5.44061,"is_reserved":false,"is_disabled":false,"rental_uris":{"android":"levelo://app?vid=8a3efd47-0c40-4ea8-a5ed-69012b4b8712","ios":"levelo://app?vid=8a3efd47-0c40-4ea8-a5ed-69012b4b8712"},"vehicle_type_id":"4","last_reported":1767242337,"current_range_meters":2800,"station_id":"st_d3j3df2ikq2c7380ej80","pricing_plan_id":"cebpf4jnsgd1na2vs0mg"},{"bike_id":"a415f9b0-6bd2-4467-a5f5-b875f517c90e","system_id":"levelo_inurba_marseille","lat":43.2895,"lon":5.3963,"is_reserved":false,"is_disabled":false,"rental_uris":{"android":"levelo://app?vid=a415f9b0-6bd2-4467-a5f5-b875f517c90e","ios":"levelo://app?vid=a415f9b0-6bd2-4467-a5f5-b875f517c90e"},"vehicle_type_id":"4","last_reported":1767242337,"current_range_meters":2800,"station_id":"ce4bh3h2rcd13ifvqdn0","pricing_plan_id":"cebpf4jnsgd1na2vs0mg"},{"bike_id":"801eecc4-031c-4bd0-b75f-cb1170b167a6","system_id":"levelo_inurba_marseille","lat":43.27194,"lon":5.40992,"is_reserved":false,"is_disabled":false,"rental_uris":{"android":"levelo://app?vid=801eecc4-031c-4bd0-b75f-cb1170b167a6","ios":"levelo://app?vid=801eecc4-031c-4bd0-b75f-cb1170b167a6"},"vehicle_type_id":"4","last_reported":1767242337,"current_range_meters":3200,"station_id":"ce4bhl12rcd13ifvqgf0","pricing_plan_id":"cebpf4jnsgd1na2vs0mg"},{"bike_id":"25805059-d7c2-453e-9810-443ffc9c8eb7","system_id":"levelo_inurba_marseille","lat":43.29885,"lon":5.38909,"is_reserved":false,"is_disabled":false,"rental_uris":{"android":"levelo://app?vid=25805059-d7c2-453e-9810-443ffc9c8eb7","ios":"levelo://app?vid=25805059-d7c2-453e-9810-443ffc9c8eb7"},"vehicle_type_id":"4","last_reported":1767242337,"current_range_meters":3200,"station_id":"ce4bh392rcd13ifvqdl0","pricing_plan_id":"cebpf4jnsgd1na2vs0mg"},{"bike_id":"f4c65b6f-28a2-40a8-a428-1e8f3572a9dc","system_id":"levelo_inurba_marseille","lat":43.28917,"lon":5.36165,"is_reserved":false,"is_disabled":false,"rental_uris":{"android":"levelo://app?vid=f4c65b6f-28a2-40a8-a428-1e8f3572a9dc","ios":"levelo://app?vid=f4c65b6f-28a2-40a8-a428-1e8f3572a9dc"},"vehicle_type_id":"4","last_reported":1767242337,"current_range_meters":3200,"station_id":"","pricing_plan_id":"cebpf4jnsgd1na2vs0mg"},{"bike_id":"042df0e3-d1fe-40c8-9739-cc4ef36d51d5","system_id":"levelo_inurba_marseille","lat":43.33606,"lon":5.4103,"is_reserved":false,"is_disabled":false,"rental_uris":{"android":"levelo://app?vid=042df0e3-d1fe-40c8-9739-cc4ef36d51d5","ios":"levelo://app?vid=042df0e3-d1fe-40c8-9739-cc4ef36d51d5"},"vehicle_type_id":"4","last_reported":1767242337,"current_range_meters":3200,"station_id":"ce4bhqh2rcd13ifvqhmg","pricing_plan_id":"cebpf4jnsgd1na2vs0mg"},{"bike_id":"5aec6b94-4fe5-4711-96fe-7c261f76fa9b","system_id":"levelo_inurba_marseille","lat":43.29886,"lon":5.38901,"is_reserved":false,"is_disabled":false,"rental_uris":{"android":"levelo://app?vid=5aec6b94-4fe5-4711-96fe-7c261f76fa9b","ios":"levelo://app?vid=5aec6b94-4fe5-4711-96fe-7c261f76fa9b"},"vehicle_type_id":"4","last_reported":1767242337,"current_range_meters":3200,"station_id":"ce4bh392rcd13ifvqdl0","pricing_plan_id":"cebpf4jnsgd1na2vs0mg"},{"bike_id":"cac37c7e-5d3e-4784-9eff-f6fa7145bdb8","system_id":"levelo_inurba_marseille","lat":43.23962,"lon":5.36636,"is_reserved":false,"is_disabled":false,"rental_uris":{"android":"levelo://app?vid=cac37c7e-5d3e-4784-9eff-f6fa7145bdb8","ios":"levelo://app?vid=cac37c7e-5d3e-4784-9eff-f6fa7145bdb8"},"vehicle_type_id":"4","last_reported":1767242337,"current_range_meters":3600,"station_id":"ce4bhi12rcd13ifvqfp0","pricing_plan_id":"cebpf4jnsgd1na2vs0mg"},{"bike_id":"543ecf77-1529-42c1-b1c0-6508b58f3773","system_id":"levelo_inurba_marseille","lat":43.3018,"lon":5.36607,"is_reserved":false,"is_disabled":false,"rental_uris":{"android":"levelo://app?vid=543ecf77-1529-42c1-b1c0-6508b58f3773","ios":"levelo://app?vid=543ecf77-1529-42c1-b1c0-6508b58f3773"},"vehicle_type_id":"4","last_reported":1767242337,"current_range_meters":3600,"station_id":"ce4bgrh2rcd13ifvqc8g","pricing_plan_id":"cebpf4jnsgd1na2vs0mg"},{"bike_id":"1c7f3fa4-8cc8-4d7f-bfa3-4deb054252b1","system_id":"levelo_inurba_marseille","lat":43.29258,"lon":5.409,"is_reserved":false,"is_disabled":false,"rental_uris":{"android":"levelo://app?vid=1c7f3fa4-8cc8-4d7f-bfa3-4deb054252b1","ios":"levelo://app?vid=1c7f3fa4-8cc8-4d7f-bfa3-4deb054252b1"},"vehicle_type_id":"4","last_reported":1767242337,"current_range_meters":3600,"station_id":"ce4bh192rcd13ifvqdc0","pricing_plan_id":"cebpf4jnsgd1na2vs0mg"},{"bike_id":"0886fdfa-e17a-4cb2-aed2-9d41afeb0566","system_id":"levelo_inurba_marseille","lat":43.31073,"lon":5.4243,"is_reserved":false,"is_disabled":false,"rental_uris":{"android":"levelo://app?vid=0886fdfa-e17a-4cb2-aed2-9d41afeb0566","ios":"levelo://app?vid=0886fdfa-e17a-4cb2-aed2-9d41afeb0566"},"vehicle_type_id":"4","last_reported":1767242337,"current_range_meters":3600,"station_id":"ce4bhp92rcd13ifvqhag","pricing_plan_id":"cebpf4jnsgd1na2vs0mg"},{"bike_id":"8948b666-b72d-4467-a9ed-39db870acea5","system_id":"levelo_inurba_marseille","lat":43.30792,"lon":5.39225,"is_reserved":false,"is_disabled":false,"rental_uris":{"android":"levelo://app?vid=8948b666-b72d-4467-a9ed-39db870acea5","ios":"levelo://app?vid=8948b666-b72d-4467-a9ed-39db870acea5"},"vehicle_type_id":"4","last_reported":1767242337,"current_range_meters":4000,"station_id":"","pricing_plan_id":"cebpf4jnsgd1na2vs0mg"},{"bike_id":"6713b5cf-f30e-4658-96d2-8d4ed77c3320","system_id":"levelo_inurba_marseille","lat":43.290682,"lon":5.371653,"is_reserved":false,"is_disabled":false,"rental_uris":{"android":"levelo://app?vid=6713b5cf-f30e-4658-96d2-8d4ed77c3320","ios":"levelo://app?vid=6713b5cf-f30e-4658-96d2-8d4ed77c3320"},"vehicle_type_id":"4","last_reported":1767242337,"current_range_meters":4000,"station_id":"ce4bh5p2rcd13ifvqe4g","pricing_plan_id":"cebpf4jnsgd1na2vs0mg"},{"bike_id":"728d4674-feca-4853-9337-b7bff847bc77","system_id":"levelo_inurba_marseille","lat":43.25485,"lon":5.37652,"is_reserved":false,"is_disabled":false,"rental_uris":{"android":"levelo://app?vid=728d4674-feca-4853-9337-b7bff847bc77","ios":"levelo://app?vid=728d4674-feca-4853-9337-b7bff847bc77"},"vehicle_type_id":"4","last_reported":1767242337,"current_range_meters":4000,"station_id":"ce4bhh12rcd13ifvqff0","pricing_plan_id":"cebpf4jnsgd1na2vs0mg"},{"bike_id":"96b69338-5366-4105-9ab5-171400a87694","system_id":"levelo_inurba_marseille","lat":43.26477,"lon":5.39524,"is_reserved":false,"is_disabled":false,"rental_uris":{"android":"levelo://app?vid=96b69338-5366-4105-9ab5-171400a87694","ios":"levelo://app?vid=96b69338-5366-4105-9ab5-171400a87694"},"vehicle_type_id":"4","last_reported":1767242337,"current_range_meters":4000,"station_id":"ce4bhi12rcd13ifvqfq0","pricing_plan_id":"cebpf4jnsgd1na2vs0mg"},{"bike_id":"742f1e99-972a-4415-9c07-2696da1383a1","system_id":"levelo_inurba_marseille","lat":43.29646,"lon":5.40587,"is_reserved":false,"is_disabled":false,"rental_uris":{"android":"levelo://app?vid=742f1e99-972a-4415-9c07-2696da1383a1","ios":"levelo://app?vid=742f1e99-972a-4415-9c07-2696da1383a1"},"vehicle_type_id":"4","last_reported":1767242337,"current_range_meters":4400,"station_id":"","pricing_plan_id":"cebpf4jnsgd1na2vs0mg"},{"bike_id":"9b9ad663-e75d-410b-845e-d1af21bc21d4","system_id":"levelo_inurba_marseille","lat":43.31252,"lon":5.36808,"is_reserved":false,"is_disabled":false,"rental_uris":{"android":"levelo://app?vid=9b9ad663-e75d-410b-845e-d1af21bc21d4","ios":"levelo://app?vid=9b9ad663-e75d-410b-845e-d1af21bc21d4"},"vehicle_type_id":"4","last_reported":1767242337,"current_range_meters":4400,"station_id":"ce4bgl92rcd13ifvqbq0","pricing_plan_id":"cebpf4jnsgd1na2vs0mg"},{"bike_id":"9ed46802-c72f-4590-903c-df69b3e82537","system_id":"levelo_inurba_marseille","lat":43.2849,"lon":5.44109,"is_reserved":false,"is_disabled":false,"rental_uris":{"android":"levelo://app?vid=9ed46802-c72f-4590-903c-df69b3e82537","ios":"levelo://app?vid=9ed46802-c72f-4590-903c-df69b3e82537"},"vehicle_type_id":"4","last_reported":1767242337,"current_range_meters":4400,"station_id":"st_d3j3df2ikq2c7380ej80","pricing_plan_id":"cebpf4jnsgd1na2vs0mg"},{"bike_id":"219a9606-96bc-46e4-9ea2-1150b5fe492a","system_id":"levelo_inurba_marseille","lat":43.30092,"lon":5.39073,"is_reserved":false,"is_disabled":false,"rental_uris":{"android":"levelo://app?vid=219a9606-96bc-46e4-9ea2-1150b5fe492a","ios":"levelo://app?vid=219a9606-96bc-46e4-9ea2-1150b5fe492a"},"vehicle_type_id":"4","last_reported":1767242337,"current_range_meters":4400,"station_id":"ce4bh192rcd13ifvqdb0","pricing_plan_id":"cebpf4jnsgd1na2vs0mg"},{"bike_id":"7c6af272-d854-4cac-a893-c6faf1234d18","system_id":"levelo_inurba_marseille","lat":43.27058,"lon":5.38311,"is_reserved":false,"is_disabled":false,"rental_uris":{"android":"levelo://app?vid=7c6af272-d854-4cac-a893-c6faf1234d18","ios":"levelo://app?vid=7c6af272-d854-4cac-a893-c6faf1234d18"},"vehicle_type_id":"4","last_reported":1767242337,"current_range_meters":4800,"station_id":"st_d3n2fo6cfp8s73cte1j0","pricing_plan_id":"cebpf4jnsgd1na2vs0mg"},{"bike_id":"c2b69443-bbd5-4d10-9d30-b4aae281dfc1","system_id":"levelo_inurba_marseille","lat":43.30734,"lon":5.371,"is_reserved":false,"is_disabled":false,"rental_uris":{"android":"levelo://app?vid=c2b69443-bbd5-4d10-9d30-b4aae281dfc1","ios":"levelo://app?vid=c2b69443-bbd5-4d10-9d30-b4aae281dfc1"},"vehicle_type_id":"4","last_reported":1767242337,"current_range_meters":4800,"station_id":"","pricing_plan_id":"cebpf4jnsgd1na2vs0mg"},{"bike_id":"3ae180a1-ad81-4fbd-8d8e-5122c1af76f4","system_id":"levelo_inurba_marseille","lat":43.337444,"lon":5.374475,"is_reserved":false,"is_disabled":false,"rental_uris":{"android":"levelo://app?vid=3ae180a1-ad81-4fbd-8d8e-5122c1af76f4","ios":"levelo://app?vid=3ae180a1-ad81-4fbd-8d8e-5122c1af76f4"},"vehicle_type_id":"4","last_reported":1767242337,"current_range_meters":4800,"station_id":"","pricing_plan_id":"cebpf4jnsgd1na2vs0mg"},{"bike_id":"ec5fae6d-47b5-4030-bf64-4af050af9ecb","system_id":"levelo_inurba_marseille","lat":43.30933,"lon":5.37803,"is_reserved":false,"is_disabled":false,"rental_uris":{"android":"levelo://app?vid=ec5fae6d-47b5-4030-bf64-4af050af9ecb","ios":"levelo://app?vid=ec5fae6d-47b5-4030-bf64-4af050af9ecb"},"vehicle_type_id":"4","last_reported":1767242337,"current_range_meters":4800,"station_id":"","pricing_plan_id":"cebpf4jnsgd1na2vs0mg"},{"bike_id":"a29aa530-9c5d-4c5c-bf5d-abcba2c4208a","system_id":"levelo_inurba_marseille","lat":43.33606,"lon":5.41031,"is_reserved":false,"is_disabled":false,"rental_uris":{"android":"levelo://app?vid=a29aa530-9c5d-4c5c-bf5d-abcba2c4208a","ios":"levelo://app?vid=a29aa530-9c5d-4c5c-bf5d-abcba2c4208a"},"vehicle_type_id":"4","last_reported":1767242337,"current_range_meters":4800,"station_id":"ce4bhqh2rcd13ifvqhmg","pricing_plan_id":"cebpf4jnsgd1na2vs0mg"},{"bike_id":"32cca5aa-f31c-4dff-906d-d86d633f564f","system_id":"levelo_inurba_marseille","lat":43.22911,"lon":5.35375,"is_reserved":false,"is_disabled":false,"rental_uris":{"android":"levelo://app?vid=32cca5aa-f31c-4dff-906d-d86d633f564f","ios":"levelo://app?vid=32cca5aa-f31c-4dff-906d-d86d633f564f"},"vehicle_type_id":"4","last_reported":1767242337,"current_range_meters":4800,"station_id":"cpo3532slgdg3j2ikp40","pricing_plan_id":"cebpf4jnsgd1na2vs0mg"},{"bike_id":"b2c1daea-8894-42d5-8798-fd144632dab0","system_id":"levelo_inurba_marseille","lat":43.28413,"lon":5.34984,"is_reserved":false,"is_disabled":false,"rental_uris":{"android":"levelo://app?vid=b2c1daea-8894-42d5-8798-fd144632dab0","ios":"levelo://app?vid=b2c1daea-8894-42d5-8798-fd144632dab0"},"vehicle_type_id":"4","last_reported":1767242337,"current_range_meters":5600,"station_id":"ce4bhbh2rcd13ifvqepg","pricing_plan_id":"cebpf4jnsgd1na2vs0mg"},{"bike_id":"00a0c646-63e8-469a-a5a1-1eab93f7e1cc","system_id":"levelo_inurba_marseille","lat":43.30105,"lon":5.39072,"is_reserved":false,"is_disabled":false,"rental_uris":{"android":"levelo://app?vid=00a0c646-63e8-469a-a5a1-1eab93f7e1cc","ios":"levelo://app?vid=00a0c646-63e8-469a-a5a1-1eab93f7e1cc"},"vehicle_type_id":"4","last_reported":1767242337,"current_range_meters":5600,"station_id":"ce4bh192rcd13ifvqdb0","pricing_plan_id":"cebpf4jnsgd1na2vs0mg"},{"bike_id":"b18550f7-8a14-4198-9ea9-bab129eb3443","system_id":"levelo_inurba_marseille","lat":43.3066,"lon":5.39281,"is_reserved":false,"is_disabled":false,"rental_uris":{"android":"levelo://app?vid=b18550f7-8a14-4198-9ea9-bab129eb3443","ios":"levelo://app?vid=b18550f7-8a14-4198-9ea9-bab129eb3443"},"vehicle_type_id":"4","last_reported":1767242337,"current_range_meters":5600,"station_id":"","pricing_plan_id":"cebpf4jnsgd1na2vs0mg"},{"bike_id":"553dc950-9a8c-463e-bd3c-210b3d4af814","system_id":"levelo_inurba_marseille","lat":43.29232,"lon":5.36063,"is_reserved":false,"is_disabled":true,"rental_uris":{"android":"levelo://app?vid=553dc950-9a8c-463e-bd3c-210b3d4af814","ios":"levelo://app?vid=553dc950-9a8c-463e-bd3c-210b3d4af814"},"vehicle_type_id":"4","last_reported":1767242337,"current_range_meters":5600,"station_id":"ce4bhbh2rcd13ifvqeqg","pricing_plan_id":"cebpf4jnsgd1na2vs0mg"},{"bike_id":"523cad9a-85a3-4d81-85d6-91af8ea65ff5","system_id":"levelo_inurba_marseille","lat":43.29713,"lon":5.36619,"is_reserved":false,"is_disabled":false,"rental_uris":{"android":"levelo://app?vid=523cad9a-85a3-4d81-85d6-91af8ea65ff5","ios":"levelo://app?vid=523cad9a-85a3-4d81-85d6-91af8ea65ff5"},"vehicle_type_id":"4","last_reported":1767242337,"current_range_meters":5600,"station_id":"ce4bgn12rcd13ifvqbt0","pricing_plan_id":"cebpf4jnsgd1na2vs0mg"},{"bike_id":"f591bc23-6dfd-4e5f-b7c7-6174e4097efe","system_id":"levelo_inurba_marseille","lat":43.281558,"lon":5.426449,"is_reserved":false,"is_disabled":false,"rental_uris":{"android":"levelo://app?vid=f591bc23-6dfd-4e5f-b7c7-6174e4097efe","ios":"levelo://app?vid=f591bc23-6dfd-4e5f-b7c7-6174e4097efe"},"vehicle_type_id":"4","last_reported":1767242337,"current_range_meters":6000,"station_id":"ce4bhnh2rcd13ifvqgug","pricing_plan_id":"cebpf4jnsgd1na2vs0mg"},{"bike_id":"29bbd316-a3ba-4fba-9255-99b4397329c1","system_id":"levelo_inurba_marseille","lat":43.24969,"lon":5.405,"is_reserved":false,"is_disabled":false,"rental_uris":{"android":"levelo://app?vid=29bbd316-a3ba-4fba-9255-99b4397329c1","ios":"levelo://app?vid=29bbd316-a3ba-4fba-9255-99b4397329c1"},"vehicle_type_id":"4","last_reported":1767242337,"current_range_meters":6000,"station_id":"st_d2ngiaodas8pm72gd1h0","pricing_plan_id":"cebpf4jnsgd1na2vs0mg"},{"bike_id":"9888b5da-e0d5-4188-9d7f-f5367be9e83e","system_id":"levelo_inurba_marseille","lat":43.30337,"lon":5.39175,"is_reserved":false,"is_disabled":false,"rental_uris":{"android":"levelo://app?vid=9888b5da-e0d5-4188-9d7f-f5367be9e83e","ios":"levelo://app?vid=9888b5da-e0d5-4188-9d7f-f5367be9e83e"},"vehicle_type_id":"4","last_reported":1767242337,"current_range_meters":6000,"station_id":"ce4bgkh2rcd13ifvqbk0","pricing_plan_id":"cebpf4jnsgd1na2vs0mg"},{"bike_id":"1ec0791e-3746-44ff-a85c-fa1207b9bf0d","system_id":"levelo_inurba_marseille","lat":43.24944,"lon":5.40489,"is_reserved":false,"is_disabled":false,"rental_uris":{"android":"levelo://app?vid=1ec0791e-3746-44ff-a85c-fa1207b9bf0d","ios":"levelo://app?vid=1ec0791e-3746-44ff-a85c-fa1207b9bf0d"},"vehicle_type_id":"4","last_reported":1767242337,"current_range_meters":6000,"station_id":"st_d2ngiaodas8pm72gd1h0","pricing_plan_id":"cebpf4jnsgd1na2vs0mg"},{"bike_id":"9ce3dc9f-f62c-499a-98dc-3a924e3ec5df","system_id":"levelo_inurba_marseille","lat":43.26938,"lon":5.40245,"is_reserved":false,"is_disabled":false,"rental_uris":{"android":"levelo://app?vid=9ce3dc9f-f62c-499a-98dc-3a924e3ec5df","ios":"levelo://app?vid=9ce3dc9f-f62c-499a-98dc-3a924e3ec5df"},"vehicle_type_id":"4","last_reported":1767242337,"current_range_meters":6000,"station_id":"cjm6bp8fraef2m0cb0m0","pricing_plan_id":"cebpf4jnsgd1na2vs0mg"},{"bike_id":"41069fea-96c4-45bf-816c-b1152be2e8c4","system_id":"levelo_inurba_marseille","lat":43.25335,"lon":5.42171,"is_reserved":false,"is_disabled":false,"rental_uris":{"android":"levelo://app?vid=41069fea-96c4-45bf-816c-b1152be2e8c4","ios":"levelo://app?vid=41069fea-96c4-45bf-816c-b1152be2e8c4"},"vehicle_type_id":"4","last_reported":1767242337,"current_range_meters":6400,"station_id":"st_d2m65c5bi1j21697t3ng","pricing_plan_id":"cebpf4jnsgd1na2vs0mg"},{"bike_id":"33c9eaf0-680b-4a68-82f8-7d87f07e6e13","system_id":"levelo_inurba_marseille","lat":43.265,"lon":5.39543,"is_reserved":false,"is_disabled":false,"rental_uris":{"android":"levelo://app?vid=33c9eaf0-680b-4a68-82f8-7d87f07e6e13","ios":"levelo://app?vid=33c9eaf0-680b-4a68-82f8-7d87f07e6e13"},"vehicle_type_id":"4","last_reported":1767242337,"current_range_meters":6400,"station_id":"ce4bhi12rcd13ifvqfq0","pricing_plan_id":"cebpf4jnsgd1na2vs0mg"},{"bike_id":"efd33062-2cef-445f-af98-648f578e9c2a","system_id":"levelo_inurba_marseille","lat":43.32615,"lon":5.41987,"is_reserved":false,"is_disabled":false,"rental_uris":{"android":"levelo://app?vid=efd33062-2cef-445f-af98-648f578e9c2a","ios":"levelo://app?vid=efd33062-2cef-445f-af98-648f578e9c2a"},"vehicle_type_id":"4","last_reported":1767242337,"current_range_meters":6400,"station_id":"","pricing_plan_id":"cebpf4jnsgd1na2vs0mg"},{"bike_id":"0ab0ac30-af99-432a-96b6-33a463626c8b","system_id":"levelo_inurba_marseille","lat":43.29203,"lon":5.3581,"is_reserved":false,"is_disabled":false,"rental_uris":{"android":"levelo://app?vid=0ab0ac30-af99-432a-96b6-33a463626c8b","ios":"levelo://app?vid=0ab0ac30-af99-432a-96b6-33a463626c8b"},"vehicle_type_id":"4","last_reported":1767242337,"current_range_meters":6400,"station_id":"ce4bhb12rcd13ifvqel0","pricing_plan_id":"cebpf4jnsgd1na2vs0mg"},{"bike_id":"dc9feb7e-742c-4c15-83bb-7db4fa4848d4","system_id":"levelo_inurba_marseille","lat":43.3226,"lon":5.38956,"is_reserved":false,"is_disabled":false,"rental_uris":{"android":"levelo://app?vid=dc9feb7e-742c-4c15-83bb-7db4fa4848d4","ios":"levelo://app?vid=dc9feb7e-742c-4c15-83bb-7db4fa4848d4"},"vehicle_type_id":"4","last_reported":1767242337,"current_range_meters":6400,"station_id":"","pricing_plan_id":"cebpf4jnsgd1na2vs0mg"},{"bike_id":"54f6ec4b-5c5e-4e7c-a924-d8d70c9ee744","system_id":"levelo_inurba_marseille","lat":43.30381,"lon":5.39746,"is_reserved":false,"is_disabled":false,"rental_uris":{"android":"levelo://app?vid=54f6ec4b-5c5e-4e7c-a924-d8d70c9ee744","ios":"levelo://app?vid=54f6ec4b-5c5e-4e7c-a924-d8d70c9ee744"},"vehicle_type_id":"4","last_reported":1767242337,"current_range_meters":6400,"station_id":"","pricing_plan_id":"cebpf4jnsgd1na2vs0mg"},{"bike_id":"06c4d338-d931-4d47-bc90-4f996833d006","system_id":"levelo_inurba_marseille","lat":43.27181,"lon":5.390489,"is_reserved":false,"is_disabled":false,"rental_uris":{"android":"levelo://app?vid=06c4d338-d931-4d47-bc90-4f996833d006","ios":"levelo://app?vid=06c4d338-d931-4d47-bc90-4f996833d006"},"vehicle_type_id":"4","last_reported":1767242337,"current_range_meters":6400,"station_id":"ce4bhhp2rcd13ifvqfm0","pricing_plan_id":"cebpf4jnsgd1na2vs0mg"},{"bike_id":"b4098f1a-d0d4-449e-8855-fc6d6f8bf91b","system_id":"levelo_inurba_marseille","lat":43.29798,"lon":5.40416,"is_reserved":false,"is_disabled":false,"rental_uris":{"android":"levelo://app?vid=b4098f1a-d0d4-449e-8855-fc6d6f8bf91b","ios":"levelo://app?vid=b4098f1a-d0d4-449e-8855-fc6d6f8bf91b"},"vehicle_type_id":"4","last_reported":1767242337,"current_range_meters":6400,"station_id":"ce4bh112rcd13ifvqd90","pricing_plan_id":"cebpf4jnsgd1na2vs0mg"},{"bike_id":"d0270600-771e-498c-90ba-ff23f7347b4c","system_id":"levelo_inurba_marseille","lat":43.29622,"lon":5.37718,"is_reserved":false,"is_disabled":false,"rental_uris":{"android":"levelo://app?vid=d0270600-771e-498c-90ba-ff23f7347b4c","ios":"levelo://app?vid=d0270600-771e-498c-90ba-ff23f7347b4c"},"vehicle_type_id":"4","last_reported":1767242337,"current_range_meters":6400,"station_id":"ce4bgi92rcd13ifvqb90","pricing_plan_id":"cebpf4jnsgd1na2vs0mg"},{"bike_id":"65bcb155-d26f-40af-9b01-2b9a18976370","system_id":"levelo_inurba_marseille","lat":43.29977,"lon":5.3718,"is_reserved":false,"is_disabled":true,"rental_uris":{"android":"levelo://app?vid=65bcb155-d26f-40af-9b01-2b9a18976370","ios":"levelo://app?vid=65bcb155-d26f-40af-9b01-2b9a18976370"},"vehicle_type_id":"4","last_reported":1767242337,"current_range_meters":6400,"station_id":"ce4bgr92rcd13ifvqc7g","pricing_plan_id":"cebpf4jnsgd1na2vs0mg"},{"bike_id":"a274e1f3-90e8-4548-9a2a-4f53c59abc4e","system_id":"levelo_inurba_marseille","lat":43.31705,"lon":5.40463,"is_reserved":false,"is_disabled":true,"rental_uris":{"android":"levelo://app?vid=a274e1f3-90e8-4548-9a2a-4f53c59abc4e","ios":"levelo://app?vid=a274e1f3-90e8-4548-9a2a-4f53c59abc4e"},"vehicle_type_id":"4","last_reported":1767242337,"current_range_meters":6400,"station_id":"ce4bh012rcd13ifvqd00","pricing_plan_id":"cebpf4jnsgd1na2vs0mg"},{"bike_id":"2f776167-fd8c-4bf2-b226-79f6121d295b","system_id":"levelo_inurba_marseille","lat":43.31709,"lon":5.43709,"is_reserved":false,"is_disabled":false,"rental_uris":{"android":"levelo://app?vid=2f776167-fd8c-4bf2-b226-79f6121d295b","ios":"levelo://app?vid=2f776167-fd8c-4bf2-b226-79f6121d295b"},"vehicle_type_id":"4","last_reported":1767242337,"current_range_meters":6400,"station_id":"ce4bhp92rcd13ifvqhcg","pricing_plan_id":"cebpf4jnsgd1na2vs0mg"},{"bike_id":"0fa76090-b264-4d7f-a0bc-7de1e50f19da","system_id":"levelo_inurba_marseille","lat":43.28019,"lon":5.40415,"is_reserved":false,"is_disabled":false,"rental_uris":{"android":"levelo://app?vid=0fa76090-b264-4d7f-a0bc-7de1e50f19da","ios":"levelo://app?vid=0fa76090-b264-4d7f-a0bc-7de1e50f19da"},"vehicle_type_id":"4","last_reported":1767242337,"current_range_meters":6400,"station_id":"","pricing_plan_id":"cebpf4jnsgd1na2vs0mg"},{"bike_id":"4db762e1-661b-4766-8eda-f3283dbe02e9","system_id":"levelo_inurba_marseille","lat":43.31229,"lon":5.36843,"is_reserved":false,"is_disabled":false,"rental_uris":{"android":"levelo://app?vid=4db762e1-661b-4766-8eda-f3283dbe02e9","ios":"levelo://app?vid=4db762e1-661b-4766-8eda-f3283dbe02e9"},"vehicle_type_id":"4","last_reported":1767242337,"current_range_meters":6400,"station_id":"ce4bgl92rcd13ifvqbq0","pricing_plan_id":"cebpf4jnsgd1na2vs0mg"},{"bike_id":"05ec74cd-3332-4594-959b-3bfe86161b3e","system_id":"levelo_inurba_marseille","lat":43.27986,"lon":5.40024,"is_reserved":false,"is_disabled":false,"rental_uris":{"android":"levelo://app?vid=05ec74cd-3332-4594-959b-3bfe86161b3e","ios":"levelo://app?vid=05ec74cd-3332-4594-959b-3bfe86161b3e"},"vehicle_type_id":"4","last_reported":1767242337,"current_range_meters":6400,"station_id":"ce4bho92rcd13ifvqh4g","pricing_plan_id":"cebpf4jnsgd1na2vs0mg"},{"bike_id":"c6f45c48-13e1-47c3-bc54-522027c545d7","system_id":"levelo_inurba_marseille","lat":43.24804,"lon":5.37456,"is_reserved":false,"is_disabled":false,"rental_uris":{"android":"levelo://app?vid=c6f45c48-13e1-47c3-bc54-522027c545d7","ios":"levelo://app?vid=c6f45c48-13e1-47c3-bc54-522027c545d7"},"vehicle_type_id":"4","last_reported":1767242337,"current_range_meters":6800,"station_id":"ce4bhgh2rcd13ifvqfb0","pricing_plan_id":"cebpf4jnsgd1na2vs0mg"},{"bike_id":"5c3723ae-13f9-448d-9385-5664e312af00","system_id":"levelo_inurba_marseille","lat":43.30542,"lon":5.36532,"is_reserved":false,"is_disabled":false,"rental_uris":{"android":"levelo://app?vid=5c3723ae-13f9-448d-9385-5664e312af00","ios":"levelo://app?vid=5c3723ae-13f9-448d-9385-5664e312af00"},"vehicle_type_id":"4","last_reported":1767242337,"current_range_meters":6800,"station_id":"ce4bgs12rcd13ifvqcag","pricing_plan_id":"cebpf4jnsgd1na2vs0mg"},{"bike_id":"9cf20d61-ddfa-467e-90ea-ddf7859b95f0","system_id":"levelo_inurba_marseille","lat":43.30378,"lon":5.42491,"is_reserved":false,"is_disabled":false,"rental_uris":{"android":"levelo://app?vid=9cf20d61-ddfa-467e-90ea-ddf7859b95f0","ios":"levelo://app?vid=9cf20d61-ddfa-467e-90ea-ddf7859b95f0"},"vehicle_type_id":"4","last_reported":1767242337,"current_range_meters":6800,"station_id":"ce4bhoh2rcd13ifvqh6g","pricing_plan_id":"cebpf4jnsgd1na2vs0mg"},{"bike_id":"dce28840-1b59-4930-917a-12d88071d00f","system_id":"levelo_inurba_marseille","lat":43.28545,"lon":5.44102,"is_reserved":false,"is_disabled":false,"rental_uris":{"android":"levelo://app?vid=dce28840-1b59-4930-917a-12d88071d00f","ios":"levelo://app?vid=dce28840-1b59-4930-917a-12d88071d00f"},"vehicle_type_id":"4","last_reported":1767242337,"current_range_meters":6800,"station_id":"st_d3j3df2ikq2c7380ej80","pricing_plan_id":"cebpf4jnsgd1na2vs0mg"},{"bike_id":"7902b50c-86b0-43d9-a7a2-af61069f6d31","system_id":"levelo_inurba_marseille","lat":43.28725,"lon":5.36085,"is_reserved":false,"is_disabled":false,"rental_uris":{"android":"levelo://app?vid=7902b50c-86b0-43d9-a7a2-af61069f6d31","ios":"levelo://app?vid=7902b50c-86b0-43d9-a7a2-af61069f6d31"},"vehicle_type_id":"4","last_reported":1767242337,"current_range_meters":6800,"station_id":"cki0cbj6b192h4jlfktg","pricing_plan_id":"cebpf4jnsgd1na2vs0mg"},{"bike_id":"3aff02c6-2c85-49b8-a901-010765c4cee2","system_id":"levelo_inurba_marseille","lat":43.29541,"lon":5.38542,"is_reserved":false,"is_disabled":false,"rental_uris":{"android":"levelo://app?vid=3aff02c6-2c85-49b8-a901-010765c4cee2","ios":"levelo://app?vid=3aff02c6-2c85-49b8-a901-010765c4cee2"},"vehicle_type_id":"4","last_reported":1767242337,"current_range_meters":6800,"station_id":"ce4bghh2rcd13ifvqb60","pricing_plan_id":"cebpf4jnsgd1na2vs0mg"},{"bike_id":"6cf79583-3b56-4ce1-9f1d-4f4528d74cba","system_id":"levelo_inurba_marseille","lat":43.30878,"lon":5.39636,"is_reserved":false,"is_disabled":false,"rental_uris":{"android":"levelo://app?vid=6cf79583-3b56-4ce1-9f1d-4f4528d74cba","ios":"levelo://app?vid=6cf79583-3b56-4ce1-9f1d-4f4528d74cba"},"vehicle_type_id":"4","last_reported":1767242337,"current_range_meters":6800,"station_id":"ce4bh012rcd13ifvqcv0","pricing_plan_id":"cebpf4jnsgd1na2vs0mg"},{"bike_id":"a661872f-aa9c-48cf-bf60-351a124e6f6d","system_id":"levelo_inurba_marseille","lat":43.27377,"lon":5.36259,"is_reserved":false,"is_disabled":false,"rental_uris":{"android":"levelo://app?vid=a661872f-aa9c-48cf-bf60-351a124e6f6d","ios":"levelo://app?vid=a661872f-aa9c-48cf-bf60-351a124e6f6d"},"vehicle_type_id":"4","last_reported":1767242337,"current_range_meters":6800,"station_id":"ce4bhbh2rcd13ifvqeo0","pricing_plan_id":"cebpf4jnsgd1na2vs0mg"},{"bike_id":"78ed77cb-47f0-4c82-bf8a-f958576ec953","system_id":"levelo_inurba_marseille","lat":43.281534,"lon":5.426366,"is_reserved":false,"is_disabled":false,"rental_uris":{"android":"levelo://app?vid=78ed77cb-47f0-4c82-bf8a-f958576ec953","ios":"levelo://app?vid=78ed77cb-47f0-4c82-bf8a-f958576ec953"},"vehicle_type_id":"4","last_reported":1767242337,"current_range_meters":6800,"station_id":"ce4bhnh2rcd13ifvqgug","pricing_plan_id":"cebpf4jnsgd1na2vs0mg"},{"bike_id":"8a49875e-44a6-4a2f-a8c0-fc2e106e9eee","system_id":"levelo_inurba_marseille","lat":43.30147,"lon":5.38086,"is_reserved":false,"is_disabled":false,"rental_uris":{"android":"levelo://app?vid=8a49875e-44a6-4a2f-a8c0-fc2e106e9eee","ios":"levelo://app?vid=8a49875e-44a6-4a2f-a8c0-fc2e106e9eee"},"vehicle_type_id":"4","last_reported":1767242337,"current_range_meters":6800,"station_id":"","pricing_plan_id":"cebpf4jnsgd1na2vs0mg"},{"bike_id":"e9a5eb2f-5342-4378-8fc6-06fbe17d605d","system_id":"levelo_inurba_marseille","lat":43.29573,"lon":5.39984,"is_reserved":false,"is_disabled":false,"rental_uris":{"android":"levelo://app?vid=e9a5eb2f-5342-4378-8fc6-06fbe17d605d","ios":"levelo://app?vid=e9a5eb2f-5342-4378-8fc6-06fbe17d605d"},"vehicle_type_id":"4","last_reported":1767242337,"current_range_meters":6800,"station_id":"ce4bh312rcd13ifvqdj0","pricing_plan_id":"cebpf4jnsgd1na2vs0mg"},{"bike_id":"149a94e7-8065-4440-a1ab-1ba416a8f181","system_id":"levelo_inurba_marseille","lat":43.28494,"lon":5.48381,"is_reserved":false,"is_disabled":false,"rental_uris":{"android":"levelo://app?vid=149a94e7-8065-4440-a1ab-1ba416a8f181","ios":"levelo://app?vid=149a94e7-8065-4440-a1ab-1ba416a8f181"},"vehicle_type_id":"4","last_reported":1767242337,"current_range_meters":6800,"station_id":"","pricing_plan_id":"cebpf4jnsgd1na2vs0mg"},{"bike_id":"b9f5bb9a-d9aa-4714-a9ae-ceaed3ab533e","system_id":"levelo_inurba_marseille","lat":43.29643,"lon":5.38045,"is_reserved":false,"is_disabled":false,"rental_uris":{"android":"levelo://app?vid=b9f5bb9a-d9aa-4714-a9ae-ceaed3ab533e","ios":"levelo://app?vid=b9f5bb9a-d9aa-4714-a9ae-ceaed3ab533e"},"vehicle_type_id":"4","last_reported":1767242337,"current_range_meters":6800,"station_id":"","pricing_plan_id":"cebpf4jnsgd1na2vs0mg"},{"bike_id":"9a2077a2-cebc-468c-82f9-fecda68a9ec3","system_id":"levelo_inurba_marseille","lat":43.2949,"lon":5.40896,"is_reserved":false,"is_disabled":false,"rental_uris":{"android":"levelo://app?vid=9a2077a2-cebc-468c-82f9-fecda68a9ec3","ios":"levelo://app?vid=9a2077a2-cebc-468c-82f9-fecda68a9ec3"},"vehicle_type_id":"4","last_reported":1767242337,"current_range_meters":6800,"station_id":"","pricing_plan_id":"cebpf4jnsgd1na2vs0mg"},{"bike_id":"8cbe4bc2-0509-4357-b213-732044983946","system_id":"levelo_inurba_marseille","lat":43.31327,"lon":5.39689,"is_reserved":false,"is_disabled":false,"rental_uris":{"android":"levelo://app?vid=8cbe4bc2-0509-4357-b213-732044983946","ios":"levelo://app?vid=8cbe4bc2-0509-4357-b213-732044983946"},"vehicle_type_id":"4","last_reported":1767242337,"current_range_meters":6800,"station_id":"ce4bgvp2rcd13ifvqcu0","pricing_plan_id":"cebpf4jnsgd1na2vs0mg"},{"bike_id":"d2c40b22-565d-4a49-bb53-f72047eca32b","system_id":"levelo_inurba_marseille","lat":43.26944,"lon":5.386566,"is_reserved":false,"is_disabled":false,"rental_uris":{"android":"levelo://app?vid=d2c40b22-565d-4a49-bb53-f72047eca32b","ios":"levelo://app?vid=d2c40b22-565d-4a49-bb53-f72047eca32b"},"vehicle_type_id":"4","last_reported":1767242337,"current_range_meters":6800,"station_id":"ce4bhh92rcd13ifvqfh0","pricing_plan_id":"cebpf4jnsgd1na2vs0mg"},{"bike_id":"5ac76dd4-8341-4c0d-b496-0898a4870a5a","system_id":"levelo_inurba_marseille","lat":43.29428,"lon":5.41312,"is_reserved":false,"is_disabled":false,"rental_uris":{"android":"levelo://app?vid=5ac76dd4-8341-4c0d-b496-0898a4870a5a","ios":"levelo://app?vid=5ac76dd4-8341-4c0d-b496-0898a4870a5a"},"vehicle_type_id":"4","last_reported":1767242337,"current_range_meters":7200,"station_id":"","pricing_plan_id":"cebpf4jnsgd1na2vs0mg"},{"bike_id":"7451e2f1-97cc-4a6a-824e-1c725c74e9d6","system_id":"levelo_inurba_marseille","lat":43.29387,"lon":5.3805,"is_reserved":false,"is_disabled":false,"rental_uris":{"android":"levelo://app?vid=7451e2f1-97cc-4a6a-824e-1c725c74e9d6","ios":"levelo://app?vid=7451e2f1-97cc-4a6a-824e-1c725c74e9d6"},"vehicle_type_id":"4","last_reported":1767242337,"current_range_meters":7200,"station_id":"","pricing_plan_id":"cebpf4jnsgd1na2vs0mg"},{"bike_id":"535d562b-448c-43ac-86cc-1d98462f2032","system_id":"levelo_inurba_marseille","lat":43.27921,"lon":5.39583,"is_reserved":false,"is_disabled":false,"rental_uris":{"android":"levelo://app?vid=535d562b-448c-43ac-86cc-1d98462f2032","ios":"levelo://app?vid=535d562b-448c-43ac-86cc-1d98462f2032"},"vehicle_type_id":"4","last_reported":1767242337,"current_range_meters":7200,"station_id":"ce4bhf92rcd13ifvqf40","pricing_plan_id":"cebpf4jnsgd1na2vs0mg"},{"bike_id":"1485075b-1bb5-48d2-b0e5-402379126b05","system_id":"levelo_inurba_marseille","lat":43.298727,"lon":5.381041,"is_reserved":false,"is_disabled":false,"rental_uris":{"android":"levelo://app?vid=1485075b-1bb5-48d2-b0e5-402379126b05","ios":"levelo://app?vid=1485075b-1bb5-48d2-b0e5-402379126b05"},"vehicle_type_id":"4","last_reported":1767242337,"current_range_meters":7200,"station_id":"","pricing_plan_id":"cebpf4jnsgd1na2vs0mg"},{"bike_id":"49998141-cac4-4767-a907-b8a3171a3b09","system_id":"levelo_inurba_marseille","lat":43.291464,"lon":5.384967,"is_reserved":false,"is_disabled":false,"rental_uris":{"android":"levelo://app?vid=49998141-cac4-4767-a907-b8a3171a3b09","ios":"levelo://app?vid=49998141-cac4-4767-a907-b8a3171a3b09"},"vehicle_type_id":"4","last_reported":1767242337,"current_range_meters":7200,"station_id":"","pricing_plan_id":"cebpf4jnsgd1na2vs0mg"},{"bike_id":"b7142933-5bc0-4beb-a4ab-a3152aae03ce","system_id":"levelo_inurba_marseille","lat":43.26044,"lon":5.41739,"is_reserved":false,"is_disabled":false,"rental_uris":{"android":"levelo://app?vid=b7142933-5bc0-4beb-a4ab-a3152aae03ce","ios":"levelo://app?vid=b7142933-5bc0-4beb-a4ab-a3152aae03ce"},"vehicle_type_id":"4","last_reported":1767242337,"current_range_meters":7200,"station_id":"","pricing_plan_id":"cebpf4jnsgd1na2vs0mg"},{"bike_id":"7fa3405d-0262-4d63-9dd3-2a24445c87d6","system_id":"levelo_inurba_marseille","lat":43.2921,"lon":5.3606,"is_reserved":false,"is_disabled":false,"rental_uris":{"android":"levelo://app?vid=7fa3405d-0262-4d63-9dd3-2a24445c87d6","ios":"levelo://app?vid=7fa3405d-0262-4d63-9dd3-2a24445c87d6"},"vehicle_type_id":"4","last_reported":1767242337,"current_range_meters":7200,"station_id":"ce4bhbh2rcd13ifvqeqg","pricing_plan_id":"cebpf4jnsgd1na2vs0mg"},{"bike_id":"0c9ca243-897c-4d38-8127-8933d39eb60f","system_id":"levelo_inurba_marseille","lat":43.28916,"lon":5.4256,"is_reserved":false,"is_disabled":false,"rental_uris":{"android":"levelo://app?vid=0c9ca243-897c-4d38-8127-8933d39eb60f","ios":"levelo://app?vid=0c9ca243-897c-4d38-8127-8933d39eb60f"},"vehicle_type_id":"4","last_reported":1767242337,"current_range_meters":7200,"station_id":"","pricing_plan_id":"cebpf4jnsgd1na2vs0mg"},{"bike_id":"5265762e-9468-4f8e-963d-e1d647f4d72d","system_id":"levelo_inurba_marseille","lat":43.337444,"lon":5.374475,"is_reserved":false,"is_disabled":false,"rental_uris":{"android":"levelo://app?vid=5265762e-9468-4f8e-963d-e1d647f4d72d","ios":"levelo://app?vid=5265762e-9468-4f8e-963d-e1d647f4d72d"},"vehicle_type_id":"4","last_reported":1767242337,"current_range_meters":8000,"station_id":"","pricing_plan_id":"cebpf4jnsgd1na2vs0mg"},{"bike_id":"90dac6f2-4e58-4623-b929-4f8d06ec1c31","system_id":"levelo_inurba_marseille","lat":43.28516,"lon":5.42548,"is_reserved":false,"is_disabled":false,"rental_uris":{"android":"levelo://app?vid=90dac6f2-4e58-4623-b929-4f8d06ec1c31","ios":"levelo://app?vid=90dac6f2-4e58-4623-b929-4f8d06ec1c31"},"vehicle_type_id":"4","last_reported":1767242337,"current_range_meters":8000,"station_id":"","pricing_plan_id":"cebpf4jnsgd1na2vs0mg"},{"bike_id":"e93c83d5-bafc-41ab-b80f-422d8d8d6d2a","system_id":"levelo_inurba_marseille","lat":43.26848,"lon":5.40078,"is_reserved":false,"is_disabled":false,"rental_uris":{"android":"levelo://app?vid=e93c83d5-bafc-41ab-b80f-422d8d8d6d2a","ios":"levelo://app?vid=e93c83d5-bafc-41ab-b80f-422d8d8d6d2a"},"vehicle_type_id":"4","last_reported":1767242337,"current_range_meters":8000,"station_id":"","pricing_plan_id":"cebpf4jnsgd1na2vs0mg"},{"bike_id":"8fa53ddb-80a9-4b81-a17d-6b07554edef4","system_id":"levelo_inurba_marseille","lat":43.28464,"lon":5.48382,"is_reserved":false,"is_disabled":false,"rental_uris":{"android":"levelo://app?vid=8fa53ddb-80a9-4b81-a17d-6b07554edef4","ios":"levelo://app?vid=8fa53ddb-80a9-4b81-a17d-6b07554edef4"},"vehicle_type_id":"4","last_reported":1767242337,"current_range_meters":8000,"station_id":"st_d3svhcjqgbts73a3dn0g","pricing_plan_id":"cebpf4jnsgd1na2vs0mg"},{"bike_id":"8c9f703d-219a-46f5-bb1d-6f7b59f09c24","system_id":"levelo_inurba_marseille","lat":43.30177,"lon":5.37414,"is_reserved":false,"is_disabled":false,"rental_uris":{"android":"levelo://app?vid=8c9f703d-219a-46f5-bb1d-6f7b59f09c24","ios":"levelo://app?vid=8c9f703d-219a-46f5-bb1d-6f7b59f09c24"},"vehicle_type_id":"4","last_reported":1767242337,"current_range_meters":8000,"station_id":"ce4bgs92rcd13ifvqcc0","pricing_plan_id":"cebpf4jnsgd1na2vs0mg"},{"bike_id":"d1041711-ecb4-4070-8b9f-37a4fa94dae7","system_id":"levelo_inurba_marseille","lat":43.336092,"lon":5.410285,"is_reserved":false,"is_disabled":false,"rental_uris":{"android":"levelo://app?vid=d1041711-ecb4-4070-8b9f-37a4fa94dae7","ios":"levelo://app?vid=d1041711-ecb4-4070-8b9f-37a4fa94dae7"},"vehicle_type_id":"4","last_reported":1767242337,"current_range_meters":8000,"station_id":"ce4bhqh2rcd13ifvqhmg","pricing_plan_id":"cebpf4jnsgd1na2vs0mg"},{"bike_id":"713d05a3-983d-4b9d-ab7a-e49fde9dfcdb","system_id":"levelo_inurba_marseille","lat":43.30184,"lon":5.36614,"is_reserved":false,"is_disabled":false,"rental_uris":{"android":"levelo://app?vid=713d05a3-983d-4b9d-ab7a-e49fde9dfcdb","ios":"levelo://app?vid=713d05a3-983d-4b9d-ab7a-e49fde9dfcdb"},"vehicle_type_id":"4","last_reported":1767242337,"current_range_meters":8000,"station_id":"ce4bgrh2rcd13ifvqc8g","pricing_plan_id":"cebpf4jnsgd1na2vs0mg"},{"bike_id":"493a108e-adce-47e5-9b24-a0474c56ffad","system_id":"levelo_inurba_marseille","lat":43.28851,"lon":5.35845,"is_reserved":false,"is_disabled":false,"rental_uris":{"android":"levelo://app?vid=493a108e-adce-47e5-9b24-a0474c56ffad","ios":"levelo://app?vid=493a108e-adce-47e5-9b24-a0474c56ffad"},"vehicle_type_id":"4","last_reported":1767242337,"current_range_meters":8000,"station_id":"ce4bhb12rcd13ifvqem0","pricing_plan_id":"cebpf4jnsgd1na2vs0mg"},{"bike_id":"9ec3ac9c-ff73-40b7-8a70-fef2fd9ca99f","system_id":"levelo_inurba_marseille","lat":43.293737,"lon":5.378565,"is_reserved":false,"is_disabled":true,"rental_uris":{"android":"levelo://app?vid=9ec3ac9c-ff73-40b7-8a70-fef2fd9ca99f","ios":"levelo://app?vid=9ec3ac9c-ff73-40b7-8a70-fef2fd9ca99f"},"vehicle_type_id":"4","last_reported":1767242337,"current_range_meters":8000,"station_id":"ce4bgjh2rcd13ifvqbf0","pricing_plan_id":"cebpf4jnsgd1na2vs0mg"},{"bike_id":"e9d34b14-a11a-49cf-b8d8-99a6e9a6e979","system_id":"levelo_inurba_marseille","lat":43.23782,"lon":5.36636,"is_reserved":false,"is_disabled":false,"rental_uris":{"android":"levelo://app?vid=e9d34b14-a11a-49cf-b8d8-99a6e9a6e979","ios":"levelo://app?vid=e9d34b14-a11a-49cf-b8d8-99a6e9a6e979"},"vehicle_type_id":"4","last_reported":1767242337,"current_range_meters":8000,"station_id":"st_d3nk18o9ro0c73en2l3g","pricing_plan_id":"cebpf4jnsgd1na2vs0mg"},{"bike_id":"650cf425-f87e-4c30-9156-354d5fef94cd","system_id":"levelo_inurba_marseille","lat":43.30126,"lon":5.36742,"is_reserved":false,"is_disabled":false,"rental_uris":{"android":"levelo://app?vid=650cf425-f87e-4c30-9156-354d5fef94cd","ios":"levelo://app?vid=650cf425-f87e-4c30-9156-354d5fef94cd"},"vehicle_type_id":"4","last_reported":1767242337,"current_range_meters":8000,"station_id":"","pricing_plan_id":"cebpf4jnsgd1na2vs0mg"},{"bike_id":"bf8e880e-be02-4d98-9c69-66f508adf2de","system_id":"levelo_inurba_marseille","lat":43.240793,"lon":5.37753,"is_reserved":false,"is_disabled":false,"rental_uris":{"android":"levelo://app?vid=bf8e880e-be02-4d98-9c69-66f508adf2de","ios":"levelo://app?vid=bf8e880e-be02-4d98-9c69-66f508adf2de"},"vehicle_type_id":"4","last_reported":1767242337,"current_range_meters":8000,"station_id":"ce4bhnp2rcd13ifvqgvg","pricing_plan_id":"cebpf4jnsgd1na2vs0mg"},{"bike_id":"47e20a65-0c00-4f6a-b64f-dc75ac7a6d5c","system_id":"levelo_inurba_marseille","lat":43.26703,"lon":5.38264,"is_reserved":false,"is_disabled":false,"rental_uris":{"android":"levelo://app?vid=47e20a65-0c00-4f6a-b64f-dc75ac7a6d5c","ios":"levelo://app?vid=47e20a65-0c00-4f6a-b64f-dc75ac7a6d5c"},"vehicle_type_id":"4","last_reported":1767242337,"current_range_meters":8000,"station_id":"ce4bhg92rcd13ifvqf90","pricing_plan_id":"cebpf4jnsgd1na2vs0mg"},{"bike_id":"ff089684-644a-4efd-9de0-323086117121","system_id":"levelo_inurba_marseille","lat":43.23182,"lon":5.35531,"is_reserved":false,"is_disabled":false,"rental_uris":{"android":"levelo://app?vid=ff089684-644a-4efd-9de0-323086117121","ios":"levelo://app?vid=ff089684-644a-4efd-9de0-323086117121"},"vehicle_type_id":"4","last_reported":1767242337,"current_range_meters":8000,"station_id":"ce4bhu92rcd13ifvqi70","pricing_plan_id":"cebpf4jnsgd1na2vs0mg"},{"bike_id":"abf838d6-6712-4300-adda-f8cd4c1d329b","system_id":"levelo_inurba_marseille","lat":43.28408,"lon":5.37514,"is_reserved":false,"is_disabled":false,"rental_uris":{"android":"levelo://app?vid=abf838d6-6712-4300-adda-f8cd4c1d329b","ios":"levelo://app?vid=abf838d6-6712-4300-adda-f8cd4c1d329b"},"vehicle_type_id":"4","last_reported":1767242337,"current_range_meters":8400,"station_id":"ce4bh412rcd13ifvqds0","pricing_plan_id":"cebpf4jnsgd1na2vs0mg"},{"bike_id":"19c8fae4-b80c-498c-a4ef-76cc1120fdb3","system_id":"levelo_inurba_marseille","lat":43.2795,"lon":5.41053,"is_reserved":false,"is_disabled":false,"rental_uris":{"android":"levelo://app?vid=19c8fae4-b80c-498c-a4ef-76cc1120fdb3","ios":"levelo://app?vid=19c8fae4-b80c-498c-a4ef-76cc1120fdb3"},"vehicle_type_id":"4","last_reported":1767242337,"current_range_meters":8400,"station_id":"ce4bhnp2rcd13ifvqh0g","pricing_plan_id":"cebpf4jnsgd1na2vs0mg"},{"bike_id":"4372a42a-b334-4e8f-9141-9b6d15dd3e03","system_id":"levelo_inurba_marseille","lat":43.28483,"lon":5.4839,"is_reserved":false,"is_disabled":false,"rental_uris":{"android":"levelo://app?vid=4372a42a-b334-4e8f-9141-9b6d15dd3e03","ios":"levelo://app?vid=4372a42a-b334-4e8f-9141-9b6d15dd3e03"},"vehicle_type_id":"4","last_reported":1767242337,"current_range_meters":8400,"station_id":"","pricing_plan_id":"cebpf4jnsgd1na2vs0mg"},{"bike_id":"e038a1b3-3d4f-47d4-b1ff-a265b74bb66e","system_id":"levelo_inurba_marseille","lat":43.299761,"lon":5.371891,"is_reserved":false,"is_disabled":false,"rental_uris":{"android":"levelo://app?vid=e038a1b3-3d4f-47d4-b1ff-a265b74bb66e","ios":"levelo://app?vid=e038a1b3-3d4f-47d4-b1ff-a265b74bb66e"},"vehicle_type_id":"4","last_reported":1767242337,"current_range_meters":8400,"station_id":"ce4bgr92rcd13ifvqc7g","pricing_plan_id":"cebpf4jnsgd1na2vs0mg"},{"bike_id":"65c69465-953d-4ec3-a94f-268bf0b6360d","system_id":"levelo_inurba_marseille","lat":43.29567,"lon":5.39941,"is_reserved":false,"is_disabled":false,"rental_uris":{"android":"levelo://app?vid=65c69465-953d-4ec3-a94f-268bf0b6360d","ios":"levelo://app?vid=65c69465-953d-4ec3-a94f-268bf0b6360d"},"vehicle_type_id":"4","last_reported":1767242337,"current_range_meters":8400,"station_id":"ce4bh312rcd13ifvqdj0","pricing_plan_id":"cebpf4jnsgd1na2vs0mg"},{"bike_id":"ff53ee45-158b-4727-9d97-e673be534edb","system_id":"levelo_inurba_marseille","lat":43.3015,"lon":5.38086,"is_reserved":false,"is_disabled":false,"rental_uris":{"android":"levelo://app?vid=ff53ee45-158b-4727-9d97-e673be534edb","ios":"levelo://app?vid=ff53ee45-158b-4727-9d97-e673be534edb"},"vehicle_type_id":"4","last_reported":1767242337,"current_range_meters":8400,"station_id":"ce4bgjp2rcd13ifvqbh0","pricing_plan_id":"cebpf4jnsgd1na2vs0mg"},{"bike_id":"cf61d156-dac6-4f0e-b382-70446db78ff3","system_id":"levelo_inurba_marseille","lat":43.323475,"lon":5.367305,"is_reserved":false,"is_disabled":false,"rental_uris":{"android":"levelo://app?vid=cf61d156-dac6-4f0e-b382-70446db78ff3","ios":"levelo://app?vid=cf61d156-dac6-4f0e-b382-70446db78ff3"},"vehicle_type_id":"4","last_reported":1767242337,"current_range_meters":8400,"station_id":"ce4bhsh2rcd13ifvqi2g","pricing_plan_id":"cebpf4jnsgd1na2vs0mg"},{"bike_id":"9d0a72c1-4d35-4683-bce1-77ea14d9db1b","system_id":"levelo_inurba_marseille","lat":43.261969,"lon":5.374448,"is_reserved":false,"is_disabled":false,"rental_uris":{"android":"levelo://app?vid=9d0a72c1-4d35-4683-bce1-77ea14d9db1b","ios":"levelo://app?vid=9d0a72c1-4d35-4683-bce1-77ea14d9db1b"},"vehicle_type_id":"4","last_reported":1767242337,"current_range_meters":8400,"station_id":"ce4bhgp2rcd13ifvqfc0","pricing_plan_id":"cebpf4jnsgd1na2vs0mg"},{"bike_id":"1f5e6030-7683-49ad-acd1-2bd236b74619","system_id":"levelo_inurba_marseille","lat":43.28614,"lon":5.39862,"is_reserved":false,"is_disabled":false,"rental_uris":{"android":"levelo://app?vid=1f5e6030-7683-49ad-acd1-2bd236b74619","ios":"levelo://app?vid=1f5e6030-7683-49ad-acd1-2bd236b74619"},"vehicle_type_id":"4","last_reported":1767242337,"current_range_meters":8400,"station_id":"st_d4a7ka997mjs738ck50g","pricing_plan_id":"cebpf4jnsgd1na2vs0mg"},{"bike_id":"94f95b46-e6bf-4a80-a009-33ee47ec8d03","system_id":"levelo_inurba_marseille","lat":43.29621,"lon":5.37393,"is_reserved":false,"is_disabled":false,"rental_uris":{"android":"levelo://app?vid=94f95b46-e6bf-4a80-a009-33ee47ec8d03","ios":"levelo://app?vid=94f95b46-e6bf-4a80-a009-33ee47ec8d03"},"vehicle_type_id":"4","last_reported":1767242337,"current_range_meters":8400,"station_id":"","pricing_plan_id":"cebpf4jnsgd1na2vs0mg"},{"bike_id":"75ca54cc-ce1d-4edd-a7b2-da43f32b9f4f","system_id":"levelo_inurba_marseille","lat":43.307843,"lon":5.376503,"is_reserved":false,"is_disabled":false,"rental_uris":{"android":"levelo://app?vid=75ca54cc-ce1d-4edd-a7b2-da43f32b9f4f","ios":"levelo://app?vid=75ca54cc-ce1d-4edd-a7b2-da43f32b9f4f"},"vehicle_type_id":"4","last_reported":1767242337,"current_range_meters":8400,"station_id":"ce4bgv92rcd13ifvqcq0","pricing_plan_id":"cebpf4jnsgd1na2vs0mg"},{"bike_id":"49a01a11-8673-492e-9b5e-b92964e4e9ba","system_id":"levelo_inurba_marseille","lat":43.281553,"lon":5.426426,"is_reserved":false,"is_disabled":false,"rental_uris":{"android":"levelo://app?vid=49a01a11-8673-492e-9b5e-b92964e4e9ba","ios":"levelo://app?vid=49a01a11-8673-492e-9b5e-b92964e4e9ba"},"vehicle_type_id":"4","last_reported":1767242337,"current_range_meters":8400,"station_id":"ce4bhnh2rcd13ifvqgug","pricing_plan_id":"cebpf4jnsgd1na2vs0mg"},{"bike_id":"2e51664b-e807-403b-81a8-36d3b6b50e80","system_id":"levelo_inurba_marseille","lat":43.29531,"lon":5.37493,"is_reserved":false,"is_disabled":false,"rental_uris":{"android":"levelo://app?vid=2e51664b-e807-403b-81a8-36d3b6b50e80","ios":"levelo://app?vid=2e51664b-e807-403b-81a8-36d3b6b50e80"},"vehicle_type_id":"4","last_reported":1767242337,"current_range_meters":8800,"station_id":"ce4bgkp2rcd13ifvqbmg","pricing_plan_id":"cebpf4jnsgd1na2vs0mg"},{"bike_id":"3282aea1-9bed-44e6-a833-eea50b551ac8","system_id":"levelo_inurba_marseille","lat":43.26925,"lon":5.38924,"is_reserved":false,"is_disabled":false,"rental_uris":{"android":"levelo://app?vid=3282aea1-9bed-44e6-a833-eea50b551ac8","ios":"levelo://app?vid=3282aea1-9bed-44e6-a833-eea50b551ac8"},"vehicle_type_id":"4","last_reported":1767242337,"current_range_meters":8800,"station_id":"ce4bhhh2rcd13ifvqfl0","pricing_plan_id":"cebpf4jnsgd1na2vs0mg"},{"bike_id":"d02f7103-24e8-4af6-be13-70960746e5f1","system_id":"levelo_inurba_marseille","lat":43.2871,"lon":5.38692,"is_reserved":false,"is_disabled":false,"rental_uris":{"android":"levelo://app?vid=d02f7103-24e8-4af6-be13-70960746e5f1","ios":"levelo://app?vid=d02f7103-24e8-4af6-be13-70960746e5f1"},"vehicle_type_id":"4","last_reported":1767242337,"current_range_meters":8800,"station_id":"","pricing_plan_id":"cebpf4jnsgd1na2vs0mg"},{"bike_id":"bab8f5ce-6ea3-45fd-aa21-29b68816a77a","system_id":"levelo_inurba_marseille","lat":43.2649,"lon":5.39545,"is_reserved":false,"is_disabled":false,"rental_uris":{"android":"levelo://app?vid=bab8f5ce-6ea3-45fd-aa21-29b68816a77a","ios":"levelo://app?vid=bab8f5ce-6ea3-45fd-aa21-29b68816a77a"},"vehicle_type_id":"4","last_reported":1767242337,"current_range_meters":8800,"station_id":"ce4bhi12rcd13ifvqfq0","pricing_plan_id":"cebpf4jnsgd1na2vs0mg"},{"bike_id":"a02fb672-5bdf-46c8-9fc1-e8fcbc8dc4d2","system_id":"levelo_inurba_marseille","lat":43.302982,"lon":5.386244,"is_reserved":false,"is_disabled":false,"rental_uris":{"android":"levelo://app?vid=a02fb672-5bdf-46c8-9fc1-e8fcbc8dc4d2","ios":"levelo://app?vid=a02fb672-5bdf-46c8-9fc1-e8fcbc8dc4d2"},"vehicle_type_id":"4","last_reported":1767242337,"current_range_meters":8800,"station_id":"","pricing_plan_id":"cebpf4jnsgd1na2vs0mg"},{"bike_id":"bb76a84a-e98e-48d3-9c1a-cb33c8071e80","system_id":"levelo_inurba_marseille","lat":43.3132,"lon":5.397,"is_reserved":false,"is_disabled":false,"rental_uris":{"android":"levelo://app?vid=bb76a84a-e98e-48d3-9c1a-cb33c8071e80","ios":"levelo://app?vid=bb76a84a-e98e-48d3-9c1a-cb33c8071e80"},"vehicle_type_id":"4","last_reported":1767242337,"current_range_meters":8800,"station_id":"ce4bgvp2rcd13ifvqcu0","pricing_plan_id":"cebpf4jnsgd1na2vs0mg"},{"bike_id":"d285cd77-c7b4-4ad4-ad28-ed6edfeaa990","system_id":"levelo_inurba_marseille","lat":43.29624,"lon":5.38055,"is_reserved":false,"is_disabled":true,"rental_uris":{"android":"levelo://app?vid=d285cd77-c7b4-4ad4-ad28-ed6edfeaa990","ios":"levelo://app?vid=d285cd77-c7b4-4ad4-ad28-ed6edfeaa990"},"vehicle_type_id":"4","last_reported":1767242337,"current_range_meters":8800,"station_id":"","pricing_plan_id":"cebpf4jnsgd1na2vs0mg"},{"bike_id":"b21eb10c-b68e-4988-b184-b0a10934c597","system_id":"levelo_inurba_marseille","lat":43.29794,"lon":5.4041,"is_reserved":false,"is_disabled":false,"rental_uris":{"android":"levelo://app?vid=b21eb10c-b68e-4988-b184-b0a10934c597","ios":"levelo://app?vid=b21eb10c-b68e-4988-b184-b0a10934c597"},"vehicle_type_id":"4","last_reported":1767242337,"current_range_meters":8800,"station_id":"ce4bh112rcd13ifvqd90","pricing_plan_id":"cebpf4jnsgd1na2vs0mg"},{"bike_id":"d49fd2c9-dca5-4864-87e0-359520dd27b8","system_id":"levelo_inurba_marseille","lat":43.26138,"lon":5.39745,"is_reserved":false,"is_disabled":false,"rental_uris":{"android":"levelo://app?vid=d49fd2c9-dca5-4864-87e0-359520dd27b8","ios":"levelo://app?vid=d49fd2c9-dca5-4864-87e0-359520dd27b8"},"vehicle_type_id":"4","last_reported":1767242337,"current_range_meters":8800,"station_id":"","pricing_plan_id":"cebpf4jnsgd1na2vs0mg"},{"bike_id":"1e979309-d823-4aaf-b851-f1be8461cefe","system_id":"levelo_inurba_marseille","lat":43.2848,"lon":5.483909,"is_reserved":false,"is_disabled":false,"rental_uris":{"android":"levelo://app?vid=1e979309-d823-4aaf-b851-f1be8461cefe","ios":"levelo://app?vid=1e979309-d823-4aaf-b851-f1be8461cefe"},"vehicle_type_id":"4","last_reported":1767242337,"current_range_meters":8800,"station_id":"st_d3svhcjqgbts73a3dn0g","pricing_plan_id":"cebpf4jnsgd1na2vs0mg"},{"bike_id":"f297e1d0-d6d1-470d-832a-7cfd1d704b5f","system_id":"levelo_inurba_marseille","lat":43.26949,"lon":5.39298,"is_reserved":false,"is_disabled":false,"rental_uris":{"android":"levelo://app?vid=f297e1d0-d6d1-470d-832a-7cfd1d704b5f","ios":"levelo://app?vid=f297e1d0-d6d1-470d-832a-7cfd1d704b5f"},"vehicle_type_id":"4","last_reported":1767242337,"current_range_meters":8800,"station_id":"","pricing_plan_id":"cebpf4jnsgd1na2vs0mg"},{"bike_id":"6e2ddd9b-d368-46a4-bbf9-23a1568594ca","system_id":"levelo_inurba_marseille","lat":43.32105,"lon":5.36763,"is_reserved":false,"is_disabled":false,"rental_uris":{"android":"levelo://app?vid=6e2ddd9b-d368-46a4-bbf9-23a1568594ca","ios":"levelo://app?vid=6e2ddd9b-d368-46a4-bbf9-23a1568594ca"},"vehicle_type_id":"4","last_reported":1767242337,"current_range_meters":8800,"station_id":"ce4bhrh2rcd13ifvqhug","pricing_plan_id":"cebpf4jnsgd1na2vs0mg"},{"bike_id":"ae16ff2f-039d-4cdf-a936-aa3dd9f21d44","system_id":"levelo_inurba_marseille","lat":43.2706,"lon":5.383,"is_reserved":false,"is_disabled":false,"rental_uris":{"android":"levelo://app?vid=ae16ff2f-039d-4cdf-a936-aa3dd9f21d44","ios":"levelo://app?vid=ae16ff2f-039d-4cdf-a936-aa3dd9f21d44"},"vehicle_type_id":"4","last_reported":1767242337,"current_range_meters":9200,"station_id":"st_d3n2fo6cfp8s73cte1j0","pricing_plan_id":"cebpf4jnsgd1na2vs0mg"},{"bike_id":"dc1d1fd3-287c-4df2-89a3-973e9127dcfe","system_id":"levelo_inurba_marseille","lat":43.246267,"lon":5.431459,"is_reserved":false,"is_disabled":false,"rental_uris":{"android":"levelo://app?vid=dc1d1fd3-287c-4df2-89a3-973e9127dcfe","ios":"levelo://app?vid=dc1d1fd3-287c-4df2-89a3-973e9127dcfe"},"vehicle_type_id":"4","last_reported":1767242337,"current_range_meters":9200,"station_id":"st_d2m6c4gdas8pm72e190g","pricing_plan_id":"cebpf4jnsgd1na2vs0mg"},{"bike_id":"43a3aa5f-236f-4615-83b9-76a49752e53f","system_id":"levelo_inurba_marseille","lat":43.3079,"lon":5.3816,"is_reserved":false,"is_disabled":false,"rental_uris":{"android":"levelo://app?vid=43a3aa5f-236f-4615-83b9-76a49752e53f","ios":"levelo://app?vid=43a3aa5f-236f-4615-83b9-76a49752e53f"},"vehicle_type_id":"4","last_reported":1767242337,"current_range_meters":9200,"station_id":"ce4bgt12rcd13ifvqce0","pricing_plan_id":"cebpf4jnsgd1na2vs0mg"},{"bike_id":"81fecddb-dfff-444f-9d50-048b4075c3f3","system_id":"levelo_inurba_marseille","lat":43.29965,"lon":5.38508,"is_reserved":false,"is_disabled":false,"rental_uris":{"android":"levelo://app?vid=81fecddb-dfff-444f-9d50-048b4075c3f3","ios":"levelo://app?vid=81fecddb-dfff-444f-9d50-048b4075c3f3"},"vehicle_type_id":"4","last_reported":1767242337,"current_range_meters":9200,"station_id":"ce4bgj92rcd13ifvqbd0","pricing_plan_id":"cebpf4jnsgd1na2vs0mg"},{"bike_id":"b5f80a1c-7345-44ae-9c2d-843287ace1f8","system_id":"levelo_inurba_marseille","lat":43.27435,"lon":5.42411,"is_reserved":false,"is_disabled":false,"rental_uris":{"android":"levelo://app?vid=b5f80a1c-7345-44ae-9c2d-843287ace1f8","ios":"levelo://app?vid=b5f80a1c-7345-44ae-9c2d-843287ace1f8"},"vehicle_type_id":"4","last_reported":1767242337,"current_range_meters":9200,"station_id":"","pricing_plan_id":"cebpf4jnsgd1na2vs0mg"},{"bike_id":"af9b681d-098f-4c7c-92f2-24a71239face","system_id":"levelo_inurba_marseille","lat":43.29709,"lon":5.36612,"is_reserved":false,"is_disabled":false,"rental_uris":{"android":"levelo://app?vid=af9b681d-098f-4c7c-92f2-24a71239face","ios":"levelo://app?vid=af9b681d-098f-4c7c-92f2-24a71239face"},"vehicle_type_id":"4","last_reported":1767242337,"current_range_meters":9200,"station_id":"ce4bgn12rcd13ifvqbt0","pricing_plan_id":"cebpf4jnsgd1na2vs0mg"},{"bike_id":"1a670a54-1840-4940-b62b-05b0e394ae95","system_id":"levelo_inurba_marseille","lat":43.28431,"lon":5.34987,"is_reserved":false,"is_disabled":false,"rental_uris":{"android":"levelo://app?vid=1a670a54-1840-4940-b62b-05b0e394ae95","ios":"levelo://app?vid=1a670a54-1840-4940-b62b-05b0e394ae95"},"vehicle_type_id":"4","last_reported":1767242337,"current_range_meters":9200,"station_id":"ce4bhbh2rcd13ifvqepg","pricing_plan_id":"cebpf4jnsgd1na2vs0mg"},{"bike_id":"c255b81a-3348-466e-9e0b-551409392c0b","system_id":"levelo_inurba_marseille","lat":43.266932,"lon":5.382718,"is_reserved":false,"is_disabled":true,"rental_uris":{"android":"levelo://app?vid=c255b81a-3348-466e-9e0b-551409392c0b","ios":"levelo://app?vid=c255b81a-3348-466e-9e0b-551409392c0b"},"vehicle_type_id":"4","last_reported":1767242337,"current_range_meters":9200,"station_id":"ce4bhg92rcd13ifvqf90","pricing_plan_id":"cebpf4jnsgd1na2vs0mg"},{"bike_id":"6ecf1b80-ca59-4b5e-a8b2-1d2fef34a0e5","system_id":"levelo_inurba_marseille","lat":43.28723,"lon":5.37936,"is_reserved":false,"is_disabled":false,"rental_uris":{"android":"levelo://app?vid=6ecf1b80-ca59-4b5e-a8b2-1d2fef34a0e5","ios":"levelo://app?vid=6ecf1b80-ca59-4b5e-a8b2-1d2fef34a0e5"},"vehicle_type_id":"4","last_reported":1767242337,"current_range_meters":9200,"station_id":"ce4bh9p2rcd13ifvqec0","pricing_plan_id":"cebpf4jnsgd1na2vs0mg"},{"bike_id":"7df75586-262d-4ec2-8f98-c0691702c6c8","system_id":"levelo_inurba_marseille","lat":43.28173,"lon":5.42663,"is_reserved":false,"is_disabled":false,"rental_uris":{"android":"levelo://app?vid=7df75586-262d-4ec2-8f98-c0691702c6c8","ios":"levelo://app?vid=7df75586-262d-4ec2-8f98-c0691702c6c8"},"vehicle_type_id":"4","last_reported":1767242337,"current_range_meters":9200,"station_id":"ce4bhnh2rcd13ifvqgug","pricing_plan_id":"cebpf4jnsgd1na2vs0mg"},{"bike_id":"e091a64d-3bea-4eb4-be23-0d33eb28eebf","system_id":"levelo_inurba_marseille","lat":43.26933,"lon":5.40287,"is_reserved":false,"is_disabled":false,"rental_uris":{"android":"levelo://app?vid=e091a64d-3bea-4eb4-be23-0d33eb28eebf","ios":"levelo://app?vid=e091a64d-3bea-4eb4-be23-0d33eb28eebf"},"vehicle_type_id":"4","last_reported":1767242337,"current_range_meters":9600,"station_id":"cjm6bp8fraef2m0cb0m0","pricing_plan_id":"cebpf4jnsgd1na2vs0mg"},{"bike_id":"061bf87f-3ebd-4602-992d-adc6d4472a7e","system_id":"levelo_inurba_marseille","lat":43.2379,"lon":5.36634,"is_reserved":false,"is_disabled":false,"rental_uris":{"android":"levelo://app?vid=061bf87f-3ebd-4602-992d-adc6d4472a7e","ios":"levelo://app?vid=061bf87f-3ebd-4602-992d-adc6d4472a7e"},"vehicle_type_id":"4","last_reported":1767242337,"current_range_meters":9600,"station_id":"st_d3nk18o9ro0c73en2l3g","pricing_plan_id":"cebpf4jnsgd1na2vs0mg"},{"bike_id":"8a9cb631-63e9-428f-b283-78ab220c7b5c","system_id":"levelo_inurba_marseille","lat":43.30326,"lon":5.40449,"is_reserved":false,"is_disabled":false,"rental_uris":{"android":"levelo://app?vid=8a9cb631-63e9-428f-b283-78ab220c7b5c","ios":"levelo://app?vid=8a9cb631-63e9-428f-b283-78ab220c7b5c"},"vehicle_type_id":"4","last_reported":1767242337,"current_range_meters":9600,"station_id":"ce4bh012rcd13ifvqd10","pricing_plan_id":"cebpf4jnsgd1na2vs0mg"},{"bike_id":"25f3b82f-06ca-4f8f-a005-18bf90572843","system_id":"levelo_inurba_marseille","lat":43.30183,"lon":5.36621,"is_reserved":false,"is_disabled":false,"rental_uris":{"android":"levelo://app?vid=25f3b82f-06ca-4f8f-a005-18bf90572843","ios":"levelo://app?vid=25f3b82f-06ca-4f8f-a005-18bf90572843"},"vehicle_type_id":"4","last_reported":1767242337,"current_range_meters":9600,"station_id":"ce4bgrh2rcd13ifvqc8g","pricing_plan_id":"cebpf4jnsgd1na2vs0mg"},{"bike_id":"2d4772b7-d16b-4cb4-a135-dc76b6fe23e3","system_id":"levelo_inurba_marseille","lat":43.27994,"lon":5.399993,"is_reserved":false,"is_disabled":false,"rental_uris":{"android":"levelo://app?vid=2d4772b7-d16b-4cb4-a135-dc76b6fe23e3","ios":"levelo://app?vid=2d4772b7-d16b-4cb4-a135-dc76b6fe23e3"},"vehicle_type_id":"4","last_reported":1767242337,"current_range_meters":9600,"station_id":"ce4bho92rcd13ifvqh4g","pricing_plan_id":"cebpf4jnsgd1na2vs0mg"},{"bike_id":"6e8619ec-a3bf-4d04-895c-caf3015d08fa","system_id":"levelo_inurba_marseille","lat":43.29192,"lon":5.35794,"is_reserved":false,"is_disabled":false,"rental_uris":{"android":"levelo://app?vid=6e8619ec-a3bf-4d04-895c-caf3015d08fa","ios":"levelo://app?vid=6e8619ec-a3bf-4d04-895c-caf3015d08fa"},"vehicle_type_id":"4","last_reported":1767242337,"current_range_meters":9600,"station_id":"ce4bhb12rcd13ifvqel0","pricing_plan_id":"cebpf4jnsgd1na2vs0mg"},{"bike_id":"9e5dafc7-f2da-4d0b-b668-e32cc043ceb4","system_id":"levelo_inurba_marseille","lat":43.28047,"lon":5.40073,"is_reserved":false,"is_disabled":false,"rental_uris":{"android":"levelo://app?vid=9e5dafc7-f2da-4d0b-b668-e32cc043ceb4","ios":"levelo://app?vid=9e5dafc7-f2da-4d0b-b668-e32cc043ceb4"},"vehicle_type_id":"4","last_reported":1767242337,"current_range_meters":9600,"station_id":"","pricing_plan_id":"cebpf4jnsgd1na2vs0mg"},{"bike_id":"c2ff9b6c-52d0-47b2-8744-46b30cfe0f7d","system_id":"levelo_inurba_marseille","lat":43.30433,"lon":5.38885,"is_reserved":false,"is_disabled":false,"rental_uris":{"android":"levelo://app?vid=c2ff9b6c-52d0-47b2-8744-46b30cfe0f7d","ios":"levelo://app?vid=c2ff9b6c-52d0-47b2-8744-46b30cfe0f7d"},"vehicle_type_id":"4","last_reported":1767242337,"current_range_meters":9600,"station_id":"ce4bgk12rcd13ifvqbi0","pricing_plan_id":"cebpf4jnsgd1na2vs0mg"},{"bike_id":"1763bda5-9a2f-4323-b228-f44726653fd8","system_id":"levelo_inurba_marseille","lat":43.28401,"lon":5.34996,"is_reserved":false,"is_disabled":false,"rental_uris":{"android":"levelo://app?vid=1763bda5-9a2f-4323-b228-f44726653fd8","ios":"levelo://app?vid=1763bda5-9a2f-4323-b228-f44726653fd8"},"vehicle_type_id":"4","last_reported":1767242337,"current_range_meters":9600,"station_id":"ce4bhbh2rcd13ifvqepg","pricing_plan_id":"cebpf4jnsgd1na2vs0mg"},{"bike_id":"0d8b64dc-d3a4-4c37-80be-c48d945a81e3","system_id":"levelo_inurba_marseille","lat":43.28465,"lon":5.38429,"is_reserved":false,"is_disabled":true,"rental_uris":{"android":"levelo://app?vid=0d8b64dc-d3a4-4c37-80be-c48d945a81e3","ios":"levelo://app?vid=0d8b64dc-d3a4-4c37-80be-c48d945a81e3"},"vehicle_type_id":"4","last_reported":1767242337,"current_range_meters":9600,"station_id":"ce4bh512rcd13ifvqe3g","pricing_plan_id":"cebpf4jnsgd1na2vs0mg"},{"bike_id":"9b31c737-9919-4753-902d-88d0177986b8","system_id":"levelo_inurba_marseille","lat":43.2886,"lon":5.42509,"is_reserved":false,"is_disabled":false,"rental_uris":{"android":"levelo://app?vid=9b31c737-9919-4753-902d-88d0177986b8","ios":"levelo://app?vid=9b31c737-9919-4753-902d-88d0177986b8"},"vehicle_type_id":"4","last_reported":1767242337,"current_range_meters":9600,"station_id":"st_d3b462108ojc7389ooeg","pricing_plan_id":"cebpf4jnsgd1na2vs0mg"},{"bike_id":"36d67e4b-128f-462b-bf9e-2bbc09bb7b40","system_id":"levelo_inurba_marseille","lat":43.30943,"lon":5.37936,"is_reserved":false,"is_disabled":false,"rental_uris":{"android":"levelo://app?vid=36d67e4b-128f-462b-bf9e-2bbc09bb7b40","ios":"levelo://app?vid=36d67e4b-128f-462b-bf9e-2bbc09bb7b40"},"vehicle_type_id":"4","last_reported":1767242337,"current_range_meters":9600,"station_id":"","pricing_plan_id":"cebpf4jnsgd1na2vs0mg"},{"bike_id":"47502a4f-6643-4d86-adaf-d4a1bda6584d","system_id":"levelo_inurba_marseille","lat":43.30319,"lon":5.4044,"is_reserved":false,"is_disabled":false,"rental_uris":{"android":"levelo://app?vid=47502a4f-6643-4d86-adaf-d4a1bda6584d","ios":"levelo://app?vid=47502a4f-6643-4d86-adaf-d4a1bda6584d"},"vehicle_type_id":"4","last_reported":1767242337,"current_range_meters":9600,"station_id":"ce4bh012rcd13ifvqd10","pricing_plan_id":"cebpf4jnsgd1na2vs0mg"},{"bike_id":"f50376ee-187b-422c-bfb2-3bcff51c7529","system_id":"levelo_inurba_marseille","lat":43.2901,"lon":5.35603,"is_reserved":false,"is_disabled":false,"rental_uris":{"android":"levelo://app?vid=f50376ee-187b-422c-bfb2-3bcff51c7529","ios":"levelo://app?vid=f50376ee-187b-422c-bfb2-3bcff51c7529"},"vehicle_type_id":"4","last_reported":1767242337,"current_range_meters":9600,"station_id":"ce4bhb92rcd13ifvqen0","pricing_plan_id":"cebpf4jnsgd1na2vs0mg"},{"bike_id":"f489c472-ee6d-42dd-8be8-3a531cfd3f02","system_id":"levelo_inurba_marseille","lat":43.2877,"lon":5.45483,"is_reserved":false,"is_disabled":false,"rental_uris":{"android":"levelo://app?vid=f489c472-ee6d-42dd-8be8-3a531cfd3f02","ios":"levelo://app?vid=f489c472-ee6d-42dd-8be8-3a531cfd3f02"},"vehicle_type_id":"4","last_reported":1767242337,"current_range_meters":9600,"station_id":"","pricing_plan_id":"cebpf4jnsgd1na2vs0mg"},{"bike_id":"ac21faa3-20b0-4072-8817-266ef2535440","system_id":"levelo_inurba_marseille","lat":43.25864,"lon":5.39893,"is_reserved":false,"is_disabled":false,"rental_uris":{"android":"levelo://app?vid=ac21faa3-20b0-4072-8817-266ef2535440","ios":"levelo://app?vid=ac21faa3-20b0-4072-8817-266ef2535440"},"vehicle_type_id":"4","last_reported":1767242337,"current_range_meters":9600,"station_id":"ce4bhl92rcd13ifvqghg","pricing_plan_id":"cebpf4jnsgd1na2vs0mg"},{"bike_id":"f7907c1c-af28-49fc-9bf1-6ea5c9b9576d","system_id":"levelo_inurba_marseille","lat":43.281533,"lon":5.426376,"is_reserved":false,"is_disabled":true,"rental_uris":{"android":"levelo://app?vid=f7907c1c-af28-49fc-9bf1-6ea5c9b9576d","ios":"levelo://app?vid=f7907c1c-af28-49fc-9bf1-6ea5c9b9576d"},"vehicle_type_id":"4","last_reported":1767242337,"current_range_meters":10000,"station_id":"ce4bhnh2rcd13ifvqgug","pricing_plan_id":"cebpf4jnsgd1na2vs0mg"},{"bike_id":"96e942f9-9b3a-4077-93de-b3d1b42e96be","system_id":"levelo_inurba_marseille","lat":43.285713,"lon":5.394947,"is_reserved":false,"is_disabled":false,"rental_uris":{"android":"levelo://app?vid=96e942f9-9b3a-4077-93de-b3d1b42e96be","ios":"levelo://app?vid=96e942f9-9b3a-4077-93de-b3d1b42e96be"},"vehicle_type_id":"4","last_reported":1767242337,"current_range_meters":10000,"station_id":"ce4bh292rcd13ifvqdg0","pricing_plan_id":"cebpf4jnsgd1na2vs0mg"},{"bike_id":"6fc976d2-1bf1-49e2-bf64-792cc3297546","system_id":"levelo_inurba_marseille","lat":43.28671,"lon":5.38666,"is_reserved":false,"is_disabled":false,"rental_uris":{"android":"levelo://app?vid=6fc976d2-1bf1-49e2-bf64-792cc3297546","ios":"levelo://app?vid=6fc976d2-1bf1-49e2-bf64-792cc3297546"},"vehicle_type_id":"4","last_reported":1767242337,"current_range_meters":10000,"station_id":"ce4bh492rcd13ifvqdug","pricing_plan_id":"cebpf4jnsgd1na2vs0mg"},{"bike_id":"4b612c97-f84b-459a-bc6d-0cd90c252bf8","system_id":"levelo_inurba_marseille","lat":43.26517,"lon":5.37956,"is_reserved":false,"is_disabled":false,"rental_uris":{"android":"levelo://app?vid=4b612c97-f84b-459a-bc6d-0cd90c252bf8","ios":"levelo://app?vid=4b612c97-f84b-459a-bc6d-0cd90c252bf8"},"vehicle_type_id":"4","last_reported":1767242337,"current_range_meters":10000,"station_id":"","pricing_plan_id":"cebpf4jnsgd1na2vs0mg"},{"bike_id":"8ed4747c-ffc4-4952-a58f-ccece03fc778","system_id":"levelo_inurba_marseille","lat":43.27194,"lon":5.40984,"is_reserved":false,"is_disabled":false,"rental_uris":{"android":"levelo://app?vid=8ed4747c-ffc4-4952-a58f-ccece03fc778","ios":"levelo://app?vid=8ed4747c-ffc4-4952-a58f-ccece03fc778"},"vehicle_type_id":"4","last_reported":1767242337,"current_range_meters":10000,"station_id":"ce4bhl12rcd13ifvqgf0","pricing_plan_id":"cebpf4jnsgd1na2vs0mg"},{"bike_id":"65586352-19ee-4979-8cba-b52cca760c9d","system_id":"levelo_inurba_marseille","lat":43.29228,"lon":5.3877,"is_reserved":false,"is_disabled":false,"rental_uris":{"android":"levelo://app?vid=65586352-19ee-4979-8cba-b52cca760c9d","ios":"levelo://app?vid=65586352-19ee-4979-8cba-b52cca760c9d"},"vehicle_type_id":"4","last_reported":1767242337,"current_range_meters":10000,"station_id":"","pricing_plan_id":"cebpf4jnsgd1na2vs0mg"},{"bike_id":"07333a39-1fe6-4d8f-86c8-a983ce3c13bf","system_id":"levelo_inurba_marseille","lat":43.32103,"lon":5.36765,"is_reserved":false,"is_disabled":false,"rental_uris":{"android":"levelo://app?vid=07333a39-1fe6-4d8f-86c8-a983ce3c13bf","ios":"levelo://app?vid=07333a39-1fe6-4d8f-86c8-a983ce3c13bf"},"vehicle_type_id":"4","last_reported":1767242337,"current_range_meters":10000,"station_id":"ce4bhrh2rcd13ifvqhug","pricing_plan_id":"cebpf4jnsgd1na2vs0mg"},{"bike_id":"5801542b-d91b-422e-8d7d-7804e1f4fd09","system_id":"levelo_inurba_marseille","lat":43.27971,"lon":5.38735,"is_reserved":false,"is_disabled":false,"rental_uris":{"android":"levelo://app?vid=5801542b-d91b-422e-8d7d-7804e1f4fd09","ios":"levelo://app?vid=5801542b-d91b-422e-8d7d-7804e1f4fd09"},"vehicle_type_id":"4","last_reported":1767242337,"current_range_meters":10000,"station_id":"ce4bhg12rcd13ifvqf80","pricing_plan_id":"cebpf4jnsgd1na2vs0mg"},{"bike_id":"2a23ab26-ec07-45e8-be6c-b7129b94a9d1","system_id":"levelo_inurba_marseille","lat":43.28669,"lon":5.3635,"is_reserved":false,"is_disabled":false,"rental_uris":{"android":"levelo://app?vid=2a23ab26-ec07-45e8-be6c-b7129b94a9d1","ios":"levelo://app?vid=2a23ab26-ec07-45e8-be6c-b7129b94a9d1"},"vehicle_type_id":"4","last_reported":1767242337,"current_range_meters":10000,"station_id":"ce4bhah2rcd13ifvqej0","pricing_plan_id":"cebpf4jnsgd1na2vs0mg"},{"bike_id":"819953b1-b6e5-4e7b-93ab-771e36ff1d19","system_id":"levelo_inurba_marseille","lat":43.28044,"lon":5.36941,"is_reserved":false,"is_disabled":false,"rental_uris":{"android":"levelo://app?vid=819953b1-b6e5-4e7b-93ab-771e36ff1d19","ios":"levelo://app?vid=819953b1-b6e5-4e7b-93ab-771e36ff1d19"},"vehicle_type_id":"4","last_reported":1767242337,"current_range_meters":10000,"station_id":"ce4bha12rcd13ifvqef0","pricing_plan_id":"cebpf4jnsgd1na2vs0mg"},{"bike_id":"6bda29c0-298a-4931-b152-ee72aefab1c3","system_id":"levelo_inurba_marseille","lat":43.29795,"lon":5.37746,"is_reserved":false,"is_disabled":false,"rental_uris":{"android":"levelo://app?vid=6bda29c0-298a-4931-b152-ee72aefab1c3","ios":"levelo://app?vid=6bda29c0-298a-4931-b152-ee72aefab1c3"},"vehicle_type_id":"4","last_reported":1767242337,"current_range_meters":10000,"station_id":"","pricing_plan_id":"cebpf4jnsgd1na2vs0mg"},{"bike_id":"256f99e5-21f2-4c5b-b369-7ba8831f0d26","system_id":"levelo_inurba_marseille","lat":43.295702,"lon":5.399529,"is_reserved":false,"is_disabled":false,"rental_uris":{"android":"levelo://app?vid=256f99e5-21f2-4c5b-b369-7ba8831f0d26","ios":"levelo://app?vid=256f99e5-21f2-4c5b-b369-7ba8831f0d26"},"vehicle_type_id":"4","last_reported":1767242337,"current_range_meters":10000,"station_id":"","pricing_plan_id":"cebpf4jnsgd1na2vs0mg"},{"bike_id":"27f62b3e-34a5-44c0-b8d2-5a7048902926","system_id":"levelo_inurba_marseille","lat":43.29573,"lon":5.38175,"is_reserved":false,"is_disabled":false,"rental_uris":{"android":"levelo://app?vid=27f62b3e-34a5-44c0-b8d2-5a7048902926","ios":"levelo://app?vid=27f62b3e-34a5-44c0-b8d2-5a7048902926"},"vehicle_type_id":"4","last_reported":1767242337,"current_range_meters":10800,"station_id":"","pricing_plan_id":"cebpf4jnsgd1na2vs0mg"},{"bike_id":"67057471-b7f6-4964-9f3d-d28fd0a7dcdb","system_id":"levelo_inurba_marseille","lat":43.31907,"lon":5.40753,"is_reserved":false,"is_disabled":true,"rental_uris":{"android":"levelo://app?vid=67057471-b7f6-4964-9f3d-d28fd0a7dcdb","ios":"levelo://app?vid=67057471-b7f6-4964-9f3d-d28fd0a7dcdb"},"vehicle_type_id":"4","last_reported":1767242337,"current_range_meters":10800,"station_id":"ce4bhq12rcd13ifvqhig","pricing_plan_id":"cebpf4jnsgd1na2vs0mg"},{"bike_id":"f6c9c2e6-3051-4bbb-a763-1a3397a19876","system_id":"levelo_inurba_marseille","lat":43.32108,"lon":5.36769,"is_reserved":false,"is_disabled":false,"rental_uris":{"android":"levelo://app?vid=f6c9c2e6-3051-4bbb-a763-1a3397a19876","ios":"levelo://app?vid=f6c9c2e6-3051-4bbb-a763-1a3397a19876"},"vehicle_type_id":"4","last_reported":1767242337,"current_range_meters":10800,"station_id":"ce4bhrh2rcd13ifvqhug","pricing_plan_id":"cebpf4jnsgd1na2vs0mg"},{"bike_id":"a37546a5-5ed0-437a-8b08-467eedf47722","system_id":"levelo_inurba_marseille","lat":43.24555,"lon":5.3952,"is_reserved":false,"is_disabled":false,"rental_uris":{"android":"levelo://app?vid=a37546a5-5ed0-437a-8b08-467eedf47722","ios":"levelo://app?vid=a37546a5-5ed0-437a-8b08-467eedf47722"},"vehicle_type_id":"4","last_reported":1767242337,"current_range_meters":10800,"station_id":"ce4bhlp2rcd13ifvqgjg","pricing_plan_id":"cebpf4jnsgd1na2vs0mg"},{"bike_id":"d4c6dc95-f402-4619-8161-a90cb01a834e","system_id":"levelo_inurba_marseille","lat":43.2891,"lon":5.42478,"is_reserved":false,"is_disabled":false,"rental_uris":{"android":"levelo://app?vid=d4c6dc95-f402-4619-8161-a90cb01a834e","ios":"levelo://app?vid=d4c6dc95-f402-4619-8161-a90cb01a834e"},"vehicle_type_id":"4","last_reported":1767242337,"current_range_meters":10800,"station_id":"","pricing_plan_id":"cebpf4jnsgd1na2vs0mg"},{"bike_id":"7f8bc2f4-3256-4176-a803-fa7e148de4c6","system_id":"levelo_inurba_marseille","lat":43.2436,"lon":5.40891,"is_reserved":false,"is_disabled":false,"rental_uris":{"android":"levelo://app?vid=7f8bc2f4-3256-4176-a803-fa7e148de4c6","ios":"levelo://app?vid=7f8bc2f4-3256-4176-a803-fa7e148de4c6"},"vehicle_type_id":"4","last_reported":1767242337,"current_range_meters":10800,"station_id":"","pricing_plan_id":"cebpf4jnsgd1na2vs0mg"},{"bike_id":"ea5031e4-b749-4d48-ba29-71e8d8d5383b","system_id":"levelo_inurba_marseille","lat":43.26402,"lon":5.37394,"is_reserved":false,"is_disabled":false,"rental_uris":{"android":"levelo://app?vid=ea5031e4-b749-4d48-ba29-71e8d8d5383b","ios":"levelo://app?vid=ea5031e4-b749-4d48-ba29-71e8d8d5383b"},"vehicle_type_id":"4","last_reported":1767242337,"current_range_meters":10800,"station_id":"","pricing_plan_id":"cebpf4jnsgd1na2vs0mg"},{"bike_id":"a4a22561-68ad-4f27-a4a3-49a3966a6a72","system_id":"levelo_inurba_marseille","lat":43.289365,"lon":5.366301,"is_reserved":false,"is_disabled":false,"rental_uris":{"android":"levelo://app?vid=a4a22561-68ad-4f27-a4a3-49a3966a6a72","ios":"levelo://app?vid=a4a22561-68ad-4f27-a4a3-49a3966a6a72"},"vehicle_type_id":"4","last_reported":1767242337,"current_range_meters":10800,"station_id":"ce4bhap2rcd13ifvqek0","pricing_plan_id":"cebpf4jnsgd1na2vs0mg"},{"bike_id":"7aa8deaf-4e60-441f-b4fa-11775b88c73b","system_id":"levelo_inurba_marseille","lat":43.29608,"lon":5.403,"is_reserved":false,"is_disabled":true,"rental_uris":{"android":"levelo://app?vid=7aa8deaf-4e60-441f-b4fa-11775b88c73b","ios":"levelo://app?vid=7aa8deaf-4e60-441f-b4fa-11775b88c73b"},"vehicle_type_id":"4","last_reported":1767242337,"current_range_meters":10800,"station_id":"","pricing_plan_id":"cebpf4jnsgd1na2vs0mg"},{"bike_id":"bd557ac5-e051-4971-9dce-15a248d16139","system_id":"levelo_inurba_marseille","lat":43.31101,"lon":5.40334,"is_reserved":false,"is_disabled":false,"rental_uris":{"android":"levelo://app?vid=bd557ac5-e051-4971-9dce-15a248d16139","ios":"levelo://app?vid=bd557ac5-e051-4971-9dce-15a248d16139"},"vehicle_type_id":"4","last_reported":1767242337,"current_range_meters":11200,"station_id":"","pricing_plan_id":"cebpf4jnsgd1na2vs0mg"},{"bike_id":"ee2fbc46-8d55-4a28-bd47-91dcad9f81ff","system_id":"levelo_inurba_marseille","lat":43.284,"lon":5.37531,"is_reserved":false,"is_disabled":false,"rental_uris":{"android":"levelo://app?vid=ee2fbc46-8d55-4a28-bd47-91dcad9f81ff","ios":"levelo://app?vid=ee2fbc46-8d55-4a28-bd47-91dcad9f81ff"},"vehicle_type_id":"4","last_reported":1767242337,"current_range_meters":11200,"station_id":"ce4bh412rcd13ifvqds0","pricing_plan_id":"cebpf4jnsgd1na2vs0mg"},{"bike_id":"c1c1bbd9-7f85-4a35-831d-72795b1b0948","system_id":"levelo_inurba_marseille","lat":43.32362,"lon":5.36741,"is_reserved":false,"is_disabled":false,"rental_uris":{"android":"levelo://app?vid=c1c1bbd9-7f85-4a35-831d-72795b1b0948","ios":"levelo://app?vid=c1c1bbd9-7f85-4a35-831d-72795b1b0948"},"vehicle_type_id":"4","last_reported":1767242337,"current_range_meters":11200,"station_id":"ce4bhsh2rcd13ifvqi2g","pricing_plan_id":"cebpf4jnsgd1na2vs0mg"},{"bike_id":"ff341f80-b1a2-40e5-b6e3-899b40a8be8d","system_id":"levelo_inurba_marseille","lat":43.3042,"lon":5.41283,"is_reserved":false,"is_disabled":false,"rental_uris":{"android":"levelo://app?vid=ff341f80-b1a2-40e5-b6e3-899b40a8be8d","ios":"levelo://app?vid=ff341f80-b1a2-40e5-b6e3-899b40a8be8d"},"vehicle_type_id":"4","last_reported":1767242337,"current_range_meters":11200,"station_id":"ce4bhop2rcd13ifvqh8g","pricing_plan_id":"cebpf4jnsgd1na2vs0mg"},{"bike_id":"a98e1b67-2f4d-4b0e-bea2-d90ff5c89757","system_id":"levelo_inurba_marseille","lat":43.28533,"lon":5.44117,"is_reserved":false,"is_disabled":false,"rental_uris":{"android":"levelo://app?vid=a98e1b67-2f4d-4b0e-bea2-d90ff5c89757","ios":"levelo://app?vid=a98e1b67-2f4d-4b0e-bea2-d90ff5c89757"},"vehicle_type_id":"4","last_reported":1767242337,"current_range_meters":11200,"station_id":"st_d3j3df2ikq2c7380ej80","pricing_plan_id":"cebpf4jnsgd1na2vs0mg"},{"bike_id":"2e432000-19e4-474b-acb8-4742408d8ecf","system_id":"levelo_inurba_marseille","lat":43.29646,"lon":5.37955,"is_reserved":false,"is_disabled":false,"rental_uris":{"android":"levelo://app?vid=2e432000-19e4-474b-acb8-4742408d8ecf","ios":"levelo://app?vid=2e432000-19e4-474b-acb8-4742408d8ecf"},"vehicle_type_id":"4","last_reported":1767242337,"current_range_meters":11200,"station_id":"","pricing_plan_id":"cebpf4jnsgd1na2vs0mg"},{"bike_id":"4dc0c5ae-caa1-44d5-b24a-43bb801e464f","system_id":"levelo_inurba_marseille","lat":43.28134,"lon":5.37846,"is_reserved":false,"is_disabled":false,"rental_uris":{"android":"levelo://app?vid=4dc0c5ae-caa1-44d5-b24a-43bb801e464f","ios":"levelo://app?vid=4dc0c5ae-caa1-44d5-b24a-43bb801e464f"},"vehicle_type_id":"4","last_reported":1767242337,"current_range_meters":11200,"station_id":"ce4bha12rcd13ifvqee0","pricing_plan_id":"cebpf4jnsgd1na2vs0mg"},{"bike_id":"71feabac-18bb-4c38-9f1c-553d18ed10d6","system_id":"levelo_inurba_marseille","lat":43.29603,"lon":5.37178,"is_reserved":false,"is_disabled":false,"rental_uris":{"android":"levelo://app?vid=71feabac-18bb-4c38-9f1c-553d18ed10d6","ios":"levelo://app?vid=71feabac-18bb-4c38-9f1c-553d18ed10d6"},"vehicle_type_id":"4","last_reported":1767242337,"current_range_meters":11200,"station_id":"ce4bgnh2rcd13ifvqc0g","pricing_plan_id":"cebpf4jnsgd1na2vs0mg"},{"bike_id":"475de299-2917-42da-9347-8b67ff473f85","system_id":"levelo_inurba_marseille","lat":43.30125,"lon":5.43117,"is_reserved":false,"is_disabled":false,"rental_uris":{"android":"levelo://app?vid=475de299-2917-42da-9347-8b67ff473f85","ios":"levelo://app?vid=475de299-2917-42da-9347-8b67ff473f85"},"vehicle_type_id":"4","last_reported":1767242337,"current_range_meters":11200,"station_id":"st_d3js3co5814s73ftftug","pricing_plan_id":"cebpf4jnsgd1na2vs0mg"},{"bike_id":"c0a53d93-3656-40f0-aa26-27efa5b7f7e7","system_id":"levelo_inurba_marseille","lat":43.28222,"lon":5.39049,"is_reserved":false,"is_disabled":false,"rental_uris":{"android":"levelo://app?vid=c0a53d93-3656-40f0-aa26-27efa5b7f7e7","ios":"levelo://app?vid=c0a53d93-3656-40f0-aa26-27efa5b7f7e7"},"vehicle_type_id":"4","last_reported":1767242337,"current_range_meters":11200,"station_id":"ce4bhn92rcd13ifvqgsg","pricing_plan_id":"cebpf4jnsgd1na2vs0mg"},{"bike_id":"da51a696-5705-48cd-a174-f63e3c15d9de","system_id":"levelo_inurba_marseille","lat":43.28863,"lon":5.42526,"is_reserved":false,"is_disabled":false,"rental_uris":{"android":"levelo://app?vid=da51a696-5705-48cd-a174-f63e3c15d9de","ios":"levelo://app?vid=da51a696-5705-48cd-a174-f63e3c15d9de"},"vehicle_type_id":"4","last_reported":1767242337,"current_range_meters":11200,"station_id":"st_d3b462108ojc7389ooeg","pricing_plan_id":"cebpf4jnsgd1na2vs0mg"},{"bike_id":"bebec6bc-9df3-406e-90bc-396ce2b3b0b3","system_id":"levelo_inurba_marseille","lat":43.2637,"lon":5.3741,"is_reserved":false,"is_disabled":false,"rental_uris":{"android":"levelo://app?vid=bebec6bc-9df3-406e-90bc-396ce2b3b0b3","ios":"levelo://app?vid=bebec6bc-9df3-406e-90bc-396ce2b3b0b3"},"vehicle_type_id":"4","last_reported":1767242337,"current_range_meters":11200,"station_id":"","pricing_plan_id":"cebpf4jnsgd1na2vs0mg"},{"bike_id":"1b31d894-b831-40d2-a092-a08509e73f98","system_id":"levelo_inurba_marseille","lat":43.27435,"lon":5.39417,"is_reserved":false,"is_disabled":false,"rental_uris":{"android":"levelo://app?vid=1b31d894-b831-40d2-a092-a08509e73f98","ios":"levelo://app?vid=1b31d894-b831-40d2-a092-a08509e73f98"},"vehicle_type_id":"4","last_reported":1767242337,"current_range_meters":11600,"station_id":"ce4bhdp2rcd13ifvqf20","pricing_plan_id":"cebpf4jnsgd1na2vs0mg"},{"bike_id":"3501ff75-149d-4276-833a-80688a400562","system_id":"levelo_inurba_marseille","lat":43.27288,"lon":5.36295,"is_reserved":false,"is_disabled":false,"rental_uris":{"android":"levelo://app?vid=3501ff75-149d-4276-833a-80688a400562","ios":"levelo://app?vid=3501ff75-149d-4276-833a-80688a400562"},"vehicle_type_id":"4","last_reported":1767242337,"current_range_meters":11600,"station_id":"","pricing_plan_id":"cebpf4jnsgd1na2vs0mg"},{"bike_id":"d8431e58-d3e8-4456-9570-729e3ebbcc73","system_id":"levelo_inurba_marseille","lat":43.30175,"lon":5.37264,"is_reserved":false,"is_disabled":false,"rental_uris":{"android":"levelo://app?vid=d8431e58-d3e8-4456-9570-729e3ebbcc73","ios":"levelo://app?vid=d8431e58-d3e8-4456-9570-729e3ebbcc73"},"vehicle_type_id":"4","last_reported":1767242337,"current_range_meters":11600,"station_id":"","pricing_plan_id":"cebpf4jnsgd1na2vs0mg"},{"bike_id":"81586eb2-5997-4a7f-910d-f12ada7984c8","system_id":"levelo_inurba_marseille","lat":43.29887,"lon":5.38629,"is_reserved":false,"is_disabled":false,"rental_uris":{"android":"levelo://app?vid=81586eb2-5997-4a7f-910d-f12ada7984c8","ios":"levelo://app?vid=81586eb2-5997-4a7f-910d-f12ada7984c8"},"vehicle_type_id":"4","last_reported":1767242337,"current_range_meters":11600,"station_id":"","pricing_plan_id":"cebpf4jnsgd1na2vs0mg"},{"bike_id":"9cd33af6-41d1-41ec-a4f6-c787448ebf12","system_id":"levelo_inurba_marseille","lat":43.31269,"lon":5.40166,"is_reserved":false,"is_disabled":false,"rental_uris":{"android":"levelo://app?vid=9cd33af6-41d1-41ec-a4f6-c787448ebf12","ios":"levelo://app?vid=9cd33af6-41d1-41ec-a4f6-c787448ebf12"},"vehicle_type_id":"4","last_reported":1767242337,"current_range_meters":11600,"station_id":"ce4bh092rcd13ifvqd30","pricing_plan_id":"cebpf4jnsgd1na2vs0mg"},{"bike_id":"f3a4c2fd-c27a-4ca6-bbe5-3949d2a88808","system_id":"levelo_inurba_marseille","lat":43.28583,"lon":5.4298,"is_reserved":false,"is_disabled":false,"rental_uris":{"android":"levelo://app?vid=f3a4c2fd-c27a-4ca6-bbe5-3949d2a88808","ios":"levelo://app?vid=f3a4c2fd-c27a-4ca6-bbe5-3949d2a88808"},"vehicle_type_id":"4","last_reported":1767242337,"current_range_meters":11600,"station_id":"","pricing_plan_id":"cebpf4jnsgd1na2vs0mg"},{"bike_id":"0dbef0f5-ff6b-43f7-bd8a-00073f6a9a0f","system_id":"levelo_inurba_marseille","lat":43.30799,"lon":5.38143,"is_reserved":false,"is_disabled":false,"rental_uris":{"android":"levelo://app?vid=0dbef0f5-ff6b-43f7-bd8a-00073f6a9a0f","ios":"levelo://app?vid=0dbef0f5-ff6b-43f7-bd8a-00073f6a9a0f"},"vehicle_type_id":"4","last_reported":1767242337,"current_range_meters":11600,"station_id":"ce4bgt12rcd13ifvqce0","pricing_plan_id":"cebpf4jnsgd1na2vs0mg"},{"bike_id":"f9e9fd89-b7c6-4e84-90bb-2a2dc045365a","system_id":"levelo_inurba_marseille","lat":43.27049,"lon":5.40261,"is_reserved":false,"is_disabled":false,"rental_uris":{"android":"levelo://app?vid=f9e9fd89-b7c6-4e84-90bb-2a2dc045365a","ios":"levelo://app?vid=f9e9fd89-b7c6-4e84-90bb-2a2dc045365a"},"vehicle_type_id":"4","last_reported":1767242337,"current_range_meters":11600,"station_id":"ce4bhk92rcd13ifvqgc0","pricing_plan_id":"cebpf4jnsgd1na2vs0mg"},{"bike_id":"3eec8e02-6c1b-4d38-adea-62c83aba9c65","system_id":"levelo_inurba_marseille","lat":43.30888,"lon":5.3964,"is_reserved":false,"is_disabled":false,"rental_uris":{"android":"levelo://app?vid=3eec8e02-6c1b-4d38-adea-62c83aba9c65","ios":"levelo://app?vid=3eec8e02-6c1b-4d38-adea-62c83aba9c65"},"vehicle_type_id":"4","last_reported":1767242337,"current_range_meters":12000,"station_id":"ce4bh012rcd13ifvqcv0","pricing_plan_id":"cebpf4jnsgd1na2vs0mg"},{"bike_id":"68d3d751-d36b-41d3-b364-2b08a74c64e8","system_id":"levelo_inurba_marseille","lat":43.2959,"lon":5.39985,"is_reserved":false,"is_disabled":false,"rental_uris":{"android":"levelo://app?vid=68d3d751-d36b-41d3-b364-2b08a74c64e8","ios":"levelo://app?vid=68d3d751-d36b-41d3-b364-2b08a74c64e8"},"vehicle_type_id":"4","last_reported":1767242337,"current_range_meters":12000,"station_id":"ce4bh312rcd13ifvqdj0","pricing_plan_id":"cebpf4jnsgd1na2vs0mg"},{"bike_id":"41853112-4688-4aa7-ade9-19232fbbbc52","system_id":"levelo_inurba_marseille","lat":43.30323,"lon":5.40439,"is_reserved":false,"is_disabled":false,"rental_uris":{"android":"levelo://app?vid=41853112-4688-4aa7-ade9-19232fbbbc52","ios":"levelo://app?vid=41853112-4688-4aa7-ade9-19232fbbbc52"},"vehicle_type_id":"4","last_reported":1767242337,"current_range_meters":12000,"station_id":"ce4bh012rcd13ifvqd10","pricing_plan_id":"cebpf4jnsgd1na2vs0mg"},{"bike_id":"25f1743a-a2b2-454e-84ce-5c43f5ea30d3","system_id":"levelo_inurba_marseille","lat":43.29896,"lon":5.43689,"is_reserved":false,"is_disabled":false,"rental_uris":{"android":"levelo://app?vid=25f1743a-a2b2-454e-84ce-5c43f5ea30d3","ios":"levelo://app?vid=25f1743a-a2b2-454e-84ce-5c43f5ea30d3"},"vehicle_type_id":"4","last_reported":1767242337,"current_range_meters":12000,"station_id":"ce4bhpp2rcd13ifvqhfg","pricing_plan_id":"cebpf4jnsgd1na2vs0mg"},{"bike_id":"194725d2-dadc-4d87-8064-33a72eca81a4","system_id":"levelo_inurba_marseille","lat":43.30426,"lon":5.39741,"is_reserved":false,"is_disabled":false,"rental_uris":{"android":"levelo://app?vid=194725d2-dadc-4d87-8064-33a72eca81a4","ios":"levelo://app?vid=194725d2-dadc-4d87-8064-33a72eca81a4"},"vehicle_type_id":"4","last_reported":1767242337,"current_range_meters":12000,"station_id":"ce4bh092rcd13ifvqd20","pricing_plan_id":"cebpf4jnsgd1na2vs0mg"},{"bike_id":"1579b22c-0739-4446-affd-66e597b52ce6","system_id":"levelo_inurba_marseille","lat":43.24638,"lon":5.38897,"is_reserved":false,"is_disabled":false,"rental_uris":{"android":"levelo://app?vid=1579b22c-0739-4446-affd-66e597b52ce6","ios":"levelo://app?vid=1579b22c-0739-4446-affd-66e597b52ce6"},"vehicle_type_id":"4","last_reported":1767242337,"current_range_meters":12000,"station_id":"ce4bhg12rcd13ifvqf60","pricing_plan_id":"cebpf4jnsgd1na2vs0mg"},{"bike_id":"3fd00cb0-0645-4a8c-874a-2e0df62cb4f5","system_id":"levelo_inurba_marseille","lat":43.29724,"lon":5.38086,"is_reserved":false,"is_disabled":false,"rental_uris":{"android":"levelo://app?vid=3fd00cb0-0645-4a8c-874a-2e0df62cb4f5","ios":"levelo://app?vid=3fd00cb0-0645-4a8c-874a-2e0df62cb4f5"},"vehicle_type_id":"4","last_reported":1767242337,"current_range_meters":12000,"station_id":"","pricing_plan_id":"cebpf4jnsgd1na2vs0mg"},{"bike_id":"20541a07-e3c2-4d12-b13e-4f5e28d84422","system_id":"levelo_inurba_marseille","lat":43.335417,"lon":5.374617,"is_reserved":false,"is_disabled":false,"rental_uris":{"android":"levelo://app?vid=20541a07-e3c2-4d12-b13e-4f5e28d84422","ios":"levelo://app?vid=20541a07-e3c2-4d12-b13e-4f5e28d84422"},"vehicle_type_id":"4","last_reported":1767242337,"current_range_meters":12000,"station_id":"st_d46tts09ee8s73dlu43g","pricing_plan_id":"cebpf4jnsgd1na2vs0mg"},{"bike_id":"cc7d95c5-913c-4570-834d-a943b3da39e0","system_id":"levelo_inurba_marseille","lat":43.27971,"lon":5.3873,"is_reserved":false,"is_disabled":false,"rental_uris":{"android":"levelo://app?vid=cc7d95c5-913c-4570-834d-a943b3da39e0","ios":"levelo://app?vid=cc7d95c5-913c-4570-834d-a943b3da39e0"},"vehicle_type_id":"4","last_reported":1767242337,"current_range_meters":12000,"station_id":"ce4bhg12rcd13ifvqf80","pricing_plan_id":"cebpf4jnsgd1na2vs0mg"},{"bike_id":"76499c74-973d-426f-8f6d-e26d239c3972","system_id":"levelo_inurba_marseille","lat":43.279365,"lon":5.435922,"is_reserved":false,"is_disabled":false,"rental_uris":{"android":"levelo://app?vid=76499c74-973d-426f-8f6d-e26d239c3972","ios":"levelo://app?vid=76499c74-973d-426f-8f6d-e26d239c3972"},"vehicle_type_id":"4","last_reported":1767242337,"current_range_meters":12000,"station_id":"","pricing_plan_id":"cebpf4jnsgd1na2vs0mg"},{"bike_id":"1e76a634-1236-4429-a6ca-562668962923","system_id":"levelo_inurba_marseille","lat":43.25212,"lon":5.39448,"is_reserved":false,"is_disabled":false,"rental_uris":{"android":"levelo://app?vid=1e76a634-1236-4429-a6ca-562668962923","ios":"levelo://app?vid=1e76a634-1236-4429-a6ca-562668962923"},"vehicle_type_id":"4","last_reported":1767242337,"current_range_meters":12400,"station_id":"","pricing_plan_id":"cebpf4jnsgd1na2vs0mg"},{"bike_id":"5294767e-dd69-4945-8c8e-03dd74e904a7","system_id":"levelo_inurba_marseille","lat":43.23064,"lon":5.35494,"is_reserved":false,"is_disabled":false,"rental_uris":{"android":"levelo://app?vid=5294767e-dd69-4945-8c8e-03dd74e904a7","ios":"levelo://app?vid=5294767e-dd69-4945-8c8e-03dd74e904a7"},"vehicle_type_id":"4","last_reported":1767242337,"current_range_meters":12400,"station_id":"cpo3342slgdg3j2ifvpg","pricing_plan_id":"cebpf4jnsgd1na2vs0mg"},{"bike_id":"1976f061-e064-45cd-9d75-48c90f29fe4d","system_id":"levelo_inurba_marseille","lat":43.28411,"lon":5.34984,"is_reserved":false,"is_disabled":false,"rental_uris":{"android":"levelo://app?vid=1976f061-e064-45cd-9d75-48c90f29fe4d","ios":"levelo://app?vid=1976f061-e064-45cd-9d75-48c90f29fe4d"},"vehicle_type_id":"4","last_reported":1767242337,"current_range_meters":12400,"station_id":"ce4bhbh2rcd13ifvqepg","pricing_plan_id":"cebpf4jnsgd1na2vs0mg"},{"bike_id":"6fb45a38-412e-484d-8f99-6a8e87169809","system_id":"levelo_inurba_marseille","lat":43.284753,"lon":5.384083,"is_reserved":false,"is_disabled":false,"rental_uris":{"android":"levelo://app?vid=6fb45a38-412e-484d-8f99-6a8e87169809","ios":"levelo://app?vid=6fb45a38-412e-484d-8f99-6a8e87169809"},"vehicle_type_id":"4","last_reported":1767242337,"current_range_meters":12400,"station_id":"ce4bh512rcd13ifvqe3g","pricing_plan_id":"cebpf4jnsgd1na2vs0mg"},{"bike_id":"a5ed6123-7735-445c-8078-46d4ca98d044","system_id":"levelo_inurba_marseille","lat":43.26787,"lon":5.39419,"is_reserved":false,"is_disabled":false,"rental_uris":{"android":"levelo://app?vid=a5ed6123-7735-445c-8078-46d4ca98d044","ios":"levelo://app?vid=a5ed6123-7735-445c-8078-46d4ca98d044"},"vehicle_type_id":"4","last_reported":1767242337,"current_range_meters":12400,"station_id":"ce4bhh12rcd13ifvqfg0","pricing_plan_id":"cebpf4jnsgd1na2vs0mg"},{"bike_id":"54045760-2072-46e5-a5c4-00c3b9646aa6","system_id":"levelo_inurba_marseille","lat":43.299834,"lon":5.371857,"is_reserved":false,"is_disabled":false,"rental_uris":{"android":"levelo://app?vid=54045760-2072-46e5-a5c4-00c3b9646aa6","ios":"levelo://app?vid=54045760-2072-46e5-a5c4-00c3b9646aa6"},"vehicle_type_id":"4","last_reported":1767242337,"current_range_meters":12400,"station_id":"ce4bgr92rcd13ifvqc7g","pricing_plan_id":"cebpf4jnsgd1na2vs0mg"},{"bike_id":"32cbcd6b-22a0-47d3-ae4c-55539767b9a6","system_id":"levelo_inurba_marseille","lat":43.321096,"lon":5.367672,"is_reserved":false,"is_disabled":false,"rental_uris":{"android":"levelo://app?vid=32cbcd6b-22a0-47d3-ae4c-55539767b9a6","ios":"levelo://app?vid=32cbcd6b-22a0-47d3-ae4c-55539767b9a6"},"vehicle_type_id":"4","last_reported":1767242337,"current_range_meters":12400,"station_id":"ce4bhrh2rcd13ifvqhug","pricing_plan_id":"cebpf4jnsgd1na2vs0mg"},{"bike_id":"27eab711-3794-4c67-b72c-787e5b4b546b","system_id":"levelo_inurba_marseille","lat":43.25576,"lon":5.38217,"is_reserved":false,"is_disabled":false,"rental_uris":{"android":"levelo://app?vid=27eab711-3794-4c67-b72c-787e5b4b546b","ios":"levelo://app?vid=27eab711-3794-4c67-b72c-787e5b4b546b"},"vehicle_type_id":"4","last_reported":1767242337,"current_range_meters":12400,"station_id":"ce4bhih2rcd13ifvqfs0","pricing_plan_id":"cebpf4jnsgd1na2vs0mg"},{"bike_id":"29410062-5ab5-4985-b287-c0ccfbf777bb","system_id":"levelo_inurba_marseille","lat":43.30539,"lon":5.36563,"is_reserved":false,"is_disabled":false,"rental_uris":{"android":"levelo://app?vid=29410062-5ab5-4985-b287-c0ccfbf777bb","ios":"levelo://app?vid=29410062-5ab5-4985-b287-c0ccfbf777bb"},"vehicle_type_id":"4","last_reported":1767242337,"current_range_meters":12400,"station_id":"ce4bgs12rcd13ifvqcag","pricing_plan_id":"cebpf4jnsgd1na2vs0mg"},{"bike_id":"961a4b80-6a80-41fc-af4e-cb7c655480a6","system_id":"levelo_inurba_marseille","lat":43.28308,"lon":5.39748,"is_reserved":false,"is_disabled":true,"rental_uris":{"android":"levelo://app?vid=961a4b80-6a80-41fc-af4e-cb7c655480a6","ios":"levelo://app?vid=961a4b80-6a80-41fc-af4e-cb7c655480a6"},"vehicle_type_id":"4","last_reported":1767242337,"current_range_meters":12400,"station_id":"","pricing_plan_id":"cebpf4jnsgd1na2vs0mg"},{"bike_id":"e0decbbd-66f2-41ff-95bf-ae2a7b2f4e23","system_id":"levelo_inurba_marseille","lat":43.2858,"lon":5.42628,"is_reserved":false,"is_disabled":false,"rental_uris":{"android":"levelo://app?vid=e0decbbd-66f2-41ff-95bf-ae2a7b2f4e23","ios":"levelo://app?vid=e0decbbd-66f2-41ff-95bf-ae2a7b2f4e23"},"vehicle_type_id":"4","last_reported":1767242337,"current_range_meters":12400,"station_id":"","pricing_plan_id":"cebpf4jnsgd1na2vs0mg"},{"bike_id":"0d534b9e-8152-4a4f-b776-4b5239420897","system_id":"levelo_inurba_marseille","lat":43.30902,"lon":5.3685,"is_reserved":false,"is_disabled":false,"rental_uris":{"android":"levelo://app?vid=0d534b9e-8152-4a4f-b776-4b5239420897","ios":"levelo://app?vid=0d534b9e-8152-4a4f-b776-4b5239420897"},"vehicle_type_id":"4","last_reported":1767242337,"current_range_meters":12400,"station_id":"","pricing_plan_id":"cebpf4jnsgd1na2vs0mg"},{"bike_id":"bf0e9831-c74b-4b77-afac-4e525f8e3fd0","system_id":"levelo_inurba_marseille","lat":43.24398,"lon":5.37055,"is_reserved":false,"is_disabled":false,"rental_uris":{"android":"levelo://app?vid=bf0e9831-c74b-4b77-afac-4e525f8e3fd0","ios":"levelo://app?vid=bf0e9831-c74b-4b77-afac-4e525f8e3fd0"},"vehicle_type_id":"4","last_reported":1767242337,"current_range_meters":12400,"station_id":"ce4bhhh2rcd13ifvqfk0","pricing_plan_id":"cebpf4jnsgd1na2vs0mg"},{"bike_id":"5c697cf1-3155-402b-bc5c-8bfef5fdb183","system_id":"levelo_inurba_marseille","lat":43.2994,"lon":5.38524,"is_reserved":false,"is_disabled":false,"rental_uris":{"android":"levelo://app?vid=5c697cf1-3155-402b-bc5c-8bfef5fdb183","ios":"levelo://app?vid=5c697cf1-3155-402b-bc5c-8bfef5fdb183"},"vehicle_type_id":"4","last_reported":1767242337,"current_range_meters":12800,"station_id":"ce4bgj92rcd13ifvqbd0","pricing_plan_id":"cebpf4jnsgd1na2vs0mg"},{"bike_id":"f1108872-5fa5-476f-80f4-3a1cd6f15393","system_id":"levelo_inurba_marseille","lat":43.29265,"lon":5.4012,"is_reserved":false,"is_disabled":false,"rental_uris":{"android":"levelo://app?vid=f1108872-5fa5-476f-80f4-3a1cd6f15393","ios":"levelo://app?vid=f1108872-5fa5-476f-80f4-3a1cd6f15393"},"vehicle_type_id":"4","last_reported":1767242337,"current_range_meters":12800,"station_id":"ce4bh312rcd13ifvqdk0","pricing_plan_id":"cebpf4jnsgd1na2vs0mg"},{"bike_id":"a63eff76-4348-433b-98e8-106875d368d9","system_id":"levelo_inurba_marseille","lat":43.31114,"lon":5.37272,"is_reserved":false,"is_disabled":false,"rental_uris":{"android":"levelo://app?vid=a63eff76-4348-433b-98e8-106875d368d9","ios":"levelo://app?vid=a63eff76-4348-433b-98e8-106875d368d9"},"vehicle_type_id":"4","last_reported":1767242337,"current_range_meters":12800,"station_id":"","pricing_plan_id":"cebpf4jnsgd1na2vs0mg"},{"bike_id":"f60002fe-1512-46c8-bd85-95df7296e479","system_id":"levelo_inurba_marseille","lat":43.29971,"lon":5.38488,"is_reserved":false,"is_disabled":false,"rental_uris":{"android":"levelo://app?vid=f60002fe-1512-46c8-bd85-95df7296e479","ios":"levelo://app?vid=f60002fe-1512-46c8-bd85-95df7296e479"},"vehicle_type_id":"4","last_reported":1767242337,"current_range_meters":12800,"station_id":"ce4bgj92rcd13ifvqbd0","pricing_plan_id":"cebpf4jnsgd1na2vs0mg"},{"bike_id":"ab98afa8-4907-4b9f-b6c6-75e71a064cde","system_id":"levelo_inurba_marseille","lat":43.25721,"lon":5.4111,"is_reserved":false,"is_disabled":true,"rental_uris":{"android":"levelo://app?vid=ab98afa8-4907-4b9f-b6c6-75e71a064cde","ios":"levelo://app?vid=ab98afa8-4907-4b9f-b6c6-75e71a064cde"},"vehicle_type_id":"4","last_reported":1767242337,"current_range_meters":12800,"station_id":"ce4bhkp2rcd13ifvqgd0","pricing_plan_id":"cebpf4jnsgd1na2vs0mg"},{"bike_id":"adee5904-d2f9-48c4-ad58-68d27b5bb40a","system_id":"levelo_inurba_marseille","lat":43.2927,"lon":5.37677,"is_reserved":false,"is_disabled":false,"rental_uris":{"android":"levelo://app?vid=adee5904-d2f9-48c4-ad58-68d27b5bb40a","ios":"levelo://app?vid=adee5904-d2f9-48c4-ad58-68d27b5bb40a"},"vehicle_type_id":"4","last_reported":1767242337,"current_range_meters":12800,"station_id":"ce4bgi12rcd13ifvqb80","pricing_plan_id":"cebpf4jnsgd1na2vs0mg"},{"bike_id":"e072ce20-befa-4d9c-a562-c16f166965ba","system_id":"levelo_inurba_marseille","lat":43.21191,"lon":5.3508,"is_reserved":false,"is_disabled":true,"rental_uris":{"android":"levelo://app?vid=e072ce20-befa-4d9c-a562-c16f166965ba","ios":"levelo://app?vid=e072ce20-befa-4d9c-a562-c16f166965ba"},"vehicle_type_id":"4","last_reported":1767242337,"current_range_meters":12800,"station_id":"st_cvj6sg6p6f1abm77japg","pricing_plan_id":"cebpf4jnsgd1na2vs0mg"},{"bike_id":"1498f079-e300-4265-837b-8da7d97aca06","system_id":"levelo_inurba_marseille","lat":43.24169,"lon":5.36393,"is_reserved":false,"is_disabled":false,"rental_uris":{"android":"levelo://app?vid=1498f079-e300-4265-837b-8da7d97aca06","ios":"levelo://app?vid=1498f079-e300-4265-837b-8da7d97aca06"},"vehicle_type_id":"4","last_reported":1767242337,"current_range_meters":12800,"station_id":"cpo36qri1sfpv3e86is0","pricing_plan_id":"cebpf4jnsgd1na2vs0mg"},{"bike_id":"03396f01-143e-4b0b-83da-8fba94916c27","system_id":"levelo_inurba_marseille","lat":43.28609,"lon":5.35095,"is_reserved":false,"is_disabled":false,"rental_uris":{"android":"levelo://app?vid=03396f01-143e-4b0b-83da-8fba94916c27","ios":"levelo://app?vid=03396f01-143e-4b0b-83da-8fba94916c27"},"vehicle_type_id":"4","last_reported":1767242337,"current_range_meters":12800,"station_id":"ce4bhch2rcd13ifvqeug","pricing_plan_id":"cebpf4jnsgd1na2vs0mg"},{"bike_id":"a0e8834d-99dc-498c-bfc6-c375b2aebdc7","system_id":"levelo_inurba_marseille","lat":43.287504,"lon":5.365728,"is_reserved":false,"is_disabled":false,"rental_uris":{"android":"levelo://app?vid=a0e8834d-99dc-498c-bfc6-c375b2aebdc7","ios":"levelo://app?vid=a0e8834d-99dc-498c-bfc6-c375b2aebdc7"},"vehicle_type_id":"4","last_reported":1767242337,"current_range_meters":12800,"station_id":"","pricing_plan_id":"cebpf4jnsgd1na2vs0mg"},{"bike_id":"78cb6752-e206-48c8-ab5a-fdfba15196a7","system_id":"levelo_inurba_marseille","lat":43.27681,"lon":5.38888,"is_reserved":false,"is_disabled":false,"rental_uris":{"android":"levelo://app?vid=78cb6752-e206-48c8-ab5a-fdfba15196a7","ios":"levelo://app?vid=78cb6752-e206-48c8-ab5a-fdfba15196a7"},"vehicle_type_id":"4","last_reported":1767242337,"current_range_meters":13600,"station_id":"ce4bhi12rcd13ifvqfo0","pricing_plan_id":"cebpf4jnsgd1na2vs0mg"},{"bike_id":"62bbb4f8-cd37-4703-914d-4c2cbb4345e1","system_id":"levelo_inurba_marseille","lat":43.28073,"lon":5.39659,"is_reserved":false,"is_disabled":false,"rental_uris":{"android":"levelo://app?vid=62bbb4f8-cd37-4703-914d-4c2cbb4345e1","ios":"levelo://app?vid=62bbb4f8-cd37-4703-914d-4c2cbb4345e1"},"vehicle_type_id":"4","last_reported":1767242337,"current_range_meters":13600,"station_id":"ce4bho12rcd13ifvqh2g","pricing_plan_id":"cebpf4jnsgd1na2vs0mg"},{"bike_id":"33d27fd2-4a0f-447b-b143-0f1e96c92703","system_id":"levelo_inurba_marseille","lat":43.3127,"lon":5.37918,"is_reserved":false,"is_disabled":false,"rental_uris":{"android":"levelo://app?vid=33d27fd2-4a0f-447b-b143-0f1e96c92703","ios":"levelo://app?vid=33d27fd2-4a0f-447b-b143-0f1e96c92703"},"vehicle_type_id":"4","last_reported":1767242337,"current_range_meters":13600,"station_id":"","pricing_plan_id":"cebpf4jnsgd1na2vs0mg"},{"bike_id":"ff5c6b4a-89f2-4c42-b15b-5d02b94a6b26","system_id":"levelo_inurba_marseille","lat":43.34142,"lon":5.40901,"is_reserved":false,"is_disabled":false,"rental_uris":{"android":"levelo://app?vid=ff5c6b4a-89f2-4c42-b15b-5d02b94a6b26","ios":"levelo://app?vid=ff5c6b4a-89f2-4c42-b15b-5d02b94a6b26"},"vehicle_type_id":"4","last_reported":1767242337,"current_range_meters":13600,"station_id":"ce4bhqh2rcd13ifvqhlg","pricing_plan_id":"cebpf4jnsgd1na2vs0mg"},{"bike_id":"bc5e3544-bda1-4030-aedf-2a64fd688c9d","system_id":"levelo_inurba_marseille","lat":43.32106,"lon":5.36765,"is_reserved":false,"is_disabled":false,"rental_uris":{"android":"levelo://app?vid=bc5e3544-bda1-4030-aedf-2a64fd688c9d","ios":"levelo://app?vid=bc5e3544-bda1-4030-aedf-2a64fd688c9d"},"vehicle_type_id":"4","last_reported":1767242337,"current_range_meters":13600,"station_id":"ce4bhrh2rcd13ifvqhug","pricing_plan_id":"cebpf4jnsgd1na2vs0mg"},{"bike_id":"ba4d9c7a-7aca-4b85-9206-966a264e9e7b","system_id":"levelo_inurba_marseille","lat":43.31486,"lon":5.38796,"is_reserved":false,"is_disabled":false,"rental_uris":{"android":"levelo://app?vid=ba4d9c7a-7aca-4b85-9206-966a264e9e7b","ios":"levelo://app?vid=ba4d9c7a-7aca-4b85-9206-966a264e9e7b"},"vehicle_type_id":"4","last_reported":1767242337,"current_range_meters":13600,"station_id":"","pricing_plan_id":"cebpf4jnsgd1na2vs0mg"},{"bike_id":"b6c2de47-37fa-44c1-ae2a-ab2b9c904820","system_id":"levelo_inurba_marseille","lat":43.2849,"lon":5.38435,"is_reserved":false,"is_disabled":false,"rental_uris":{"android":"levelo://app?vid=b6c2de47-37fa-44c1-ae2a-ab2b9c904820","ios":"levelo://app?vid=b6c2de47-37fa-44c1-ae2a-ab2b9c904820"},"vehicle_type_id":"4","last_reported":1767242337,"current_range_meters":13600,"station_id":"ce4bh512rcd13ifvqe3g","pricing_plan_id":"cebpf4jnsgd1na2vs0mg"},{"bike_id":"3f92dcc5-d2e5-4ffb-bd75-4e4527d3b989","system_id":"levelo_inurba_marseille","lat":43.295483,"lon":5.362704,"is_reserved":false,"is_disabled":false,"rental_uris":{"android":"levelo://app?vid=3f92dcc5-d2e5-4ffb-bd75-4e4527d3b989","ios":"levelo://app?vid=3f92dcc5-d2e5-4ffb-bd75-4e4527d3b989"},"vehicle_type_id":"4","last_reported":1767242337,"current_range_meters":13600,"station_id":"","pricing_plan_id":"cebpf4jnsgd1na2vs0mg"},{"bike_id":"aae83613-d180-4239-9800-5e6ea52a6395","system_id":"levelo_inurba_marseille","lat":43.312121,"lon":5.368824,"is_reserved":false,"is_disabled":false,"rental_uris":{"android":"levelo://app?vid=aae83613-d180-4239-9800-5e6ea52a6395","ios":"levelo://app?vid=aae83613-d180-4239-9800-5e6ea52a6395"},"vehicle_type_id":"4","last_reported":1767242337,"current_range_meters":13600,"station_id":"ce4bgl92rcd13ifvqbq0","pricing_plan_id":"cebpf4jnsgd1na2vs0mg"},