{"last_updated":1749558124,"ttl":60,"version":"2.2","data":{"bikes":[{"bike_id":"15b696c1-54fb-44cc-9684-32e53b1bbfcb","system_id":"levelo_inurba_marseille","lat":43.31218,"lon":5.36849,"is_reserved":false,"is_disabled":false,"rental_uris":{"android":"levelo://app?vid=15b696c1-54fb-44cc-9684-32e53b1bbfcb","ios":"levelo://app?vid=15b696c1-54fb-44cc-9684-32e53b1bbfcb"},"vehicle_type_id":"4","last_reported":1749558124,"current_range_meters":2800,"station_id":"ce4bgl92rcd13ifvqbq0","pricing_plan_id":"cebpf4jnsgd1na2vs0mg"},{"bike_id":"45d44e9e-c75b-4ba4-9ae2-994d261f05ab","system_id":"levelo_inurba_marseille","lat":43.257235,"lon":5.411175,"is_reserved":false,"is_disabled":false,"rental_uris":{"android":"levelo://app?vid=45d44e9e-c75b-4ba4-9ae2-994d261f05ab","ios":"levelo://app?vid=45d44e9e-c75b-4ba4-9ae2-994d261f05ab"},"vehicle_type_id":"4","last_reported":1749558124,"current_range_meters":2800,"station_id":"ce4bhkp2rcd13ifvqgd0","pricing_plan_id":"cebpf4jnsgd1na2vs0mg"},{"bike_id":"1c83d4a3-1705-4c82-9ebf-a2da6c26ad09","system_id":"levelo_inurba_marseille","lat":43.25103,"lon":5.4032,"is_reserved":false,"is_disabled":true,"rental_uris":{"android":"levelo://app?vid=1c83d4a3-1705-4c82-9ebf-a2da6c26ad09","ios":"levelo://app?vid=1c83d4a3-1705-4c82-9ebf-a2da6c26ad09"},"vehicle_type_id":"4","last_reported":1749558124,"current_range_meters":3200,"station_id":"ce4bhlh2rcd13ifvqgig","pricing_plan_id":"cebpf4jnsgd1na2vs0mg"},{"bike_id":"874659d9-f6dc-4cfb-8661-86eef96a77fa","system_id":"levelo_inurba_marseille","lat":43.28673,"lon":5.38663,"is_reserved":false,"is_disabled":false,"rental_uris":{"android":"levelo://app?vid=874659d9-f6dc-4cfb-8661-86eef96a77fa","ios":"levelo://app?vid=874659d9-f6dc-4cfb-8661-86eef96a77fa"},"vehicle_type_id":"4","last_reported":1749558124,"current_range_meters":3200,"station_id":"ce4bh492rcd13ifvqdug","pricing_plan_id":"cebpf4jnsgd1na2vs0mg"},{"bike_id":"bbe2efb9-a89f-449d-b95c-a4fc997e7a42","system_id":"levelo_inurba_marseille","lat":43.2992,"lon":5.37504,"is_reserved":false,"is_disabled":false,"rental_uris":{"android":"levelo://app?vid=bbe2efb9-a89f-449d-b95c-a4fc997e7a42","ios":"levelo://app?vid=bbe2efb9-a89f-449d-b95c-a4fc997e7a42"},"vehicle_type_id":"4","last_reported":1749558124,"current_range_meters":3600,"station_id":"ce4bgjh2rcd13ifvqbg0","pricing_plan_id":"cebpf4jnsgd1na2vs0mg"},{"bike_id":"520b71f7-464f-446a-8bfb-e8792310bd31","system_id":"levelo_inurba_marseille","lat":43.304589,"lon":5.379036,"is_reserved":false,"is_disabled":false,"rental_uris":{"android":"levelo://app?vid=520b71f7-464f-446a-8bfb-e8792310bd31","ios":"levelo://app?vid=520b71f7-464f-446a-8bfb-e8792310bd31"},"vehicle_type_id":"4","last_reported":1749558124,"current_range_meters":3600,"station_id":"ce4bgup2rcd13ifvqcn0","pricing_plan_id":"cebpf4jnsgd1na2vs0mg"},{"bike_id":"f8892a4c-ca95-48c4-8578-59fbeee09f15","system_id":"levelo_inurba_marseille","lat":43.30313,"lon":5.40441,"is_reserved":false,"is_disabled":false,"rental_uris":{"android":"levelo://app?vid=f8892a4c-ca95-48c4-8578-59fbeee09f15","ios":"levelo://app?vid=f8892a4c-ca95-48c4-8578-59fbeee09f15"},"vehicle_type_id":"4","last_reported":1749558124,"current_range_meters":4400,"station_id":"ce4bh012rcd13ifvqd10","pricing_plan_id":"cebpf4jnsgd1na2vs0mg"},{"bike_id":"c843ec60-c90f-487a-bee5-d1247496465d","system_id":"levelo_inurba_marseille","lat":43.21755,"lon":5.34581,"is_reserved":false,"is_disabled":false,"rental_uris":{"android":"levelo://app?vid=c843ec60-c90f-487a-bee5-d1247496465d","ios":"levelo://app?vid=c843ec60-c90f-487a-bee5-d1247496465d"},"vehicle_type_id":"4","last_reported":1749558124,"current_range_meters":4800,"station_id":"st_cvj6r9ubvosntc0bgbag","pricing_plan_id":"cebpf4jnsgd1na2vs0mg"},{"bike_id":"11d99533-1239-4522-b0b5-f8a3bff696e7","system_id":"levelo_inurba_marseille","lat":43.30134,"lon":5.424377,"is_reserved":false,"is_disabled":false,"rental_uris":{"android":"levelo://app?vid=11d99533-1239-4522-b0b5-f8a3bff696e7","ios":"levelo://app?vid=11d99533-1239-4522-b0b5-f8a3bff696e7"},"vehicle_type_id":"4","last_reported":1749558124,"current_range_meters":4800,"station_id":"","pricing_plan_id":"cebpf4jnsgd1na2vs0mg"},{"bike_id":"9ab5dcb2-22af-49e2-b2c1-32117ad578dc","system_id":"levelo_inurba_marseille","lat":43.295135,"lon":5.425624,"is_reserved":false,"is_disabled":false,"rental_uris":{"android":"levelo://app?vid=9ab5dcb2-22af-49e2-b2c1-32117ad578dc","ios":"levelo://app?vid=9ab5dcb2-22af-49e2-b2c1-32117ad578dc"},"vehicle_type_id":"4","last_reported":1749558124,"current_range_meters":4800,"station_id":"","pricing_plan_id":"cebpf4jnsgd1na2vs0mg"},{"bike_id":"8b4caff4-6ee7-47a5-a64f-5ccaa83c132f","system_id":"levelo_inurba_marseille","lat":43.29523,"lon":5.42507,"is_reserved":false,"is_disabled":false,"rental_uris":{"android":"levelo://app?vid=8b4caff4-6ee7-47a5-a64f-5ccaa83c132f","ios":"levelo://app?vid=8b4caff4-6ee7-47a5-a64f-5ccaa83c132f"},"vehicle_type_id":"4","last_reported":1749558124,"current_range_meters":4800,"station_id":"","pricing_plan_id":"cebpf4jnsgd1na2vs0mg"},{"bike_id":"bc08a32d-5d28-4b18-a875-05245334ed97","system_id":"levelo_inurba_marseille","lat":43.30167,"lon":5.38751,"is_reserved":false,"is_disabled":false,"rental_uris":{"android":"levelo://app?vid=bc08a32d-5d28-4b18-a875-05245334ed97","ios":"levelo://app?vid=bc08a32d-5d28-4b18-a875-05245334ed97"},"vehicle_type_id":"4","last_reported":1749558124,"current_range_meters":4800,"station_id":"ce4bghh2rcd13ifvqb60","pricing_plan_id":"cebpf4jnsgd1na2vs0mg"},{"bike_id":"01354226-4882-4b0f-9676-279812fd0968","system_id":"levelo_inurba_marseille","lat":43.31118,"lon":5.37764,"is_reserved":false,"is_disabled":true,"rental_uris":{"android":"levelo://app?vid=01354226-4882-4b0f-9676-279812fd0968","ios":"levelo://app?vid=01354226-4882-4b0f-9676-279812fd0968"},"vehicle_type_id":"4","last_reported":1749558124,"current_range_meters":4800,"station_id":"ce4bgt92rcd13ifvqcg0","pricing_plan_id":"cebpf4jnsgd1na2vs0mg"},{"bike_id":"3898eaf3-5b10-458f-a856-28c71011ca5d","system_id":"levelo_inurba_marseille","lat":43.21741,"lon":5.34599,"is_reserved":false,"is_disabled":false,"rental_uris":{"android":"levelo://app?vid=3898eaf3-5b10-458f-a856-28c71011ca5d","ios":"levelo://app?vid=3898eaf3-5b10-458f-a856-28c71011ca5d"},"vehicle_type_id":"4","last_reported":1749558124,"current_range_meters":5600,"station_id":"st_cvj6r9ubvosntc0bgbag","pricing_plan_id":"cebpf4jnsgd1na2vs0mg"},{"bike_id":"71175ff7-82b4-4461-9190-ec485f2f279a","system_id":"levelo_inurba_marseille","lat":43.31721,"lon":5.42393,"is_reserved":false,"is_disabled":false,"rental_uris":{"android":"levelo://app?vid=71175ff7-82b4-4461-9190-ec485f2f279a","ios":"levelo://app?vid=71175ff7-82b4-4461-9190-ec485f2f279a"},"vehicle_type_id":"4","last_reported":1749558124,"current_range_meters":6000,"station_id":"ce4bhp92rcd13ifvqhbg","pricing_plan_id":"cebpf4jnsgd1na2vs0mg"},{"bike_id":"dd67f108-95bf-4a1e-b619-4bb77e009c5b","system_id":"levelo_inurba_marseille","lat":43.29089,"lon":5.42767,"is_reserved":false,"is_disabled":false,"rental_uris":{"android":"levelo://app?vid=dd67f108-95bf-4a1e-b619-4bb77e009c5b","ios":"levelo://app?vid=dd67f108-95bf-4a1e-b619-4bb77e009c5b"},"vehicle_type_id":"4","last_reported":1749558124,"current_range_meters":6000,"station_id":"","pricing_plan_id":"cebpf4jnsgd1na2vs0mg"},{"bike_id":"f5df4208-98da-4f4a-ba06-056fe6fd4293","system_id":"levelo_inurba_marseille","lat":43.26789,"lon":5.39415,"is_reserved":false,"is_disabled":false,"rental_uris":{"android":"levelo://app?vid=f5df4208-98da-4f4a-ba06-056fe6fd4293","ios":"levelo://app?vid=f5df4208-98da-4f4a-ba06-056fe6fd4293"},"vehicle_type_id":"4","last_reported":1749558124,"current_range_meters":6000,"station_id":"ce4bhh12rcd13ifvqfg0","pricing_plan_id":"cebpf4jnsgd1na2vs0mg"},{"bike_id":"59ac1d63-31ad-4860-b909-23e54b64ed13","system_id":"levelo_inurba_marseille","lat":43.2849,"lon":5.38566,"is_reserved":false,"is_disabled":false,"rental_uris":{"android":"levelo://app?vid=59ac1d63-31ad-4860-b909-23e54b64ed13","ios":"levelo://app?vid=59ac1d63-31ad-4860-b909-23e54b64ed13"},"vehicle_type_id":"4","last_reported":1749558124,"current_range_meters":6000,"station_id":"ce4bh8p2rcd13ifvqeb0","pricing_plan_id":"cebpf4jnsgd1na2vs0mg"},{"bike_id":"7dc30c15-6473-46a8-89a4-60b49bf4469c","system_id":"levelo_inurba_marseille","lat":43.30302,"lon":5.39219,"is_reserved":false,"is_disabled":false,"rental_uris":{"android":"levelo://app?vid=7dc30c15-6473-46a8-89a4-60b49bf4469c","ios":"levelo://app?vid=7dc30c15-6473-46a8-89a4-60b49bf4469c"},"vehicle_type_id":"4","last_reported":1749558124,"current_range_meters":6000,"station_id":"ce4bgkh2rcd13ifvqbk0","pricing_plan_id":"cebpf4jnsgd1na2vs0mg"},{"bike_id":"273427e4-e8e3-40f9-aadb-37e3e60fdf47","system_id":"levelo_inurba_marseille","lat":43.2958,"lon":5.37517,"is_reserved":false,"is_disabled":false,"rental_uris":{"android":"levelo://app?vid=273427e4-e8e3-40f9-aadb-37e3e60fdf47","ios":"levelo://app?vid=273427e4-e8e3-40f9-aadb-37e3e60fdf47"},"vehicle_type_id":"4","last_reported":1749558124,"current_range_meters":6000,"station_id":"ce4bgh92rcd13ifvqb50","pricing_plan_id":"cebpf4jnsgd1na2vs0mg"},{"bike_id":"c733e4c1-076d-4ec9-96db-377efbfd2f7d","system_id":"levelo_inurba_marseille","lat":43.27942,"lon":5.41048,"is_reserved":false,"is_disabled":false,"rental_uris":{"android":"levelo://app?vid=c733e4c1-076d-4ec9-96db-377efbfd2f7d","ios":"levelo://app?vid=c733e4c1-076d-4ec9-96db-377efbfd2f7d"},"vehicle_type_id":"4","last_reported":1749558124,"current_range_meters":6000,"station_id":"ce4bhnp2rcd13ifvqh0g","pricing_plan_id":"cebpf4jnsgd1na2vs0mg"},{"bike_id":"0e6cad12-1c08-449b-8aad-b969f9e1e7c1","system_id":"levelo_inurba_marseille","lat":43.26027,"lon":5.37546,"is_reserved":false,"is_disabled":false,"rental_uris":{"android":"levelo://app?vid=0e6cad12-1c08-449b-8aad-b969f9e1e7c1","ios":"levelo://app?vid=0e6cad12-1c08-449b-8aad-b969f9e1e7c1"},"vehicle_type_id":"4","last_reported":1749558124,"current_range_meters":6400,"station_id":"ce4bhgh2rcd13ifvqfa0","pricing_plan_id":"cebpf4jnsgd1na2vs0mg"},{"bike_id":"b3a122df-4032-4dac-836b-8cfdab7ba47d","system_id":"levelo_inurba_marseille","lat":43.337444,"lon":5.374475,"is_reserved":false,"is_disabled":false,"rental_uris":{"android":"levelo://app?vid=b3a122df-4032-4dac-836b-8cfdab7ba47d","ios":"levelo://app?vid=b3a122df-4032-4dac-836b-8cfdab7ba47d"},"vehicle_type_id":"4","last_reported":1749558124,"current_range_meters":6400,"station_id":"ce4bhah2rcd13ifvqej0","pricing_plan_id":"cebpf4jnsgd1na2vs0mg"},{"bike_id":"94412bad-4301-48d6-b548-6b7fb7b66f22","system_id":"levelo_inurba_marseille","lat":43.31362,"lon":5.36712,"is_reserved":false,"is_disabled":false,"rental_uris":{"android":"levelo://app?vid=94412bad-4301-48d6-b548-6b7fb7b66f22","ios":"levelo://app?vid=94412bad-4301-48d6-b548-6b7fb7b66f22"},"vehicle_type_id":"4","last_reported":1749558124,"current_range_meters":6400,"station_id":"ce4bgr92rcd13ifvqc6g","pricing_plan_id":"cebpf4jnsgd1na2vs0mg"},{"bike_id":"8fdaa6e3-46ae-4249-8b98-d8ba47e6e686","system_id":"levelo_inurba_marseille","lat":43.27815,"lon":5.40714,"is_reserved":false,"is_disabled":false,"rental_uris":{"android":"levelo://app?vid=8fdaa6e3-46ae-4249-8b98-d8ba47e6e686","ios":"levelo://app?vid=8fdaa6e3-46ae-4249-8b98-d8ba47e6e686"},"vehicle_type_id":"4","last_reported":1749558124,"current_range_meters":6400,"station_id":"ce4bhnh2rcd13ifvqgtg","pricing_plan_id":"cebpf4jnsgd1na2vs0mg"},{"bike_id":"5532415b-2ece-48da-b236-7610b90ef5da","system_id":"levelo_inurba_marseille","lat":43.21743,"lon":5.34606,"is_reserved":false,"is_disabled":false,"rental_uris":{"android":"levelo://app?vid=5532415b-2ece-48da-b236-7610b90ef5da","ios":"levelo://app?vid=5532415b-2ece-48da-b236-7610b90ef5da"},"vehicle_type_id":"4","last_reported":1749558124,"current_range_meters":6400,"station_id":"st_cvj6r9ubvosntc0bgbag","pricing_plan_id":"cebpf4jnsgd1na2vs0mg"},{"bike_id":"76eb03e7-dab4-4375-b7bd-874581d527fe","system_id":"levelo_inurba_marseille","lat":43.28157,"lon":5.42646,"is_reserved":false,"is_disabled":false,"rental_uris":{"android":"levelo://app?vid=76eb03e7-dab4-4375-b7bd-874581d527fe","ios":"levelo://app?vid=76eb03e7-dab4-4375-b7bd-874581d527fe"},"vehicle_type_id":"4","last_reported":1749558124,"current_range_meters":6400,"station_id":"ce4bhnh2rcd13ifvqgug","pricing_plan_id":"cebpf4jnsgd1na2vs0mg"},{"bike_id":"7a286b17-17df-491a-a381-1330c2f7a715","system_id":"levelo_inurba_marseille","lat":43.29905,"lon":5.43658,"is_reserved":false,"is_disabled":false,"rental_uris":{"android":"levelo://app?vid=7a286b17-17df-491a-a381-1330c2f7a715","ios":"levelo://app?vid=7a286b17-17df-491a-a381-1330c2f7a715"},"vehicle_type_id":"4","last_reported":1749558124,"current_range_meters":6800,"station_id":"ce4bhpp2rcd13ifvqhfg","pricing_plan_id":"cebpf4jnsgd1na2vs0mg"},{"bike_id":"a610f7d7-ce93-4796-890b-6ddbadfdfca5","system_id":"levelo_inurba_marseille","lat":43.24656,"lon":5.38893,"is_reserved":false,"is_disabled":false,"rental_uris":{"android":"levelo://app?vid=a610f7d7-ce93-4796-890b-6ddbadfdfca5","ios":"levelo://app?vid=a610f7d7-ce93-4796-890b-6ddbadfdfca5"},"vehicle_type_id":"4","last_reported":1749558124,"current_range_meters":6800,"station_id":"ce4bhg12rcd13ifvqf60","pricing_plan_id":"cebpf4jnsgd1na2vs0mg"},{"bike_id":"f511734b-78f6-466c-a632-23e9869ef2bc","system_id":"levelo_inurba_marseille","lat":43.31194,"lon":5.36883,"is_reserved":false,"is_disabled":false,"rental_uris":{"android":"levelo://app?vid=f511734b-78f6-466c-a632-23e9869ef2bc","ios":"levelo://app?vid=f511734b-78f6-466c-a632-23e9869ef2bc"},"vehicle_type_id":"4","last_reported":1749558124,"current_range_meters":6800,"station_id":"ce4bgl92rcd13ifvqbq0","pricing_plan_id":"cebpf4jnsgd1na2vs0mg"},{"bike_id":"319ee65b-cb92-47ca-b6c8-e91c7a628e91","system_id":"levelo_inurba_marseille","lat":43.25497,"lon":5.37644,"is_reserved":false,"is_disabled":false,"rental_uris":{"android":"levelo://app?vid=319ee65b-cb92-47ca-b6c8-e91c7a628e91","ios":"levelo://app?vid=319ee65b-cb92-47ca-b6c8-e91c7a628e91"},"vehicle_type_id":"4","last_reported":1749558124,"current_range_meters":6800,"station_id":"ce4bhh12rcd13ifvqff0","pricing_plan_id":"cebpf4jnsgd1na2vs0mg"},{"bike_id":"8aeb3157-3aee-4f64-8d34-df39fe5d3ee9","system_id":"levelo_inurba_marseille","lat":43.29585,"lon":5.36735,"is_reserved":false,"is_disabled":false,"rental_uris":{"android":"levelo://app?vid=8aeb3157-3aee-4f64-8d34-df39fe5d3ee9","ios":"levelo://app?vid=8aeb3157-3aee-4f64-8d34-df39fe5d3ee9"},"vehicle_type_id":"4","last_reported":1749558124,"current_range_meters":7200,"station_id":"ce4bgph2rcd13ifvqc2g","pricing_plan_id":"cebpf4jnsgd1na2vs0mg"},{"bike_id":"b3f3286f-762d-4ef1-84d2-62b2d2a42f7f","system_id":"levelo_inurba_marseille","lat":43.26551,"lon":5.37283,"is_reserved":false,"is_disabled":false,"rental_uris":{"android":"levelo://app?vid=b3f3286f-762d-4ef1-84d2-62b2d2a42f7f","ios":"levelo://app?vid=b3f3286f-762d-4ef1-84d2-62b2d2a42f7f"},"vehicle_type_id":"4","last_reported":1749558124,"current_range_meters":7200,"station_id":"ce4bhg12rcd13ifvqf70","pricing_plan_id":"cebpf4jnsgd1na2vs0mg"},{"bike_id":"b8913c8c-f941-4e5e-b727-20c5ad4fb48d","system_id":"levelo_inurba_marseille","lat":43.2978,"lon":5.370925,"is_reserved":false,"is_disabled":false,"rental_uris":{"android":"levelo://app?vid=b8913c8c-f941-4e5e-b727-20c5ad4fb48d","ios":"levelo://app?vid=b8913c8c-f941-4e5e-b727-20c5ad4fb48d"},"vehicle_type_id":"4","last_reported":1749558124,"current_range_meters":7200,"station_id":"ce4bgop2rcd13ifvqc1g","pricing_plan_id":"cebpf4jnsgd1na2vs0mg"},{"bike_id":"fe52c15f-5aec-4b7e-998e-284a85843b2f","system_id":"levelo_inurba_marseille","lat":43.32073,"lon":5.3683,"is_reserved":false,"is_disabled":false,"rental_uris":{"android":"levelo://app?vid=fe52c15f-5aec-4b7e-998e-284a85843b2f","ios":"levelo://app?vid=fe52c15f-5aec-4b7e-998e-284a85843b2f"},"vehicle_type_id":"4","last_reported":1749558124,"current_range_meters":7200,"station_id":"ce4bhrh2rcd13ifvqhug","pricing_plan_id":"cebpf4jnsgd1na2vs0mg"},{"bike_id":"74f80a2c-a5b7-4953-9368-2ec55e1221a9","system_id":"levelo_inurba_marseille","lat":43.28276,"lon":5.35075,"is_reserved":false,"is_disabled":false,"rental_uris":{"android":"levelo://app?vid=74f80a2c-a5b7-4953-9368-2ec55e1221a9","ios":"levelo://app?vid=74f80a2c-a5b7-4953-9368-2ec55e1221a9"},"vehicle_type_id":"4","last_reported":1749558124,"current_range_meters":7200,"station_id":"ce4bhbp2rcd13ifvqerg","pricing_plan_id":"cebpf4jnsgd1na2vs0mg"},{"bike_id":"fcfdb7b3-2a3b-4ea5-b77f-ed288c9fe4f9","system_id":"levelo_inurba_marseille","lat":43.29309,"lon":5.37169,"is_reserved":false,"is_disabled":false,"rental_uris":{"android":"levelo://app?vid=fcfdb7b3-2a3b-4ea5-b77f-ed288c9fe4f9","ios":"levelo://app?vid=fcfdb7b3-2a3b-4ea5-b77f-ed288c9fe4f9"},"vehicle_type_id":"4","last_reported":1749558124,"current_range_meters":8000,"station_id":"ce4bgh92rcd13ifvqb40","pricing_plan_id":"cebpf4jnsgd1na2vs0mg"},{"bike_id":"f1509a07-7e8c-4627-8ba6-4d4fca4b4d43","system_id":"levelo_inurba_marseille","lat":43.30218,"lon":5.39475,"is_reserved":false,"is_disabled":false,"rental_uris":{"android":"levelo://app?vid=f1509a07-7e8c-4627-8ba6-4d4fca4b4d43","ios":"levelo://app?vid=f1509a07-7e8c-4627-8ba6-4d4fca4b4d43"},"vehicle_type_id":"4","last_reported":1749558124,"current_range_meters":7200,"station_id":"ce4bh0p2rcd13ifvqd70","pricing_plan_id":"cebpf4jnsgd1na2vs0mg"},{"bike_id":"3c27380f-8613-4c5e-8250-15581505cbf7","system_id":"levelo_inurba_marseille","lat":43.2862,"lon":5.351,"is_reserved":false,"is_disabled":false,"rental_uris":{"android":"levelo://app?vid=3c27380f-8613-4c5e-8250-15581505cbf7","ios":"levelo://app?vid=3c27380f-8613-4c5e-8250-15581505cbf7"},"vehicle_type_id":"4","last_reported":1749558124,"current_range_meters":8000,"station_id":"ce4bhch2rcd13ifvqeug","pricing_plan_id":"cebpf4jnsgd1na2vs0mg"},{"bike_id":"5d9bc217-c635-4540-a143-8c33c1261562","system_id":"levelo_inurba_marseille","lat":43.28413,"lon":5.34987,"is_reserved":false,"is_disabled":false,"rental_uris":{"android":"levelo://app?vid=5d9bc217-c635-4540-a143-8c33c1261562","ios":"levelo://app?vid=5d9bc217-c635-4540-a143-8c33c1261562"},"vehicle_type_id":"4","last_reported":1749558124,"current_range_meters":8000,"station_id":"ce4bhbh2rcd13ifvqepg","pricing_plan_id":"cebpf4jnsgd1na2vs0mg"},{"bike_id":"da14da1f-7442-42b5-98f6-365f4fbd4c56","system_id":"levelo_inurba_marseille","lat":43.32628,"lon":5.41044,"is_reserved":false,"is_disabled":false,"rental_uris":{"android":"levelo://app?vid=da14da1f-7442-42b5-98f6-365f4fbd4c56","ios":"levelo://app?vid=da14da1f-7442-42b5-98f6-365f4fbd4c56"},"vehicle_type_id":"4","last_reported":1749558124,"current_range_meters":8000,"station_id":"","pricing_plan_id":"cebpf4jnsgd1na2vs0mg"},{"bike_id":"f0782932-4f65-40fc-9cee-a635f880f137","system_id":"levelo_inurba_marseille","lat":43.32363,"lon":5.36747,"is_reserved":false,"is_disabled":false,"rental_uris":{"android":"levelo://app?vid=f0782932-4f65-40fc-9cee-a635f880f137","ios":"levelo://app?vid=f0782932-4f65-40fc-9cee-a635f880f137"},"vehicle_type_id":"4","last_reported":1749558124,"current_range_meters":8400,"station_id":"ce4bhsh2rcd13ifvqi2g","pricing_plan_id":"cebpf4jnsgd1na2vs0mg"},{"bike_id":"1f67caa6-9d86-47d7-b787-041199503f92","system_id":"levelo_inurba_marseille","lat":43.28269,"lon":5.3507,"is_reserved":false,"is_disabled":false,"rental_uris":{"android":"levelo://app?vid=1f67caa6-9d86-47d7-b787-041199503f92","ios":"levelo://app?vid=1f67caa6-9d86-47d7-b787-041199503f92"},"vehicle_type_id":"4","last_reported":1749558124,"current_range_meters":8400,"station_id":"ce4bhbp2rcd13ifvqerg","pricing_plan_id":"cebpf4jnsgd1na2vs0mg"},{"bike_id":"744fa010-b75f-4fd7-ac23-cc808ecd0bf7","system_id":"levelo_inurba_marseille","lat":43.314868,"lon":5.372981,"is_reserved":false,"is_disabled":false,"rental_uris":{"android":"levelo://app?vid=744fa010-b75f-4fd7-ac23-cc808ecd0bf7","ios":"levelo://app?vid=744fa010-b75f-4fd7-ac23-cc808ecd0bf7"},"vehicle_type_id":"4","last_reported":1749558124,"current_range_meters":8400,"station_id":"ce4bgt12rcd13ifvqcd0","pricing_plan_id":"cebpf4jnsgd1na2vs0mg"},{"bike_id":"2f32b755-3ca4-4102-8e33-37fff5e1ff8d","system_id":"levelo_inurba_marseille","lat":43.2714,"lon":5.40186,"is_reserved":false,"is_disabled":false,"rental_uris":{"android":"levelo://app?vid=2f32b755-3ca4-4102-8e33-37fff5e1ff8d","ios":"levelo://app?vid=2f32b755-3ca4-4102-8e33-37fff5e1ff8d"},"vehicle_type_id":"4","last_reported":1749558124,"current_range_meters":8400,"station_id":"","pricing_plan_id":"cebpf4jnsgd1na2vs0mg"},{"bike_id":"7fa8fe03-e761-44b8-8ced-e506fdbc1a3a","system_id":"levelo_inurba_marseille","lat":43.32065,"lon":5.36831,"is_reserved":false,"is_disabled":false,"rental_uris":{"android":"levelo://app?vid=7fa8fe03-e761-44b8-8ced-e506fdbc1a3a","ios":"levelo://app?vid=7fa8fe03-e761-44b8-8ced-e506fdbc1a3a"},"vehicle_type_id":"4","last_reported":1749558124,"current_range_meters":8400,"station_id":"ce4bhrh2rcd13ifvqhug","pricing_plan_id":"cebpf4jnsgd1na2vs0mg"},{"bike_id":"4e61f7a1-3cd6-4de2-bbfe-cca1466bd0cf","system_id":"levelo_inurba_marseille","lat":43.26554,"lon":5.37297,"is_reserved":false,"is_disabled":false,"rental_uris":{"android":"levelo://app?vid=4e61f7a1-3cd6-4de2-bbfe-cca1466bd0cf","ios":"levelo://app?vid=4e61f7a1-3cd6-4de2-bbfe-cca1466bd0cf"},"vehicle_type_id":"4","last_reported":1749558124,"current_range_meters":8400,"station_id":"ce4bhg12rcd13ifvqf70","pricing_plan_id":"cebpf4jnsgd1na2vs0mg"},{"bike_id":"16fd1a23-d1ec-4f62-be9c-f0fb5b350be2","system_id":"levelo_inurba_marseille","lat":43.23966,"lon":5.36632,"is_reserved":false,"is_disabled":false,"rental_uris":{"android":"levelo://app?vid=16fd1a23-d1ec-4f62-be9c-f0fb5b350be2","ios":"levelo://app?vid=16fd1a23-d1ec-4f62-be9c-f0fb5b350be2"},"vehicle_type_id":"4","last_reported":1749558124,"current_range_meters":8400,"station_id":"ce4bhi12rcd13ifvqfp0","pricing_plan_id":"cebpf4jnsgd1na2vs0mg"},{"bike_id":"94526246-0702-4685-a09d-68c4eeb68fe5","system_id":"levelo_inurba_marseille","lat":43.22931,"lon":5.35375,"is_reserved":false,"is_disabled":false,"rental_uris":{"android":"levelo://app?vid=94526246-0702-4685-a09d-68c4eeb68fe5","ios":"levelo://app?vid=94526246-0702-4685-a09d-68c4eeb68fe5"},"vehicle_type_id":"4","last_reported":1749558124,"current_range_meters":8400,"station_id":"cpo3532slgdg3j2ikp40","pricing_plan_id":"cebpf4jnsgd1na2vs0mg"},{"bike_id":"5ad03704-1401-4cf5-9a29-a5a7ad2e93a9","system_id":"levelo_inurba_marseille","lat":43.281537,"lon":5.426396,"is_reserved":false,"is_disabled":false,"rental_uris":{"android":"levelo://app?vid=5ad03704-1401-4cf5-9a29-a5a7ad2e93a9","ios":"levelo://app?vid=5ad03704-1401-4cf5-9a29-a5a7ad2e93a9"},"vehicle_type_id":"4","last_reported":1749558124,"current_range_meters":8800,"station_id":"ce4bhnh2rcd13ifvqgug","pricing_plan_id":"cebpf4jnsgd1na2vs0mg"},{"bike_id":"0511cb9f-7dd3-4672-945b-236e9f0238ac","system_id":"levelo_inurba_marseille","lat":43.29803,"lon":5.37736,"is_reserved":false,"is_disabled":false,"rental_uris":{"android":"levelo://app?vid=0511cb9f-7dd3-4672-945b-236e9f0238ac","ios":"levelo://app?vid=0511cb9f-7dd3-4672-945b-236e9f0238ac"},"vehicle_type_id":"4","last_reported":1749558124,"current_range_meters":8800,"station_id":"","pricing_plan_id":"cebpf4jnsgd1na2vs0mg"},{"bike_id":"f7be4135-4166-4c1c-8e38-ede030982e61","system_id":"levelo_inurba_marseille","lat":43.28849,"lon":5.39297,"is_reserved":false,"is_disabled":false,"rental_uris":{"android":"levelo://app?vid=f7be4135-4166-4c1c-8e38-ede030982e61","ios":"levelo://app?vid=f7be4135-4166-4c1c-8e38-ede030982e61"},"vehicle_type_id":"4","last_reported":1749558124,"current_range_meters":9200,"station_id":"ce4bh2p2rcd13ifvqdi0","pricing_plan_id":"cebpf4jnsgd1na2vs0mg"},{"bike_id":"39267307-bd6e-491c-a2c8-911e68539aaf","system_id":"levelo_inurba_marseille","lat":43.26217,"lon":5.40452,"is_reserved":false,"is_disabled":false,"rental_uris":{"android":"levelo://app?vid=39267307-bd6e-491c-a2c8-911e68539aaf","ios":"levelo://app?vid=39267307-bd6e-491c-a2c8-911e68539aaf"},"vehicle_type_id":"4","last_reported":1749558124,"current_range_meters":9200,"station_id":"ce4bhmh2rcd13ifvqgmg","pricing_plan_id":"cebpf4jnsgd1na2vs0mg"},{"bike_id":"88113087-f0bb-4133-ab2a-bbfce1f3d99a","system_id":"levelo_inurba_marseille","lat":43.31747,"lon":5.40501,"is_reserved":false,"is_disabled":true,"rental_uris":{"android":"levelo://app?vid=88113087-f0bb-4133-ab2a-bbfce1f3d99a","ios":"levelo://app?vid=88113087-f0bb-4133-ab2a-bbfce1f3d99a"},"vehicle_type_id":"4","last_reported":1749558124,"current_range_meters":9200,"station_id":"","pricing_plan_id":"cebpf4jnsgd1na2vs0mg"},{"bike_id":"fff7d6e3-6c47-43d1-97ff-b08ad5d366db","system_id":"levelo_inurba_marseille","lat":43.29095,"lon":5.38146,"is_reserved":false,"is_disabled":false,"rental_uris":{"android":"levelo://app?vid=fff7d6e3-6c47-43d1-97ff-b08ad5d366db","ios":"levelo://app?vid=fff7d6e3-6c47-43d1-97ff-b08ad5d366db"},"vehicle_type_id":"4","last_reported":1749558124,"current_range_meters":9200,"station_id":"ce4bh512rcd13ifvqe2g","pricing_plan_id":"cebpf4jnsgd1na2vs0mg"},{"bike_id":"05d515d4-f9a4-4d33-9344-77da9a44570b","system_id":"levelo_inurba_marseille","lat":43.27618,"lon":5.36127,"is_reserved":false,"is_disabled":false,"rental_uris":{"android":"levelo://app?vid=05d515d4-f9a4-4d33-9344-77da9a44570b","ios":"levelo://app?vid=05d515d4-f9a4-4d33-9344-77da9a44570b"},"vehicle_type_id":"4","last_reported":1749558124,"current_range_meters":9200,"station_id":"ce4bgj92rcd13ifvqbe0","pricing_plan_id":"cebpf4jnsgd1na2vs0mg"},{"bike_id":"291ab0bc-bb52-4ad0-a840-58f1558e3677","system_id":"levelo_inurba_marseille","lat":43.217512,"lon":5.346033,"is_reserved":false,"is_disabled":false,"rental_uris":{"android":"levelo://app?vid=291ab0bc-bb52-4ad0-a840-58f1558e3677","ios":"levelo://app?vid=291ab0bc-bb52-4ad0-a840-58f1558e3677"},"vehicle_type_id":"4","last_reported":1749558124,"current_range_meters":9200,"station_id":"","pricing_plan_id":"cebpf4jnsgd1na2vs0mg"},{"bike_id":"9364ea33-40bd-4a6a-888a-f0bc24b0338b","system_id":"levelo_inurba_marseille","lat":43.32089,"lon":5.36826,"is_reserved":false,"is_disabled":true,"rental_uris":{"android":"levelo://app?vid=9364ea33-40bd-4a6a-888a-f0bc24b0338b","ios":"levelo://app?vid=9364ea33-40bd-4a6a-888a-f0bc24b0338b"},"vehicle_type_id":"4","last_reported":1749558124,"current_range_meters":9600,"station_id":"ce4bhrh2rcd13ifvqhug","pricing_plan_id":"cebpf4jnsgd1na2vs0mg"},{"bike_id":"4f4b1cb5-3e59-443d-bf57-2dfd9049d9d6","system_id":"levelo_inurba_marseille","lat":43.25947,"lon":5.40915,"is_reserved":false,"is_disabled":false,"rental_uris":{"android":"levelo://app?vid=4f4b1cb5-3e59-443d-bf57-2dfd9049d9d6","ios":"levelo://app?vid=4f4b1cb5-3e59-443d-bf57-2dfd9049d9d6"},"vehicle_type_id":"4","last_reported":1749558124,"current_range_meters":9600,"station_id":"ce4bhm92rcd13ifvqglg","pricing_plan_id":"cebpf4jnsgd1na2vs0mg"},{"bike_id":"39ae982b-a683-48c5-9856-bf37703342d6","system_id":"levelo_inurba_marseille","lat":43.27817,"lon":5.40716,"is_reserved":false,"is_disabled":false,"rental_uris":{"android":"levelo://app?vid=39ae982b-a683-48c5-9856-bf37703342d6","ios":"levelo://app?vid=39ae982b-a683-48c5-9856-bf37703342d6"},"vehicle_type_id":"4","last_reported":1749558124,"current_range_meters":9600,"station_id":"ce4bhnh2rcd13ifvqgtg","pricing_plan_id":"cebpf4jnsgd1na2vs0mg"},{"bike_id":"24e9e948-3262-4072-8dd0-7e254b70aef4","system_id":"levelo_inurba_marseille","lat":43.30977,"lon":5.39057,"is_reserved":false,"is_disabled":false,"rental_uris":{"android":"levelo://app?vid=24e9e948-3262-4072-8dd0-7e254b70aef4","ios":"levelo://app?vid=24e9e948-3262-4072-8dd0-7e254b70aef4"},"vehicle_type_id":"4","last_reported":1749558124,"current_range_meters":9600,"station_id":"ce4bgup2rcd13ifvqco0","pricing_plan_id":"cebpf4jnsgd1na2vs0mg"},{"bike_id":"8d260131-b4b1-4679-ba8f-4dde0f7c1d5e","system_id":"levelo_inurba_marseille","lat":43.29187,"lon":5.39326,"is_reserved":false,"is_disabled":false,"rental_uris":{"android":"levelo://app?vid=8d260131-b4b1-4679-ba8f-4dde0f7c1d5e","ios":"levelo://app?vid=8d260131-b4b1-4679-ba8f-4dde0f7c1d5e"},"vehicle_type_id":"4","last_reported":1749558124,"current_range_meters":9600,"station_id":"ce4bh192rcd13ifvqdd0","pricing_plan_id":"cebpf4jnsgd1na2vs0mg"},{"bike_id":"bb6010de-0615-40a0-97bf-0d8cd3fe0ae1","system_id":"levelo_inurba_marseille","lat":43.31221,"lon":5.36859,"is_reserved":false,"is_disabled":false,"rental_uris":{"android":"levelo://app?vid=bb6010de-0615-40a0-97bf-0d8cd3fe0ae1","ios":"levelo://app?vid=bb6010de-0615-40a0-97bf-0d8cd3fe0ae1"},"vehicle_type_id":"4","last_reported":1749558124,"current_range_meters":9600,"station_id":"ce4bgl92rcd13ifvqbq0","pricing_plan_id":"cebpf4jnsgd1na2vs0mg"},{"bike_id":"00ca30c3-b636-4824-8f37-e641de8b6bdb","system_id":"levelo_inurba_marseille","lat":43.30547,"lon":5.36698,"is_reserved":false,"is_disabled":false,"rental_uris":{"android":"levelo://app?vid=00ca30c3-b636-4824-8f37-e641de8b6bdb","ios":"levelo://app?vid=00ca30c3-b636-4824-8f37-e641de8b6bdb"},"vehicle_type_id":"4","last_reported":1749558124,"current_range_meters":10000,"station_id":"ce4bgrp2rcd13ifvqc9g","pricing_plan_id":"cebpf4jnsgd1na2vs0mg"},{"bike_id":"3d30ef86-89a9-43f8-8fe1-9ba3ea0a1581","system_id":"levelo_inurba_marseille","lat":43.28427,"lon":5.3499,"is_reserved":false,"is_disabled":false,"rental_uris":{"android":"levelo://app?vid=3d30ef86-89a9-43f8-8fe1-9ba3ea0a1581","ios":"levelo://app?vid=3d30ef86-89a9-43f8-8fe1-9ba3ea0a1581"},"vehicle_type_id":"4","last_reported":1749558124,"current_range_meters":10000,"station_id":"ce4bhbh2rcd13ifvqepg","pricing_plan_id":"cebpf4jnsgd1na2vs0mg"},{"bike_id":"77062e59-c042-48c2-b711-6fc68b668e5c","system_id":"levelo_inurba_marseille","lat":43.30427,"lon":5.39774,"is_reserved":false,"is_disabled":false,"rental_uris":{"android":"levelo://app?vid=77062e59-c042-48c2-b711-6fc68b668e5c","ios":"levelo://app?vid=77062e59-c042-48c2-b711-6fc68b668e5c"},"vehicle_type_id":"4","last_reported":1749558124,"current_range_meters":10000,"station_id":"ce4bh092rcd13ifvqd20","pricing_plan_id":"cebpf4jnsgd1na2vs0mg"},{"bike_id":"b6285f6b-e9e7-470d-9b6d-1afe99ab71bf","system_id":"levelo_inurba_marseille","lat":43.261892,"lon":5.42072,"is_reserved":false,"is_disabled":false,"rental_uris":{"android":"levelo://app?vid=b6285f6b-e9e7-470d-9b6d-1afe99ab71bf","ios":"levelo://app?vid=b6285f6b-e9e7-470d-9b6d-1afe99ab71bf"},"vehicle_type_id":"4","last_reported":1749558124,"current_range_meters":10000,"station_id":"","pricing_plan_id":"cebpf4jnsgd1na2vs0mg"},{"bike_id":"5830abb1-0c53-4838-8eab-b2ea3632b1c8","system_id":"levelo_inurba_marseille","lat":43.29275,"lon":5.37625,"is_reserved":false,"is_disabled":false,"rental_uris":{"android":"levelo://app?vid=5830abb1-0c53-4838-8eab-b2ea3632b1c8","ios":"levelo://app?vid=5830abb1-0c53-4838-8eab-b2ea3632b1c8"},"vehicle_type_id":"4","last_reported":1749558124,"current_range_meters":10000,"station_id":"ce4bgi12rcd13ifvqb80","pricing_plan_id":"cebpf4jnsgd1na2vs0mg"},{"bike_id":"78edac1c-389b-4a50-90f3-faea15dee35e","system_id":"levelo_inurba_marseille","lat":43.27617,"lon":5.36108,"is_reserved":false,"is_disabled":false,"rental_uris":{"android":"levelo://app?vid=78edac1c-389b-4a50-90f3-faea15dee35e","ios":"levelo://app?vid=78edac1c-389b-4a50-90f3-faea15dee35e"},"vehicle_type_id":"4","last_reported":1749558124,"current_range_meters":10000,"station_id":"ce4bgj92rcd13ifvqbe0","pricing_plan_id":"cebpf4jnsgd1na2vs0mg"},{"bike_id":"626f984a-b33e-4a77-9ca4-58aa103a6fbd","system_id":"levelo_inurba_marseille","lat":43.30323,"lon":5.40441,"is_reserved":false,"is_disabled":false,"rental_uris":{"android":"levelo://app?vid=626f984a-b33e-4a77-9ca4-58aa103a6fbd","ios":"levelo://app?vid=626f984a-b33e-4a77-9ca4-58aa103a6fbd"},"vehicle_type_id":"4","last_reported":1749558124,"current_range_meters":10000,"station_id":"ce4bh012rcd13ifvqd10","pricing_plan_id":"cebpf4jnsgd1na2vs0mg"},{"bike_id":"e8b55a60-db3c-4c16-bc77-fed3967a2f91","system_id":"levelo_inurba_marseille","lat":43.22941,"lon":5.35371,"is_reserved":false,"is_disabled":false,"rental_uris":{"android":"levelo://app?vid=e8b55a60-db3c-4c16-bc77-fed3967a2f91","ios":"levelo://app?vid=e8b55a60-db3c-4c16-bc77-fed3967a2f91"},"vehicle_type_id":"4","last_reported":1749558124,"current_range_meters":10800,"station_id":"cpo3532slgdg3j2ikp40","pricing_plan_id":"cebpf4jnsgd1na2vs0mg"},{"bike_id":"b1c02d36-f0b6-47c7-834f-f4551bb8fce3","system_id":"levelo_inurba_marseille","lat":43.23154,"lon":5.43716,"is_reserved":false,"is_disabled":false,"rental_uris":{"android":"levelo://app?vid=b1c02d36-f0b6-47c7-834f-f4551bb8fce3","ios":"levelo://app?vid=b1c02d36-f0b6-47c7-834f-f4551bb8fce3"},"vehicle_type_id":"4","last_reported":1749558124,"current_range_meters":10800,"station_id":"ce4bhmp2rcd13ifvqgog","pricing_plan_id":"cebpf4jnsgd1na2vs0mg"},{"bike_id":"39d32260-51d5-455a-ba53-6471389bd255","system_id":"levelo_inurba_marseille","lat":43.31995,"lon":5.37613,"is_reserved":false,"is_disabled":false,"rental_uris":{"android":"levelo://app?vid=39d32260-51d5-455a-ba53-6471389bd255","ios":"levelo://app?vid=39d32260-51d5-455a-ba53-6471389bd255"},"vehicle_type_id":"4","last_reported":1749558124,"current_range_meters":10800,"station_id":"","pricing_plan_id":"cebpf4jnsgd1na2vs0mg"},{"bike_id":"697c346d-4cc7-442d-8a6e-e9a7997e5a75","system_id":"levelo_inurba_marseille","lat":43.29617,"lon":5.37172,"is_reserved":false,"is_disabled":false,"rental_uris":{"android":"levelo://app?vid=697c346d-4cc7-442d-8a6e-e9a7997e5a75","ios":"levelo://app?vid=697c346d-4cc7-442d-8a6e-e9a7997e5a75"},"vehicle_type_id":"4","last_reported":1749558124,"current_range_meters":11200,"station_id":"ce4bgnh2rcd13ifvqc0g","pricing_plan_id":"cebpf4jnsgd1na2vs0mg"},{"bike_id":"3c76417e-057c-4580-8a05-165b47f8769f","system_id":"levelo_inurba_marseille","lat":43.28861,"lon":5.35838,"is_reserved":false,"is_disabled":false,"rental_uris":{"android":"levelo://app?vid=3c76417e-057c-4580-8a05-165b47f8769f","ios":"levelo://app?vid=3c76417e-057c-4580-8a05-165b47f8769f"},"vehicle_type_id":"4","last_reported":1749558124,"current_range_meters":11200,"station_id":"ce4bhb12rcd13ifvqem0","pricing_plan_id":"cebpf4jnsgd1na2vs0mg"},{"bike_id":"185ef9f3-aec3-4562-b837-c2c787b76937","system_id":"levelo_inurba_marseille","lat":43.30149,"lon":5.37427,"is_reserved":false,"is_disabled":false,"rental_uris":{"android":"levelo://app?vid=185ef9f3-aec3-4562-b837-c2c787b76937","ios":"levelo://app?vid=185ef9f3-aec3-4562-b837-c2c787b76937"},"vehicle_type_id":"4","last_reported":1749558124,"current_range_meters":11200,"station_id":"ce4bgs92rcd13ifvqcc0","pricing_plan_id":"cebpf4jnsgd1na2vs0mg"},{"bike_id":"0d4e0bdf-c977-4015-b46a-6f298c9cdbd4","system_id":"levelo_inurba_marseille","lat":43.28465,"lon":5.35883,"is_reserved":false,"is_disabled":false,"rental_uris":{"android":"levelo://app?vid=0d4e0bdf-c977-4015-b46a-6f298c9cdbd4","ios":"levelo://app?vid=0d4e0bdf-c977-4015-b46a-6f298c9cdbd4"},"vehicle_type_id":"4","last_reported":1749558124,"current_range_meters":11200,"station_id":"ce4bhah2rcd13ifvqei0","pricing_plan_id":"cebpf4jnsgd1na2vs0mg"},{"bike_id":"5077581b-cebb-46fc-ba69-4fa8272d4810","system_id":"levelo_inurba_marseille","lat":43.21362,"lon":5.35515,"is_reserved":false,"is_disabled":false,"rental_uris":{"android":"levelo://app?vid=5077581b-cebb-46fc-ba69-4fa8272d4810","ios":"levelo://app?vid=5077581b-cebb-46fc-ba69-4fa8272d4810"},"vehicle_type_id":"4","last_reported":1749558124,"current_range_meters":11600,"station_id":"","pricing_plan_id":"cebpf4jnsgd1na2vs0mg"},{"bike_id":"2c58e0c2-ddb0-4085-990f-114be7523baa","system_id":"levelo_inurba_marseille","lat":43.27196,"lon":5.39117,"is_reserved":false,"is_disabled":false,"rental_uris":{"android":"levelo://app?vid=2c58e0c2-ddb0-4085-990f-114be7523baa","ios":"levelo://app?vid=2c58e0c2-ddb0-4085-990f-114be7523baa"},"vehicle_type_id":"4","last_reported":1749558124,"current_range_meters":11600,"station_id":"","pricing_plan_id":"cebpf4jnsgd1na2vs0mg"},{"bike_id":"d157ec7f-a874-46cb-8308-aad07e93098c","system_id":"levelo_inurba_marseille","lat":43.28622,"lon":5.35112,"is_reserved":false,"is_disabled":false,"rental_uris":{"android":"levelo://app?vid=d157ec7f-a874-46cb-8308-aad07e93098c","ios":"levelo://app?vid=d157ec7f-a874-46cb-8308-aad07e93098c"},"vehicle_type_id":"4","last_reported":1749558124,"current_range_meters":11600,"station_id":"ce4bhch2rcd13ifvqeug","pricing_plan_id":"cebpf4jnsgd1na2vs0mg"},{"bike_id":"bb92ba5b-25cf-421d-8e4d-dbd092d0fe43","system_id":"levelo_inurba_marseille","lat":43.23962,"lon":5.36631,"is_reserved":false,"is_disabled":false,"rental_uris":{"android":"levelo://app?vid=bb92ba5b-25cf-421d-8e4d-dbd092d0fe43","ios":"levelo://app?vid=bb92ba5b-25cf-421d-8e4d-dbd092d0fe43"},"vehicle_type_id":"4","last_reported":1749558124,"current_range_meters":11600,"station_id":"ce4bhi12rcd13ifvqfp0","pricing_plan_id":"cebpf4jnsgd1na2vs0mg"},{"bike_id":"f4120995-78f4-4016-8002-5b7e1ac9d1f9","system_id":"levelo_inurba_marseille","lat":43.31376,"lon":5.38485,"is_reserved":false,"is_disabled":false,"rental_uris":{"android":"levelo://app?vid=f4120995-78f4-4016-8002-5b7e1ac9d1f9","ios":"levelo://app?vid=f4120995-78f4-4016-8002-5b7e1ac9d1f9"},"vehicle_type_id":"4","last_reported":1749558124,"current_range_meters":11600,"station_id":"ce4bgt92rcd13ifvqcf0","pricing_plan_id":"cebpf4jnsgd1na2vs0mg"},{"bike_id":"5bb83e35-955a-4966-b984-ea4387536afb","system_id":"levelo_inurba_marseille","lat":43.29707,"lon":5.37711,"is_reserved":false,"is_disabled":false,"rental_uris":{"android":"levelo://app?vid=5bb83e35-955a-4966-b984-ea4387536afb","ios":"levelo://app?vid=5bb83e35-955a-4966-b984-ea4387536afb"},"vehicle_type_id":"4","last_reported":1749558124,"current_range_meters":11600,"station_id":"ce4bgkh2rcd13ifvqbl0","pricing_plan_id":"cebpf4jnsgd1na2vs0mg"},{"bike_id":"402b268f-51d8-4319-85da-3f411d4d5d91","system_id":"levelo_inurba_marseille","lat":43.21234,"lon":5.35037,"is_reserved":false,"is_disabled":false,"rental_uris":{"android":"levelo://app?vid=402b268f-51d8-4319-85da-3f411d4d5d91","ios":"levelo://app?vid=402b268f-51d8-4319-85da-3f411d4d5d91"},"vehicle_type_id":"4","last_reported":1749558124,"current_range_meters":11600,"station_id":"","pricing_plan_id":"cebpf4jnsgd1na2vs0mg"},{"bike_id":"98288212-b67f-47f3-a818-dbee19e3b4d7","system_id":"levelo_inurba_marseille","lat":43.25498,"lon":5.37648,"is_reserved":false,"is_disabled":false,"rental_uris":{"android":"levelo://app?vid=98288212-b67f-47f3-a818-dbee19e3b4d7","ios":"levelo://app?vid=98288212-b67f-47f3-a818-dbee19e3b4d7"},"vehicle_type_id":"4","last_reported":1749558124,"current_range_meters":11600,"station_id":"ce4bhh12rcd13ifvqff0","pricing_plan_id":"cebpf4jnsgd1na2vs0mg"},{"bike_id":"ef555bdb-3115-4b1f-9398-9c76776e1204","system_id":"levelo_inurba_marseille","lat":43.26016,"lon":5.37452,"is_reserved":false,"is_disabled":false,"rental_uris":{"android":"levelo://app?vid=ef555bdb-3115-4b1f-9398-9c76776e1204","ios":"levelo://app?vid=ef555bdb-3115-4b1f-9398-9c76776e1204"},"vehicle_type_id":"4","last_reported":1749558124,"current_range_meters":12000,"station_id":"","pricing_plan_id":"cebpf4jnsgd1na2vs0mg"},{"bike_id":"4001e7fa-686d-4068-8eec-614c0446209e","system_id":"levelo_inurba_marseille","lat":43.31173,"lon":5.38713,"is_reserved":false,"is_disabled":false,"rental_uris":{"android":"levelo://app?vid=4001e7fa-686d-4068-8eec-614c0446209e","ios":"levelo://app?vid=4001e7fa-686d-4068-8eec-614c0446209e"},"vehicle_type_id":"4","last_reported":1749558124,"current_range_meters":12000,"station_id":"ce4bgv12rcd13ifvqcp0","pricing_plan_id":"cebpf4jnsgd1na2vs0mg"},{"bike_id":"e5fba7b6-3199-434c-9c83-9128904b0b8e","system_id":"levelo_inurba_marseille","lat":43.29682,"lon":5.37289,"is_reserved":false,"is_disabled":false,"rental_uris":{"android":"levelo://app?vid=e5fba7b6-3199-434c-9c83-9128904b0b8e","ios":"levelo://app?vid=e5fba7b6-3199-434c-9c83-9128904b0b8e"},"vehicle_type_id":"4","last_reported":1749558124,"current_range_meters":12000,"station_id":"ce4bgk12rcd13ifvqbj0","pricing_plan_id":"cebpf4jnsgd1na2vs0mg"},{"bike_id":"1ec286d6-1973-48c9-9f65-72cb51b53f89","system_id":"levelo_inurba_marseille","lat":43.29969,"lon":5.38492,"is_reserved":false,"is_disabled":true,"rental_uris":{"android":"levelo://app?vid=1ec286d6-1973-48c9-9f65-72cb51b53f89","ios":"levelo://app?vid=1ec286d6-1973-48c9-9f65-72cb51b53f89"},"vehicle_type_id":"4","last_reported":1749558124,"current_range_meters":12400,"station_id":"ce4bgj92rcd13ifvqbd0","pricing_plan_id":"cebpf4jnsgd1na2vs0mg"},{"bike_id":"b7651752-8eb3-4b67-91fc-0a6e006c8d1f","system_id":"levelo_inurba_marseille","lat":43.21205,"lon":5.35113,"is_reserved":false,"is_disabled":false,"rental_uris":{"android":"levelo://app?vid=b7651752-8eb3-4b67-91fc-0a6e006c8d1f","ios":"levelo://app?vid=b7651752-8eb3-4b67-91fc-0a6e006c8d1f"},"vehicle_type_id":"4","last_reported":1749558124,"current_range_meters":12400,"station_id":"st_cvj6sg6p6f1abm77japg","pricing_plan_id":"cebpf4jnsgd1na2vs0mg"},{"bike_id":"01b92f52-b586-4f02-9e33-ecdd33cb62c9","system_id":"levelo_inurba_marseille","lat":43.298484,"lon":5.362746,"is_reserved":false,"is_disabled":true,"rental_uris":{"android":"levelo://app?vid=01b92f52-b586-4f02-9e33-ecdd33cb62c9","ios":"levelo://app?vid=01b92f52-b586-4f02-9e33-ecdd33cb62c9"},"vehicle_type_id":"4","last_reported":1749558124,"current_range_meters":12400,"station_id":"ce4bgpp2rcd13ifvqc3g","pricing_plan_id":"cebpf4jnsgd1na2vs0mg"},{"bike_id":"0762674f-1e89-4d4c-aa36-9ccaf8f24fa7","system_id":"levelo_inurba_marseille","lat":43.28429,"lon":5.35001,"is_reserved":false,"is_disabled":false,"rental_uris":{"android":"levelo://app?vid=0762674f-1e89-4d4c-aa36-9ccaf8f24fa7","ios":"levelo://app?vid=0762674f-1e89-4d4c-aa36-9ccaf8f24fa7"},"vehicle_type_id":"4","last_reported":1749558124,"current_range_meters":12400,"station_id":"ce4bhbh2rcd13ifvqepg","pricing_plan_id":"cebpf4jnsgd1na2vs0mg"},{"bike_id":"1384cec9-c12d-4554-9d4d-7f8178ca8cd1","system_id":"levelo_inurba_marseille","lat":43.24074,"lon":5.37759,"is_reserved":false,"is_disabled":false,"rental_uris":{"android":"levelo://app?vid=1384cec9-c12d-4554-9d4d-7f8178ca8cd1","ios":"levelo://app?vid=1384cec9-c12d-4554-9d4d-7f8178ca8cd1"},"vehicle_type_id":"4","last_reported":1749558124,"current_range_meters":12400,"station_id":"ce4bhnp2rcd13ifvqgvg","pricing_plan_id":"cebpf4jnsgd1na2vs0mg"},{"bike_id":"fde471f0-ae87-4303-8d32-8f47c104d103","system_id":"levelo_inurba_marseille","lat":43.27075,"lon":5.42281,"is_reserved":false,"is_disabled":false,"rental_uris":{"android":"levelo://app?vid=fde471f0-ae87-4303-8d32-8f47c104d103","ios":"levelo://app?vid=fde471f0-ae87-4303-8d32-8f47c104d103"},"vehicle_type_id":"4","last_reported":1749558124,"current_range_meters":12400,"station_id":"ce4bhk92rcd13ifvqgb0","pricing_plan_id":"cebpf4jnsgd1na2vs0mg"},{"bike_id":"842f5a43-12da-4667-bf62-e652caef067d","system_id":"levelo_inurba_marseille","lat":43.29686,"lon":5.37289,"is_reserved":false,"is_disabled":false,"rental_uris":{"android":"levelo://app?vid=842f5a43-12da-4667-bf62-e652caef067d","ios":"levelo://app?vid=842f5a43-12da-4667-bf62-e652caef067d"},"vehicle_type_id":"4","last_reported":1749558124,"current_range_meters":12800,"station_id":"ce4bgk12rcd13ifvqbj0","pricing_plan_id":"cebpf4jnsgd1na2vs0mg"},{"bike_id":"f10b256e-a93d-485d-aa2c-de5adf87d2e7","system_id":"levelo_inurba_marseille","lat":43.31691,"lon":5.40473,"is_reserved":false,"is_disabled":false,"rental_uris":{"android":"levelo://app?vid=f10b256e-a93d-485d-aa2c-de5adf87d2e7","ios":"levelo://app?vid=f10b256e-a93d-485d-aa2c-de5adf87d2e7"},"vehicle_type_id":"4","last_reported":1749558124,"current_range_meters":12800,"station_id":"ce4bh012rcd13ifvqd00","pricing_plan_id":"cebpf4jnsgd1na2vs0mg"},{"bike_id":"ca27e12a-1f2d-4cf2-be29-12a2b9ff1547","system_id":"levelo_inurba_marseille","lat":43.31719,"lon":5.42407,"is_reserved":false,"is_disabled":false,"rental_uris":{"android":"levelo://app?vid=ca27e12a-1f2d-4cf2-be29-12a2b9ff1547","ios":"levelo://app?vid=ca27e12a-1f2d-4cf2-be29-12a2b9ff1547"},"vehicle_type_id":"4","last_reported":1749558124,"current_range_meters":12800,"station_id":"ce4bhp92rcd13ifvqhbg","pricing_plan_id":"cebpf4jnsgd1na2vs0mg"},{"bike_id":"9d5922cd-d2c3-43b2-a788-e9565f9e8239","system_id":"levelo_inurba_marseille","lat":43.24549,"lon":5.39519,"is_reserved":false,"is_disabled":false,"rental_uris":{"android":"levelo://app?vid=9d5922cd-d2c3-43b2-a788-e9565f9e8239","ios":"levelo://app?vid=9d5922cd-d2c3-43b2-a788-e9565f9e8239"},"vehicle_type_id":"4","last_reported":1749558124,"current_range_meters":13600,"station_id":"ce4bhlp2rcd13ifvqgjg","pricing_plan_id":"cebpf4jnsgd1na2vs0mg"},{"bike_id":"399870fd-9a3a-499b-8739-680a89e2620c","system_id":"levelo_inurba_marseille","lat":43.26498,"lon":5.39542,"is_reserved":false,"is_disabled":false,"rental_uris":{"android":"levelo://app?vid=399870fd-9a3a-499b-8739-680a89e2620c","ios":"levelo://app?vid=399870fd-9a3a-499b-8739-680a89e2620c"},"vehicle_type_id":"4","last_reported":1749558124,"current_range_meters":13600,"station_id":"ce4bhi12rcd13ifvqfq0","pricing_plan_id":"cebpf4jnsgd1na2vs0mg"},{"bike_id":"b2a55171-9e11-4eba-beeb-f2e7c5d27df2","system_id":"levelo_inurba_marseille","lat":43.21192,"lon":5.350722,"is_reserved":false,"is_disabled":false,"rental_uris":{"android":"levelo://app?vid=b2a55171-9e11-4eba-beeb-f2e7c5d27df2","ios":"levelo://app?vid=b2a55171-9e11-4eba-beeb-f2e7c5d27df2"},"vehicle_type_id":"4","last_reported":1749558124,"current_range_meters":13600,"station_id":"st_cvj6sg6p6f1abm77japg","pricing_plan_id":"cebpf4jnsgd1na2vs0mg"},{"bike_id":"8e39ef56-20dc-4d5b-9bb6-20b59c9b1064","system_id":"levelo_inurba_marseille","lat":43.31482,"lon":5.37307,"is_reserved":false,"is_disabled":false,"rental_uris":{"android":"levelo://app?vid=8e39ef56-20dc-4d5b-9bb6-20b59c9b1064","ios":"levelo://app?vid=8e39ef56-20dc-4d5b-9bb6-20b59c9b1064"},"vehicle_type_id":"4","last_reported":1749558124,"current_range_meters":13600,"station_id":"ce4bgt12rcd13ifvqcd0","pricing_plan_id":"cebpf4jnsgd1na2vs0mg"},{"bike_id":"e925ed2b-babc-4cf9-b75b-bac898fd5635","system_id":"levelo_inurba_marseille","lat":43.2119,"lon":5.35074,"is_reserved":false,"is_disabled":false,"rental_uris":{"android":"levelo://app?vid=e925ed2b-babc-4cf9-b75b-bac898fd5635","ios":"levelo://app?vid=e925ed2b-babc-4cf9-b75b-bac898fd5635"},"vehicle_type_id":"4","last_reported":1749558124,"current_range_meters":13600,"station_id":"st_cvj6sg6p6f1abm77japg","pricing_plan_id":"cebpf4jnsgd1na2vs0mg"},{"bike_id":"fcbec41f-50a8-4dc6-ae47-2d408409c0b0","system_id":"levelo_inurba_marseille","lat":43.31337,"lon":5.36713,"is_reserved":false,"is_disabled":false,"rental_uris":{"android":"levelo://app?vid=fcbec41f-50a8-4dc6-ae47-2d408409c0b0","ios":"levelo://app?vid=fcbec41f-50a8-4dc6-ae47-2d408409c0b0"},"vehicle_type_id":"4","last_reported":1749558124,"current_range_meters":13600,"station_id":"ce4bgr92rcd13ifvqc6g","pricing_plan_id":"cebpf4jnsgd1na2vs0mg"},{"bike_id":"59414846-5f1c-4bc8-84fe-7b55bad2dffe","system_id":"levelo_inurba_marseille","lat":43.26199,"lon":5.37934,"is_reserved":false,"is_disabled":false,"rental_uris":{"android":"levelo://app?vid=59414846-5f1c-4bc8-84fe-7b55bad2dffe","ios":"levelo://app?vid=59414846-5f1c-4bc8-84fe-7b55bad2dffe"},"vehicle_type_id":"4","last_reported":1749558124,"current_range_meters":14000,"station_id":"ce4bhjp2rcd13ifvqg90","pricing_plan_id":"cebpf4jnsgd1na2vs0mg"},{"bike_id":"0dc20d6a-fd82-4055-9786-0cfc6b413ef4","system_id":"levelo_inurba_marseille","lat":43.30553,"lon":5.36554,"is_reserved":false,"is_disabled":false,"rental_uris":{"android":"levelo://app?vid=0dc20d6a-fd82-4055-9786-0cfc6b413ef4","ios":"levelo://app?vid=0dc20d6a-fd82-4055-9786-0cfc6b413ef4"},"vehicle_type_id":"4","last_reported":1749558124,"current_range_meters":14000,"station_id":"ce4bgs12rcd13ifvqcag","pricing_plan_id":"cebpf4jnsgd1na2vs0mg"},{"bike_id":"fd0d3eff-d5ba-49a7-bda7-c5f2046ec258","system_id":"levelo_inurba_marseille","lat":43.28493,"lon":5.38591,"is_reserved":false,"is_disabled":false,"rental_uris":{"android":"levelo://app?vid=fd0d3eff-d5ba-49a7-bda7-c5f2046ec258","ios":"levelo://app?vid=fd0d3eff-d5ba-49a7-bda7-c5f2046ec258"},"vehicle_type_id":"4","last_reported":1749558124,"current_range_meters":14000,"station_id":"ce4bh8p2rcd13ifvqeb0","pricing_plan_id":"cebpf4jnsgd1na2vs0mg"},{"bike_id":"55c78ebe-818d-42aa-8909-149368b489ee","system_id":"levelo_inurba_marseille","lat":43.28413,"lon":5.34981,"is_reserved":false,"is_disabled":false,"rental_uris":{"android":"levelo://app?vid=55c78ebe-818d-42aa-8909-149368b489ee","ios":"levelo://app?vid=55c78ebe-818d-42aa-8909-149368b489ee"},"vehicle_type_id":"4","last_reported":1749558124,"current_range_meters":14400,"station_id":"ce4bhbh2rcd13ifvqepg","pricing_plan_id":"cebpf4jnsgd1na2vs0mg"},{"bike_id":"c9375876-5227-4f49-a416-c76eb38d7bf4","system_id":"levelo_inurba_marseille","lat":43.31325,"lon":5.3969,"is_reserved":false,"is_disabled":false,"rental_uris":{"android":"levelo://app?vid=c9375876-5227-4f49-a416-c76eb38d7bf4","ios":"levelo://app?vid=c9375876-5227-4f49-a416-c76eb38d7bf4"},"vehicle_type_id":"4","last_reported":1749558124,"current_range_meters":14400,"station_id":"ce4bgvp2rcd13ifvqcu0","pricing_plan_id":"cebpf4jnsgd1na2vs0mg"},{"bike_id":"7fbb8cf5-f563-4c4a-90cf-1a5ac10b01c4","system_id":"levelo_inurba_marseille","lat":43.21196,"lon":5.35071,"is_reserved":false,"is_disabled":false,"rental_uris":{"android":"levelo://app?vid=7fbb8cf5-f563-4c4a-90cf-1a5ac10b01c4","ios":"levelo://app?vid=7fbb8cf5-f563-4c4a-90cf-1a5ac10b01c4"},"vehicle_type_id":"4","last_reported":1749558124,"current_range_meters":14400,"station_id":"st_cvj6sg6p6f1abm77japg","pricing_plan_id":"cebpf4jnsgd1na2vs0mg"},{"bike_id":"57968a3a-164b-48a3-afb8-471ac1e74b7b","system_id":"levelo_inurba_marseille","lat":43.24684,"lon":5.38176,"is_reserved":false,"is_disabled":false,"rental_uris":{"android":"levelo://app?vid=57968a3a-164b-48a3-afb8-471ac1e74b7b","ios":"levelo://app?vid=57968a3a-164b-48a3-afb8-471ac1e74b7b"},"vehicle_type_id":"4","last_reported":1749558124,"current_range_meters":14400,"station_id":"ce4bhih2rcd13ifvqfr0","pricing_plan_id":"cebpf4jnsgd1na2vs0mg"},{"bike_id":"b39999a4-01f2-45ad-91b7-d362a78764a5","system_id":"levelo_inurba_marseille","lat":43.26201,"lon":5.3793,"is_reserved":false,"is_disabled":false,"rental_uris":{"android":"levelo://app?vid=b39999a4-01f2-45ad-91b7-d362a78764a5","ios":"levelo://app?vid=b39999a4-01f2-45ad-91b7-d362a78764a5"},"vehicle_type_id":"4","last_reported":1749558124,"current_range_meters":14400,"station_id":"ce4bhjp2rcd13ifvqg90","pricing_plan_id":"cebpf4jnsgd1na2vs0mg"},{"bike_id":"abcd2dc9-4396-440f-85b3-9d9064401860","system_id":"levelo_inurba_marseille","lat":43.31383,"lon":5.36676,"is_reserved":false,"is_disabled":false,"rental_uris":{"android":"levelo://app?vid=abcd2dc9-4396-440f-85b3-9d9064401860","ios":"levelo://app?vid=abcd2dc9-4396-440f-85b3-9d9064401860"},"vehicle_type_id":"4","last_reported":1749558124,"current_range_meters":14400,"station_id":"","pricing_plan_id":"cebpf4jnsgd1na2vs0mg"},{"bike_id":"187b0a7b-e256-4c19-9794-bb250a6c5653","system_id":"levelo_inurba_marseille","lat":43.31832,"lon":5.37958,"is_reserved":false,"is_disabled":false,"rental_uris":{"android":"levelo://app?vid=187b0a7b-e256-4c19-9794-bb250a6c5653","ios":"levelo://app?vid=187b0a7b-e256-4c19-9794-bb250a6c5653"},"vehicle_type_id":"4","last_reported":1749558124,"current_range_meters":14400,"station_id":"","pricing_plan_id":"cebpf4jnsgd1na2vs0mg"},{"bike_id":"2228a1fd-3b6d-4dc9-ba2f-a51343e8217a","system_id":"levelo_inurba_marseille","lat":43.28103,"lon":5.37833,"is_reserved":false,"is_disabled":false,"rental_uris":{"android":"levelo://app?vid=2228a1fd-3b6d-4dc9-ba2f-a51343e8217a","ios":"levelo://app?vid=2228a1fd-3b6d-4dc9-ba2f-a51343e8217a"},"vehicle_type_id":"4","last_reported":1749558124,"current_range_meters":14400,"station_id":"ce4bha12rcd13ifvqee0","pricing_plan_id":"cebpf4jnsgd1na2vs0mg"},{"bike_id":"5a55eb0f-0567-487e-a6a7-2cfcfc5473aa","system_id":"levelo_inurba_marseille","lat":43.33801,"lon":5.37423,"is_reserved":false,"is_disabled":false,"rental_uris":{"android":"levelo://app?vid=5a55eb0f-0567-487e-a6a7-2cfcfc5473aa","ios":"levelo://app?vid=5a55eb0f-0567-487e-a6a7-2cfcfc5473aa"},"vehicle_type_id":"4","last_reported":1749558124,"current_range_meters":14800,"station_id":"","pricing_plan_id":"cebpf4jnsgd1na2vs0mg"},{"bike_id":"fb04bd6f-f329-4028-b8fd-d116ebb7ad83","system_id":"levelo_inurba_marseille","lat":43.29709,"lon":5.36632,"is_reserved":false,"is_disabled":false,"rental_uris":{"android":"levelo://app?vid=fb04bd6f-f329-4028-b8fd-d116ebb7ad83","ios":"levelo://app?vid=fb04bd6f-f329-4028-b8fd-d116ebb7ad83"},"vehicle_type_id":"4","last_reported":1749558124,"current_range_meters":14800,"station_id":"ce4bgn12rcd13ifvqbt0","pricing_plan_id":"cebpf4jnsgd1na2vs0mg"},{"bike_id":"3b344fdd-2b5e-499a-8bfc-85cbb4d03c87","system_id":"levelo_inurba_marseille","lat":43.31333,"lon":5.397,"is_reserved":false,"is_disabled":false,"rental_uris":{"android":"levelo://app?vid=3b344fdd-2b5e-499a-8bfc-85cbb4d03c87","ios":"levelo://app?vid=3b344fdd-2b5e-499a-8bfc-85cbb4d03c87"},"vehicle_type_id":"4","last_reported":1749558124,"current_range_meters":14800,"station_id":"ce4bgvp2rcd13ifvqcu0","pricing_plan_id":"cebpf4jnsgd1na2vs0mg"},{"bike_id":"b4db101c-37fc-4062-974e-920916b4eab3","system_id":"levelo_inurba_marseille","lat":43.28717,"lon":5.37934,"is_reserved":false,"is_disabled":false,"rental_uris":{"android":"levelo://app?vid=b4db101c-37fc-4062-974e-920916b4eab3","ios":"levelo://app?vid=b4db101c-37fc-4062-974e-920916b4eab3"},"vehicle_type_id":"4","last_reported":1749558124,"current_range_meters":14400,"station_id":"ce4bh9p2rcd13ifvqec0","pricing_plan_id":"cebpf4jnsgd1na2vs0mg"},{"bike_id":"e1f0cc77-318d-45d4-b070-ee3fe505379f","system_id":"levelo_inurba_marseille","lat":43.31352,"lon":5.36734,"is_reserved":false,"is_disabled":false,"rental_uris":{"android":"levelo://app?vid=e1f0cc77-318d-45d4-b070-ee3fe505379f","ios":"levelo://app?vid=e1f0cc77-318d-45d4-b070-ee3fe505379f"},"vehicle_type_id":"4","last_reported":1749558124,"current_range_meters":14800,"station_id":"ce4bgr92rcd13ifvqc6g","pricing_plan_id":"cebpf4jnsgd1na2vs0mg"},{"bike_id":"8d40b566-02c8-4dfb-ae5f-53cce8dc604c","system_id":"levelo_inurba_marseille","lat":43.28153,"lon":5.42646,"is_reserved":false,"is_disabled":false,"rental_uris":{"android":"levelo://app?vid=8d40b566-02c8-4dfb-ae5f-53cce8dc604c","ios":"levelo://app?vid=8d40b566-02c8-4dfb-ae5f-53cce8dc604c"},"vehicle_type_id":"4","last_reported":1749558124,"current_range_meters":14800,"station_id":"ce4bhnh2rcd13ifvqgug","pricing_plan_id":"cebpf4jnsgd1na2vs0mg"},{"bike_id":"1d747039-3ea4-4530-8d06-ed38c39a434e","system_id":"levelo_inurba_marseille","lat":43.30131,"lon":5.39863,"is_reserved":false,"is_disabled":false,"rental_uris":{"android":"levelo://app?vid=1d747039-3ea4-4530-8d06-ed38c39a434e","ios":"levelo://app?vid=1d747039-3ea4-4530-8d06-ed38c39a434e"},"vehicle_type_id":"4","last_reported":1749558124,"current_range_meters":15200,"station_id":"ce4bh0h2rcd13ifvqd40","pricing_plan_id":"cebpf4jnsgd1na2vs0mg"},{"bike_id":"86090c21-e9ca-4011-93aa-bb9c79dceb10","system_id":"levelo_inurba_marseille","lat":43.27624,"lon":5.36107,"is_reserved":false,"is_disabled":false,"rental_uris":{"android":"levelo://app?vid=86090c21-e9ca-4011-93aa-bb9c79dceb10","ios":"levelo://app?vid=86090c21-e9ca-4011-93aa-bb9c79dceb10"},"vehicle_type_id":"4","last_reported":1749558124,"current_range_meters":15200,"station_id":"ce4bgj92rcd13ifvqbe0","pricing_plan_id":"cebpf4jnsgd1na2vs0mg"},{"bike_id":"69ac9317-7893-4567-93e0-ad17027b44f4","system_id":"levelo_inurba_marseille","lat":43.29802,"lon":5.37123,"is_reserved":false,"is_disabled":false,"rental_uris":{"android":"levelo://app?vid=69ac9317-7893-4567-93e0-ad17027b44f4","ios":"levelo://app?vid=69ac9317-7893-4567-93e0-ad17027b44f4"},"vehicle_type_id":"4","last_reported":1749558124,"current_range_meters":15200,"station_id":"ce4bgop2rcd13ifvqc1g","pricing_plan_id":"cebpf4jnsgd1na2vs0mg"},{"bike_id":"c30dbedc-c866-492b-a092-32c1ee0c1f22","system_id":"levelo_inurba_marseille","lat":43.29551,"lon":5.38558,"is_reserved":false,"is_disabled":true,"rental_uris":{"android":"levelo://app?vid=c30dbedc-c866-492b-a092-32c1ee0c1f22","ios":"levelo://app?vid=c30dbedc-c866-492b-a092-32c1ee0c1f22"},"vehicle_type_id":"4","last_reported":1749558124,"current_range_meters":15200,"station_id":"ce4bgih2rcd13ifvqba0","pricing_plan_id":"cebpf4jnsgd1na2vs0mg"},{"bike_id":"a7e979e5-7afa-4658-b3e7-2502946031d3","system_id":"levelo_inurba_marseille","lat":43.25518,"lon":5.4204,"is_reserved":false,"is_disabled":false,"rental_uris":{"android":"levelo://app?vid=a7e979e5-7afa-4658-b3e7-2502946031d3","ios":"levelo://app?vid=a7e979e5-7afa-4658-b3e7-2502946031d3"},"vehicle_type_id":"4","last_reported":1749558124,"current_range_meters":15200,"station_id":"","pricing_plan_id":"cebpf4jnsgd1na2vs0mg"},{"bike_id":"f84684c5-599f-4215-935c-a2b60494dbfd","system_id":"levelo_inurba_marseille","lat":43.32658,"lon":5.40999,"is_reserved":false,"is_disabled":false,"rental_uris":{"android":"levelo://app?vid=f84684c5-599f-4215-935c-a2b60494dbfd","ios":"levelo://app?vid=f84684c5-599f-4215-935c-a2b60494dbfd"},"vehicle_type_id":"4","last_reported":1749558124,"current_range_meters":15200,"station_id":"ce4bhpp2rcd13ifvqhgg","pricing_plan_id":"cebpf4jnsgd1na2vs0mg"},{"bike_id":"1e20f032-0f6a-40b2-ad29-e4d2225496fa","system_id":"levelo_inurba_marseille","lat":43.30299,"lon":5.37068,"is_reserved":false,"is_disabled":false,"rental_uris":{"android":"levelo://app?vid=1e20f032-0f6a-40b2-ad29-e4d2225496fa","ios":"levelo://app?vid=1e20f032-0f6a-40b2-ad29-e4d2225496fa"},"vehicle_type_id":"4","last_reported":1749558124,"current_range_meters":15200,"station_id":"","pricing_plan_id":"cebpf4jnsgd1na2vs0mg"},{"bike_id":"1dd557b5-f996-450f-a3e2-3399157fe6cc","system_id":"levelo_inurba_marseille","lat":43.29305,"lon":5.37471,"is_reserved":false,"is_disabled":false,"rental_uris":{"android":"levelo://app?vid=1dd557b5-f996-450f-a3e2-3399157fe6cc","ios":"levelo://app?vid=1dd557b5-f996-450f-a3e2-3399157fe6cc"},"vehicle_type_id":"4","last_reported":1749558124,"current_range_meters":15200,"station_id":"ce4bgi12rcd13ifvqb70","pricing_plan_id":"cebpf4jnsgd1na2vs0mg"},{"bike_id":"fad9b98f-1bfd-41b0-be76-c725e485d072","system_id":"levelo_inurba_marseille","lat":43.211962,"lon":5.350675,"is_reserved":false,"is_disabled":false,"rental_uris":{"android":"levelo://app?vid=fad9b98f-1bfd-41b0-be76-c725e485d072","ios":"levelo://app?vid=fad9b98f-1bfd-41b0-be76-c725e485d072"},"vehicle_type_id":"4","last_reported":1749558124,"current_range_meters":16000,"station_id":"st_cvj6sg6p6f1abm77japg","pricing_plan_id":"cebpf4jnsgd1na2vs0mg"},{"bike_id":"d7ffbcd2-2d25-4560-a17e-32b1675a58ec","system_id":"levelo_inurba_marseille","lat":43.24385,"lon":5.37067,"is_reserved":false,"is_disabled":false,"rental_uris":{"android":"levelo://app?vid=d7ffbcd2-2d25-4560-a17e-32b1675a58ec","ios":"levelo://app?vid=d7ffbcd2-2d25-4560-a17e-32b1675a58ec"},"vehicle_type_id":"4","last_reported":1749558124,"current_range_meters":15200,"station_id":"ce4bhhh2rcd13ifvqfk0","pricing_plan_id":"cebpf4jnsgd1na2vs0mg"},{"bike_id":"1112870b-7d61-4c5e-867e-015df8afa9c0","system_id":"levelo_inurba_marseille","lat":43.28415,"lon":5.34994,"is_reserved":false,"is_disabled":false,"rental_uris":{"android":"levelo://app?vid=1112870b-7d61-4c5e-867e-015df8afa9c0","ios":"levelo://app?vid=1112870b-7d61-4c5e-867e-015df8afa9c0"},"vehicle_type_id":"4","last_reported":1749558124,"current_range_meters":16000,"station_id":"ce4bhbh2rcd13ifvqepg","pricing_plan_id":"cebpf4jnsgd1na2vs0mg"},{"bike_id":"d229dd29-8771-41b4-8ef6-cfd1bcc233c4","system_id":"levelo_inurba_marseille","lat":43.29266,"lon":5.3844,"is_reserved":false,"is_disabled":false,"rental_uris":{"android":"levelo://app?vid=d229dd29-8771-41b4-8ef6-cfd1bcc233c4","ios":"levelo://app?vid=d229dd29-8771-41b4-8ef6-cfd1bcc233c4"},"vehicle_type_id":"4","last_reported":1749558124,"current_range_meters":16000,"station_id":"ce4bh692rcd13ifvqea0","pricing_plan_id":"cebpf4jnsgd1na2vs0mg"},{"bike_id":"8b0c22f9-c19a-4a4f-b0e8-85fa93c1df7b","system_id":"levelo_inurba_marseille","lat":43.30197,"lon":5.36608,"is_reserved":false,"is_disabled":false,"rental_uris":{"android":"levelo://app?vid=8b0c22f9-c19a-4a4f-b0e8-85fa93c1df7b","ios":"levelo://app?vid=8b0c22f9-c19a-4a4f-b0e8-85fa93c1df7b"},"vehicle_type_id":"4","last_reported":1749558124,"current_range_meters":16000,"station_id":"ce4bgrh2rcd13ifvqc8g","pricing_plan_id":"cebpf4jnsgd1na2vs0mg"},{"bike_id":"9eda48d2-480a-469b-9d11-e78f0c2301aa","system_id":"levelo_inurba_marseille","lat":43.2706,"lon":5.40258,"is_reserved":false,"is_disabled":false,"rental_uris":{"android":"levelo://app?vid=9eda48d2-480a-469b-9d11-e78f0c2301aa","ios":"levelo://app?vid=9eda48d2-480a-469b-9d11-e78f0c2301aa"},"vehicle_type_id":"4","last_reported":1749558124,"current_range_meters":16000,"station_id":"ce4bhk92rcd13ifvqgc0","pricing_plan_id":"cebpf4jnsgd1na2vs0mg"},{"bike_id":"66a554b0-1440-4449-9b9a-dcf9e0415ba6","system_id":"levelo_inurba_marseille","lat":43.29982,"lon":5.38488,"is_reserved":false,"is_disabled":true,"rental_uris":{"android":"levelo://app?vid=66a554b0-1440-4449-9b9a-dcf9e0415ba6","ios":"levelo://app?vid=66a554b0-1440-4449-9b9a-dcf9e0415ba6"},"vehicle_type_id":"4","last_reported":1749558124,"current_range_meters":16000,"station_id":"ce4bgj92rcd13ifvqbd0","pricing_plan_id":"cebpf4jnsgd1na2vs0mg"},{"bike_id":"c4241128-f9a5-4cc3-8aaa-ac075f8bef6a","system_id":"levelo_inurba_marseille","lat":43.28853,"lon":5.39318,"is_reserved":false,"is_disabled":false,"rental_uris":{"android":"levelo://app?vid=c4241128-f9a5-4cc3-8aaa-ac075f8bef6a","ios":"levelo://app?vid=c4241128-f9a5-4cc3-8aaa-ac075f8bef6a"},"vehicle_type_id":"4","last_reported":1749558124,"current_range_meters":16000,"station_id":"ce4bh2p2rcd13ifvqdi0","pricing_plan_id":"cebpf4jnsgd1na2vs0mg"},{"bike_id":"8e0d2925-e23f-4dfe-9779-56615fa8a54e","system_id":"levelo_inurba_marseille","lat":43.29191,"lon":5.35801,"is_reserved":false,"is_disabled":false,"rental_uris":{"android":"levelo://app?vid=8e0d2925-e23f-4dfe-9779-56615fa8a54e","ios":"levelo://app?vid=8e0d2925-e23f-4dfe-9779-56615fa8a54e"},"vehicle_type_id":"4","last_reported":1749558124,"current_range_meters":16000,"station_id":"ce4bhb12rcd13ifvqel0","pricing_plan_id":"cebpf4jnsgd1na2vs0mg"},{"bike_id":"262903a9-22b9-4b2d-96c2-2e5dbd155090","system_id":"levelo_inurba_marseille","lat":43.32474,"lon":5.36583,"is_reserved":false,"is_disabled":false,"rental_uris":{"android":"levelo://app?vid=262903a9-22b9-4b2d-96c2-2e5dbd155090","ios":"levelo://app?vid=262903a9-22b9-4b2d-96c2-2e5dbd155090"},"vehicle_type_id":"4","last_reported":1749558124,"current_range_meters":16400,"station_id":"ce4bhs12rcd13ifvqhvg","pricing_plan_id":"cebpf4jnsgd1na2vs0mg"},{"bike_id":"e5f4941b-3a0d-4b5e-8a8f-578a8435a47f","system_id":"levelo_inurba_marseille","lat":43.26552,"lon":5.37285,"is_reserved":false,"is_disabled":false,"rental_uris":{"android":"levelo://app?vid=e5f4941b-3a0d-4b5e-8a8f-578a8435a47f","ios":"levelo://app?vid=e5f4941b-3a0d-4b5e-8a8f-578a8435a47f"},"vehicle_type_id":"4","last_reported":1749558124,"current_range_meters":16400,"station_id":"ce4bhg12rcd13ifvqf70","pricing_plan_id":"cebpf4jnsgd1na2vs0mg"},{"bike_id":"45312479-bac1-47d5-9791-cc935b1dd224","system_id":"levelo_inurba_marseille","lat":43.26791,"lon":5.39411,"is_reserved":false,"is_disabled":false,"rental_uris":{"android":"levelo://app?vid=45312479-bac1-47d5-9791-cc935b1dd224","ios":"levelo://app?vid=45312479-bac1-47d5-9791-cc935b1dd224"},"vehicle_type_id":"4","last_reported":1749558124,"current_range_meters":16400,"station_id":"ce4bhh12rcd13ifvqfg0","pricing_plan_id":"cebpf4jnsgd1na2vs0mg"},{"bike_id":"557104e5-12ad-4811-8d87-d8392375329d","system_id":"levelo_inurba_marseille","lat":43.28266,"lon":5.35078,"is_reserved":false,"is_disabled":false,"rental_uris":{"android":"levelo://app?vid=557104e5-12ad-4811-8d87-d8392375329d","ios":"levelo://app?vid=557104e5-12ad-4811-8d87-d8392375329d"},"vehicle_type_id":"4","last_reported":1749558124,"current_range_meters":16400,"station_id":"ce4bhbp2rcd13ifvqerg","pricing_plan_id":"cebpf4jnsgd1na2vs0mg"},{"bike_id":"93fe7527-ff59-49e4-8a28-7b6371205510","system_id":"levelo_inurba_marseille","lat":43.23973,"lon":5.36626,"is_reserved":false,"is_disabled":false,"rental_uris":{"android":"levelo://app?vid=93fe7527-ff59-49e4-8a28-7b6371205510","ios":"levelo://app?vid=93fe7527-ff59-49e4-8a28-7b6371205510"},"vehicle_type_id":"4","last_reported":1749558124,"current_range_meters":16400,"station_id":"ce4bhi12rcd13ifvqfp0","pricing_plan_id":"cebpf4jnsgd1na2vs0mg"},{"bike_id":"84f5a926-1dd6-4535-b647-2764ce0ca103","system_id":"levelo_inurba_marseille","lat":43.32088,"lon":5.36808,"is_reserved":false,"is_disabled":false,"rental_uris":{"android":"levelo://app?vid=84f5a926-1dd6-4535-b647-2764ce0ca103","ios":"levelo://app?vid=84f5a926-1dd6-4535-b647-2764ce0ca103"},"vehicle_type_id":"4","last_reported":1749558124,"current_range_meters":16400,"station_id":"ce4bhrh2rcd13ifvqhug","pricing_plan_id":"cebpf4jnsgd1na2vs0mg"},{"bike_id":"002ad4e8-6140-4bdd-b14b-f38ee707447e","system_id":"levelo_inurba_marseille","lat":43.30987,"lon":5.38578,"is_reserved":false,"is_disabled":false,"rental_uris":{"android":"levelo://app?vid=002ad4e8-6140-4bdd-b14b-f38ee707447e","ios":"levelo://app?vid=002ad4e8-6140-4bdd-b14b-f38ee707447e"},"vehicle_type_id":"4","last_reported":1749558124,"current_range_meters":16400,"station_id":"","pricing_plan_id":"cebpf4jnsgd1na2vs0mg"},{"bike_id":"1dc54f7e-7b0f-4763-b180-826756693fee","system_id":"levelo_inurba_marseille","lat":43.29853,"lon":5.36278,"is_reserved":false,"is_disabled":false,"rental_uris":{"android":"levelo://app?vid=1dc54f7e-7b0f-4763-b180-826756693fee","ios":"levelo://app?vid=1dc54f7e-7b0f-4763-b180-826756693fee"},"vehicle_type_id":"4","last_reported":1749558124,"current_range_meters":16400,"station_id":"ce4bgpp2rcd13ifvqc3g","pricing_plan_id":"cebpf4jnsgd1na2vs0mg"},{"bike_id":"d141670e-cc66-4551-9c42-63b483ae5c3e","system_id":"levelo_inurba_marseille","lat":43.25717,"lon":5.41116,"is_reserved":false,"is_disabled":false,"rental_uris":{"android":"levelo://app?vid=d141670e-cc66-4551-9c42-63b483ae5c3e","ios":"levelo://app?vid=d141670e-cc66-4551-9c42-63b483ae5c3e"},"vehicle_type_id":"4","last_reported":1749558124,"current_range_meters":16400,"station_id":"ce4bhkp2rcd13ifvqgd0","pricing_plan_id":"cebpf4jnsgd1na2vs0mg"},{"bike_id":"e61a5abb-c900-4d6e-8217-a46fab06e9f4","system_id":"levelo_inurba_marseille","lat":43.33012,"lon":5.39272,"is_reserved":false,"is_disabled":false,"rental_uris":{"android":"levelo://app?vid=e61a5abb-c900-4d6e-8217-a46fab06e9f4","ios":"levelo://app?vid=e61a5abb-c900-4d6e-8217-a46fab06e9f4"},"vehicle_type_id":"4","last_reported":1749558124,"current_range_meters":16800,"station_id":"","pricing_plan_id":"cebpf4jnsgd1na2vs0mg"},{"bike_id":"1cb49127-83c2-42e5-a0c1-a209212b201e","system_id":"levelo_inurba_marseille","lat":43.28418,"lon":5.35003,"is_reserved":false,"is_disabled":false,"rental_uris":{"android":"levelo://app?vid=1cb49127-83c2-42e5-a0c1-a209212b201e","ios":"levelo://app?vid=1cb49127-83c2-42e5-a0c1-a209212b201e"},"vehicle_type_id":"4","last_reported":1749558124,"current_range_meters":16800,"station_id":"ce4bhbh2rcd13ifvqepg","pricing_plan_id":"cebpf4jnsgd1na2vs0mg"},{"bike_id":"9cc8572c-558a-4ee3-a723-4532c0b186a9","system_id":"levelo_inurba_marseille","lat":43.27054,"lon":5.40262,"is_reserved":false,"is_disabled":false,"rental_uris":{"android":"levelo://app?vid=9cc8572c-558a-4ee3-a723-4532c0b186a9","ios":"levelo://app?vid=9cc8572c-558a-4ee3-a723-4532c0b186a9"},"vehicle_type_id":"4","last_reported":1749558124,"current_range_meters":16800,"station_id":"ce4bhk92rcd13ifvqgc0","pricing_plan_id":"cebpf4jnsgd1na2vs0mg"},{"bike_id":"0959e72f-4477-4bbb-b0b5-61ffe3a307d1","system_id":"levelo_inurba_marseille","lat":43.29707,"lon":5.37708,"is_reserved":false,"is_disabled":false,"rental_uris":{"android":"levelo://app?vid=0959e72f-4477-4bbb-b0b5-61ffe3a307d1","ios":"levelo://app?vid=0959e72f-4477-4bbb-b0b5-61ffe3a307d1"},"vehicle_type_id":"4","last_reported":1749558124,"current_range_meters":16800,"station_id":"ce4bgkh2rcd13ifvqbl0","pricing_plan_id":"cebpf4jnsgd1na2vs0mg"},{"bike_id":"2570b8d2-8993-4a8a-bd9c-bb6b693b3851","system_id":"levelo_inurba_marseille","lat":43.28266,"lon":5.35068,"is_reserved":false,"is_disabled":false,"rental_uris":{"android":"levelo://app?vid=2570b8d2-8993-4a8a-bd9c-bb6b693b3851","ios":"levelo://app?vid=2570b8d2-8993-4a8a-bd9c-bb6b693b3851"},"vehicle_type_id":"4","last_reported":1749558124,"current_range_meters":16800,"station_id":"ce4bhbp2rcd13ifvqerg","pricing_plan_id":"cebpf4jnsgd1na2vs0mg"},{"bike_id":"9e31e695-0cc0-4b80-8cc5-6c5bc518926d","system_id":"levelo_inurba_marseille","lat":43.29262,"lon":5.37619,"is_reserved":false,"is_disabled":false,"rental_uris":{"android":"levelo://app?vid=9e31e695-0cc0-4b80-8cc5-6c5bc518926d","ios":"levelo://app?vid=9e31e695-0cc0-4b80-8cc5-6c5bc518926d"},"vehicle_type_id":"4","last_reported":1749558124,"current_range_meters":16800,"station_id":"ce4bgi12rcd13ifvqb80","pricing_plan_id":"cebpf4jnsgd1na2vs0mg"},{"bike_id":"46054e16-8772-48ec-a7c9-746caa4cbef5","system_id":"levelo_inurba_marseille","lat":43.25919,"lon":5.4089,"is_reserved":false,"is_disabled":false,"rental_uris":{"android":"levelo://app?vid=46054e16-8772-48ec-a7c9-746caa4cbef5","ios":"levelo://app?vid=46054e16-8772-48ec-a7c9-746caa4cbef5"},"vehicle_type_id":"4","last_reported":1749558124,"current_range_meters":16800,"station_id":"ce4bhm92rcd13ifvqglg","pricing_plan_id":"cebpf4jnsgd1na2vs0mg"},{"bike_id":"72befdc9-9f00-42fe-9fa3-196160650a86","system_id":"levelo_inurba_marseille","lat":43.28648,"lon":5.35107,"is_reserved":false,"is_disabled":false,"rental_uris":{"android":"levelo://app?vid=72befdc9-9f00-42fe-9fa3-196160650a86","ios":"levelo://app?vid=72befdc9-9f00-42fe-9fa3-196160650a86"},"vehicle_type_id":"4","last_reported":1749558124,"current_range_meters":16800,"station_id":"ce4bhch2rcd13ifvqeug","pricing_plan_id":"cebpf4jnsgd1na2vs0mg"},{"bike_id":"f86c871e-5691-4061-a487-aa146b09dc41","system_id":"levelo_inurba_marseille","lat":43.28424,"lon":5.34985,"is_reserved":false,"is_disabled":false,"rental_uris":{"android":"levelo://app?vid=f86c871e-5691-4061-a487-aa146b09dc41","ios":"levelo://app?vid=f86c871e-5691-4061-a487-aa146b09dc41"},"vehicle_type_id":"4","last_reported":1749558124,"current_range_meters":16800,"station_id":"ce4bhbh2rcd13ifvqepg","pricing_plan_id":"cebpf4jnsgd1na2vs0mg"},{"bike_id":"360698b9-753d-4929-b083-8e827c7f2f61","system_id":"levelo_inurba_marseille","lat":43.31311,"lon":5.39719,"is_reserved":false,"is_disabled":false,"rental_uris":{"android":"levelo://app?vid=360698b9-753d-4929-b083-8e827c7f2f61","ios":"levelo://app?vid=360698b9-753d-4929-b083-8e827c7f2f61"},"vehicle_type_id":"4","last_reported":1749558124,"current_range_meters":16800,"station_id":"ce4bgvp2rcd13ifvqcu0","pricing_plan_id":"cebpf4jnsgd1na2vs0mg"},{"bike_id":"a5666009-a641-4d20-b0e2-3945ce6adff7","system_id":"levelo_inurba_marseille","lat":43.29543,"lon":5.37515,"is_reserved":false,"is_disabled":false,"rental_uris":{"android":"levelo://app?vid=a5666009-a641-4d20-b0e2-3945ce6adff7","ios":"levelo://app?vid=a5666009-a641-4d20-b0e2-3945ce6adff7"},"vehicle_type_id":"4","last_reported":1749558124,"current_range_meters":17200,"station_id":"ce4bgkp2rcd13ifvqbmg","pricing_plan_id":"cebpf4jnsgd1na2vs0mg"},{"bike_id":"23f9a4cc-e410-469c-a02b-c411322b74d0","system_id":"levelo_inurba_marseille","lat":43.29265,"lon":5.38438,"is_reserved":false,"is_disabled":false,"rental_uris":{"android":"levelo://app?vid=23f9a4cc-e410-469c-a02b-c411322b74d0","ios":"levelo://app?vid=23f9a4cc-e410-469c-a02b-c411322b74d0"},"vehicle_type_id":"4","last_reported":1749558124,"current_range_meters":17200,"station_id":"ce4bh692rcd13ifvqea0","pricing_plan_id":"cebpf4jnsgd1na2vs0mg"},{"bike_id":"7c459ac9-c744-48fd-ba22-c35cb1c0147b","system_id":"levelo_inurba_marseille","lat":43.24077,"lon":5.3776,"is_reserved":false,"is_disabled":false,"rental_uris":{"android":"levelo://app?vid=7c459ac9-c744-48fd-ba22-c35cb1c0147b","ios":"levelo://app?vid=7c459ac9-c744-48fd-ba22-c35cb1c0147b"},"vehicle_type_id":"4","last_reported":1749558124,"current_range_meters":17200,"station_id":"ce4bhnp2rcd13ifvqgvg","pricing_plan_id":"cebpf4jnsgd1na2vs0mg"},{"bike_id":"e857b26f-e98d-4e5b-a472-9489934cc3bc","system_id":"levelo_inurba_marseille","lat":43.30931,"lon":5.40137,"is_reserved":false,"is_disabled":true,"rental_uris":{"android":"levelo://app?vid=e857b26f-e98d-4e5b-a472-9489934cc3bc","ios":"levelo://app?vid=e857b26f-e98d-4e5b-a472-9489934cc3bc"},"vehicle_type_id":"4","last_reported":1749558124,"current_range_meters":17200,"station_id":"ce4bgvp2rcd13ifvqct0","pricing_plan_id":"cebpf4jnsgd1na2vs0mg"},{"bike_id":"70ad019b-bef1-44ea-955c-db8632c6c16d","system_id":"levelo_inurba_marseille","lat":43.24168,"lon":5.36391,"is_reserved":false,"is_disabled":false,"rental_uris":{"android":"levelo://app?vid=70ad019b-bef1-44ea-955c-db8632c6c16d","ios":"levelo://app?vid=70ad019b-bef1-44ea-955c-db8632c6c16d"},"vehicle_type_id":"4","last_reported":1749558124,"current_range_meters":17200,"station_id":"cpo36qri1sfpv3e86is0","pricing_plan_id":"cebpf4jnsgd1na2vs0mg"},{"bike_id":"62da34c6-5063-4c51-a094-ade7e99669e1","system_id":"levelo_inurba_marseille","lat":43.21744,"lon":5.34603,"is_reserved":false,"is_disabled":false,"rental_uris":{"android":"levelo://app?vid=62da34c6-5063-4c51-a094-ade7e99669e1","ios":"levelo://app?vid=62da34c6-5063-4c51-a094-ade7e99669e1"},"vehicle_type_id":"4","last_reported":1749558124,"current_range_meters":17200,"station_id":"","pricing_plan_id":"cebpf4jnsgd1na2vs0mg"},{"bike_id":"5c606e6f-4347-407f-b5c2-400f5e977b94","system_id":"levelo_inurba_marseille","lat":43.29276,"lon":5.3684,"is_reserved":false,"is_disabled":false,"rental_uris":{"android":"levelo://app?vid=5c606e6f-4347-407f-b5c2-400f5e977b94","ios":"levelo://app?vid=5c606e6f-4347-407f-b5c2-400f5e977b94"},"vehicle_type_id":"4","last_reported":1749558124,"current_range_meters":17200,"station_id":"ce4bhbp2rcd13ifvqesg","pricing_plan_id":"cebpf4jnsgd1na2vs0mg"},{"bike_id":"105c8820-e974-4347-a707-330f9c1e9591","system_id":"levelo_inurba_marseille","lat":43.2815,"lon":5.42652,"is_reserved":false,"is_disabled":false,"rental_uris":{"android":"levelo://app?vid=105c8820-e974-4347-a707-330f9c1e9591","ios":"levelo://app?vid=105c8820-e974-4347-a707-330f9c1e9591"},"vehicle_type_id":"4","last_reported":1749558124,"current_range_meters":17200,"station_id":"ce4bhnh2rcd13ifvqgug","pricing_plan_id":"cebpf4jnsgd1na2vs0mg"},{"bike_id":"1acfb620-cad7-48c0-8901-d7a5b74a5b65","system_id":"levelo_inurba_marseille","lat":43.33751,"lon":5.37456,"is_reserved":false,"is_disabled":false,"rental_uris":{"android":"levelo://app?vid=1acfb620-cad7-48c0-8901-d7a5b74a5b65","ios":"levelo://app?vid=1acfb620-cad7-48c0-8901-d7a5b74a5b65"},"vehicle_type_id":"4","last_reported":1749558124,"current_range_meters":17200,"station_id":"","pricing_plan_id":"cebpf4jnsgd1na2vs0mg"},{"bike_id":"27dac3e2-05f7-4d88-99aa-52cc97caab31","system_id":"levelo_inurba_marseille","lat":43.2407,"lon":5.37764,"is_reserved":false,"is_disabled":false,"rental_uris":{"android":"levelo://app?vid=27dac3e2-05f7-4d88-99aa-52cc97caab31","ios":"levelo://app?vid=27dac3e2-05f7-4d88-99aa-52cc97caab31"},"vehicle_type_id":"4","last_reported":1749558124,"current_range_meters":17600,"station_id":"ce4bhnp2rcd13ifvqgvg","pricing_plan_id":"cebpf4jnsgd1na2vs0mg"},{"bike_id":"382dc9c2-2c71-455d-a0f7-199c242e3d3e","system_id":"levelo_inurba_marseille","lat":43.29937,"lon":5.3655,"is_reserved":false,"is_disabled":false,"rental_uris":{"android":"levelo://app?vid=382dc9c2-2c71-455d-a0f7-199c242e3d3e","ios":"levelo://app?vid=382dc9c2-2c71-455d-a0f7-199c242e3d3e"},"vehicle_type_id":"4","last_reported":1749558124,"current_range_meters":17600,"station_id":"ce4bgm92rcd13ifvqbr0","pricing_plan_id":"cebpf4jnsgd1na2vs0mg"},{"bike_id":"6dc454e0-4c76-4e51-bf59-cf5ef18884b6","system_id":"levelo_inurba_marseille","lat":43.28106,"lon":5.37829,"is_reserved":false,"is_disabled":false,"rental_uris":{"android":"levelo://app?vid=6dc454e0-4c76-4e51-bf59-cf5ef18884b6","ios":"levelo://app?vid=6dc454e0-4c76-4e51-bf59-cf5ef18884b6"},"vehicle_type_id":"4","last_reported":1749558124,"current_range_meters":17600,"station_id":"ce4bha12rcd13ifvqee0","pricing_plan_id":"cebpf4jnsgd1na2vs0mg"},{"bike_id":"7722e534-bd57-43ff-88e0-47a2e003863a","system_id":"levelo_inurba_marseille","lat":43.262109,"lon":5.374522,"is_reserved":false,"is_disabled":false,"rental_uris":{"android":"levelo://app?vid=7722e534-bd57-43ff-88e0-47a2e003863a","ios":"levelo://app?vid=7722e534-bd57-43ff-88e0-47a2e003863a"},"vehicle_type_id":"4","last_reported":1749558124,"current_range_meters":17600,"station_id":"ce4bhgp2rcd13ifvqfc0","pricing_plan_id":"cebpf4jnsgd1na2vs0mg"},{"bike_id":"05d5f878-a38f-4131-ae94-5c7d4ab89fc9","system_id":"levelo_inurba_marseille","lat":43.26192,"lon":5.37453,"is_reserved":false,"is_disabled":false,"rental_uris":{"android":"levelo://app?vid=05d5f878-a38f-4131-ae94-5c7d4ab89fc9","ios":"levelo://app?vid=05d5f878-a38f-4131-ae94-5c7d4ab89fc9"},"vehicle_type_id":"4","last_reported":1749558124,"current_range_meters":17600,"station_id":"ce4bhgp2rcd13ifvqfc0","pricing_plan_id":"cebpf4jnsgd1na2vs0mg"},{"bike_id":"6a4f7073-a4bb-4eed-9849-048082f9a53e","system_id":"levelo_inurba_marseille","lat":43.26058,"lon":5.39406,"is_reserved":false,"is_disabled":false,"rental_uris":{"android":"levelo://app?vid=6a4f7073-a4bb-4eed-9849-048082f9a53e","ios":"levelo://app?vid=6a4f7073-a4bb-4eed-9849-048082f9a53e"},"vehicle_type_id":"4","last_reported":1749558124,"current_range_meters":17600,"station_id":"ce4bhh92rcd13ifvqfj0","pricing_plan_id":"cebpf4jnsgd1na2vs0mg"},{"bike_id":"0abd7fe4-085c-4c8b-a77f-174bd23fa865","system_id":"levelo_inurba_marseille","lat":43.3095,"lon":5.39038,"is_reserved":false,"is_disabled":false,"rental_uris":{"android":"levelo://app?vid=0abd7fe4-085c-4c8b-a77f-174bd23fa865","ios":"levelo://app?vid=0abd7fe4-085c-4c8b-a77f-174bd23fa865"},"vehicle_type_id":"4","last_reported":1749558124,"current_range_meters":17600,"station_id":"ce4bgup2rcd13ifvqco0","pricing_plan_id":"cebpf4jnsgd1na2vs0mg"},{"bike_id":"4497bc7b-bd64-47d5-92de-a3021c6fff2f","system_id":"levelo_inurba_marseille","lat":43.32456,"lon":5.36563,"is_reserved":false,"is_disabled":false,"rental_uris":{"android":"levelo://app?vid=4497bc7b-bd64-47d5-92de-a3021c6fff2f","ios":"levelo://app?vid=4497bc7b-bd64-47d5-92de-a3021c6fff2f"},"vehicle_type_id":"4","last_reported":1749558124,"current_range_meters":17600,"station_id":"ce4bhs12rcd13ifvqhvg","pricing_plan_id":"cebpf4jnsgd1na2vs0mg"},{"bike_id":"f6a61804-330d-4f30-8fcc-2bb88b5a7142","system_id":"levelo_inurba_marseille","lat":43.257304,"lon":5.411074,"is_reserved":false,"is_disabled":false,"rental_uris":{"android":"levelo://app?vid=f6a61804-330d-4f30-8fcc-2bb88b5a7142","ios":"levelo://app?vid=f6a61804-330d-4f30-8fcc-2bb88b5a7142"},"vehicle_type_id":"4","last_reported":1749558124,"current_range_meters":17600,"station_id":"ce4bhkp2rcd13ifvqgd0","pricing_plan_id":"cebpf4jnsgd1na2vs0mg"},{"bike_id":"f53bc08c-3129-4fc3-9174-862ec7b43c8b","system_id":"levelo_inurba_marseille","lat":43.28277,"lon":5.35078,"is_reserved":false,"is_disabled":false,"rental_uris":{"android":"levelo://app?vid=f53bc08c-3129-4fc3-9174-862ec7b43c8b","ios":"levelo://app?vid=f53bc08c-3129-4fc3-9174-862ec7b43c8b"},"vehicle_type_id":"4","last_reported":1749558124,"current_range_meters":18000,"station_id":"ce4bhbp2rcd13ifvqerg","pricing_plan_id":"cebpf4jnsgd1na2vs0mg"},{"bike_id":"8a218b91-7c0d-481c-9923-2c0bd482638b","system_id":"levelo_inurba_marseille","lat":43.29592,"lon":5.36737,"is_reserved":false,"is_disabled":false,"rental_uris":{"android":"levelo://app?vid=8a218b91-7c0d-481c-9923-2c0bd482638b","ios":"levelo://app?vid=8a218b91-7c0d-481c-9923-2c0bd482638b"},"vehicle_type_id":"4","last_reported":1749558124,"current_range_meters":18000,"station_id":"ce4bgph2rcd13ifvqc2g","pricing_plan_id":"cebpf4jnsgd1na2vs0mg"},{"bike_id":"9caab4f7-8e70-451b-94ce-2f3a3e04dff8","system_id":"levelo_inurba_marseille","lat":43.31079,"lon":5.38351,"is_reserved":false,"is_disabled":false,"rental_uris":{"android":"levelo://app?vid=9caab4f7-8e70-451b-94ce-2f3a3e04dff8","ios":"levelo://app?vid=9caab4f7-8e70-451b-94ce-2f3a3e04dff8"},"vehicle_type_id":"4","last_reported":1749558124,"current_range_meters":18000,"station_id":"ce4bgv92rcd13ifvqcr0","pricing_plan_id":"cebpf4jnsgd1na2vs0mg"},{"bike_id":"0a52ebd8-62f6-425e-b4b0-0647738f6061","system_id":"levelo_inurba_marseille","lat":43.30732,"lon":5.42451,"is_reserved":false,"is_disabled":true,"rental_uris":{"android":"levelo://app?vid=0a52ebd8-62f6-425e-b4b0-0647738f6061","ios":"levelo://app?vid=0a52ebd8-62f6-425e-b4b0-0647738f6061"},"vehicle_type_id":"4","last_reported":1749558124,"current_range_meters":18000,"station_id":"st_cvj6ca6bvosntc0bfgr0","pricing_plan_id":"cebpf4jnsgd1na2vs0mg"},{"bike_id":"4f277a40-c562-419c-82d0-1686b6d2030f","system_id":"levelo_inurba_marseille","lat":43.28416,"lon":5.35003,"is_reserved":false,"is_disabled":false,"rental_uris":{"android":"levelo://app?vid=4f277a40-c562-419c-82d0-1686b6d2030f","ios":"levelo://app?vid=4f277a40-c562-419c-82d0-1686b6d2030f"},"vehicle_type_id":"4","last_reported":1749558124,"current_range_meters":18000,"station_id":"ce4bhbh2rcd13ifvqepg","pricing_plan_id":"cebpf4jnsgd1na2vs0mg"},{"bike_id":"0c2cd831-dce1-4444-b808-d346232c5b6b","system_id":"levelo_inurba_marseille","lat":43.2622,"lon":5.37467,"is_reserved":false,"is_disabled":false,"rental_uris":{"android":"levelo://app?vid=0c2cd831-dce1-4444-b808-d346232c5b6b","ios":"levelo://app?vid=0c2cd831-dce1-4444-b808-d346232c5b6b"},"vehicle_type_id":"4","last_reported":1749558124,"current_range_meters":18800,"station_id":"ce4bhgp2rcd13ifvqfc0","pricing_plan_id":"cebpf4jnsgd1na2vs0mg"},{"bike_id":"8c51fcb8-1000-450b-8f34-5201983c67d2","system_id":"levelo_inurba_marseille","lat":43.30935,"lon":5.40147,"is_reserved":false,"is_disabled":false,"rental_uris":{"android":"levelo://app?vid=8c51fcb8-1000-450b-8f34-5201983c67d2","ios":"levelo://app?vid=8c51fcb8-1000-450b-8f34-5201983c67d2"},"vehicle_type_id":"4","last_reported":1749558124,"current_range_meters":18800,"station_id":"ce4bgvp2rcd13ifvqct0","pricing_plan_id":"cebpf4jnsgd1na2vs0mg"},{"bike_id":"0a61a83d-30f6-461d-afb3-c145799620b8","system_id":"levelo_inurba_marseille","lat":43.3249,"lon":5.36578,"is_reserved":false,"is_disabled":false,"rental_uris":{"android":"levelo://app?vid=0a61a83d-30f6-461d-afb3-c145799620b8","ios":"levelo://app?vid=0a61a83d-30f6-461d-afb3-c145799620b8"},"vehicle_type_id":"4","last_reported":1749558124,"current_range_meters":18800,"station_id":"ce4bhs12rcd13ifvqhvg","pricing_plan_id":"cebpf4jnsgd1na2vs0mg"},{"bike_id":"550a1098-7acf-4b38-b1ab-5a38033e2f9a","system_id":"levelo_inurba_marseille","lat":43.30319,"lon":5.36914,"is_reserved":false,"is_disabled":false,"rental_uris":{"android":"levelo://app?vid=550a1098-7acf-4b38-b1ab-5a38033e2f9a","ios":"levelo://app?vid=550a1098-7acf-4b38-b1ab-5a38033e2f9a"},"vehicle_type_id":"4","last_reported":1749558124,"current_range_meters":18800,"station_id":"ce4bgqh2rcd13ifvqc5g","pricing_plan_id":"cebpf4jnsgd1na2vs0mg"},{"bike_id":"40ed7678-cb6c-4231-badb-eba7933a1667","system_id":"levelo_inurba_marseille","lat":43.33607,"lon":5.41006,"is_reserved":false,"is_disabled":false,"rental_uris":{"android":"levelo://app?vid=40ed7678-cb6c-4231-badb-eba7933a1667","ios":"levelo://app?vid=40ed7678-cb6c-4231-badb-eba7933a1667"},"vehicle_type_id":"4","last_reported":1749558124,"current_range_meters":18800,"station_id":"ce4bhqh2rcd13ifvqhmg","pricing_plan_id":"cebpf4jnsgd1na2vs0mg"},{"bike_id":"9231f021-d06e-4dc9-b555-e59bf1d45ecd","system_id":"levelo_inurba_marseille","lat":43.321113,"lon":5.367678,"is_reserved":false,"is_disabled":false,"rental_uris":{"android":"levelo://app?vid=9231f021-d06e-4dc9-b555-e59bf1d45ecd","ios":"levelo://app?vid=9231f021-d06e-4dc9-b555-e59bf1d45ecd"},"vehicle_type_id":"4","last_reported":1749558124,"current_range_meters":18800,"station_id":"ce4bhrh2rcd13ifvqhug","pricing_plan_id":"cebpf4jnsgd1na2vs0mg"},{"bike_id":"87482a76-4b31-421e-ad48-ed975817f9e4","system_id":"levelo_inurba_marseille","lat":43.21748,"lon":5.346,"is_reserved":false,"is_disabled":false,"rental_uris":{"android":"levelo://app?vid=87482a76-4b31-421e-ad48-ed975817f9e4","ios":"levelo://app?vid=87482a76-4b31-421e-ad48-ed975817f9e4"},"vehicle_type_id":"4","last_reported":1749558124,"current_range_meters":18800,"station_id":"st_cvj6r9ubvosntc0bgbag","pricing_plan_id":"cebpf4jnsgd1na2vs0mg"},{"bike_id":"4cb78e2c-8e63-4812-81ef-1980f9de8b37","system_id":"levelo_inurba_marseille","lat":43.32418,"lon":5.38915,"is_reserved":false,"is_disabled":false,"rental_uris":{"android":"levelo://app?vid=4cb78e2c-8e63-4812-81ef-1980f9de8b37","ios":"levelo://app?vid=4cb78e2c-8e63-4812-81ef-1980f9de8b37"},"vehicle_type_id":"4","last_reported":1749558124,"current_range_meters":18800,"station_id":"","pricing_plan_id":"cebpf4jnsgd1na2vs0mg"},{"bike_id":"ef82d3bb-77d5-4e5f-a672-159dfe609ed3","system_id":"levelo_inurba_marseille","lat":43.28295,"lon":5.35063,"is_reserved":false,"is_disabled":false,"rental_uris":{"android":"levelo://app?vid=ef82d3bb-77d5-4e5f-a672-159dfe609ed3","ios":"levelo://app?vid=ef82d3bb-77d5-4e5f-a672-159dfe609ed3"},"vehicle_type_id":"4","last_reported":1749558124,"current_range_meters":18800,"station_id":"ce4bhbp2rcd13ifvqerg","pricing_plan_id":"cebpf4jnsgd1na2vs0mg"},{"bike_id":"dff58567-7cfd-4501-8b8f-9b483f57187c","system_id":"levelo_inurba_marseille","lat":43.2407,"lon":5.37763,"is_reserved":false,"is_disabled":false,"rental_uris":{"android":"levelo://app?vid=dff58567-7cfd-4501-8b8f-9b483f57187c","ios":"levelo://app?vid=dff58567-7cfd-4501-8b8f-9b483f57187c"},"vehicle_type_id":"4","last_reported":1749558124,"current_range_meters":18800,"station_id":"ce4bhnp2rcd13ifvqgvg","pricing_plan_id":"cebpf4jnsgd1na2vs0mg"},{"bike_id":"f869a171-c630-4636-9a2a-5253c0a85d14","system_id":"levelo_inurba_marseille","lat":43.30414,"lon":5.4128,"is_reserved":false,"is_disabled":false,"rental_uris":{"android":"levelo://app?vid=f869a171-c630-4636-9a2a-5253c0a85d14","ios":"levelo://app?vid=f869a171-c630-4636-9a2a-5253c0a85d14"},"vehicle_type_id":"4","last_reported":1749558124,"current_range_meters":18800,"station_id":"ce4bhop2rcd13ifvqh8g","pricing_plan_id":"cebpf4jnsgd1na2vs0mg"},{"bike_id":"e93073ab-c17c-467a-b540-f93334fc1a8a","system_id":"levelo_inurba_marseille","lat":43.211896,"lon":5.350708,"is_reserved":false,"is_disabled":true,"rental_uris":{"android":"levelo://app?vid=e93073ab-c17c-467a-b540-f93334fc1a8a","ios":"levelo://app?vid=e93073ab-c17c-467a-b540-f93334fc1a8a"},"vehicle_type_id":"4","last_reported":1749558124,"current_range_meters":18800,"station_id":"","pricing_plan_id":"cebpf4jnsgd1na2vs0mg"},{"bike_id":"f6f18f76-375e-4158-96a0-8e812a7c9fed","system_id":"levelo_inurba_marseille","lat":43.31228,"lon":5.36861,"is_reserved":false,"is_disabled":false,"rental_uris":{"android":"levelo://app?vid=f6f18f76-375e-4158-96a0-8e812a7c9fed","ios":"levelo://app?vid=f6f18f76-375e-4158-96a0-8e812a7c9fed"},"vehicle_type_id":"4","last_reported":1749558124,"current_range_meters":19200,"station_id":"ce4bgl92rcd13ifvqbq0","pricing_plan_id":"cebpf4jnsgd1na2vs0mg"},{"bike_id":"63e40138-141f-4768-876a-d09ed0ddb6e8","system_id":"levelo_inurba_marseille","lat":43.2861,"lon":5.35114,"is_reserved":false,"is_disabled":false,"rental_uris":{"android":"levelo://app?vid=63e40138-141f-4768-876a-d09ed0ddb6e8","ios":"levelo://app?vid=63e40138-141f-4768-876a-d09ed0ddb6e8"},"vehicle_type_id":"4","last_reported":1749558124,"current_range_meters":19200,"station_id":"ce4bhch2rcd13ifvqeug","pricing_plan_id":"cebpf4jnsgd1na2vs0mg"},{"bike_id":"86bc70ad-1b1a-4c26-94f3-447d2e2108c8","system_id":"levelo_inurba_marseille","lat":43.32498,"lon":5.36578,"is_reserved":false,"is_disabled":false,"rental_uris":{"android":"levelo://app?vid=86bc70ad-1b1a-4c26-94f3-447d2e2108c8","ios":"levelo://app?vid=86bc70ad-1b1a-4c26-94f3-447d2e2108c8"},"vehicle_type_id":"4","last_reported":1749558124,"current_range_meters":19200,"station_id":"ce4bhs12rcd13ifvqhvg","pricing_plan_id":"cebpf4jnsgd1na2vs0mg"},{"bike_id":"3f7ce623-8cd8-40b8-b36c-774eebbc1b1e","system_id":"levelo_inurba_marseille","lat":43.286705,"lon":5.363427,"is_reserved":false,"is_disabled":false,"rental_uris":{"android":"levelo://app?vid=3f7ce623-8cd8-40b8-b36c-774eebbc1b1e","ios":"levelo://app?vid=3f7ce623-8cd8-40b8-b36c-774eebbc1b1e"},"vehicle_type_id":"4","last_reported":1749558124,"current_range_meters":19200,"station_id":"ce4bhah2rcd13ifvqej0","pricing_plan_id":"cebpf4jnsgd1na2vs0mg"},{"bike_id":"5fab7b0c-07cc-403e-8630-5d1b3dea8dd9","system_id":"levelo_inurba_marseille","lat":43.25101,"lon":5.40328,"is_reserved":false,"is_disabled":false,"rental_uris":{"android":"levelo://app?vid=5fab7b0c-07cc-403e-8630-5d1b3dea8dd9","ios":"levelo://app?vid=5fab7b0c-07cc-403e-8630-5d1b3dea8dd9"},"vehicle_type_id":"4","last_reported":1749558124,"current_range_meters":19200,"station_id":"ce4bhlh2rcd13ifvqgig","pricing_plan_id":"cebpf4jnsgd1na2vs0mg"},{"bike_id":"314bac2c-e47f-46cd-afcd-53cd84a7d142","system_id":"levelo_inurba_marseille","lat":43.27619,"lon":5.3613,"is_reserved":false,"is_disabled":true,"rental_uris":{"android":"levelo://app?vid=314bac2c-e47f-46cd-afcd-53cd84a7d142","ios":"levelo://app?vid=314bac2c-e47f-46cd-afcd-53cd84a7d142"},"vehicle_type_id":"4","last_reported":1749558124,"current_range_meters":19200,"station_id":"ce4bgj92rcd13ifvqbe0","pricing_plan_id":"cebpf4jnsgd1na2vs0mg"},{"bike_id":"a2421370-e442-436f-a98a-844d44299694","system_id":"levelo_inurba_marseille","lat":43.323607,"lon":5.367498,"is_reserved":false,"is_disabled":false,"rental_uris":{"android":"levelo://app?vid=a2421370-e442-436f-a98a-844d44299694","ios":"levelo://app?vid=a2421370-e442-436f-a98a-844d44299694"},"vehicle_type_id":"4","last_reported":1749558124,"current_range_meters":19600,"station_id":"ce4bhsh2rcd13ifvqi2g","pricing_plan_id":"cebpf4jnsgd1na2vs0mg"},{"bike_id":"1fe51758-683d-4b8a-94f3-76bb3b36ca29","system_id":"levelo_inurba_marseille","lat":43.29711,"lon":5.37701,"is_reserved":false,"is_disabled":false,"rental_uris":{"android":"levelo://app?vid=1fe51758-683d-4b8a-94f3-76bb3b36ca29","ios":"levelo://app?vid=1fe51758-683d-4b8a-94f3-76bb3b36ca29"},"vehicle_type_id":"4","last_reported":1749558124,"current_range_meters":19600,"station_id":"ce4bgkh2rcd13ifvqbl0","pricing_plan_id":"cebpf4jnsgd1na2vs0mg"},{"bike_id":"8ac4d7c2-743e-40d5-8c9e-2af92903c633","system_id":"levelo_inurba_marseille","lat":43.31538,"lon":5.3804,"is_reserved":false,"is_disabled":false,"rental_uris":{"android":"levelo://app?vid=8ac4d7c2-743e-40d5-8c9e-2af92903c633","ios":"levelo://app?vid=8ac4d7c2-743e-40d5-8c9e-2af92903c633"},"vehicle_type_id":"4","last_reported":1749558124,"current_range_meters":19600,"station_id":"ce4bhsp2rcd13ifvqi50","pricing_plan_id":"cebpf4jnsgd1na2vs0mg"},{"bike_id":"c7a3d041-110a-4bab-a2ac-d2bcca428567","system_id":"levelo_inurba_marseille","lat":43.337444,"lon":5.374475,"is_reserved":false,"is_disabled":false,"rental_uris":{"android":"levelo://app?vid=c7a3d041-110a-4bab-a2ac-d2bcca428567","ios":"levelo://app?vid=c7a3d041-110a-4bab-a2ac-d2bcca428567"},"vehicle_type_id":"4","last_reported":1749558124,"current_range_meters":19600,"station_id":"ce4bgi12rcd13ifvqb70","pricing_plan_id":"cebpf4jnsgd1na2vs0mg"},{"bike_id":"32e4874f-1a30-4b38-9e2d-96ec871a18df","system_id":"levelo_inurba_marseille","lat":43.29553,"lon":5.42281,"is_reserved":false,"is_disabled":false,"rental_uris":{"android":"levelo://app?vid=32e4874f-1a30-4b38-9e2d-96ec871a18df","ios":"levelo://app?vid=32e4874f-1a30-4b38-9e2d-96ec871a18df"},"vehicle_type_id":"4","last_reported":1749558124,"current_range_meters":19600,"station_id":"ce4bhph2rcd13ifvqhdg","pricing_plan_id":"cebpf4jnsgd1na2vs0mg"},{"bike_id":"25a4c875-602e-485b-a883-bfff2f4afc41","system_id":"levelo_inurba_marseille","lat":43.28409,"lon":5.34978,"is_reserved":false,"is_disabled":false,"rental_uris":{"android":"levelo://app?vid=25a4c875-602e-485b-a883-bfff2f4afc41","ios":"levelo://app?vid=25a4c875-602e-485b-a883-bfff2f4afc41"},"vehicle_type_id":"4","last_reported":1749558124,"current_range_meters":19600,"station_id":"ce4bhbh2rcd13ifvqepg","pricing_plan_id":"cebpf4jnsgd1na2vs0mg"},{"bike_id":"c4e91bee-2fc1-4752-a595-1a53f554512a","system_id":"levelo_inurba_marseille","lat":43.28418,"lon":5.3498,"is_reserved":false,"is_disabled":false,"rental_uris":{"android":"levelo://app?vid=c4e91bee-2fc1-4752-a595-1a53f554512a","ios":"levelo://app?vid=c4e91bee-2fc1-4752-a595-1a53f554512a"},"vehicle_type_id":"4","last_reported":1749558124,"current_range_meters":19600,"station_id":"ce4bhbh2rcd13ifvqepg","pricing_plan_id":"cebpf4jnsgd1na2vs0mg"},{"bike_id":"f7f17d41-3a45-4d0f-9443-1e3f1b5f0a66","system_id":"levelo_inurba_marseille","lat":43.308883,"lon":5.396636,"is_reserved":false,"is_disabled":false,"rental_uris":{"android":"levelo://app?vid=f7f17d41-3a45-4d0f-9443-1e3f1b5f0a66","ios":"levelo://app?vid=f7f17d41-3a45-4d0f-9443-1e3f1b5f0a66"},"vehicle_type_id":"4","last_reported":1749558124,"current_range_meters":19600,"station_id":"ce4bh012rcd13ifvqcv0","pricing_plan_id":"cebpf4jnsgd1na2vs0mg"},{"bike_id":"70434807-e050-4c28-9297-09b388d1d3a0","system_id":"levelo_inurba_marseille","lat":43.29701,"lon":5.37707,"is_reserved":false,"is_disabled":false,"rental_uris":{"android":"levelo://app?vid=70434807-e050-4c28-9297-09b388d1d3a0","ios":"levelo://app?vid=70434807-e050-4c28-9297-09b388d1d3a0"},"vehicle_type_id":"4","last_reported":1749558124,"current_range_meters":19600,"station_id":"ce4bgkh2rcd13ifvqbl0","pricing_plan_id":"cebpf4jnsgd1na2vs0mg"},{"bike_id":"0509747e-8e83-44e0-a642-c1bc88d90254","system_id":"levelo_inurba_marseille","lat":43.211879,"lon":5.350673,"is_reserved":false,"is_disabled":false,"rental_uris":{"android":"levelo://app?vid=0509747e-8e83-44e0-a642-c1bc88d90254","ios":"levelo://app?vid=0509747e-8e83-44e0-a642-c1bc88d90254"},"vehicle_type_id":"4","last_reported":1749558124,"current_range_meters":19600,"station_id":"st_cvj6sg6p6f1abm77japg","pricing_plan_id":"cebpf4jnsgd1na2vs0mg"},{"bike_id":"8bb9eb5c-0d47-4233-97dc-b7123fd9b241","system_id":"levelo_inurba_marseille","lat":43.29967,"lon":5.38499,"is_reserved":false,"is_disabled":false,"rental_uris":{"android":"levelo://app?vid=8bb9eb5c-0d47-4233-97dc-b7123fd9b241","ios":"levelo://app?vid=8bb9eb5c-0d47-4233-97dc-b7123fd9b241"},"vehicle_type_id":"4","last_reported":1749558124,"current_range_meters":20000,"station_id":"ce4bgj92rcd13ifvqbd0","pricing_plan_id":"cebpf4jnsgd1na2vs0mg"},{"bike_id":"3de2fc03-1998-4620-ad80-34639e6ea148","system_id":"levelo_inurba_marseille","lat":43.29725,"lon":5.3771,"is_reserved":false,"is_disabled":false,"rental_uris":{"android":"levelo://app?vid=3de2fc03-1998-4620-ad80-34639e6ea148","ios":"levelo://app?vid=3de2fc03-1998-4620-ad80-34639e6ea148"},"vehicle_type_id":"4","last_reported":1749558124,"current_range_meters":20000,"station_id":"ce4bgkh2rcd13ifvqbl0","pricing_plan_id":"cebpf4jnsgd1na2vs0mg"},{"bike_id":"1b9ccbdc-39c7-40c1-b0dd-6a58a11eafd3","system_id":"levelo_inurba_marseille","lat":43.26201,"lon":5.37929,"is_reserved":false,"is_disabled":false,"rental_uris":{"android":"levelo://app?vid=1b9ccbdc-39c7-40c1-b0dd-6a58a11eafd3","ios":"levelo://app?vid=1b9ccbdc-39c7-40c1-b0dd-6a58a11eafd3"},"vehicle_type_id":"4","last_reported":1749558124,"current_range_meters":20000,"station_id":"ce4bhjp2rcd13ifvqg90","pricing_plan_id":"cebpf4jnsgd1na2vs0mg"},{"bike_id":"f10adc7e-6a3a-4a5d-9515-dc52fefe2058","system_id":"levelo_inurba_marseille","lat":43.32377,"lon":5.36767,"is_reserved":false,"is_disabled":false,"rental_uris":{"android":"levelo://app?vid=f10adc7e-6a3a-4a5d-9515-dc52fefe2058","ios":"levelo://app?vid=f10adc7e-6a3a-4a5d-9515-dc52fefe2058"},"vehicle_type_id":"4","last_reported":1749558124,"current_range_meters":20000,"station_id":"ce4bhsh2rcd13ifvqi2g","pricing_plan_id":"cebpf4jnsgd1na2vs0mg"},{"bike_id":"9f3ac0cc-98b9-428f-8052-4a1ed6e1f0b3","system_id":"levelo_inurba_marseille","lat":43.299415,"lon":5.36548,"is_reserved":false,"is_disabled":false,"rental_uris":{"android":"levelo://app?vid=9f3ac0cc-98b9-428f-8052-4a1ed6e1f0b3","ios":"levelo://app?vid=9f3ac0cc-98b9-428f-8052-4a1ed6e1f0b3"},"vehicle_type_id":"4","last_reported":1749558124,"current_range_meters":20000,"station_id":"ce4bgm92rcd13ifvqbr0","pricing_plan_id":"cebpf4jnsgd1na2vs0mg"},{"bike_id":"bbc8849f-8826-4242-a6b3-b04bf2c35b77","system_id":"levelo_inurba_marseille","lat":43.31352,"lon":5.36722,"is_reserved":false,"is_disabled":false,"rental_uris":{"android":"levelo://app?vid=bbc8849f-8826-4242-a6b3-b04bf2c35b77","ios":"levelo://app?vid=bbc8849f-8826-4242-a6b3-b04bf2c35b77"},"vehicle_type_id":"4","last_reported":1749558124,"current_range_meters":20400,"station_id":"ce4bgr92rcd13ifvqc6g","pricing_plan_id":"cebpf4jnsgd1na2vs0mg"},{"bike_id":"0d77e0b9-acd4-48b5-8646-ae85e6318140","system_id":"levelo_inurba_marseille","lat":43.28151,"lon":5.42652,"is_reserved":false,"is_disabled":false,"rental_uris":{"android":"levelo://app?vid=0d77e0b9-acd4-48b5-8646-ae85e6318140","ios":"levelo://app?vid=0d77e0b9-acd4-48b5-8646-ae85e6318140"},"vehicle_type_id":"4","last_reported":1749558124,"current_range_meters":20400,"station_id":"ce4bhnh2rcd13ifvqgug","pricing_plan_id":"cebpf4jnsgd1na2vs0mg"},{"bike_id":"23a74610-23e3-49f0-b1df-747c36239eec","system_id":"levelo_inurba_marseille","lat":43.30961,"lon":5.3904,"is_reserved":false,"is_disabled":false,"rental_uris":{"android":"levelo://app?vid=23a74610-23e3-49f0-b1df-747c36239eec","ios":"levelo://app?vid=23a74610-23e3-49f0-b1df-747c36239eec"},"vehicle_type_id":"4","last_reported":1749558124,"current_range_meters":20400,"station_id":"ce4bgup2rcd13ifvqco0","pricing_plan_id":"cebpf4jnsgd1na2vs0mg"},{"bike_id":"e6e8895a-c4df-408e-9d03-b7d955e21da4","system_id":"levelo_inurba_marseille","lat":43.29927,"lon":5.37498,"is_reserved":false,"is_disabled":false,"rental_uris":{"android":"levelo://app?vid=e6e8895a-c4df-408e-9d03-b7d955e21da4","ios":"levelo://app?vid=e6e8895a-c4df-408e-9d03-b7d955e21da4"},"vehicle_type_id":"4","last_reported":1749558124,"current_range_meters":20400,"station_id":"ce4bgjh2rcd13ifvqbg0","pricing_plan_id":"cebpf4jnsgd1na2vs0mg"},{"bike_id":"370bfdd7-0639-4d0e-a7a5-811687e6eb68","system_id":"levelo_inurba_marseille","lat":43.299798,"lon":5.371819,"is_reserved":false,"is_disabled":false,"rental_uris":{"android":"levelo://app?vid=370bfdd7-0639-4d0e-a7a5-811687e6eb68","ios":"levelo://app?vid=370bfdd7-0639-4d0e-a7a5-811687e6eb68"},"vehicle_type_id":"4","last_reported":1749558124,"current_range_meters":20400,"station_id":"ce4bgr92rcd13ifvqc7g","pricing_plan_id":"cebpf4jnsgd1na2vs0mg"},{"bike_id":"56433171-5753-4a56-b774-42e6b2becada","system_id":"levelo_inurba_marseille","lat":43.30951,"lon":5.3903,"is_reserved":false,"is_disabled":false,"rental_uris":{"android":"levelo://app?vid=56433171-5753-4a56-b774-42e6b2becada","ios":"levelo://app?vid=56433171-5753-4a56-b774-42e6b2becada"},"vehicle_type_id":"4","last_reported":1749558124,"current_range_meters":20400,"station_id":"ce4bgup2rcd13ifvqco0","pricing_plan_id":"cebpf4jnsgd1na2vs0mg"},{"bike_id":"a1d3430f-6827-4ee0-a227-f2c1d153758c","system_id":"levelo_inurba_marseille","lat":43.2904,"lon":5.37549,"is_reserved":false,"is_disabled":false,"rental_uris":{"android":"levelo://app?vid=a1d3430f-6827-4ee0-a227-f2c1d153758c","ios":"levelo://app?vid=a1d3430f-6827-4ee0-a227-f2c1d153758c"},"vehicle_type_id":"4","last_reported":1749558124,"current_range_meters":20000,"station_id":"ce4bh692rcd13ifvqe90","pricing_plan_id":"cebpf4jnsgd1na2vs0mg"},{"bike_id":"f79a4bdd-9ba6-4d14-9555-a5e30eaed391","system_id":"levelo_inurba_marseille","lat":43.25587,"lon":5.3823,"is_reserved":false,"is_disabled":false,"rental_uris":{"android":"levelo://app?vid=f79a4bdd-9ba6-4d14-9555-a5e30eaed391","ios":"levelo://app?vid=f79a4bdd-9ba6-4d14-9555-a5e30eaed391"},