{"last_updated":1726503067,"ttl":30,"version":"2.2","data":{"bikes":[{"bike_id":"3c252e8e-3cba-4c86-b137-f780559f3270","system_id":"levelo_inurba_marseille","lat":43.28616,"lon":5.35104,"is_reserved":false,"is_disabled":false,"rental_uris":{"android":"levelo://app?vid=3c252e8e-3cba-4c86-b137-f780559f3270","ios":"levelo://app?vid=3c252e8e-3cba-4c86-b137-f780559f3270"},"vehicle_type_id":"4","last_reported":1726503068,"current_range_meters":3200,"station_id":"ce4bhch2rcd13ifvqeug","pricing_plan_id":"cebpf4jnsgd1na2vs0mg"},{"bike_id":"8cce1a95-b89f-438a-9353-999e9a074618","system_id":"levelo_inurba_marseille","lat":43.26802,"lon":5.40263,"is_reserved":false,"is_disabled":false,"rental_uris":{"android":"levelo://app?vid=8cce1a95-b89f-438a-9353-999e9a074618","ios":"levelo://app?vid=8cce1a95-b89f-438a-9353-999e9a074618"},"vehicle_type_id":"4","last_reported":1726503068,"current_range_meters":27600,"station_id":"ce501612rcd8frsf0b60","pricing_plan_id":"cebpf4jnsgd1na2vs0mg"},{"bike_id":"9cca5b41-dec7-45d1-b2f7-951a21fb7231","system_id":"levelo_inurba_marseille","lat":43.31485,"lon":5.37312,"is_reserved":false,"is_disabled":false,"rental_uris":{"android":"levelo://app?vid=9cca5b41-dec7-45d1-b2f7-951a21fb7231","ios":"levelo://app?vid=9cca5b41-dec7-45d1-b2f7-951a21fb7231"},"vehicle_type_id":"4","last_reported":1726503068,"current_range_meters":24800,"station_id":"ce4bgt12rcd13ifvqcd0","pricing_plan_id":"cebpf4jnsgd1na2vs0mg"},{"bike_id":"43176770-eaee-4996-86c7-d408161e4ce6","system_id":"levelo_inurba_marseille","lat":43.29903,"lon":5.43658,"is_reserved":false,"is_disabled":false,"rental_uris":{"android":"levelo://app?vid=43176770-eaee-4996-86c7-d408161e4ce6","ios":"levelo://app?vid=43176770-eaee-4996-86c7-d408161e4ce6"},"vehicle_type_id":"4","last_reported":1726503068,"current_range_meters":10000,"station_id":"ce4bhpp2rcd13ifvqhfg","pricing_plan_id":"cebpf4jnsgd1na2vs0mg"},{"bike_id":"5f5db002-89d8-4898-afa8-46d05d656b02","system_id":"levelo_inurba_marseille","lat":43.3176,"lon":5.39004,"is_reserved":false,"is_disabled":false,"rental_uris":{"android":"levelo://app?vid=5f5db002-89d8-4898-afa8-46d05d656b02","ios":"levelo://app?vid=5f5db002-89d8-4898-afa8-46d05d656b02"},"vehicle_type_id":"4","last_reported":1726503068,"current_range_meters":33600,"station_id":"ce4bhqp2rcd13ifvqhng","pricing_plan_id":"cebpf4jnsgd1na2vs0mg"},{"bike_id":"7e74ccf1-6e94-422c-bb3a-8867c576e37a","system_id":"levelo_inurba_marseille","lat":43.22931,"lon":5.35374,"is_reserved":false,"is_disabled":false,"rental_uris":{"android":"levelo://app?vid=7e74ccf1-6e94-422c-bb3a-8867c576e37a","ios":"levelo://app?vid=7e74ccf1-6e94-422c-bb3a-8867c576e37a"},"vehicle_type_id":"4","last_reported":1726503068,"current_range_meters":24800,"station_id":"cpo3532slgdg3j2ikp40","pricing_plan_id":"cebpf4jnsgd1na2vs0mg"},{"bike_id":"08f7b687-fc02-4f21-a56d-4390e9bc7ea0","system_id":"levelo_inurba_marseille","lat":43.2572,"lon":5.41109,"is_reserved":false,"is_disabled":false,"rental_uris":{"android":"levelo://app?vid=08f7b687-fc02-4f21-a56d-4390e9bc7ea0","ios":"levelo://app?vid=08f7b687-fc02-4f21-a56d-4390e9bc7ea0"},"vehicle_type_id":"4","last_reported":1726503068,"current_range_meters":9600,"station_id":"ce4bhkp2rcd13ifvqgd0","pricing_plan_id":"cebpf4jnsgd1na2vs0mg"},{"bike_id":"9b6d7f52-af36-4e13-b3e4-bf7557e9e324","system_id":"levelo_inurba_marseille","lat":43.31993,"lon":5.38146,"is_reserved":false,"is_disabled":false,"rental_uris":{"android":"levelo://app?vid=9b6d7f52-af36-4e13-b3e4-bf7557e9e324","ios":"levelo://app?vid=9b6d7f52-af36-4e13-b3e4-bf7557e9e324"},"vehicle_type_id":"4","last_reported":1726503068,"current_range_meters":34000,"station_id":"ce4bhr12rcd13ifvqhpg","pricing_plan_id":"cebpf4jnsgd1na2vs0mg"},{"bike_id":"13ec4916-f0ea-4897-8afc-596425b42c42","system_id":"levelo_inurba_marseille","lat":43.23181,"lon":5.35555,"is_reserved":false,"is_disabled":false,"rental_uris":{"android":"levelo://app?vid=13ec4916-f0ea-4897-8afc-596425b42c42","ios":"levelo://app?vid=13ec4916-f0ea-4897-8afc-596425b42c42"},"vehicle_type_id":"4","last_reported":1726503068,"current_range_meters":14800,"station_id":"ce4bhu92rcd13ifvqi70","pricing_plan_id":"cebpf4jnsgd1na2vs0mg"},{"bike_id":"76c2ad49-6301-48ff-bc82-807c296aea33","system_id":"levelo_inurba_marseille","lat":43.33025,"lon":5.39045,"is_reserved":false,"is_disabled":false,"rental_uris":{"android":"levelo://app?vid=76c2ad49-6301-48ff-bc82-807c296aea33","ios":"levelo://app?vid=76c2ad49-6301-48ff-bc82-807c296aea33"},"vehicle_type_id":"4","last_reported":1726503068,"current_range_meters":4000,"station_id":"ce4bhr92rcd13ifvqhrg","pricing_plan_id":"cebpf4jnsgd1na2vs0mg"},{"bike_id":"08afcf1d-1e6a-4b83-8cf6-36af82908ba0","system_id":"levelo_inurba_marseille","lat":43.323453,"lon":5.40627,"is_reserved":false,"is_disabled":false,"rental_uris":{"android":"levelo://app?vid=08afcf1d-1e6a-4b83-8cf6-36af82908ba0","ios":"levelo://app?vid=08afcf1d-1e6a-4b83-8cf6-36af82908ba0"},"vehicle_type_id":"4","last_reported":1726503068,"current_range_meters":21600,"station_id":"ce4bhq92rcd13ifvqhjg","pricing_plan_id":"cebpf4jnsgd1na2vs0mg"},{"bike_id":"15f4a1b2-17cb-4de9-b22d-5e3972f038ec","system_id":"levelo_inurba_marseille","lat":43.30648,"lon":5.40097,"is_reserved":false,"is_disabled":false,"rental_uris":{"android":"levelo://app?vid=15f4a1b2-17cb-4de9-b22d-5e3972f038ec","ios":"levelo://app?vid=15f4a1b2-17cb-4de9-b22d-5e3972f038ec"},"vehicle_type_id":"4","last_reported":1726503068,"current_range_meters":19600,"station_id":"ce4bh112rcd13ifvqda0","pricing_plan_id":"cebpf4jnsgd1na2vs0mg"},{"bike_id":"8b6ce287-f507-4640-8169-869d3e7d5b3f","system_id":"levelo_inurba_marseille","lat":43.29785,"lon":5.39335,"is_reserved":false,"is_disabled":false,"rental_uris":{"android":"levelo://app?vid=8b6ce287-f507-4640-8169-869d3e7d5b3f","ios":"levelo://app?vid=8b6ce287-f507-4640-8169-869d3e7d5b3f"},"vehicle_type_id":"4","last_reported":1726503068,"current_range_meters":6400,"station_id":"chh1huq6cuj3fo74tm60","pricing_plan_id":"cebpf4jnsgd1na2vs0mg"},{"bike_id":"7cf74a0a-e726-425d-83a0-b85ac99649ae","system_id":"levelo_inurba_marseille","lat":43.29254,"lon":5.40916,"is_reserved":false,"is_disabled":false,"rental_uris":{"android":"levelo://app?vid=7cf74a0a-e726-425d-83a0-b85ac99649ae","ios":"levelo://app?vid=7cf74a0a-e726-425d-83a0-b85ac99649ae"},"vehicle_type_id":"4","last_reported":1726503068,"current_range_meters":25200,"station_id":"ce4bh192rcd13ifvqdc0","pricing_plan_id":"cebpf4jnsgd1na2vs0mg"},{"bike_id":"74c67d55-8a5f-40c9-8066-d68354718f8c","system_id":"levelo_inurba_marseille","lat":43.23196,"lon":5.35547,"is_reserved":false,"is_disabled":false,"rental_uris":{"android":"levelo://app?vid=74c67d55-8a5f-40c9-8066-d68354718f8c","ios":"levelo://app?vid=74c67d55-8a5f-40c9-8066-d68354718f8c"},"vehicle_type_id":"4","last_reported":1726503068,"current_range_meters":12000,"station_id":"ce4bhu92rcd13ifvqi70","pricing_plan_id":"cebpf4jnsgd1na2vs0mg"},{"bike_id":"89544e39-33fa-4241-9102-4249a1ad78a8","system_id":"levelo_inurba_marseille","lat":43.29525,"lon":5.39047,"is_reserved":false,"is_disabled":false,"rental_uris":{"android":"levelo://app?vid=89544e39-33fa-4241-9102-4249a1ad78a8","ios":"levelo://app?vid=89544e39-33fa-4241-9102-4249a1ad78a8"},"vehicle_type_id":"4","last_reported":1726503068,"current_range_meters":12400,"station_id":"ce4bh3p2rcd13ifvqdp0","pricing_plan_id":"cebpf4jnsgd1na2vs0mg"},{"bike_id":"f4fc0b87-1f02-4805-98ca-f2187fca17da","system_id":"levelo_inurba_marseille","lat":43.28264,"lon":5.35067,"is_reserved":false,"is_disabled":false,"rental_uris":{"android":"levelo://app?vid=f4fc0b87-1f02-4805-98ca-f2187fca17da","ios":"levelo://app?vid=f4fc0b87-1f02-4805-98ca-f2187fca17da"},"vehicle_type_id":"4","last_reported":1726503068,"current_range_meters":32800,"station_id":"ce4bhbp2rcd13ifvqerg","pricing_plan_id":"cebpf4jnsgd1na2vs0mg"},{"bike_id":"eaf9baad-61d3-4fce-a9d9-6b2674930f77","system_id":"levelo_inurba_marseille","lat":43.30145,"lon":5.39873,"is_reserved":false,"is_disabled":false,"rental_uris":{"android":"levelo://app?vid=eaf9baad-61d3-4fce-a9d9-6b2674930f77","ios":"levelo://app?vid=eaf9baad-61d3-4fce-a9d9-6b2674930f77"},"vehicle_type_id":"4","last_reported":1726503068,"current_range_meters":38800,"station_id":"ce4bh0h2rcd13ifvqd40","pricing_plan_id":"cebpf4jnsgd1na2vs0mg"},{"bike_id":"0b38f715-14f9-4245-9df2-8de72bef48c0","system_id":"levelo_inurba_marseille","lat":43.29846,"lon":5.36272,"is_reserved":false,"is_disabled":false,"rental_uris":{"android":"levelo://app?vid=0b38f715-14f9-4245-9df2-8de72bef48c0","ios":"levelo://app?vid=0b38f715-14f9-4245-9df2-8de72bef48c0"},"vehicle_type_id":"4","last_reported":1726503068,"current_range_meters":28000,"station_id":"ce4bgpp2rcd13ifvqc3g","pricing_plan_id":"cebpf4jnsgd1na2vs0mg"},{"bike_id":"ba1adf63-b811-4b96-a3e9-aa5f34a9c720","system_id":"levelo_inurba_marseille","lat":43.25499,"lon":5.37646,"is_reserved":false,"is_disabled":false,"rental_uris":{"android":"levelo://app?vid=ba1adf63-b811-4b96-a3e9-aa5f34a9c720","ios":"levelo://app?vid=ba1adf63-b811-4b96-a3e9-aa5f34a9c720"},"vehicle_type_id":"4","last_reported":1726503068,"current_range_meters":20000,"station_id":"ce4bhh12rcd13ifvqff0","pricing_plan_id":"cebpf4jnsgd1na2vs0mg"},{"bike_id":"3f9f1f16-f767-4fe5-a154-f97836326cf0","system_id":"levelo_inurba_marseille","lat":43.288572,"lon":5.358536,"is_reserved":false,"is_disabled":false,"rental_uris":{"android":"levelo://app?vid=3f9f1f16-f767-4fe5-a154-f97836326cf0","ios":"levelo://app?vid=3f9f1f16-f767-4fe5-a154-f97836326cf0"},"vehicle_type_id":"4","last_reported":1726503068,"current_range_meters":32400,"station_id":"ce4bhb12rcd13ifvqem0","pricing_plan_id":"cebpf4jnsgd1na2vs0mg"},{"bike_id":"1ed8a0b3-92f7-4363-9b00-2fe39ac7defb","system_id":"levelo_inurba_marseille","lat":43.29843,"lon":5.36284,"is_reserved":false,"is_disabled":false,"rental_uris":{"android":"levelo://app?vid=1ed8a0b3-92f7-4363-9b00-2fe39ac7defb","ios":"levelo://app?vid=1ed8a0b3-92f7-4363-9b00-2fe39ac7defb"},"vehicle_type_id":"4","last_reported":1726503068,"current_range_meters":38800,"station_id":"ce4bgpp2rcd13ifvqc3g","pricing_plan_id":"cebpf4jnsgd1na2vs0mg"},{"bike_id":"2a5808e5-1612-4dc1-a62b-b9c71459256c","system_id":"levelo_inurba_marseille","lat":43.340701,"lon":5.390798,"is_reserved":false,"is_disabled":false,"rental_uris":{"android":"levelo://app?vid=2a5808e5-1612-4dc1-a62b-b9c71459256c","ios":"levelo://app?vid=2a5808e5-1612-4dc1-a62b-b9c71459256c"},"vehicle_type_id":"4","last_reported":1726503068,"current_range_meters":18000,"station_id":"","pricing_plan_id":"cebpf4jnsgd1na2vs0mg"},{"bike_id":"e75bdf37-6017-4dd9-8183-f2edc970ca06","system_id":"levelo_inurba_marseille","lat":43.23192,"lon":5.35557,"is_reserved":false,"is_disabled":false,"rental_uris":{"android":"levelo://app?vid=e75bdf37-6017-4dd9-8183-f2edc970ca06","ios":"levelo://app?vid=e75bdf37-6017-4dd9-8183-f2edc970ca06"},"vehicle_type_id":"4","last_reported":1726503068,"current_range_meters":35200,"station_id":"ce4bhu92rcd13ifvqi70","pricing_plan_id":"cebpf4jnsgd1na2vs0mg"},{"bike_id":"376445a7-7dc4-4b9c-9bfa-37382030564c","system_id":"levelo_inurba_marseille","lat":43.30094,"lon":5.3908,"is_reserved":false,"is_disabled":false,"rental_uris":{"android":"levelo://app?vid=376445a7-7dc4-4b9c-9bfa-37382030564c","ios":"levelo://app?vid=376445a7-7dc4-4b9c-9bfa-37382030564c"},"vehicle_type_id":"4","last_reported":1726503068,"current_range_meters":17200,"station_id":"ce4bh192rcd13ifvqdb0","pricing_plan_id":"cebpf4jnsgd1na2vs0mg"},{"bike_id":"d2616d03-68dc-453f-98f8-3d3f5cbcc43f","system_id":"levelo_inurba_marseille","lat":43.289005,"lon":5.361542,"is_reserved":false,"is_disabled":false,"rental_uris":{"android":"levelo://app?vid=d2616d03-68dc-453f-98f8-3d3f5cbcc43f","ios":"levelo://app?vid=d2616d03-68dc-453f-98f8-3d3f5cbcc43f"},"vehicle_type_id":"4","last_reported":1726503068,"current_range_meters":11600,"station_id":"ce4bhb12rcd13ifvqel0","pricing_plan_id":"cebpf4jnsgd1na2vs0mg"},{"bike_id":"1b13c99e-dad8-4f46-b7c1-29ce2ab2fa2a","system_id":"levelo_inurba_marseille","lat":43.29667,"lon":5.37862,"is_reserved":false,"is_disabled":false,"rental_uris":{"android":"levelo://app?vid=1b13c99e-dad8-4f46-b7c1-29ce2ab2fa2a","ios":"levelo://app?vid=1b13c99e-dad8-4f46-b7c1-29ce2ab2fa2a"},"vehicle_type_id":"4","last_reported":1726503068,"current_range_meters":6800,"station_id":"ce4bgkp2rcd13ifvqbmg","pricing_plan_id":"cebpf4jnsgd1na2vs0mg"},{"bike_id":"47c42a56-f8d4-4ee5-9d28-f4bcc977ed24","system_id":"levelo_inurba_marseille","lat":43.28711,"lon":5.39998,"is_reserved":false,"is_disabled":false,"rental_uris":{"android":"levelo://app?vid=47c42a56-f8d4-4ee5-9d28-f4bcc977ed24","ios":"levelo://app?vid=47c42a56-f8d4-4ee5-9d28-f4bcc977ed24"},"vehicle_type_id":"4","last_reported":1726503068,"current_range_meters":4400,"station_id":"ce4bho92rcd13ifvqh3g","pricing_plan_id":"cebpf4jnsgd1na2vs0mg"},{"bike_id":"e55c4ba2-eb6a-4798-8c5b-2b835b6fdddb","system_id":"levelo_inurba_marseille","lat":43.29433,"lon":5.39761,"is_reserved":false,"is_disabled":false,"rental_uris":{"android":"levelo://app?vid=e55c4ba2-eb6a-4798-8c5b-2b835b6fdddb","ios":"levelo://app?vid=e55c4ba2-eb6a-4798-8c5b-2b835b6fdddb"},"vehicle_type_id":"4","last_reported":1726503068,"current_range_meters":9600,"station_id":"ce4bh3h2rcd13ifvqdo0","pricing_plan_id":"cebpf4jnsgd1na2vs0mg"},{"bike_id":"8e7d9e50-f8bd-4f0f-86eb-5e55e3240436","system_id":"levelo_inurba_marseille","lat":43.27994,"lon":5.40019,"is_reserved":false,"is_disabled":false,"rental_uris":{"android":"levelo://app?vid=8e7d9e50-f8bd-4f0f-86eb-5e55e3240436","ios":"levelo://app?vid=8e7d9e50-f8bd-4f0f-86eb-5e55e3240436"},"vehicle_type_id":"4","last_reported":1726503068,"current_range_meters":28000,"station_id":"ce4bho92rcd13ifvqh4g","pricing_plan_id":"cebpf4jnsgd1na2vs0mg"},{"bike_id":"feb92d11-a54a-4900-b570-26b0d8a03fcb","system_id":"levelo_inurba_marseille","lat":43.298706,"lon":5.39736,"is_reserved":false,"is_disabled":false,"rental_uris":{"android":"levelo://app?vid=feb92d11-a54a-4900-b570-26b0d8a03fcb","ios":"levelo://app?vid=feb92d11-a54a-4900-b570-26b0d8a03fcb"},"vehicle_type_id":"4","last_reported":1726503068,"current_range_meters":9200,"station_id":"ce4bh0h2rcd13ifvqd50","pricing_plan_id":"cebpf4jnsgd1na2vs0mg"},{"bike_id":"056355c2-e92c-4975-87ad-bb8e6f9daa6a","system_id":"levelo_inurba_marseille","lat":43.29436,"lon":5.39747,"is_reserved":false,"is_disabled":false,"rental_uris":{"android":"levelo://app?vid=056355c2-e92c-4975-87ad-bb8e6f9daa6a","ios":"levelo://app?vid=056355c2-e92c-4975-87ad-bb8e6f9daa6a"},"vehicle_type_id":"4","last_reported":1726503068,"current_range_meters":35200,"station_id":"ce4bh3h2rcd13ifvqdo0","pricing_plan_id":"cebpf4jnsgd1na2vs0mg"},{"bike_id":"7a45880e-44e1-4699-a4aa-fb6038fc154f","system_id":"levelo_inurba_marseille","lat":43.248047,"lon":5.374532,"is_reserved":false,"is_disabled":false,"rental_uris":{"android":"levelo://app?vid=7a45880e-44e1-4699-a4aa-fb6038fc154f","ios":"levelo://app?vid=7a45880e-44e1-4699-a4aa-fb6038fc154f"},"vehicle_type_id":"4","last_reported":1726503068,"current_range_meters":29600,"station_id":"ce4bhgh2rcd13ifvqfb0","pricing_plan_id":"cebpf4jnsgd1na2vs0mg"},{"bike_id":"f409a27c-3291-4d9b-ac57-9e74e75d80d1","system_id":"levelo_inurba_marseille","lat":43.32363,"lon":5.38879,"is_reserved":false,"is_disabled":false,"rental_uris":{"android":"levelo://app?vid=f409a27c-3291-4d9b-ac57-9e74e75d80d1","ios":"levelo://app?vid=f409a27c-3291-4d9b-ac57-9e74e75d80d1"},"vehicle_type_id":"4","last_reported":1726503068,"current_range_meters":19600,"station_id":"ce4bhqp2rcd13ifvqhog","pricing_plan_id":"cebpf4jnsgd1na2vs0mg"},{"bike_id":"a7649358-7b1e-4e20-b463-599f4ff8067d","system_id":"levelo_inurba_marseille","lat":43.2501,"lon":5.38915,"is_reserved":false,"is_disabled":false,"rental_uris":{"android":"levelo://app?vid=a7649358-7b1e-4e20-b463-599f4ff8067d","ios":"levelo://app?vid=a7649358-7b1e-4e20-b463-599f4ff8067d"},"vehicle_type_id":"4","last_reported":1726503068,"current_range_meters":33600,"station_id":"ce4bhgp2rcd13ifvqfd0","pricing_plan_id":"cebpf4jnsgd1na2vs0mg"},{"bike_id":"1c8f6216-9365-413e-ade4-d5a433c001f3","system_id":"levelo_inurba_marseille","lat":43.30137,"lon":5.39879,"is_reserved":false,"is_disabled":false,"rental_uris":{"android":"levelo://app?vid=1c8f6216-9365-413e-ade4-d5a433c001f3","ios":"levelo://app?vid=1c8f6216-9365-413e-ade4-d5a433c001f3"},"vehicle_type_id":"4","last_reported":1726503068,"current_range_meters":4000,"station_id":"ce4bh0h2rcd13ifvqd40","pricing_plan_id":"cebpf4jnsgd1na2vs0mg"},{"bike_id":"c7f93bf2-2b30-4c5c-aa72-447b3f4a28ea","system_id":"levelo_inurba_marseille","lat":43.29899,"lon":5.43658,"is_reserved":false,"is_disabled":false,"rental_uris":{"android":"levelo://app?vid=c7f93bf2-2b30-4c5c-aa72-447b3f4a28ea","ios":"levelo://app?vid=c7f93bf2-2b30-4c5c-aa72-447b3f4a28ea"},"vehicle_type_id":"4","last_reported":1726503068,"current_range_meters":14400,"station_id":"ce4bhpp2rcd13ifvqhfg","pricing_plan_id":"cebpf4jnsgd1na2vs0mg"},{"bike_id":"3fc14aa2-2279-4dc1-89ac-71870e126b7d","system_id":"levelo_inurba_marseille","lat":43.296204,"lon":5.372027,"is_reserved":false,"is_disabled":false,"rental_uris":{"android":"levelo://app?vid=3fc14aa2-2279-4dc1-89ac-71870e126b7d","ios":"levelo://app?vid=3fc14aa2-2279-4dc1-89ac-71870e126b7d"},"vehicle_type_id":"4","last_reported":1726503068,"current_range_meters":28000,"station_id":"ce4bgk12rcd13ifvqbj0","pricing_plan_id":"cebpf4jnsgd1na2vs0mg"},{"bike_id":"26db0265-0a91-4c66-8aa8-67a94f7eef0d","system_id":"levelo_inurba_marseille","lat":43.26934,"lon":5.40052,"is_reserved":false,"is_disabled":false,"rental_uris":{"android":"levelo://app?vid=26db0265-0a91-4c66-8aa8-67a94f7eef0d","ios":"levelo://app?vid=26db0265-0a91-4c66-8aa8-67a94f7eef0d"},"vehicle_type_id":"4","last_reported":1726503068,"current_range_meters":3200,"station_id":"","pricing_plan_id":"cebpf4jnsgd1na2vs0mg"},{"bike_id":"314cb5f0-a7b4-4b2b-918b-06a5b6094ab2","system_id":"levelo_inurba_marseille","lat":43.301355,"lon":5.398668,"is_reserved":false,"is_disabled":false,"rental_uris":{"android":"levelo://app?vid=314cb5f0-a7b4-4b2b-918b-06a5b6094ab2","ios":"levelo://app?vid=314cb5f0-a7b4-4b2b-918b-06a5b6094ab2"},"vehicle_type_id":"4","last_reported":1726503068,"current_range_meters":24000,"station_id":"ce4bh0h2rcd13ifvqd40","pricing_plan_id":"cebpf4jnsgd1na2vs0mg"},{"bike_id":"58b9a728-81cd-4bfd-badc-a23312c16bff","system_id":"levelo_inurba_marseille","lat":43.28457,"lon":5.35895,"is_reserved":false,"is_disabled":false,"rental_uris":{"android":"levelo://app?vid=58b9a728-81cd-4bfd-badc-a23312c16bff","ios":"levelo://app?vid=58b9a728-81cd-4bfd-badc-a23312c16bff"},"vehicle_type_id":"4","last_reported":1726503068,"current_range_meters":36800,"station_id":"ce4bhah2rcd13ifvqei0","pricing_plan_id":"cebpf4jnsgd1na2vs0mg"},{"bike_id":"1965c450-4b04-4def-ac55-fb6967361cda","system_id":"levelo_inurba_marseille","lat":43.29,"lon":5.35622,"is_reserved":false,"is_disabled":false,"rental_uris":{"android":"levelo://app?vid=1965c450-4b04-4def-ac55-fb6967361cda","ios":"levelo://app?vid=1965c450-4b04-4def-ac55-fb6967361cda"},"vehicle_type_id":"4","last_reported":1726503068,"current_range_meters":4800,"station_id":"ce4bhb92rcd13ifvqen0","pricing_plan_id":"cebpf4jnsgd1na2vs0mg"},{"bike_id":"c3d6b649-15e3-4bba-8167-f82ba135df07","system_id":"levelo_inurba_marseille","lat":43.309476,"lon":5.401345,"is_reserved":false,"is_disabled":false,"rental_uris":{"android":"levelo://app?vid=c3d6b649-15e3-4bba-8167-f82ba135df07","ios":"levelo://app?vid=c3d6b649-15e3-4bba-8167-f82ba135df07"},"vehicle_type_id":"4","last_reported":1726503068,"current_range_meters":37600,"station_id":"ce4bgvp2rcd13ifvqct0","pricing_plan_id":"cebpf4jnsgd1na2vs0mg"},{"bike_id":"75f414ef-dead-4117-8b36-2c250f77c270","system_id":"levelo_inurba_marseille","lat":43.30924,"lon":5.401462,"is_reserved":false,"is_disabled":false,"rental_uris":{"android":"levelo://app?vid=75f414ef-dead-4117-8b36-2c250f77c270","ios":"levelo://app?vid=75f414ef-dead-4117-8b36-2c250f77c270"},"vehicle_type_id":"4","last_reported":1726503068,"current_range_meters":39200,"station_id":"ce4bgvp2rcd13ifvqct0","pricing_plan_id":"cebpf4jnsgd1na2vs0mg"},{"bike_id":"52b9eebc-b7db-421e-b196-46301bed711a","system_id":"levelo_inurba_marseille","lat":43.28427,"lon":5.34991,"is_reserved":false,"is_disabled":false,"rental_uris":{"android":"levelo://app?vid=52b9eebc-b7db-421e-b196-46301bed711a","ios":"levelo://app?vid=52b9eebc-b7db-421e-b196-46301bed711a"},"vehicle_type_id":"4","last_reported":1726503068,"current_range_meters":16000,"station_id":"ce4bhbh2rcd13ifvqepg","pricing_plan_id":"cebpf4jnsgd1na2vs0mg"},{"bike_id":"b356eab8-5188-44c2-8d21-13a2098bc97c","system_id":"levelo_inurba_marseille","lat":43.28702,"lon":5.3999,"is_reserved":false,"is_disabled":false,"rental_uris":{"android":"levelo://app?vid=b356eab8-5188-44c2-8d21-13a2098bc97c","ios":"levelo://app?vid=b356eab8-5188-44c2-8d21-13a2098bc97c"},"vehicle_type_id":"4","last_reported":1726503068,"current_range_meters":27600,"station_id":"ce4bho92rcd13ifvqh3g","pricing_plan_id":"cebpf4jnsgd1na2vs0mg"},{"bike_id":"4153cc51-d4e8-4e56-a8fd-c1a04ecf3fa7","system_id":"levelo_inurba_marseille","lat":43.2995,"lon":5.4133,"is_reserved":false,"is_disabled":false,"rental_uris":{"android":"levelo://app?vid=4153cc51-d4e8-4e56-a8fd-c1a04ecf3fa7","ios":"levelo://app?vid=4153cc51-d4e8-4e56-a8fd-c1a04ecf3fa7"},"vehicle_type_id":"4","last_reported":1726503068,"current_range_meters":34000,"station_id":"ce4bhp12rcd13ifvqh9g","pricing_plan_id":"cebpf4jnsgd1na2vs0mg"},{"bike_id":"704bd4ff-c6ae-4fcf-a83a-81202466c629","system_id":"levelo_inurba_marseille","lat":43.29958,"lon":5.41325,"is_reserved":false,"is_disabled":false,"rental_uris":{"android":"levelo://app?vid=704bd4ff-c6ae-4fcf-a83a-81202466c629","ios":"levelo://app?vid=704bd4ff-c6ae-4fcf-a83a-81202466c629"},"vehicle_type_id":"4","last_reported":1726503068,"current_range_meters":18800,"station_id":"ce4bhp12rcd13ifvqh9g","pricing_plan_id":"cebpf4jnsgd1na2vs0mg"},{"bike_id":"8cb592d9-f82f-4171-894f-8d7ffa6525e5","system_id":"levelo_inurba_marseille","lat":43.23187,"lon":5.35537,"is_reserved":false,"is_disabled":false,"rental_uris":{"android":"levelo://app?vid=8cb592d9-f82f-4171-894f-8d7ffa6525e5","ios":"levelo://app?vid=8cb592d9-f82f-4171-894f-8d7ffa6525e5"},"vehicle_type_id":"4","last_reported":1726503068,"current_range_meters":24400,"station_id":"ce4bhu92rcd13ifvqi70","pricing_plan_id":"cebpf4jnsgd1na2vs0mg"},{"bike_id":"e8577ff1-e7d5-4bd8-af09-a820a63b8b50","system_id":"levelo_inurba_marseille","lat":43.33019,"lon":5.39043,"is_reserved":false,"is_disabled":false,"rental_uris":{"android":"levelo://app?vid=e8577ff1-e7d5-4bd8-af09-a820a63b8b50","ios":"levelo://app?vid=e8577ff1-e7d5-4bd8-af09-a820a63b8b50"},"vehicle_type_id":"4","last_reported":1726503068,"current_range_meters":19200,"station_id":"ce4bhr92rcd13ifvqhrg","pricing_plan_id":"cebpf4jnsgd1na2vs0mg"},{"bike_id":"238d1829-b979-4346-84b5-3eafa0d79267","system_id":"levelo_inurba_marseille","lat":43.317111,"lon":5.423983,"is_reserved":false,"is_disabled":false,"rental_uris":{"android":"levelo://app?vid=238d1829-b979-4346-84b5-3eafa0d79267","ios":"levelo://app?vid=238d1829-b979-4346-84b5-3eafa0d79267"},"vehicle_type_id":"4","last_reported":1726503068,"current_range_meters":26800,"station_id":"ce4bhp92rcd13ifvqhbg","pricing_plan_id":"cebpf4jnsgd1na2vs0mg"},{"bike_id":"b60de429-e6fa-42e8-9cd2-bbbf4738a774","system_id":"levelo_inurba_marseille","lat":43.31993,"lon":5.38163,"is_reserved":false,"is_disabled":false,"rental_uris":{"android":"levelo://app?vid=b60de429-e6fa-42e8-9cd2-bbbf4738a774","ios":"levelo://app?vid=b60de429-e6fa-42e8-9cd2-bbbf4738a774"},"vehicle_type_id":"4","last_reported":1726503068,"current_range_meters":7200,"station_id":"ce4bhr12rcd13ifvqhpg","pricing_plan_id":"cebpf4jnsgd1na2vs0mg"},{"bike_id":"6fcb0470-5b2d-4c1d-8d35-ccfb07e79374","system_id":"levelo_inurba_marseille","lat":43.31333,"lon":5.39691,"is_reserved":false,"is_disabled":false,"rental_uris":{"android":"levelo://app?vid=6fcb0470-5b2d-4c1d-8d35-ccfb07e79374","ios":"levelo://app?vid=6fcb0470-5b2d-4c1d-8d35-ccfb07e79374"},"vehicle_type_id":"4","last_reported":1726503068,"current_range_meters":38800,"station_id":"ce4bgvp2rcd13ifvqcu0","pricing_plan_id":"cebpf4jnsgd1na2vs0mg"},{"bike_id":"e5b041ad-649d-4aa9-9539-d3f562b93cbb","system_id":"levelo_inurba_marseille","lat":43.33027,"lon":5.39041,"is_reserved":false,"is_disabled":false,"rental_uris":{"android":"levelo://app?vid=e5b041ad-649d-4aa9-9539-d3f562b93cbb","ios":"levelo://app?vid=e5b041ad-649d-4aa9-9539-d3f562b93cbb"},"vehicle_type_id":"4","last_reported":1726503068,"current_range_meters":30400,"station_id":"ce4bhr92rcd13ifvqhrg","pricing_plan_id":"cebpf4jnsgd1na2vs0mg"},{"bike_id":"456c5256-6e9e-4eb5-9f42-0f1fb46da503","system_id":"levelo_inurba_marseille","lat":43.29625,"lon":5.40595,"is_reserved":false,"is_disabled":false,"rental_uris":{"android":"levelo://app?vid=456c5256-6e9e-4eb5-9f42-0f1fb46da503","ios":"levelo://app?vid=456c5256-6e9e-4eb5-9f42-0f1fb46da503"},"vehicle_type_id":"4","last_reported":1726503068,"current_range_meters":37600,"station_id":"ce4bh0h2rcd13ifvqd60","pricing_plan_id":"cebpf4jnsgd1na2vs0mg"},{"bike_id":"b1db6496-7d7b-4acc-a88c-e5406d38e100","system_id":"levelo_inurba_marseille","lat":43.23189,"lon":5.35545,"is_reserved":false,"is_disabled":false,"rental_uris":{"android":"levelo://app?vid=b1db6496-7d7b-4acc-a88c-e5406d38e100","ios":"levelo://app?vid=b1db6496-7d7b-4acc-a88c-e5406d38e100"},"vehicle_type_id":"4","last_reported":1726503068,"current_range_meters":30800,"station_id":"ce4bhu92rcd13ifvqi70","pricing_plan_id":"cebpf4jnsgd1na2vs0mg"},{"bike_id":"278f8a49-728d-42b0-b6d4-5f94ba3d72ec","system_id":"levelo_inurba_marseille","lat":43.259308,"lon":5.409192,"is_reserved":false,"is_disabled":false,"rental_uris":{"android":"levelo://app?vid=278f8a49-728d-42b0-b6d4-5f94ba3d72ec","ios":"levelo://app?vid=278f8a49-728d-42b0-b6d4-5f94ba3d72ec"},"vehicle_type_id":"4","last_reported":1726503068,"current_range_meters":19600,"station_id":"ce4bhm92rcd13ifvqglg","pricing_plan_id":"cebpf4jnsgd1na2vs0mg"},{"bike_id":"d9e44fab-fe71-465b-abca-594bfb7212c2","system_id":"levelo_inurba_marseille","lat":43.278993,"lon":5.380409,"is_reserved":false,"is_disabled":false,"rental_uris":{"android":"levelo://app?vid=d9e44fab-fe71-465b-abca-594bfb7212c2","ios":"levelo://app?vid=d9e44fab-fe71-465b-abca-594bfb7212c2"},"vehicle_type_id":"4","last_reported":1726503068,"current_range_meters":16800,"station_id":"ce4bhf92rcd13ifvqf50","pricing_plan_id":"cebpf4jnsgd1na2vs0mg"},{"bike_id":"5cf4c2f1-f092-4550-b8cf-369099ebc3bc","system_id":"levelo_inurba_marseille","lat":43.24564,"lon":5.41549,"is_reserved":false,"is_disabled":false,"rental_uris":{"android":"levelo://app?vid=5cf4c2f1-f092-4550-b8cf-369099ebc3bc","ios":"levelo://app?vid=5cf4c2f1-f092-4550-b8cf-369099ebc3bc"},"vehicle_type_id":"4","last_reported":1726503068,"current_range_meters":8000,"station_id":"ce4bhlh2rcd13ifvqgig","pricing_plan_id":"cebpf4jnsgd1na2vs0mg"},{"bike_id":"dc46821f-7103-4f71-bb74-35fd35c7deb8","system_id":"levelo_inurba_marseille","lat":43.30646,"lon":5.40088,"is_reserved":false,"is_disabled":false,"rental_uris":{"android":"levelo://app?vid=dc46821f-7103-4f71-bb74-35fd35c7deb8","ios":"levelo://app?vid=dc46821f-7103-4f71-bb74-35fd35c7deb8"},"vehicle_type_id":"4","last_reported":1726503068,"current_range_meters":23200,"station_id":"ce4bh112rcd13ifvqda0","pricing_plan_id":"cebpf4jnsgd1na2vs0mg"},{"bike_id":"5cf76e1e-b4a9-4fe4-b1d7-722fb60677d3","system_id":"levelo_inurba_marseille","lat":43.28843,"lon":5.35845,"is_reserved":false,"is_disabled":false,"rental_uris":{"android":"levelo://app?vid=5cf76e1e-b4a9-4fe4-b1d7-722fb60677d3","ios":"levelo://app?vid=5cf76e1e-b4a9-4fe4-b1d7-722fb60677d3"},"vehicle_type_id":"4","last_reported":1726503068,"current_range_meters":10000,"station_id":"ce4bhb12rcd13ifvqem0","pricing_plan_id":"cebpf4jnsgd1na2vs0mg"},{"bike_id":"957ad2fe-8b80-4d14-8ba2-8c108d1c4c13","system_id":"levelo_inurba_marseille","lat":43.28269,"lon":5.35068,"is_reserved":false,"is_disabled":false,"rental_uris":{"android":"levelo://app?vid=957ad2fe-8b80-4d14-8ba2-8c108d1c4c13","ios":"levelo://app?vid=957ad2fe-8b80-4d14-8ba2-8c108d1c4c13"},"vehicle_type_id":"4","last_reported":1726503068,"current_range_meters":12800,"station_id":"ce4bhbp2rcd13ifvqerg","pricing_plan_id":"cebpf4jnsgd1na2vs0mg"},{"bike_id":"6b8485f3-3c74-424d-af70-8b8e9a191cfc","system_id":"levelo_inurba_marseille","lat":43.31069,"lon":5.38361,"is_reserved":false,"is_disabled":false,"rental_uris":{"android":"levelo://app?vid=6b8485f3-3c74-424d-af70-8b8e9a191cfc","ios":"levelo://app?vid=6b8485f3-3c74-424d-af70-8b8e9a191cfc"},"vehicle_type_id":"4","last_reported":1726503068,"current_range_meters":30400,"station_id":"ce4bgv92rcd13ifvqcr0","pricing_plan_id":"cebpf4jnsgd1na2vs0mg"},{"bike_id":"b645ac77-0d58-4fa9-8ad3-947af8bdb1d9","system_id":"levelo_inurba_marseille","lat":43.29899,"lon":5.43659,"is_reserved":false,"is_disabled":false,"rental_uris":{"android":"levelo://app?vid=b645ac77-0d58-4fa9-8ad3-947af8bdb1d9","ios":"levelo://app?vid=b645ac77-0d58-4fa9-8ad3-947af8bdb1d9"},"vehicle_type_id":"4","last_reported":1726503068,"current_range_meters":28400,"station_id":"ce4bhpp2rcd13ifvqhfg","pricing_plan_id":"cebpf4jnsgd1na2vs0mg"},{"bike_id":"fd9b329e-0e70-411e-9529-ad000c2c55dd","system_id":"levelo_inurba_marseille","lat":43.24666,"lon":5.38139,"is_reserved":false,"is_disabled":false,"rental_uris":{"android":"levelo://app?vid=fd9b329e-0e70-411e-9529-ad000c2c55dd","ios":"levelo://app?vid=fd9b329e-0e70-411e-9529-ad000c2c55dd"},"vehicle_type_id":"4","last_reported":1726503068,"current_range_meters":6400,"station_id":"ce4bhih2rcd13ifvqfr0","pricing_plan_id":"cebpf4jnsgd1na2vs0mg"},{"bike_id":"7b84f7e1-09dc-4749-b496-d588ef784238","system_id":"levelo_inurba_marseille","lat":43.31708,"lon":5.37753,"is_reserved":false,"is_disabled":false,"rental_uris":{"android":"levelo://app?vid=7b84f7e1-09dc-4749-b496-d588ef784238","ios":"levelo://app?vid=7b84f7e1-09dc-4749-b496-d588ef784238"},"vehicle_type_id":"4","last_reported":1726503068,"current_range_meters":8400,"station_id":"ce4bgth2rcd13ifvqch0","pricing_plan_id":"cebpf4jnsgd1na2vs0mg"},{"bike_id":"6147d10e-b248-44fa-89d6-9880aa75ed4a","system_id":"levelo_inurba_marseille","lat":43.33712,"lon":5.3918,"is_reserved":false,"is_disabled":false,"rental_uris":{"android":"levelo://app?vid=6147d10e-b248-44fa-89d6-9880aa75ed4a","ios":"levelo://app?vid=6147d10e-b248-44fa-89d6-9880aa75ed4a"},"vehicle_type_id":"4","last_reported":1726503068,"current_range_meters":10000,"station_id":"ce4bhr92rcd13ifvqhsg","pricing_plan_id":"cebpf4jnsgd1na2vs0mg"},{"bike_id":"7abc2a25-404a-4f70-a7c0-c89315b5c4bc","system_id":"levelo_inurba_marseille","lat":43.31006,"lon":5.40072,"is_reserved":false,"is_disabled":false,"rental_uris":{"android":"levelo://app?vid=7abc2a25-404a-4f70-a7c0-c89315b5c4bc","ios":"levelo://app?vid=7abc2a25-404a-4f70-a7c0-c89315b5c4bc"},"vehicle_type_id":"4","last_reported":1726503068,"current_range_meters":26000,"station_id":"","pricing_plan_id":"cebpf4jnsgd1na2vs0mg"},{"bike_id":"942bdd64-f200-44ac-a610-985ce2109e95","system_id":"levelo_inurba_marseille","lat":43.28657,"lon":5.36336,"is_reserved":false,"is_disabled":false,"rental_uris":{"android":"levelo://app?vid=942bdd64-f200-44ac-a610-985ce2109e95","ios":"levelo://app?vid=942bdd64-f200-44ac-a610-985ce2109e95"},"vehicle_type_id":"4","last_reported":1726503068,"current_range_meters":8400,"station_id":"ce4bhah2rcd13ifvqej0","pricing_plan_id":"cebpf4jnsgd1na2vs0mg"},{"bike_id":"677498c9-746b-4650-9a8e-2c7479635944","system_id":"levelo_inurba_marseille","lat":43.33022,"lon":5.3905,"is_reserved":false,"is_disabled":false,"rental_uris":{"android":"levelo://app?vid=677498c9-746b-4650-9a8e-2c7479635944","ios":"levelo://app?vid=677498c9-746b-4650-9a8e-2c7479635944"},"vehicle_type_id":"4","last_reported":1726503068,"current_range_meters":26800,"station_id":"ce4bhr92rcd13ifvqhrg","pricing_plan_id":"cebpf4jnsgd1na2vs0mg"},{"bike_id":"95d38b96-0316-42c3-9d2f-5cc4f19bac9a","system_id":"levelo_inurba_marseille","lat":43.29556,"lon":5.42291,"is_reserved":false,"is_disabled":false,"rental_uris":{"android":"levelo://app?vid=95d38b96-0316-42c3-9d2f-5cc4f19bac9a","ios":"levelo://app?vid=95d38b96-0316-42c3-9d2f-5cc4f19bac9a"},"vehicle_type_id":"4","last_reported":1726503068,"current_range_meters":4000,"station_id":"ce4bhph2rcd13ifvqhdg","pricing_plan_id":"cebpf4jnsgd1na2vs0mg"},{"bike_id":"03301b64-8bb4-4218-8910-e1da101d3988","system_id":"levelo_inurba_marseille","lat":43.29015,"lon":5.38135,"is_reserved":false,"is_disabled":false,"rental_uris":{"android":"levelo://app?vid=03301b64-8bb4-4218-8910-e1da101d3988","ios":"levelo://app?vid=03301b64-8bb4-4218-8910-e1da101d3988"},"vehicle_type_id":"4","last_reported":1726503068,"current_range_meters":35200,"station_id":"ce4bh4p2rcd13ifvqe1g","pricing_plan_id":"cebpf4jnsgd1na2vs0mg"},{"bike_id":"a09b8657-3298-4390-8dd5-f622909fc3da","system_id":"levelo_inurba_marseille","lat":43.31072,"lon":5.40091,"is_reserved":false,"is_disabled":false,"rental_uris":{"android":"levelo://app?vid=a09b8657-3298-4390-8dd5-f622909fc3da","ios":"levelo://app?vid=a09b8657-3298-4390-8dd5-f622909fc3da"},"vehicle_type_id":"4","last_reported":1726503068,"current_range_meters":38800,"station_id":"","pricing_plan_id":"cebpf4jnsgd1na2vs0mg"},{"bike_id":"c7abf733-32ba-4bb0-9f56-72b09c8908fa","system_id":"levelo_inurba_marseille","lat":43.2619,"lon":5.37449,"is_reserved":false,"is_disabled":false,"rental_uris":{"android":"levelo://app?vid=c7abf733-32ba-4bb0-9f56-72b09c8908fa","ios":"levelo://app?vid=c7abf733-32ba-4bb0-9f56-72b09c8908fa"},"vehicle_type_id":"4","last_reported":1726503068,"current_range_meters":25600,"station_id":"ce4bhgp2rcd13ifvqfc0","pricing_plan_id":"cebpf4jnsgd1na2vs0mg"},{"bike_id":"8e05e977-facc-4ac1-b02d-aab6541a3bdd","system_id":"levelo_inurba_marseille","lat":43.29529,"lon":5.3852,"is_reserved":false,"is_disabled":false,"rental_uris":{"android":"levelo://app?vid=8e05e977-facc-4ac1-b02d-aab6541a3bdd","ios":"levelo://app?vid=8e05e977-facc-4ac1-b02d-aab6541a3bdd"},"vehicle_type_id":"4","last_reported":1726503068,"current_range_meters":27200,"station_id":"ce4bgih2rcd13ifvqba0","pricing_plan_id":"cebpf4jnsgd1na2vs0mg"},{"bike_id":"0435a5b9-ccfa-42b0-9f84-37e9dc00b236","system_id":"levelo_inurba_marseille","lat":43.24384,"lon":5.37057,"is_reserved":false,"is_disabled":false,"rental_uris":{"android":"levelo://app?vid=0435a5b9-ccfa-42b0-9f84-37e9dc00b236","ios":"levelo://app?vid=0435a5b9-ccfa-42b0-9f84-37e9dc00b236"},"vehicle_type_id":"4","last_reported":1726503068,"current_range_meters":2800,"station_id":"ce4bhhh2rcd13ifvqfk0","pricing_plan_id":"cebpf4jnsgd1na2vs0mg"},{"bike_id":"ccbc513e-8cd7-41ef-b6a4-4ed93cfe939a","system_id":"levelo_inurba_marseille","lat":43.246613,"lon":5.381702,"is_reserved":false,"is_disabled":false,"rental_uris":{"android":"levelo://app?vid=ccbc513e-8cd7-41ef-b6a4-4ed93cfe939a","ios":"levelo://app?vid=ccbc513e-8cd7-41ef-b6a4-4ed93cfe939a"},"vehicle_type_id":"4","last_reported":1726503068,"current_range_meters":38400,"station_id":"ce4bhih2rcd13ifvqfr0","pricing_plan_id":"cebpf4jnsgd1na2vs0mg"},{"bike_id":"80511792-f022-47e5-8a91-c6dff33e2595","system_id":"levelo_inurba_marseille","lat":43.25114,"lon":5.40316,"is_reserved":false,"is_disabled":false,"rental_uris":{"android":"levelo://app?vid=80511792-f022-47e5-8a91-c6dff33e2595","ios":"levelo://app?vid=80511792-f022-47e5-8a91-c6dff33e2595"},"vehicle_type_id":"4","last_reported":1726503068,"current_range_meters":39200,"station_id":"ce4bhlh2rcd13ifvqgig","pricing_plan_id":"cebpf4jnsgd1na2vs0mg"},{"bike_id":"b8abf0f2-55c5-413a-970b-ad4a685f0db3","system_id":"levelo_inurba_marseille","lat":43.28154,"lon":5.42639,"is_reserved":false,"is_disabled":false,"rental_uris":{"android":"levelo://app?vid=b8abf0f2-55c5-413a-970b-ad4a685f0db3","ios":"levelo://app?vid=b8abf0f2-55c5-413a-970b-ad4a685f0db3"},"vehicle_type_id":"4","last_reported":1726503068,"current_range_meters":12800,"station_id":"ce4bhnh2rcd13ifvqgug","pricing_plan_id":"cebpf4jnsgd1na2vs0mg"},{"bike_id":"aa7f1d5c-aa4c-4486-91d6-d606787e92d0","system_id":"levelo_inurba_marseille","lat":43.2926,"lon":5.38456,"is_reserved":false,"is_disabled":false,"rental_uris":{"android":"levelo://app?vid=aa7f1d5c-aa4c-4486-91d6-d606787e92d0","ios":"levelo://app?vid=aa7f1d5c-aa4c-4486-91d6-d606787e92d0"},"vehicle_type_id":"4","last_reported":1726503068,"current_range_meters":27200,"station_id":"ce4bh692rcd13ifvqea0","pricing_plan_id":"cebpf4jnsgd1na2vs0mg"},{"bike_id":"99684f50-b398-427b-a4e9-7ca0a0382c79","system_id":"levelo_inurba_marseille","lat":43.23193,"lon":5.35544,"is_reserved":false,"is_disabled":false,"rental_uris":{"android":"levelo://app?vid=99684f50-b398-427b-a4e9-7ca0a0382c79","ios":"levelo://app?vid=99684f50-b398-427b-a4e9-7ca0a0382c79"},"vehicle_type_id":"4","last_reported":1726503068,"current_range_meters":39200,"station_id":"ce4bhu92rcd13ifvqi70","pricing_plan_id":"cebpf4jnsgd1na2vs0mg"},{"bike_id":"99f63b34-ddf3-4194-82c1-79da5b9514de","system_id":"levelo_inurba_marseille","lat":43.29781,"lon":5.39328,"is_reserved":false,"is_disabled":false,"rental_uris":{"android":"levelo://app?vid=99f63b34-ddf3-4194-82c1-79da5b9514de","ios":"levelo://app?vid=99f63b34-ddf3-4194-82c1-79da5b9514de"},"vehicle_type_id":"4","last_reported":1726503068,"current_range_meters":18800,"station_id":"chh1huq6cuj3fo74tm60","pricing_plan_id":"cebpf4jnsgd1na2vs0mg"},{"bike_id":"1e50fdae-020a-4cb6-9b1c-d6613add5f05","system_id":"levelo_inurba_marseille","lat":43.30923,"lon":5.40133,"is_reserved":false,"is_disabled":false,"rental_uris":{"android":"levelo://app?vid=1e50fdae-020a-4cb6-9b1c-d6613add5f05","ios":"levelo://app?vid=1e50fdae-020a-4cb6-9b1c-d6613add5f05"},"vehicle_type_id":"4","last_reported":1726503068,"current_range_meters":19200,"station_id":"ce4bgvp2rcd13ifvqct0","pricing_plan_id":"cebpf4jnsgd1na2vs0mg"},{"bike_id":"51a0ef68-0a0c-4c80-8365-793323e0b2e1","system_id":"levelo_inurba_marseille","lat":43.31723,"lon":5.424,"is_reserved":false,"is_disabled":false,"rental_uris":{"android":"levelo://app?vid=51a0ef68-0a0c-4c80-8365-793323e0b2e1","ios":"levelo://app?vid=51a0ef68-0a0c-4c80-8365-793323e0b2e1"},"vehicle_type_id":"4","last_reported":1726503068,"current_range_meters":39200,"station_id":"ce4bhp92rcd13ifvqhbg","pricing_plan_id":"cebpf4jnsgd1na2vs0mg"},{"bike_id":"35da71ca-23bc-4b30-9113-be2934f2ba7c","system_id":"levelo_inurba_marseille","lat":43.28937,"lon":5.36402,"is_reserved":false,"is_disabled":false,"rental_uris":{"android":"levelo://app?vid=35da71ca-23bc-4b30-9113-be2934f2ba7c","ios":"levelo://app?vid=35da71ca-23bc-4b30-9113-be2934f2ba7c"},"vehicle_type_id":"4","last_reported":1726503068,"current_range_meters":16000,"station_id":"ce4bhc92rcd13ifvqetg","pricing_plan_id":"cebpf4jnsgd1na2vs0mg"},{"bike_id":"d4a5eb26-b065-4afe-af9d-6f80f0b9f610","system_id":"levelo_inurba_marseille","lat":43.31713,"lon":5.43698,"is_reserved":false,"is_disabled":false,"rental_uris":{"android":"levelo://app?vid=d4a5eb26-b065-4afe-af9d-6f80f0b9f610","ios":"levelo://app?vid=d4a5eb26-b065-4afe-af9d-6f80f0b9f610"},"vehicle_type_id":"4","last_reported":1726503068,"current_range_meters":10000,"station_id":"ce4bhp92rcd13ifvqhcg","pricing_plan_id":"cebpf4jnsgd1na2vs0mg"},{"bike_id":"785783be-7bfb-4269-b660-c5c3fd28c889","system_id":"levelo_inurba_marseille","lat":43.27986,"lon":5.41651,"is_reserved":false,"is_disabled":false,"rental_uris":{"android":"levelo://app?vid=785783be-7bfb-4269-b660-c5c3fd28c889","ios":"levelo://app?vid=785783be-7bfb-4269-b660-c5c3fd28c889"},"vehicle_type_id":"4","last_reported":1726503068,"current_range_meters":28400,"station_id":"ce4bho12rcd13ifvqh1g","pricing_plan_id":"cebpf4jnsgd1na2vs0mg"},{"bike_id":"e4ed5c12-3601-4fac-83ea-a8814b5af10f","system_id":"levelo_inurba_marseille","lat":43.29306,"lon":5.37186,"is_reserved":false,"is_disabled":false,"rental_uris":{"android":"levelo://app?vid=e4ed5c12-3601-4fac-83ea-a8814b5af10f","ios":"levelo://app?vid=e4ed5c12-3601-4fac-83ea-a8814b5af10f"},"vehicle_type_id":"4","last_reported":1726503068,"current_range_meters":39200,"station_id":"ce4bgh92rcd13ifvqb40","pricing_plan_id":"cebpf4jnsgd1na2vs0mg"},{"bike_id":"578e49af-c9a1-4cda-870e-a59889e59af5","system_id":"levelo_inurba_marseille","lat":43.28658,"lon":5.36347,"is_reserved":false,"is_disabled":false,"rental_uris":{"android":"levelo://app?vid=578e49af-c9a1-4cda-870e-a59889e59af5","ios":"levelo://app?vid=578e49af-c9a1-4cda-870e-a59889e59af5"},"vehicle_type_id":"4","last_reported":1726503068,"current_range_meters":34800,"station_id":"ce4bhah2rcd13ifvqej0","pricing_plan_id":"cebpf4jnsgd1na2vs0mg"},{"bike_id":"b29dfed4-1e3e-4f73-af0f-472f85d2d97e","system_id":"levelo_inurba_marseille","lat":43.31713,"lon":5.37723,"is_reserved":false,"is_disabled":false,"rental_uris":{"android":"levelo://app?vid=b29dfed4-1e3e-4f73-af0f-472f85d2d97e","ios":"levelo://app?vid=b29dfed4-1e3e-4f73-af0f-472f85d2d97e"},"vehicle_type_id":"4","last_reported":1726503068,"current_range_meters":18800,"station_id":"ce4bgth2rcd13ifvqch0","pricing_plan_id":"cebpf4jnsgd1na2vs0mg"},{"bike_id":"f8b71237-c1b6-43ce-9f0d-f14af2e74c14","system_id":"levelo_inurba_marseille","lat":43.32468,"lon":5.36558,"is_reserved":false,"is_disabled":false,"rental_uris":{"android":"levelo://app?vid=f8b71237-c1b6-43ce-9f0d-f14af2e74c14","ios":"levelo://app?vid=f8b71237-c1b6-43ce-9f0d-f14af2e74c14"},"vehicle_type_id":"4","last_reported":1726503068,"current_range_meters":24400,"station_id":"ce4bhs12rcd13ifvqhvg","pricing_plan_id":"cebpf4jnsgd1na2vs0mg"},{"bike_id":"78ef158b-f472-48c4-a6d2-2dd6b3bb182b","system_id":"levelo_inurba_marseille","lat":43.28424,"lon":5.34987,"is_reserved":false,"is_disabled":false,"rental_uris":{"android":"levelo://app?vid=78ef158b-f472-48c4-a6d2-2dd6b3bb182b","ios":"levelo://app?vid=78ef158b-f472-48c4-a6d2-2dd6b3bb182b"},"vehicle_type_id":"4","last_reported":1726503068,"current_range_meters":19200,"station_id":"ce4bhbh2rcd13ifvqepg","pricing_plan_id":"cebpf4jnsgd1na2vs0mg"},{"bike_id":"81b73228-8c5c-4315-9737-2bb579f44b10","system_id":"levelo_inurba_marseille","lat":43.30141,"lon":5.3987,"is_reserved":false,"is_disabled":false,"rental_uris":{"android":"levelo://app?vid=81b73228-8c5c-4315-9737-2bb579f44b10","ios":"levelo://app?vid=81b73228-8c5c-4315-9737-2bb579f44b10"},"vehicle_type_id":"4","last_reported":1726503068,"current_range_meters":19200,"station_id":"ce4bh0h2rcd13ifvqd40","pricing_plan_id":"cebpf4jnsgd1na2vs0mg"},{"bike_id":"25e305b7-c7fb-459a-bfdc-467ce5803429","system_id":"levelo_inurba_marseille","lat":43.29442,"lon":5.37445,"is_reserved":false,"is_disabled":false,"rental_uris":{"android":"levelo://app?vid=25e305b7-c7fb-459a-bfdc-467ce5803429","ios":"levelo://app?vid=25e305b7-c7fb-459a-bfdc-467ce5803429"},"vehicle_type_id":"4","last_reported":1726503068,"current_range_meters":35200,"station_id":"","pricing_plan_id":"cebpf4jnsgd1na2vs0mg"},{"bike_id":"4158c018-ca5f-4f69-ac20-6cdb98bba61d","system_id":"levelo_inurba_marseille","lat":43.29256,"lon":5.40906,"is_reserved":false,"is_disabled":false,"rental_uris":{"android":"levelo://app?vid=4158c018-ca5f-4f69-ac20-6cdb98bba61d","ios":"levelo://app?vid=4158c018-ca5f-4f69-ac20-6cdb98bba61d"},"vehicle_type_id":"4","last_reported":1726503068,"current_range_meters":6400,"station_id":"ce4bh192rcd13ifvqdc0","pricing_plan_id":"cebpf4jnsgd1na2vs0mg"},{"bike_id":"7beddb41-4201-41ec-9fe3-3cdaf4e6246e","system_id":"levelo_inurba_marseille","lat":43.231873,"lon":5.355537,"is_reserved":false,"is_disabled":false,"rental_uris":{"android":"levelo://app?vid=7beddb41-4201-41ec-9fe3-3cdaf4e6246e","ios":"levelo://app?vid=7beddb41-4201-41ec-9fe3-3cdaf4e6246e"},"vehicle_type_id":"4","last_reported":1726503068,"current_range_meters":22800,"station_id":"ce4bhu92rcd13ifvqi70","pricing_plan_id":"cebpf4jnsgd1na2vs0mg"},{"bike_id":"6ad2fe94-195b-4d58-9ac6-d3a9675a4c80","system_id":"levelo_inurba_marseille","lat":43.23069,"lon":5.3549,"is_reserved":false,"is_disabled":false,"rental_uris":{"android":"levelo://app?vid=6ad2fe94-195b-4d58-9ac6-d3a9675a4c80","ios":"levelo://app?vid=6ad2fe94-195b-4d58-9ac6-d3a9675a4c80"},"vehicle_type_id":"4","last_reported":1726503068,"current_range_meters":16000,"station_id":"cpo3342slgdg3j2ifvpg","pricing_plan_id":"cebpf4jnsgd1na2vs0mg"},{"bike_id":"6dd17a2f-59bb-4453-859d-2c09ab795824","system_id":"levelo_inurba_marseille","lat":43.33019,"lon":5.39042,"is_reserved":false,"is_disabled":false,"rental_uris":{"android":"levelo://app?vid=6dd17a2f-59bb-4453-859d-2c09ab795824","ios":"levelo://app?vid=6dd17a2f-59bb-4453-859d-2c09ab795824"},"vehicle_type_id":"4","last_reported":1726503068,"current_range_meters":36400,"station_id":"ce4bhr92rcd13ifvqhrg","pricing_plan_id":"cebpf4jnsgd1na2vs0mg"},{"bike_id":"bf78c149-03a8-4a78-8a76-a17ee4dee601","system_id":"levelo_inurba_marseille","lat":43.278018,"lon":5.406994,"is_reserved":false,"is_disabled":false,"rental_uris":{"android":"levelo://app?vid=bf78c149-03a8-4a78-8a76-a17ee4dee601","ios":"levelo://app?vid=bf78c149-03a8-4a78-8a76-a17ee4dee601"},"vehicle_type_id":"4","last_reported":1726503068,"current_range_meters":12000,"station_id":"ce4bhnh2rcd13ifvqgtg","pricing_plan_id":"cebpf4jnsgd1na2vs0mg"},{"bike_id":"6b3c22a2-ef42-4b02-85b7-8162cddc624f","system_id":"levelo_inurba_marseille","lat":43.29571,"lon":5.39977,"is_reserved":false,"is_disabled":false,"rental_uris":{"android":"levelo://app?vid=6b3c22a2-ef42-4b02-85b7-8162cddc624f","ios":"levelo://app?vid=6b3c22a2-ef42-4b02-85b7-8162cddc624f"},"vehicle_type_id":"4","last_reported":1726503068,"current_range_meters":13600,"station_id":"ce4bh312rcd13ifvqdj0","pricing_plan_id":"cebpf4jnsgd1na2vs0mg"},{"bike_id":"a0da9788-6ad0-4bd2-9978-72c1654ca4ea","system_id":"levelo_inurba_marseille","lat":43.3237,"lon":5.38883,"is_reserved":false,"is_disabled":false,"rental_uris":{"android":"levelo://app?vid=a0da9788-6ad0-4bd2-9978-72c1654ca4ea","ios":"levelo://app?vid=a0da9788-6ad0-4bd2-9978-72c1654ca4ea"},"vehicle_type_id":"4","last_reported":1726503068,"current_range_meters":24800,"station_id":"ce4bhqp2rcd13ifvqhog","pricing_plan_id":"cebpf4jnsgd1na2vs0mg"},{"bike_id":"e3f7a34b-74af-4626-beb7-0f768f33ee89","system_id":"levelo_inurba_marseille","lat":43.25495,"lon":5.3765,"is_reserved":false,"is_disabled":false,"rental_uris":{"android":"levelo://app?vid=e3f7a34b-74af-4626-beb7-0f768f33ee89","ios":"levelo://app?vid=e3f7a34b-74af-4626-beb7-0f768f33ee89"},"vehicle_type_id":"4","last_reported":1726503068,"current_range_meters":14800,"station_id":"ce4bhh12rcd13ifvqff0","pricing_plan_id":"cebpf4jnsgd1na2vs0mg"},{"bike_id":"6988fe91-77dd-41fd-afde-4a953cafc609","system_id":"levelo_inurba_marseille","lat":43.31759,"lon":5.39011,"is_reserved":false,"is_disabled":false,"rental_uris":{"android":"levelo://app?vid=6988fe91-77dd-41fd-afde-4a953cafc609","ios":"levelo://app?vid=6988fe91-77dd-41fd-afde-4a953cafc609"},"vehicle_type_id":"4","last_reported":1726503068,"current_range_meters":11200,"station_id":"ce4bhqp2rcd13ifvqhng","pricing_plan_id":"cebpf4jnsgd1na2vs0mg"},{"bike_id":"22f26e89-4ccd-47af-bb30-5f037502847c","system_id":"levelo_inurba_marseille","lat":43.23184,"lon":5.39994,"is_reserved":false,"is_disabled":false,"rental_uris":{"android":"levelo://app?vid=22f26e89-4ccd-47af-bb30-5f037502847c","ios":"levelo://app?vid=22f26e89-4ccd-47af-bb30-5f037502847c"},"vehicle_type_id":"4","last_reported":1726503068,"current_range_meters":32400,"station_id":"ce4bhn12rcd13ifvqgqg","pricing_plan_id":"cebpf4jnsgd1na2vs0mg"},{"bike_id":"fa94a121-2975-4c17-a3eb-fb02e47768eb","system_id":"levelo_inurba_marseille","lat":43.29871,"lon":5.39726,"is_reserved":false,"is_disabled":false,"rental_uris":{"android":"levelo://app?vid=fa94a121-2975-4c17-a3eb-fb02e47768eb","ios":"levelo://app?vid=fa94a121-2975-4c17-a3eb-fb02e47768eb"},"vehicle_type_id":"4","last_reported":1726503068,"current_range_meters":33600,"station_id":"ce4bh0h2rcd13ifvqd50","pricing_plan_id":"cebpf4jnsgd1na2vs0mg"},{"bike_id":"bf4f1860-a5f2-4948-882b-e6ead94dcea2","system_id":"levelo_inurba_marseille","lat":43.30988,"lon":5.39018,"is_reserved":false,"is_disabled":false,"rental_uris":{"android":"levelo://app?vid=bf4f1860-a5f2-4948-882b-e6ead94dcea2","ios":"levelo://app?vid=bf4f1860-a5f2-4948-882b-e6ead94dcea2"},"vehicle_type_id":"4","last_reported":1726503068,"current_range_meters":7200,"station_id":"ce4bh112rcd13ifvqd90","pricing_plan_id":"cebpf4jnsgd1na2vs0mg"},{"bike_id":"69821dd7-629a-4e4e-88d0-66b149841d35","system_id":"levelo_inurba_marseille","lat":43.28151,"lon":5.4264,"is_reserved":false,"is_disabled":false,"rental_uris":{"android":"levelo://app?vid=69821dd7-629a-4e4e-88d0-66b149841d35","ios":"levelo://app?vid=69821dd7-629a-4e4e-88d0-66b149841d35"},"vehicle_type_id":"4","last_reported":1726503068,"current_range_meters":12000,"station_id":"ce4bhnh2rcd13ifvqgug","pricing_plan_id":"cebpf4jnsgd1na2vs0mg"},{"bike_id":"bc09698d-3853-49f1-a1b7-f02576099ef3","system_id":"levelo_inurba_marseille","lat":43.30133,"lon":5.39877,"is_reserved":false,"is_disabled":false,"rental_uris":{"android":"levelo://app?vid=bc09698d-3853-49f1-a1b7-f02576099ef3","ios":"levelo://app?vid=bc09698d-3853-49f1-a1b7-f02576099ef3"},"vehicle_type_id":"4","last_reported":1726503068,"current_range_meters":11600,"station_id":"ce4bh0h2rcd13ifvqd40","pricing_plan_id":"cebpf4jnsgd1na2vs0mg"},{"bike_id":"ec65c110-ac70-47fd-9c96-6f37fef1f89f","system_id":"levelo_inurba_marseille","lat":43.30132,"lon":5.3987,"is_reserved":false,"is_disabled":false,"rental_uris":{"android":"levelo://app?vid=ec65c110-ac70-47fd-9c96-6f37fef1f89f","ios":"levelo://app?vid=ec65c110-ac70-47fd-9c96-6f37fef1f89f"},"vehicle_type_id":"4","last_reported":1726503068,"current_range_meters":37600,"station_id":"ce4bh0h2rcd13ifvqd40","pricing_plan_id":"cebpf4jnsgd1na2vs0mg"},{"bike_id":"65eecb51-7024-4f30-af20-d65f809bce2b","system_id":"levelo_inurba_marseille","lat":43.31474,"lon":5.38324,"is_reserved":false,"is_disabled":false,"rental_uris":{"android":"levelo://app?vid=65eecb51-7024-4f30-af20-d65f809bce2b","ios":"levelo://app?vid=65eecb51-7024-4f30-af20-d65f809bce2b"},"vehicle_type_id":"4","last_reported":1726503068,"current_range_meters":12000,"station_id":"ce4bgvp2rcd13ifvqcu0","pricing_plan_id":"cebpf4jnsgd1na2vs0mg"},{"bike_id":"714bd286-0914-421a-ac78-a8aec3d8de06","system_id":"levelo_inurba_marseille","lat":43.31713,"lon":5.43707,"is_reserved":false,"is_disabled":false,"rental_uris":{"android":"levelo://app?vid=714bd286-0914-421a-ac78-a8aec3d8de06","ios":"levelo://app?vid=714bd286-0914-421a-ac78-a8aec3d8de06"},"vehicle_type_id":"4","last_reported":1726503068,"current_range_meters":8800,"station_id":"ce4bhp92rcd13ifvqhcg","pricing_plan_id":"cebpf4jnsgd1na2vs0mg"},{"bike_id":"fee1960b-3186-4abe-bf0a-e44f0dc9a1aa","system_id":"levelo_inurba_marseille","lat":43.2827,"lon":5.35066,"is_reserved":false,"is_disabled":false,"rental_uris":{"android":"levelo://app?vid=fee1960b-3186-4abe-bf0a-e44f0dc9a1aa","ios":"levelo://app?vid=fee1960b-3186-4abe-bf0a-e44f0dc9a1aa"},"vehicle_type_id":"4","last_reported":1726503068,"current_range_meters":2800,"station_id":"ce4bhbp2rcd13ifvqerg","pricing_plan_id":"cebpf4jnsgd1na2vs0mg"},{"bike_id":"5f23a58d-4857-4b66-a480-1f1416fdc301","system_id":"levelo_inurba_marseille","lat":43.30326,"lon":5.40433,"is_reserved":false,"is_disabled":false,"rental_uris":{"android":"levelo://app?vid=5f23a58d-4857-4b66-a480-1f1416fdc301","ios":"levelo://app?vid=5f23a58d-4857-4b66-a480-1f1416fdc301"},"vehicle_type_id":"4","last_reported":1726503068,"current_range_meters":4400,"station_id":"ce4bh012rcd13ifvqd10","pricing_plan_id":"cebpf4jnsgd1na2vs0mg"},{"bike_id":"b3f92bad-c66f-45a6-b186-6d8b10bd894a","system_id":"levelo_inurba_marseille","lat":43.265573,"lon":5.372796,"is_reserved":false,"is_disabled":false,"rental_uris":{"android":"levelo://app?vid=b3f92bad-c66f-45a6-b186-6d8b10bd894a","ios":"levelo://app?vid=b3f92bad-c66f-45a6-b186-6d8b10bd894a"},"vehicle_type_id":"4","last_reported":1726503068,"current_range_meters":12800,"station_id":"ce4bhg12rcd13ifvqf70","pricing_plan_id":"cebpf4jnsgd1na2vs0mg"},{"bike_id":"9edfda1d-6b5b-4703-84b1-6df3ab8e1356","system_id":"levelo_inurba_marseille","lat":43.30333,"lon":5.40425,"is_reserved":false,"is_disabled":false,"rental_uris":{"android":"levelo://app?vid=9edfda1d-6b5b-4703-84b1-6df3ab8e1356","ios":"levelo://app?vid=9edfda1d-6b5b-4703-84b1-6df3ab8e1356"},"vehicle_type_id":"4","last_reported":1726503068,"current_range_meters":3200,"station_id":"ce4bh012rcd13ifvqd10","pricing_plan_id":"cebpf4jnsgd1na2vs0mg"},{"bike_id":"ede27382-2e15-413e-be39-239be05fdd62","system_id":"levelo_inurba_marseille","lat":43.23186,"lon":5.39989,"is_reserved":false,"is_disabled":false,"rental_uris":{"android":"levelo://app?vid=ede27382-2e15-413e-be39-239be05fdd62","ios":"levelo://app?vid=ede27382-2e15-413e-be39-239be05fdd62"},"vehicle_type_id":"4","last_reported":1726503068,"current_range_meters":35200,"station_id":"ce4bhn12rcd13ifvqgqg","pricing_plan_id":"cebpf4jnsgd1na2vs0mg"},{"bike_id":"a42dc8cf-ff1a-4075-8e50-2cc504ce67bc","system_id":"levelo_inurba_marseille","lat":43.26031,"lon":5.37548,"is_reserved":false,"is_disabled":false,"rental_uris":{"android":"levelo://app?vid=a42dc8cf-ff1a-4075-8e50-2cc504ce67bc","ios":"levelo://app?vid=a42dc8cf-ff1a-4075-8e50-2cc504ce67bc"},"vehicle_type_id":"4","last_reported":1726503068,"current_range_meters":3600,"station_id":"ce4bhgh2rcd13ifvqfa0","pricing_plan_id":"cebpf4jnsgd1na2vs0mg"},{"bike_id":"12b44d8d-7a75-4b69-9d8f-be4598195b8c","system_id":"levelo_inurba_marseille","lat":43.301452,"lon":5.374213,"is_reserved":false,"is_disabled":false,"rental_uris":{"android":"levelo://app?vid=12b44d8d-7a75-4b69-9d8f-be4598195b8c","ios":"levelo://app?vid=12b44d8d-7a75-4b69-9d8f-be4598195b8c"},"vehicle_type_id":"4","last_reported":1726503068,"current_range_meters":20400,"station_id":"ce4bhah2rcd13ifvqej0","pricing_plan_id":"cebpf4jnsgd1na2vs0mg"},{"bike_id":"5e01f513-499b-49d3-b3b9-2a85fcd35148","system_id":"levelo_inurba_marseille","lat":43.2996,"lon":5.38496,"is_reserved":false,"is_disabled":false,"rental_uris":{"android":"levelo://app?vid=5e01f513-499b-49d3-b3b9-2a85fcd35148","ios":"levelo://app?vid=5e01f513-499b-49d3-b3b9-2a85fcd35148"},"vehicle_type_id":"4","last_reported":1726503068,"current_range_meters":33600,"station_id":"ce4bgj92rcd13ifvqbd0","pricing_plan_id":"cebpf4jnsgd1na2vs0mg"},{"bike_id":"6612eb1a-f208-4926-8794-3347a53e9f46","system_id":"levelo_inurba_marseille","lat":43.29259,"lon":5.409035,"is_reserved":false,"is_disabled":false,"rental_uris":{"android":"levelo://app?vid=6612eb1a-f208-4926-8794-3347a53e9f46","ios":"levelo://app?vid=6612eb1a-f208-4926-8794-3347a53e9f46"},"vehicle_type_id":"4","last_reported":1726503068,"current_range_meters":36000,"station_id":"ce4bh192rcd13ifvqdc0","pricing_plan_id":"cebpf4jnsgd1na2vs0mg"},{"bike_id":"88fd4e07-61a0-4a9a-b109-3756c874be3d","system_id":"levelo_inurba_marseille","lat":43.323697,"lon":5.3887,"is_reserved":false,"is_disabled":false,"rental_uris":{"android":"levelo://app?vid=88fd4e07-61a0-4a9a-b109-3756c874be3d","ios":"levelo://app?vid=88fd4e07-61a0-4a9a-b109-3756c874be3d"},"vehicle_type_id":"4","last_reported":1726503068,"current_range_meters":20400,"station_id":"","pricing_plan_id":"cebpf4jnsgd1na2vs0mg"},{"bike_id":"cbaf03bf-0340-4293-a424-18d0ef0b595f","system_id":"levelo_inurba_marseille","lat":43.29898,"lon":5.43655,"is_reserved":false,"is_disabled":false,"rental_uris":{"android":"levelo://app?vid=cbaf03bf-0340-4293-a424-18d0ef0b595f","ios":"levelo://app?vid=cbaf03bf-0340-4293-a424-18d0ef0b595f"},"vehicle_type_id":"4","last_reported":1726503068,"current_range_meters":26800,"station_id":"ce4bhpp2rcd13ifvqhfg","pricing_plan_id":"cebpf4jnsgd1na2vs0mg"},{"bike_id":"6137c734-5ad5-4b4b-b71b-84443c92ffcc","system_id":"levelo_inurba_marseille","lat":43.241622,"lon":5.396726,"is_reserved":false,"is_disabled":false,"rental_uris":{"android":"levelo://app?vid=6137c734-5ad5-4b4b-b71b-84443c92ffcc","ios":"levelo://app?vid=6137c734-5ad5-4b4b-b71b-84443c92ffcc"},"vehicle_type_id":"4","last_reported":1726503068,"current_range_meters":23200,"station_id":"ce4bhn12rcd13ifvqgqg","pricing_plan_id":"cebpf4jnsgd1na2vs0mg"},{"bike_id":"fabd6680-bf5f-42cc-b8ce-1a55fdaaaa2c","system_id":"levelo_inurba_marseille","lat":43.28622,"lon":5.35107,"is_reserved":false,"is_disabled":false,"rental_uris":{"android":"levelo://app?vid=fabd6680-bf5f-42cc-b8ce-1a55fdaaaa2c","ios":"levelo://app?vid=fabd6680-bf5f-42cc-b8ce-1a55fdaaaa2c"},"vehicle_type_id":"4","last_reported":1726503068,"current_range_meters":36800,"station_id":"ce4bhch2rcd13ifvqeug","pricing_plan_id":"cebpf4jnsgd1na2vs0mg"},{"bike_id":"59b74998-9cee-4ea1-abc9-065b4ea23ae4","system_id":"levelo_inurba_marseille","lat":43.32083,"lon":5.41599,"is_reserved":false,"is_disabled":false,"rental_uris":{"android":"levelo://app?vid=59b74998-9cee-4ea1-abc9-065b4ea23ae4","ios":"levelo://app?vid=59b74998-9cee-4ea1-abc9-065b4ea23ae4"},"vehicle_type_id":"4","last_reported":1726503068,"current_range_meters":28400,"station_id":"ce4bhq92rcd13ifvqhkg","pricing_plan_id":"cebpf4jnsgd1na2vs0mg"},{"bike_id":"c3e18f63-5d54-48d9-bf5a-e04bfffe8d63","system_id":"levelo_inurba_marseille","lat":43.28459,"lon":5.35886,"is_reserved":false,"is_disabled":false,"rental_uris":{"android":"levelo://app?vid=c3e18f63-5d54-48d9-bf5a-e04bfffe8d63","ios":"levelo://app?vid=c3e18f63-5d54-48d9-bf5a-e04bfffe8d63"},"vehicle_type_id":"4","last_reported":1726503068,"current_range_meters":32400,"station_id":"ce4bhah2rcd13ifvqei0","pricing_plan_id":"cebpf4jnsgd1na2vs0mg"},{"bike_id":"6967c8c5-31c1-4337-9e2b-18574a6c6270","system_id":"levelo_inurba_marseille","lat":43.28268,"lon":5.3506,"is_reserved":false,"is_disabled":false,"rental_uris":{"android":"levelo://app?vid=6967c8c5-31c1-4337-9e2b-18574a6c6270","ios":"levelo://app?vid=6967c8c5-31c1-4337-9e2b-18574a6c6270"},"vehicle_type_id":"4","last_reported":1726503068,"current_range_meters":6400,"station_id":"ce4bhbp2rcd13ifvqerg","pricing_plan_id":"cebpf4jnsgd1na2vs0mg"},{"bike_id":"0d39e019-83aa-4363-973c-8aa42bdef31f","system_id":"levelo_inurba_marseille","lat":43.29308,"lon":5.37174,"is_reserved":false,"is_disabled":false,"rental_uris":{"android":"levelo://app?vid=0d39e019-83aa-4363-973c-8aa42bdef31f","ios":"levelo://app?vid=0d39e019-83aa-4363-973c-8aa42bdef31f"},"vehicle_type_id":"4","last_reported":1726503068,"current_range_meters":21600,"station_id":"ce4bgh92rcd13ifvqb40","pricing_plan_id":"cebpf4jnsgd1na2vs0mg"},{"bike_id":"dfc154ac-90e0-486a-93b5-8e6d57c1dbf1","system_id":"levelo_inurba_marseille","lat":43.29295,"lon":5.37461,"is_reserved":false,"is_disabled":false,"rental_uris":{"android":"levelo://app?vid=dfc154ac-90e0-486a-93b5-8e6d57c1dbf1","ios":"levelo://app?vid=dfc154ac-90e0-486a-93b5-8e6d57c1dbf1"},"vehicle_type_id":"4","last_reported":1726503068,"current_range_meters":34800,"station_id":"ce4bgi12rcd13ifvqb70","pricing_plan_id":"cebpf4jnsgd1na2vs0mg"},{"bike_id":"b2d831f5-c91d-4f85-850d-1ce2053edd6a","system_id":"levelo_inurba_marseille","lat":43.29521,"lon":5.39403,"is_reserved":false,"is_disabled":false,"rental_uris":{"android":"levelo://app?vid=b2d831f5-c91d-4f85-850d-1ce2053edd6a","ios":"levelo://app?vid=b2d831f5-c91d-4f85-850d-1ce2053edd6a"},"vehicle_type_id":"4","last_reported":1726503068,"current_range_meters":30400,"station_id":"ce4bh292rcd13ifvqdf0","pricing_plan_id":"cebpf4jnsgd1na2vs0mg"},{"bike_id":"328d45f9-980e-4811-97c0-47d761861509","system_id":"levelo_inurba_marseille","lat":43.29847,"lon":5.37836,"is_reserved":false,"is_disabled":false,"rental_uris":{"android":"levelo://app?vid=328d45f9-980e-4811-97c0-47d761861509","ios":"levelo://app?vid=328d45f9-980e-4811-97c0-47d761861509"},"vehicle_type_id":"4","last_reported":1726503068,"current_range_meters":22800,"station_id":"ce4bgkh2rcd13ifvqbl0","pricing_plan_id":"cebpf4jnsgd1na2vs0mg"},{"bike_id":"68bc62c0-e128-49e2-be3a-f47a7a7dac37","system_id":"levelo_inurba_marseille","lat":43.302155,"lon":5.394819,"is_reserved":false,"is_disabled":false,"rental_uris":{"android":"levelo://app?vid=68bc62c0-e128-49e2-be3a-f47a7a7dac37","ios":"levelo://app?vid=68bc62c0-e128-49e2-be3a-f47a7a7dac37"},"vehicle_type_id":"4","last_reported":1726503068,"current_range_meters":3200,"station_id":"ce4bh0p2rcd13ifvqd70","pricing_plan_id":"cebpf4jnsgd1na2vs0mg"},{"bike_id":"b27c8787-969f-43b6-919b-5b4dd60ee7b2","system_id":"levelo_inurba_marseille","lat":43.29224,"lon":5.36064,"is_reserved":false,"is_disabled":false,"rental_uris":{"android":"levelo://app?vid=b27c8787-969f-43b6-919b-5b4dd60ee7b2","ios":"levelo://app?vid=b27c8787-969f-43b6-919b-5b4dd60ee7b2"},"vehicle_type_id":"4","last_reported":1726503068,"current_range_meters":24800,"station_id":"ce4bhbh2rcd13ifvqeqg","pricing_plan_id":"cebpf4jnsgd1na2vs0mg"},{"bike_id":"fa690805-233a-4a70-a9f3-33f1b67cdb1f","system_id":"levelo_inurba_marseille","lat":43.3229,"lon":5.38261,"is_reserved":false,"is_disabled":false,"rental_uris":{"android":"levelo://app?vid=fa690805-233a-4a70-a9f3-33f1b67cdb1f","ios":"levelo://app?vid=fa690805-233a-4a70-a9f3-33f1b67cdb1f"},"vehicle_type_id":"4","last_reported":1726503068,"current_range_meters":36800,"station_id":"ce4bhr12rcd13ifvqhqg","pricing_plan_id":"cebpf4jnsgd1na2vs0mg"},{"bike_id":"8b608b96-fedf-4511-8d4b-09bad2606e1a","system_id":"levelo_inurba_marseille","lat":43.27716,"lon":5.41127,"is_reserved":false,"is_disabled":false,"rental_uris":{"android":"levelo://app?vid=8b608b96-fedf-4511-8d4b-09bad2606e1a","ios":"levelo://app?vid=8b608b96-fedf-4511-8d4b-09bad2606e1a"},"vehicle_type_id":"4","last_reported":1726503068,"current_range_meters":15200,"station_id":"","pricing_plan_id":"cebpf4jnsgd1na2vs0mg"},{"bike_id":"d687a8dc-c1c6-418b-a078-1f315f5fdb26","system_id":"levelo_inurba_marseille","lat":43.32488,"lon":5.36569,"is_reserved":false,"is_disabled":false,"rental_uris":{"android":"levelo://app?vid=d687a8dc-c1c6-418b-a078-1f315f5fdb26","ios":"levelo://app?vid=d687a8dc-c1c6-418b-a078-1f315f5fdb26"},"vehicle_type_id":"4","last_reported":1726503068,"current_range_meters":20800,"station_id":"ce4bhs12rcd13ifvqhvg","pricing_plan_id":"cebpf4jnsgd1na2vs0mg"},{"bike_id":"2ae16fab-152a-4f93-9f47-8dde2d30c8c0","system_id":"levelo_inurba_marseille","lat":43.31491,"lon":5.37294,"is_reserved":false,"is_disabled":false,"rental_uris":{"android":"levelo://app?vid=2ae16fab-152a-4f93-9f47-8dde2d30c8c0","ios":"levelo://app?vid=2ae16fab-152a-4f93-9f47-8dde2d30c8c0"},"vehicle_type_id":"4","last_reported":1726503068,"current_range_meters":14800,"station_id":"ce4bgt12rcd13ifvqcd0","pricing_plan_id":"cebpf4jnsgd1na2vs0mg"},{"bike_id":"fa2b0a9f-66ad-4cd1-b7bb-93b9cffdc904","system_id":"levelo_inurba_marseille","lat":43.25934,"lon":5.40904,"is_reserved":false,"is_disabled":false,"rental_uris":{"android":"levelo://app?vid=fa2b0a9f-66ad-4cd1-b7bb-93b9cffdc904","ios":"levelo://app?vid=fa2b0a9f-66ad-4cd1-b7bb-93b9cffdc904"},"vehicle_type_id":"4","last_reported":1726503068,"current_range_meters":27200,"station_id":"ce4bhm92rcd13ifvqglg","pricing_plan_id":"cebpf4jnsgd1na2vs0mg"},{"bike_id":"1b0538b9-5159-4f1e-b696-a0af2fba3f20","system_id":"levelo_inurba_marseille","lat":43.292262,"lon":5.360629,"is_reserved":false,"is_disabled":false,"rental_uris":{"android":"levelo://app?vid=1b0538b9-5159-4f1e-b696-a0af2fba3f20","ios":"levelo://app?vid=1b0538b9-5159-4f1e-b696-a0af2fba3f20"},"vehicle_type_id":"4","last_reported":1726503068,"current_range_meters":36400,"station_id":"ce4bhbh2rcd13ifvqeqg","pricing_plan_id":"cebpf4jnsgd1na2vs0mg"},{"bike_id":"38a06196-c1b6-466d-8e61-336257e32fce","system_id":"levelo_inurba_marseille","lat":43.26804,"lon":5.40266,"is_reserved":false,"is_disabled":false,"rental_uris":{"android":"levelo://app?vid=38a06196-c1b6-466d-8e61-336257e32fce","ios":"levelo://app?vid=38a06196-c1b6-466d-8e61-336257e32fce"},"vehicle_type_id":"4","last_reported":1726503068,"current_range_meters":10800,"station_id":"ce501612rcd8frsf0b60","pricing_plan_id":"cebpf4jnsgd1na2vs0mg"},{"bike_id":"c77056df-344c-423b-a27f-652e688c9241","system_id":"levelo_inurba_marseille","lat":43.28269,"lon":5.35074,"is_reserved":false,"is_disabled":false,"rental_uris":{"android":"levelo://app?vid=c77056df-344c-423b-a27f-652e688c9241","ios":"levelo://app?vid=c77056df-344c-423b-a27f-652e688c9241"},"vehicle_type_id":"4","last_reported":1726503068,"current_range_meters":28800,"station_id":"ce4bhbp2rcd13ifvqerg","pricing_plan_id":"cebpf4jnsgd1na2vs0mg"},{"bike_id":"2bc00c15-b391-445f-8056-cc4a33f1972d","system_id":"levelo_inurba_marseille","lat":43.25719,"lon":5.4111,"is_reserved":false,"is_disabled":false,"rental_uris":{"android":"levelo://app?vid=2bc00c15-b391-445f-8056-cc4a33f1972d","ios":"levelo://app?vid=2bc00c15-b391-445f-8056-cc4a33f1972d"},"vehicle_type_id":"4","last_reported":1726503068,"current_range_meters":23200,"station_id":"ce4bhkp2rcd13ifvqgd0","pricing_plan_id":"cebpf4jnsgd1na2vs0mg"},{"bike_id":"d1711123-1f94-459f-b3d2-7a0d7164719a","system_id":"levelo_inurba_marseille","lat":43.295753,"lon":5.375185,"is_reserved":false,"is_disabled":false,"rental_uris":{"android":"levelo://app?vid=d1711123-1f94-459f-b3d2-7a0d7164719a","ios":"levelo://app?vid=d1711123-1f94-459f-b3d2-7a0d7164719a"},"vehicle_type_id":"4","last_reported":1726503068,"current_range_meters":23200,"station_id":"ce4bgh92rcd13ifvqb50","pricing_plan_id":"cebpf4jnsgd1na2vs0mg"},{"bike_id":"bcb6afdd-7d67-44fd-9139-92cec8ec966d","system_id":"levelo_inurba_marseille","lat":43.317115,"lon":5.377619,"is_reserved":false,"is_disabled":false,"rental_uris":{"android":"levelo://app?vid=bcb6afdd-7d67-44fd-9139-92cec8ec966d","ios":"levelo://app?vid=bcb6afdd-7d67-44fd-9139-92cec8ec966d"},"vehicle_type_id":"4","last_reported":1726503068,"current_range_meters":2800,"station_id":"ce4bgt92rcd13ifvqcf0","pricing_plan_id":"cebpf4jnsgd1na2vs0mg"},{"bike_id":"194eec9d-53cc-4318-9f34-36a4f2e495dd","system_id":"levelo_inurba_marseille","lat":43.27816,"lon":5.40699,"is_reserved":false,"is_disabled":false,"rental_uris":{"android":"levelo://app?vid=194eec9d-53cc-4318-9f34-36a4f2e495dd","ios":"levelo://app?vid=194eec9d-53cc-4318-9f34-36a4f2e495dd"},"vehicle_type_id":"4","last_reported":1726503068,"current_range_meters":31200,"station_id":"ce4bhnh2rcd13ifvqgtg","pricing_plan_id":"cebpf4jnsgd1na2vs0mg"},{"bike_id":"1c705b5f-052b-486e-a5a2-b68c2c8aac50","system_id":"levelo_inurba_marseille","lat":43.27173,"lon":5.40992,"is_reserved":false,"is_disabled":false,"rental_uris":{"android":"levelo://app?vid=1c705b5f-052b-486e-a5a2-b68c2c8aac50","ios":"levelo://app?vid=1c705b5f-052b-486e-a5a2-b68c2c8aac50"},"vehicle_type_id":"4","last_reported":1726503068,"current_range_meters":20400,"station_id":"ce4bhl12rcd13ifvqgf0","pricing_plan_id":"cebpf4jnsgd1na2vs0mg"},{"bike_id":"69e3f0d1-8a43-4855-8c06-1e2dd84ba482","system_id":"levelo_inurba_marseille","lat":43.29041,"lon":5.3591,"is_reserved":false,"is_disabled":false,"rental_uris":{"android":"levelo://app?vid=69e3f0d1-8a43-4855-8c06-1e2dd84ba482","ios":"levelo://app?vid=69e3f0d1-8a43-4855-8c06-1e2dd84ba482"},"vehicle_type_id":"4","last_reported":1726503068,"current_range_meters":6800,"station_id":"ce4bha92rcd13ifvqeg0","pricing_plan_id":"cebpf4jnsgd1na2vs0mg"},{"bike_id":"c6d44b87-627f-40f1-a152-12f726f24de1","system_id":"levelo_inurba_marseille","lat":43.24388,"lon":5.37061,"is_reserved":false,"is_disabled":false,"rental_uris":{"android":"levelo://app?vid=c6d44b87-627f-40f1-a152-12f726f24de1","ios":"levelo://app?vid=c6d44b87-627f-40f1-a152-12f726f24de1"},"vehicle_type_id":"4","last_reported":1726503068,"current_range_meters":28400,"station_id":"ce4bhhh2rcd13ifvqfk0","pricing_plan_id":"cebpf4jnsgd1na2vs0mg"},{"bike_id":"f02f8613-ec6a-4ea7-abcd-311206078976","system_id":"levelo_inurba_marseille","lat":43.28152,"lon":5.42643,"is_reserved":false,"is_disabled":false,"rental_uris":{"android":"levelo://app?vid=f02f8613-ec6a-4ea7-abcd-311206078976","ios":"levelo://app?vid=f02f8613-ec6a-4ea7-abcd-311206078976"},"vehicle_type_id":"4","last_reported":1726503068,"current_range_meters":2800,"station_id":"ce4bhnh2rcd13ifvqgug","pricing_plan_id":"cebpf4jnsgd1na2vs0mg"},{"bike_id":"f61fa9ae-d8c8-4576-bc0d-844b13be83bd","system_id":"levelo_inurba_marseille","lat":43.295663,"lon":5.375319,"is_reserved":false,"is_disabled":false,"rental_uris":{"android":"levelo://app?vid=f61fa9ae-d8c8-4576-bc0d-844b13be83bd","ios":"levelo://app?vid=f61fa9ae-d8c8-4576-bc0d-844b13be83bd"},"vehicle_type_id":"4","last_reported":1726503068,"current_range_meters":9600,"station_id":"ce4bgh92rcd13ifvqb50","pricing_plan_id":"cebpf4jnsgd1na2vs0mg"},{"bike_id":"15e4d734-d814-4935-8e15-6fcc4f0f3e4e","system_id":"levelo_inurba_marseille","lat":43.29715,"lon":5.376974,"is_reserved":false,"is_disabled":false,"rental_uris":{"android":"levelo://app?vid=15e4d734-d814-4935-8e15-6fcc4f0f3e4e","ios":"levelo://app?vid=15e4d734-d814-4935-8e15-6fcc4f0f3e4e"},"vehicle_type_id":"4","last_reported":1726503068,"current_range_meters":17600,"station_id":"ce4bgkh2rcd13ifvqbl0","pricing_plan_id":"cebpf4jnsgd1na2vs0mg"},{"bike_id":"e6376251-d7b5-4213-9b43-2bf7a84a2ade","system_id":"levelo_inurba_marseille","lat":43.27994,"lon":5.40003,"is_reserved":false,"is_disabled":false,"rental_uris":{"android":"levelo://app?vid=e6376251-d7b5-4213-9b43-2bf7a84a2ade","ios":"levelo://app?vid=e6376251-d7b5-4213-9b43-2bf7a84a2ade"},"vehicle_type_id":"4","last_reported":1726503068,"current_range_meters":11600,"station_id":"ce4bho92rcd13ifvqh4g","pricing_plan_id":"cebpf4jnsgd1na2vs0mg"},{"bike_id":"bb2594be-5994-46bb-a02c-8d3316326d4d","system_id":"levelo_inurba_marseille","lat":43.29532,"lon":5.39403,"is_reserved":false,"is_disabled":false,"rental_uris":{"android":"levelo://app?vid=bb2594be-5994-46bb-a02c-8d3316326d4d","ios":"levelo://app?vid=bb2594be-5994-46bb-a02c-8d3316326d4d"},"vehicle_type_id":"4","last_reported":1726503068,"current_range_meters":14000,"station_id":"ce4bh292rcd13ifvqdf0","pricing_plan_id":"cebpf4jnsgd1na2vs0mg"},{"bike_id":"0d1938a5-27e5-4fde-9bd0-8eaae3bb4f3d","system_id":"levelo_inurba_marseille","lat":43.296205,"lon":5.371648,"is_reserved":false,"is_disabled":false,"rental_uris":{"android":"levelo://app?vid=0d1938a5-27e5-4fde-9bd0-8eaae3bb4f3d","ios":"levelo://app?vid=0d1938a5-27e5-4fde-9bd0-8eaae3bb4f3d"},"vehicle_type_id":"4","last_reported":1726503068,"current_range_meters":27200,"station_id":"ce4bgnh2rcd13ifvqc0g","pricing_plan_id":"cebpf4jnsgd1na2vs0mg"},{"bike_id":"811ea967-a947-411f-b98e-b9b7f04da351","system_id":"levelo_inurba_marseille","lat":43.32291,"lon":5.38278,"is_reserved":false,"is_disabled":false,"rental_uris":{"android":"levelo://app?vid=811ea967-a947-411f-b98e-b9b7f04da351","ios":"levelo://app?vid=811ea967-a947-411f-b98e-b9b7f04da351"},"vehicle_type_id":"4","last_reported":1726503068,"current_range_meters":2000,"station_id":"ce4bhr12rcd13ifvqhqg","pricing_plan_id":"cebpf4jnsgd1na2vs0mg"},{"bike_id":"8e871097-6ca9-458f-a7af-51bf04225af9","system_id":"levelo_inurba_marseille","lat":43.33026,"lon":5.39042,"is_reserved":false,"is_disabled":false,"rental_uris":{"android":"levelo://app?vid=8e871097-6ca9-458f-a7af-51bf04225af9","ios":"levelo://app?vid=8e871097-6ca9-458f-a7af-51bf04225af9"},"vehicle_type_id":"4","last_reported":1726503068,"current_range_meters":17200,"station_id":"ce4bhr92rcd13ifvqhrg","pricing_plan_id":"cebpf4jnsgd1na2vs0mg"},{"bike_id":"694ff864-2bf0-4394-8503-a129808daf75","system_id":"levelo_inurba_marseille","lat":43.2843,"lon":5.34991,"is_reserved":false,"is_disabled":false,"rental_uris":{"android":"levelo://app?vid=694ff864-2bf0-4394-8503-a129808daf75","ios":"levelo://app?vid=694ff864-2bf0-4394-8503-a129808daf75"},"vehicle_type_id":"4","last_reported":1726503068,"current_range_meters":12800,"station_id":"ce4bhbh2rcd13ifvqepg","pricing_plan_id":"cebpf4jnsgd1na2vs0mg"},{"bike_id":"4c8e0f9f-c913-48f6-8240-f906607f47fc","system_id":"levelo_inurba_marseille","lat":43.258655,"lon":5.398945,"is_reserved":false,"is_disabled":false,"rental_uris":{"android":"levelo://app?vid=4c8e0f9f-c913-48f6-8240-f906607f47fc","ios":"levelo://app?vid=4c8e0f9f-c913-48f6-8240-f906607f47fc"},"vehicle_type_id":"4","last_reported":1726503068,"current_range_meters":34800,"station_id":"ce4bho92rcd13ifvqh3g","pricing_plan_id":"cebpf4jnsgd1na2vs0mg"},{"bike_id":"6f387a41-1a28-4619-ac86-26875678b81b","system_id":"levelo_inurba_marseille","lat":43.29886,"lon":5.43653,"is_reserved":false,"is_disabled":false,"rental_uris":{"android":"levelo://app?vid=6f387a41-1a28-4619-ac86-26875678b81b","ios":"levelo://app?vid=6f387a41-1a28-4619-ac86-26875678b81b"},"vehicle_type_id":"4","last_reported":1726503068,"current_range_meters":26000,"station_id":"ce4bhpp2rcd13ifvqhfg","pricing_plan_id":"cebpf4jnsgd1na2vs0mg"},{"bike_id":"38491c9e-05ec-4ea6-9c2c-20509d7f0762","system_id":"levelo_inurba_marseille","lat":43.28274,"lon":5.35069,"is_reserved":false,"is_disabled":false,"rental_uris":{"android":"levelo://app?vid=38491c9e-05ec-4ea6-9c2c-20509d7f0762","ios":"levelo://app?vid=38491c9e-05ec-4ea6-9c2c-20509d7f0762"},"vehicle_type_id":"4","last_reported":1726503068,"current_range_meters":20000,"station_id":"ce4bhbp2rcd13ifvqerg","pricing_plan_id":"cebpf4jnsgd1na2vs0mg"},{"bike_id":"c9e210bb-e6cf-47e1-aad5-5e294dc08567","system_id":"levelo_inurba_marseille","lat":43.31329,"lon":5.39688,"is_reserved":false,"is_disabled":false,"rental_uris":{"android":"levelo://app?vid=c9e210bb-e6cf-47e1-aad5-5e294dc08567","ios":"levelo://app?vid=c9e210bb-e6cf-47e1-aad5-5e294dc08567"},"vehicle_type_id":"4","last_reported":1726503068,"current_range_meters":8800,"station_id":"ce4bgvp2rcd13ifvqcu0","pricing_plan_id":"cebpf4jnsgd1na2vs0mg"},{"bike_id":"ad093f14-94c4-45e4-af70-27bfae24cc4d","system_id":"levelo_inurba_marseille","lat":43.25455,"lon":5.378416,"is_reserved":false,"is_disabled":false,"rental_uris":{"android":"levelo://app?vid=ad093f14-94c4-45e4-af70-27bfae24cc4d","ios":"levelo://app?vid=ad093f14-94c4-45e4-af70-27bfae24cc4d"},"vehicle_type_id":"4","last_reported":1726503068,"current_range_meters":17200,"station_id":"ce4bhh12rcd13ifvqff0","pricing_plan_id":"cebpf4jnsgd1na2vs0mg"},{"bike_id":"e93e1cb6-a36e-4315-8456-f6e6c1a0dfab","system_id":"levelo_inurba_marseille","lat":43.285442,"lon":5.384266,"is_reserved":false,"is_disabled":false,"rental_uris":{"android":"levelo://app?vid=e93e1cb6-a36e-4315-8456-f6e6c1a0dfab","ios":"levelo://app?vid=e93e1cb6-a36e-4315-8456-f6e6c1a0dfab"},"vehicle_type_id":"4","last_reported":1726503068,"current_range_meters":17200,"station_id":"ce4bh512rcd13ifvqe3g","pricing_plan_id":"cebpf4jnsgd1na2vs0mg"},{"bike_id":"d0aab10e-aefe-49c0-9d2e-929aef270b6b","system_id":"levelo_inurba_marseille","lat":43.27811,"lon":5.40709,"is_reserved":false,"is_disabled":false,"rental_uris":{"android":"levelo://app?vid=d0aab10e-aefe-49c0-9d2e-929aef270b6b","ios":"levelo://app?vid=d0aab10e-aefe-49c0-9d2e-929aef270b6b"},"vehicle_type_id":"4","last_reported":1726503068,"current_range_meters":22000,"station_id":"ce4bhnh2rcd13ifvqgtg","pricing_plan_id":"cebpf4jnsgd1na2vs0mg"},{"bike_id":"4c4fe899-3d8b-4d44-9c29-46083527c6e6","system_id":"levelo_inurba_marseille","lat":43.26206,"lon":5.3744,"is_reserved":false,"is_disabled":false,"rental_uris":{"android":"levelo://app?vid=4c4fe899-3d8b-4d44-9c29-46083527c6e6","ios":"levelo://app?vid=4c4fe899-3d8b-4d44-9c29-46083527c6e6"},"vehicle_type_id":"4","last_reported":1726503068,"current_range_meters":16000,"station_id":"ce4bhgp2rcd13ifvqfc0","pricing_plan_id":"cebpf4jnsgd1na2vs0mg"},{"bike_id":"fab9d901-ef76-4cac-8183-93e7117090d0","system_id":"levelo_inurba_marseille","lat":43.281769,"lon":5.395466,"is_reserved":false,"is_disabled":false,"rental_uris":{"android":"levelo://app?vid=fab9d901-ef76-4cac-8183-93e7117090d0","ios":"levelo://app?vid=fab9d901-ef76-4cac-8183-93e7117090d0"},"vehicle_type_id":"4","last_reported":1726503068,"current_range_meters":18800,"station_id":"ce4bho12rcd13ifvqh2g","pricing_plan_id":"cebpf4jnsgd1na2vs0mg"},{"bike_id":"7268fe16-ff53-463a-b9ea-8184844da824","system_id":"levelo_inurba_marseille","lat":43.28699,"lon":5.39989,"is_reserved":false,"is_disabled":false,"rental_uris":{"android":"levelo://app?vid=7268fe16-ff53-463a-b9ea-8184844da824","ios":"levelo://app?vid=7268fe16-ff53-463a-b9ea-8184844da824"},"vehicle_type_id":"4","last_reported":1726503068,"current_range_meters":24400,"station_id":"ce4bho92rcd13ifvqh3g","pricing_plan_id":"cebpf4jnsgd1na2vs0mg"},{"bike_id":"3d169f43-ddd7-44ed-8274-652b57b3afbd","system_id":"levelo_inurba_marseille","lat":43.26208,"lon":5.37444,"is_reserved":false,"is_disabled":false,"rental_uris":{"android":"levelo://app?vid=3d169f43-ddd7-44ed-8274-652b57b3afbd","ios":"levelo://app?vid=3d169f43-ddd7-44ed-8274-652b57b3afbd"},"vehicle_type_id":"4","last_reported":1726503068,"current_range_meters":22400,"station_id":"ce4bhgp2rcd13ifvqfc0","pricing_plan_id":"cebpf4jnsgd1na2vs0mg"},{"bike_id":"9106ddff-5120-4c4f-8185-d2759a87beea","system_id":"levelo_inurba_marseille","lat":43.3236,"lon":5.38884,"is_reserved":false,"is_disabled":false,"rental_uris":{"android":"levelo://app?vid=9106ddff-5120-4c4f-8185-d2759a87beea","ios":"levelo://app?vid=9106ddff-5120-4c4f-8185-d2759a87beea"},"vehicle_type_id":"4","last_reported":1726503068,"current_range_meters":17200,"station_id":"ce4bhqp2rcd13ifvqhog","pricing_plan_id":"cebpf4jnsgd1na2vs0mg"},{"bike_id":"ca176481-45ca-4421-af0b-50c7416cb2f9","system_id":"levelo_inurba_marseille","lat":43.31168,"lon":5.38716,"is_reserved":false,"is_disabled":false,"rental_uris":{"android":"levelo://app?vid=ca176481-45ca-4421-af0b-50c7416cb2f9","ios":"levelo://app?vid=ca176481-45ca-4421-af0b-50c7416cb2f9"},"vehicle_type_id":"4","last_reported":1726503068,"current_range_meters":16800,"station_id":"ce4bgv12rcd13ifvqcp0","pricing_plan_id":"cebpf4jnsgd1na2vs0mg"},{"bike_id":"848fef6b-53c0-4604-b391-44e87cb591ed","system_id":"levelo_inurba_marseille","lat":43.29093,"lon":5.38151,"is_reserved":false,"is_disabled":false,"rental_uris":{"android":"levelo://app?vid=848fef6b-53c0-4604-b391-44e87cb591ed","ios":"levelo://app?vid=848fef6b-53c0-4604-b391-44e87cb591ed"},"vehicle_type_id":"4","last_reported":1726503068,"current_range_meters":36800,"station_id":"ce4bh512rcd13ifvqe2g","pricing_plan_id":"cebpf4jnsgd1na2vs0mg"},{"bike_id":"fccccb4f-d4e8-48f7-b5dd-c21ffbe0ef1f","system_id":"levelo_inurba_marseille","lat":43.31306,"lon":5.38511,"is_reserved":false,"is_disabled":false,"rental_uris":{"android":"levelo://app?vid=fccccb4f-d4e8-48f7-b5dd-c21ffbe0ef1f","ios":"levelo://app?vid=fccccb4f-d4e8-48f7-b5dd-c21ffbe0ef1f"},"vehicle_type_id":"4","last_reported":1726503068,"current_range_meters":7200,"station_id":"","pricing_plan_id":"cebpf4jnsgd1na2vs0mg"},{"bike_id":"8d40eef0-4f87-47ff-ab8b-066c449398f3","system_id":"levelo_inurba_marseille","lat":43.25497,"lon":5.37646,"is_reserved":false,"is_disabled":false,"rental_uris":{"android":"levelo://app?vid=8d40eef0-4f87-47ff-ab8b-066c449398f3","ios":"levelo://app?vid=8d40eef0-4f87-47ff-ab8b-066c449398f3"},"vehicle_type_id":"4","last_reported":1726503068,"current_range_meters":12400,"station_id":"ce4bhh12rcd13ifvqff0","pricing_plan_id":"cebpf4jnsgd1na2vs0mg"},{"bike_id":"63b3292c-fdfc-47f6-901a-5d38dd642a88","system_id":"levelo_inurba_marseille","lat":43.31131,"lon":5.39329,"is_reserved":false,"is_disabled":false,"rental_uris":{"android":"levelo://app?vid=63b3292c-fdfc-47f6-901a-5d38dd642a88","ios":"levelo://app?vid=63b3292c-fdfc-47f6-901a-5d38dd642a88"},"vehicle_type_id":"4","last_reported":1726503068,"current_range_meters":8800,"station_id":"","pricing_plan_id":"cebpf4jnsgd1na2vs0mg"},{"bike_id":"a8c1451c-3d1e-4d1e-9ca3-b56cf3c3fff0","system_id":"levelo_inurba_marseille","lat":43.29007,"lon":5.35617,"is_reserved":false,"is_disabled":false,"rental_uris":{"android":"levelo://app?vid=a8c1451c-3d1e-4d1e-9ca3-b56cf3c3fff0","ios":"levelo://app?vid=a8c1451c-3d1e-4d1e-9ca3-b56cf3c3fff0"},"vehicle_type_id":"4","last_reported":1726503068,"current_range_meters":20800,"station_id":"ce4bhb92rcd13ifvqen0","pricing_plan_id":"cebpf4jnsgd1na2vs0mg"},{"bike_id":"b2632583-532a-4e7e-8f55-eb94f14bcde1","system_id":"levelo_inurba_marseille","lat":43.249298,"lon":5.396546,"is_reserved":false,"is_disabled":false,"rental_uris":{"android":"levelo://app?vid=b2632583-532a-4e7e-8f55-eb94f14bcde1","ios":"levelo://app?vid=b2632583-532a-4e7e-8f55-eb94f14bcde1"},"vehicle_type_id":"4","last_reported":1726503068,"current_range_meters":27600,"station_id":"ce4bhm12rcd13ifvqgkg","pricing_plan_id":"cebpf4jnsgd1na2vs0mg"},{"bike_id":"88cd9fe1-bde2-4caf-8553-4a39bc08df72","system_id":"levelo_inurba_marseille","lat":43.30416,"lon":5.41279,"is_reserved":false,"is_disabled":false,"rental_uris":{"android":"levelo://app?vid=88cd9fe1-bde2-4caf-8553-4a39bc08df72","ios":"levelo://app?vid=88cd9fe1-bde2-4caf-8553-4a39bc08df72"},"vehicle_type_id":"4","last_reported":1726503068,"current_range_meters":20000,"station_id":"ce4bhop2rcd13ifvqh8g","pricing_plan_id":"cebpf4jnsgd1na2vs0mg"},{"bike_id":"7eac1c89-72c8-445b-9da1-775d3c553742","system_id":"levelo_inurba_marseille","lat":43.28709,"lon":5.39983,"is_reserved":false,"is_disabled":false,"rental_uris":{"android":"levelo://app?vid=7eac1c89-72c8-445b-9da1-775d3c553742","ios":"levelo://app?vid=7eac1c89-72c8-445b-9da1-775d3c553742"},"vehicle_type_id":"4","last_reported":1726503068,"current_range_meters":39200,"station_id":"ce4bho92rcd13ifvqh3g","pricing_plan_id":"cebpf4jnsgd1na2vs0mg"},{"bike_id":"db865793-aa7c-4f02-a065-6a457f5ad6dc","system_id":"levelo_inurba_marseille","lat":43.30084,"lon":5.36511,"is_reserved":false,"is_disabled":false,"rental_uris":{"android":"levelo://app?vid=db865793-aa7c-4f02-a065-6a457f5ad6dc","ios":"levelo://app?vid=db865793-aa7c-4f02-a065-6a457f5ad6dc"},"vehicle_type_id":"4","last_reported":1726503068,"current_range_meters":3600,"station_id":"","pricing_plan_id":"cebpf4jnsgd1na2vs0mg"},{"bike_id":"a4ea0f16-8715-4942-a53e-3548cee4e1f9","system_id":"levelo_inurba_marseille","lat":43.311676,"lon":5.3871,"is_reserved":false,"is_disabled":false,"rental_uris":{"android":"levelo://app?vid=a4ea0f16-8715-4942-a53e-3548cee4e1f9","ios":"levelo://app?vid=a4ea0f16-8715-4942-a53e-3548cee4e1f9"},"vehicle_type_id":"4","last_reported":1726503068,"current_range_meters":24400,"station_id":"ce4bgv12rcd13ifvqcp0","pricing_plan_id":"cebpf4jnsgd1na2vs0mg"},{"bike_id":"30ab68ab-c844-400b-978c-21dda1676afb","system_id":"levelo_inurba_marseille","lat":43.259521,"lon":5.375491,"is_reserved":false,"is_disabled":false,"rental_uris":{"android":"levelo://app?vid=30ab68ab-c844-400b-978c-21dda1676afb","ios":"levelo://app?vid=30ab68ab-c844-400b-978c-21dda1676afb"},"vehicle_type_id":"4","last_reported":1726503068,"current_range_meters":12000,"station_id":"ce4bhgh2rcd13ifvqfa0","pricing_plan_id":"cebpf4jnsgd1na2vs0mg"},{"bike_id":"4f9f0310-42e8-41b4-8f4e-00290fd29c17","system_id":"levelo_inurba_marseille","lat":43.306431,"lon":5.401726,"is_reserved":false,"is_disabled":false,"rental_uris":{"android":"levelo://app?vid=4f9f0310-42e8-41b4-8f4e-00290fd29c17","ios":"levelo://app?vid=4f9f0310-42e8-41b4-8f4e-00290fd29c17"},"vehicle_type_id":"4","last_reported":1726503068,"current_range_meters":39200,"station_id":"ce4bh112rcd13ifvqda0","pricing_plan_id":"cebpf4jnsgd1na2vs0mg"},{"bike_id":"b9861e62-b31c-4cb4-9f1c-caac7022a220","system_id":"levelo_inurba_marseille","lat":43.28084,"lon":5.39656,"is_reserved":false,"is_disabled":false,"rental_uris":{"android":"levelo://app?vid=b9861e62-b31c-4cb4-9f1c-caac7022a220","ios":"levelo://app?vid=b9861e62-b31c-4cb4-9f1c-caac7022a220"},"vehicle_type_id":"4","last_reported":1726503068,"current_range_meters":3200,"station_id":"ce4bho12rcd13ifvqh2g","pricing_plan_id":"cebpf4jnsgd1na2vs0mg"},{"bike_id":"346451ee-1f0d-4a1f-908d-db78b5735330","system_id":"levelo_inurba_marseille","lat":43.31127,"lon":5.37986,"is_reserved":false,"is_disabled":false,"rental_uris":{"android":"levelo://app?vid=346451ee-1f0d-4a1f-908d-db78b5735330","ios":"levelo://app?vid=346451ee-1f0d-4a1f-908d-db78b5735330"},"vehicle_type_id":"4","last_reported":1726503068,"current_range_meters":19600,"station_id":"","pricing_plan_id":"cebpf4jnsgd1na2vs0mg"},{"bike_id":"6aff9543-3a49-4a8c-9b1e-93256241d09c","system_id":"levelo_inurba_marseille","lat":43.28983,"lon":5.37836,"is_reserved":false,"is_disabled":false,"rental_uris":{"android":"levelo://app?vid=6aff9543-3a49-4a8c-9b1e-93256241d09c","ios":"levelo://app?vid=6aff9543-3a49-4a8c-9b1e-93256241d09c"},"vehicle_type_id":"4","last_reported":1726503068,"current_range_meters":21600,"station_id":"ce4bh9p2rcd13ifvqed0","pricing_plan_id":"cebpf4jnsgd1na2vs0mg"},{"bike_id":"cb099bab-0276-4e13-a892-52e8db8c77b2","system_id":"levelo_inurba_marseille","lat":43.2651,"lon":5.40867,"is_reserved":false,"is_disabled":false,"rental_uris":{"android":"levelo://app?vid=cb099bab-0276-4e13-a892-52e8db8c77b2","ios":"levelo://app?vid=cb099bab-0276-4e13-a892-52e8db8c77b2"},"vehicle_type_id":"4","last_reported":1726503068,"current_range_meters":2800,"station_id":"","pricing_plan_id":"cebpf4jnsgd1na2vs0mg"},{"bike_id":"5bb1d010-0238-448f-a470-fc44e8685316","system_id":"levelo_inurba_marseille","lat":43.23193,"lon":5.35543,"is_reserved":false,"is_disabled":false,"rental_uris":{"android":"levelo://app?vid=5bb1d010-0238-448f-a470-fc44e8685316","ios":"levelo://app?vid=5bb1d010-0238-448f-a470-fc44e8685316"},"vehicle_type_id":"4","last_reported":1726503068,"current_range_meters":38400,"station_id":"ce4bhu92rcd13ifvqi70","pricing_plan_id":"cebpf4jnsgd1na2vs0mg"},{"bike_id":"048bcd26-287c-4ed5-b6e9-140c12a3b56b","system_id":"levelo_inurba_marseille","lat":43.24548,"lon":5.39519,"is_reserved":false,"is_disabled":false,"rental_uris":{"android":"levelo://app?vid=048bcd26-287c-4ed5-b6e9-140c12a3b56b","ios":"levelo://app?vid=048bcd26-287c-4ed5-b6e9-140c12a3b56b"},"vehicle_type_id":"4","last_reported":1726503068,"current_range_meters":34800,"station_id":"ce4bhlp2rcd13ifvqgjg","pricing_plan_id":"cebpf4jnsgd1na2vs0mg"},{"bike_id":"71844cd8-ee25-4e5c-a99d-0a9360171adf","system_id":"levelo_inurba_marseille","lat":43.254991,"lon":5.376517,"is_reserved":false,"is_disabled":false,"rental_uris":{"android":"levelo://app?vid=71844cd8-ee25-4e5c-a99d-0a9360171adf","ios":"levelo://app?vid=71844cd8-ee25-4e5c-a99d-0a9360171adf"},"vehicle_type_id":"4","last_reported":1726503068,"current_range_meters":10000,"station_id":"ce4bhh12rcd13ifvqff0","pricing_plan_id":"cebpf4jnsgd1na2vs0mg"},{"bike_id":"2695187f-db0d-45ee-98c0-5f0d58be21b5","system_id":"levelo_inurba_marseille","lat":43.2926,"lon":5.38441,"is_reserved":false,"is_disabled":false,"rental_uris":{"android":"levelo://app?vid=2695187f-db0d-45ee-98c0-5f0d58be21b5","ios":"levelo://app?vid=2695187f-db0d-45ee-98c0-5f0d58be21b5"},"vehicle_type_id":"4","last_reported":1726503068,"current_range_meters":6000,"station_id":"ce4bh692rcd13ifvqea0","pricing_plan_id":"cebpf4jnsgd1na2vs0mg"},{"bike_id":"0cdd0166-f855-4405-9e2f-faa0a23720b7","system_id":"levelo_inurba_marseille","lat":43.30416,"lon":5.41282,"is_reserved":false,"is_disabled":false,"rental_uris":{"android":"levelo://app?vid=0cdd0166-f855-4405-9e2f-faa0a23720b7","ios":"levelo://app?vid=0cdd0166-f855-4405-9e2f-faa0a23720b7"},"vehicle_type_id":"4","last_reported":1726503068,"current_range_meters":24000,"station_id":"ce4bhop2rcd13ifvqh8g","pricing_plan_id":"cebpf4jnsgd1na2vs0mg"},{"bike_id":"b0420d04-0686-49a6-baf7-07cce9d5457f","system_id":"levelo_inurba_marseille","lat":43.28429,"lon":5.34993,"is_reserved":false,"is_disabled":false,"rental_uris":{"android":"levelo://app?vid=b0420d04-0686-49a6-baf7-07cce9d5457f","ios":"levelo://app?vid=b0420d04-0686-49a6-baf7-07cce9d5457f"},"vehicle_type_id":"4","last_reported":1726503068,"current_range_meters":39200,"station_id":"ce4bhbh2rcd13ifvqepg","pricing_plan_id":"cebpf4jnsgd1na2vs0mg"},{"bike_id":"c0fca32a-25ec-42ac-a9ed-0ac813eb874c","system_id":"levelo_inurba_marseille","lat":43.29786,"lon":5.38114,"is_reserved":false,"is_disabled":false,"rental_uris":{"android":"levelo://app?vid=c0fca32a-25ec-42ac-a9ed-0ac813eb874c","ios":"levelo://app?vid=c0fca32a-25ec-42ac-a9ed-0ac813eb874c"},"vehicle_type_id":"4","last_reported":1726503068,"current_range_meters":34000,"station_id":"ce4bgip2rcd13ifvqbb0","pricing_plan_id":"cebpf4jnsgd1na2vs0mg"},{"bike_id":"c2e5d5ee-484b-42d2-97bb-30fd992faf4b","system_id":"levelo_inurba_marseille","lat":43.23193,"lon":5.35546,"is_reserved":false,"is_disabled":false,"rental_uris":{"android":"levelo://app?vid=c2e5d5ee-484b-42d2-97bb-30fd992faf4b","ios":"levelo://app?vid=c2e5d5ee-484b-42d2-97bb-30fd992faf4b"},"vehicle_type_id":"4","last_reported":1726503068,"current_range_meters":16800,"station_id":"ce4bhu92rcd13ifvqi70","pricing_plan_id":"cebpf4jnsgd1na2vs0mg"},{"bike_id":"55c32bc7-f6a3-4d5e-ad55-6cd1f14fa0ca","system_id":"levelo_inurba_marseille","lat":43.28853,"lon":5.35825,"is_reserved":false,"is_disabled":false,"rental_uris":{"android":"levelo://app?vid=55c32bc7-f6a3-4d5e-ad55-6cd1f14fa0ca","ios":"levelo://app?vid=55c32bc7-f6a3-4d5e-ad55-6cd1f14fa0ca"},"vehicle_type_id":"4","last_reported":1726503068,"current_range_meters":17200,"station_id":"ce4bhb12rcd13ifvqem0","pricing_plan_id":"cebpf4jnsgd1na2vs0mg"},{"bike_id":"bde420c4-eba4-4783-8b4e-97236a1b761f","system_id":"levelo_inurba_marseille","lat":43.29632,"lon":5.40597,"is_reserved":false,"is_disabled":false,"rental_uris":{"android":"levelo://app?vid=bde420c4-eba4-4783-8b4e-97236a1b761f","ios":"levelo://app?vid=bde420c4-eba4-4783-8b4e-97236a1b761f"},"vehicle_type_id":"4","last_reported":1726503068,"current_range_meters":34000,"station_id":"ce4bh0h2rcd13ifvqd60","pricing_plan_id":"cebpf4jnsgd1na2vs0mg"},{"bike_id":"a1c44570-4c5e-41e3-a360-3cb075a91a9f","system_id":"levelo_inurba_marseille","lat":43.28699,"lon":5.39977,"is_reserved":false,"is_disabled":false,"rental_uris":{"android":"levelo://app?vid=a1c44570-4c5e-41e3-a360-3cb075a91a9f","ios":"levelo://app?vid=a1c44570-4c5e-41e3-a360-3cb075a91a9f"},"vehicle_type_id":"4","last_reported":1726503068,"current_range_meters":16800,"station_id":"ce4bho92rcd13ifvqh3g","pricing_plan_id":"cebpf4jnsgd1na2vs0mg"},{"bike_id":"eea4848f-2a34-495e-b357-0c73ddb968ab","system_id":"levelo_inurba_marseille","lat":43.32335,"lon":5.4062,"is_reserved":false,"is_disabled":false,"rental_uris":{"android":"levelo://app?vid=eea4848f-2a34-495e-b357-0c73ddb968ab","ios":"levelo://app?vid=eea4848f-2a34-495e-b357-0c73ddb968ab"},"vehicle_type_id":"4","last_reported":1726503068,"current_range_meters":34000,"station_id":"ce4bhq92rcd13ifvqhjg","pricing_plan_id":"cebpf4jnsgd1na2vs0mg"},{"bike_id":"65a4ccd0-2f7c-4899-b31b-c7c5f032daeb","system_id":"levelo_inurba_marseille","lat":43.23188,"lon":5.35552,"is_reserved":false,"is_disabled":false,"rental_uris":{"android":"levelo://app?vid=65a4ccd0-2f7c-4899-b31b-c7c5f032daeb","ios":"levelo://app?vid=65a4ccd0-2f7c-4899-b31b-c7c5f032daeb"},"vehicle_type_id":"4","last_reported":1726503068,"current_range_meters":35200,"station_id":"ce4bhu92rcd13ifvqi70","pricing_plan_id":"cebpf4jnsgd1na2vs0mg"},{"bike_id":"58bb47e7-a25e-4100-9b2f-c3ccf27915d2","system_id":"levelo_inurba_marseille","lat":43.30926,"lon":5.40141,"is_reserved":false,"is_disabled":false,"rental_uris":{"android":"levelo://app?vid=58bb47e7-a25e-4100-9b2f-c3ccf27915d2","ios":"levelo://app?vid=58bb47e7-a25e-4100-9b2f-c3ccf27915d2"},"vehicle_type_id":"4","last_reported":1726503068,"current_range_meters":38000,"station_id":"ce4bgvp2rcd13ifvqct0","pricing_plan_id":"cebpf4jnsgd1na2vs0mg"},{"bike_id":"30f84d0f-41bc-401d-bc15-69ee9134ee4d","system_id":"levelo_inurba_marseille","lat":43.28473,"lon":5.38411,"is_reserved":false,"is_disabled":false,"rental_uris":{"android":"levelo://app?vid=30f84d0f-41bc-401d-bc15-69ee9134ee4d","ios":"levelo://app?vid=30f84d0f-41bc-401d-bc15-69ee9134ee4d"},"vehicle_type_id":"4","last_reported":1726503068,"current_range_meters":38000,"station_id":"ce4bh512rcd13ifvqe3g","pricing_plan_id":"cebpf4jnsgd1na2vs0mg"},{"bike_id":"ec10b7c1-83fb-4c89-8439-3b56a276f7f0","system_id":"levelo_inurba_marseille","lat":43.27813,"lon":5.40711,"is_reserved":false,"is_disabled":false,"rental_uris":{"android":"levelo://app?vid=ec10b7c1-83fb-4c89-8439-3b56a276f7f0","ios":"levelo://app?vid=ec10b7c1-83fb-4c89-8439-3b56a276f7f0"},"vehicle_type_id":"4","last_reported":1726503068,"current_range_meters":11600,"station_id":"ce4bhnh2rcd13ifvqgtg","pricing_plan_id":"cebpf4jnsgd1na2vs0mg"},{"bike_id":"9bfdb6ad-6413-486c-91bb-7c4ece303b4c","system_id":"levelo_inurba_marseille","lat":43.30641,"lon":5.40075,"is_reserved":false,"is_disabled":false,"rental_uris":{"android":"levelo://app?vid=9bfdb6ad-6413-486c-91bb-7c4ece303b4c","ios":"levelo://app?vid=9bfdb6ad-6413-486c-91bb-7c4ece303b4c"},"vehicle_type_id":"4","last_reported":1726503068,"current_range_meters":38800,"station_id":"ce4bh112rcd13ifvqda0","pricing_plan_id":"cebpf4jnsgd1na2vs0mg"},{"bike_id":"cb54841a-aaa4-45cc-99bc-f3689c50b10f","system_id":"levelo_inurba_marseille","lat":43.24383,"lon":5.37055,"is_reserved":false,"is_disabled":false,"rental_uris":{"android":"levelo://app?vid=cb54841a-aaa4-45cc-99bc-f3689c50b10f","ios":"levelo://app?vid=cb54841a-aaa4-45cc-99bc-f3689c50b10f"},"vehicle_type_id":"4","last_reported":1726503068,"current_range_meters":28800,"station_id":"ce4bhhh2rcd13ifvqfk0","pricing_plan_id":"cebpf4jnsgd1na2vs0mg"},{"bike_id":"12daf506-b09c-4882-9671-776c9ece87e1","system_id":"levelo_inurba_marseille","lat":43.28266,"lon":5.35064,"is_reserved":false,"is_disabled":false,"rental_uris":{"android":"levelo://app?vid=12daf506-b09c-4882-9671-776c9ece87e1","ios":"levelo://app?vid=12daf506-b09c-4882-9671-776c9ece87e1"},"vehicle_type_id":"4","last_reported":1726503068,"current_range_meters":12400,"station_id":"ce4bhbp2rcd13ifvqerg","pricing_plan_id":"cebpf4jnsgd1na2vs0mg"},{"bike_id":"c91bfe6f-0d49-4dbc-be4a-db9d5c1ac9db","system_id":"levelo_inurba_marseille","lat":43.292634,"lon":5.409116,"is_reserved":false,"is_disabled":false,"rental_uris":{"android":"levelo://app?vid=c91bfe6f-0d49-4dbc-be4a-db9d5c1ac9db","ios":"levelo://app?vid=c91bfe6f-0d49-4dbc-be4a-db9d5c1ac9db"},"vehicle_type_id":"4","last_reported":1726503068,"current_range_meters":16000,"station_id":"ce4bh192rcd13ifvqdc0","pricing_plan_id":"cebpf4jnsgd1na2vs0mg"},{"bike_id":"cbeff3b1-948c-4445-9010-aa2b92546369","system_id":"levelo_inurba_marseille","lat":43.292572,"lon":5.409129,"is_reserved":false,"is_disabled":false,"rental_uris":{"android":"levelo://app?vid=cbeff3b1-948c-4445-9010-aa2b92546369","ios":"levelo://app?vid=cbeff3b1-948c-4445-9010-aa2b92546369"},"vehicle_type_id":"4","last_reported":1726503068,"current_range_meters":24800,"station_id":"ce4bh192rcd13ifvqdc0","pricing_plan_id":"cebpf4jnsgd1na2vs0mg"},{"bike_id":"d91537ad-8942-4c6b-a1bb-ce3344861bb7","system_id":"levelo_inurba_marseille","lat":43.28151,"lon":5.4265,"is_reserved":false,"is_disabled":false,"rental_uris":{"android":"levelo://app?vid=d91537ad-8942-4c6b-a1bb-ce3344861bb7","ios":"levelo://app?vid=d91537ad-8942-4c6b-a1bb-ce3344861bb7"},"vehicle_type_id":"4","last_reported":1726503068,"current_range_meters":34000,"station_id":"ce4bhnh2rcd13ifvqgug","pricing_plan_id":"cebpf4jnsgd1na2vs0mg"},{"bike_id":"af1752d8-9427-4138-be18-463a583006e8","system_id":"levelo_inurba_marseille","lat":43.278067,"lon":5.40704,"is_reserved":false,"is_disabled":false,"rental_uris":{"android":"levelo://app?vid=af1752d8-9427-4138-be18-463a583006e8","ios":"levelo://app?vid=af1752d8-9427-4138-be18-463a583006e8"},"vehicle_type_id":"4","last_reported":1726503068,"current_range_meters":23200,"station_id":"ce4bhnh2rcd13ifvqgtg","pricing_plan_id":"cebpf4jnsgd1na2vs0mg"},{"bike_id":"7b124308-6caa-4eb7-b614-7a34de24a1b1","system_id":"levelo_inurba_marseille","lat":43.25493,"lon":5.37641,"is_reserved":false,"is_disabled":false,"rental_uris":{"android":"levelo://app?vid=7b124308-6caa-4eb7-b614-7a34de24a1b1","ios":"levelo://app?vid=7b124308-6caa-4eb7-b614-7a34de24a1b1"},"vehicle_type_id":"4","last_reported":1726503068,"current_range_meters":30000,"station_id":"ce4bhh12rcd13ifvqff0","pricing_plan_id":"cebpf4jnsgd1na2vs0mg"},{"bike_id":"7c6d32b9-0344-4bfc-bbb1-aaa50d9216bf","system_id":"levelo_inurba_marseille","lat":43.23189,"lon":5.3998,"is_reserved":false,"is_disabled":false,"rental_uris":{"android":"levelo://app?vid=7c6d32b9-0344-4bfc-bbb1-aaa50d9216bf","ios":"levelo://app?vid=7c6d32b9-0344-4bfc-bbb1-aaa50d9216bf"},"vehicle_type_id":"4","last_reported":1726503068,"current_range_meters":7200,"station_id":"ce4bhn12rcd13ifvqgqg","pricing_plan_id":"cebpf4jnsgd1na2vs0mg"},{"bike_id":"58b99689-67d9-42b9-b105-b2d400ae4a83","system_id":"levelo_inurba_marseille","lat":43.22937,"lon":5.35375,"is_reserved":false,"is_disabled":false,"rental_uris":{"android":"levelo://app?vid=58b99689-67d9-42b9-b105-b2d400ae4a83","ios":"levelo://app?vid=58b99689-67d9-42b9-b105-b2d400ae4a83"},"vehicle_type_id":"4","last_reported":1726503068,"current_range_meters":30800,"station_id":"cpo3532slgdg3j2ikp40","pricing_plan_id":"cebpf4jnsgd1na2vs0mg"},{"bike_id":"2e782189-cd06-4c53-832a-c0fc96cb19a2","system_id":"levelo_inurba_marseille","lat":43.28675,"lon":5.37719,"is_reserved":false,"is_disabled":false,"rental_uris":{"android":"levelo://app?vid=2e782189-cd06-4c53-832a-c0fc96cb19a2","ios":"levelo://app?vid=2e782189-cd06-4c53-832a-c0fc96cb19a2"},"vehicle_type_id":"4","last_reported":1726503068,"current_range_meters":8800,"station_id":"ce4bha12rcd13ifvqef0","pricing_plan_id":"cebpf4jnsgd1na2vs0mg"},{"bike_id":"3e1e598c-91cf-494c-8f2c-db8e46b830b7","system_id":"levelo_inurba_marseille","lat":43.30407,"lon":5.41292,"is_reserved":false,"is_disabled":false,"rental_uris":{"android":"levelo://app?vid=3e1e598c-91cf-494c-8f2c-db8e46b830b7","ios":"levelo://app?vid=3e1e598c-91cf-494c-8f2c-db8e46b830b7"},"vehicle_type_id":"4","last_reported":1726503068,"current_range_meters":9200,"station_id":"ce4bhop2rcd13ifvqh8g","pricing_plan_id":"cebpf4jnsgd1na2vs0mg"},{"bike_id":"e47b1fa8-1fad-4dcc-97e5-bc6b34f8fb07","system_id":"levelo_inurba_marseille","lat":43.28422,"lon":5.34976,"is_reserved":false,"is_disabled":false,"rental_uris":{"android":"levelo://app?vid=e47b1fa8-1fad-4dcc-97e5-bc6b34f8fb07","ios":"levelo://app?vid=e47b1fa8-1fad-4dcc-97e5-bc6b34f8fb07"},"vehicle_type_id":"4","last_reported":1726503068,"current_range_meters":12000,"station_id":"ce4bhbh2rcd13ifvqepg","pricing_plan_id":"cebpf4jnsgd1na2vs0mg"},{"bike_id":"512bef1d-a01c-438b-8fc6-2e7e89be4061","system_id":"levelo_inurba_marseille","lat":43.27368,"lon":5.36247,"is_reserved":false,"is_disabled":false,"rental_uris":{"android":"levelo://app?vid=512bef1d-a01c-438b-8fc6-2e7e89be4061","ios":"levelo://app?vid=512bef1d-a01c-438b-8fc6-2e7e89be4061"},"vehicle_type_id":"4","last_reported":1726503068,"current_range_meters":36800,"station_id":"ce4bhbh2rcd13ifvqeo0","pricing_plan_id":"cebpf4jnsgd1na2vs0mg"},{"bike_id":"36ac99db-ecbc-4ee8-b239-ef64ac120ce1","system_id":"levelo_inurba_marseille","lat":43.29903,"lon":5.43668,"is_reserved":false,"is_disabled":false,"rental_uris":{"android":"levelo://app?vid=36ac99db-ecbc-4ee8-b239-ef64ac120ce1","ios":"levelo://app?vid=36ac99db-ecbc-4ee8-b239-ef64ac120ce1"},"vehicle_type_id":"4","last_reported":1726503068,"current_range_meters":8400,"station_id":"ce4bhpp2rcd13ifvqhfg","pricing_plan_id":"cebpf4jnsgd1na2vs0mg"},{"bike_id":"79a1a6ca-e084-4d57-a21a-2231ead5d0e5","system_id":"levelo_inurba_marseille","lat":43.28684,"lon":5.39997,"is_reserved":false,"is_disabled":false,"rental_uris":{"android":"levelo://app?vid=79a1a6ca-e084-4d57-a21a-2231ead5d0e5","ios":"levelo://app?vid=79a1a6ca-e084-4d57-a21a-2231ead5d0e5"},"vehicle_type_id":"4","last_reported":1726503068,"current_range_meters":3200,"station_id":"ce4bho92rcd13ifvqh3g","pricing_plan_id":"cebpf4jnsgd1na2vs0mg"},{"bike_id":"9e6943a6-cea6-42e7-89b4-748226eb9e92","system_id":"levelo_inurba_marseille","lat":43.30929,"lon":5.40137,"is_reserved":false,"is_disabled":false,"rental_uris":{"android":"levelo://app?vid=9e6943a6-cea6-42e7-89b4-748226eb9e92","ios":"levelo://app?vid=9e6943a6-cea6-42e7-89b4-748226eb9e92"},"vehicle_type_id":"4","last_reported":1726503068,"current_range_meters":9600,"station_id":"ce4bgvp2rcd13ifvqct0","pricing_plan_id":"cebpf4jnsgd1na2vs0mg"},