{"last_updated":1731236789,"ttl":60,"version":"2.2","data":{"bikes":[{"bike_id":"dcd8b508-2c18-4839-ab68-7b52cc2d3fb7","system_id":"levelo_inurba_marseille","lat":43.2707,"lon":5.42274,"is_reserved":false,"is_disabled":false,"rental_uris":{"android":"levelo://app?vid=dcd8b508-2c18-4839-ab68-7b52cc2d3fb7","ios":"levelo://app?vid=dcd8b508-2c18-4839-ab68-7b52cc2d3fb7"},"vehicle_type_id":"4","last_reported":1731236789,"current_range_meters":30400,"station_id":"ce4bhk92rcd13ifvqgb0","pricing_plan_id":"cebpf4jnsgd1na2vs0mg"},{"bike_id":"e94e2327-9eaf-4d26-bd7f-903afa708be6","system_id":"levelo_inurba_marseille","lat":43.33724,"lon":5.39166,"is_reserved":false,"is_disabled":false,"rental_uris":{"android":"levelo://app?vid=e94e2327-9eaf-4d26-bd7f-903afa708be6","ios":"levelo://app?vid=e94e2327-9eaf-4d26-bd7f-903afa708be6"},"vehicle_type_id":"4","last_reported":1731236789,"current_range_meters":14800,"station_id":"ce4bhr92rcd13ifvqhsg","pricing_plan_id":"cebpf4jnsgd1na2vs0mg"},{"bike_id":"3f98d5bc-8cba-45da-9b18-d2bbd2d31032","system_id":"levelo_inurba_marseille","lat":43.29002,"lon":5.35613,"is_reserved":false,"is_disabled":false,"rental_uris":{"android":"levelo://app?vid=3f98d5bc-8cba-45da-9b18-d2bbd2d31032","ios":"levelo://app?vid=3f98d5bc-8cba-45da-9b18-d2bbd2d31032"},"vehicle_type_id":"4","last_reported":1731236789,"current_range_meters":14000,"station_id":"ce4bhb92rcd13ifvqen0","pricing_plan_id":"cebpf4jnsgd1na2vs0mg"},{"bike_id":"03b21e3c-734f-4951-bf01-23147218d4fc","system_id":"levelo_inurba_marseille","lat":43.2922,"lon":5.36053,"is_reserved":false,"is_disabled":false,"rental_uris":{"android":"levelo://app?vid=03b21e3c-734f-4951-bf01-23147218d4fc","ios":"levelo://app?vid=03b21e3c-734f-4951-bf01-23147218d4fc"},"vehicle_type_id":"4","last_reported":1731236789,"current_range_meters":9600,"station_id":"ce4bhbh2rcd13ifvqeqg","pricing_plan_id":"cebpf4jnsgd1na2vs0mg"},{"bike_id":"4d807e1d-e928-4f4e-a3d6-537ea1b965f5","system_id":"levelo_inurba_marseille","lat":43.27373,"lon":5.36255,"is_reserved":false,"is_disabled":false,"rental_uris":{"android":"levelo://app?vid=4d807e1d-e928-4f4e-a3d6-537ea1b965f5","ios":"levelo://app?vid=4d807e1d-e928-4f4e-a3d6-537ea1b965f5"},"vehicle_type_id":"4","last_reported":1731236789,"current_range_meters":38800,"station_id":"ce4bhbh2rcd13ifvqeo0","pricing_plan_id":"cebpf4jnsgd1na2vs0mg"},{"bike_id":"8d618ad3-e42f-4b7f-961b-1ad00e2aa17c","system_id":"levelo_inurba_marseille","lat":43.24996,"lon":5.38924,"is_reserved":false,"is_disabled":false,"rental_uris":{"android":"levelo://app?vid=8d618ad3-e42f-4b7f-961b-1ad00e2aa17c","ios":"levelo://app?vid=8d618ad3-e42f-4b7f-961b-1ad00e2aa17c"},"vehicle_type_id":"4","last_reported":1731236789,"current_range_meters":37600,"station_id":"ce4bhgp2rcd13ifvqfd0","pricing_plan_id":"cebpf4jnsgd1na2vs0mg"},{"bike_id":"68bb9078-c705-4e4c-81de-7ae7c7d86c43","system_id":"levelo_inurba_marseille","lat":43.31698,"lon":5.37782,"is_reserved":false,"is_disabled":false,"rental_uris":{"android":"levelo://app?vid=68bb9078-c705-4e4c-81de-7ae7c7d86c43","ios":"levelo://app?vid=68bb9078-c705-4e4c-81de-7ae7c7d86c43"},"vehicle_type_id":"4","last_reported":1731236789,"current_range_meters":24800,"station_id":"ce4bgth2rcd13ifvqch0","pricing_plan_id":"cebpf4jnsgd1na2vs0mg"},{"bike_id":"13ab4af8-a19b-4a6a-b34d-53f7a52a730f","system_id":"levelo_inurba_marseille","lat":43.29304,"lon":5.37174,"is_reserved":false,"is_disabled":false,"rental_uris":{"android":"levelo://app?vid=13ab4af8-a19b-4a6a-b34d-53f7a52a730f","ios":"levelo://app?vid=13ab4af8-a19b-4a6a-b34d-53f7a52a730f"},"vehicle_type_id":"4","last_reported":1731236789,"current_range_meters":36400,"station_id":"ce4bgh92rcd13ifvqb40","pricing_plan_id":"cebpf4jnsgd1na2vs0mg"},{"bike_id":"5daf7e81-adca-4c69-ac49-7439dac41928","system_id":"levelo_inurba_marseille","lat":43.29566,"lon":5.42328,"is_reserved":false,"is_disabled":false,"rental_uris":{"android":"levelo://app?vid=5daf7e81-adca-4c69-ac49-7439dac41928","ios":"levelo://app?vid=5daf7e81-adca-4c69-ac49-7439dac41928"},"vehicle_type_id":"4","last_reported":1731236789,"current_range_meters":40000,"station_id":"ce4bhph2rcd13ifvqhdg","pricing_plan_id":"cebpf4jnsgd1na2vs0mg"},{"bike_id":"650378b6-25c8-4aef-bb74-6953c5aa449e","system_id":"levelo_inurba_marseille","lat":43.28614,"lon":5.37055,"is_reserved":false,"is_disabled":false,"rental_uris":{"android":"levelo://app?vid=650378b6-25c8-4aef-bb74-6953c5aa449e","ios":"levelo://app?vid=650378b6-25c8-4aef-bb74-6953c5aa449e"},"vehicle_type_id":"4","last_reported":1731236789,"current_range_meters":38000,"station_id":"ce4bht12rcd13ifvqi60","pricing_plan_id":"cebpf4jnsgd1na2vs0mg"},{"bike_id":"bab7e8bf-3dd9-4ba8-ae9e-1d78dcf614a2","system_id":"levelo_inurba_marseille","lat":43.25091,"lon":5.3952,"is_reserved":false,"is_disabled":false,"rental_uris":{"android":"levelo://app?vid=bab7e8bf-3dd9-4ba8-ae9e-1d78dcf614a2","ios":"levelo://app?vid=bab7e8bf-3dd9-4ba8-ae9e-1d78dcf614a2"},"vehicle_type_id":"4","last_reported":1731236789,"current_range_meters":35600,"station_id":"ce4bhm12rcd13ifvqgkg","pricing_plan_id":"cebpf4jnsgd1na2vs0mg"},{"bike_id":"39d45009-c847-43d6-b7cb-7399cdf413c3","system_id":"levelo_inurba_marseille","lat":43.23183,"lon":5.39992,"is_reserved":false,"is_disabled":false,"rental_uris":{"android":"levelo://app?vid=39d45009-c847-43d6-b7cb-7399cdf413c3","ios":"levelo://app?vid=39d45009-c847-43d6-b7cb-7399cdf413c3"},"vehicle_type_id":"4","last_reported":1731236789,"current_range_meters":10800,"station_id":"ce4bhn12rcd13ifvqgqg","pricing_plan_id":"cebpf4jnsgd1na2vs0mg"},{"bike_id":"5cccc6b8-3cd4-4cfb-9407-f3b7533381b1","system_id":"levelo_inurba_marseille","lat":43.28943,"lon":5.3639,"is_reserved":false,"is_disabled":false,"rental_uris":{"android":"levelo://app?vid=5cccc6b8-3cd4-4cfb-9407-f3b7533381b1","ios":"levelo://app?vid=5cccc6b8-3cd4-4cfb-9407-f3b7533381b1"},"vehicle_type_id":"4","last_reported":1731236789,"current_range_meters":18000,"station_id":"ce4bhc92rcd13ifvqetg","pricing_plan_id":"cebpf4jnsgd1na2vs0mg"},{"bike_id":"a0a3d814-432b-4cf3-a992-62dd562ea743","system_id":"levelo_inurba_marseille","lat":43.29196,"lon":5.35789,"is_reserved":false,"is_disabled":false,"rental_uris":{"android":"levelo://app?vid=a0a3d814-432b-4cf3-a992-62dd562ea743","ios":"levelo://app?vid=a0a3d814-432b-4cf3-a992-62dd562ea743"},"vehicle_type_id":"4","last_reported":1731236789,"current_range_meters":8800,"station_id":"ce4bhb12rcd13ifvqel0","pricing_plan_id":"cebpf4jnsgd1na2vs0mg"},{"bike_id":"605308ae-e328-49e6-83af-5dad5f553481","system_id":"levelo_inurba_marseille","lat":43.23969,"lon":5.3663,"is_reserved":false,"is_disabled":false,"rental_uris":{"android":"levelo://app?vid=605308ae-e328-49e6-83af-5dad5f553481","ios":"levelo://app?vid=605308ae-e328-49e6-83af-5dad5f553481"},"vehicle_type_id":"4","last_reported":1731236789,"current_range_meters":30400,"station_id":"ce4bhi12rcd13ifvqfp0","pricing_plan_id":"cebpf4jnsgd1na2vs0mg"},{"bike_id":"9110cb2e-2e72-4bc3-9f77-b10b73b70273","system_id":"levelo_inurba_marseille","lat":43.26059,"lon":5.39396,"is_reserved":false,"is_disabled":false,"rental_uris":{"android":"levelo://app?vid=9110cb2e-2e72-4bc3-9f77-b10b73b70273","ios":"levelo://app?vid=9110cb2e-2e72-4bc3-9f77-b10b73b70273"},"vehicle_type_id":"4","last_reported":1731236789,"current_range_meters":24400,"station_id":"ce4bhh92rcd13ifvqfj0","pricing_plan_id":"cebpf4jnsgd1na2vs0mg"},{"bike_id":"30037827-8659-4cce-803b-88835fb3f6b5","system_id":"levelo_inurba_marseille","lat":43.25506,"lon":5.37647,"is_reserved":false,"is_disabled":false,"rental_uris":{"android":"levelo://app?vid=30037827-8659-4cce-803b-88835fb3f6b5","ios":"levelo://app?vid=30037827-8659-4cce-803b-88835fb3f6b5"},"vehicle_type_id":"4","last_reported":1731236789,"current_range_meters":40000,"station_id":"ce4bhh12rcd13ifvqff0","pricing_plan_id":"cebpf4jnsgd1na2vs0mg"},{"bike_id":"671ddd79-64b2-4ee0-a149-985f30b74ba0","system_id":"levelo_inurba_marseille","lat":43.30286,"lon":5.37692,"is_reserved":false,"is_disabled":false,"rental_uris":{"android":"levelo://app?vid=671ddd79-64b2-4ee0-a149-985f30b74ba0","ios":"levelo://app?vid=671ddd79-64b2-4ee0-a149-985f30b74ba0"},"vehicle_type_id":"4","last_reported":1731236789,"current_range_meters":39200,"station_id":"ce4bguh2rcd13ifvqcj0","pricing_plan_id":"cebpf4jnsgd1na2vs0mg"},{"bike_id":"eb280453-261a-4450-a2fd-1da204e75092","system_id":"levelo_inurba_marseille","lat":43.23152,"lon":5.43719,"is_reserved":false,"is_disabled":false,"rental_uris":{"android":"levelo://app?vid=eb280453-261a-4450-a2fd-1da204e75092","ios":"levelo://app?vid=eb280453-261a-4450-a2fd-1da204e75092"},"vehicle_type_id":"4","last_reported":1731236789,"current_range_meters":25200,"station_id":"ce4bhmp2rcd13ifvqgog","pricing_plan_id":"cebpf4jnsgd1na2vs0mg"},{"bike_id":"e235d3a0-d271-4a9b-8af9-d1794cadd606","system_id":"levelo_inurba_marseille","lat":43.26198,"lon":5.3792,"is_reserved":false,"is_disabled":false,"rental_uris":{"android":"levelo://app?vid=e235d3a0-d271-4a9b-8af9-d1794cadd606","ios":"levelo://app?vid=e235d3a0-d271-4a9b-8af9-d1794cadd606"},"vehicle_type_id":"4","last_reported":1731236789,"current_range_meters":39200,"station_id":"ce4bhjp2rcd13ifvqg90","pricing_plan_id":"cebpf4jnsgd1na2vs0mg"},{"bike_id":"3cafabef-e60c-40e7-b697-7cc5cd050660","system_id":"levelo_inurba_marseille","lat":43.29613,"lon":5.37725,"is_reserved":false,"is_disabled":false,"rental_uris":{"android":"levelo://app?vid=3cafabef-e60c-40e7-b697-7cc5cd050660","ios":"levelo://app?vid=3cafabef-e60c-40e7-b697-7cc5cd050660"},"vehicle_type_id":"4","last_reported":1731236789,"current_range_meters":38800,"station_id":"ce4bgi92rcd13ifvqb90","pricing_plan_id":"cebpf4jnsgd1na2vs0mg"},{"bike_id":"b9059161-bc2a-4853-8231-de961bd5f1e7","system_id":"levelo_inurba_marseille","lat":43.33721,"lon":5.39179,"is_reserved":false,"is_disabled":false,"rental_uris":{"android":"levelo://app?vid=b9059161-bc2a-4853-8231-de961bd5f1e7","ios":"levelo://app?vid=b9059161-bc2a-4853-8231-de961bd5f1e7"},"vehicle_type_id":"4","last_reported":1731236789,"current_range_meters":17600,"station_id":"ce4bhr92rcd13ifvqhsg","pricing_plan_id":"cebpf4jnsgd1na2vs0mg"},{"bike_id":"efe6c4ba-bf1f-4bf2-ae6f-3745875741a2","system_id":"levelo_inurba_marseille","lat":43.295197,"lon":5.374975,"is_reserved":false,"is_disabled":false,"rental_uris":{"android":"levelo://app?vid=efe6c4ba-bf1f-4bf2-ae6f-3745875741a2","ios":"levelo://app?vid=efe6c4ba-bf1f-4bf2-ae6f-3745875741a2"},"vehicle_type_id":"4","last_reported":1731236789,"current_range_meters":10000,"station_id":"ce4bgkp2rcd13ifvqbmg","pricing_plan_id":"cebpf4jnsgd1na2vs0mg"},{"bike_id":"9e00ae8d-b3a9-4d4b-a691-62debbf0e14c","system_id":"levelo_inurba_marseille","lat":43.23189,"lon":5.39993,"is_reserved":false,"is_disabled":false,"rental_uris":{"android":"levelo://app?vid=9e00ae8d-b3a9-4d4b-a691-62debbf0e14c","ios":"levelo://app?vid=9e00ae8d-b3a9-4d4b-a691-62debbf0e14c"},"vehicle_type_id":"4","last_reported":1731236789,"current_range_meters":37600,"station_id":"ce4bhn12rcd13ifvqgqg","pricing_plan_id":"cebpf4jnsgd1na2vs0mg"},{"bike_id":"6027106f-a998-41e8-b0e8-ca119a0cc741","system_id":"levelo_inurba_marseille","lat":43.29556,"lon":5.42283,"is_reserved":false,"is_disabled":false,"rental_uris":{"android":"levelo://app?vid=6027106f-a998-41e8-b0e8-ca119a0cc741","ios":"levelo://app?vid=6027106f-a998-41e8-b0e8-ca119a0cc741"},"vehicle_type_id":"4","last_reported":1731236789,"current_range_meters":38400,"station_id":"ce4bhph2rcd13ifvqhdg","pricing_plan_id":"cebpf4jnsgd1na2vs0mg"},{"bike_id":"df28867a-7898-4d84-b46a-935b1de07325","system_id":"levelo_inurba_marseille","lat":43.27209,"lon":5.39172,"is_reserved":false,"is_disabled":false,"rental_uris":{"android":"levelo://app?vid=df28867a-7898-4d84-b46a-935b1de07325","ios":"levelo://app?vid=df28867a-7898-4d84-b46a-935b1de07325"},"vehicle_type_id":"4","last_reported":1731236789,"current_range_meters":8400,"station_id":"ce4bhhp2rcd13ifvqfm0","pricing_plan_id":"cebpf4jnsgd1na2vs0mg"},{"bike_id":"c80baa79-96fd-45b6-9fa3-251975b73c8c","system_id":"levelo_inurba_marseille","lat":43.28156,"lon":5.4264,"is_reserved":false,"is_disabled":false,"rental_uris":{"android":"levelo://app?vid=c80baa79-96fd-45b6-9fa3-251975b73c8c","ios":"levelo://app?vid=c80baa79-96fd-45b6-9fa3-251975b73c8c"},"vehicle_type_id":"4","last_reported":1731236789,"current_range_meters":28400,"station_id":"ce4bhnh2rcd13ifvqgug","pricing_plan_id":"cebpf4jnsgd1na2vs0mg"},{"bike_id":"d1750fdf-23a9-4a94-bba6-da0251ac1ca0","system_id":"levelo_inurba_marseille","lat":43.27945,"lon":5.39544,"is_reserved":false,"is_disabled":false,"rental_uris":{"android":"levelo://app?vid=d1750fdf-23a9-4a94-bba6-da0251ac1ca0","ios":"levelo://app?vid=d1750fdf-23a9-4a94-bba6-da0251ac1ca0"},"vehicle_type_id":"4","last_reported":1731236789,"current_range_meters":3600,"station_id":"ce4bhf92rcd13ifvqf40","pricing_plan_id":"cebpf4jnsgd1na2vs0mg"},{"bike_id":"26e55983-f261-40b1-b1a0-30eef97145b0","system_id":"levelo_inurba_marseille","lat":43.25505,"lon":5.3765,"is_reserved":false,"is_disabled":false,"rental_uris":{"android":"levelo://app?vid=26e55983-f261-40b1-b1a0-30eef97145b0","ios":"levelo://app?vid=26e55983-f261-40b1-b1a0-30eef97145b0"},"vehicle_type_id":"4","last_reported":1731236789,"current_range_meters":18800,"station_id":"ce4bhh12rcd13ifvqff0","pricing_plan_id":"cebpf4jnsgd1na2vs0mg"},{"bike_id":"022a6c3f-2c40-4cbf-9753-f6fa44b0f843","system_id":"levelo_inurba_marseille","lat":43.31271,"lon":5.40166,"is_reserved":false,"is_disabled":false,"rental_uris":{"android":"levelo://app?vid=022a6c3f-2c40-4cbf-9753-f6fa44b0f843","ios":"levelo://app?vid=022a6c3f-2c40-4cbf-9753-f6fa44b0f843"},"vehicle_type_id":"4","last_reported":1731236789,"current_range_meters":36000,"station_id":"ce4bh092rcd13ifvqd30","pricing_plan_id":"cebpf4jnsgd1na2vs0mg"},{"bike_id":"b3853e53-117a-4f15-b4eb-8096528db125","system_id":"levelo_inurba_marseille","lat":43.26205,"lon":5.3793,"is_reserved":false,"is_disabled":false,"rental_uris":{"android":"levelo://app?vid=b3853e53-117a-4f15-b4eb-8096528db125","ios":"levelo://app?vid=b3853e53-117a-4f15-b4eb-8096528db125"},"vehicle_type_id":"4","last_reported":1731236789,"current_range_meters":37600,"station_id":"ce4bhjp2rcd13ifvqg90","pricing_plan_id":"cebpf4jnsgd1na2vs0mg"},{"bike_id":"c331eb1e-fd60-4b83-8a03-fe070fd9037d","system_id":"levelo_inurba_marseille","lat":43.27211,"lon":5.39175,"is_reserved":false,"is_disabled":false,"rental_uris":{"android":"levelo://app?vid=c331eb1e-fd60-4b83-8a03-fe070fd9037d","ios":"levelo://app?vid=c331eb1e-fd60-4b83-8a03-fe070fd9037d"},"vehicle_type_id":"4","last_reported":1731236789,"current_range_meters":27600,"station_id":"ce4bhhp2rcd13ifvqfm0","pricing_plan_id":"cebpf4jnsgd1na2vs0mg"},{"bike_id":"018cdcf7-93ec-4e24-8e3e-3f9d0d08d718","system_id":"levelo_inurba_marseille","lat":43.23967,"lon":5.3663,"is_reserved":false,"is_disabled":false,"rental_uris":{"android":"levelo://app?vid=018cdcf7-93ec-4e24-8e3e-3f9d0d08d718","ios":"levelo://app?vid=018cdcf7-93ec-4e24-8e3e-3f9d0d08d718"},"vehicle_type_id":"4","last_reported":1731236789,"current_range_meters":40000,"station_id":"ce4bhi12rcd13ifvqfp0","pricing_plan_id":"cebpf4jnsgd1na2vs0mg"},{"bike_id":"5474522c-ab23-48ff-8d4f-608ca8b7c65a","system_id":"levelo_inurba_marseille","lat":43.2826,"lon":5.35059,"is_reserved":false,"is_disabled":false,"rental_uris":{"android":"levelo://app?vid=5474522c-ab23-48ff-8d4f-608ca8b7c65a","ios":"levelo://app?vid=5474522c-ab23-48ff-8d4f-608ca8b7c65a"},"vehicle_type_id":"4","last_reported":1731236789,"current_range_meters":36000,"station_id":"ce4bhbp2rcd13ifvqerg","pricing_plan_id":"cebpf4jnsgd1na2vs0mg"},{"bike_id":"2955f6da-7da2-4d9b-b0aa-8146c955ca70","system_id":"levelo_inurba_marseille","lat":43.27621,"lon":5.36113,"is_reserved":false,"is_disabled":false,"rental_uris":{"android":"levelo://app?vid=2955f6da-7da2-4d9b-b0aa-8146c955ca70","ios":"levelo://app?vid=2955f6da-7da2-4d9b-b0aa-8146c955ca70"},"vehicle_type_id":"4","last_reported":1731236789,"current_range_meters":16800,"station_id":"ce4bgj92rcd13ifvqbe0","pricing_plan_id":"cebpf4jnsgd1na2vs0mg"},{"bike_id":"2f8db2e0-fa87-426c-ba84-81ec6468ad2d","system_id":"levelo_inurba_marseille","lat":43.2773,"lon":5.36174,"is_reserved":false,"is_disabled":false,"rental_uris":{"android":"levelo://app?vid=2f8db2e0-fa87-426c-ba84-81ec6468ad2d","ios":"levelo://app?vid=2f8db2e0-fa87-426c-ba84-81ec6468ad2d"},"vehicle_type_id":"4","last_reported":1731236789,"current_range_meters":12400,"station_id":"ce4bgj92rcd13ifvqbe0","pricing_plan_id":"cebpf4jnsgd1na2vs0mg"},{"bike_id":"42a7f945-4222-45e8-b2a0-d6a159f40702","system_id":"levelo_inurba_marseille","lat":43.30544,"lon":5.36638,"is_reserved":false,"is_disabled":false,"rental_uris":{"android":"levelo://app?vid=42a7f945-4222-45e8-b2a0-d6a159f40702","ios":"levelo://app?vid=42a7f945-4222-45e8-b2a0-d6a159f40702"},"vehicle_type_id":"4","last_reported":1731236789,"current_range_meters":38400,"station_id":"ce4bgs12rcd13ifvqcag","pricing_plan_id":"cebpf4jnsgd1na2vs0mg"},{"bike_id":"4bb9a85a-0d0c-4d55-8773-a9f717071e71","system_id":"levelo_inurba_marseille","lat":43.31692,"lon":5.37742,"is_reserved":false,"is_disabled":false,"rental_uris":{"android":"levelo://app?vid=4bb9a85a-0d0c-4d55-8773-a9f717071e71","ios":"levelo://app?vid=4bb9a85a-0d0c-4d55-8773-a9f717071e71"},"vehicle_type_id":"4","last_reported":1731236789,"current_range_meters":38800,"station_id":"ce4bgth2rcd13ifvqch0","pricing_plan_id":"cebpf4jnsgd1na2vs0mg"},{"bike_id":"41a2522d-cd6e-4f5d-ac10-c03fe0d7ce5c","system_id":"levelo_inurba_marseille","lat":43.27667,"lon":5.38875,"is_reserved":false,"is_disabled":false,"rental_uris":{"android":"levelo://app?vid=41a2522d-cd6e-4f5d-ac10-c03fe0d7ce5c","ios":"levelo://app?vid=41a2522d-cd6e-4f5d-ac10-c03fe0d7ce5c"},"vehicle_type_id":"4","last_reported":1731236789,"current_range_meters":24800,"station_id":"ce4bhi12rcd13ifvqfo0","pricing_plan_id":"cebpf4jnsgd1na2vs0mg"},{"bike_id":"c94909dd-e782-4a49-bf66-6d27f36ac2ee","system_id":"levelo_inurba_marseille","lat":43.29641,"lon":5.38071,"is_reserved":false,"is_disabled":false,"rental_uris":{"android":"levelo://app?vid=c94909dd-e782-4a49-bf66-6d27f36ac2ee","ios":"levelo://app?vid=c94909dd-e782-4a49-bf66-6d27f36ac2ee"},"vehicle_type_id":"4","last_reported":1731236789,"current_range_meters":30000,"station_id":"","pricing_plan_id":"cebpf4jnsgd1na2vs0mg"},{"bike_id":"c221efe7-efcb-49b8-a1b0-1dd8d171a453","system_id":"levelo_inurba_marseille","lat":43.33732,"lon":5.39186,"is_reserved":false,"is_disabled":false,"rental_uris":{"android":"levelo://app?vid=c221efe7-efcb-49b8-a1b0-1dd8d171a453","ios":"levelo://app?vid=c221efe7-efcb-49b8-a1b0-1dd8d171a453"},"vehicle_type_id":"4","last_reported":1731236789,"current_range_meters":38000,"station_id":"ce4bhr92rcd13ifvqhsg","pricing_plan_id":"cebpf4jnsgd1na2vs0mg"},{"bike_id":"b8fdd341-0697-41ca-82c9-e4253415f4e6","system_id":"levelo_inurba_marseille","lat":43.23059,"lon":5.35491,"is_reserved":false,"is_disabled":false,"rental_uris":{"android":"levelo://app?vid=b8fdd341-0697-41ca-82c9-e4253415f4e6","ios":"levelo://app?vid=b8fdd341-0697-41ca-82c9-e4253415f4e6"},"vehicle_type_id":"4","last_reported":1731236789,"current_range_meters":28000,"station_id":"cpo3342slgdg3j2ifvpg","pricing_plan_id":"cebpf4jnsgd1na2vs0mg"},{"bike_id":"cf9daf46-3bd1-47e7-80ac-0de06577c598","system_id":"levelo_inurba_marseille","lat":43.24389,"lon":5.37049,"is_reserved":false,"is_disabled":false,"rental_uris":{"android":"levelo://app?vid=cf9daf46-3bd1-47e7-80ac-0de06577c598","ios":"levelo://app?vid=cf9daf46-3bd1-47e7-80ac-0de06577c598"},"vehicle_type_id":"4","last_reported":1731236789,"current_range_meters":40000,"station_id":"ce4bhhh2rcd13ifvqfk0","pricing_plan_id":"cebpf4jnsgd1na2vs0mg"},{"bike_id":"7926f21e-447b-4b97-94a3-e35466a5018e","system_id":"levelo_inurba_marseille","lat":43.23184,"lon":5.39979,"is_reserved":false,"is_disabled":false,"rental_uris":{"android":"levelo://app?vid=7926f21e-447b-4b97-94a3-e35466a5018e","ios":"levelo://app?vid=7926f21e-447b-4b97-94a3-e35466a5018e"},"vehicle_type_id":"4","last_reported":1731236789,"current_range_meters":39200,"station_id":"ce4bhn12rcd13ifvqgqg","pricing_plan_id":"cebpf4jnsgd1na2vs0mg"},{"bike_id":"535ccd2b-fa82-454d-8b3b-7e708959f079","system_id":"levelo_inurba_marseille","lat":43.24652,"lon":5.38885,"is_reserved":false,"is_disabled":false,"rental_uris":{"android":"levelo://app?vid=535ccd2b-fa82-454d-8b3b-7e708959f079","ios":"levelo://app?vid=535ccd2b-fa82-454d-8b3b-7e708959f079"},"vehicle_type_id":"4","last_reported":1731236789,"current_range_meters":8000,"station_id":"ce4bhg12rcd13ifvqf60","pricing_plan_id":"cebpf4jnsgd1na2vs0mg"},{"bike_id":"3bd7388c-3c51-4857-b4a4-6af75e526e0e","system_id":"levelo_inurba_marseille","lat":43.30792,"lon":5.37643,"is_reserved":false,"is_disabled":false,"rental_uris":{"android":"levelo://app?vid=3bd7388c-3c51-4857-b4a4-6af75e526e0e","ios":"levelo://app?vid=3bd7388c-3c51-4857-b4a4-6af75e526e0e"},"vehicle_type_id":"4","last_reported":1731236789,"current_range_meters":35200,"station_id":"ce4bgv92rcd13ifvqcq0","pricing_plan_id":"cebpf4jnsgd1na2vs0mg"},{"bike_id":"d9bc9902-5e97-4c43-9109-305ea65da59c","system_id":"levelo_inurba_marseille","lat":43.26783,"lon":5.39419,"is_reserved":false,"is_disabled":false,"rental_uris":{"android":"levelo://app?vid=d9bc9902-5e97-4c43-9109-305ea65da59c","ios":"levelo://app?vid=d9bc9902-5e97-4c43-9109-305ea65da59c"},"vehicle_type_id":"4","last_reported":1731236789,"current_range_meters":33200,"station_id":"ce4bhh12rcd13ifvqfg0","pricing_plan_id":"cebpf4jnsgd1na2vs0mg"},{"bike_id":"6c8c8bac-87f7-42e2-b3f1-ada01ae29213","system_id":"levelo_inurba_marseille","lat":43.25116,"lon":5.40318,"is_reserved":false,"is_disabled":false,"rental_uris":{"android":"levelo://app?vid=6c8c8bac-87f7-42e2-b3f1-ada01ae29213","ios":"levelo://app?vid=6c8c8bac-87f7-42e2-b3f1-ada01ae29213"},"vehicle_type_id":"4","last_reported":1731236789,"current_range_meters":40000,"station_id":"ce4bhlh2rcd13ifvqgig","pricing_plan_id":"cebpf4jnsgd1na2vs0mg"},{"bike_id":"4e72c028-8eb6-45c9-948f-592264d3d6d7","system_id":"levelo_inurba_marseille","lat":43.23059,"lon":5.35495,"is_reserved":false,"is_disabled":false,"rental_uris":{"android":"levelo://app?vid=4e72c028-8eb6-45c9-948f-592264d3d6d7","ios":"levelo://app?vid=4e72c028-8eb6-45c9-948f-592264d3d6d7"},"vehicle_type_id":"4","last_reported":1731236789,"current_range_meters":36800,"station_id":"cpo3342slgdg3j2ifvpg","pricing_plan_id":"cebpf4jnsgd1na2vs0mg"},{"bike_id":"86a58b46-2a28-40b6-8a4c-50f4f6a2a704","system_id":"levelo_inurba_marseille","lat":43.30271,"lon":5.37697,"is_reserved":false,"is_disabled":false,"rental_uris":{"android":"levelo://app?vid=86a58b46-2a28-40b6-8a4c-50f4f6a2a704","ios":"levelo://app?vid=86a58b46-2a28-40b6-8a4c-50f4f6a2a704"},"vehicle_type_id":"4","last_reported":1731236789,"current_range_meters":38000,"station_id":"ce4bguh2rcd13ifvqcj0","pricing_plan_id":"cebpf4jnsgd1na2vs0mg"},{"bike_id":"1082c28a-9fb3-4143-8bad-756c7ce3d600","system_id":"levelo_inurba_marseille","lat":43.29197,"lon":5.3579,"is_reserved":false,"is_disabled":false,"rental_uris":{"android":"levelo://app?vid=1082c28a-9fb3-4143-8bad-756c7ce3d600","ios":"levelo://app?vid=1082c28a-9fb3-4143-8bad-756c7ce3d600"},"vehicle_type_id":"4","last_reported":1731236789,"current_range_meters":30400,"station_id":"ce4bhb12rcd13ifvqel0","pricing_plan_id":"cebpf4jnsgd1na2vs0mg"},{"bike_id":"45da62df-7f80-44a3-ba8e-1acd781a5f69","system_id":"levelo_inurba_marseille","lat":43.29551,"lon":5.42279,"is_reserved":false,"is_disabled":false,"rental_uris":{"android":"levelo://app?vid=45da62df-7f80-44a3-ba8e-1acd781a5f69","ios":"levelo://app?vid=45da62df-7f80-44a3-ba8e-1acd781a5f69"},"vehicle_type_id":"4","last_reported":1731236789,"current_range_meters":26000,"station_id":"ce4bhph2rcd13ifvqhdg","pricing_plan_id":"cebpf4jnsgd1na2vs0mg"},{"bike_id":"a2c94e1a-3858-41e6-aa7e-97346fb4829e","system_id":"levelo_inurba_marseille","lat":43.2306,"lon":5.35488,"is_reserved":false,"is_disabled":false,"rental_uris":{"android":"levelo://app?vid=a2c94e1a-3858-41e6-aa7e-97346fb4829e","ios":"levelo://app?vid=a2c94e1a-3858-41e6-aa7e-97346fb4829e"},"vehicle_type_id":"4","last_reported":1731236789,"current_range_meters":17200,"station_id":"cpo3342slgdg3j2ifvpg","pricing_plan_id":"cebpf4jnsgd1na2vs0mg"},{"bike_id":"2972f759-c98e-4fe7-9758-85d215895273","system_id":"levelo_inurba_marseille","lat":43.23962,"lon":5.36621,"is_reserved":false,"is_disabled":false,"rental_uris":{"android":"levelo://app?vid=2972f759-c98e-4fe7-9758-85d215895273","ios":"levelo://app?vid=2972f759-c98e-4fe7-9758-85d215895273"},"vehicle_type_id":"4","last_reported":1731236789,"current_range_meters":37600,"station_id":"ce4bhi12rcd13ifvqfp0","pricing_plan_id":"cebpf4jnsgd1na2vs0mg"},{"bike_id":"010d3bc6-1da9-4e2e-9558-6436a5780c21","system_id":"levelo_inurba_marseille","lat":43.23188,"lon":5.35541,"is_reserved":false,"is_disabled":false,"rental_uris":{"android":"levelo://app?vid=010d3bc6-1da9-4e2e-9558-6436a5780c21","ios":"levelo://app?vid=010d3bc6-1da9-4e2e-9558-6436a5780c21"},"vehicle_type_id":"4","last_reported":1731236789,"current_range_meters":40000,"station_id":"ce4bhu92rcd13ifvqi70","pricing_plan_id":"cebpf4jnsgd1na2vs0mg"},{"bike_id":"475da2da-2e7d-4647-8ade-afee2742a4bd","system_id":"levelo_inurba_marseille","lat":43.29005,"lon":5.35603,"is_reserved":false,"is_disabled":false,"rental_uris":{"android":"levelo://app?vid=475da2da-2e7d-4647-8ade-afee2742a4bd","ios":"levelo://app?vid=475da2da-2e7d-4647-8ade-afee2742a4bd"},"vehicle_type_id":"4","last_reported":1731236789,"current_range_meters":27200,"station_id":"ce4bhb92rcd13ifvqen0","pricing_plan_id":"cebpf4jnsgd1na2vs0mg"},{"bike_id":"9b891fdf-35b6-4e1d-9c54-cb0b8449b74a","system_id":"levelo_inurba_marseille","lat":43.30424,"lon":5.3975,"is_reserved":false,"is_disabled":false,"rental_uris":{"android":"levelo://app?vid=9b891fdf-35b6-4e1d-9c54-cb0b8449b74a","ios":"levelo://app?vid=9b891fdf-35b6-4e1d-9c54-cb0b8449b74a"},"vehicle_type_id":"4","last_reported":1731236789,"current_range_meters":24400,"station_id":"ce4bh092rcd13ifvqd20","pricing_plan_id":"cebpf4jnsgd1na2vs0mg"},{"bike_id":"662385fc-63f9-4a4f-87db-2e58a1f015e0","system_id":"levelo_inurba_marseille","lat":43.23966,"lon":5.36632,"is_reserved":false,"is_disabled":false,"rental_uris":{"android":"levelo://app?vid=662385fc-63f9-4a4f-87db-2e58a1f015e0","ios":"levelo://app?vid=662385fc-63f9-4a4f-87db-2e58a1f015e0"},"vehicle_type_id":"4","last_reported":1731236789,"current_range_meters":33600,"station_id":"ce4bhi12rcd13ifvqfp0","pricing_plan_id":"cebpf4jnsgd1na2vs0mg"},{"bike_id":"f83b55d1-023f-4100-9b5d-62c479bbd422","system_id":"levelo_inurba_marseille","lat":43.28685,"lon":5.38661,"is_reserved":false,"is_disabled":false,"rental_uris":{"android":"levelo://app?vid=f83b55d1-023f-4100-9b5d-62c479bbd422","ios":"levelo://app?vid=f83b55d1-023f-4100-9b5d-62c479bbd422"},"vehicle_type_id":"4","last_reported":1731236789,"current_range_meters":14800,"station_id":"ce4bh492rcd13ifvqdug","pricing_plan_id":"cebpf4jnsgd1na2vs0mg"},{"bike_id":"1a366d13-87fa-4c79-be4c-283f2bc932cd","system_id":"levelo_inurba_marseille","lat":43.28268,"lon":5.35062,"is_reserved":false,"is_disabled":false,"rental_uris":{"android":"levelo://app?vid=1a366d13-87fa-4c79-be4c-283f2bc932cd","ios":"levelo://app?vid=1a366d13-87fa-4c79-be4c-283f2bc932cd"},"vehicle_type_id":"4","last_reported":1731236789,"current_range_meters":17200,"station_id":"ce4bhbp2rcd13ifvqerg","pricing_plan_id":"cebpf4jnsgd1na2vs0mg"},{"bike_id":"0a11ffea-6ccf-45d5-8ce9-b6dd253b1ff7","system_id":"levelo_inurba_marseille","lat":43.31887,"lon":5.40729,"is_reserved":false,"is_disabled":false,"rental_uris":{"android":"levelo://app?vid=0a11ffea-6ccf-45d5-8ce9-b6dd253b1ff7","ios":"levelo://app?vid=0a11ffea-6ccf-45d5-8ce9-b6dd253b1ff7"},"vehicle_type_id":"4","last_reported":1731236789,"current_range_meters":38800,"station_id":"ce4bhq12rcd13ifvqhig","pricing_plan_id":"cebpf4jnsgd1na2vs0mg"},{"bike_id":"578620e6-0301-498c-8194-ffdde30edf93","system_id":"levelo_inurba_marseille","lat":43.25578,"lon":5.38236,"is_reserved":false,"is_disabled":false,"rental_uris":{"android":"levelo://app?vid=578620e6-0301-498c-8194-ffdde30edf93","ios":"levelo://app?vid=578620e6-0301-498c-8194-ffdde30edf93"},"vehicle_type_id":"4","last_reported":1731236789,"current_range_meters":28800,"station_id":"ce4bhih2rcd13ifvqfs0","pricing_plan_id":"cebpf4jnsgd1na2vs0mg"},{"bike_id":"d41fb0f1-e480-4160-8e49-a6b72f7db271","system_id":"levelo_inurba_marseille","lat":43.2794,"lon":5.41037,"is_reserved":false,"is_disabled":false,"rental_uris":{"android":"levelo://app?vid=d41fb0f1-e480-4160-8e49-a6b72f7db271","ios":"levelo://app?vid=d41fb0f1-e480-4160-8e49-a6b72f7db271"},"vehicle_type_id":"4","last_reported":1731236789,"current_range_meters":25600,"station_id":"ce4bhnp2rcd13ifvqh0g","pricing_plan_id":"cebpf4jnsgd1na2vs0mg"},{"bike_id":"2ad361b6-540e-4873-9e5b-6b5de9b52523","system_id":"levelo_inurba_marseille","lat":43.2396,"lon":5.36622,"is_reserved":false,"is_disabled":false,"rental_uris":{"android":"levelo://app?vid=2ad361b6-540e-4873-9e5b-6b5de9b52523","ios":"levelo://app?vid=2ad361b6-540e-4873-9e5b-6b5de9b52523"},"vehicle_type_id":"4","last_reported":1731236789,"current_range_meters":38800,"station_id":"ce4bhi12rcd13ifvqfp0","pricing_plan_id":"cebpf4jnsgd1na2vs0mg"},{"bike_id":"d6f22bb1-8390-4dde-a4e8-6f1e6d4bf68d","system_id":"levelo_inurba_marseille","lat":43.29192,"lon":5.35803,"is_reserved":false,"is_disabled":false,"rental_uris":{"android":"levelo://app?vid=d6f22bb1-8390-4dde-a4e8-6f1e6d4bf68d","ios":"levelo://app?vid=d6f22bb1-8390-4dde-a4e8-6f1e6d4bf68d"},"vehicle_type_id":"4","last_reported":1731236789,"current_range_meters":40000,"station_id":"ce4bhb12rcd13ifvqel0","pricing_plan_id":"cebpf4jnsgd1na2vs0mg"},{"bike_id":"07d9f39b-b5c0-4e0d-b308-a64481facfda","system_id":"levelo_inurba_marseille","lat":43.29006,"lon":5.35612,"is_reserved":false,"is_disabled":false,"rental_uris":{"android":"levelo://app?vid=07d9f39b-b5c0-4e0d-b308-a64481facfda","ios":"levelo://app?vid=07d9f39b-b5c0-4e0d-b308-a64481facfda"},"vehicle_type_id":"4","last_reported":1731236789,"current_range_meters":9600,"station_id":"ce4bhb92rcd13ifvqen0","pricing_plan_id":"cebpf4jnsgd1na2vs0mg"},{"bike_id":"9fbb3b02-2d40-44ae-99a7-3cac80cca2c0","system_id":"levelo_inurba_marseille","lat":43.25111,"lon":5.40329,"is_reserved":false,"is_disabled":false,"rental_uris":{"android":"levelo://app?vid=9fbb3b02-2d40-44ae-99a7-3cac80cca2c0","ios":"levelo://app?vid=9fbb3b02-2d40-44ae-99a7-3cac80cca2c0"},"vehicle_type_id":"4","last_reported":1731236789,"current_range_meters":34000,"station_id":"ce4bhlh2rcd13ifvqgig","pricing_plan_id":"cebpf4jnsgd1na2vs0mg"},{"bike_id":"5773948b-da84-407c-a682-2975b13806c4","system_id":"levelo_inurba_marseille","lat":43.30888,"lon":5.37181,"is_reserved":false,"is_disabled":false,"rental_uris":{"android":"levelo://app?vid=5773948b-da84-407c-a682-2975b13806c4","ios":"levelo://app?vid=5773948b-da84-407c-a682-2975b13806c4"},"vehicle_type_id":"4","last_reported":1731236789,"current_range_meters":30400,"station_id":"ce4bguh2rcd13ifvqckg","pricing_plan_id":"cebpf4jnsgd1na2vs0mg"},{"bike_id":"c7f4c733-6efd-428f-8dbd-9db83b9bb1ba","system_id":"levelo_inurba_marseille","lat":43.25722,"lon":5.41109,"is_reserved":false,"is_disabled":false,"rental_uris":{"android":"levelo://app?vid=c7f4c733-6efd-428f-8dbd-9db83b9bb1ba","ios":"levelo://app?vid=c7f4c733-6efd-428f-8dbd-9db83b9bb1ba"},"vehicle_type_id":"4","last_reported":1731236789,"current_range_meters":38800,"station_id":"ce4bhkp2rcd13ifvqgd0","pricing_plan_id":"cebpf4jnsgd1na2vs0mg"},{"bike_id":"b9478b1d-79e3-44c9-ae60-496dd5151f62","system_id":"levelo_inurba_marseille","lat":43.29164,"lon":5.371515,"is_reserved":false,"is_disabled":false,"rental_uris":{"android":"levelo://app?vid=b9478b1d-79e3-44c9-ae60-496dd5151f62","ios":"levelo://app?vid=b9478b1d-79e3-44c9-ae60-496dd5151f62"},"vehicle_type_id":"4","last_reported":1731236789,"current_range_meters":32400,"station_id":"ce4bha92rcd13ifvqeh0","pricing_plan_id":"cebpf4jnsgd1na2vs0mg"},{"bike_id":"a6662f96-7914-4568-9644-1c4ba1cb159a","system_id":"levelo_inurba_marseille","lat":43.28411,"lon":5.3498,"is_reserved":false,"is_disabled":false,"rental_uris":{"android":"levelo://app?vid=a6662f96-7914-4568-9644-1c4ba1cb159a","ios":"levelo://app?vid=a6662f96-7914-4568-9644-1c4ba1cb159a"},"vehicle_type_id":"4","last_reported":1731236789,"current_range_meters":9200,"station_id":"ce4bhbh2rcd13ifvqepg","pricing_plan_id":"cebpf4jnsgd1na2vs0mg"},{"bike_id":"4204c697-9142-4d6f-a64b-20f319f8c9a7","system_id":"levelo_inurba_marseille","lat":43.27073,"lon":5.42276,"is_reserved":false,"is_disabled":false,"rental_uris":{"android":"levelo://app?vid=4204c697-9142-4d6f-a64b-20f319f8c9a7","ios":"levelo://app?vid=4204c697-9142-4d6f-a64b-20f319f8c9a7"},"vehicle_type_id":"4","last_reported":1731236789,"current_range_meters":39200,"station_id":"ce4bhk92rcd13ifvqgb0","pricing_plan_id":"cebpf4jnsgd1na2vs0mg"},{"bike_id":"1d6f5c47-b5dd-4b78-b5d6-b20afab8f92f","system_id":"levelo_inurba_marseille","lat":43.25087,"lon":5.39509,"is_reserved":false,"is_disabled":false,"rental_uris":{"android":"levelo://app?vid=1d6f5c47-b5dd-4b78-b5d6-b20afab8f92f","ios":"levelo://app?vid=1d6f5c47-b5dd-4b78-b5d6-b20afab8f92f"},"vehicle_type_id":"4","last_reported":1731236789,"current_range_meters":37600,"station_id":"ce4bhm12rcd13ifvqgkg","pricing_plan_id":"cebpf4jnsgd1na2vs0mg"},{"bike_id":"19b5f0c4-c08e-48d9-8fe1-ba7266ed1a5a","system_id":"levelo_inurba_marseille","lat":43.24178,"lon":5.3973,"is_reserved":false,"is_disabled":false,"rental_uris":{"android":"levelo://app?vid=19b5f0c4-c08e-48d9-8fe1-ba7266ed1a5a","ios":"levelo://app?vid=19b5f0c4-c08e-48d9-8fe1-ba7266ed1a5a"},"vehicle_type_id":"4","last_reported":1731236789,"current_range_meters":10000,"station_id":"ce4bhn12rcd13ifvqgpg","pricing_plan_id":"cebpf4jnsgd1na2vs0mg"},{"bike_id":"be24835d-0225-40fd-a74f-9d14a911f0fc","system_id":"levelo_inurba_marseille","lat":43.2293,"lon":5.35372,"is_reserved":false,"is_disabled":false,"rental_uris":{"android":"levelo://app?vid=be24835d-0225-40fd-a74f-9d14a911f0fc","ios":"levelo://app?vid=be24835d-0225-40fd-a74f-9d14a911f0fc"},"vehicle_type_id":"4","last_reported":1731236789,"current_range_meters":20800,"station_id":"cpo3532slgdg3j2ikp40","pricing_plan_id":"cebpf4jnsgd1na2vs0mg"},{"bike_id":"07d0f452-b797-41fa-95d0-f2a03ae9821f","system_id":"levelo_inurba_marseille","lat":43.24806,"lon":5.37449,"is_reserved":false,"is_disabled":false,"rental_uris":{"android":"levelo://app?vid=07d0f452-b797-41fa-95d0-f2a03ae9821f","ios":"levelo://app?vid=07d0f452-b797-41fa-95d0-f2a03ae9821f"},"vehicle_type_id":"4","last_reported":1731236789,"current_range_meters":38000,"station_id":"ce4bhgh2rcd13ifvqfb0","pricing_plan_id":"cebpf4jnsgd1na2vs0mg"},{"bike_id":"1d0c8d0f-cf43-49ad-9deb-0a58ca2f9f08","system_id":"levelo_inurba_marseille","lat":43.292,"lon":5.35802,"is_reserved":false,"is_disabled":false,"rental_uris":{"android":"levelo://app?vid=1d0c8d0f-cf43-49ad-9deb-0a58ca2f9f08","ios":"levelo://app?vid=1d0c8d0f-cf43-49ad-9deb-0a58ca2f9f08"},"vehicle_type_id":"4","last_reported":1731236789,"current_range_meters":30000,"station_id":"ce4bhb12rcd13ifvqel0","pricing_plan_id":"cebpf4jnsgd1na2vs0mg"},{"bike_id":"52a94537-f113-455a-9e91-42176e080fca","system_id":"levelo_inurba_marseille","lat":43.31891,"lon":5.40735,"is_reserved":false,"is_disabled":false,"rental_uris":{"android":"levelo://app?vid=52a94537-f113-455a-9e91-42176e080fca","ios":"levelo://app?vid=52a94537-f113-455a-9e91-42176e080fca"},"vehicle_type_id":"4","last_reported":1731236789,"current_range_meters":38800,"station_id":"ce4bhq12rcd13ifvqhig","pricing_plan_id":"cebpf4jnsgd1na2vs0mg"},{"bike_id":"3fba0864-2b84-4b57-b986-c11162434df1","system_id":"levelo_inurba_marseille","lat":43.27494,"lon":5.4245,"is_reserved":false,"is_disabled":false,"rental_uris":{"android":"levelo://app?vid=3fba0864-2b84-4b57-b986-c11162434df1","ios":"levelo://app?vid=3fba0864-2b84-4b57-b986-c11162434df1"},"vehicle_type_id":"4","last_reported":1731236789,"current_range_meters":10000,"station_id":"ce4bhn92rcd13ifvqgrg","pricing_plan_id":"cebpf4jnsgd1na2vs0mg"},{"bike_id":"5b1ecbe0-a0fe-45b3-b0ea-f76e5b19652b","system_id":"levelo_inurba_marseille","lat":43.23196,"lon":5.35556,"is_reserved":false,"is_disabled":false,"rental_uris":{"android":"levelo://app?vid=5b1ecbe0-a0fe-45b3-b0ea-f76e5b19652b","ios":"levelo://app?vid=5b1ecbe0-a0fe-45b3-b0ea-f76e5b19652b"},"vehicle_type_id":"4","last_reported":1731236789,"current_range_meters":8000,"station_id":"ce4bhu92rcd13ifvqi70","pricing_plan_id":"cebpf4jnsgd1na2vs0mg"},{"bike_id":"e6dc57cf-44da-4102-9d69-7c7b35161e11","system_id":"levelo_inurba_marseille","lat":43.24173,"lon":5.36383,"is_reserved":false,"is_disabled":false,"rental_uris":{"android":"levelo://app?vid=e6dc57cf-44da-4102-9d69-7c7b35161e11","ios":"levelo://app?vid=e6dc57cf-44da-4102-9d69-7c7b35161e11"},"vehicle_type_id":"4","last_reported":1731236789,"current_range_meters":36800,"station_id":"cpo36qri1sfpv3e86is0","pricing_plan_id":"cebpf4jnsgd1na2vs0mg"},{"bike_id":"eea89b14-e5f3-4242-9fbf-52d861894071","system_id":"levelo_inurba_marseille","lat":43.23193,"lon":5.35551,"is_reserved":false,"is_disabled":false,"rental_uris":{"android":"levelo://app?vid=eea89b14-e5f3-4242-9fbf-52d861894071","ios":"levelo://app?vid=eea89b14-e5f3-4242-9fbf-52d861894071"},"vehicle_type_id":"4","last_reported":1731236789,"current_range_meters":28400,"station_id":"ce4bhu92rcd13ifvqi70","pricing_plan_id":"cebpf4jnsgd1na2vs0mg"},{"bike_id":"131bc819-8b95-4b0b-b775-55afa4d54311","system_id":"levelo_inurba_marseille","lat":43.28463,"lon":5.35884,"is_reserved":false,"is_disabled":false,"rental_uris":{"android":"levelo://app?vid=131bc819-8b95-4b0b-b775-55afa4d54311","ios":"levelo://app?vid=131bc819-8b95-4b0b-b775-55afa4d54311"},"vehicle_type_id":"4","last_reported":1731236789,"current_range_meters":31200,"station_id":"ce4bhah2rcd13ifvqei0","pricing_plan_id":"cebpf4jnsgd1na2vs0mg"},{"bike_id":"45e9315f-c284-4d16-9416-ffdc6562915c","system_id":"levelo_inurba_marseille","lat":43.26788,"lon":5.39415,"is_reserved":false,"is_disabled":false,"rental_uris":{"android":"levelo://app?vid=45e9315f-c284-4d16-9416-ffdc6562915c","ios":"levelo://app?vid=45e9315f-c284-4d16-9416-ffdc6562915c"},"vehicle_type_id":"4","last_reported":1731236789,"current_range_meters":38800,"station_id":"ce4bhh12rcd13ifvqfg0","pricing_plan_id":"cebpf4jnsgd1na2vs0mg"},{"bike_id":"19008cd2-6d2b-4b7d-ac46-e89cb37ab51a","system_id":"levelo_inurba_marseille","lat":43.23154,"lon":5.43718,"is_reserved":false,"is_disabled":false,"rental_uris":{"android":"levelo://app?vid=19008cd2-6d2b-4b7d-ac46-e89cb37ab51a","ios":"levelo://app?vid=19008cd2-6d2b-4b7d-ac46-e89cb37ab51a"},"vehicle_type_id":"4","last_reported":1731236789,"current_range_meters":8400,"station_id":"ce4bhmp2rcd13ifvqgog","pricing_plan_id":"cebpf4jnsgd1na2vs0mg"},{"bike_id":"eab98335-8399-4b8f-bbaa-12f7938c9fcb","system_id":"levelo_inurba_marseille","lat":43.29224,"lon":5.36058,"is_reserved":false,"is_disabled":false,"rental_uris":{"android":"levelo://app?vid=eab98335-8399-4b8f-bbaa-12f7938c9fcb","ios":"levelo://app?vid=eab98335-8399-4b8f-bbaa-12f7938c9fcb"},"vehicle_type_id":"4","last_reported":1731236789,"current_range_meters":8000,"station_id":"ce4bhbh2rcd13ifvqeqg","pricing_plan_id":"cebpf4jnsgd1na2vs0mg"},{"bike_id":"eb8790bd-0987-4fac-aed8-e5a0d73e62a4","system_id":"levelo_inurba_marseille","lat":43.29277,"lon":5.40109,"is_reserved":false,"is_disabled":false,"rental_uris":{"android":"levelo://app?vid=eb8790bd-0987-4fac-aed8-e5a0d73e62a4","ios":"levelo://app?vid=eb8790bd-0987-4fac-aed8-e5a0d73e62a4"},"vehicle_type_id":"4","last_reported":1731236789,"current_range_meters":16400,"station_id":"ce4bh312rcd13ifvqdk0","pricing_plan_id":"cebpf4jnsgd1na2vs0mg"},{"bike_id":"5525768f-d2f0-46c8-a9c4-2dfd4b80a96e","system_id":"levelo_inurba_marseille","lat":43.28262,"lon":5.3506,"is_reserved":false,"is_disabled":false,"rental_uris":{"android":"levelo://app?vid=5525768f-d2f0-46c8-a9c4-2dfd4b80a96e","ios":"levelo://app?vid=5525768f-d2f0-46c8-a9c4-2dfd4b80a96e"},"vehicle_type_id":"4","last_reported":1731236789,"current_range_meters":29600,"station_id":"ce4bhbp2rcd13ifvqerg","pricing_plan_id":"cebpf4jnsgd1na2vs0mg"},{"bike_id":"d2a974a2-88bc-4638-8d41-7f094635c91a","system_id":"levelo_inurba_marseille","lat":43.27108,"lon":5.38184,"is_reserved":false,"is_disabled":false,"rental_uris":{"android":"levelo://app?vid=d2a974a2-88bc-4638-8d41-7f094635c91a","ios":"levelo://app?vid=d2a974a2-88bc-4638-8d41-7f094635c91a"},"vehicle_type_id":"4","last_reported":1731236789,"current_range_meters":6800,"station_id":"","pricing_plan_id":"cebpf4jnsgd1na2vs0mg"},{"bike_id":"f0730e13-11c4-4020-956a-ca204d2dd6c0","system_id":"levelo_inurba_marseille","lat":43.29558,"lon":5.42281,"is_reserved":false,"is_disabled":false,"rental_uris":{"android":"levelo://app?vid=f0730e13-11c4-4020-956a-ca204d2dd6c0","ios":"levelo://app?vid=f0730e13-11c4-4020-956a-ca204d2dd6c0"},"vehicle_type_id":"4","last_reported":1731236789,"current_range_meters":39200,"station_id":"ce4bhph2rcd13ifvqhdg","pricing_plan_id":"cebpf4jnsgd1na2vs0mg"},{"bike_id":"d8b069df-29e1-4273-99b0-c9104446d9c3","system_id":"levelo_inurba_marseille","lat":43.23191,"lon":5.3555,"is_reserved":false,"is_disabled":false,"rental_uris":{"android":"levelo://app?vid=d8b069df-29e1-4273-99b0-c9104446d9c3","ios":"levelo://app?vid=d8b069df-29e1-4273-99b0-c9104446d9c3"},"vehicle_type_id":"4","last_reported":1731236789,"current_range_meters":5600,"station_id":"ce4bhu92rcd13ifvqi70","pricing_plan_id":"cebpf4jnsgd1na2vs0mg"},{"bike_id":"aed49dd4-304d-4222-a024-c67cec1bcce7","system_id":"levelo_inurba_marseille","lat":43.25727,"lon":5.41109,"is_reserved":false,"is_disabled":false,"rental_uris":{"android":"levelo://app?vid=aed49dd4-304d-4222-a024-c67cec1bcce7","ios":"levelo://app?vid=aed49dd4-304d-4222-a024-c67cec1bcce7"},"vehicle_type_id":"4","last_reported":1731236789,"current_range_meters":37600,"station_id":"ce4bhkp2rcd13ifvqgd0","pricing_plan_id":"cebpf4jnsgd1na2vs0mg"},{"bike_id":"e5012199-f0d8-4576-9cb1-1b67ce25c696","system_id":"levelo_inurba_marseille","lat":43.25501,"lon":5.3766,"is_reserved":false,"is_disabled":false,"rental_uris":{"android":"levelo://app?vid=e5012199-f0d8-4576-9cb1-1b67ce25c696","ios":"levelo://app?vid=e5012199-f0d8-4576-9cb1-1b67ce25c696"},"vehicle_type_id":"4","last_reported":1731236789,"current_range_meters":8800,"station_id":"ce4bhh12rcd13ifvqff0","pricing_plan_id":"cebpf4jnsgd1na2vs0mg"},{"bike_id":"fbbe362b-7b29-4c8f-b506-484f07761f02","system_id":"levelo_inurba_marseille","lat":43.29914,"lon":5.37444,"is_reserved":false,"is_disabled":false,"rental_uris":{"android":"levelo://app?vid=fbbe362b-7b29-4c8f-b506-484f07761f02","ios":"levelo://app?vid=fbbe362b-7b29-4c8f-b506-484f07761f02"},"vehicle_type_id":"4","last_reported":1731236789,"current_range_meters":35600,"station_id":"ce4bgjh2rcd13ifvqbg0","pricing_plan_id":"cebpf4jnsgd1na2vs0mg"},{"bike_id":"7a9e2545-af8c-4cfc-9cfa-20719364dc01","system_id":"levelo_inurba_marseille","lat":43.29006,"lon":5.35618,"is_reserved":false,"is_disabled":false,"rental_uris":{"android":"levelo://app?vid=7a9e2545-af8c-4cfc-9cfa-20719364dc01","ios":"levelo://app?vid=7a9e2545-af8c-4cfc-9cfa-20719364dc01"},"vehicle_type_id":"4","last_reported":1731236789,"current_range_meters":33600,"station_id":"ce4bhb92rcd13ifvqen0","pricing_plan_id":"cebpf4jnsgd1na2vs0mg"},{"bike_id":"33cfdaf5-1149-4e00-a91b-cac110204c39","system_id":"levelo_inurba_marseille","lat":43.25502,"lon":5.37651,"is_reserved":false,"is_disabled":false,"rental_uris":{"android":"levelo://app?vid=33cfdaf5-1149-4e00-a91b-cac110204c39","ios":"levelo://app?vid=33cfdaf5-1149-4e00-a91b-cac110204c39"},"vehicle_type_id":"4","last_reported":1731236789,"current_range_meters":19200,"station_id":"ce4bhh12rcd13ifvqff0","pricing_plan_id":"cebpf4jnsgd1na2vs0mg"},{"bike_id":"4b72668e-c38b-4a2f-a70f-fdd3fa1c2b2b","system_id":"levelo_inurba_marseille","lat":43.291688,"lon":5.371552,"is_reserved":false,"is_disabled":false,"rental_uris":{"android":"levelo://app?vid=4b72668e-c38b-4a2f-a70f-fdd3fa1c2b2b","ios":"levelo://app?vid=4b72668e-c38b-4a2f-a70f-fdd3fa1c2b2b"},"vehicle_type_id":"4","last_reported":1731236789,"current_range_meters":38400,"station_id":"ce4bha92rcd13ifvqeh0","pricing_plan_id":"cebpf4jnsgd1na2vs0mg"},{"bike_id":"f9aeacdd-bf01-432f-bf4e-03e65cef4bbd","system_id":"levelo_inurba_marseille","lat":43.29554,"lon":5.42289,"is_reserved":false,"is_disabled":false,"rental_uris":{"android":"levelo://app?vid=f9aeacdd-bf01-432f-bf4e-03e65cef4bbd","ios":"levelo://app?vid=f9aeacdd-bf01-432f-bf4e-03e65cef4bbd"},"vehicle_type_id":"4","last_reported":1731236789,"current_range_meters":40000,"station_id":"ce4bhph2rcd13ifvqhdg","pricing_plan_id":"cebpf4jnsgd1na2vs0mg"},{"bike_id":"7c838506-0fbf-44f7-b731-b6ea0a806bf0","system_id":"levelo_inurba_marseille","lat":43.25101,"lon":5.40337,"is_reserved":false,"is_disabled":false,"rental_uris":{"android":"levelo://app?vid=7c838506-0fbf-44f7-b731-b6ea0a806bf0","ios":"levelo://app?vid=7c838506-0fbf-44f7-b731-b6ea0a806bf0"},"vehicle_type_id":"4","last_reported":1731236789,"current_range_meters":34800,"station_id":"ce4bhlh2rcd13ifvqgig","pricing_plan_id":"cebpf4jnsgd1na2vs0mg"},{"bike_id":"0f550aab-c8bd-4618-841c-5606e109e6a6","system_id":"levelo_inurba_marseille","lat":43.29439,"lon":5.39743,"is_reserved":false,"is_disabled":false,"rental_uris":{"android":"levelo://app?vid=0f550aab-c8bd-4618-841c-5606e109e6a6","ios":"levelo://app?vid=0f550aab-c8bd-4618-841c-5606e109e6a6"},"vehicle_type_id":"4","last_reported":1731236789,"current_range_meters":38000,"station_id":"ce4bh3h2rcd13ifvqdo0","pricing_plan_id":"cebpf4jnsgd1na2vs0mg"},{"bike_id":"21b698aa-c273-467d-8ee8-9ca0763fcd67","system_id":"levelo_inurba_marseille","lat":43.30803,"lon":5.43525,"is_reserved":false,"is_disabled":false,"rental_uris":{"android":"levelo://app?vid=21b698aa-c273-467d-8ee8-9ca0763fcd67","ios":"levelo://app?vid=21b698aa-c273-467d-8ee8-9ca0763fcd67"},"vehicle_type_id":"4","last_reported":1731236789,"current_range_meters":34000,"station_id":"ce4bhph2rcd13ifvqheg","pricing_plan_id":"cebpf4jnsgd1na2vs0mg"},{"bike_id":"ece6c1ac-b0f6-41b1-a4ea-cdc77068020d","system_id":"levelo_inurba_marseille","lat":43.29007,"lon":5.35604,"is_reserved":false,"is_disabled":false,"rental_uris":{"android":"levelo://app?vid=ece6c1ac-b0f6-41b1-a4ea-cdc77068020d","ios":"levelo://app?vid=ece6c1ac-b0f6-41b1-a4ea-cdc77068020d"},"vehicle_type_id":"4","last_reported":1731236789,"current_range_meters":26000,"station_id":"ce4bhb92rcd13ifvqen0","pricing_plan_id":"cebpf4jnsgd1na2vs0mg"},{"bike_id":"37dc112e-715e-49c6-92ca-f0ac0a65f63a","system_id":"levelo_inurba_marseille","lat":43.29003,"lon":5.35606,"is_reserved":false,"is_disabled":false,"rental_uris":{"android":"levelo://app?vid=37dc112e-715e-49c6-92ca-f0ac0a65f63a","ios":"levelo://app?vid=37dc112e-715e-49c6-92ca-f0ac0a65f63a"},"vehicle_type_id":"4","last_reported":1731236789,"current_range_meters":28000,"station_id":"ce4bhb92rcd13ifvqen0","pricing_plan_id":"cebpf4jnsgd1na2vs0mg"},{"bike_id":"3cd036b1-82b2-4728-9c4f-a57fb25f0cb6","system_id":"levelo_inurba_marseille","lat":43.24081,"lon":5.37762,"is_reserved":false,"is_disabled":false,"rental_uris":{"android":"levelo://app?vid=3cd036b1-82b2-4728-9c4f-a57fb25f0cb6","ios":"levelo://app?vid=3cd036b1-82b2-4728-9c4f-a57fb25f0cb6"},"vehicle_type_id":"4","last_reported":1731236789,"current_range_meters":6800,"station_id":"ce4bhnp2rcd13ifvqgvg","pricing_plan_id":"cebpf4jnsgd1na2vs0mg"},{"bike_id":"bc99d58a-88e6-48ba-aec4-082f80ed5fe6","system_id":"levelo_inurba_marseille","lat":43.33026,"lon":5.39032,"is_reserved":false,"is_disabled":false,"rental_uris":{"android":"levelo://app?vid=bc99d58a-88e6-48ba-aec4-082f80ed5fe6","ios":"levelo://app?vid=bc99d58a-88e6-48ba-aec4-082f80ed5fe6"},"vehicle_type_id":"4","last_reported":1731236789,"current_range_meters":25600,"station_id":"ce4bhr92rcd13ifvqhrg","pricing_plan_id":"cebpf4jnsgd1na2vs0mg"},{"bike_id":"91159c09-9195-4483-a6be-99230f9de272","system_id":"levelo_inurba_marseille","lat":43.34141,"lon":5.40909,"is_reserved":false,"is_disabled":false,"rental_uris":{"android":"levelo://app?vid=91159c09-9195-4483-a6be-99230f9de272","ios":"levelo://app?vid=91159c09-9195-4483-a6be-99230f9de272"},"vehicle_type_id":"4","last_reported":1731236789,"current_range_meters":38800,"station_id":"ce4bhqh2rcd13ifvqhlg","pricing_plan_id":"cebpf4jnsgd1na2vs0mg"},{"bike_id":"a0d36496-3d12-42f1-a935-e0d87c6d1157","system_id":"levelo_inurba_marseille","lat":43.2681,"lon":5.4027,"is_reserved":false,"is_disabled":false,"rental_uris":{"android":"levelo://app?vid=a0d36496-3d12-42f1-a935-e0d87c6d1157","ios":"levelo://app?vid=a0d36496-3d12-42f1-a935-e0d87c6d1157"},"vehicle_type_id":"4","last_reported":1731236789,"current_range_meters":27200,"station_id":"ce501612rcd8frsf0b60","pricing_plan_id":"cebpf4jnsgd1na2vs0mg"},{"bike_id":"c948b120-0b81-4c64-a307-45b2aed7acfb","system_id":"levelo_inurba_marseille","lat":43.29188,"lon":5.35804,"is_reserved":false,"is_disabled":false,"rental_uris":{"android":"levelo://app?vid=c948b120-0b81-4c64-a307-45b2aed7acfb","ios":"levelo://app?vid=c948b120-0b81-4c64-a307-45b2aed7acfb"},"vehicle_type_id":"4","last_reported":1731236789,"current_range_meters":31200,"station_id":"ce4bhb12rcd13ifvqel0","pricing_plan_id":"cebpf4jnsgd1na2vs0mg"},{"bike_id":"96370c5c-ed80-46e2-ab3b-0620943578c4","system_id":"levelo_inurba_marseille","lat":43.2956,"lon":5.423,"is_reserved":false,"is_disabled":false,"rental_uris":{"android":"levelo://app?vid=96370c5c-ed80-46e2-ab3b-0620943578c4","ios":"levelo://app?vid=96370c5c-ed80-46e2-ab3b-0620943578c4"},"vehicle_type_id":"4","last_reported":1731236789,"current_range_meters":34800,"station_id":"ce4bhph2rcd13ifvqhdg","pricing_plan_id":"cebpf4jnsgd1na2vs0mg"},{"bike_id":"d7d16d2f-ce42-4e67-a666-2f56f0730356","system_id":"levelo_inurba_marseille","lat":43.26933,"lon":5.38917,"is_reserved":false,"is_disabled":false,"rental_uris":{"android":"levelo://app?vid=d7d16d2f-ce42-4e67-a666-2f56f0730356","ios":"levelo://app?vid=d7d16d2f-ce42-4e67-a666-2f56f0730356"},"vehicle_type_id":"4","last_reported":1731236789,"current_range_meters":35200,"station_id":"ce4bhhh2rcd13ifvqfl0","pricing_plan_id":"cebpf4jnsgd1na2vs0mg"},{"bike_id":"58ddda71-db93-4d65-bfe5-0e25811a1ce7","system_id":"levelo_inurba_marseille","lat":43.29224,"lon":5.36055,"is_reserved":false,"is_disabled":false,"rental_uris":{"android":"levelo://app?vid=58ddda71-db93-4d65-bfe5-0e25811a1ce7","ios":"levelo://app?vid=58ddda71-db93-4d65-bfe5-0e25811a1ce7"},"vehicle_type_id":"4","last_reported":1731236789,"current_range_meters":24000,"station_id":"ce4bhbh2rcd13ifvqeqg","pricing_plan_id":"cebpf4jnsgd1na2vs0mg"},{"bike_id":"55700614-4820-43a5-871e-d1005d570930","system_id":"levelo_inurba_marseille","lat":43.24076,"lon":5.37748,"is_reserved":false,"is_disabled":false,"rental_uris":{"android":"levelo://app?vid=55700614-4820-43a5-871e-d1005d570930","ios":"levelo://app?vid=55700614-4820-43a5-871e-d1005d570930"},"vehicle_type_id":"4","last_reported":1731236789,"current_range_meters":39200,"station_id":"ce4bhnp2rcd13ifvqgvg","pricing_plan_id":"cebpf4jnsgd1na2vs0mg"},{"bike_id":"da6cd7c7-5524-466f-bc18-d935b19bc5bf","system_id":"levelo_inurba_marseille","lat":43.29198,"lon":5.358,"is_reserved":false,"is_disabled":false,"rental_uris":{"android":"levelo://app?vid=da6cd7c7-5524-466f-bc18-d935b19bc5bf","ios":"levelo://app?vid=da6cd7c7-5524-466f-bc18-d935b19bc5bf"},"vehicle_type_id":"4","last_reported":1731236789,"current_range_meters":17600,"station_id":"ce4bhb12rcd13ifvqel0","pricing_plan_id":"cebpf4jnsgd1na2vs0mg"},{"bike_id":"8751662e-12f9-4138-b922-dbb3cb1c7f30","system_id":"levelo_inurba_marseille","lat":43.28262,"lon":5.35064,"is_reserved":false,"is_disabled":false,"rental_uris":{"android":"levelo://app?vid=8751662e-12f9-4138-b922-dbb3cb1c7f30","ios":"levelo://app?vid=8751662e-12f9-4138-b922-dbb3cb1c7f30"},"vehicle_type_id":"4","last_reported":1731236789,"current_range_meters":20400,"station_id":"ce4bhbp2rcd13ifvqerg","pricing_plan_id":"cebpf4jnsgd1na2vs0mg"},{"bike_id":"0a64ed50-8cfc-463a-acb6-61f6f9203091","system_id":"levelo_inurba_marseille","lat":43.29897,"lon":5.43666,"is_reserved":false,"is_disabled":false,"rental_uris":{"android":"levelo://app?vid=0a64ed50-8cfc-463a-acb6-61f6f9203091","ios":"levelo://app?vid=0a64ed50-8cfc-463a-acb6-61f6f9203091"},"vehicle_type_id":"4","last_reported":1731236789,"current_range_meters":39200,"station_id":"ce4bhpp2rcd13ifvqhfg","pricing_plan_id":"cebpf4jnsgd1na2vs0mg"},{"bike_id":"96aef8c1-f007-442e-b872-036e6f6c58ad","system_id":"levelo_inurba_marseille","lat":43.31757,"lon":5.3902,"is_reserved":false,"is_disabled":false,"rental_uris":{"android":"levelo://app?vid=96aef8c1-f007-442e-b872-036e6f6c58ad","ios":"levelo://app?vid=96aef8c1-f007-442e-b872-036e6f6c58ad"},"vehicle_type_id":"4","last_reported":1731236789,"current_range_meters":39200,"station_id":"ce4bhqp2rcd13ifvqhng","pricing_plan_id":"cebpf4jnsgd1na2vs0mg"},{"bike_id":"134ce1ce-579d-4d82-bde6-b146c0c11c11","system_id":"levelo_inurba_marseille","lat":43.298954,"lon":5.436763,"is_reserved":false,"is_disabled":false,"rental_uris":{"android":"levelo://app?vid=134ce1ce-579d-4d82-bde6-b146c0c11c11","ios":"levelo://app?vid=134ce1ce-579d-4d82-bde6-b146c0c11c11"},"vehicle_type_id":"4","last_reported":1731236789,"current_range_meters":37600,"station_id":"ce4bhpp2rcd13ifvqhfg","pricing_plan_id":"cebpf4jnsgd1na2vs0mg"},{"bike_id":"74a41359-ed80-4cd3-85be-bd7b0ea67a0d","system_id":"levelo_inurba_marseille","lat":43.31532,"lon":5.38022,"is_reserved":false,"is_disabled":false,"rental_uris":{"android":"levelo://app?vid=74a41359-ed80-4cd3-85be-bd7b0ea67a0d","ios":"levelo://app?vid=74a41359-ed80-4cd3-85be-bd7b0ea67a0d"},"vehicle_type_id":"4","last_reported":1731236789,"current_range_meters":18800,"station_id":"ce4bhsp2rcd13ifvqi50","pricing_plan_id":"cebpf4jnsgd1na2vs0mg"},{"bike_id":"9f13d0de-7d3f-4321-b645-af4a5cf8fd08","system_id":"levelo_inurba_marseille","lat":43.27675,"lon":5.38881,"is_reserved":false,"is_disabled":false,"rental_uris":{"android":"levelo://app?vid=9f13d0de-7d3f-4321-b645-af4a5cf8fd08","ios":"levelo://app?vid=9f13d0de-7d3f-4321-b645-af4a5cf8fd08"},"vehicle_type_id":"4","last_reported":1731236789,"current_range_meters":24400,"station_id":"ce4bhi12rcd13ifvqfo0","pricing_plan_id":"cebpf4jnsgd1na2vs0mg"},{"bike_id":"9d0060ad-8026-4354-8688-a55571852c33","system_id":"levelo_inurba_marseille","lat":43.30276,"lon":5.37705,"is_reserved":false,"is_disabled":false,"rental_uris":{"android":"levelo://app?vid=9d0060ad-8026-4354-8688-a55571852c33","ios":"levelo://app?vid=9d0060ad-8026-4354-8688-a55571852c33"},"vehicle_type_id":"4","last_reported":1731236789,"current_range_meters":20000,"station_id":"ce4bguh2rcd13ifvqcj0","pricing_plan_id":"cebpf4jnsgd1na2vs0mg"},{"bike_id":"c4ac443b-46a6-4fb6-8565-1eeff025a131","system_id":"levelo_inurba_marseille","lat":43.31328,"lon":5.39696,"is_reserved":false,"is_disabled":false,"rental_uris":{"android":"levelo://app?vid=c4ac443b-46a6-4fb6-8565-1eeff025a131","ios":"levelo://app?vid=c4ac443b-46a6-4fb6-8565-1eeff025a131"},"vehicle_type_id":"4","last_reported":1731236789,"current_range_meters":24800,"station_id":"ce4bgvp2rcd13ifvqcu0","pricing_plan_id":"cebpf4jnsgd1na2vs0mg"},{"bike_id":"181fa628-fd06-4339-88f4-5d411c857699","system_id":"levelo_inurba_marseille","lat":43.27066,"lon":5.42277,"is_reserved":false,"is_disabled":false,"rental_uris":{"android":"levelo://app?vid=181fa628-fd06-4339-88f4-5d411c857699","ios":"levelo://app?vid=181fa628-fd06-4339-88f4-5d411c857699"},"vehicle_type_id":"4","last_reported":1731236789,"current_range_meters":9600,"station_id":"ce4bhk92rcd13ifvqgb0","pricing_plan_id":"cebpf4jnsgd1na2vs0mg"},{"bike_id":"f3093c9b-61c8-4f41-9eb2-232ad2823ce9","system_id":"levelo_inurba_marseille","lat":43.27324,"lon":5.39092,"is_reserved":false,"is_disabled":false,"rental_uris":{"android":"levelo://app?vid=f3093c9b-61c8-4f41-9eb2-232ad2823ce9","ios":"levelo://app?vid=f3093c9b-61c8-4f41-9eb2-232ad2823ce9"},"vehicle_type_id":"4","last_reported":1731236789,"current_range_meters":39200,"station_id":"ce4bhgp2rcd13ifvqfe0","pricing_plan_id":"cebpf4jnsgd1na2vs0mg"},{"bike_id":"7ad1fcfb-dbad-4f2f-94e3-26a08d9ba442","system_id":"levelo_inurba_marseille","lat":43.2799,"lon":5.41655,"is_reserved":false,"is_disabled":false,"rental_uris":{"android":"levelo://app?vid=7ad1fcfb-dbad-4f2f-94e3-26a08d9ba442","ios":"levelo://app?vid=7ad1fcfb-dbad-4f2f-94e3-26a08d9ba442"},"vehicle_type_id":"4","last_reported":1731236789,"current_range_meters":39200,"station_id":"ce4bho12rcd13ifvqh1g","pricing_plan_id":"cebpf4jnsgd1na2vs0mg"},{"bike_id":"64f1e304-55fc-4bb7-bb27-4faaf7cf65c1","system_id":"levelo_inurba_marseille","lat":43.27536,"lon":5.40912,"is_reserved":false,"is_disabled":false,"rental_uris":{"android":"levelo://app?vid=64f1e304-55fc-4bb7-bb27-4faaf7cf65c1","ios":"levelo://app?vid=64f1e304-55fc-4bb7-bb27-4faaf7cf65c1"},"vehicle_type_id":"4","last_reported":1731236789,"current_range_meters":7200,"station_id":"","pricing_plan_id":"cebpf4jnsgd1na2vs0mg"},{"bike_id":"9a5eb101-92a2-4eeb-93bd-8d070d90c1ea","system_id":"levelo_inurba_marseille","lat":43.30433,"lon":5.42528,"is_reserved":false,"is_disabled":false,"rental_uris":{"android":"levelo://app?vid=9a5eb101-92a2-4eeb-93bd-8d070d90c1ea","ios":"levelo://app?vid=9a5eb101-92a2-4eeb-93bd-8d070d90c1ea"},"vehicle_type_id":"4","last_reported":1731236789,"current_range_meters":12400,"station_id":"","pricing_plan_id":"cebpf4jnsgd1na2vs0mg"},{"bike_id":"27e15419-d9b0-4647-890e-e21a7149b1cd","system_id":"levelo_inurba_marseille","lat":43.27067,"lon":5.42275,"is_reserved":false,"is_disabled":false,"rental_uris":{"android":"levelo://app?vid=27e15419-d9b0-4647-890e-e21a7149b1cd","ios":"levelo://app?vid=27e15419-d9b0-4647-890e-e21a7149b1cd"},"vehicle_type_id":"4","last_reported":1731236789,"current_range_meters":8000,"station_id":"ce4bhk92rcd13ifvqgb0","pricing_plan_id":"cebpf4jnsgd1na2vs0mg"},{"bike_id":"55f47cbb-4cd2-4214-9965-9e0698b16e2e","system_id":"levelo_inurba_marseille","lat":43.32392,"lon":5.37004,"is_reserved":false,"is_disabled":false,"rental_uris":{"android":"levelo://app?vid=55f47cbb-4cd2-4214-9965-9e0698b16e2e","ios":"levelo://app?vid=55f47cbb-4cd2-4214-9965-9e0698b16e2e"},"vehicle_type_id":"4","last_reported":1731236789,"current_range_meters":36400,"station_id":"","pricing_plan_id":"cebpf4jnsgd1na2vs0mg"},{"bike_id":"8ca6f026-fcf2-422a-be74-98ef9e683a39","system_id":"levelo_inurba_marseille","lat":43.29849,"lon":5.36284,"is_reserved":false,"is_disabled":false,"rental_uris":{"android":"levelo://app?vid=8ca6f026-fcf2-422a-be74-98ef9e683a39","ios":"levelo://app?vid=8ca6f026-fcf2-422a-be74-98ef9e683a39"},"vehicle_type_id":"4","last_reported":1731236789,"current_range_meters":38000,"station_id":"ce4bgpp2rcd13ifvqc3g","pricing_plan_id":"cebpf4jnsgd1na2vs0mg"},{"bike_id":"5c6f2f2d-8135-4623-a6d5-1073c78c4bff","system_id":"levelo_inurba_marseille","lat":43.29284,"lon":5.3684,"is_reserved":false,"is_disabled":false,"rental_uris":{"android":"levelo://app?vid=5c6f2f2d-8135-4623-a6d5-1073c78c4bff","ios":"levelo://app?vid=5c6f2f2d-8135-4623-a6d5-1073c78c4bff"},"vehicle_type_id":"4","last_reported":1731236789,"current_range_meters":28800,"station_id":"ce4bhbp2rcd13ifvqesg","pricing_plan_id":"cebpf4jnsgd1na2vs0mg"},{"bike_id":"0d93b31b-854a-4c31-b287-70df5cbe7d07","system_id":"levelo_inurba_marseille","lat":43.24083,"lon":5.37741,"is_reserved":false,"is_disabled":false,"rental_uris":{"android":"levelo://app?vid=0d93b31b-854a-4c31-b287-70df5cbe7d07","ios":"levelo://app?vid=0d93b31b-854a-4c31-b287-70df5cbe7d07"},"vehicle_type_id":"4","last_reported":1731236789,"current_range_meters":11600,"station_id":"ce4bhnp2rcd13ifvqgvg","pricing_plan_id":"cebpf4jnsgd1na2vs0mg"},{"bike_id":"8d2b72fb-c6f8-44de-b9b8-8b5223930e89","system_id":"levelo_inurba_marseille","lat":43.24606,"lon":5.38969,"is_reserved":false,"is_disabled":false,"rental_uris":{"android":"levelo://app?vid=8d2b72fb-c6f8-44de-b9b8-8b5223930e89","ios":"levelo://app?vid=8d2b72fb-c6f8-44de-b9b8-8b5223930e89"},"vehicle_type_id":"4","last_reported":1731236789,"current_range_meters":25200,"station_id":"","pricing_plan_id":"cebpf4jnsgd1na2vs0mg"},{"bike_id":"25fe25a4-403f-4e6f-b9e1-cc790ad299ec","system_id":"levelo_inurba_marseille","lat":43.24395,"lon":5.3706,"is_reserved":false,"is_disabled":false,"rental_uris":{"android":"levelo://app?vid=25fe25a4-403f-4e6f-b9e1-cc790ad299ec","ios":"levelo://app?vid=25fe25a4-403f-4e6f-b9e1-cc790ad299ec"},"vehicle_type_id":"4","last_reported":1731236789,"current_range_meters":22400,"station_id":"ce4bhhh2rcd13ifvqfk0","pricing_plan_id":"cebpf4jnsgd1na2vs0mg"},{"bike_id":"8b43c638-5ea6-4aed-a1b1-1c823650d6b8","system_id":"levelo_inurba_marseille","lat":43.27619,"lon":5.36101,"is_reserved":false,"is_disabled":false,"rental_uris":{"android":"levelo://app?vid=8b43c638-5ea6-4aed-a1b1-1c823650d6b8","ios":"levelo://app?vid=8b43c638-5ea6-4aed-a1b1-1c823650d6b8"},"vehicle_type_id":"4","last_reported":1731236789,"current_range_meters":18800,"station_id":"ce4bgj92rcd13ifvqbe0","pricing_plan_id":"cebpf4jnsgd1na2vs0mg"},{"bike_id":"5bc17900-e041-460d-90a3-8a51d57f7399","system_id":"levelo_inurba_marseille","lat":43.29223,"lon":5.3606,"is_reserved":false,"is_disabled":false,"rental_uris":{"android":"levelo://app?vid=5bc17900-e041-460d-90a3-8a51d57f7399","ios":"levelo://app?vid=5bc17900-e041-460d-90a3-8a51d57f7399"},"vehicle_type_id":"4","last_reported":1731236789,"current_range_meters":21600,"station_id":"ce4bhbh2rcd13ifvqeqg","pricing_plan_id":"cebpf4jnsgd1na2vs0mg"},{"bike_id":"611e333a-76d9-474b-b1f3-ab76379c5545","system_id":"levelo_inurba_marseille","lat":43.30168,"lon":5.38092,"is_reserved":false,"is_disabled":false,"rental_uris":{"android":"levelo://app?vid=611e333a-76d9-474b-b1f3-ab76379c5545","ios":"levelo://app?vid=611e333a-76d9-474b-b1f3-ab76379c5545"},"vehicle_type_id":"4","last_reported":1731236789,"current_range_meters":38800,"station_id":"ce4bgjp2rcd13ifvqbh0","pricing_plan_id":"cebpf4jnsgd1na2vs0mg"},{"bike_id":"c6ae65bf-8d5e-4ea9-a3a9-adc79d0ebafe","system_id":"levelo_inurba_marseille","lat":43.24392,"lon":5.37057,"is_reserved":false,"is_disabled":false,"rental_uris":{"android":"levelo://app?vid=c6ae65bf-8d5e-4ea9-a3a9-adc79d0ebafe","ios":"levelo://app?vid=c6ae65bf-8d5e-4ea9-a3a9-adc79d0ebafe"},"vehicle_type_id":"4","last_reported":1731236789,"current_range_meters":24000,"station_id":"ce4bhhh2rcd13ifvqfk0","pricing_plan_id":"cebpf4jnsgd1na2vs0mg"},{"bike_id":"d37c9ca4-b2d7-4147-a9b7-b9dd5a96bc6f","system_id":"levelo_inurba_marseille","lat":43.29002,"lon":5.35614,"is_reserved":false,"is_disabled":false,"rental_uris":{"android":"levelo://app?vid=d37c9ca4-b2d7-4147-a9b7-b9dd5a96bc6f","ios":"levelo://app?vid=d37c9ca4-b2d7-4147-a9b7-b9dd5a96bc6f"},"vehicle_type_id":"4","last_reported":1731236789,"current_range_meters":24400,"station_id":"ce4bhb92rcd13ifvqen0","pricing_plan_id":"cebpf4jnsgd1na2vs0mg"},{"bike_id":"86769cfa-ee19-48ff-9dfc-45f805961b7b","system_id":"levelo_inurba_marseille","lat":43.29006,"lon":5.3561,"is_reserved":false,"is_disabled":false,"rental_uris":{"android":"levelo://app?vid=86769cfa-ee19-48ff-9dfc-45f805961b7b","ios":"levelo://app?vid=86769cfa-ee19-48ff-9dfc-45f805961b7b"},"vehicle_type_id":"4","last_reported":1731236789,"current_range_meters":18800,"station_id":"ce4bhb92rcd13ifvqen0","pricing_plan_id":"cebpf4jnsgd1na2vs0mg"},{"bike_id":"1b641421-2e55-46f2-aa52-a5bd61345632","system_id":"levelo_inurba_marseille","lat":43.241673,"lon":5.363928,"is_reserved":false,"is_disabled":false,"rental_uris":{"android":"levelo://app?vid=1b641421-2e55-46f2-aa52-a5bd61345632","ios":"levelo://app?vid=1b641421-2e55-46f2-aa52-a5bd61345632"},"vehicle_type_id":"4","last_reported":1731236789,"current_range_meters":12000,"station_id":"cpo36qri1sfpv3e86is0","pricing_plan_id":"cebpf4jnsgd1na2vs0mg"},{"bike_id":"bd107d40-34a8-40f9-8610-97fdcd404745","system_id":"levelo_inurba_marseille","lat":43.25499,"lon":5.37647,"is_reserved":false,"is_disabled":false,"rental_uris":{"android":"levelo://app?vid=bd107d40-34a8-40f9-8610-97fdcd404745","ios":"levelo://app?vid=bd107d40-34a8-40f9-8610-97fdcd404745"},"vehicle_type_id":"4","last_reported":1731236789,"current_range_meters":34000,"station_id":"ce4bhh12rcd13ifvqff0","pricing_plan_id":"cebpf4jnsgd1na2vs0mg"},{"bike_id":"d90fcf22-705b-4140-8786-5c4d94afd4d2","system_id":"levelo_inurba_marseille","lat":43.30281,"lon":5.37717,"is_reserved":false,"is_disabled":false,"rental_uris":{"android":"levelo://app?vid=d90fcf22-705b-4140-8786-5c4d94afd4d2","ios":"levelo://app?vid=d90fcf22-705b-4140-8786-5c4d94afd4d2"},"vehicle_type_id":"4","last_reported":1731236789,"current_range_meters":16800,"station_id":"ce4bguh2rcd13ifvqcj0","pricing_plan_id":"cebpf4jnsgd1na2vs0mg"},{"bike_id":"8ab21f45-a2fc-420e-85fc-7d62c749390e","system_id":"levelo_inurba_marseille","lat":43.29005,"lon":5.35617,"is_reserved":false,"is_disabled":false,"rental_uris":{"android":"levelo://app?vid=8ab21f45-a2fc-420e-85fc-7d62c749390e","ios":"levelo://app?vid=8ab21f45-a2fc-420e-85fc-7d62c749390e"},"vehicle_type_id":"4","last_reported":1731236789,"current_range_meters":24800,"station_id":"ce4bhb92rcd13ifvqen0","pricing_plan_id":"cebpf4jnsgd1na2vs0mg"},{"bike_id":"0d0ef880-2434-4d1b-be5b-12320ed92e83","system_id":"levelo_inurba_marseille","lat":43.25728,"lon":5.41105,"is_reserved":false,"is_disabled":false,"rental_uris":{"android":"levelo://app?vid=0d0ef880-2434-4d1b-be5b-12320ed92e83","ios":"levelo://app?vid=0d0ef880-2434-4d1b-be5b-12320ed92e83"},"vehicle_type_id":"4","last_reported":1731236789,"current_range_meters":25600,"station_id":"ce4bhkp2rcd13ifvqgd0","pricing_plan_id":"cebpf4jnsgd1na2vs0mg"},{"bike_id":"07704a86-dbed-425a-854d-11b1a4e3d84c","system_id":"levelo_inurba_marseille","lat":43.33758,"lon":5.3744,"is_reserved":false,"is_disabled":false,"rental_uris":{"android":"levelo://app?vid=07704a86-dbed-425a-854d-11b1a4e3d84c","ios":"levelo://app?vid=07704a86-dbed-425a-854d-11b1a4e3d84c"},"vehicle_type_id":"4","last_reported":1731236789,"current_range_meters":31200,"station_id":"","pricing_plan_id":"cebpf4jnsgd1na2vs0mg"},{"bike_id":"4d6c9616-958e-4e02-86b9-40d16d4f6f88","system_id":"levelo_inurba_marseille","lat":43.284149,"lon":5.375093,"is_reserved":false,"is_disabled":false,"rental_uris":{"android":"levelo://app?vid=4d6c9616-958e-4e02-86b9-40d16d4f6f88","ios":"levelo://app?vid=4d6c9616-958e-4e02-86b9-40d16d4f6f88"},"vehicle_type_id":"4","last_reported":1731236789,"current_range_meters":38800,"station_id":"ce4bh412rcd13ifvqds0","pricing_plan_id":"cebpf4jnsgd1na2vs0mg"},{"bike_id":"e711ef1e-57ba-40e4-a61e-4e29ff38b950","system_id":"levelo_inurba_marseille","lat":43.29222,"lon":5.36064,"is_reserved":false,"is_disabled":false,"rental_uris":{"android":"levelo://app?vid=e711ef1e-57ba-40e4-a61e-4e29ff38b950","ios":"levelo://app?vid=e711ef1e-57ba-40e4-a61e-4e29ff38b950"},"vehicle_type_id":"4","last_reported":1731236789,"current_range_meters":27600,"station_id":"ce4bhbh2rcd13ifvqeqg","pricing_plan_id":"cebpf4jnsgd1na2vs0mg"},{"bike_id":"6e1d7cdf-0efd-4fed-8055-7321fb9fe602","system_id":"levelo_inurba_marseille","lat":43.27421,"lon":5.39402,"is_reserved":false,"is_disabled":false,"rental_uris":{"android":"levelo://app?vid=6e1d7cdf-0efd-4fed-8055-7321fb9fe602","ios":"levelo://app?vid=6e1d7cdf-0efd-4fed-8055-7321fb9fe602"},"vehicle_type_id":"4","last_reported":1731236789,"current_range_meters":36400,"station_id":"ce4bhdp2rcd13ifvqf20","pricing_plan_id":"cebpf4jnsgd1na2vs0mg"},{"bike_id":"0b74ce83-e6b1-4485-8ca6-3897f29a426e","system_id":"levelo_inurba_marseille","lat":43.23958,"lon":5.36632,"is_reserved":false,"is_disabled":false,"rental_uris":{"android":"levelo://app?vid=0b74ce83-e6b1-4485-8ca6-3897f29a426e","ios":"levelo://app?vid=0b74ce83-e6b1-4485-8ca6-3897f29a426e"},"vehicle_type_id":"4","last_reported":1731236789,"current_range_meters":9600,"station_id":"ce4bhi12rcd13ifvqfp0","pricing_plan_id":"cebpf4jnsgd1na2vs0mg"},{"bike_id":"27aaf231-6871-4640-aefe-acd348af1483","system_id":"levelo_inurba_marseille","lat":43.2846,"lon":5.3589,"is_reserved":false,"is_disabled":false,"rental_uris":{"android":"levelo://app?vid=27aaf231-6871-4640-aefe-acd348af1483","ios":"levelo://app?vid=27aaf231-6871-4640-aefe-acd348af1483"},"vehicle_type_id":"4","last_reported":1731236789,"current_range_meters":28800,"station_id":"ce4bhah2rcd13ifvqei0","pricing_plan_id":"cebpf4jnsgd1na2vs0mg"},{"bike_id":"bef879e7-f166-401b-a0c0-2829dd929c29","system_id":"levelo_inurba_marseille","lat":43.28259,"lon":5.35055,"is_reserved":false,"is_disabled":false,"rental_uris":{"android":"levelo://app?vid=bef879e7-f166-401b-a0c0-2829dd929c29","ios":"levelo://app?vid=bef879e7-f166-401b-a0c0-2829dd929c29"},"vehicle_type_id":"4","last_reported":1731236789,"current_range_meters":39200,"station_id":"ce4bhbp2rcd13ifvqerg","pricing_plan_id":"cebpf4jnsgd1na2vs0mg"},{"bike_id":"6c667f5f-b7e9-4c69-8c31-28fbbcdde478","system_id":"levelo_inurba_marseille","lat":43.23193,"lon":5.35558,"is_reserved":false,"is_disabled":false,"rental_uris":{"android":"levelo://app?vid=6c667f5f-b7e9-4c69-8c31-28fbbcdde478","ios":"levelo://app?vid=6c667f5f-b7e9-4c69-8c31-28fbbcdde478"},"vehicle_type_id":"4","last_reported":1731236789,"current_range_meters":15200,"station_id":"ce4bhu92rcd13ifvqi70","pricing_plan_id":"cebpf4jnsgd1na2vs0mg"},{"bike_id":"97f98418-1ab8-4ca8-922f-72899e88c088","system_id":"levelo_inurba_marseille","lat":43.27048,"lon":5.40266,"is_reserved":false,"is_disabled":false,"rental_uris":{"android":"levelo://app?vid=97f98418-1ab8-4ca8-922f-72899e88c088","ios":"levelo://app?vid=97f98418-1ab8-4ca8-922f-72899e88c088"},"vehicle_type_id":"4","last_reported":1731236789,"current_range_meters":36800,"station_id":"ce4bhk92rcd13ifvqgc0","pricing_plan_id":"cebpf4jnsgd1na2vs0mg"},{"bike_id":"1bc42c89-6add-4f12-91a8-df4a8034b2db","system_id":"levelo_inurba_marseille","lat":43.23069,"lon":5.35483,"is_reserved":false,"is_disabled":false,"rental_uris":{"android":"levelo://app?vid=1bc42c89-6add-4f12-91a8-df4a8034b2db","ios":"levelo://app?vid=1bc42c89-6add-4f12-91a8-df4a8034b2db"},"vehicle_type_id":"4","last_reported":1731236789,"current_range_meters":12000,"station_id":"cpo3342slgdg3j2ifvpg","pricing_plan_id":"cebpf4jnsgd1na2vs0mg"},{"bike_id":"90fe466d-60f7-4cb7-b2d6-c1f73bc7cd7a","system_id":"levelo_inurba_marseille","lat":43.32061,"lon":5.41563,"is_reserved":false,"is_disabled":false,"rental_uris":{"android":"levelo://app?vid=90fe466d-60f7-4cb7-b2d6-c1f73bc7cd7a","ios":"levelo://app?vid=90fe466d-60f7-4cb7-b2d6-c1f73bc7cd7a"},"vehicle_type_id":"4","last_reported":1731236789,"current_range_meters":38400,"station_id":"ce4bhq92rcd13ifvqhkg","pricing_plan_id":"cebpf4jnsgd1na2vs0mg"},{"bike_id":"eecb002f-ad23-4ea0-b2e0-33b3a1f5891d","system_id":"levelo_inurba_marseille","lat":43.29228,"lon":5.36044,"is_reserved":false,"is_disabled":false,"rental_uris":{"android":"levelo://app?vid=eecb002f-ad23-4ea0-b2e0-33b3a1f5891d","ios":"levelo://app?vid=eecb002f-ad23-4ea0-b2e0-33b3a1f5891d"},"vehicle_type_id":"4","last_reported":1731236789,"current_range_meters":25200,"station_id":"ce4bhbh2rcd13ifvqeqg","pricing_plan_id":"cebpf4jnsgd1na2vs0mg"},{"bike_id":"36c5ff9c-46cc-4c47-bdd2-03ca7a0be1ae","system_id":"levelo_inurba_marseille","lat":43.23965,"lon":5.3663,"is_reserved":false,"is_disabled":false,"rental_uris":{"android":"levelo://app?vid=36c5ff9c-46cc-4c47-bdd2-03ca7a0be1ae","ios":"levelo://app?vid=36c5ff9c-46cc-4c47-bdd2-03ca7a0be1ae"},"vehicle_type_id":"4","last_reported":1731236789,"current_range_meters":30400,"station_id":"ce4bhi12rcd13ifvqfp0","pricing_plan_id":"cebpf4jnsgd1na2vs0mg"},{"bike_id":"2c42f401-8588-45b2-801d-41b9137e6000","system_id":"levelo_inurba_marseille","lat":43.31684,"lon":5.40472,"is_reserved":false,"is_disabled":false,"rental_uris":{"android":"levelo://app?vid=2c42f401-8588-45b2-801d-41b9137e6000","ios":"levelo://app?vid=2c42f401-8588-45b2-801d-41b9137e6000"},"vehicle_type_id":"4","last_reported":1731236789,"current_range_meters":25600,"station_id":"ce4bh012rcd13ifvqd00","pricing_plan_id":"cebpf4jnsgd1na2vs0mg"},{"bike_id":"baac3be3-010c-4ab7-b814-2af962c842f8","system_id":"levelo_inurba_marseille","lat":43.28368,"lon":5.37515,"is_reserved":false,"is_disabled":false,"rental_uris":{"android":"levelo://app?vid=baac3be3-010c-4ab7-b814-2af962c842f8","ios":"levelo://app?vid=baac3be3-010c-4ab7-b814-2af962c842f8"},"vehicle_type_id":"4","last_reported":1731236789,"current_range_meters":27600,"station_id":"ce4bh412rcd13ifvqds0","pricing_plan_id":"cebpf4jnsgd1na2vs0mg"},{"bike_id":"ce2879f6-b67d-4289-ac71-73576ea9f6c4","system_id":"levelo_inurba_marseille","lat":43.33019,"lon":5.39033,"is_reserved":false,"is_disabled":false,"rental_uris":{"android":"levelo://app?vid=ce2879f6-b67d-4289-ac71-73576ea9f6c4","ios":"levelo://app?vid=ce2879f6-b67d-4289-ac71-73576ea9f6c4"},"vehicle_type_id":"4","last_reported":1731236789,"current_range_meters":38800,"station_id":"ce4bhr92rcd13ifvqhrg","pricing_plan_id":"cebpf4jnsgd1na2vs0mg"},{"bike_id":"d17d14b6-bd39-4f6f-860c-b6baae4afc33","system_id":"levelo_inurba_marseille","lat":43.2606,"lon":5.39396,"is_reserved":false,"is_disabled":false,"rental_uris":{"android":"levelo://app?vid=d17d14b6-bd39-4f6f-860c-b6baae4afc33","ios":"levelo://app?vid=d17d14b6-bd39-4f6f-860c-b6baae4afc33"},"vehicle_type_id":"4","last_reported":1731236789,"current_range_meters":16000,"station_id":"ce4bhh92rcd13ifvqfj0","pricing_plan_id":"cebpf4jnsgd1na2vs0mg"},{"bike_id":"fd70d13a-52e0-4a3e-ad19-1a314edc618d","system_id":"levelo_inurba_marseille","lat":43.29222,"lon":5.36068,"is_reserved":false,"is_disabled":false,"rental_uris":{"android":"levelo://app?vid=fd70d13a-52e0-4a3e-ad19-1a314edc618d","ios":"levelo://app?vid=fd70d13a-52e0-4a3e-ad19-1a314edc618d"},"vehicle_type_id":"4","last_reported":1731236789,"current_range_meters":22800,"station_id":"ce4bhbh2rcd13ifvqeqg","pricing_plan_id":"cebpf4jnsgd1na2vs0mg"},{"bike_id":"b4eb30bc-dd09-4cbf-8ece-3b8ada662aaf","system_id":"levelo_inurba_marseille","lat":43.25008,"lon":5.3891,"is_reserved":false,"is_disabled":false,"rental_uris":{"android":"levelo://app?vid=b4eb30bc-dd09-4cbf-8ece-3b8ada662aaf","ios":"levelo://app?vid=b4eb30bc-dd09-4cbf-8ece-3b8ada662aaf"},"vehicle_type_id":"4","last_reported":1731236789,"current_range_meters":14400,"station_id":"ce4bhgp2rcd13ifvqfd0","pricing_plan_id":"cebpf4jnsgd1na2vs0mg"},{"bike_id":"35c9866e-9095-49c5-ba06-72a672a0ce24","system_id":"levelo_inurba_marseille","lat":43.22932,"lon":5.35373,"is_reserved":false,"is_disabled":false,"rental_uris":{"android":"levelo://app?vid=35c9866e-9095-49c5-ba06-72a672a0ce24","ios":"levelo://app?vid=35c9866e-9095-49c5-ba06-72a672a0ce24"},"vehicle_type_id":"4","last_reported":1731236789,"current_range_meters":25200,"station_id":"cpo3532slgdg3j2ikp40","pricing_plan_id":"cebpf4jnsgd1na2vs0mg"},{"bike_id":"c931e854-f671-4eae-be17-c754dc3c9917","system_id":"levelo_inurba_marseille","lat":43.29559,"lon":5.42288,"is_reserved":false,"is_disabled":false,"rental_uris":{"android":"levelo://app?vid=c931e854-f671-4eae-be17-c754dc3c9917","ios":"levelo://app?vid=c931e854-f671-4eae-be17-c754dc3c9917"},"vehicle_type_id":"4","last_reported":1731236789,"current_range_meters":8400,"station_id":"ce4bhph2rcd13ifvqhdg","pricing_plan_id":"cebpf4jnsgd1na2vs0mg"},{"bike_id":"110cf750-d933-48ee-868c-94a0d2c3f544","system_id":"levelo_inurba_marseille","lat":43.22941,"lon":5.35376,"is_reserved":false,"is_disabled":false,"rental_uris":{"android":"levelo://app?vid=110cf750-d933-48ee-868c-94a0d2c3f544","ios":"levelo://app?vid=110cf750-d933-48ee-868c-94a0d2c3f544"},"vehicle_type_id":"4","last_reported":1731236789,"current_range_meters":36400,"station_id":"cpo3532slgdg3j2ikp40","pricing_plan_id":"cebpf4jnsgd1na2vs0mg"},{"bike_id":"26a3e5fe-a4fc-4030-a34d-1c3abe24f5bb","system_id":"levelo_inurba_marseille","lat":43.25092,"lon":5.39516,"is_reserved":false,"is_disabled":false,"rental_uris":{"android":"levelo://app?vid=26a3e5fe-a4fc-4030-a34d-1c3abe24f5bb","ios":"levelo://app?vid=26a3e5fe-a4fc-4030-a34d-1c3abe24f5bb"},"vehicle_type_id":"4","last_reported":1731236789,"current_range_meters":36800,"station_id":"ce4bhm12rcd13ifvqgkg","pricing_plan_id":"cebpf4jnsgd1na2vs0mg"},{"bike_id":"df707d1b-672d-48bc-be32-fc54b8d1bd9e","system_id":"levelo_inurba_marseille","lat":43.31267,"lon":5.40155,"is_reserved":false,"is_disabled":false,"rental_uris":{"android":"levelo://app?vid=df707d1b-672d-48bc-be32-fc54b8d1bd9e","ios":"levelo://app?vid=df707d1b-672d-48bc-be32-fc54b8d1bd9e"},"vehicle_type_id":"4","last_reported":1731236789,"current_range_meters":3200,"station_id":"ce4bh092rcd13ifvqd30","pricing_plan_id":"cebpf4jnsgd1na2vs0mg"},{"bike_id":"961f3708-c589-4143-8e95-6f61ad74d927","system_id":"levelo_inurba_marseille","lat":43.32054,"lon":5.41536,"is_reserved":false,"is_disabled":false,"rental_uris":{"android":"levelo://app?vid=961f3708-c589-4143-8e95-6f61ad74d927","ios":"levelo://app?vid=961f3708-c589-4143-8e95-6f61ad74d927"},"vehicle_type_id":"4","last_reported":1731236789,"current_range_meters":38000,"station_id":"ce4bhq92rcd13ifvqhkg","pricing_plan_id":"cebpf4jnsgd1na2vs0mg"},{"bike_id":"799051fd-d983-438d-b1a6-f94aa3428752","system_id":"levelo_inurba_marseille","lat":43.29546,"lon":5.42282,"is_reserved":false,"is_disabled":false,"rental_uris":{"android":"levelo://app?vid=799051fd-d983-438d-b1a6-f94aa3428752","ios":"levelo://app?vid=799051fd-d983-438d-b1a6-f94aa3428752"},"vehicle_type_id":"4","last_reported":1731236789,"current_range_meters":38000,"station_id":"ce4bhph2rcd13ifvqhdg","pricing_plan_id":"cebpf4jnsgd1na2vs0mg"},{"bike_id":"b9c338fd-fab0-419f-8da1-44b05a45dfd0","system_id":"levelo_inurba_marseille","lat":43.29708,"lon":5.37689,"is_reserved":false,"is_disabled":false,"rental_uris":{"android":"levelo://app?vid=b9c338fd-fab0-419f-8da1-44b05a45dfd0","ios":"levelo://app?vid=b9c338fd-fab0-419f-8da1-44b05a45dfd0"},"vehicle_type_id":"4","last_reported":1731236789,"current_range_meters":38800,"station_id":"ce4bgkh2rcd13ifvqbl0","pricing_plan_id":"cebpf4jnsgd1na2vs0mg"},{"bike_id":"1e39e34b-f20a-42f5-865d-8799202a83c0","system_id":"levelo_inurba_marseille","lat":43.29616,"lon":5.37721,"is_reserved":false,"is_disabled":false,"rental_uris":{"android":"levelo://app?vid=1e39e34b-f20a-42f5-865d-8799202a83c0","ios":"levelo://app?vid=1e39e34b-f20a-42f5-865d-8799202a83c0"},"vehicle_type_id":"4","last_reported":1731236789,"current_range_meters":37600,"station_id":"ce4bgi92rcd13ifvqb90","pricing_plan_id":"cebpf4jnsgd1na2vs0mg"},{"bike_id":"9e8d8638-4ed3-4e3e-b9a6-7d96f05e6649","system_id":"levelo_inurba_marseille","lat":43.29569,"lon":5.375,"is_reserved":false,"is_disabled":false,"rental_uris":{"android":"levelo://app?vid=9e8d8638-4ed3-4e3e-b9a6-7d96f05e6649","ios":"levelo://app?vid=9e8d8638-4ed3-4e3e-b9a6-7d96f05e6649"},"vehicle_type_id":"4","last_reported":1731236789,"current_range_meters":35200,"station_id":"ce4bgh92rcd13ifvqb50","pricing_plan_id":"cebpf4jnsgd1na2vs0mg"},{"bike_id":"03e7360f-64b2-4912-af82-7ab3780a6b3a","system_id":"levelo_inurba_marseille","lat":43.29529,"lon":5.37501,"is_reserved":false,"is_disabled":false,"rental_uris":{"android":"levelo://app?vid=03e7360f-64b2-4912-af82-7ab3780a6b3a","ios":"levelo://app?vid=03e7360f-64b2-4912-af82-7ab3780a6b3a"},"vehicle_type_id":"4","last_reported":1731236789,"current_range_meters":26000,"station_id":"ce4bgkp2rcd13ifvqbmg","pricing_plan_id":"cebpf4jnsgd1na2vs0mg"},{"bike_id":"c43bfbe6-2bf2-47fb-80a7-057f382a90aa","system_id":"levelo_inurba_marseille","lat":43.23193,"lon":5.35544,"is_reserved":false,"is_disabled":false,"rental_uris":{"android":"levelo://app?vid=c43bfbe6-2bf2-47fb-80a7-057f382a90aa","ios":"levelo://app?vid=c43bfbe6-2bf2-47fb-80a7-057f382a90aa"},"vehicle_type_id":"4","last_reported":1731236789,"current_range_meters":25200,"station_id":"ce4bhu92rcd13ifvqi70","pricing_plan_id":"cebpf4jnsgd1na2vs0mg"},{"bike_id":"e61e0940-c088-4879-95f6-2eeeebf20835","system_id":"levelo_inurba_marseille","lat":43.317,"lon":5.37747,"is_reserved":false,"is_disabled":false,"rental_uris":{"android":"levelo://app?vid=e61e0940-c088-4879-95f6-2eeeebf20835","ios":"levelo://app?vid=e61e0940-c088-4879-95f6-2eeeebf20835"},"vehicle_type_id":"4","last_reported":1731236789,"current_range_meters":14800,"station_id":"ce4bgth2rcd13ifvqch0","pricing_plan_id":"cebpf4jnsgd1na2vs0mg"},{"bike_id":"e420b0d1-02ee-4a6a-99fa-119843161849","system_id":"levelo_inurba_marseille","lat":43.25117,"lon":5.40316,"is_reserved":false,"is_disabled":false,"rental_uris":{"android":"levelo://app?vid=e420b0d1-02ee-4a6a-99fa-119843161849","ios":"levelo://app?vid=e420b0d1-02ee-4a6a-99fa-119843161849"},"vehicle_type_id":"4","last_reported":1731236789,"current_range_meters":30000,"station_id":"ce4bhlh2rcd13ifvqgig","pricing_plan_id":"cebpf4jnsgd1na2vs0mg"},{"bike_id":"987063fb-a0fb-49a6-9b93-5e2021adb561","system_id":"levelo_inurba_marseille","lat":43.28696,"lon":5.37397,"is_reserved":false,"is_disabled":false,"rental_uris":{"android":"levelo://app?vid=987063fb-a0fb-49a6-9b93-5e2021adb561","ios":"levelo://app?vid=987063fb-a0fb-49a6-9b93-5e2021adb561"},"vehicle_type_id":"4","last_reported":1731236789,"current_range_meters":38800,"station_id":"ce4bh3p2rcd13ifvqdq0","pricing_plan_id":"cebpf4jnsgd1na2vs0mg"},{"bike_id":"daed64dd-02f6-4c40-9325-b28b46a59db3","system_id":"levelo_inurba_marseille","lat":43.23061,"lon":5.35488,"is_reserved":false,"is_disabled":false,"rental_uris":{"android":"levelo://app?vid=daed64dd-02f6-4c40-9325-b28b46a59db3","ios":"levelo://app?vid=daed64dd-02f6-4c40-9325-b28b46a59db3"},"vehicle_type_id":"4","last_reported":1731236789,"current_range_meters":25600,"station_id":"cpo3342slgdg3j2ifvpg","pricing_plan_id":"cebpf4jnsgd1na2vs0mg"},{"bike_id":"73f45b8b-6c16-4e88-9a89-9f595ecbe7b1","system_id":"levelo_inurba_marseille","lat":43.24075,"lon":5.37759,"is_reserved":false,"is_disabled":false,"rental_uris":{"android":"levelo://app?vid=73f45b8b-6c16-4e88-9a89-9f595ecbe7b1","ios":"levelo://app?vid=73f45b8b-6c16-4e88-9a89-9f595ecbe7b1"},"vehicle_type_id":"4","last_reported":1731236789,"current_range_meters":38400,"station_id":"ce4bhnp2rcd13ifvqgvg","pricing_plan_id":"cebpf4jnsgd1na2vs0mg"},{"bike_id":"54d625da-e6e6-4ede-8666-53458f12f8c7","system_id":"levelo_inurba_marseille","lat":43.33025,"lon":5.39037,"is_reserved":false,"is_disabled":false,"rental_uris":{"android":"levelo://app?vid=54d625da-e6e6-4ede-8666-53458f12f8c7","ios":"levelo://app?vid=54d625da-e6e6-4ede-8666-53458f12f8c7"},"vehicle_type_id":"4","last_reported":1731236789,"current_range_meters":30400,"station_id":"ce4bhr92rcd13ifvqhrg","pricing_plan_id":"cebpf4jnsgd1na2vs0mg"},{"bike_id":"edef5d6f-e327-4e17-9056-4a44da3da1ba","system_id":"levelo_inurba_marseille","lat":43.23192,"lon":5.39976,"is_reserved":false,"is_disabled":false,"rental_uris":{"android":"levelo://app?vid=edef5d6f-e327-4e17-9056-4a44da3da1ba","ios":"levelo://app?vid=edef5d6f-e327-4e17-9056-4a44da3da1ba"},"vehicle_type_id":"4","last_reported":1731236789,"current_range_meters":38000,"station_id":"ce4bhn12rcd13ifvqgqg","pricing_plan_id":"cebpf4jnsgd1na2vs0mg"},{"bike_id":"761b559c-7e03-4a0f-b189-e334526763e9","system_id":"levelo_inurba_marseille","lat":43.32471,"lon":5.36568,"is_reserved":false,"is_disabled":false,"rental_uris":{"android":"levelo://app?vid=761b559c-7e03-4a0f-b189-e334526763e9","ios":"levelo://app?vid=761b559c-7e03-4a0f-b189-e334526763e9"},"vehicle_type_id":"4","last_reported":1731236789,"current_range_meters":9600,"station_id":"ce4bhs12rcd13ifvqhvg","pricing_plan_id":"cebpf4jnsgd1na2vs0mg"},{"bike_id":"48822364-7efb-4efd-945a-cea2ff571d1e","system_id":"levelo_inurba_marseille","lat":43.31708,"lon":5.37741,"is_reserved":false,"is_disabled":false,"rental_uris":{"android":"levelo://app?vid=48822364-7efb-4efd-945a-cea2ff571d1e","ios":"levelo://app?vid=48822364-7efb-4efd-945a-cea2ff571d1e"},"vehicle_type_id":"4","last_reported":1731236789,"current_range_meters":18800,"station_id":"ce4bgth2rcd13ifvqch0","pricing_plan_id":"cebpf4jnsgd1na2vs0mg"},{"bike_id":"7e7be88e-2387-4ac1-8672-4e3f2accb589","system_id":"levelo_inurba_marseille","lat":43.23192,"lon":5.35551,"is_reserved":false,"is_disabled":false,"rental_uris":{"android":"levelo://app?vid=7e7be88e-2387-4ac1-8672-4e3f2accb589","ios":"levelo://app?vid=7e7be88e-2387-4ac1-8672-4e3f2accb589"},"vehicle_type_id":"4","last_reported":1731236789,"current_range_meters":10800,"station_id":"ce4bhu92rcd13ifvqi70","pricing_plan_id":"cebpf4jnsgd1na2vs0mg"},{"bike_id":"e2f539b2-1c9a-4c53-8dc2-a41bd1a14b91","system_id":"levelo_inurba_marseille","lat":43.28272,"lon":5.35068,"is_reserved":false,"is_disabled":false,"rental_uris":{"android":"levelo://app?vid=e2f539b2-1c9a-4c53-8dc2-a41bd1a14b91","ios":"levelo://app?vid=e2f539b2-1c9a-4c53-8dc2-a41bd1a14b91"},"vehicle_type_id":"4","last_reported":1731236789,"current_range_meters":30400,"station_id":"ce4bhbp2rcd13ifvqerg","pricing_plan_id":"cebpf4jnsgd1na2vs0mg"},{"bike_id":"44a464aa-e137-4bf0-b677-b88023c9f602","system_id":"levelo_inurba_marseille","lat":43.29224,"lon":5.3607,"is_reserved":false,"is_disabled":false,"rental_uris":{"android":"levelo://app?vid=44a464aa-e137-4bf0-b677-b88023c9f602","ios":"levelo://app?vid=44a464aa-e137-4bf0-b677-b88023c9f602"},"vehicle_type_id":"4","last_reported":1731236789,"current_range_meters":33200,"station_id":"ce4bhbh2rcd13ifvqeqg","pricing_plan_id":"cebpf4jnsgd1na2vs0mg"},{"bike_id":"8f176852-51d8-4ea9-943f-c539a472ae88","system_id":"levelo_inurba_marseille","lat":43.28261,"lon":5.35062,"is_reserved":false,"is_disabled":false,"rental_uris":{"android":"levelo://app?vid=8f176852-51d8-4ea9-943f-c539a472ae88","ios":"levelo://app?vid=8f176852-51d8-4ea9-943f-c539a472ae88"},"vehicle_type_id":"4","last_reported":1731236789,"current_range_meters":18800,"station_id":"ce4bhbp2rcd13ifvqerg","pricing_plan_id":"cebpf4jnsgd1na2vs0mg"},{"bike_id":"5f63c5ff-83da-4eaa-bb8a-f8bc7bcb3bf0","system_id":"levelo_inurba_marseille","lat":43.301422,"lon":5.387807,"is_reserved":false,"is_disabled":false,"rental_uris":{"android":"levelo://app?vid=5f63c5ff-83da-4eaa-bb8a-f8bc7bcb3bf0","ios":"levelo://app?vid=5f63c5ff-83da-4eaa-bb8a-f8bc7bcb3bf0"},"vehicle_type_id":"4","last_reported":1731236789,"current_range_meters":23200,"station_id":"ce4bghh2rcd13ifvqb60","pricing_plan_id":"cebpf4jnsgd1na2vs0mg"},{"bike_id":"8e1c97e9-4bb6-4dff-b2fe-2c49b00459ce","system_id":"levelo_inurba_marseille","lat":43.29234,"lon":5.3606,"is_reserved":false,"is_disabled":false,"rental_uris":{"android":"levelo://app?vid=8e1c97e9-4bb6-4dff-b2fe-2c49b00459ce","ios":"levelo://app?vid=8e1c97e9-4bb6-4dff-b2fe-2c49b00459ce"},"vehicle_type_id":"4","last_reported":1731236789,"current_range_meters":16400,"station_id":"ce4bhbh2rcd13ifvqeqg","pricing_plan_id":"cebpf4jnsgd1na2vs0mg"},{"bike_id":"c2bf881a-f020-4e0e-819d-ec6a7c5dac04","system_id":"levelo_inurba_marseille","lat":43.31698,"lon":5.37767,"is_reserved":false,"is_disabled":false,"rental_uris":{"android":"levelo://app?vid=c2bf881a-f020-4e0e-819d-ec6a7c5dac04","ios":"levelo://app?vid=c2bf881a-f020-4e0e-819d-ec6a7c5dac04"},"vehicle_type_id":"4","last_reported":1731236789,"current_range_meters":19200,"station_id":"ce4bgth2rcd13ifvqch0","pricing_plan_id":"cebpf4jnsgd1na2vs0mg"},{"bike_id":"6fa19e17-bdec-4054-9042-0b23d398250d","system_id":"levelo_inurba_marseille","lat":43.29225,"lon":5.36033,"is_reserved":false,"is_disabled":false,"rental_uris":{"android":"levelo://app?vid=6fa19e17-bdec-4054-9042-0b23d398250d","ios":"levelo://app?vid=6fa19e17-bdec-4054-9042-0b23d398250d"},"vehicle_type_id":"4","last_reported":1731236789,"current_range_meters":32000,"station_id":"ce4bhbh2rcd13ifvqeqg","pricing_plan_id":"cebpf4jnsgd1na2vs0mg"},{"bike_id":"5cc21f71-ae98-48bc-87d8-468c4da23c85","system_id":"levelo_inurba_marseille","lat":43.317055,"lon":5.377509,"is_reserved":false,"is_disabled":false,"rental_uris":{"android":"levelo://app?vid=5cc21f71-ae98-48bc-87d8-468c4da23c85","ios":"levelo://app?vid=5cc21f71-ae98-48bc-87d8-468c4da23c85"},"vehicle_type_id":"4","last_reported":1731236789,"current_range_meters":21600,"station_id":"ce4bgth2rcd13ifvqch0","pricing_plan_id":"cebpf4jnsgd1na2vs0mg"},{"bike_id":"16dcc64f-08a2-4ced-a0c9-c4e6437bce4e","system_id":"levelo_inurba_marseille","lat":43.28401,"lon":5.37517,"is_reserved":false,"is_disabled":false,"rental_uris":{"android":"levelo://app?vid=16dcc64f-08a2-4ced-a0c9-c4e6437bce4e","ios":"levelo://app?vid=16dcc64f-08a2-4ced-a0c9-c4e6437bce4e"},"vehicle_type_id":"4","last_reported":1731236789,"current_range_meters":9200,"station_id":"ce4bh412rcd13ifvqds0","pricing_plan_id":"cebpf4jnsgd1na2vs0mg"},{"bike_id":"6a382b3e-46a5-47d8-8f2a-79f38274ae1c","system_id":"levelo_inurba_marseille","lat":43.239654,"lon":5.366336,"is_reserved":false,"is_disabled":false,"rental_uris":{"android":"levelo://app?vid=6a382b3e-46a5-47d8-8f2a-79f38274ae1c","ios":"levelo://app?vid=6a382b3e-46a5-47d8-8f2a-79f38274ae1c"},"vehicle_type_id":"4","last_reported":1731236789,"current_range_meters":33600,"station_id":"ce4bhi12rcd13ifvqfp0","pricing_plan_id":"cebpf4jnsgd1na2vs0mg"},{"bike_id":"c5ffd536-999f-4ee7-ae83-b10f03cd32b7","system_id":"levelo_inurba_marseille","lat":43.29555,"lon":5.42288,"is_reserved":false,"is_disabled":false,"rental_uris":{"android":"levelo://app?vid=c5ffd536-999f-4ee7-ae83-b10f03cd32b7","ios":"levelo://app?vid=c5ffd536-999f-4ee7-ae83-b10f03cd32b7"},"vehicle_type_id":"4","last_reported":1731236789,"current_range_meters":8800,"station_id":"ce4bhph2rcd13ifvqhdg","pricing_plan_id":"cebpf4jnsgd1na2vs0mg"},{"bike_id":"0d4284d5-6c2a-4ead-92fd-8d35fe9b1480","system_id":"levelo_inurba_marseille","lat":43.29224,"lon":5.36058,"is_reserved":false,"is_disabled":false,"rental_uris":{"android":"levelo://app?vid=0d4284d5-6c2a-4ead-92fd-8d35fe9b1480","ios":"levelo://app?vid=0d4284d5-6c2a-4ead-92fd-8d35fe9b1480"},"vehicle_type_id":"4","last_reported":1731236789,"current_range_meters":35600,"station_id":"ce4bhbh2rcd13ifvqeqg","pricing_plan_id":"cebpf4jnsgd1na2vs0mg"},{"bike_id":"e8968575-a63f-4f68-8883-204e34fb5284","system_id":"levelo_inurba_marseille","lat":43.29052,"lon":5.35902,"is_reserved":false,"is_disabled":false,"rental_uris":{"android":"levelo://app?vid=e8968575-a63f-4f68-8883-204e34fb5284","ios":"levelo://app?vid=e8968575-a63f-4f68-8883-204e34fb5284"},"vehicle_type_id":"4","last_reported":1731236789,"current_range_meters":27600,"station_id":"ce4bha92rcd13ifvqeg0","pricing_plan_id":"cebpf4jnsgd1na2vs0mg"},{"bike_id":"e6970ce9-b289-47fa-8459-924af2fe66a3","system_id":"levelo_inurba_marseille","lat":43.23154,"lon":5.43703,"is_reserved":false,"is_disabled":false,"rental_uris":{"android":"levelo://app?vid=e6970ce9-b289-47fa-8459-924af2fe66a3","ios":"levelo://app?vid=e6970ce9-b289-47fa-8459-924af2fe66a3"},"vehicle_type_id":"4","last_reported":1731236789,"current_range_meters":23200,"station_id":"ce4bhmp2rcd13ifvqgog","pricing_plan_id":"cebpf4jnsgd1na2vs0mg"},{"bike_id":"3b66d3b6-cdcd-4d31-9366-8e6f1e8ca47a","system_id":"levelo_inurba_marseille","lat":43.3211,"lon":5.36773,"is_reserved":false,"is_disabled":false,"rental_uris":{"android":"levelo://app?vid=3b66d3b6-cdcd-4d31-9366-8e6f1e8ca47a","ios":"levelo://app?vid=3b66d3b6-cdcd-4d31-9366-8e6f1e8ca47a"},"vehicle_type_id":"4","last_reported":1731236789,"current_range_meters":34000,"station_id":"ce4bhrh2rcd13ifvqhug","pricing_plan_id":"cebpf4jnsgd1na2vs0mg"},{"bike_id":"b42c0d0c-e899-48c3-bc4e-0ea09d4bc70a","system_id":"levelo_inurba_marseille","lat":43.23182,"lon":5.39994,"is_reserved":false,"is_disabled":false,"rental_uris":{"android":"levelo://app?vid=b42c0d0c-e899-48c3-bc4e-0ea09d4bc70a","ios":"levelo://app?vid=b42c0d0c-e899-48c3-bc4e-0ea09d4bc70a"},"vehicle_type_id":"4","last_reported":1731236789,"current_range_meters":25600,"station_id":"ce4bhn12rcd13ifvqgqg","pricing_plan_id":"cebpf4jnsgd1na2vs0mg"},{"bike_id":"6c55c68c-8072-4a7a-8968-0f76e76b364b","system_id":"levelo_inurba_marseille","lat":43.28418,"lon":5.34982,"is_reserved":false,"is_disabled":false,"rental_uris":{"android":"levelo://app?vid=6c55c68c-8072-4a7a-8968-0f76e76b364b","ios":"levelo://app?vid=6c55c68c-8072-4a7a-8968-0f76e76b364b"},"vehicle_type_id":"4","last_reported":1731236789,"current_range_meters":37600,"station_id":"ce4bhbh2rcd13ifvqepg","pricing_plan_id":"cebpf4jnsgd1na2vs0mg"},{"bike_id":"8606dd30-fd6e-4b79-9c73-acace12c2d0d","system_id":"levelo_inurba_marseille","lat":43.30433,"lon":5.3674,"is_reserved":false,"is_disabled":false,"rental_uris":{"android":"levelo://app?vid=8606dd30-fd6e-4b79-9c73-acace12c2d0d","ios":"levelo://app?vid=8606dd30-fd6e-4b79-9c73-acace12c2d0d"},"vehicle_type_id":"4","last_reported":1731236789,"current_range_meters":35200,"station_id":"","pricing_plan_id":"cebpf4jnsgd1na2vs0mg"},{"bike_id":"b0ca4af2-a5d4-4df3-bbff-48880d0c5875","system_id":"levelo_inurba_marseille","lat":43.23065,"lon":5.35487,"is_reserved":false,"is_disabled":false,"rental_uris":{"android":"levelo://app?vid=b0ca4af2-a5d4-4df3-bbff-48880d0c5875","ios":"levelo://app?vid=b0ca4af2-a5d4-4df3-bbff-48880d0c5875"},"vehicle_type_id":"4","last_reported":1731236789,"current_range_meters":34000,"station_id":"cpo3342slgdg3j2ifvpg","pricing_plan_id":"cebpf4jnsgd1na2vs0mg"},{"bike_id":"5cfb38f0-115e-4c85-b709-a8c627fff0a8","system_id":"levelo_inurba_marseille","lat":43.29551,"lon":5.4228,"is_reserved":false,"is_disabled":false,"rental_uris":{"android":"levelo://app?vid=5cfb38f0-115e-4c85-b709-a8c627fff0a8","ios":"levelo://app?vid=5cfb38f0-115e-4c85-b709-a8c627fff0a8"},"vehicle_type_id":"4","last_reported":1731236789,"current_range_meters":38800,"station_id":"ce4bhph2rcd13ifvqhdg","pricing_plan_id":"cebpf4jnsgd1na2vs0mg"},{"bike_id":"30993bda-1af7-48c7-a506-c1c09af87c77","system_id":"levelo_inurba_marseille","lat":43.29006,"lon":5.35611,"is_reserved":false,"is_disabled":false,"rental_uris":{"android":"levelo://app?vid=30993bda-1af7-48c7-a506-c1c09af87c77","ios":"levelo://app?vid=30993bda-1af7-48c7-a506-c1c09af87c77"},"vehicle_type_id":"4","last_reported":1731236789,"current_range_meters":38800,"station_id":"ce4bhb92rcd13ifvqen0","pricing_plan_id":"cebpf4jnsgd1na2vs0mg"},{"bike_id":"47f1427e-aa13-4e96-964c-285ec2006da0","system_id":"levelo_inurba_marseille","lat":43.23157,"lon":5.43702,"is_reserved":false,"is_disabled":false,"rental_uris":{"android":"levelo://app?vid=47f1427e-aa13-4e96-964c-285ec2006da0","ios":"levelo://app?vid=47f1427e-aa13-4e96-964c-285ec2006da0"},"vehicle_type_id":"4","last_reported":1731236789,"current_range_meters":10000,"station_id":"ce4bhmp2rcd13ifvqgog","pricing_plan_id":"cebpf4jnsgd1na2vs0mg"},{"bike_id":"9fe0a992-01e9-4753-b924-f3836644a6bd","system_id":"levelo_inurba_marseille","lat":43.26485,"lon":5.39547,"is_reserved":false,"is_disabled":false,"rental_uris":{"android":"levelo://app?vid=9fe0a992-01e9-4753-b924-f3836644a6bd","ios":"levelo://app?vid=9fe0a992-01e9-4753-b924-f3836644a6bd"},"vehicle_type_id":"4","last_reported":1731236789,"current_range_meters":16000,"station_id":"ce4bhi12rcd13ifvqfq0","pricing_plan_id":"cebpf4jnsgd1na2vs0mg"},{"bike_id":"16edd5e5-0497-4831-bb6b-d18eb7e92293","system_id":"levelo_inurba_marseille","lat":43.24804,"lon":5.3745,"is_reserved":false,"is_disabled":false,"rental_uris":{"android":"levelo://app?vid=16edd5e5-0497-4831-bb6b-d18eb7e92293","ios":"levelo://app?vid=16edd5e5-0497-4831-bb6b-d18eb7e92293"},"vehicle_type_id":"4","last_reported":1731236789,"current_range_meters":30400,"station_id":"ce4bhgh2rcd13ifvqfb0","pricing_plan_id":"cebpf4jnsgd1na2vs0mg"},{"bike_id":"92afff46-53f8-4686-9873-43b6524b838a","system_id":"levelo_inurba_marseille","lat":43.23151,"lon":5.43713,"is_reserved":false,"is_disabled":false,"rental_uris":{"android":"levelo://app?vid=92afff46-53f8-4686-9873-43b6524b838a","ios":"levelo://app?vid=92afff46-53f8-4686-9873-43b6524b838a"},"vehicle_type_id":"4","last_reported":1731236789,"current_range_meters":2000,"station_id":"ce4bhmp2rcd13ifvqgog","pricing_plan_id":"cebpf4jnsgd1na2vs0mg"},{"bike_id":"944ffc02-ab82-4ea5-9ea9-3e97a077e5b5","system_id":"levelo_inurba_marseille","lat":43.2397,"lon":5.36624,"is_reserved":false,"is_disabled":false,"rental_uris":{"android":"levelo://app?vid=944ffc02-ab82-4ea5-9ea9-3e97a077e5b5","ios":"levelo://app?vid=944ffc02-ab82-4ea5-9ea9-3e97a077e5b5"},"vehicle_type_id":"4","last_reported":1731236789,"current_range_meters":38400,"station_id":"ce4bhi12rcd13ifvqfp0","pricing_plan_id":"cebpf4jnsgd1na2vs0mg"},{"bike_id":"7b41cb72-e5a7-4522-afc0-478f7da18d1a","system_id":"levelo_inurba_marseille","lat":43.23965,"lon":5.36631,"is_reserved":false,"is_disabled":false,"rental_uris":{"android":"levelo://app?vid=7b41cb72-e5a7-4522-afc0-478f7da18d1a","ios":"levelo://app?vid=7b41cb72-e5a7-4522-afc0-478f7da18d1a"},"vehicle_type_id":"4","last_reported":1731236789,"current_range_meters":34800,"station_id":"ce4bhi12rcd13ifvqfp0","pricing_plan_id":"cebpf4jnsgd1na2vs0mg"},{"bike_id":"07601670-eb7f-4f0e-b9f6-627fce47aada","system_id":"levelo_inurba_marseille","lat":43.23188,"lon":5.39996,"is_reserved":false,"is_disabled":false,"rental_uris":{"android":"levelo://app?vid=07601670-eb7f-4f0e-b9f6-627fce47aada","ios":"levelo://app?vid=07601670-eb7f-4f0e-b9f6-627fce47aada"},"vehicle_type_id":"4","last_reported":1731236789,"current_range_meters":36800,"station_id":"ce4bhn12rcd13ifvqgqg","pricing_plan_id":"cebpf4jnsgd1na2vs0mg"},{"bike_id":"1cb9b11b-ab7a-4ec7-aaf3-27cc692ef09b","system_id":"levelo_inurba_marseille","lat":43.27371,"lon":5.36262,"is_reserved":false,"is_disabled":false,"rental_uris":{"android":"levelo://app?vid=1cb9b11b-ab7a-4ec7-aaf3-27cc692ef09b","ios":"levelo://app?vid=1cb9b11b-ab7a-4ec7-aaf3-27cc692ef09b"},"vehicle_type_id":"4","last_reported":1731236789,"current_range_meters":19600,"station_id":"ce4bhbh2rcd13ifvqeo0","pricing_plan_id":"cebpf4jnsgd1na2vs0mg"},{"bike_id":"60d1f72c-ee7a-4c46-b255-9afed313f66a","system_id":"levelo_inurba_marseille","lat":43.240854,"lon":5.377458,"is_reserved":false,"is_disabled":false,"rental_uris":{"android":"levelo://app?vid=60d1f72c-ee7a-4c46-b255-9afed313f66a","ios":"levelo://app?vid=60d1f72c-ee7a-4c46-b255-9afed313f66a"},"vehicle_type_id":"4","last_reported":1731236789,"current_range_meters":38800,"station_id":"ce4bhnp2rcd13ifvqgvg","pricing_plan_id":"cebpf4jnsgd1na2vs0mg"},{"bike_id":"3afe71be-4f71-4789-be9e-12150afa4010","system_id":"levelo_inurba_marseille","lat":43.22935,"lon":5.35371,"is_reserved":false,"is_disabled":false,"rental_uris":{"android":"levelo://app?vid=3afe71be-4f71-4789-be9e-12150afa4010","ios":"levelo://app?vid=3afe71be-4f71-4789-be9e-12150afa4010"},"vehicle_type_id":"4","last_reported":1731236789,"current_range_meters":39200,"station_id":"cpo3532slgdg3j2ikp40","pricing_plan_id":"cebpf4jnsgd1na2vs0mg"},{"bike_id":"a672c2ef-c813-4e06-b21a-38d83e20314d","system_id":"levelo_inurba_marseille","lat":43.28411,"lon":5.34982,"is_reserved":false,"is_disabled":false,"rental_uris":{"android":"levelo://app?vid=a672c2ef-c813-4e06-b21a-38d83e20314d","ios":"levelo://app?vid=a672c2ef-c813-4e06-b21a-38d83e20314d"},"vehicle_type_id":"4","last_reported":1731236789,"current_range_meters":22400,"station_id":"ce4bhbh2rcd13ifvqepg","pricing_plan_id":"cebpf4jnsgd1na2vs0mg"},{"bike_id":"78188c58-680a-4bb4-917a-afe39a18c51f","system_id":"levelo_inurba_marseille","lat":43.22928,"lon":5.35374,"is_reserved":false,"is_disabled":false,"rental_uris":{"android":"levelo://app?vid=78188c58-680a-4bb4-917a-afe39a18c51f","ios":"levelo://app?vid=78188c58-680a-4bb4-917a-afe39a18c51f"},"vehicle_type_id":"4","last_reported":1731236789,"current_range_meters":12800,"station_id":"cpo3532slgdg3j2ikp40","pricing_plan_id":"cebpf4jnsgd1na2vs0mg"},{"bike_id":"579d9dbc-2e30-4041-aa13-67618c925e3e","system_id":"levelo_inurba_marseille","lat":43.295205,"lon":5.375064,"is_reserved":false,"is_disabled":false,"rental_uris":{"android":"levelo://app?vid=579d9dbc-2e30-4041-aa13-67618c925e3e","ios":"levelo://app?vid=579d9dbc-2e30-4041-aa13-67618c925e3e"},"vehicle_type_id":"4","last_reported":1731236789,"current_range_meters":38000,"station_id":"ce4bgkp2rcd13ifvqbmg","pricing_plan_id":"cebpf4jnsgd1na2vs0mg"},