{"last_updated":1784743221,"ttl":60,"version":"2.2","data":{"bikes":[{"bike_id":"7ef36254-6bb3-448c-8d77-979d957d54b6","system_id":"levelo_inurba_marseille","lat":43.337444,"lon":5.374475,"is_reserved":false,"is_disabled":false,"rental_uris":{"android":"levelo://app?vid=7ef36254-6bb3-448c-8d77-979d957d54b6","ios":"levelo://app?vid=7ef36254-6bb3-448c-8d77-979d957d54b6"},"vehicle_type_id":"4","last_reported":1784743222,"current_range_meters":0,"station_id":"","pricing_plan_id":"cebpf4jnsgd1na2vs0mg"},{"bike_id":"21fe2e98-0432-4b40-a81f-10dd00b0f57d","system_id":"levelo_inurba_marseille","lat":43.337444,"lon":5.374475,"is_reserved":false,"is_disabled":false,"rental_uris":{"android":"levelo://app?vid=21fe2e98-0432-4b40-a81f-10dd00b0f57d","ios":"levelo://app?vid=21fe2e98-0432-4b40-a81f-10dd00b0f57d"},"vehicle_type_id":"4","last_reported":1784743222,"current_range_meters":0,"station_id":"","pricing_plan_id":"cebpf4jnsgd1na2vs0mg"},{"bike_id":"a005102a-45c6-430f-8cd7-a0a69490bbf0","system_id":"levelo_inurba_marseille","lat":43.33519,"lon":5.37481,"is_reserved":false,"is_disabled":false,"rental_uris":{"android":"levelo://app?vid=a005102a-45c6-430f-8cd7-a0a69490bbf0","ios":"levelo://app?vid=a005102a-45c6-430f-8cd7-a0a69490bbf0"},"vehicle_type_id":"4","last_reported":1784743222,"current_range_meters":34000,"station_id":"st_d46tts09ee8s73dlu43g","pricing_plan_id":"cebpf4jnsgd1na2vs0mg"},{"bike_id":"e35a7b3d-d6be-4e45-8bf8-f140e099eb23","system_id":"levelo_inurba_marseille","lat":43.27053,"lon":5.40258,"is_reserved":false,"is_disabled":false,"rental_uris":{"android":"levelo://app?vid=e35a7b3d-d6be-4e45-8bf8-f140e099eb23","ios":"levelo://app?vid=e35a7b3d-d6be-4e45-8bf8-f140e099eb23"},"vehicle_type_id":"4","last_reported":1784743222,"current_range_meters":39200,"station_id":"ce4bhk92rcd13ifvqgc0","pricing_plan_id":"cebpf4jnsgd1na2vs0mg"},{"bike_id":"910edd9b-3f88-46ff-af53-0deba1c167b6","system_id":"levelo_inurba_marseille","lat":43.23959,"lon":5.36628,"is_reserved":false,"is_disabled":false,"rental_uris":{"android":"levelo://app?vid=910edd9b-3f88-46ff-af53-0deba1c167b6","ios":"levelo://app?vid=910edd9b-3f88-46ff-af53-0deba1c167b6"},"vehicle_type_id":"4","last_reported":1784743222,"current_range_meters":38400,"station_id":"ce4bhi12rcd13ifvqfp0","pricing_plan_id":"cebpf4jnsgd1na2vs0mg"},{"bike_id":"62718dab-79ef-4c4e-bb69-8f4eb7b59fe8","system_id":"levelo_inurba_marseille","lat":43.27812,"lon":5.40711,"is_reserved":false,"is_disabled":false,"rental_uris":{"android":"levelo://app?vid=62718dab-79ef-4c4e-bb69-8f4eb7b59fe8","ios":"levelo://app?vid=62718dab-79ef-4c4e-bb69-8f4eb7b59fe8"},"vehicle_type_id":"4","last_reported":1784743222,"current_range_meters":32000,"station_id":"ce4bhnh2rcd13ifvqgtg","pricing_plan_id":"cebpf4jnsgd1na2vs0mg"},{"bike_id":"eaf6c4bf-604d-4dd8-b4de-52f6da479651","system_id":"levelo_inurba_marseille","lat":43.25075,"lon":5.39551,"is_reserved":false,"is_disabled":false,"rental_uris":{"android":"levelo://app?vid=eaf6c4bf-604d-4dd8-b4de-52f6da479651","ios":"levelo://app?vid=eaf6c4bf-604d-4dd8-b4de-52f6da479651"},"vehicle_type_id":"4","last_reported":1784743222,"current_range_meters":36400,"station_id":"ce4bhm12rcd13ifvqgkg","pricing_plan_id":"cebpf4jnsgd1na2vs0mg"},{"bike_id":"f2c26268-2002-48c9-a2f8-8f76ed8a8540","system_id":"levelo_inurba_marseille","lat":43.23887,"lon":5.37461,"is_reserved":false,"is_disabled":false,"rental_uris":{"android":"levelo://app?vid=f2c26268-2002-48c9-a2f8-8f76ed8a8540","ios":"levelo://app?vid=f2c26268-2002-48c9-a2f8-8f76ed8a8540"},"vehicle_type_id":"4","last_reported":1784743222,"current_range_meters":39200,"station_id":"st_d6sm7csbq4hs73f8fpjg","pricing_plan_id":"cebpf4jnsgd1na2vs0mg"},{"bike_id":"9387c3de-2da8-45b8-9253-d8ccc0a09b3a","system_id":"levelo_inurba_marseille","lat":43.26561,"lon":5.39008,"is_reserved":false,"is_disabled":false,"rental_uris":{"android":"levelo://app?vid=9387c3de-2da8-45b8-9253-d8ccc0a09b3a","ios":"levelo://app?vid=9387c3de-2da8-45b8-9253-d8ccc0a09b3a"},"vehicle_type_id":"4","last_reported":1784743222,"current_range_meters":8400,"station_id":"ce4bhe12rcd13ifvqf30","pricing_plan_id":"cebpf4jnsgd1na2vs0mg"},{"bike_id":"72706276-fb69-4388-946e-2b4fb06a5929","system_id":"levelo_inurba_marseille","lat":43.32979,"lon":5.39026,"is_reserved":false,"is_disabled":false,"rental_uris":{"android":"levelo://app?vid=72706276-fb69-4388-946e-2b4fb06a5929","ios":"levelo://app?vid=72706276-fb69-4388-946e-2b4fb06a5929"},"vehicle_type_id":"4","last_reported":1784743222,"current_range_meters":6000,"station_id":"ce4bhr92rcd13ifvqhrg","pricing_plan_id":"cebpf4jnsgd1na2vs0mg"},{"bike_id":"d2d76f64-ed2a-42f7-a991-3f986d128400","system_id":"levelo_inurba_marseille","lat":43.28469,"lon":5.35871,"is_reserved":false,"is_disabled":false,"rental_uris":{"android":"levelo://app?vid=d2d76f64-ed2a-42f7-a991-3f986d128400","ios":"levelo://app?vid=d2d76f64-ed2a-42f7-a991-3f986d128400"},"vehicle_type_id":"4","last_reported":1784743222,"current_range_meters":28800,"station_id":"ce4bhah2rcd13ifvqei0","pricing_plan_id":"cebpf4jnsgd1na2vs0mg"},{"bike_id":"10ad0a9f-3c3b-45c2-8514-d34f29e37fe1","system_id":"levelo_inurba_marseille","lat":43.24379,"lon":5.37052,"is_reserved":false,"is_disabled":false,"rental_uris":{"android":"levelo://app?vid=10ad0a9f-3c3b-45c2-8514-d34f29e37fe1","ios":"levelo://app?vid=10ad0a9f-3c3b-45c2-8514-d34f29e37fe1"},"vehicle_type_id":"4","last_reported":1784743222,"current_range_meters":34800,"station_id":"ce4bhhh2rcd13ifvqfk0","pricing_plan_id":"cebpf4jnsgd1na2vs0mg"},{"bike_id":"0f294175-a67c-4cc4-8908-3b478749d73c","system_id":"levelo_inurba_marseille","lat":43.29189,"lon":5.35786,"is_reserved":false,"is_disabled":false,"rental_uris":{"android":"levelo://app?vid=0f294175-a67c-4cc4-8908-3b478749d73c","ios":"levelo://app?vid=0f294175-a67c-4cc4-8908-3b478749d73c"},"vehicle_type_id":"4","last_reported":1784743222,"current_range_meters":39200,"station_id":"ce4bhb12rcd13ifvqel0","pricing_plan_id":"cebpf4jnsgd1na2vs0mg"},{"bike_id":"4aa30d2f-d710-4786-a7a6-fdc6e379a564","system_id":"levelo_inurba_marseille","lat":43.24811,"lon":5.37442,"is_reserved":false,"is_disabled":false,"rental_uris":{"android":"levelo://app?vid=4aa30d2f-d710-4786-a7a6-fdc6e379a564","ios":"levelo://app?vid=4aa30d2f-d710-4786-a7a6-fdc6e379a564"},"vehicle_type_id":"4","last_reported":1784743222,"current_range_meters":39200,"station_id":"ce4bhgh2rcd13ifvqfb0","pricing_plan_id":"cebpf4jnsgd1na2vs0mg"},{"bike_id":"3101f7ce-d802-418d-8fba-8e517979d361","system_id":"levelo_inurba_marseille","lat":43.24169,"lon":5.3639,"is_reserved":false,"is_disabled":false,"rental_uris":{"android":"levelo://app?vid=3101f7ce-d802-418d-8fba-8e517979d361","ios":"levelo://app?vid=3101f7ce-d802-418d-8fba-8e517979d361"},"vehicle_type_id":"4","last_reported":1784743222,"current_range_meters":14400,"station_id":"cpo36qri1sfpv3e86is0","pricing_plan_id":"cebpf4jnsgd1na2vs0mg"},{"bike_id":"45c49d7a-ce5a-4cef-92b3-a6a99f7ffcbc","system_id":"levelo_inurba_marseille","lat":43.31763,"lon":5.38997,"is_reserved":false,"is_disabled":false,"rental_uris":{"android":"levelo://app?vid=45c49d7a-ce5a-4cef-92b3-a6a99f7ffcbc","ios":"levelo://app?vid=45c49d7a-ce5a-4cef-92b3-a6a99f7ffcbc"},"vehicle_type_id":"4","last_reported":1784743222,"current_range_meters":39200,"station_id":"ce4bhqp2rcd13ifvqhng","pricing_plan_id":"cebpf4jnsgd1na2vs0mg"},{"bike_id":"557bd333-061f-4abf-acdf-e9d5faddc7f0","system_id":"levelo_inurba_marseille","lat":43.28451,"lon":5.3586,"is_reserved":false,"is_disabled":false,"rental_uris":{"android":"levelo://app?vid=557bd333-061f-4abf-acdf-e9d5faddc7f0","ios":"levelo://app?vid=557bd333-061f-4abf-acdf-e9d5faddc7f0"},"vehicle_type_id":"4","last_reported":1784743222,"current_range_meters":8800,"station_id":"ce4bhah2rcd13ifvqei0","pricing_plan_id":"cebpf4jnsgd1na2vs0mg"},{"bike_id":"0334278a-f526-4865-9991-40008fe349be","system_id":"levelo_inurba_marseille","lat":43.28088,"lon":5.39656,"is_reserved":false,"is_disabled":true,"rental_uris":{"android":"levelo://app?vid=0334278a-f526-4865-9991-40008fe349be","ios":"levelo://app?vid=0334278a-f526-4865-9991-40008fe349be"},"vehicle_type_id":"4","last_reported":1784743222,"current_range_meters":37600,"station_id":"ce4bho12rcd13ifvqh2g","pricing_plan_id":"cebpf4jnsgd1na2vs0mg"},{"bike_id":"d1cf13b8-510a-44c5-a5cf-39dcef10071a","system_id":"levelo_inurba_marseille","lat":43.26561,"lon":5.4033,"is_reserved":false,"is_disabled":false,"rental_uris":{"android":"levelo://app?vid=d1cf13b8-510a-44c5-a5cf-39dcef10071a","ios":"levelo://app?vid=d1cf13b8-510a-44c5-a5cf-39dcef10071a"},"vehicle_type_id":"4","last_reported":1784743222,"current_range_meters":10800,"station_id":"ce4bhmp2rcd13ifvqgng","pricing_plan_id":"cebpf4jnsgd1na2vs0mg"},{"bike_id":"7b893c3a-f50d-4ab1-b4e5-684f550fde57","system_id":"levelo_inurba_marseille","lat":43.315,"lon":5.37296,"is_reserved":false,"is_disabled":true,"rental_uris":{"android":"levelo://app?vid=7b893c3a-f50d-4ab1-b4e5-684f550fde57","ios":"levelo://app?vid=7b893c3a-f50d-4ab1-b4e5-684f550fde57"},"vehicle_type_id":"4","last_reported":1784743222,"current_range_meters":7200,"station_id":"ce4bgt12rcd13ifvqcd0","pricing_plan_id":"cebpf4jnsgd1na2vs0mg"},{"bike_id":"18e1dcfd-328c-49d1-aa7a-bd2ed4b17f5e","system_id":"levelo_inurba_marseille","lat":43.24397,"lon":5.37049,"is_reserved":false,"is_disabled":false,"rental_uris":{"android":"levelo://app?vid=18e1dcfd-328c-49d1-aa7a-bd2ed4b17f5e","ios":"levelo://app?vid=18e1dcfd-328c-49d1-aa7a-bd2ed4b17f5e"},"vehicle_type_id":"4","last_reported":1784743222,"current_range_meters":16800,"station_id":"ce4bhhh2rcd13ifvqfk0","pricing_plan_id":"cebpf4jnsgd1na2vs0mg"},{"bike_id":"1b6631e4-156f-48cb-b746-60b07cd04812","system_id":"levelo_inurba_marseille","lat":43.29021,"lon":5.35593,"is_reserved":false,"is_disabled":false,"rental_uris":{"android":"levelo://app?vid=1b6631e4-156f-48cb-b746-60b07cd04812","ios":"levelo://app?vid=1b6631e4-156f-48cb-b746-60b07cd04812"},"vehicle_type_id":"4","last_reported":1784743222,"current_range_meters":39200,"station_id":"ce4bhb92rcd13ifvqen0","pricing_plan_id":"cebpf4jnsgd1na2vs0mg"},{"bike_id":"51c9d168-94e4-41e0-90a4-bc83f1a86ce9","system_id":"levelo_inurba_marseille","lat":43.27374,"lon":5.36257,"is_reserved":false,"is_disabled":false,"rental_uris":{"android":"levelo://app?vid=51c9d168-94e4-41e0-90a4-bc83f1a86ce9","ios":"levelo://app?vid=51c9d168-94e4-41e0-90a4-bc83f1a86ce9"},"vehicle_type_id":"4","last_reported":1784743222,"current_range_meters":10000,"station_id":"ce4bhbh2rcd13ifvqeo0","pricing_plan_id":"cebpf4jnsgd1na2vs0mg"},{"bike_id":"612ff0dc-8af6-4772-8f28-94b0e73cc139","system_id":"levelo_inurba_marseille","lat":43.27603,"lon":5.36112,"is_reserved":false,"is_disabled":false,"rental_uris":{"android":"levelo://app?vid=612ff0dc-8af6-4772-8f28-94b0e73cc139","ios":"levelo://app?vid=612ff0dc-8af6-4772-8f28-94b0e73cc139"},"vehicle_type_id":"4","last_reported":1784743222,"current_range_meters":39200,"station_id":"ce4bgj92rcd13ifvqbe0","pricing_plan_id":"cebpf4jnsgd1na2vs0mg"},{"bike_id":"d5c20ab3-95e0-4763-8b2b-3d9656be495c","system_id":"levelo_inurba_marseille","lat":43.2737,"lon":5.36221,"is_reserved":false,"is_disabled":false,"rental_uris":{"android":"levelo://app?vid=d5c20ab3-95e0-4763-8b2b-3d9656be495c","ios":"levelo://app?vid=d5c20ab3-95e0-4763-8b2b-3d9656be495c"},"vehicle_type_id":"4","last_reported":1784743222,"current_range_meters":39200,"station_id":"ce4bhbh2rcd13ifvqeo0","pricing_plan_id":"cebpf4jnsgd1na2vs0mg"},{"bike_id":"e28e8428-aee3-41aa-8d54-985aca6c735f","system_id":"levelo_inurba_marseille","lat":43.25506,"lon":5.37648,"is_reserved":false,"is_disabled":false,"rental_uris":{"android":"levelo://app?vid=e28e8428-aee3-41aa-8d54-985aca6c735f","ios":"levelo://app?vid=e28e8428-aee3-41aa-8d54-985aca6c735f"},"vehicle_type_id":"4","last_reported":1784743222,"current_range_meters":30400,"station_id":"ce4bhh12rcd13ifvqff0","pricing_plan_id":"cebpf4jnsgd1na2vs0mg"},{"bike_id":"cb1e526e-f628-4b5a-a541-85f8824cc039","system_id":"levelo_inurba_marseille","lat":43.28427,"lon":5.34983,"is_reserved":false,"is_disabled":false,"rental_uris":{"android":"levelo://app?vid=cb1e526e-f628-4b5a-a541-85f8824cc039","ios":"levelo://app?vid=cb1e526e-f628-4b5a-a541-85f8824cc039"},"vehicle_type_id":"4","last_reported":1784743222,"current_range_meters":16800,"station_id":"ce4bhbh2rcd13ifvqepg","pricing_plan_id":"cebpf4jnsgd1na2vs0mg"},{"bike_id":"7764970a-34ed-47ec-8822-620f6c0f8a78","system_id":"levelo_inurba_marseille","lat":43.24954,"lon":5.38973,"is_reserved":false,"is_disabled":true,"rental_uris":{"android":"levelo://app?vid=7764970a-34ed-47ec-8822-620f6c0f8a78","ios":"levelo://app?vid=7764970a-34ed-47ec-8822-620f6c0f8a78"},"vehicle_type_id":"4","last_reported":1784743222,"current_range_meters":0,"station_id":"","pricing_plan_id":"cebpf4jnsgd1na2vs0mg"},{"bike_id":"48ec8f90-1104-4b2b-a4c3-bec2a8b6fd20","system_id":"levelo_inurba_marseille","lat":43.28453,"lon":5.35889,"is_reserved":false,"is_disabled":false,"rental_uris":{"android":"levelo://app?vid=48ec8f90-1104-4b2b-a4c3-bec2a8b6fd20","ios":"levelo://app?vid=48ec8f90-1104-4b2b-a4c3-bec2a8b6fd20"},"vehicle_type_id":"4","last_reported":1784743222,"current_range_meters":32000,"station_id":"ce4bhah2rcd13ifvqei0","pricing_plan_id":"cebpf4jnsgd1na2vs0mg"},{"bike_id":"0666263b-4018-4bcf-8b9b-1611b045feb4","system_id":"levelo_inurba_marseille","lat":43.28866,"lon":5.35853,"is_reserved":false,"is_disabled":false,"rental_uris":{"android":"levelo://app?vid=0666263b-4018-4bcf-8b9b-1611b045feb4","ios":"levelo://app?vid=0666263b-4018-4bcf-8b9b-1611b045feb4"},"vehicle_type_id":"4","last_reported":1784743222,"current_range_meters":39200,"station_id":"ce4bhb12rcd13ifvqem0","pricing_plan_id":"cebpf4jnsgd1na2vs0mg"},{"bike_id":"a338cea5-f797-4d31-b718-3121663ee29c","system_id":"levelo_inurba_marseille","lat":43.30376,"lon":5.37893,"is_reserved":false,"is_disabled":false,"rental_uris":{"android":"levelo://app?vid=a338cea5-f797-4d31-b718-3121663ee29c","ios":"levelo://app?vid=a338cea5-f797-4d31-b718-3121663ee29c"},"vehicle_type_id":"4","last_reported":1784743222,"current_range_meters":33200,"station_id":"","pricing_plan_id":"cebpf4jnsgd1na2vs0mg"},{"bike_id":"89e7e02d-bf93-4550-a213-c3f1009d2025","system_id":"levelo_inurba_marseille","lat":43.29052,"lon":5.35902,"is_reserved":false,"is_disabled":false,"rental_uris":{"android":"levelo://app?vid=89e7e02d-bf93-4550-a213-c3f1009d2025","ios":"levelo://app?vid=89e7e02d-bf93-4550-a213-c3f1009d2025"},"vehicle_type_id":"4","last_reported":1784743222,"current_range_meters":40000,"station_id":"ce4bha92rcd13ifvqeg0","pricing_plan_id":"cebpf4jnsgd1na2vs0mg"},{"bike_id":"d96d9e98-c3a8-464d-a5a0-419cf615fea2","system_id":"levelo_inurba_marseille","lat":43.24155,"lon":5.36398,"is_reserved":false,"is_disabled":false,"rental_uris":{"android":"levelo://app?vid=d96d9e98-c3a8-464d-a5a0-419cf615fea2","ios":"levelo://app?vid=d96d9e98-c3a8-464d-a5a0-419cf615fea2"},"vehicle_type_id":"4","last_reported":1784743222,"current_range_meters":17600,"station_id":"cpo36qri1sfpv3e86is0","pricing_plan_id":"cebpf4jnsgd1na2vs0mg"},{"bike_id":"a7c9489a-3c37-4218-bc38-92c335aa3a8a","system_id":"levelo_inurba_marseille","lat":43.28482,"lon":5.48383,"is_reserved":false,"is_disabled":false,"rental_uris":{"android":"levelo://app?vid=a7c9489a-3c37-4218-bc38-92c335aa3a8a","ios":"levelo://app?vid=a7c9489a-3c37-4218-bc38-92c335aa3a8a"},"vehicle_type_id":"4","last_reported":1784743222,"current_range_meters":4800,"station_id":"st_d3svhcjqgbts73a3dn0g","pricing_plan_id":"cebpf4jnsgd1na2vs0mg"},{"bike_id":"d28f9f58-f537-4a0b-b58c-597705ace143","system_id":"levelo_inurba_marseille","lat":43.29003,"lon":5.35603,"is_reserved":false,"is_disabled":false,"rental_uris":{"android":"levelo://app?vid=d28f9f58-f537-4a0b-b58c-597705ace143","ios":"levelo://app?vid=d28f9f58-f537-4a0b-b58c-597705ace143"},"vehicle_type_id":"4","last_reported":1784743222,"current_range_meters":39200,"station_id":"ce4bhb92rcd13ifvqen0","pricing_plan_id":"cebpf4jnsgd1na2vs0mg"},{"bike_id":"b4a84a03-8380-4ead-838e-21f3cf0d177c","system_id":"levelo_inurba_marseille","lat":43.32289,"lon":5.38291,"is_reserved":false,"is_disabled":false,"rental_uris":{"android":"levelo://app?vid=b4a84a03-8380-4ead-838e-21f3cf0d177c","ios":"levelo://app?vid=b4a84a03-8380-4ead-838e-21f3cf0d177c"},"vehicle_type_id":"4","last_reported":1784743222,"current_range_meters":24800,"station_id":"ce4bhr12rcd13ifvqhqg","pricing_plan_id":"cebpf4jnsgd1na2vs0mg"},{"bike_id":"d37e4611-e35d-4587-b97f-6d16dfa8c833","system_id":"levelo_inurba_marseille","lat":43.29008,"lon":5.35599,"is_reserved":false,"is_disabled":false,"rental_uris":{"android":"levelo://app?vid=d37e4611-e35d-4587-b97f-6d16dfa8c833","ios":"levelo://app?vid=d37e4611-e35d-4587-b97f-6d16dfa8c833"},"vehicle_type_id":"4","last_reported":1784743222,"current_range_meters":18800,"station_id":"ce4bhb92rcd13ifvqen0","pricing_plan_id":"cebpf4jnsgd1na2vs0mg"},{"bike_id":"5aa3ca14-34f8-4cf6-bf98-84664ad40ed9","system_id":"levelo_inurba_marseille","lat":43.32358,"lon":5.38882,"is_reserved":false,"is_disabled":false,"rental_uris":{"android":"levelo://app?vid=5aa3ca14-34f8-4cf6-bf98-84664ad40ed9","ios":"levelo://app?vid=5aa3ca14-34f8-4cf6-bf98-84664ad40ed9"},"vehicle_type_id":"4","last_reported":1784743222,"current_range_meters":36800,"station_id":"ce4bhqp2rcd13ifvqhog","pricing_plan_id":"cebpf4jnsgd1na2vs0mg"},{"bike_id":"6de7c356-6b50-4c12-9d5c-559465957d32","system_id":"levelo_inurba_marseille","lat":43.28999,"lon":5.35608,"is_reserved":false,"is_disabled":false,"rental_uris":{"android":"levelo://app?vid=6de7c356-6b50-4c12-9d5c-559465957d32","ios":"levelo://app?vid=6de7c356-6b50-4c12-9d5c-559465957d32"},"vehicle_type_id":"4","last_reported":1784743222,"current_range_meters":16000,"station_id":"ce4bhb92rcd13ifvqen0","pricing_plan_id":"cebpf4jnsgd1na2vs0mg"},{"bike_id":"0547f557-b090-4345-9140-124bc0c4fa4e","system_id":"levelo_inurba_marseille","lat":43.33161,"lon":5.37706,"is_reserved":false,"is_disabled":false,"rental_uris":{"android":"levelo://app?vid=0547f557-b090-4345-9140-124bc0c4fa4e","ios":"levelo://app?vid=0547f557-b090-4345-9140-124bc0c4fa4e"},"vehicle_type_id":"4","last_reported":1784743222,"current_range_meters":32400,"station_id":"st_d46cu089ee8s73dldbu0","pricing_plan_id":"cebpf4jnsgd1na2vs0mg"},{"bike_id":"a4e34098-8c0f-4326-9772-a08c7f6b76fa","system_id":"levelo_inurba_marseille","lat":43.27056,"lon":5.42266,"is_reserved":false,"is_disabled":false,"rental_uris":{"android":"levelo://app?vid=a4e34098-8c0f-4326-9772-a08c7f6b76fa","ios":"levelo://app?vid=a4e34098-8c0f-4326-9772-a08c7f6b76fa"},"vehicle_type_id":"4","last_reported":1784743222,"current_range_meters":27600,"station_id":"ce4bhk92rcd13ifvqgb0","pricing_plan_id":"cebpf4jnsgd1na2vs0mg"},{"bike_id":"8b48f329-937d-4f33-bc8e-cc3992c67190","system_id":"levelo_inurba_marseille","lat":43.29636,"lon":5.37153,"is_reserved":false,"is_disabled":true,"rental_uris":{"android":"levelo://app?vid=8b48f329-937d-4f33-bc8e-cc3992c67190","ios":"levelo://app?vid=8b48f329-937d-4f33-bc8e-cc3992c67190"},"vehicle_type_id":"4","last_reported":1784743222,"current_range_meters":35200,"station_id":"","pricing_plan_id":"cebpf4jnsgd1na2vs0mg"},{"bike_id":"262b3eb6-2d30-40b2-9c53-31baed5f9863","system_id":"levelo_inurba_marseille","lat":43.27054,"lon":5.40264,"is_reserved":false,"is_disabled":false,"rental_uris":{"android":"levelo://app?vid=262b3eb6-2d30-40b2-9c53-31baed5f9863","ios":"levelo://app?vid=262b3eb6-2d30-40b2-9c53-31baed5f9863"},"vehicle_type_id":"4","last_reported":1784743222,"current_range_meters":19600,"station_id":"ce4bhk92rcd13ifvqgc0","pricing_plan_id":"cebpf4jnsgd1na2vs0mg"},{"bike_id":"b4ac26d0-963a-4a25-bf7e-8083e1294ae5","system_id":"levelo_inurba_marseille","lat":43.23953,"lon":5.36633,"is_reserved":false,"is_disabled":false,"rental_uris":{"android":"levelo://app?vid=b4ac26d0-963a-4a25-bf7e-8083e1294ae5","ios":"levelo://app?vid=b4ac26d0-963a-4a25-bf7e-8083e1294ae5"},"vehicle_type_id":"4","last_reported":1784743222,"current_range_meters":32000,"station_id":"ce4bhi12rcd13ifvqfp0","pricing_plan_id":"cebpf4jnsgd1na2vs0mg"},{"bike_id":"06195112-6882-4fb6-b232-8620d1008b12","system_id":"levelo_inurba_marseille","lat":43.29278,"lon":5.36857,"is_reserved":false,"is_disabled":false,"rental_uris":{"android":"levelo://app?vid=06195112-6882-4fb6-b232-8620d1008b12","ios":"levelo://app?vid=06195112-6882-4fb6-b232-8620d1008b12"},"vehicle_type_id":"4","last_reported":1784743222,"current_range_meters":38800,"station_id":"","pricing_plan_id":"cebpf4jnsgd1na2vs0mg"},{"bike_id":"244d3552-7c6e-4506-b3f9-204197c04df7","system_id":"levelo_inurba_marseille","lat":43.23954,"lon":5.36643,"is_reserved":false,"is_disabled":false,"rental_uris":{"android":"levelo://app?vid=244d3552-7c6e-4506-b3f9-204197c04df7","ios":"levelo://app?vid=244d3552-7c6e-4506-b3f9-204197c04df7"},"vehicle_type_id":"4","last_reported":1784743222,"current_range_meters":28000,"station_id":"ce4bhi12rcd13ifvqfp0","pricing_plan_id":"cebpf4jnsgd1na2vs0mg"},{"bike_id":"3a295aff-6816-4af7-ac5a-87a5bd41c1cd","system_id":"levelo_inurba_marseille","lat":43.28478,"lon":5.48389,"is_reserved":false,"is_disabled":false,"rental_uris":{"android":"levelo://app?vid=3a295aff-6816-4af7-ac5a-87a5bd41c1cd","ios":"levelo://app?vid=3a295aff-6816-4af7-ac5a-87a5bd41c1cd"},"vehicle_type_id":"4","last_reported":1784743222,"current_range_meters":26800,"station_id":"st_d3svhcjqgbts73a3dn0g","pricing_plan_id":"cebpf4jnsgd1na2vs0mg"},{"bike_id":"7b1a34a9-9772-429a-ac81-dbcf3805788e","system_id":"levelo_inurba_marseille","lat":43.27883,"lon":5.35536,"is_reserved":false,"is_disabled":false,"rental_uris":{"android":"levelo://app?vid=7b1a34a9-9772-429a-ac81-dbcf3805788e","ios":"levelo://app?vid=7b1a34a9-9772-429a-ac81-dbcf3805788e"},"vehicle_type_id":"4","last_reported":1784743222,"current_range_meters":16800,"station_id":"","pricing_plan_id":"cebpf4jnsgd1na2vs0mg"},{"bike_id":"aa391704-cb81-469a-8f7c-4fac615a81b3","system_id":"levelo_inurba_marseille","lat":43.28417,"lon":5.37544,"is_reserved":false,"is_disabled":false,"rental_uris":{"android":"levelo://app?vid=aa391704-cb81-469a-8f7c-4fac615a81b3","ios":"levelo://app?vid=aa391704-cb81-469a-8f7c-4fac615a81b3"},"vehicle_type_id":"4","last_reported":1784743222,"current_range_meters":5600,"station_id":"ce4bh412rcd13ifvqds0","pricing_plan_id":"cebpf4jnsgd1na2vs0mg"},{"bike_id":"4e4e85a6-3588-42d4-ae65-104d55671337","system_id":"levelo_inurba_marseille","lat":43.2619,"lon":5.37457,"is_reserved":false,"is_disabled":false,"rental_uris":{"android":"levelo://app?vid=4e4e85a6-3588-42d4-ae65-104d55671337","ios":"levelo://app?vid=4e4e85a6-3588-42d4-ae65-104d55671337"},"vehicle_type_id":"4","last_reported":1784743222,"current_range_meters":28000,"station_id":"ce4bhgp2rcd13ifvqfc0","pricing_plan_id":"cebpf4jnsgd1na2vs0mg"},{"bike_id":"b3615f38-9ae4-47b3-be0f-27da959fb130","system_id":"levelo_inurba_marseille","lat":43.26527,"lon":5.39648,"is_reserved":false,"is_disabled":false,"rental_uris":{"android":"levelo://app?vid=b3615f38-9ae4-47b3-be0f-27da959fb130","ios":"levelo://app?vid=b3615f38-9ae4-47b3-be0f-27da959fb130"},"vehicle_type_id":"4","last_reported":1784743222,"current_range_meters":14000,"station_id":"","pricing_plan_id":"cebpf4jnsgd1na2vs0mg"},{"bike_id":"60e054f0-dbfa-4ec9-a725-31650d8b160e","system_id":"levelo_inurba_marseille","lat":43.29039,"lon":5.35931,"is_reserved":false,"is_disabled":false,"rental_uris":{"android":"levelo://app?vid=60e054f0-dbfa-4ec9-a725-31650d8b160e","ios":"levelo://app?vid=60e054f0-dbfa-4ec9-a725-31650d8b160e"},"vehicle_type_id":"4","last_reported":1784743222,"current_range_meters":38000,"station_id":"ce4bha92rcd13ifvqeg0","pricing_plan_id":"cebpf4jnsgd1na2vs0mg"},{"bike_id":"be246901-6bec-48da-aea6-de463ae3d7c0","system_id":"levelo_inurba_marseille","lat":43.28467,"lon":5.38432,"is_reserved":false,"is_disabled":false,"rental_uris":{"android":"levelo://app?vid=be246901-6bec-48da-aea6-de463ae3d7c0","ios":"levelo://app?vid=be246901-6bec-48da-aea6-de463ae3d7c0"},"vehicle_type_id":"4","last_reported":1784743222,"current_range_meters":39200,"station_id":"ce4bh512rcd13ifvqe3g","pricing_plan_id":"cebpf4jnsgd1na2vs0mg"},{"bike_id":"01d9a676-01f3-4b98-beb9-e0a1a490c722","system_id":"levelo_inurba_marseille","lat":43.2814,"lon":5.4264,"is_reserved":false,"is_disabled":false,"rental_uris":{"android":"levelo://app?vid=01d9a676-01f3-4b98-beb9-e0a1a490c722","ios":"levelo://app?vid=01d9a676-01f3-4b98-beb9-e0a1a490c722"},"vehicle_type_id":"4","last_reported":1784743222,"current_range_meters":28000,"station_id":"ce4bhnh2rcd13ifvqgug","pricing_plan_id":"cebpf4jnsgd1na2vs0mg"},{"bike_id":"f765bc46-853b-4f5f-a0cf-13f9a2c85881","system_id":"levelo_inurba_marseille","lat":43.32113,"lon":5.36753,"is_reserved":false,"is_disabled":false,"rental_uris":{"android":"levelo://app?vid=f765bc46-853b-4f5f-a0cf-13f9a2c85881","ios":"levelo://app?vid=f765bc46-853b-4f5f-a0cf-13f9a2c85881"},"vehicle_type_id":"4","last_reported":1784743222,"current_range_meters":32400,"station_id":"ce4bhrh2rcd13ifvqhug","pricing_plan_id":"cebpf4jnsgd1na2vs0mg"},{"bike_id":"091b09c4-2057-4ee5-baf9-ea2bb0338192","system_id":"levelo_inurba_marseille","lat":43.24807,"lon":5.37453,"is_reserved":false,"is_disabled":false,"rental_uris":{"android":"levelo://app?vid=091b09c4-2057-4ee5-baf9-ea2bb0338192","ios":"levelo://app?vid=091b09c4-2057-4ee5-baf9-ea2bb0338192"},"vehicle_type_id":"4","last_reported":1784743222,"current_range_meters":38000,"station_id":"ce4bhgh2rcd13ifvqfb0","pricing_plan_id":"cebpf4jnsgd1na2vs0mg"},{"bike_id":"c469d1f0-e1f3-4009-933d-1f7d58ff00a5","system_id":"levelo_inurba_marseille","lat":43.25857,"lon":5.39907,"is_reserved":false,"is_disabled":false,"rental_uris":{"android":"levelo://app?vid=c469d1f0-e1f3-4009-933d-1f7d58ff00a5","ios":"levelo://app?vid=c469d1f0-e1f3-4009-933d-1f7d58ff00a5"},"vehicle_type_id":"4","last_reported":1784743222,"current_range_meters":26000,"station_id":"","pricing_plan_id":"cebpf4jnsgd1na2vs0mg"},{"bike_id":"8cd887ca-2900-42bf-bc4e-0f3b895d0ed4","system_id":"levelo_inurba_marseille","lat":43.2811,"lon":5.35164,"is_reserved":false,"is_disabled":false,"rental_uris":{"android":"levelo://app?vid=8cd887ca-2900-42bf-bc4e-0f3b895d0ed4","ios":"levelo://app?vid=8cd887ca-2900-42bf-bc4e-0f3b895d0ed4"},"vehicle_type_id":"4","last_reported":1784743222,"current_range_meters":24000,"station_id":"","pricing_plan_id":"cebpf4jnsgd1na2vs0mg"},{"bike_id":"a13e16e4-e177-431d-8bef-33b38f696e96","system_id":"levelo_inurba_marseille","lat":43.2676,"lon":5.39969,"is_reserved":false,"is_disabled":false,"rental_uris":{"android":"levelo://app?vid=a13e16e4-e177-431d-8bef-33b38f696e96","ios":"levelo://app?vid=a13e16e4-e177-431d-8bef-33b38f696e96"},"vehicle_type_id":"4","last_reported":1784743222,"current_range_meters":24800,"station_id":"","pricing_plan_id":"cebpf4jnsgd1na2vs0mg"},{"bike_id":"2d7109ad-46e8-47c3-91fe-8fafb72b67c5","system_id":"levelo_inurba_marseille","lat":43.31896,"lon":5.36813,"is_reserved":false,"is_disabled":false,"rental_uris":{"android":"levelo://app?vid=2d7109ad-46e8-47c3-91fe-8fafb72b67c5","ios":"levelo://app?vid=2d7109ad-46e8-47c3-91fe-8fafb72b67c5"},"vehicle_type_id":"4","last_reported":1784743222,"current_range_meters":4400,"station_id":"st_d6o2h0d0559c73evc1b0","pricing_plan_id":"cebpf4jnsgd1na2vs0mg"},{"bike_id":"de84f93e-2efe-44dd-902e-99315be80f66","system_id":"levelo_inurba_marseille","lat":43.24168,"lon":5.36393,"is_reserved":false,"is_disabled":false,"rental_uris":{"android":"levelo://app?vid=de84f93e-2efe-44dd-902e-99315be80f66","ios":"levelo://app?vid=de84f93e-2efe-44dd-902e-99315be80f66"},"vehicle_type_id":"4","last_reported":1784743222,"current_range_meters":35600,"station_id":"cpo36qri1sfpv3e86is0","pricing_plan_id":"cebpf4jnsgd1na2vs0mg"},{"bike_id":"ea142b19-b865-4c2f-822b-85c0e34bd442","system_id":"levelo_inurba_marseille","lat":43.2926,"lon":5.3843,"is_reserved":false,"is_disabled":false,"rental_uris":{"android":"levelo://app?vid=ea142b19-b865-4c2f-822b-85c0e34bd442","ios":"levelo://app?vid=ea142b19-b865-4c2f-822b-85c0e34bd442"},"vehicle_type_id":"4","last_reported":1784743222,"current_range_meters":23200,"station_id":"ce4bh692rcd13ifvqea0","pricing_plan_id":"cebpf4jnsgd1na2vs0mg"},{"bike_id":"4bef9509-2311-442a-8939-c142b150ab3a","system_id":"levelo_inurba_marseille","lat":43.23186,"lon":5.35549,"is_reserved":false,"is_disabled":false,"rental_uris":{"android":"levelo://app?vid=4bef9509-2311-442a-8939-c142b150ab3a","ios":"levelo://app?vid=4bef9509-2311-442a-8939-c142b150ab3a"},"vehicle_type_id":"4","last_reported":1784743222,"current_range_meters":36000,"station_id":"ce4bhu92rcd13ifvqi70","pricing_plan_id":"cebpf4jnsgd1na2vs0mg"},{"bike_id":"6f30f7ac-da72-4d29-9288-d6b4b3da7411","system_id":"levelo_inurba_marseille","lat":43.24385,"lon":5.37056,"is_reserved":false,"is_disabled":false,"rental_uris":{"android":"levelo://app?vid=6f30f7ac-da72-4d29-9288-d6b4b3da7411","ios":"levelo://app?vid=6f30f7ac-da72-4d29-9288-d6b4b3da7411"},"vehicle_type_id":"4","last_reported":1784743222,"current_range_meters":26000,"station_id":"ce4bhhh2rcd13ifvqfk0","pricing_plan_id":"cebpf4jnsgd1na2vs0mg"},{"bike_id":"50d7506c-406d-4288-a673-b2239b010d08","system_id":"levelo_inurba_marseille","lat":43.28441,"lon":5.42371,"is_reserved":false,"is_disabled":true,"rental_uris":{"android":"levelo://app?vid=50d7506c-406d-4288-a673-b2239b010d08","ios":"levelo://app?vid=50d7506c-406d-4288-a673-b2239b010d08"},"vehicle_type_id":"4","last_reported":1784743222,"current_range_meters":0,"station_id":"","pricing_plan_id":"cebpf4jnsgd1na2vs0mg"},{"bike_id":"ae53a257-4982-4644-ab84-9e51870acb5e","system_id":"levelo_inurba_marseille","lat":43.25491,"lon":5.3764,"is_reserved":false,"is_disabled":false,"rental_uris":{"android":"levelo://app?vid=ae53a257-4982-4644-ab84-9e51870acb5e","ios":"levelo://app?vid=ae53a257-4982-4644-ab84-9e51870acb5e"},"vehicle_type_id":"4","last_reported":1784743222,"current_range_meters":14800,"station_id":"ce4bhh12rcd13ifvqff0","pricing_plan_id":"cebpf4jnsgd1na2vs0mg"},{"bike_id":"06a47a70-c4aa-4b09-8775-c059e958d2f4","system_id":"levelo_inurba_marseille","lat":43.28401,"lon":5.37506,"is_reserved":false,"is_disabled":false,"rental_uris":{"android":"levelo://app?vid=06a47a70-c4aa-4b09-8775-c059e958d2f4","ios":"levelo://app?vid=06a47a70-c4aa-4b09-8775-c059e958d2f4"},"vehicle_type_id":"4","last_reported":1784743222,"current_range_meters":24800,"station_id":"ce4bh412rcd13ifvqds0","pricing_plan_id":"cebpf4jnsgd1na2vs0mg"},{"bike_id":"b482fb71-725b-4a83-9429-cde57d2db1db","system_id":"levelo_inurba_marseille","lat":43.29696,"lon":5.3777,"is_reserved":false,"is_disabled":false,"rental_uris":{"android":"levelo://app?vid=b482fb71-725b-4a83-9429-cde57d2db1db","ios":"levelo://app?vid=b482fb71-725b-4a83-9429-cde57d2db1db"},"vehicle_type_id":"4","last_reported":1784743222,"current_range_meters":22400,"station_id":"","pricing_plan_id":"cebpf4jnsgd1na2vs0mg"},{"bike_id":"3cff31ea-c3fd-4a9e-aa7d-f699c19fe715","system_id":"levelo_inurba_marseille","lat":43.28532,"lon":5.4411,"is_reserved":false,"is_disabled":false,"rental_uris":{"android":"levelo://app?vid=3cff31ea-c3fd-4a9e-aa7d-f699c19fe715","ios":"levelo://app?vid=3cff31ea-c3fd-4a9e-aa7d-f699c19fe715"},"vehicle_type_id":"4","last_reported":1784743222,"current_range_meters":30000,"station_id":"st_d3j3df2ikq2c7380ej80","pricing_plan_id":"cebpf4jnsgd1na2vs0mg"},{"bike_id":"1ffd6e8d-c4af-44c4-b5ee-8153d663260f","system_id":"levelo_inurba_marseille","lat":43.291963,"lon":5.39313,"is_reserved":false,"is_disabled":true,"rental_uris":{"android":"levelo://app?vid=1ffd6e8d-c4af-44c4-b5ee-8153d663260f","ios":"levelo://app?vid=1ffd6e8d-c4af-44c4-b5ee-8153d663260f"},"vehicle_type_id":"4","last_reported":1784743222,"current_range_meters":22800,"station_id":"ce4bh192rcd13ifvqdd0","pricing_plan_id":"cebpf4jnsgd1na2vs0mg"},{"bike_id":"faea73f5-2586-4a04-8f40-a6ebb331717b","system_id":"levelo_inurba_marseille","lat":43.23198,"lon":5.35548,"is_reserved":false,"is_disabled":false,"rental_uris":{"android":"levelo://app?vid=faea73f5-2586-4a04-8f40-a6ebb331717b","ios":"levelo://app?vid=faea73f5-2586-4a04-8f40-a6ebb331717b"},"vehicle_type_id":"4","last_reported":1784743222,"current_range_meters":9200,"station_id":"ce4bhu92rcd13ifvqi70","pricing_plan_id":"cebpf4jnsgd1na2vs0mg"},{"bike_id":"70ba9e32-8c85-43fa-b4d6-b12d70297706","system_id":"levelo_inurba_marseille","lat":43.28273,"lon":5.35054,"is_reserved":false,"is_disabled":false,"rental_uris":{"android":"levelo://app?vid=70ba9e32-8c85-43fa-b4d6-b12d70297706","ios":"levelo://app?vid=70ba9e32-8c85-43fa-b4d6-b12d70297706"},"vehicle_type_id":"4","last_reported":1784743222,"current_range_meters":6800,"station_id":"ce4bhbp2rcd13ifvqerg","pricing_plan_id":"cebpf4jnsgd1na2vs0mg"},{"bike_id":"b78b371e-9f27-41ef-bd5f-625e89c36e81","system_id":"levelo_inurba_marseille","lat":43.29003,"lon":5.3561,"is_reserved":false,"is_disabled":false,"rental_uris":{"android":"levelo://app?vid=b78b371e-9f27-41ef-bd5f-625e89c36e81","ios":"levelo://app?vid=b78b371e-9f27-41ef-bd5f-625e89c36e81"},"vehicle_type_id":"4","last_reported":1784743222,"current_range_meters":36000,"station_id":"ce4bhb92rcd13ifvqen0","pricing_plan_id":"cebpf4jnsgd1na2vs0mg"},{"bike_id":"516809fd-57ac-4047-a9eb-53f833b12f7d","system_id":"levelo_inurba_marseille","lat":43.28617,"lon":5.35106,"is_reserved":false,"is_disabled":false,"rental_uris":{"android":"levelo://app?vid=516809fd-57ac-4047-a9eb-53f833b12f7d","ios":"levelo://app?vid=516809fd-57ac-4047-a9eb-53f833b12f7d"},"vehicle_type_id":"4","last_reported":1784743222,"current_range_meters":39200,"station_id":"ce4bhch2rcd13ifvqeug","pricing_plan_id":"cebpf4jnsgd1na2vs0mg"},{"bike_id":"2bbb3aeb-b508-42f7-910e-0c84ff3ada82","system_id":"levelo_inurba_marseille","lat":43.3125,"lon":5.39014,"is_reserved":false,"is_disabled":false,"rental_uris":{"android":"levelo://app?vid=2bbb3aeb-b508-42f7-910e-0c84ff3ada82","ios":"levelo://app?vid=2bbb3aeb-b508-42f7-910e-0c84ff3ada82"},"vehicle_type_id":"4","last_reported":1784743222,"current_range_meters":12000,"station_id":"","pricing_plan_id":"cebpf4jnsgd1na2vs0mg"},{"bike_id":"78e7e967-a8d7-4345-8d31-93c9d317e74b","system_id":"levelo_inurba_marseille","lat":43.30438,"lon":5.40912,"is_reserved":false,"is_disabled":false,"rental_uris":{"android":"levelo://app?vid=78e7e967-a8d7-4345-8d31-93c9d317e74b","ios":"levelo://app?vid=78e7e967-a8d7-4345-8d31-93c9d317e74b"},"vehicle_type_id":"4","last_reported":1784743222,"current_range_meters":25200,"station_id":"","pricing_plan_id":"cebpf4jnsgd1na2vs0mg"},{"bike_id":"f1288106-a8c3-4624-ad2a-44299213b3e2","system_id":"levelo_inurba_marseille","lat":43.2959,"lon":5.36766,"is_reserved":false,"is_disabled":true,"rental_uris":{"android":"levelo://app?vid=f1288106-a8c3-4624-ad2a-44299213b3e2","ios":"levelo://app?vid=f1288106-a8c3-4624-ad2a-44299213b3e2"},"vehicle_type_id":"4","last_reported":1784743222,"current_range_meters":2800,"station_id":"","pricing_plan_id":"cebpf4jnsgd1na2vs0mg"},{"bike_id":"0b6c16d4-519b-43a7-aaff-bef940bcdb32","system_id":"levelo_inurba_marseille","lat":43.27375,"lon":5.36255,"is_reserved":false,"is_disabled":false,"rental_uris":{"android":"levelo://app?vid=0b6c16d4-519b-43a7-aaff-bef940bcdb32","ios":"levelo://app?vid=0b6c16d4-519b-43a7-aaff-bef940bcdb32"},"vehicle_type_id":"4","last_reported":1784743222,"current_range_meters":25600,"station_id":"ce4bhbh2rcd13ifvqeo0","pricing_plan_id":"cebpf4jnsgd1na2vs0mg"},{"bike_id":"ab907c16-2123-44c2-912f-95e0f2737c03","system_id":"levelo_inurba_marseille","lat":43.30389,"lon":5.42717,"is_reserved":false,"is_disabled":true,"rental_uris":{"android":"levelo://app?vid=ab907c16-2123-44c2-912f-95e0f2737c03","ios":"levelo://app?vid=ab907c16-2123-44c2-912f-95e0f2737c03"},"vehicle_type_id":"4","last_reported":1784743222,"current_range_meters":23200,"station_id":"","pricing_plan_id":"cebpf4jnsgd1na2vs0mg"},{"bike_id":"9958bf3e-9f9b-4b76-97c7-d14660691215","system_id":"levelo_inurba_marseille","lat":43.27994,"lon":5.38696,"is_reserved":false,"is_disabled":false,"rental_uris":{"android":"levelo://app?vid=9958bf3e-9f9b-4b76-97c7-d14660691215","ios":"levelo://app?vid=9958bf3e-9f9b-4b76-97c7-d14660691215"},"vehicle_type_id":"4","last_reported":1784743222,"current_range_meters":18800,"station_id":"ce4bhg12rcd13ifvqf80","pricing_plan_id":"cebpf4jnsgd1na2vs0mg"},{"bike_id":"1fb2f5a3-8d7e-4823-bf6a-5fef2cc785f8","system_id":"levelo_inurba_marseille","lat":43.31757,"lon":5.39028,"is_reserved":false,"is_disabled":false,"rental_uris":{"android":"levelo://app?vid=1fb2f5a3-8d7e-4823-bf6a-5fef2cc785f8","ios":"levelo://app?vid=1fb2f5a3-8d7e-4823-bf6a-5fef2cc785f8"},"vehicle_type_id":"4","last_reported":1784743222,"current_range_meters":29600,"station_id":"ce4bhqp2rcd13ifvqhng","pricing_plan_id":"cebpf4jnsgd1na2vs0mg"},{"bike_id":"c5c647c0-7273-4814-bada-bb1488e36941","system_id":"levelo_inurba_marseille","lat":43.28381,"lon":5.34984,"is_reserved":false,"is_disabled":false,"rental_uris":{"android":"levelo://app?vid=c5c647c0-7273-4814-bada-bb1488e36941","ios":"levelo://app?vid=c5c647c0-7273-4814-bada-bb1488e36941"},"vehicle_type_id":"4","last_reported":1784743222,"current_range_meters":39200,"station_id":"ce4bhbh2rcd13ifvqepg","pricing_plan_id":"cebpf4jnsgd1na2vs0mg"},{"bike_id":"c520161e-c250-4161-a55a-6b287776d8da","system_id":"levelo_inurba_marseille","lat":43.28473,"lon":5.48402,"is_reserved":false,"is_disabled":false,"rental_uris":{"android":"levelo://app?vid=c520161e-c250-4161-a55a-6b287776d8da","ios":"levelo://app?vid=c520161e-c250-4161-a55a-6b287776d8da"},"vehicle_type_id":"4","last_reported":1784743222,"current_range_meters":27200,"station_id":"st_d3svhcjqgbts73a3dn0g","pricing_plan_id":"cebpf4jnsgd1na2vs0mg"},{"bike_id":"5326a61d-4052-4baf-bbd3-97dda62fe6d7","system_id":"levelo_inurba_marseille","lat":43.28518,"lon":5.4408,"is_reserved":false,"is_disabled":false,"rental_uris":{"android":"levelo://app?vid=5326a61d-4052-4baf-bbd3-97dda62fe6d7","ios":"levelo://app?vid=5326a61d-4052-4baf-bbd3-97dda62fe6d7"},"vehicle_type_id":"4","last_reported":1784743222,"current_range_meters":25200,"station_id":"st_d3j3df2ikq2c7380ej80","pricing_plan_id":"cebpf4jnsgd1na2vs0mg"},{"bike_id":"d5878d1e-782c-4c26-aa75-af712dc5a0dd","system_id":"levelo_inurba_marseille","lat":43.24797,"lon":5.3745,"is_reserved":false,"is_disabled":false,"rental_uris":{"android":"levelo://app?vid=d5878d1e-782c-4c26-aa75-af712dc5a0dd","ios":"levelo://app?vid=d5878d1e-782c-4c26-aa75-af712dc5a0dd"},"vehicle_type_id":"4","last_reported":1784743222,"current_range_meters":17200,"station_id":"ce4bhgh2rcd13ifvqfb0","pricing_plan_id":"cebpf4jnsgd1na2vs0mg"},{"bike_id":"97908c9c-25cb-4b86-a163-707d44e14e0d","system_id":"levelo_inurba_marseille","lat":43.29186,"lon":5.35795,"is_reserved":false,"is_disabled":false,"rental_uris":{"android":"levelo://app?vid=97908c9c-25cb-4b86-a163-707d44e14e0d","ios":"levelo://app?vid=97908c9c-25cb-4b86-a163-707d44e14e0d"},"vehicle_type_id":"4","last_reported":1784743222,"current_range_meters":32400,"station_id":"ce4bhb12rcd13ifvqel0","pricing_plan_id":"cebpf4jnsgd1na2vs0mg"},{"bike_id":"713fad82-0125-4330-8706-9b021eac8c0f","system_id":"levelo_inurba_marseille","lat":43.31493,"lon":5.37293,"is_reserved":false,"is_disabled":false,"rental_uris":{"android":"levelo://app?vid=713fad82-0125-4330-8706-9b021eac8c0f","ios":"levelo://app?vid=713fad82-0125-4330-8706-9b021eac8c0f"},"vehicle_type_id":"4","last_reported":1784743222,"current_range_meters":38800,"station_id":"ce4bgt12rcd13ifvqcd0","pricing_plan_id":"cebpf4jnsgd1na2vs0mg"},{"bike_id":"3c152ce7-b1e3-46b6-9481-1d5804cf459e","system_id":"levelo_inurba_marseille","lat":43.2619,"lon":5.37445,"is_reserved":false,"is_disabled":false,"rental_uris":{"android":"levelo://app?vid=3c152ce7-b1e3-46b6-9481-1d5804cf459e","ios":"levelo://app?vid=3c152ce7-b1e3-46b6-9481-1d5804cf459e"},"vehicle_type_id":"4","last_reported":1784743222,"current_range_meters":34800,"station_id":"ce4bhgp2rcd13ifvqfc0","pricing_plan_id":"cebpf4jnsgd1na2vs0mg"},{"bike_id":"c4c33651-6990-4264-910c-1f8b8dba107d","system_id":"levelo_inurba_marseille","lat":43.30948,"lon":5.39019,"is_reserved":false,"is_disabled":false,"rental_uris":{"android":"levelo://app?vid=c4c33651-6990-4264-910c-1f8b8dba107d","ios":"levelo://app?vid=c4c33651-6990-4264-910c-1f8b8dba107d"},"vehicle_type_id":"4","last_reported":1784743222,"current_range_meters":14800,"station_id":"ce4bgup2rcd13ifvqco0","pricing_plan_id":"cebpf4jnsgd1na2vs0mg"},{"bike_id":"161fc452-8d46-49b3-a0f3-34caa395e27e","system_id":"levelo_inurba_marseille","lat":43.27215,"lon":5.39182,"is_reserved":false,"is_disabled":false,"rental_uris":{"android":"levelo://app?vid=161fc452-8d46-49b3-a0f3-34caa395e27e","ios":"levelo://app?vid=161fc452-8d46-49b3-a0f3-34caa395e27e"},"vehicle_type_id":"4","last_reported":1784743222,"current_range_meters":3600,"station_id":"ce4bhhp2rcd13ifvqfm0","pricing_plan_id":"cebpf4jnsgd1na2vs0mg"},{"bike_id":"dbba06b0-854f-46f5-8ab0-ed4f23d95a6c","system_id":"levelo_inurba_marseille","lat":43.29575,"lon":5.38876,"is_reserved":false,"is_disabled":false,"rental_uris":{"android":"levelo://app?vid=dbba06b0-854f-46f5-8ab0-ed4f23d95a6c","ios":"levelo://app?vid=dbba06b0-854f-46f5-8ab0-ed4f23d95a6c"},"vehicle_type_id":"4","last_reported":1784743222,"current_range_meters":6000,"station_id":"","pricing_plan_id":"cebpf4jnsgd1na2vs0mg"},{"bike_id":"3a34f52e-1e5b-45cf-b1c8-7a76d3f0220c","system_id":"levelo_inurba_marseille","lat":43.29236,"lon":5.41748,"is_reserved":false,"is_disabled":false,"rental_uris":{"android":"levelo://app?vid=3a34f52e-1e5b-45cf-b1c8-7a76d3f0220c","ios":"levelo://app?vid=3a34f52e-1e5b-45cf-b1c8-7a76d3f0220c"},"vehicle_type_id":"4","last_reported":1784743222,"current_range_meters":30800,"station_id":"","pricing_plan_id":"cebpf4jnsgd1na2vs0mg"},{"bike_id":"66c56227-4cfb-414f-a4f0-866b0428ace9","system_id":"levelo_inurba_marseille","lat":43.30149,"lon":5.38786,"is_reserved":false,"is_disabled":true,"rental_uris":{"android":"levelo://app?vid=66c56227-4cfb-414f-a4f0-866b0428ace9","ios":"levelo://app?vid=66c56227-4cfb-414f-a4f0-866b0428ace9"},"vehicle_type_id":"4","last_reported":1784743222,"current_range_meters":400,"station_id":"ce4bghh2rcd13ifvqb60","pricing_plan_id":"cebpf4jnsgd1na2vs0mg"},{"bike_id":"b8e43a89-3bb1-4279-9cee-f7b093c9b703","system_id":"levelo_inurba_marseille","lat":43.33718,"lon":5.37415,"is_reserved":false,"is_disabled":false,"rental_uris":{"android":"levelo://app?vid=b8e43a89-3bb1-4279-9cee-f7b093c9b703","ios":"levelo://app?vid=b8e43a89-3bb1-4279-9cee-f7b093c9b703"},"vehicle_type_id":"4","last_reported":1784743222,"current_range_meters":14000,"station_id":"","pricing_plan_id":"cebpf4jnsgd1na2vs0mg"},{"bike_id":"17ec69e9-f82e-42b7-8fd3-de92d2bea59d","system_id":"levelo_inurba_marseille","lat":43.25341,"lon":5.42167,"is_reserved":false,"is_disabled":false,"rental_uris":{"android":"levelo://app?vid=17ec69e9-f82e-42b7-8fd3-de92d2bea59d","ios":"levelo://app?vid=17ec69e9-f82e-42b7-8fd3-de92d2bea59d"},"vehicle_type_id":"4","last_reported":1784743222,"current_range_meters":23200,"station_id":"st_d2m65c5bi1j21697t3ng","pricing_plan_id":"cebpf4jnsgd1na2vs0mg"},{"bike_id":"af96ec01-3533-4d5c-81e8-73804ba6c155","system_id":"levelo_inurba_marseille","lat":43.232,"lon":5.35534,"is_reserved":false,"is_disabled":false,"rental_uris":{"android":"levelo://app?vid=af96ec01-3533-4d5c-81e8-73804ba6c155","ios":"levelo://app?vid=af96ec01-3533-4d5c-81e8-73804ba6c155"},"vehicle_type_id":"4","last_reported":1784743222,"current_range_meters":16800,"station_id":"ce4bhu92rcd13ifvqi70","pricing_plan_id":"cebpf4jnsgd1na2vs0mg"},{"bike_id":"7bde1630-495c-4e0c-96f7-f169fe169cdb","system_id":"levelo_inurba_marseille","lat":43.26185,"lon":5.37451,"is_reserved":false,"is_disabled":false,"rental_uris":{"android":"levelo://app?vid=7bde1630-495c-4e0c-96f7-f169fe169cdb","ios":"levelo://app?vid=7bde1630-495c-4e0c-96f7-f169fe169cdb"},"vehicle_type_id":"4","last_reported":1784743222,"current_range_meters":37600,"station_id":"ce4bhgp2rcd13ifvqfc0","pricing_plan_id":"cebpf4jnsgd1na2vs0mg"},{"bike_id":"5783761d-f3a8-46b4-8c26-9812d8d66703","system_id":"levelo_inurba_marseille","lat":43.22542,"lon":5.34828,"is_reserved":false,"is_disabled":false,"rental_uris":{"android":"levelo://app?vid=5783761d-f3a8-46b4-8c26-9812d8d66703","ios":"levelo://app?vid=5783761d-f3a8-46b4-8c26-9812d8d66703"},"vehicle_type_id":"4","last_reported":1784743222,"current_range_meters":22400,"station_id":"st_cvj5dfep6f1abm77gieg","pricing_plan_id":"cebpf4jnsgd1na2vs0mg"},{"bike_id":"e108647b-5168-4581-ba50-c5bf66180c50","system_id":"levelo_inurba_marseille","lat":43.29899,"lon":5.37465,"is_reserved":false,"is_disabled":false,"rental_uris":{"android":"levelo://app?vid=e108647b-5168-4581-ba50-c5bf66180c50","ios":"levelo://app?vid=e108647b-5168-4581-ba50-c5bf66180c50"},"vehicle_type_id":"4","last_reported":1784743222,"current_range_meters":34000,"station_id":"ce4bgjh2rcd13ifvqbg0","pricing_plan_id":"cebpf4jnsgd1na2vs0mg"},{"bike_id":"efae1f03-32b6-47e6-a13c-096e6618d628","system_id":"levelo_inurba_marseille","lat":43.29006,"lon":5.35604,"is_reserved":false,"is_disabled":false,"rental_uris":{"android":"levelo://app?vid=efae1f03-32b6-47e6-a13c-096e6618d628","ios":"levelo://app?vid=efae1f03-32b6-47e6-a13c-096e6618d628"},"vehicle_type_id":"4","last_reported":1784743222,"current_range_meters":39200,"station_id":"ce4bhb92rcd13ifvqen0","pricing_plan_id":"cebpf4jnsgd1na2vs0mg"},{"bike_id":"13bbfe3b-874b-44d7-9abb-922c8de23c11","system_id":"levelo_inurba_marseille","lat":43.23257,"lon":5.35394,"is_reserved":false,"is_disabled":false,"rental_uris":{"android":"levelo://app?vid=13bbfe3b-874b-44d7-9abb-922c8de23c11","ios":"levelo://app?vid=13bbfe3b-874b-44d7-9abb-922c8de23c11"},"vehicle_type_id":"4","last_reported":1784743222,"current_range_meters":21600,"station_id":"","pricing_plan_id":"cebpf4jnsgd1na2vs0mg"},{"bike_id":"d7f5e790-34f0-4ef1-94d0-50b661d4939b","system_id":"levelo_inurba_marseille","lat":43.27378,"lon":5.3626,"is_reserved":false,"is_disabled":false,"rental_uris":{"android":"levelo://app?vid=d7f5e790-34f0-4ef1-94d0-50b661d4939b","ios":"levelo://app?vid=d7f5e790-34f0-4ef1-94d0-50b661d4939b"},"vehicle_type_id":"4","last_reported":1784743222,"current_range_meters":8800,"station_id":"ce4bhbh2rcd13ifvqeo0","pricing_plan_id":"cebpf4jnsgd1na2vs0mg"},{"bike_id":"8630ffbe-f147-430f-a60a-a08ef949f3c1","system_id":"levelo_inurba_marseille","lat":43.28678,"lon":5.38675,"is_reserved":false,"is_disabled":true,"rental_uris":{"android":"levelo://app?vid=8630ffbe-f147-430f-a60a-a08ef949f3c1","ios":"levelo://app?vid=8630ffbe-f147-430f-a60a-a08ef949f3c1"},"vehicle_type_id":"4","last_reported":1784743222,"current_range_meters":0,"station_id":"ce4bh492rcd13ifvqdug","pricing_plan_id":"cebpf4jnsgd1na2vs0mg"},{"bike_id":"674d45a3-1b58-4ecd-a28a-8c22fa65ae37","system_id":"levelo_inurba_marseille","lat":43.22926,"lon":5.35372,"is_reserved":false,"is_disabled":false,"rental_uris":{"android":"levelo://app?vid=674d45a3-1b58-4ecd-a28a-8c22fa65ae37","ios":"levelo://app?vid=674d45a3-1b58-4ecd-a28a-8c22fa65ae37"},"vehicle_type_id":"4","last_reported":1784743222,"current_range_meters":12400,"station_id":"cpo3532slgdg3j2ikp40","pricing_plan_id":"cebpf4jnsgd1na2vs0mg"},{"bike_id":"6ed5f8c3-6da8-4cec-bfad-13253a432d70","system_id":"levelo_inurba_marseille","lat":43.29413,"lon":5.38586,"is_reserved":false,"is_disabled":true,"rental_uris":{"android":"levelo://app?vid=6ed5f8c3-6da8-4cec-bfad-13253a432d70","ios":"levelo://app?vid=6ed5f8c3-6da8-4cec-bfad-13253a432d70"},"vehicle_type_id":"4","last_reported":1784743222,"current_range_meters":31200,"station_id":"","pricing_plan_id":"cebpf4jnsgd1na2vs0mg"},{"bike_id":"2abfcdfb-2eb0-4480-932d-1071dc8638d6","system_id":"levelo_inurba_marseille","lat":43.33542,"lon":5.37452,"is_reserved":false,"is_disabled":false,"rental_uris":{"android":"levelo://app?vid=2abfcdfb-2eb0-4480-932d-1071dc8638d6","ios":"levelo://app?vid=2abfcdfb-2eb0-4480-932d-1071dc8638d6"},"vehicle_type_id":"4","last_reported":1784743222,"current_range_meters":4000,"station_id":"st_d46tts09ee8s73dlu43g","pricing_plan_id":"cebpf4jnsgd1na2vs0mg"},{"bike_id":"0dee0085-d5a5-4c48-b3f1-a323bb744f3d","system_id":"levelo_inurba_marseille","lat":43.22558,"lon":5.41634,"is_reserved":false,"is_disabled":false,"rental_uris":{"android":"levelo://app?vid=0dee0085-d5a5-4c48-b3f1-a323bb744f3d","ios":"levelo://app?vid=0dee0085-d5a5-4c48-b3f1-a323bb744f3d"},"vehicle_type_id":"4","last_reported":1784743222,"current_range_meters":30800,"station_id":"st_d2o4gvlbi1j2169b742g","pricing_plan_id":"cebpf4jnsgd1na2vs0mg"},{"bike_id":"589bc921-31be-458b-a0b7-d712c5f2b103","system_id":"levelo_inurba_marseille","lat":43.27185,"lon":5.40984,"is_reserved":false,"is_disabled":false,"rental_uris":{"android":"levelo://app?vid=589bc921-31be-458b-a0b7-d712c5f2b103","ios":"levelo://app?vid=589bc921-31be-458b-a0b7-d712c5f2b103"},"vehicle_type_id":"4","last_reported":1784743222,"current_range_meters":2800,"station_id":"ce4bhl12rcd13ifvqgf0","pricing_plan_id":"cebpf4jnsgd1na2vs0mg"},{"bike_id":"d5434ec1-747e-4483-8f3d-062e70835086","system_id":"levelo_inurba_marseille","lat":43.31374,"lon":5.38488,"is_reserved":false,"is_disabled":false,"rental_uris":{"android":"levelo://app?vid=d5434ec1-747e-4483-8f3d-062e70835086","ios":"levelo://app?vid=d5434ec1-747e-4483-8f3d-062e70835086"},"vehicle_type_id":"4","last_reported":1784743222,"current_range_meters":38800,"station_id":"ce4bgt92rcd13ifvqcf0","pricing_plan_id":"cebpf4jnsgd1na2vs0mg"},{"bike_id":"0b2c45f2-fdaa-45fe-9511-e6426cab85f6","system_id":"levelo_inurba_marseille","lat":43.27476,"lon":5.42434,"is_reserved":false,"is_disabled":false,"rental_uris":{"android":"levelo://app?vid=0b2c45f2-fdaa-45fe-9511-e6426cab85f6","ios":"levelo://app?vid=0b2c45f2-fdaa-45fe-9511-e6426cab85f6"},"vehicle_type_id":"4","last_reported":1784743222,"current_range_meters":18800,"station_id":"ce4bhn92rcd13ifvqgrg","pricing_plan_id":"cebpf4jnsgd1na2vs0mg"},{"bike_id":"baaa9869-e67a-439b-b253-363920927f8a","system_id":"levelo_inurba_marseille","lat":43.29437,"lon":5.39755,"is_reserved":false,"is_disabled":false,"rental_uris":{"android":"levelo://app?vid=baaa9869-e67a-439b-b253-363920927f8a","ios":"levelo://app?vid=baaa9869-e67a-439b-b253-363920927f8a"},"vehicle_type_id":"4","last_reported":1784743222,"current_range_meters":39200,"station_id":"ce4bh3h2rcd13ifvqdo0","pricing_plan_id":"cebpf4jnsgd1na2vs0mg"},{"bike_id":"f20fcdc5-f0b9-4328-be94-61548e2c19cd","system_id":"levelo_inurba_marseille","lat":43.24943,"lon":5.40492,"is_reserved":false,"is_disabled":false,"rental_uris":{"android":"levelo://app?vid=f20fcdc5-f0b9-4328-be94-61548e2c19cd","ios":"levelo://app?vid=f20fcdc5-f0b9-4328-be94-61548e2c19cd"},"vehicle_type_id":"4","last_reported":1784743222,"current_range_meters":3200,"station_id":"st_d2ngiaodas8pm72gd1h0","pricing_plan_id":"cebpf4jnsgd1na2vs0mg"},{"bike_id":"bc289cb7-36a0-4e94-9409-cf3ea4547199","system_id":"levelo_inurba_marseille","lat":43.29548,"lon":5.42282,"is_reserved":false,"is_disabled":false,"rental_uris":{"android":"levelo://app?vid=bc289cb7-36a0-4e94-9409-cf3ea4547199","ios":"levelo://app?vid=bc289cb7-36a0-4e94-9409-cf3ea4547199"},"vehicle_type_id":"4","last_reported":1784743222,"current_range_meters":17600,"station_id":"ce4bhph2rcd13ifvqhdg","pricing_plan_id":"cebpf4jnsgd1na2vs0mg"},{"bike_id":"dad5eff3-cb3a-4459-ba39-741abe4a6c6c","system_id":"levelo_inurba_marseille","lat":43.32091,"lon":5.36781,"is_reserved":false,"is_disabled":false,"rental_uris":{"android":"levelo://app?vid=dad5eff3-cb3a-4459-ba39-741abe4a6c6c","ios":"levelo://app?vid=dad5eff3-cb3a-4459-ba39-741abe4a6c6c"},"vehicle_type_id":"4","last_reported":1784743222,"current_range_meters":8000,"station_id":"ce4bhrh2rcd13ifvqhug","pricing_plan_id":"cebpf4jnsgd1na2vs0mg"},{"bike_id":"31cbfea7-7c32-443e-8db5-dee6edc8c821","system_id":"levelo_inurba_marseille","lat":43.26121,"lon":5.37515,"is_reserved":false,"is_disabled":false,"rental_uris":{"android":"levelo://app?vid=31cbfea7-7c32-443e-8db5-dee6edc8c821","ios":"levelo://app?vid=31cbfea7-7c32-443e-8db5-dee6edc8c821"},"vehicle_type_id":"4","last_reported":1784743222,"current_range_meters":39200,"station_id":"","pricing_plan_id":"cebpf4jnsgd1na2vs0mg"},{"bike_id":"430c2cf1-b239-4165-a49c-25a0dd75c22a","system_id":"levelo_inurba_marseille","lat":43.24819,"lon":5.37453,"is_reserved":false,"is_disabled":false,"rental_uris":{"android":"levelo://app?vid=430c2cf1-b239-4165-a49c-25a0dd75c22a","ios":"levelo://app?vid=430c2cf1-b239-4165-a49c-25a0dd75c22a"},"vehicle_type_id":"4","last_reported":1784743222,"current_range_meters":25200,"station_id":"ce4bhgh2rcd13ifvqfb0","pricing_plan_id":"cebpf4jnsgd1na2vs0mg"},{"bike_id":"70c8ff4d-d336-457f-a264-2a619752546e","system_id":"levelo_inurba_marseille","lat":43.25764,"lon":5.38675,"is_reserved":false,"is_disabled":false,"rental_uris":{"android":"levelo://app?vid=70c8ff4d-d336-457f-a264-2a619752546e","ios":"levelo://app?vid=70c8ff4d-d336-457f-a264-2a619752546e"},"vehicle_type_id":"4","last_reported":1784743222,"current_range_meters":36800,"station_id":"","pricing_plan_id":"cebpf4jnsgd1na2vs0mg"},{"bike_id":"8d8673aa-a69c-4d74-931d-06b8f35221f4","system_id":"levelo_inurba_marseille","lat":43.26696,"lon":5.41989,"is_reserved":false,"is_disabled":false,"rental_uris":{"android":"levelo://app?vid=8d8673aa-a69c-4d74-931d-06b8f35221f4","ios":"levelo://app?vid=8d8673aa-a69c-4d74-931d-06b8f35221f4"},"vehicle_type_id":"4","last_reported":1784743222,"current_range_meters":26000,"station_id":"","pricing_plan_id":"cebpf4jnsgd1na2vs0mg"},{"bike_id":"aa4b7bbb-8492-4c81-8a29-38b8bdf3f82a","system_id":"levelo_inurba_marseille","lat":43.290248,"lon":5.381343,"is_reserved":false,"is_disabled":false,"rental_uris":{"android":"levelo://app?vid=aa4b7bbb-8492-4c81-8a29-38b8bdf3f82a","ios":"levelo://app?vid=aa4b7bbb-8492-4c81-8a29-38b8bdf3f82a"},"vehicle_type_id":"4","last_reported":1784743222,"current_range_meters":35200,"station_id":"ce4bh4p2rcd13ifvqe1g","pricing_plan_id":"cebpf4jnsgd1na2vs0mg"},{"bike_id":"bb6c1d94-b8a1-4d7e-8e26-2628675f7e1d","system_id":"levelo_inurba_marseille","lat":43.29606,"lon":5.37711,"is_reserved":false,"is_disabled":true,"rental_uris":{"android":"levelo://app?vid=bb6c1d94-b8a1-4d7e-8e26-2628675f7e1d","ios":"levelo://app?vid=bb6c1d94-b8a1-4d7e-8e26-2628675f7e1d"},"vehicle_type_id":"4","last_reported":1784743222,"current_range_meters":20400,"station_id":"ce4bgi92rcd13ifvqb90","pricing_plan_id":"cebpf4jnsgd1na2vs0mg"},{"bike_id":"b4d7c551-5126-4abd-9ca5-5b3e2ee7483d","system_id":"levelo_inurba_marseille","lat":43.27373,"lon":5.36254,"is_reserved":false,"is_disabled":false,"rental_uris":{"android":"levelo://app?vid=b4d7c551-5126-4abd-9ca5-5b3e2ee7483d","ios":"levelo://app?vid=b4d7c551-5126-4abd-9ca5-5b3e2ee7483d"},"vehicle_type_id":"4","last_reported":1784743222,"current_range_meters":5600,"station_id":"ce4bhbh2rcd13ifvqeo0","pricing_plan_id":"cebpf4jnsgd1na2vs0mg"},{"bike_id":"1f5d690e-ec61-49f6-987c-1b19bb5fd774","system_id":"levelo_inurba_marseille","lat":43.32362,"lon":5.38892,"is_reserved":false,"is_disabled":false,"rental_uris":{"android":"levelo://app?vid=1f5d690e-ec61-49f6-987c-1b19bb5fd774","ios":"levelo://app?vid=1f5d690e-ec61-49f6-987c-1b19bb5fd774"},"vehicle_type_id":"4","last_reported":1784743222,"current_range_meters":38400,"station_id":"ce4bhqp2rcd13ifvqhog","pricing_plan_id":"cebpf4jnsgd1na2vs0mg"},{"bike_id":"1fade11d-8e73-4748-8586-d9741ca55ced","system_id":"levelo_inurba_marseille","lat":43.317152,"lon":5.437034,"is_reserved":false,"is_disabled":false,"rental_uris":{"android":"levelo://app?vid=1fade11d-8e73-4748-8586-d9741ca55ced","ios":"levelo://app?vid=1fade11d-8e73-4748-8586-d9741ca55ced"},"vehicle_type_id":"4","last_reported":1784743222,"current_range_meters":30400,"station_id":"ce4bhp92rcd13ifvqhcg","pricing_plan_id":"cebpf4jnsgd1na2vs0mg"},{"bike_id":"2b01d630-1d87-4d8c-91b7-603994a1414c","system_id":"levelo_inurba_marseille","lat":43.24163,"lon":5.36408,"is_reserved":false,"is_disabled":false,"rental_uris":{"android":"levelo://app?vid=2b01d630-1d87-4d8c-91b7-603994a1414c","ios":"levelo://app?vid=2b01d630-1d87-4d8c-91b7-603994a1414c"},"vehicle_type_id":"4","last_reported":1784743222,"current_range_meters":34800,"station_id":"cpo36qri1sfpv3e86is0","pricing_plan_id":"cebpf4jnsgd1na2vs0mg"},{"bike_id":"1587b0c5-7bdc-4794-bf7c-8537501746f5","system_id":"levelo_inurba_marseille","lat":43.27368,"lon":5.3625,"is_reserved":false,"is_disabled":false,"rental_uris":{"android":"levelo://app?vid=1587b0c5-7bdc-4794-bf7c-8537501746f5","ios":"levelo://app?vid=1587b0c5-7bdc-4794-bf7c-8537501746f5"},"vehicle_type_id":"4","last_reported":1784743222,"current_range_meters":10800,"station_id":"ce4bhbh2rcd13ifvqeo0","pricing_plan_id":"cebpf4jnsgd1na2vs0mg"},{"bike_id":"9ebb7ae0-141a-43ea-a5bc-61b70816efce","system_id":"levelo_inurba_marseille","lat":43.260309,"lon":5.375524,"is_reserved":false,"is_disabled":false,"rental_uris":{"android":"levelo://app?vid=9ebb7ae0-141a-43ea-a5bc-61b70816efce","ios":"levelo://app?vid=9ebb7ae0-141a-43ea-a5bc-61b70816efce"},"vehicle_type_id":"4","last_reported":1784743222,"current_range_meters":38800,"station_id":"","pricing_plan_id":"cebpf4jnsgd1na2vs0mg"},{"bike_id":"eea9bede-cfce-4f1e-ba8a-c8d02a3ac303","system_id":"levelo_inurba_marseille","lat":43.26057,"lon":5.394,"is_reserved":false,"is_disabled":false,"rental_uris":{"android":"levelo://app?vid=eea9bede-cfce-4f1e-ba8a-c8d02a3ac303","ios":"levelo://app?vid=eea9bede-cfce-4f1e-ba8a-c8d02a3ac303"},"vehicle_type_id":"4","last_reported":1784743222,"current_range_meters":33600,"station_id":"ce4bhh92rcd13ifvqfj0","pricing_plan_id":"cebpf4jnsgd1na2vs0mg"},{"bike_id":"75146afd-6944-4808-9153-760cee29f303","system_id":"levelo_inurba_marseille","lat":43.24663,"lon":5.37858,"is_reserved":false,"is_disabled":false,"rental_uris":{"android":"levelo://app?vid=75146afd-6944-4808-9153-760cee29f303","ios":"levelo://app?vid=75146afd-6944-4808-9153-760cee29f303"},"vehicle_type_id":"4","last_reported":1784743222,"current_range_meters":24000,"station_id":"","pricing_plan_id":"cebpf4jnsgd1na2vs0mg"},{"bike_id":"36f797d9-5b95-4843-b50e-7f80ed979ebf","system_id":"levelo_inurba_marseille","lat":43.25575,"lon":5.38226,"is_reserved":false,"is_disabled":false,"rental_uris":{"android":"levelo://app?vid=36f797d9-5b95-4843-b50e-7f80ed979ebf","ios":"levelo://app?vid=36f797d9-5b95-4843-b50e-7f80ed979ebf"},"vehicle_type_id":"4","last_reported":1784743222,"current_range_meters":25200,"station_id":"ce4bhih2rcd13ifvqfs0","pricing_plan_id":"cebpf4jnsgd1na2vs0mg"},{"bike_id":"a31cea0c-4cff-4f6d-8f93-36842670158b","system_id":"levelo_inurba_marseille","lat":43.29704,"lon":5.36612,"is_reserved":false,"is_disabled":true,"rental_uris":{"android":"levelo://app?vid=a31cea0c-4cff-4f6d-8f93-36842670158b","ios":"levelo://app?vid=a31cea0c-4cff-4f6d-8f93-36842670158b"},"vehicle_type_id":"4","last_reported":1784743222,"current_range_meters":39200,"station_id":"ce4bgn12rcd13ifvqbt0","pricing_plan_id":"cebpf4jnsgd1na2vs0mg"},{"bike_id":"4a7529a1-fd80-491a-b4fd-887bd4ff6c99","system_id":"levelo_inurba_marseille","lat":43.24989,"lon":5.38934,"is_reserved":false,"is_disabled":false,"rental_uris":{"android":"levelo://app?vid=4a7529a1-fd80-491a-b4fd-887bd4ff6c99","ios":"levelo://app?vid=4a7529a1-fd80-491a-b4fd-887bd4ff6c99"},"vehicle_type_id":"4","last_reported":1784743222,"current_range_meters":39200,"station_id":"ce4bhgp2rcd13ifvqfd0","pricing_plan_id":"cebpf4jnsgd1na2vs0mg"},{"bike_id":"a0da94ed-256e-4c47-86b1-eb387d2d4030","system_id":"levelo_inurba_marseille","lat":43.29183,"lon":5.3579,"is_reserved":false,"is_disabled":false,"rental_uris":{"android":"levelo://app?vid=a0da94ed-256e-4c47-86b1-eb387d2d4030","ios":"levelo://app?vid=a0da94ed-256e-4c47-86b1-eb387d2d4030"},"vehicle_type_id":"4","last_reported":1784743222,"current_range_meters":28000,"station_id":"ce4bhb12rcd13ifvqel0","pricing_plan_id":"cebpf4jnsgd1na2vs0mg"},{"bike_id":"3dcd452f-570f-43d5-97a7-8ea89caf620e","system_id":"levelo_inurba_marseille","lat":43.24821,"lon":5.37437,"is_reserved":false,"is_disabled":false,"rental_uris":{"android":"levelo://app?vid=3dcd452f-570f-43d5-97a7-8ea89caf620e","ios":"levelo://app?vid=3dcd452f-570f-43d5-97a7-8ea89caf620e"},"vehicle_type_id":"4","last_reported":1784743222,"current_range_meters":36400,"station_id":"ce4bhgh2rcd13ifvqfb0","pricing_plan_id":"cebpf4jnsgd1na2vs0mg"},{"bike_id":"b6e149ac-230a-48ff-a674-48ad8c1be1cf","system_id":"levelo_inurba_marseille","lat":43.31354,"lon":5.38492,"is_reserved":false,"is_disabled":true,"rental_uris":{"android":"levelo://app?vid=b6e149ac-230a-48ff-a674-48ad8c1be1cf","ios":"levelo://app?vid=b6e149ac-230a-48ff-a674-48ad8c1be1cf"},"vehicle_type_id":"4","last_reported":1784743222,"current_range_meters":34000,"station_id":"ce4bgt92rcd13ifvqcf0","pricing_plan_id":"cebpf4jnsgd1na2vs0mg"},{"bike_id":"425cee52-7ff4-408d-b63f-f1bb20a33257","system_id":"levelo_inurba_marseille","lat":43.27488,"lon":5.42552,"is_reserved":false,"is_disabled":false,"rental_uris":{"android":"levelo://app?vid=425cee52-7ff4-408d-b63f-f1bb20a33257","ios":"levelo://app?vid=425cee52-7ff4-408d-b63f-f1bb20a33257"},"vehicle_type_id":"4","last_reported":1784743222,"current_range_meters":37600,"station_id":"st_d8t4bh7nbrqs73arha60","pricing_plan_id":"cebpf4jnsgd1na2vs0mg"},{"bike_id":"acb6c310-64e8-4ffb-9d0e-3645b38213aa","system_id":"levelo_inurba_marseille","lat":43.22557,"lon":5.41626,"is_reserved":false,"is_disabled":false,"rental_uris":{"android":"levelo://app?vid=acb6c310-64e8-4ffb-9d0e-3645b38213aa","ios":"levelo://app?vid=acb6c310-64e8-4ffb-9d0e-3645b38213aa"},"vehicle_type_id":"4","last_reported":1784743222,"current_range_meters":8400,"station_id":"st_d2o4gvlbi1j2169b742g","pricing_plan_id":"cebpf4jnsgd1na2vs0mg"},{"bike_id":"3c8596e2-1d5e-49b5-9ff7-ae897a69659c","system_id":"levelo_inurba_marseille","lat":43.28426,"lon":5.34981,"is_reserved":false,"is_disabled":false,"rental_uris":{"android":"levelo://app?vid=3c8596e2-1d5e-49b5-9ff7-ae897a69659c","ios":"levelo://app?vid=3c8596e2-1d5e-49b5-9ff7-ae897a69659c"},"vehicle_type_id":"4","last_reported":1784743222,"current_range_meters":31200,"station_id":"ce4bhbh2rcd13ifvqepg","pricing_plan_id":"cebpf4jnsgd1na2vs0mg"},{"bike_id":"b03206ec-1dbc-445b-8780-d11ae48a0fbc","system_id":"levelo_inurba_marseille","lat":43.30204,"lon":5.38808,"is_reserved":false,"is_disabled":false,"rental_uris":{"android":"levelo://app?vid=b03206ec-1dbc-445b-8780-d11ae48a0fbc","ios":"levelo://app?vid=b03206ec-1dbc-445b-8780-d11ae48a0fbc"},"vehicle_type_id":"4","last_reported":1784743222,"current_range_meters":28800,"station_id":"","pricing_plan_id":"cebpf4jnsgd1na2vs0mg"},{"bike_id":"2b2d5806-a98a-4b6d-8666-219c96826a65","system_id":"levelo_inurba_marseille","lat":43.33004,"lon":5.3905,"is_reserved":false,"is_disabled":false,"rental_uris":{"android":"levelo://app?vid=2b2d5806-a98a-4b6d-8666-219c96826a65","ios":"levelo://app?vid=2b2d5806-a98a-4b6d-8666-219c96826a65"},"vehicle_type_id":"4","last_reported":1784743222,"current_range_meters":8800,"station_id":"ce4bhr92rcd13ifvqhrg","pricing_plan_id":"cebpf4jnsgd1na2vs0mg"},{"bike_id":"9d4b8430-c687-4ce9-b117-2b375d0afc9f","system_id":"levelo_inurba_marseille","lat":43.24149,"lon":5.36412,"is_reserved":false,"is_disabled":true,"rental_uris":{"android":"levelo://app?vid=9d4b8430-c687-4ce9-b117-2b375d0afc9f","ios":"levelo://app?vid=9d4b8430-c687-4ce9-b117-2b375d0afc9f"},"vehicle_type_id":"4","last_reported":1784743222,"current_range_meters":34800,"station_id":"cpo36qri1sfpv3e86is0","pricing_plan_id":"cebpf4jnsgd1na2vs0mg"},{"bike_id":"094a6f31-4606-4e5e-8df5-89803da6dec7","system_id":"levelo_inurba_marseille","lat":43.23611,"lon":5.37486,"is_reserved":false,"is_disabled":false,"rental_uris":{"android":"levelo://app?vid=094a6f31-4606-4e5e-8df5-89803da6dec7","ios":"levelo://app?vid=094a6f31-4606-4e5e-8df5-89803da6dec7"},"vehicle_type_id":"4","last_reported":1784743222,"current_range_meters":12400,"station_id":"","pricing_plan_id":"cebpf4jnsgd1na2vs0mg"},{"bike_id":"52faf09e-35e8-4398-81bc-852e5cd85c3f","system_id":"levelo_inurba_marseille","lat":43.29941,"lon":5.36524,"is_reserved":false,"is_disabled":false,"rental_uris":{"android":"levelo://app?vid=52faf09e-35e8-4398-81bc-852e5cd85c3f","ios":"levelo://app?vid=52faf09e-35e8-4398-81bc-852e5cd85c3f"},"vehicle_type_id":"4","last_reported":1784743222,"current_range_meters":35200,"station_id":"ce4bgm92rcd13ifvqbr0","pricing_plan_id":"cebpf4jnsgd1na2vs0mg"},{"bike_id":"a83f6dd4-a966-4c48-9c5e-40cd101889e5","system_id":"levelo_inurba_marseille","lat":43.28652,"lon":5.36349,"is_reserved":false,"is_disabled":true,"rental_uris":{"android":"levelo://app?vid=a83f6dd4-a966-4c48-9c5e-40cd101889e5","ios":"levelo://app?vid=a83f6dd4-a966-4c48-9c5e-40cd101889e5"},"vehicle_type_id":"4","last_reported":1784743222,"current_range_meters":28000,"station_id":"ce4bhah2rcd13ifvqej0","pricing_plan_id":"cebpf4jnsgd1na2vs0mg"},{"bike_id":"429123e4-dc43-429b-abc2-42a83c22e46e","system_id":"levelo_inurba_marseille","lat":43.23184,"lon":5.35559,"is_reserved":false,"is_disabled":false,"rental_uris":{"android":"levelo://app?vid=429123e4-dc43-429b-abc2-42a83c22e46e","ios":"levelo://app?vid=429123e4-dc43-429b-abc2-42a83c22e46e"},"vehicle_type_id":"4","last_reported":1784743222,"current_range_meters":28800,"station_id":"ce4bhu92rcd13ifvqi70","pricing_plan_id":"cebpf4jnsgd1na2vs0mg"},{"bike_id":"d4176fdd-97a2-4c8b-af24-a5d62c1ee6a5","system_id":"levelo_inurba_marseille","lat":43.28701,"lon":5.38646,"is_reserved":false,"is_disabled":true,"rental_uris":{"android":"levelo://app?vid=d4176fdd-97a2-4c8b-af24-a5d62c1ee6a5","ios":"levelo://app?vid=d4176fdd-97a2-4c8b-af24-a5d62c1ee6a5"},"vehicle_type_id":"4","last_reported":1784743222,"current_range_meters":30400,"station_id":"","pricing_plan_id":"cebpf4jnsgd1na2vs0mg"},{"bike_id":"852376dd-f04f-4afc-82a9-1351bd20ef1f","system_id":"levelo_inurba_marseille","lat":43.23065,"lon":5.35479,"is_reserved":false,"is_disabled":false,"rental_uris":{"android":"levelo://app?vid=852376dd-f04f-4afc-82a9-1351bd20ef1f","ios":"levelo://app?vid=852376dd-f04f-4afc-82a9-1351bd20ef1f"},"vehicle_type_id":"4","last_reported":1784743222,"current_range_meters":39200,"station_id":"cpo3342slgdg3j2ifvpg","pricing_plan_id":"cebpf4jnsgd1na2vs0mg"},{"bike_id":"bace381c-6258-4d80-80f1-070c343af026","system_id":"levelo_inurba_marseille","lat":43.33159,"lon":5.37689,"is_reserved":false,"is_disabled":false,"rental_uris":{"android":"levelo://app?vid=bace381c-6258-4d80-80f1-070c343af026","ios":"levelo://app?vid=bace381c-6258-4d80-80f1-070c343af026"},"vehicle_type_id":"4","last_reported":1784743222,"current_range_meters":9200,"station_id":"st_d46cu089ee8s73dldbu0","pricing_plan_id":"cebpf4jnsgd1na2vs0mg"},{"bike_id":"484e47bb-c244-4caf-825b-8db5ca56ab5f","system_id":"levelo_inurba_marseille","lat":43.24385,"lon":5.37054,"is_reserved":false,"is_disabled":false,"rental_uris":{"android":"levelo://app?vid=484e47bb-c244-4caf-825b-8db5ca56ab5f","ios":"levelo://app?vid=484e47bb-c244-4caf-825b-8db5ca56ab5f"},"vehicle_type_id":"4","last_reported":1784743222,"current_range_meters":17600,"station_id":"ce4bhhh2rcd13ifvqfk0","pricing_plan_id":"cebpf4jnsgd1na2vs0mg"},{"bike_id":"d7cd559b-011e-4f7a-8875-35e324f90bda","system_id":"levelo_inurba_marseille","lat":43.29201,"lon":5.36327,"is_reserved":false,"is_disabled":false,"rental_uris":{"android":"levelo://app?vid=d7cd559b-011e-4f7a-8875-35e324f90bda","ios":"levelo://app?vid=d7cd559b-011e-4f7a-8875-35e324f90bda"},"vehicle_type_id":"4","last_reported":1784743222,"current_range_meters":28400,"station_id":"","pricing_plan_id":"cebpf4jnsgd1na2vs0mg"},{"bike_id":"ddf41a10-2178-4557-8834-ca27c6a60907","system_id":"levelo_inurba_marseille","lat":43.24163,"lon":5.36395,"is_reserved":false,"is_disabled":false,"rental_uris":{"android":"levelo://app?vid=ddf41a10-2178-4557-8834-ca27c6a60907","ios":"levelo://app?vid=ddf41a10-2178-4557-8834-ca27c6a60907"},"vehicle_type_id":"4","last_reported":1784743222,"current_range_meters":35200,"station_id":"cpo36qri1sfpv3e86is0","pricing_plan_id":"cebpf4jnsgd1na2vs0mg"},{"bike_id":"e9e543b0-8ca5-47a6-998c-4902ea53cdd4","system_id":"levelo_inurba_marseille","lat":43.25181,"lon":5.3732,"is_reserved":false,"is_disabled":true,"rental_uris":{"android":"levelo://app?vid=e9e543b0-8ca5-47a6-998c-4902ea53cdd4","ios":"levelo://app?vid=e9e543b0-8ca5-47a6-998c-4902ea53cdd4"},"vehicle_type_id":"4","last_reported":1784743222,"current_range_meters":10800,"station_id":"","pricing_plan_id":"cebpf4jnsgd1na2vs0mg"},{"bike_id":"7b994b50-d1d9-4795-96d3-24bdfc1e5a92","system_id":"levelo_inurba_marseille","lat":43.231574,"lon":5.437026,"is_reserved":false,"is_disabled":false,"rental_uris":{"android":"levelo://app?vid=7b994b50-d1d9-4795-96d3-24bdfc1e5a92","ios":"levelo://app?vid=7b994b50-d1d9-4795-96d3-24bdfc1e5a92"},"vehicle_type_id":"4","last_reported":1784743222,"current_range_meters":20800,"station_id":"","pricing_plan_id":"cebpf4jnsgd1na2vs0mg"},{"bike_id":"3ca835a2-f6fd-48f7-b2d8-9c4bf8c198f9","system_id":"levelo_inurba_marseille","lat":43.27499,"lon":5.41582,"is_reserved":false,"is_disabled":false,"rental_uris":{"android":"levelo://app?vid=3ca835a2-f6fd-48f7-b2d8-9c4bf8c198f9","ios":"levelo://app?vid=3ca835a2-f6fd-48f7-b2d8-9c4bf8c198f9"},"vehicle_type_id":"4","last_reported":1784743222,"current_range_meters":35200,"station_id":"st_d6im8g6chgec73a5pndg","pricing_plan_id":"cebpf4jnsgd1na2vs0mg"},{"bike_id":"9dff626e-0158-4f4a-9147-db3b57df0b2b","system_id":"levelo_inurba_marseille","lat":43.28277,"lon":5.35062,"is_reserved":false,"is_disabled":false,"rental_uris":{"android":"levelo://app?vid=9dff626e-0158-4f4a-9147-db3b57df0b2b","ios":"levelo://app?vid=9dff626e-0158-4f4a-9147-db3b57df0b2b"},"vehicle_type_id":"4","last_reported":1784743222,"current_range_meters":20400,"station_id":"ce4bhbp2rcd13ifvqerg","pricing_plan_id":"cebpf4jnsgd1na2vs0mg"},{"bike_id":"0a2a9cec-7ac9-45d2-a3df-11ec4681fd29","system_id":"levelo_inurba_marseille","lat":43.24797,"lon":5.3743,"is_reserved":false,"is_disabled":false,"rental_uris":{"android":"levelo://app?vid=0a2a9cec-7ac9-45d2-a3df-11ec4681fd29","ios":"levelo://app?vid=0a2a9cec-7ac9-45d2-a3df-11ec4681fd29"},"vehicle_type_id":"4","last_reported":1784743222,"current_range_meters":37600,"station_id":"ce4bhgh2rcd13ifvqfb0","pricing_plan_id":"cebpf4jnsgd1na2vs0mg"},{"bike_id":"8f31f3af-0aa6-4421-8e2c-a77a880bef79","system_id":"levelo_inurba_marseille","lat":43.273726,"lon":5.398294,"is_reserved":false,"is_disabled":true,"rental_uris":{"android":"levelo://app?vid=8f31f3af-0aa6-4421-8e2c-a77a880bef79","ios":"levelo://app?vid=8f31f3af-0aa6-4421-8e2c-a77a880bef79"},"vehicle_type_id":"4","last_reported":1784743222,"current_range_meters":6400,"station_id":"","pricing_plan_id":"cebpf4jnsgd1na2vs0mg"},{"bike_id":"ba173b57-c205-4540-af40-9f90c4ee6815","system_id":"levelo_inurba_marseille","lat":43.27846,"lon":5.35496,"is_reserved":false,"is_disabled":false,"rental_uris":{"android":"levelo://app?vid=ba173b57-c205-4540-af40-9f90c4ee6815","ios":"levelo://app?vid=ba173b57-c205-4540-af40-9f90c4ee6815"},"vehicle_type_id":"4","last_reported":1784743222,"current_range_meters":32400,"station_id":"","pricing_plan_id":"cebpf4jnsgd1na2vs0mg"},{"bike_id":"c66eefa3-cffb-42f8-80b9-8c74bc23692e","system_id":"levelo_inurba_marseille","lat":43.28281,"lon":5.35078,"is_reserved":false,"is_disabled":false,"rental_uris":{"android":"levelo://app?vid=c66eefa3-cffb-42f8-80b9-8c74bc23692e","ios":"levelo://app?vid=c66eefa3-cffb-42f8-80b9-8c74bc23692e"},"vehicle_type_id":"4","last_reported":1784743222,"current_range_meters":36400,"station_id":"ce4bhbp2rcd13ifvqerg","pricing_plan_id":"cebpf4jnsgd1na2vs0mg"},{"bike_id":"1a8f7e32-5d47-4694-89a5-a9089b244299","system_id":"levelo_inurba_marseille","lat":43.28074,"lon":5.38501,"is_reserved":false,"is_disabled":false,"rental_uris":{"android":"levelo://app?vid=1a8f7e32-5d47-4694-89a5-a9089b244299","ios":"levelo://app?vid=1a8f7e32-5d47-4694-89a5-a9089b244299"},"vehicle_type_id":"4","last_reported":1784743222,"current_range_meters":4400,"station_id":"","pricing_plan_id":"cebpf4jnsgd1na2vs0mg"},{"bike_id":"a2c9fd6e-925c-4795-ba3f-b9c641931695","system_id":"levelo_inurba_marseille","lat":43.29593,"lon":5.37729,"is_reserved":false,"is_disabled":true,"rental_uris":{"android":"levelo://app?vid=a2c9fd6e-925c-4795-ba3f-b9c641931695","ios":"levelo://app?vid=a2c9fd6e-925c-4795-ba3f-b9c641931695"},"vehicle_type_id":"4","last_reported":1784743222,"current_range_meters":24400,"station_id":"ce4bgi92rcd13ifvqb90","pricing_plan_id":"cebpf4jnsgd1na2vs0mg"},{"bike_id":"7be12b84-96bc-4131-9860-3051dacecb06","system_id":"levelo_inurba_marseille","lat":43.296301,"lon":5.377179,"is_reserved":false,"is_disabled":false,"rental_uris":{"android":"levelo://app?vid=7be12b84-96bc-4131-9860-3051dacecb06","ios":"levelo://app?vid=7be12b84-96bc-4131-9860-3051dacecb06"},"vehicle_type_id":"4","last_reported":1784743222,"current_range_meters":28800,"station_id":"ce4bgi92rcd13ifvqb90","pricing_plan_id":"cebpf4jnsgd1na2vs0mg"},{"bike_id":"7b7c350c-7fa0-4260-b6c2-812c00fe7727","system_id":"levelo_inurba_marseille","lat":43.32108,"lon":5.36773,"is_reserved":false,"is_disabled":false,"rental_uris":{"android":"levelo://app?vid=7b7c350c-7fa0-4260-b6c2-812c00fe7727","ios":"levelo://app?vid=7b7c350c-7fa0-4260-b6c2-812c00fe7727"},"vehicle_type_id":"4","last_reported":1784743222,"current_range_meters":27200,"station_id":"ce4bhrh2rcd13ifvqhug","pricing_plan_id":"cebpf4jnsgd1na2vs0mg"},{"bike_id":"002b6de9-4906-4900-bd53-a26437451aab","system_id":"levelo_inurba_marseille","lat":43.33258,"lon":5.35871,"is_reserved":false,"is_disabled":false,"rental_uris":{"android":"levelo://app?vid=002b6de9-4906-4900-bd53-a26437451aab","ios":"levelo://app?vid=002b6de9-4906-4900-bd53-a26437451aab"},"vehicle_type_id":"4","last_reported":1784743222,"current_range_meters":12000,"station_id":"","pricing_plan_id":"cebpf4jnsgd1na2vs0mg"},{"bike_id":"94f1b0ad-aaa9-4b51-806c-9eae39355e9b","system_id":"levelo_inurba_marseille","lat":43.27378,"lon":5.36259,"is_reserved":false,"is_disabled":true,"rental_uris":{"android":"levelo://app?vid=94f1b0ad-aaa9-4b51-806c-9eae39355e9b","ios":"levelo://app?vid=94f1b0ad-aaa9-4b51-806c-9eae39355e9b"},"vehicle_type_id":"4","last_reported":1784743222,"current_range_meters":28400,"station_id":"ce4bhbh2rcd13ifvqeo0","pricing_plan_id":"cebpf4jnsgd1na2vs0mg"},{"bike_id":"1d7032c9-ef92-473d-bdab-01820d26699c","system_id":"levelo_inurba_marseille","lat":43.23513,"lon":5.35988,"is_reserved":false,"is_disabled":false,"rental_uris":{"android":"levelo://app?vid=1d7032c9-ef92-473d-bdab-01820d26699c","ios":"levelo://app?vid=1d7032c9-ef92-473d-bdab-01820d26699c"},"vehicle_type_id":"4","last_reported":1784743222,"current_range_meters":8400,"station_id":"","pricing_plan_id":"cebpf4jnsgd1na2vs0mg"},{"bike_id":"3d185dea-3134-4b35-9cee-49aed1f0c978","system_id":"levelo_inurba_marseille","lat":43.24666,"lon":5.38168,"is_reserved":false,"is_disabled":true,"rental_uris":{"android":"levelo://app?vid=3d185dea-3134-4b35-9cee-49aed1f0c978","ios":"levelo://app?vid=3d185dea-3134-4b35-9cee-49aed1f0c978"},"vehicle_type_id":"4","last_reported":1784743222,"current_range_meters":36400,"station_id":"ce4bhih2rcd13ifvqfr0","pricing_plan_id":"cebpf4jnsgd1na2vs0mg"},{"bike_id":"d59836fa-cc94-4caa-8c24-e346fea64424","system_id":"levelo_inurba_marseille","lat":43.29971,"lon":5.38482,"is_reserved":false,"is_disabled":true,"rental_uris":{"android":"levelo://app?vid=d59836fa-cc94-4caa-8c24-e346fea64424","ios":"levelo://app?vid=d59836fa-cc94-4caa-8c24-e346fea64424"},"vehicle_type_id":"4","last_reported":1784743222,"current_range_meters":10800,"station_id":"ce4bgj92rcd13ifvqbd0","pricing_plan_id":"cebpf4jnsgd1na2vs0mg"},{"bike_id":"c667032e-1eeb-4a45-9224-fed8ccf47807","system_id":"levelo_inurba_marseille","lat":43.287032,"lon":5.399916,"is_reserved":false,"is_disabled":false,"rental_uris":{"android":"levelo://app?vid=c667032e-1eeb-4a45-9224-fed8ccf47807","ios":"levelo://app?vid=c667032e-1eeb-4a45-9224-fed8ccf47807"},"vehicle_type_id":"4","last_reported":1784743222,"current_range_meters":22000,"station_id":"","pricing_plan_id":"cebpf4jnsgd1na2vs0mg"},{"bike_id":"c68f0b06-a94c-404f-a5bf-96031b5a64fb","system_id":"levelo_inurba_marseille","lat":43.28939,"lon":5.36637,"is_reserved":false,"is_disabled":false,"rental_uris":{"android":"levelo://app?vid=c68f0b06-a94c-404f-a5bf-96031b5a64fb","ios":"levelo://app?vid=c68f0b06-a94c-404f-a5bf-96031b5a64fb"},"vehicle_type_id":"4","last_reported":1784743222,"current_range_meters":39200,"station_id":"ce4bhap2rcd13ifvqek0","pricing_plan_id":"cebpf4jnsgd1na2vs0mg"},{"bike_id":"c1923bef-d0b3-44d9-9a00-ca5ec0311fc3","system_id":"levelo_inurba_marseille","lat":43.25521,"lon":5.37642,"is_reserved":false,"is_disabled":false,"rental_uris":{"android":"levelo://app?vid=c1923bef-d0b3-44d9-9a00-ca5ec0311fc3","ios":"levelo://app?vid=c1923bef-d0b3-44d9-9a00-ca5ec0311fc3"},"vehicle_type_id":"4","last_reported":1784743222,"current_range_meters":39200,"station_id":"ce4bhh12rcd13ifvqff0","pricing_plan_id":"cebpf4jnsgd1na2vs0mg"},{"bike_id":"16c1f100-ded8-41c5-85ce-060e556d650d","system_id":"levelo_inurba_marseille","lat":43.249983,"lon":5.389334,"is_reserved":false,"is_disabled":false,"rental_uris":{"android":"levelo://app?vid=16c1f100-ded8-41c5-85ce-060e556d650d","ios":"levelo://app?vid=16c1f100-ded8-41c5-85ce-060e556d650d"},"vehicle_type_id":"4","last_reported":1784743222,"current_range_meters":39200,"station_id":"ce4bhgp2rcd13ifvqfd0","pricing_plan_id":"cebpf4jnsgd1na2vs0mg"},{"bike_id":"1981d3ef-d7ae-460e-a247-e2f1120f8322","system_id":"levelo_inurba_marseille","lat":43.24586,"lon":5.41949,"is_reserved":false,"is_disabled":false,"rental_uris":{"android":"levelo://app?vid=1981d3ef-d7ae-460e-a247-e2f1120f8322","ios":"levelo://app?vid=1981d3ef-d7ae-460e-a247-e2f1120f8322"},"vehicle_type_id":"4","last_reported":1784743222,"current_range_meters":16800,"station_id":"","pricing_plan_id":"cebpf4jnsgd1na2vs0mg"},{"bike_id":"165f17ce-60d5-4c1f-b561-f2a05656aed3","system_id":"levelo_inurba_marseille","lat":43.24177,"lon":5.36411,"is_reserved":false,"is_disabled":false,"rental_uris":{"android":"levelo://app?vid=165f17ce-60d5-4c1f-b561-f2a05656aed3","ios":"levelo://app?vid=165f17ce-60d5-4c1f-b561-f2a05656aed3"},"vehicle_type_id":"4","last_reported":1784743222,"current_range_meters":32000,"station_id":"cpo36qri1sfpv3e86is0","pricing_plan_id":"cebpf4jnsgd1na2vs0mg"},{"bike_id":"bbb6d84d-52b2-4523-b78b-60cb354411ef","system_id":"levelo_inurba_marseille","lat":43.32107,"lon":5.36777,"is_reserved":false,"is_disabled":false,"rental_uris":{"android":"levelo://app?vid=bbb6d84d-52b2-4523-b78b-60cb354411ef","ios":"levelo://app?vid=bbb6d84d-52b2-4523-b78b-60cb354411ef"},"vehicle_type_id":"4","last_reported":1784743222,"current_range_meters":36000,"station_id":"ce4bhrh2rcd13ifvqhug","pricing_plan_id":"cebpf4jnsgd1na2vs0mg"},{"bike_id":"20421d82-84b6-42fb-85b3-922cb9df63e7","system_id":"levelo_inurba_marseille","lat":43.28349,"lon":5.38126,"is_reserved":false,"is_disabled":false,"rental_uris":{"android":"levelo://app?vid=20421d82-84b6-42fb-85b3-922cb9df63e7","ios":"levelo://app?vid=20421d82-84b6-42fb-85b3-922cb9df63e7"},"vehicle_type_id":"4","last_reported":1784743222,"current_range_meters":7200,"station_id":"ce4bh412rcd13ifvqdr0","pricing_plan_id":"cebpf4jnsgd1na2vs0mg"},{"bike_id":"7c215944-6de0-44b9-b267-ecfcdb73eb11","system_id":"levelo_inurba_marseille","lat":43.27813,"lon":5.40719,"is_reserved":false,"is_disabled":true,"rental_uris":{"android":"levelo://app?vid=7c215944-6de0-44b9-b267-ecfcdb73eb11","ios":"levelo://app?vid=7c215944-6de0-44b9-b267-ecfcdb73eb11"},"vehicle_type_id":"4","last_reported":1784743222,"current_range_meters":39200,"station_id":"ce4bhnh2rcd13ifvqgtg","pricing_plan_id":"cebpf4jnsgd1na2vs0mg"},{"bike_id":"a9863fcb-8ca0-4220-b083-cb27e96475fe","system_id":"levelo_inurba_marseille","lat":43.23185,"lon":5.35557,"is_reserved":false,"is_disabled":false,"rental_uris":{"android":"levelo://app?vid=a9863fcb-8ca0-4220-b083-cb27e96475fe","ios":"levelo://app?vid=a9863fcb-8ca0-4220-b083-cb27e96475fe"},"vehicle_type_id":"4","last_reported":1784743222,"current_range_meters":8000,"station_id":"ce4bhu92rcd13ifvqi70","pricing_plan_id":"cebpf4jnsgd1na2vs0mg"},{"bike_id":"497040b1-a999-4fce-aba0-7e94bbf2a204","system_id":"levelo_inurba_marseille","lat":43.2437,"lon":5.37058,"is_reserved":false,"is_disabled":false,"rental_uris":{"android":"levelo://app?vid=497040b1-a999-4fce-aba0-7e94bbf2a204","ios":"levelo://app?vid=497040b1-a999-4fce-aba0-7e94bbf2a204"},"vehicle_type_id":"4","last_reported":1784743222,"current_range_meters":22400,"station_id":"ce4bhhh2rcd13ifvqfk0","pricing_plan_id":"cebpf4jnsgd1na2vs0mg"},{"bike_id":"5294f236-2b7b-48de-9c4c-74d752a074e5","system_id":"levelo_inurba_marseille","lat":43.28847,"lon":5.3584,"is_reserved":false,"is_disabled":false,"rental_uris":{"android":"levelo://app?vid=5294f236-2b7b-48de-9c4c-74d752a074e5","ios":"levelo://app?vid=5294f236-2b7b-48de-9c4c-74d752a074e5"},"vehicle_type_id":"4","last_reported":1784743222,"current_range_meters":36400,"station_id":"ce4bhb12rcd13ifvqem0","pricing_plan_id":"cebpf4jnsgd1na2vs0mg"},{"bike_id":"a8da38aa-f94e-4c2e-80f0-e41e78a1c855","system_id":"levelo_inurba_marseille","lat":43.29806,"lon":5.38119,"is_reserved":false,"is_disabled":true,"rental_uris":{"android":"levelo://app?vid=a8da38aa-f94e-4c2e-80f0-e41e78a1c855","ios":"levelo://app?vid=a8da38aa-f94e-4c2e-80f0-e41e78a1c855"},"vehicle_type_id":"4","last_reported":1784743222,"current_range_meters":38000,"station_id":"ce4bgip2rcd13ifvqbb0","pricing_plan_id":"cebpf4jnsgd1na2vs0mg"},{"bike_id":"31a7dfc7-25a7-4de5-b98f-2a935968c1fc","system_id":"levelo_inurba_marseille","lat":43.25114,"lon":5.40317,"is_reserved":false,"is_disabled":true,"rental_uris":{"android":"levelo://app?vid=31a7dfc7-25a7-4de5-b98f-2a935968c1fc","ios":"levelo://app?vid=31a7dfc7-25a7-4de5-b98f-2a935968c1fc"},"vehicle_type_id":"4","last_reported":1784743222,"current_range_meters":0,"station_id":"ce4bhlh2rcd13ifvqgig","pricing_plan_id":"cebpf4jnsgd1na2vs0mg"},{"bike_id":"b5a9d944-9eb1-434c-931a-e7a13d8c2c58","system_id":"levelo_inurba_marseille","lat":43.27451,"lon":5.39371,"is_reserved":false,"is_disabled":true,"rental_uris":{"android":"levelo://app?vid=b5a9d944-9eb1-434c-931a-e7a13d8c2c58","ios":"levelo://app?vid=b5a9d944-9eb1-434c-931a-e7a13d8c2c58"},"vehicle_type_id":"4","last_reported":1784743222,"current_range_meters":39200,"station_id":"ce4bhdp2rcd13ifvqf20","pricing_plan_id":"cebpf4jnsgd1na2vs0mg"},{"bike_id":"354a079f-ed28-41a7-a06b-85ab194fda38","system_id":"levelo_inurba_marseille","lat":43.29431,"lon":5.39751,"is_reserved":false,"is_disabled":false,"rental_uris":{"android":"levelo://app?vid=354a079f-ed28-41a7-a06b-85ab194fda38","ios":"levelo://app?vid=354a079f-ed28-41a7-a06b-85ab194fda38"},"vehicle_type_id":"4","last_reported":1784743222,"current_range_meters":39200,"station_id":"ce4bh3h2rcd13ifvqdo0","pricing_plan_id":"cebpf4jnsgd1na2vs0mg"},{"bike_id":"19dc2830-c912-4360-86ca-5525ad96ecbc","system_id":"levelo_inurba_marseille","lat":43.2963,"lon":5.37161,"is_reserved":false,"is_disabled":false,"rental_uris":{"android":"levelo://app?vid=19dc2830-c912-4360-86ca-5525ad96ecbc","ios":"levelo://app?vid=19dc2830-c912-4360-86ca-5525ad96ecbc"},"vehicle_type_id":"4","last_reported":1784743222,"current_range_meters":36000,"station_id":"ce4bgnh2rcd13ifvqc0g","pricing_plan_id":"cebpf4jnsgd1na2vs0mg"},{"bike_id":"5f4bd8f2-46b8-4996-a65a-101104dcc0cb","system_id":"levelo_inurba_marseille","lat":43.27374,"lon":5.36264,"is_reserved":false,"is_disabled":false,"rental_uris":{"android":"levelo://app?vid=5f4bd8f2-46b8-4996-a65a-101104dcc0cb","ios":"levelo://app?vid=5f4bd8f2-46b8-4996-a65a-101104dcc0cb"},"vehicle_type_id":"4","last_reported":1784743222,"current_range_meters":39200,"station_id":"ce4bhbh2rcd13ifvqeo0","pricing_plan_id":"cebpf4jnsgd1na2vs0mg"},{"bike_id":"68d24db2-8be9-4033-a723-22841554027e","system_id":"levelo_inurba_marseille","lat":43.28273,"lon":5.35066,"is_reserved":false,"is_disabled":false,"rental_uris":{"android":"levelo://app?vid=68d24db2-8be9-4033-a723-22841554027e","ios":"levelo://app?vid=68d24db2-8be9-4033-a723-22841554027e"},"vehicle_type_id":"4","last_reported":1784743222,"current_range_meters":39200,"station_id":"ce4bhbp2rcd13ifvqerg","pricing_plan_id":"cebpf4jnsgd1na2vs0mg"},{"bike_id":"f8d90c4e-4908-4f03-845e-3c10c53cb1f4","system_id":"levelo_inurba_marseille","lat":43.30045,"lon":5.40935,"is_reserved":false,"is_disabled":false,"rental_uris":{"android":"levelo://app?vid=f8d90c4e-4908-4f03-845e-3c10c53cb1f4","ios":"levelo://app?vid=f8d90c4e-4908-4f03-845e-3c10c53cb1f4"},"vehicle_type_id":"4","last_reported":1784743222,"current_range_meters":23200,"station_id":"","pricing_plan_id":"cebpf4jnsgd1na2vs0mg"},{"bike_id":"579a19b7-3d44-42d9-95f3-00b258b62bbc","system_id":"levelo_inurba_marseille","lat":43.31217,"lon":5.36831,"is_reserved":false,"is_disabled":true,"rental_uris":{"android":"levelo://app?vid=579a19b7-3d44-42d9-95f3-00b258b62bbc","ios":"levelo://app?vid=579a19b7-3d44-42d9-95f3-00b258b62bbc"},"vehicle_type_id":"4","last_reported":1784743222,"current_range_meters":0,"station_id":"ce4bgl92rcd13ifvqbq0","pricing_plan_id":"cebpf4jnsgd1na2vs0mg"},{"bike_id":"65d6656f-ecee-4f25-9237-02f3ee9b2162","system_id":"levelo_inurba_marseille","lat":43.29922,"lon":5.37478,"is_reserved":false,"is_disabled":true,"rental_uris":{"android":"levelo://app?vid=65d6656f-ecee-4f25-9237-02f3ee9b2162","ios":"levelo://app?vid=65d6656f-ecee-4f25-9237-02f3ee9b2162"},"vehicle_type_id":"4","last_reported":1784743222,"current_range_meters":39200,"station_id":"ce4bgjh2rcd13ifvqbg0","pricing_plan_id":"cebpf4jnsgd1na2vs0mg"},{"bike_id":"27e1e4c5-a07c-4ba9-9e46-007cc925fb39","system_id":"levelo_inurba_marseille","lat":43.2536,"lon":5.41719,"is_reserved":false,"is_disabled":false,"rental_uris":{"android":"levelo://app?vid=27e1e4c5-a07c-4ba9-9e46-007cc925fb39","ios":"levelo://app?vid=27e1e4c5-a07c-4ba9-9e46-007cc925fb39"},"vehicle_type_id":"4","last_reported":1784743222,"current_range_meters":10000,"station_id":"","pricing_plan_id":"cebpf4jnsgd1na2vs0mg"},{"bike_id":"90d28fc0-b23f-4cfa-8ff6-60b4a8038e07","system_id":"levelo_inurba_marseille","lat":43.265733,"lon":5.390373,"is_reserved":false,"is_disabled":false,"rental_uris":{"android":"levelo://app?vid=90d28fc0-b23f-4cfa-8ff6-60b4a8038e07","ios":"levelo://app?vid=90d28fc0-b23f-4cfa-8ff6-60b4a8038e07"},"vehicle_type_id":"4","last_reported":1784743222,"current_range_meters":37600,"station_id":"cpo3532slgdg3j2ikp40","pricing_plan_id":"cebpf4jnsgd1na2vs0mg"},{"bike_id":"5a87d78f-bce0-4026-a623-b63371d564c6","system_id":"levelo_inurba_marseille","lat":43.29191,"lon":5.35798,"is_reserved":false,"is_disabled":true,"rental_uris":{"android":"levelo://app?vid=5a87d78f-bce0-4026-a623-b63371d564c6","ios":"levelo://app?vid=5a87d78f-bce0-4026-a623-b63371d564c6"},"vehicle_type_id":"4","last_reported":1784743222,"current_range_meters":35600,"station_id":"ce4bhb12rcd13ifvqel0","pricing_plan_id":"cebpf4jnsgd1na2vs0mg"},{"bike_id":"36a0369c-ec43-462a-91a8-a598603b1c28","system_id":"levelo_inurba_marseille","lat":43.273743,"lon":5.36263,"is_reserved":false,"is_disabled":false,"rental_uris":{"android":"levelo://app?vid=36a0369c-ec43-462a-91a8-a598603b1c28","ios":"levelo://app?vid=36a0369c-ec43-462a-91a8-a598603b1c28"},"vehicle_type_id":"4","last_reported":1784743222,"current_range_meters":39200,"station_id":"ce4bhbh2rcd13ifvqeo0","pricing_plan_id":"cebpf4jnsgd1na2vs0mg"},{"bike_id":"28dafd1e-b352-4536-b972-96ddffcb9c40","system_id":"levelo_inurba_marseille","lat":43.30732,"lon":5.42448,"is_reserved":false,"is_disabled":false,"rental_uris":{"android":"levelo://app?vid=28dafd1e-b352-4536-b972-96ddffcb9c40","ios":"levelo://app?vid=28dafd1e-b352-4536-b972-96ddffcb9c40"},"vehicle_type_id":"4","last_reported":1784743222,"current_range_meters":39200,"station_id":"st_cvj6ca6bvosntc0bfgr0","pricing_plan_id":"cebpf4jnsgd1na2vs0mg"},{"bike_id":"a7e0a43f-ba6f-47d2-b818-8b0848ae2828","system_id":"levelo_inurba_marseille","lat":43.27441,"lon":5.42458,"is_reserved":false,"is_disabled":true,"rental_uris":{"android":"levelo://app?vid=a7e0a43f-ba6f-47d2-b818-8b0848ae2828","ios":"levelo://app?vid=a7e0a43f-ba6f-47d2-b818-8b0848ae2828"},"vehicle_type_id":"4","last_reported":1784743222,"current_range_meters":0,"station_id":"","pricing_plan_id":"cebpf4jnsgd1na2vs0mg"},{"bike_id":"9ef8a2b5-f251-41f9-9034-6126b1806c56","system_id":"levelo_inurba_marseille","lat":43.28736,"lon":5.42719,"is_reserved":false,"is_disabled":false,"rental_uris":{"android":"levelo://app?vid=9ef8a2b5-f251-41f9-9034-6126b1806c56","ios":"levelo://app?vid=9ef8a2b5-f251-41f9-9034-6126b1806c56"},"vehicle_type_id":"4","last_reported":1784743222,"current_range_meters":16000,"station_id":"","pricing_plan_id":"cebpf4jnsgd1na2vs0mg"},{"bike_id":"d71613f8-723e-45d4-9ecc-e0897b41b67e","system_id":"levelo_inurba_marseille","lat":43.31754,"lon":5.39014,"is_reserved":false,"is_disabled":false,"rental_uris":{"android":"levelo://app?vid=d71613f8-723e-45d4-9ecc-e0897b41b67e","ios":"levelo://app?vid=d71613f8-723e-45d4-9ecc-e0897b41b67e"},"vehicle_type_id":"4","last_reported":1784743222,"current_range_meters":31200,"station_id":"ce4bhqp2rcd13ifvqhng","pricing_plan_id":"cebpf4jnsgd1na2vs0mg"},{"bike_id":"c5032ade-04c2-4ad9-acd6-0c757f219d04","system_id":"levelo_inurba_marseille","lat":43.31898,"lon":5.36801,"is_reserved":false,"is_disabled":false,"rental_uris":{"android":"levelo://app?vid=c5032ade-04c2-4ad9-acd6-0c757f219d04","ios":"levelo://app?vid=c5032ade-04c2-4ad9-acd6-0c757f219d04"},"vehicle_type_id":"4","last_reported":1784743222,"current_range_meters":10800,"station_id":"st_d6o2h0d0559c73evc1b0","pricing_plan_id":"cebpf4jnsgd1na2vs0mg"},{"bike_id":"479a25b1-c1db-4e38-9802-13b8f5b183f0","system_id":"levelo_inurba_marseille","lat":43.28472,"lon":5.48389,"is_reserved":false,"is_disabled":false,"rental_uris":{"android":"levelo://app?vid=479a25b1-c1db-4e38-9802-13b8f5b183f0","ios":"levelo://app?vid=479a25b1-c1db-4e38-9802-13b8f5b183f0"},"vehicle_type_id":"4","last_reported":1784743222,"current_range_meters":28800,"station_id":"st_d3svhcjqgbts73a3dn0g","pricing_plan_id":"cebpf4jnsgd1na2vs0mg"},{"bike_id":"5ba3de10-889b-4152-aef4-4bff1e010d26","system_id":"levelo_inurba_marseille","lat":43.32108,"lon":5.36777,"is_reserved":false,"is_disabled":false,"rental_uris":{"android":"levelo://app?vid=5ba3de10-889b-4152-aef4-4bff1e010d26","ios":"levelo://app?vid=5ba3de10-889b-4152-aef4-4bff1e010d26"},"vehicle_type_id":"4","last_reported":1784743222,"current_range_meters":11200,"station_id":"ce4bhrh2rcd13ifvqhug","pricing_plan_id":"cebpf4jnsgd1na2vs0mg"},{"bike_id":"4a44625a-98e7-4ffe-9d7a-43dbdd22c4d2","system_id":"levelo_inurba_marseille","lat":43.31428,"lon":5.37381,"is_reserved":false,"is_disabled":false,"rental_uris":{"android":"levelo://app?vid=4a44625a-98e7-4ffe-9d7a-43dbdd22c4d2","ios":"levelo://app?vid=4a44625a-98e7-4ffe-9d7a-43dbdd22c4d2"},"vehicle_type_id":"4","last_reported":1784743222,"current_range_meters":26800,"station_id":"","pricing_plan_id":"cebpf4jnsgd1na2vs0mg"},{"bike_id":"742fb721-d782-403d-bedc-0c64c6d3fb84","system_id":"levelo_inurba_marseille","lat":43.29968,"lon":5.38491,"is_reserved":false,"is_disabled":false,"rental_uris":{"android":"levelo://app?vid=742fb721-d782-403d-bedc-0c64c6d3fb84","ios":"levelo://app?vid=742fb721-d782-403d-bedc-0c64c6d3fb84"},"vehicle_type_id":"4","last_reported":1784743222,"current_range_meters":16800,"station_id":"ce4bgj92rcd13ifvqbd0","pricing_plan_id":"cebpf4jnsgd1na2vs0mg"},{"bike_id":"fcbce315-374e-4e6e-b0ea-c74cb09ff198","system_id":"levelo_inurba_marseille","lat":43.27372,"lon":5.36278,"is_reserved":false,"is_disabled":false,"rental_uris":{"android":"levelo://app?vid=fcbce315-374e-4e6e-b0ea-c74cb09ff198","ios":"levelo://app?vid=fcbce315-374e-4e6e-b0ea-c74cb09ff198"},"vehicle_type_id":"4","last_reported":1784743222,"current_range_meters":30000,"station_id":"ce4bhbh2rcd13ifvqeo0","pricing_plan_id":"cebpf4jnsgd1na2vs0mg"},{"bike_id":"a13f0111-9938-4362-bd71-0bd1f0788504","system_id":"levelo_inurba_marseille","lat":43.279,"lon":5.35324,"is_reserved":false,"is_disabled":true,"rental_uris":{"android":"levelo://app?vid=a13f0111-9938-4362-bd71-0bd1f0788504","ios":"levelo://app?vid=a13f0111-9938-4362-bd71-0bd1f0788504"},"vehicle_type_id":"4","last_reported":1784743222,"current_range_meters":0,"station_id":"","pricing_plan_id":"cebpf4jnsgd1na2vs0mg"},{"bike_id":"cc8568ab-2679-4305-9add-20ef1e360289","system_id":"levelo_inurba_marseille","lat":43.33784,"lon":5.37518,"is_reserved":false,"is_disabled":false,"rental_uris":{"android":"levelo://app?vid=cc8568ab-2679-4305-9add-20ef1e360289","ios":"levelo://app?vid=cc8568ab-2679-4305-9add-20ef1e360289"},"vehicle_type_id":"4","last_reported":1784743222,"current_range_meters":33600,"station_id":"","pricing_plan_id":"cebpf4jnsgd1na2vs0mg"},{"bike_id":"8d4acc6d-2c13-47a4-aecd-97cca02b4d0f","system_id":"levelo_inurba_marseille","lat":43.28258,"lon":5.35054,"is_reserved":false,"is_disabled":false,"rental_uris":{"android":"levelo://app?vid=8d4acc6d-2c13-47a4-aecd-97cca02b4d0f","ios":"levelo://app?vid=8d4acc6d-2c13-47a4-aecd-97cca02b4d0f"},"vehicle_type_id":"4","last_reported":1784743222,"current_range_meters":16000,"station_id":"ce4bhbp2rcd13ifvqerg","pricing_plan_id":"cebpf4jnsgd1na2vs0mg"},{"bike_id":"80f2fcef-357e-49cd-aa72-dbf1de6d4695","system_id":"levelo_inurba_marseille","lat":43.31895,"lon":5.3681,"is_reserved":false,"is_disabled":false,"rental_uris":{"android":"levelo://app?vid=80f2fcef-357e-49cd-aa72-dbf1de6d4695","ios":"levelo://app?vid=80f2fcef-357e-49cd-aa72-dbf1de6d4695"},"vehicle_type_id":"4","last_reported":1784743222,"current_range_meters":18000,"station_id":"st_d6o2h0d0559c73evc1b0","pricing_plan_id":"cebpf4jnsgd1na2vs0mg"},{"bike_id":"0192a6cc-552e-454e-ba35-bd88d856db0f","system_id":"levelo_inurba_marseille","lat":43.23057,"lon":5.35486,"is_reserved":false,"is_disabled":false,"rental_uris":{"android":"levelo://app?vid=0192a6cc-552e-454e-ba35-bd88d856db0f","ios":"levelo://app?vid=0192a6cc-552e-454e-ba35-bd88d856db0f"},"vehicle_type_id":"4","last_reported":1784743222,"current_range_meters":34000,"station_id":"cpo3342slgdg3j2ifvpg","pricing_plan_id":"cebpf4jnsgd1na2vs0mg"},{"bike_id":"da4233c0-c0af-47c9-9d03-bfe159080fb5","system_id":"levelo_inurba_marseille","lat":43.33545,"lon":5.37491,"is_reserved":false,"is_disabled":false,"rental_uris":{"android":"levelo://app?vid=da4233c0-c0af-47c9-9d03-bfe159080fb5","ios":"levelo://app?vid=da4233c0-c0af-47c9-9d03-bfe159080fb5"},"vehicle_type_id":"4","last_reported":1784743222,"current_range_meters":9600,"station_id":"st_d46tts09ee8s73dlu43g","pricing_plan_id":"cebpf4jnsgd1na2vs0mg"},{"bike_id":"d88b45a5-fda5-4824-aaa9-a2ae0cc2364d","system_id":"levelo_inurba_marseille","lat":43.24799,"lon":5.37454,"is_reserved":false,"is_disabled":false,"rental_uris":{"android":"levelo://app?vid=d88b45a5-fda5-4824-aaa9-a2ae0cc2364d","ios":"levelo://app?vid=d88b45a5-fda5-4824-aaa9-a2ae0cc2364d"},"vehicle_type_id":"4","last_reported":1784743222,"current_range_meters":39200,"station_id":"ce4bhgh2rcd13ifvqfb0","pricing_plan_id":"cebpf4jnsgd1na2vs0mg"},{"bike_id":"24562537-d892-46b0-8d1f-b9806d00c57d","system_id":"levelo_inurba_marseille","lat":43.2962,"lon":5.37138,"is_reserved":false,"is_disabled":true,"rental_uris":{"android":"levelo://app?vid=24562537-d892-46b0-8d1f-b9806d00c57d","ios":"levelo://app?vid=24562537-d892-46b0-8d1f-b9806d00c57d"},"vehicle_type_id":"4","last_reported":1784743222,"current_range_meters":24800,"station_id":"","pricing_plan_id":"cebpf4jnsgd1na2vs0mg"},{"bike_id":"97c0494c-c7ee-4cb9-a38b-046f44cb3c85","system_id":"levelo_inurba_marseille","lat":43.26222,"lon":5.37423,"is_reserved":false,"is_disabled":true,"rental_uris":{"android":"levelo://app?vid=97c0494c-c7ee-4cb9-a38b-046f44cb3c85","ios":"levelo://app?vid=97c0494c-c7ee-4cb9-a38b-046f44cb3c85"},"vehicle_type_id":"4","last_reported":1784743222,"current_range_meters":30000,"station_id":"","pricing_plan_id":"cebpf4jnsgd1na2vs0mg"},{"bike_id":"88b67ecc-bdbd-4ae3-a6cf-c1b3060635e3","system_id":"levelo_inurba_marseille","lat":43.30181,"lon":5.36615,"is_reserved":false,"is_disabled":false,"rental_uris":{"android":"levelo://app?vid=88b67ecc-bdbd-4ae3-a6cf-c1b3060635e3","ios":"levelo://app?vid=88b67ecc-bdbd-4ae3-a6cf-c1b3060635e3"},"vehicle_type_id":"4","last_reported":1784743222,"current_range_meters":39200,"station_id":"ce4bgrh2rcd13ifvqc8g","pricing_plan_id":"cebpf4jnsgd1na2vs0mg"},{"bike_id":"c6339b14-6408-4f1f-9334-32c118625fc1","system_id":"levelo_inurba_marseille","lat":43.29482,"lon":5.43302,"is_reserved":false,"is_disabled":false,"rental_uris":{"android":"levelo://app?vid=c6339b14-6408-4f1f-9334-32c118625fc1","ios":"levelo://app?vid=c6339b14-6408-4f1f-9334-32c118625fc1"},"vehicle_type_id":"4","last_reported":1784743222,"current_range_meters":20000,"station_id":"st_d3j5ugp08ojc73fj9d10","pricing_plan_id":"cebpf4jnsgd1na2vs0mg"},{"bike_id":"d38ebdde-0622-43e7-bed6-29e42a00bf22","system_id":"levelo_inurba_marseille","lat":43.33773,"lon":5.37465,"is_reserved":false,"is_disabled":true,"rental_uris":{"android":"levelo://app?vid=d38ebdde-0622-43e7-bed6-29e42a00bf22","ios":"levelo://app?vid=d38ebdde-0622-43e7-bed6-29e42a00bf22"},"vehicle_type_id":"4","last_reported":1784743222,"current_range_meters":0,"station_id":"","pricing_plan_id":"cebpf4jnsgd1na2vs0mg"},{"bike_id":"44240ddd-1863-4f8a-9c20-80547c4577ae","system_id":"levelo_inurba_marseille","lat":43.29695,"lon":5.37295,"is_reserved":false,"is_disabled":false,"rental_uris":{"android":"levelo://app?vid=44240ddd-1863-4f8a-9c20-80547c4577ae","ios":"levelo://app?vid=44240ddd-1863-4f8a-9c20-80547c4577ae"},"vehicle_type_id":"4","last_reported":1784743222,"current_range_meters":39200,"station_id":"ce4bgk12rcd13ifvqbj0","pricing_plan_id":"cebpf4jnsgd1na2vs0mg"},{"bike_id":"b809a343-278b-440c-8bd3-1837080007bc","system_id":"levelo_inurba_marseille","lat":43.27843,"lon":5.35435,"is_reserved":false,"is_disabled":false,"rental_uris":{"android":"levelo://app?vid=b809a343-278b-440c-8bd3-1837080007bc","ios":"levelo://app?vid=b809a343-278b-440c-8bd3-1837080007bc"},"vehicle_type_id":"4","last_reported":1784743222,"current_range_meters":33200,"station_id":"","pricing_plan_id":"cebpf4jnsgd1na2vs0mg"},{"bike_id":"0af152ad-5dcf-41cd-8050-c1285b7fa29d","system_id":"levelo_inurba_marseille","lat":43.2738,"lon":5.36261,"is_reserved":false,"is_disabled":false,"rental_uris":{"android":"levelo://app?vid=0af152ad-5dcf-41cd-8050-c1285b7fa29d","ios":"levelo://app?vid=0af152ad-5dcf-41cd-8050-c1285b7fa29d"},"vehicle_type_id":"4","last_reported":1784743222,"current_range_meters":27200,"station_id":"ce4bhbh2rcd13ifvqeo0","pricing_plan_id":"cebpf4jnsgd1na2vs0mg"},{"bike_id":"8654abf3-1cc6-430e-8d34-bbca99828118","system_id":"levelo_inurba_marseille","lat":43.33773,"lon":5.37474,"is_reserved":false,"is_disabled":false,"rental_uris":{"android":"levelo://app?vid=8654abf3-1cc6-430e-8d34-bbca99828118","ios":"levelo://app?vid=8654abf3-1cc6-430e-8d34-bbca99828118"},"vehicle_type_id":"4","last_reported":1784743222,"current_range_meters":35200,"station_id":"","pricing_plan_id":"cebpf4jnsgd1na2vs0mg"},{"bike_id":"6c913b6d-3de3-40ec-afc6-56bd37c218cc","system_id":"levelo_inurba_marseille","lat":43.298675,"lon":5.397251,"is_reserved":false,"is_disabled":false,"rental_uris":{"android":"levelo://app?vid=6c913b6d-3de3-40ec-afc6-56bd37c218cc","ios":"levelo://app?vid=6c913b6d-3de3-40ec-afc6-56bd37c218cc"},"vehicle_type_id":"4","last_reported":1784743222,"current_range_meters":39200,"station_id":"ce4bh0h2rcd13ifvqd50","pricing_plan_id":"cebpf4jnsgd1na2vs0mg"},{"bike_id":"65ad9de8-7135-4e55-bf82-697b44118451","system_id":"levelo_inurba_marseille","lat":43.31891,"lon":5.36802,"is_reserved":false,"is_disabled":false,"rental_uris":{"android":"levelo://app?vid=65ad9de8-7135-4e55-bf82-697b44118451","ios":"levelo://app?vid=65ad9de8-7135-4e55-bf82-697b44118451"},"vehicle_type_id":"4","last_reported":1784743222,"current_range_meters":38800,"station_id":"st_d6o2h0d0559c73evc1b0","pricing_plan_id":"cebpf4jnsgd1na2vs0mg"},