{"last_updated":1720959829,"ttl":30,"version":"2.2","data":{"bikes":[{"bike_id":"6b351400-7e82-417e-b834-a99079bf17e5","system_id":"levelo_inurba_marseille","lat":43.312239,"lon":5.368562,"is_reserved":false,"is_disabled":false,"rental_uris":{"android":"levelo://app?vid=6b351400-7e82-417e-b834-a99079bf17e5","ios":"levelo://app?vid=6b351400-7e82-417e-b834-a99079bf17e5"},"vehicle_type_id":"4","last_reported":1720959829,"current_range_meters":400,"station_id":"ce4bgl92rcd13ifvqbq0","pricing_plan_id":"cebpf4jnsgd1na2vs0mg"},{"bike_id":"143cb951-e4de-487a-a154-1d490dd4a18e","system_id":"levelo_inurba_marseille","lat":43.309076,"lon":5.368465,"is_reserved":false,"is_disabled":false,"rental_uris":{"android":"levelo://app?vid=143cb951-e4de-487a-a154-1d490dd4a18e","ios":"levelo://app?vid=143cb951-e4de-487a-a154-1d490dd4a18e"},"vehicle_type_id":"4","last_reported":1720959829,"current_range_meters":17200,"station_id":"ce4bgn92rcd13ifvqbvg","pricing_plan_id":"cebpf4jnsgd1na2vs0mg"},{"bike_id":"8222908d-64fb-4188-9fd2-3e1d69a0a4fc","system_id":"levelo_inurba_marseille","lat":43.30901,"lon":5.36858,"is_reserved":false,"is_disabled":false,"rental_uris":{"android":"levelo://app?vid=8222908d-64fb-4188-9fd2-3e1d69a0a4fc","ios":"levelo://app?vid=8222908d-64fb-4188-9fd2-3e1d69a0a4fc"},"vehicle_type_id":"4","last_reported":1720959829,"current_range_meters":27200,"station_id":"ce4bgn92rcd13ifvqbvg","pricing_plan_id":"cebpf4jnsgd1na2vs0mg"},{"bike_id":"7cde1fb3-95ba-498e-8323-6867d8730ceb","system_id":"levelo_inurba_marseille","lat":43.315274,"lon":5.372529,"is_reserved":false,"is_disabled":false,"rental_uris":{"android":"levelo://app?vid=7cde1fb3-95ba-498e-8323-6867d8730ceb","ios":"levelo://app?vid=7cde1fb3-95ba-498e-8323-6867d8730ceb"},"vehicle_type_id":"4","last_reported":1720959829,"current_range_meters":7600,"station_id":"","pricing_plan_id":"cebpf4jnsgd1na2vs0mg"},{"bike_id":"c0ab7869-e353-49be-814d-834ae9e0e76a","system_id":"levelo_inurba_marseille","lat":43.309034,"lon":5.371783,"is_reserved":false,"is_disabled":false,"rental_uris":{"android":"levelo://app?vid=c0ab7869-e353-49be-814d-834ae9e0e76a","ios":"levelo://app?vid=c0ab7869-e353-49be-814d-834ae9e0e76a"},"vehicle_type_id":"4","last_reported":1720959829,"current_range_meters":8400,"station_id":"ce4bguh2rcd13ifvqckg","pricing_plan_id":"cebpf4jnsgd1na2vs0mg"},{"bike_id":"c10c397b-6146-48f9-8eaa-352cb1128c71","system_id":"levelo_inurba_marseille","lat":43.309034,"lon":5.371783,"is_reserved":false,"is_disabled":false,"rental_uris":{"android":"levelo://app?vid=c10c397b-6146-48f9-8eaa-352cb1128c71","ios":"levelo://app?vid=c10c397b-6146-48f9-8eaa-352cb1128c71"},"vehicle_type_id":"4","last_reported":1720959829,"current_range_meters":11600,"station_id":"ce4bguh2rcd13ifvqckg","pricing_plan_id":"cebpf4jnsgd1na2vs0mg"},{"bike_id":"3ec2f6d4-a6e4-4aa4-9407-2730438c4a0f","system_id":"levelo_inurba_marseille","lat":43.30887,"lon":5.37193,"is_reserved":false,"is_disabled":false,"rental_uris":{"android":"levelo://app?vid=3ec2f6d4-a6e4-4aa4-9407-2730438c4a0f","ios":"levelo://app?vid=3ec2f6d4-a6e4-4aa4-9407-2730438c4a0f"},"vehicle_type_id":"4","last_reported":1720959829,"current_range_meters":2800,"station_id":"","pricing_plan_id":"cebpf4jnsgd1na2vs0mg"},{"bike_id":"7bbacd63-9987-4e9d-ba9a-5c31542dd6bb","system_id":"levelo_inurba_marseille","lat":43.30552,"lon":5.36706,"is_reserved":false,"is_disabled":false,"rental_uris":{"android":"levelo://app?vid=7bbacd63-9987-4e9d-ba9a-5c31542dd6bb","ios":"levelo://app?vid=7bbacd63-9987-4e9d-ba9a-5c31542dd6bb"},"vehicle_type_id":"4","last_reported":1720959829,"current_range_meters":15200,"station_id":"ce4bgrp2rcd13ifvqc9g","pricing_plan_id":"cebpf4jnsgd1na2vs0mg"},{"bike_id":"c86e8b2b-1330-4259-93fa-1f11973be370","system_id":"levelo_inurba_marseille","lat":43.305714,"lon":5.365633,"is_reserved":false,"is_disabled":false,"rental_uris":{"android":"levelo://app?vid=c86e8b2b-1330-4259-93fa-1f11973be370","ios":"levelo://app?vid=c86e8b2b-1330-4259-93fa-1f11973be370"},"vehicle_type_id":"4","last_reported":1720959829,"current_range_meters":4800,"station_id":"ce4bgs12rcd13ifvqcag","pricing_plan_id":"cebpf4jnsgd1na2vs0mg"},{"bike_id":"74eabbbd-d929-4866-9a63-710ad7781b9f","system_id":"levelo_inurba_marseille","lat":43.305714,"lon":5.365633,"is_reserved":false,"is_disabled":false,"rental_uris":{"android":"levelo://app?vid=74eabbbd-d929-4866-9a63-710ad7781b9f","ios":"levelo://app?vid=74eabbbd-d929-4866-9a63-710ad7781b9f"},"vehicle_type_id":"4","last_reported":1720959829,"current_range_meters":0,"station_id":"ce4bgs12rcd13ifvqcag","pricing_plan_id":"cebpf4jnsgd1na2vs0mg"},{"bike_id":"ad34bcd5-3272-41a5-9744-54d29593e448","system_id":"levelo_inurba_marseille","lat":43.305482,"lon":5.365428,"is_reserved":false,"is_disabled":false,"rental_uris":{"android":"levelo://app?vid=ad34bcd5-3272-41a5-9744-54d29593e448","ios":"levelo://app?vid=ad34bcd5-3272-41a5-9744-54d29593e448"},"vehicle_type_id":"4","last_reported":1720959829,"current_range_meters":20000,"station_id":"ce4bgs12rcd13ifvqcag","pricing_plan_id":"cebpf4jnsgd1na2vs0mg"},{"bike_id":"f9057cf1-59ee-4a37-97d7-755b2f6f67dd","system_id":"levelo_inurba_marseille","lat":43.30545,"lon":5.36541,"is_reserved":false,"is_disabled":false,"rental_uris":{"android":"levelo://app?vid=f9057cf1-59ee-4a37-97d7-755b2f6f67dd","ios":"levelo://app?vid=f9057cf1-59ee-4a37-97d7-755b2f6f67dd"},"vehicle_type_id":"4","last_reported":1720959829,"current_range_meters":24000,"station_id":"ce4bgs12rcd13ifvqcag","pricing_plan_id":"cebpf4jnsgd1na2vs0mg"},{"bike_id":"a0542855-5f2a-40d5-9514-29ec264cc1bc","system_id":"levelo_inurba_marseille","lat":43.305368,"lon":5.367343,"is_reserved":false,"is_disabled":false,"rental_uris":{"android":"levelo://app?vid=a0542855-5f2a-40d5-9514-29ec264cc1bc","ios":"levelo://app?vid=a0542855-5f2a-40d5-9514-29ec264cc1bc"},"vehicle_type_id":"4","last_reported":1720959829,"current_range_meters":29200,"station_id":"ce4bgrp2rcd13ifvqc9g","pricing_plan_id":"cebpf4jnsgd1na2vs0mg"},{"bike_id":"cd9f7f49-053d-4a51-9a0a-efa0cc65016d","system_id":"levelo_inurba_marseille","lat":43.305989,"lon":5.37225,"is_reserved":false,"is_disabled":false,"rental_uris":{"android":"levelo://app?vid=cd9f7f49-053d-4a51-9a0a-efa0cc65016d","ios":"levelo://app?vid=cd9f7f49-053d-4a51-9a0a-efa0cc65016d"},"vehicle_type_id":"4","last_reported":1720959829,"current_range_meters":3600,"station_id":"ce4bgqh2rcd13ifvqc4g","pricing_plan_id":"cebpf4jnsgd1na2vs0mg"},{"bike_id":"52fcd4ec-64d3-47ff-9d5a-433be83a191d","system_id":"levelo_inurba_marseille","lat":43.311131,"lon":5.377651,"is_reserved":false,"is_disabled":false,"rental_uris":{"android":"levelo://app?vid=52fcd4ec-64d3-47ff-9d5a-433be83a191d","ios":"levelo://app?vid=52fcd4ec-64d3-47ff-9d5a-433be83a191d"},"vehicle_type_id":"4","last_reported":1720959829,"current_range_meters":12800,"station_id":"ce4bgt92rcd13ifvqcg0","pricing_plan_id":"cebpf4jnsgd1na2vs0mg"},{"bike_id":"8c4dbb92-0271-4071-b74a-03c07eacde55","system_id":"levelo_inurba_marseille","lat":43.307945,"lon":5.376487,"is_reserved":false,"is_disabled":false,"rental_uris":{"android":"levelo://app?vid=8c4dbb92-0271-4071-b74a-03c07eacde55","ios":"levelo://app?vid=8c4dbb92-0271-4071-b74a-03c07eacde55"},"vehicle_type_id":"4","last_reported":1720959829,"current_range_meters":23200,"station_id":"ce4bgv92rcd13ifvqcq0","pricing_plan_id":"cebpf4jnsgd1na2vs0mg"},{"bike_id":"1560dd15-e68a-4cc2-a0c5-1af9b4aecd78","system_id":"levelo_inurba_marseille","lat":43.317075,"lon":5.377367,"is_reserved":false,"is_disabled":false,"rental_uris":{"android":"levelo://app?vid=1560dd15-e68a-4cc2-a0c5-1af9b4aecd78","ios":"levelo://app?vid=1560dd15-e68a-4cc2-a0c5-1af9b4aecd78"},"vehicle_type_id":"4","last_reported":1720959829,"current_range_meters":22800,"station_id":"ce4bgth2rcd13ifvqch0","pricing_plan_id":"cebpf4jnsgd1na2vs0mg"},{"bike_id":"37d51e84-1f63-47c9-9bbe-c77df602f3ab","system_id":"levelo_inurba_marseille","lat":43.317075,"lon":5.377367,"is_reserved":false,"is_disabled":false,"rental_uris":{"android":"levelo://app?vid=37d51e84-1f63-47c9-9bbe-c77df602f3ab","ios":"levelo://app?vid=37d51e84-1f63-47c9-9bbe-c77df602f3ab"},"vehicle_type_id":"4","last_reported":1720959829,"current_range_meters":0,"station_id":"ce4bgth2rcd13ifvqch0","pricing_plan_id":"cebpf4jnsgd1na2vs0mg"},{"bike_id":"24c0868f-dae4-4c18-ab42-eb49dbb00b3b","system_id":"levelo_inurba_marseille","lat":43.317075,"lon":5.377367,"is_reserved":false,"is_disabled":false,"rental_uris":{"android":"levelo://app?vid=24c0868f-dae4-4c18-ab42-eb49dbb00b3b","ios":"levelo://app?vid=24c0868f-dae4-4c18-ab42-eb49dbb00b3b"},"vehicle_type_id":"4","last_reported":1720959829,"current_range_meters":29200,"station_id":"ce4bgth2rcd13ifvqch0","pricing_plan_id":"cebpf4jnsgd1na2vs0mg"},{"bike_id":"351b16dc-606a-42d3-9538-8fc78ec7c553","system_id":"levelo_inurba_marseille","lat":43.317075,"lon":5.377367,"is_reserved":false,"is_disabled":false,"rental_uris":{"android":"levelo://app?vid=351b16dc-606a-42d3-9538-8fc78ec7c553","ios":"levelo://app?vid=351b16dc-606a-42d3-9538-8fc78ec7c553"},"vehicle_type_id":"4","last_reported":1720959829,"current_range_meters":29200,"station_id":"ce4bgth2rcd13ifvqch0","pricing_plan_id":"cebpf4jnsgd1na2vs0mg"},{"bike_id":"2f4fddad-3032-467d-bd55-64cbdc64879c","system_id":"levelo_inurba_marseille","lat":43.303046,"lon":5.368981,"is_reserved":false,"is_disabled":false,"rental_uris":{"android":"levelo://app?vid=2f4fddad-3032-467d-bd55-64cbdc64879c","ios":"levelo://app?vid=2f4fddad-3032-467d-bd55-64cbdc64879c"},"vehicle_type_id":"4","last_reported":1720959829,"current_range_meters":7200,"station_id":"ce4bgqh2rcd13ifvqc5g","pricing_plan_id":"cebpf4jnsgd1na2vs0mg"},{"bike_id":"604e23d7-c663-4027-bd9a-59714bbd281e","system_id":"levelo_inurba_marseille","lat":43.30304,"lon":5.368987,"is_reserved":false,"is_disabled":false,"rental_uris":{"android":"levelo://app?vid=604e23d7-c663-4027-bd9a-59714bbd281e","ios":"levelo://app?vid=604e23d7-c663-4027-bd9a-59714bbd281e"},"vehicle_type_id":"4","last_reported":1720959829,"current_range_meters":16800,"station_id":"ce4bgqh2rcd13ifvqc5g","pricing_plan_id":"cebpf4jnsgd1na2vs0mg"},{"bike_id":"0945409b-7198-42ab-b192-7f72fd7cf336","system_id":"levelo_inurba_marseille","lat":43.303046,"lon":5.368981,"is_reserved":false,"is_disabled":false,"rental_uris":{"android":"levelo://app?vid=0945409b-7198-42ab-b192-7f72fd7cf336","ios":"levelo://app?vid=0945409b-7198-42ab-b192-7f72fd7cf336"},"vehicle_type_id":"4","last_reported":1720959829,"current_range_meters":10400,"station_id":"ce4bgqh2rcd13ifvqc5g","pricing_plan_id":"cebpf4jnsgd1na2vs0mg"},{"bike_id":"c0b210b2-9040-4d16-a04e-9f24aed65355","system_id":"levelo_inurba_marseille","lat":43.30304,"lon":5.368987,"is_reserved":false,"is_disabled":false,"rental_uris":{"android":"levelo://app?vid=c0b210b2-9040-4d16-a04e-9f24aed65355","ios":"levelo://app?vid=c0b210b2-9040-4d16-a04e-9f24aed65355"},"vehicle_type_id":"4","last_reported":1720959829,"current_range_meters":17200,"station_id":"ce4bgqh2rcd13ifvqc5g","pricing_plan_id":"cebpf4jnsgd1na2vs0mg"},{"bike_id":"c2b81005-5b95-44ad-a244-b80f4b804df3","system_id":"levelo_inurba_marseille","lat":43.315289,"lon":5.380349,"is_reserved":false,"is_disabled":false,"rental_uris":{"android":"levelo://app?vid=c2b81005-5b95-44ad-a244-b80f4b804df3","ios":"levelo://app?vid=c2b81005-5b95-44ad-a244-b80f4b804df3"},"vehicle_type_id":"4","last_reported":1720959829,"current_range_meters":11200,"station_id":"ce4bhsp2rcd13ifvqi50","pricing_plan_id":"cebpf4jnsgd1na2vs0mg"},{"bike_id":"4d191572-f967-4e95-ac38-9eab4307442b","system_id":"levelo_inurba_marseille","lat":43.315289,"lon":5.380349,"is_reserved":false,"is_disabled":false,"rental_uris":{"android":"levelo://app?vid=4d191572-f967-4e95-ac38-9eab4307442b","ios":"levelo://app?vid=4d191572-f967-4e95-ac38-9eab4307442b"},"vehicle_type_id":"4","last_reported":1720959829,"current_range_meters":20400,"station_id":"ce4bhsp2rcd13ifvqi50","pricing_plan_id":"cebpf4jnsgd1na2vs0mg"},{"bike_id":"9e9189e0-af37-483e-a535-4b951387412e","system_id":"levelo_inurba_marseille","lat":43.315289,"lon":5.380349,"is_reserved":false,"is_disabled":false,"rental_uris":{"android":"levelo://app?vid=9e9189e0-af37-483e-a535-4b951387412e","ios":"levelo://app?vid=9e9189e0-af37-483e-a535-4b951387412e"},"vehicle_type_id":"4","last_reported":1720959829,"current_range_meters":24400,"station_id":"ce4bhsp2rcd13ifvqi50","pricing_plan_id":"cebpf4jnsgd1na2vs0mg"},{"bike_id":"d752b64f-160a-40a3-95a2-7c39ed05c932","system_id":"levelo_inurba_marseille","lat":43.31541,"lon":5.38045,"is_reserved":false,"is_disabled":false,"rental_uris":{"android":"levelo://app?vid=d752b64f-160a-40a3-95a2-7c39ed05c932","ios":"levelo://app?vid=d752b64f-160a-40a3-95a2-7c39ed05c932"},"vehicle_type_id":"4","last_reported":1720959829,"current_range_meters":26400,"station_id":"ce4bhsp2rcd13ifvqi50","pricing_plan_id":"cebpf4jnsgd1na2vs0mg"},{"bike_id":"966bef02-9f20-490f-9f04-dac9de6fc161","system_id":"levelo_inurba_marseille","lat":43.301939,"lon":5.366286,"is_reserved":false,"is_disabled":false,"rental_uris":{"android":"levelo://app?vid=966bef02-9f20-490f-9f04-dac9de6fc161","ios":"levelo://app?vid=966bef02-9f20-490f-9f04-dac9de6fc161"},"vehicle_type_id":"4","last_reported":1720959829,"current_range_meters":29600,"station_id":"ce4bgrh2rcd13ifvqc8g","pricing_plan_id":"cebpf4jnsgd1na2vs0mg"},{"bike_id":"2b4da476-2e26-40be-9aee-5dbf144bd864","system_id":"levelo_inurba_marseille","lat":43.31433,"lon":5.38167,"is_reserved":false,"is_disabled":false,"rental_uris":{"android":"levelo://app?vid=2b4da476-2e26-40be-9aee-5dbf144bd864","ios":"levelo://app?vid=2b4da476-2e26-40be-9aee-5dbf144bd864"},"vehicle_type_id":"4","last_reported":1720959829,"current_range_meters":10800,"station_id":"","pricing_plan_id":"cebpf4jnsgd1na2vs0mg"},{"bike_id":"e5d28010-13a5-4975-a4d4-241649fba47a","system_id":"levelo_inurba_marseille","lat":43.304606,"lon":5.379026,"is_reserved":false,"is_disabled":false,"rental_uris":{"android":"levelo://app?vid=e5d28010-13a5-4975-a4d4-241649fba47a","ios":"levelo://app?vid=e5d28010-13a5-4975-a4d4-241649fba47a"},"vehicle_type_id":"4","last_reported":1720959829,"current_range_meters":16800,"station_id":"ce4bgup2rcd13ifvqcn0","pricing_plan_id":"cebpf4jnsgd1na2vs0mg"},{"bike_id":"01ec4e6e-72dc-4798-b2f0-ed454319c72d","system_id":"levelo_inurba_marseille","lat":43.324771,"lon":5.36557,"is_reserved":false,"is_disabled":false,"rental_uris":{"android":"levelo://app?vid=01ec4e6e-72dc-4798-b2f0-ed454319c72d","ios":"levelo://app?vid=01ec4e6e-72dc-4798-b2f0-ed454319c72d"},"vehicle_type_id":"4","last_reported":1720959829,"current_range_meters":6400,"station_id":"ce4bhs12rcd13ifvqhvg","pricing_plan_id":"cebpf4jnsgd1na2vs0mg"},{"bike_id":"8885f510-f369-4774-bf24-6efe122f2754","system_id":"levelo_inurba_marseille","lat":43.324771,"lon":5.36557,"is_reserved":false,"is_disabled":false,"rental_uris":{"android":"levelo://app?vid=8885f510-f369-4774-bf24-6efe122f2754","ios":"levelo://app?vid=8885f510-f369-4774-bf24-6efe122f2754"},"vehicle_type_id":"4","last_reported":1720959829,"current_range_meters":27200,"station_id":"ce4bhs12rcd13ifvqhvg","pricing_plan_id":"cebpf4jnsgd1na2vs0mg"},{"bike_id":"7e73aa4c-ea94-4d4e-ba2d-81421c5f4cb3","system_id":"levelo_inurba_marseille","lat":43.32479,"lon":5.36567,"is_reserved":false,"is_disabled":false,"rental_uris":{"android":"levelo://app?vid=7e73aa4c-ea94-4d4e-ba2d-81421c5f4cb3","ios":"levelo://app?vid=7e73aa4c-ea94-4d4e-ba2d-81421c5f4cb3"},"vehicle_type_id":"4","last_reported":1720959829,"current_range_meters":18800,"station_id":"","pricing_plan_id":"cebpf4jnsgd1na2vs0mg"},{"bike_id":"ea9427d3-3844-4ab0-8397-5150365c96a8","system_id":"levelo_inurba_marseille","lat":43.324771,"lon":5.36557,"is_reserved":false,"is_disabled":false,"rental_uris":{"android":"levelo://app?vid=ea9427d3-3844-4ab0-8397-5150365c96a8","ios":"levelo://app?vid=ea9427d3-3844-4ab0-8397-5150365c96a8"},"vehicle_type_id":"4","last_reported":1720959829,"current_range_meters":16400,"station_id":"ce4bhs12rcd13ifvqhvg","pricing_plan_id":"cebpf4jnsgd1na2vs0mg"},{"bike_id":"71a6c191-141f-4f66-a215-611795a9ab6d","system_id":"levelo_inurba_marseille","lat":43.324771,"lon":5.36557,"is_reserved":false,"is_disabled":false,"rental_uris":{"android":"levelo://app?vid=71a6c191-141f-4f66-a215-611795a9ab6d","ios":"levelo://app?vid=71a6c191-141f-4f66-a215-611795a9ab6d"},"vehicle_type_id":"4","last_reported":1720959829,"current_range_meters":30400,"station_id":"ce4bhs12rcd13ifvqhvg","pricing_plan_id":"cebpf4jnsgd1na2vs0mg"},{"bike_id":"4355e165-05ec-4aaf-930b-49e9f86af0b0","system_id":"levelo_inurba_marseille","lat":43.324771,"lon":5.36557,"is_reserved":false,"is_disabled":false,"rental_uris":{"android":"levelo://app?vid=4355e165-05ec-4aaf-930b-49e9f86af0b0","ios":"levelo://app?vid=4355e165-05ec-4aaf-930b-49e9f86af0b0"},"vehicle_type_id":"4","last_reported":1720959829,"current_range_meters":1200,"station_id":"ce4bhs12rcd13ifvqhvg","pricing_plan_id":"cebpf4jnsgd1na2vs0mg"},{"bike_id":"bc7f1832-ea68-4611-b383-38442baadf66","system_id":"levelo_inurba_marseille","lat":43.324771,"lon":5.36557,"is_reserved":false,"is_disabled":false,"rental_uris":{"android":"levelo://app?vid=bc7f1832-ea68-4611-b383-38442baadf66","ios":"levelo://app?vid=bc7f1832-ea68-4611-b383-38442baadf66"},"vehicle_type_id":"4","last_reported":1720959829,"current_range_meters":29200,"station_id":"ce4bhs12rcd13ifvqhvg","pricing_plan_id":"cebpf4jnsgd1na2vs0mg"},{"bike_id":"f812b111-e46c-4bd7-809a-0298291b4ba2","system_id":"levelo_inurba_marseille","lat":43.31071,"lon":5.383507,"is_reserved":false,"is_disabled":false,"rental_uris":{"android":"levelo://app?vid=f812b111-e46c-4bd7-809a-0298291b4ba2","ios":"levelo://app?vid=f812b111-e46c-4bd7-809a-0298291b4ba2"},"vehicle_type_id":"4","last_reported":1720959829,"current_range_meters":0,"station_id":"ce4bgv92rcd13ifvqcr0","pricing_plan_id":"cebpf4jnsgd1na2vs0mg"},{"bike_id":"5f1dac40-7356-4203-831f-abef09e40651","system_id":"levelo_inurba_marseille","lat":43.31076,"lon":5.3836,"is_reserved":false,"is_disabled":false,"rental_uris":{"android":"levelo://app?vid=5f1dac40-7356-4203-831f-abef09e40651","ios":"levelo://app?vid=5f1dac40-7356-4203-831f-abef09e40651"},"vehicle_type_id":"4","last_reported":1720959829,"current_range_meters":4400,"station_id":"ce4bgv92rcd13ifvqcr0","pricing_plan_id":"cebpf4jnsgd1na2vs0mg"},{"bike_id":"709accd2-849f-46bf-837c-711894aecb73","system_id":"levelo_inurba_marseille","lat":43.31077,"lon":5.38364,"is_reserved":false,"is_disabled":false,"rental_uris":{"android":"levelo://app?vid=709accd2-849f-46bf-837c-711894aecb73","ios":"levelo://app?vid=709accd2-849f-46bf-837c-711894aecb73"},"vehicle_type_id":"4","last_reported":1720959829,"current_range_meters":2800,"station_id":"ce4bgv92rcd13ifvqcr0","pricing_plan_id":"cebpf4jnsgd1na2vs0mg"},{"bike_id":"7508ff92-95a9-4ea8-a271-542fa0c7f410","system_id":"levelo_inurba_marseille","lat":43.302784,"lon":5.377158,"is_reserved":false,"is_disabled":false,"rental_uris":{"android":"levelo://app?vid=7508ff92-95a9-4ea8-a271-542fa0c7f410","ios":"levelo://app?vid=7508ff92-95a9-4ea8-a271-542fa0c7f410"},"vehicle_type_id":"4","last_reported":1720959829,"current_range_meters":27600,"station_id":"ce4bguh2rcd13ifvqcj0","pricing_plan_id":"cebpf4jnsgd1na2vs0mg"},{"bike_id":"796754d2-d593-48c0-8a2f-c3071a68e8c8","system_id":"levelo_inurba_marseille","lat":43.30143,"lon":5.37413,"is_reserved":false,"is_disabled":false,"rental_uris":{"android":"levelo://app?vid=796754d2-d593-48c0-8a2f-c3071a68e8c8","ios":"levelo://app?vid=796754d2-d593-48c0-8a2f-c3071a68e8c8"},"vehicle_type_id":"4","last_reported":1720959829,"current_range_meters":26800,"station_id":"ce4bgs92rcd13ifvqcc0","pricing_plan_id":"cebpf4jnsgd1na2vs0mg"},{"bike_id":"b177793d-4d70-4ecc-a33a-c39721263fd6","system_id":"levelo_inurba_marseille","lat":43.319935,"lon":5.381699,"is_reserved":false,"is_disabled":false,"rental_uris":{"android":"levelo://app?vid=b177793d-4d70-4ecc-a33a-c39721263fd6","ios":"levelo://app?vid=b177793d-4d70-4ecc-a33a-c39721263fd6"},"vehicle_type_id":"4","last_reported":1720959829,"current_range_meters":29600,"station_id":"ce4bhr12rcd13ifvqhpg","pricing_plan_id":"cebpf4jnsgd1na2vs0mg"},{"bike_id":"e2906a32-cfac-44bd-987e-aef8edf75b24","system_id":"levelo_inurba_marseille","lat":43.319935,"lon":5.381699,"is_reserved":false,"is_disabled":false,"rental_uris":{"android":"levelo://app?vid=e2906a32-cfac-44bd-987e-aef8edf75b24","ios":"levelo://app?vid=e2906a32-cfac-44bd-987e-aef8edf75b24"},"vehicle_type_id":"4","last_reported":1720959829,"current_range_meters":0,"station_id":"ce4bhr12rcd13ifvqhpg","pricing_plan_id":"cebpf4jnsgd1na2vs0mg"},{"bike_id":"5f10d1dd-1862-4119-9473-a002c93ab950","system_id":"levelo_inurba_marseille","lat":43.313568,"lon":5.384688,"is_reserved":false,"is_disabled":false,"rental_uris":{"android":"levelo://app?vid=5f10d1dd-1862-4119-9473-a002c93ab950","ios":"levelo://app?vid=5f10d1dd-1862-4119-9473-a002c93ab950"},"vehicle_type_id":"4","last_reported":1720959829,"current_range_meters":10000,"station_id":"ce4bgt92rcd13ifvqcf0","pricing_plan_id":"cebpf4jnsgd1na2vs0mg"},{"bike_id":"53a2adf9-0641-4d31-b512-9fb54341f6fd","system_id":"levelo_inurba_marseille","lat":43.313571,"lon":5.384829,"is_reserved":false,"is_disabled":false,"rental_uris":{"android":"levelo://app?vid=53a2adf9-0641-4d31-b512-9fb54341f6fd","ios":"levelo://app?vid=53a2adf9-0641-4d31-b512-9fb54341f6fd"},"vehicle_type_id":"4","last_reported":1720959829,"current_range_meters":2400,"station_id":"ce4bgt92rcd13ifvqcf0","pricing_plan_id":"cebpf4jnsgd1na2vs0mg"},{"bike_id":"886a2c4f-3010-4360-bf72-3e6dc4f12c6f","system_id":"levelo_inurba_marseille","lat":43.298433,"lon":5.362774,"is_reserved":false,"is_disabled":false,"rental_uris":{"android":"levelo://app?vid=886a2c4f-3010-4360-bf72-3e6dc4f12c6f","ios":"levelo://app?vid=886a2c4f-3010-4360-bf72-3e6dc4f12c6f"},"vehicle_type_id":"4","last_reported":1720959829,"current_range_meters":2800,"station_id":"ce4bgpp2rcd13ifvqc3g","pricing_plan_id":"cebpf4jnsgd1na2vs0mg"},{"bike_id":"0cc8d73f-a877-4d69-89a2-4098e954e3f2","system_id":"levelo_inurba_marseille","lat":43.299383,"lon":5.374927,"is_reserved":false,"is_disabled":false,"rental_uris":{"android":"levelo://app?vid=0cc8d73f-a877-4d69-89a2-4098e954e3f2","ios":"levelo://app?vid=0cc8d73f-a877-4d69-89a2-4098e954e3f2"},"vehicle_type_id":"4","last_reported":1720959829,"current_range_meters":16400,"station_id":"ce4bgjh2rcd13ifvqbg0","pricing_plan_id":"cebpf4jnsgd1na2vs0mg"},{"bike_id":"08cbca2b-4039-4c00-90bb-571f48e2ae34","system_id":"levelo_inurba_marseille","lat":43.311722,"lon":5.387247,"is_reserved":false,"is_disabled":false,"rental_uris":{"android":"levelo://app?vid=08cbca2b-4039-4c00-90bb-571f48e2ae34","ios":"levelo://app?vid=08cbca2b-4039-4c00-90bb-571f48e2ae34"},"vehicle_type_id":"4","last_reported":1720959829,"current_range_meters":3600,"station_id":"ce4bgv12rcd13ifvqcp0","pricing_plan_id":"cebpf4jnsgd1na2vs0mg"},{"bike_id":"be85bf8b-c1d6-486c-a6a9-48419008857a","system_id":"levelo_inurba_marseille","lat":43.311722,"lon":5.387247,"is_reserved":false,"is_disabled":false,"rental_uris":{"android":"levelo://app?vid=be85bf8b-c1d6-486c-a6a9-48419008857a","ios":"levelo://app?vid=be85bf8b-c1d6-486c-a6a9-48419008857a"},"vehicle_type_id":"4","last_reported":1720959829,"current_range_meters":5600,"station_id":"ce4bgv12rcd13ifvqcp0","pricing_plan_id":"cebpf4jnsgd1na2vs0mg"},{"bike_id":"dafafc1b-35c2-4644-94ef-0f9fe68a3289","system_id":"levelo_inurba_marseille","lat":43.311722,"lon":5.387247,"is_reserved":false,"is_disabled":false,"rental_uris":{"android":"levelo://app?vid=dafafc1b-35c2-4644-94ef-0f9fe68a3289","ios":"levelo://app?vid=dafafc1b-35c2-4644-94ef-0f9fe68a3289"},"vehicle_type_id":"4","last_reported":1720959829,"current_range_meters":14000,"station_id":"ce4bgv12rcd13ifvqcp0","pricing_plan_id":"cebpf4jnsgd1na2vs0mg"},{"bike_id":"995c5b1e-3bb7-46db-aca4-04415848e9a6","system_id":"levelo_inurba_marseille","lat":43.311722,"lon":5.387247,"is_reserved":false,"is_disabled":false,"rental_uris":{"android":"levelo://app?vid=995c5b1e-3bb7-46db-aca4-04415848e9a6","ios":"levelo://app?vid=995c5b1e-3bb7-46db-aca4-04415848e9a6"},"vehicle_type_id":"4","last_reported":1720959829,"current_range_meters":31200,"station_id":"ce4bgv12rcd13ifvqcp0","pricing_plan_id":"cebpf4jnsgd1na2vs0mg"},{"bike_id":"e3d5047c-b032-4924-bbd0-d70445e75f6e","system_id":"levelo_inurba_marseille","lat":43.322872,"lon":5.382756,"is_reserved":false,"is_disabled":false,"rental_uris":{"android":"levelo://app?vid=e3d5047c-b032-4924-bbd0-d70445e75f6e","ios":"levelo://app?vid=e3d5047c-b032-4924-bbd0-d70445e75f6e"},"vehicle_type_id":"4","last_reported":1720959829,"current_range_meters":2800,"station_id":"ce4bhr12rcd13ifvqhqg","pricing_plan_id":"cebpf4jnsgd1na2vs0mg"},{"bike_id":"8c1a0248-8b13-407b-a4df-a2f8731f421d","system_id":"levelo_inurba_marseille","lat":43.322872,"lon":5.382756,"is_reserved":false,"is_disabled":false,"rental_uris":{"android":"levelo://app?vid=8c1a0248-8b13-407b-a4df-a2f8731f421d","ios":"levelo://app?vid=8c1a0248-8b13-407b-a4df-a2f8731f421d"},"vehicle_type_id":"4","last_reported":1720959829,"current_range_meters":21600,"station_id":"ce4bhr12rcd13ifvqhqg","pricing_plan_id":"cebpf4jnsgd1na2vs0mg"},{"bike_id":"4eda6d36-728d-49ad-9e32-eae376380759","system_id":"levelo_inurba_marseille","lat":43.322854,"lon":5.382675,"is_reserved":false,"is_disabled":false,"rental_uris":{"android":"levelo://app?vid=4eda6d36-728d-49ad-9e32-eae376380759","ios":"levelo://app?vid=4eda6d36-728d-49ad-9e32-eae376380759"},"vehicle_type_id":"4","last_reported":1720959829,"current_range_meters":27600,"station_id":"ce4bhr12rcd13ifvqhqg","pricing_plan_id":"cebpf4jnsgd1na2vs0mg"},{"bike_id":"729c2a8a-b899-4d67-ac44-060e04cca798","system_id":"levelo_inurba_marseille","lat":43.32291,"lon":5.38261,"is_reserved":false,"is_disabled":false,"rental_uris":{"android":"levelo://app?vid=729c2a8a-b899-4d67-ac44-060e04cca798","ios":"levelo://app?vid=729c2a8a-b899-4d67-ac44-060e04cca798"},"vehicle_type_id":"4","last_reported":1720959829,"current_range_meters":5600,"station_id":"ce4bhr12rcd13ifvqhqg","pricing_plan_id":"cebpf4jnsgd1na2vs0mg"},{"bike_id":"40637d5e-c152-4387-abec-106d1ac08fc7","system_id":"levelo_inurba_marseille","lat":43.322872,"lon":5.382756,"is_reserved":false,"is_disabled":false,"rental_uris":{"android":"levelo://app?vid=40637d5e-c152-4387-abec-106d1ac08fc7","ios":"levelo://app?vid=40637d5e-c152-4387-abec-106d1ac08fc7"},"vehicle_type_id":"4","last_reported":1720959829,"current_range_meters":31600,"station_id":"ce4bhr12rcd13ifvqhqg","pricing_plan_id":"cebpf4jnsgd1na2vs0mg"},{"bike_id":"621a1240-dcf9-4073-bd49-41934f332358","system_id":"levelo_inurba_marseille","lat":43.32292,"lon":5.38264,"is_reserved":false,"is_disabled":false,"rental_uris":{"android":"levelo://app?vid=621a1240-dcf9-4073-bd49-41934f332358","ios":"levelo://app?vid=621a1240-dcf9-4073-bd49-41934f332358"},"vehicle_type_id":"4","last_reported":1720959829,"current_range_meters":21600,"station_id":"","pricing_plan_id":"cebpf4jnsgd1na2vs0mg"},{"bike_id":"f256566a-5114-4a38-a751-6ccbf3b4f30e","system_id":"levelo_inurba_marseille","lat":43.322872,"lon":5.382756,"is_reserved":false,"is_disabled":false,"rental_uris":{"android":"levelo://app?vid=f256566a-5114-4a38-a751-6ccbf3b4f30e","ios":"levelo://app?vid=f256566a-5114-4a38-a751-6ccbf3b4f30e"},"vehicle_type_id":"4","last_reported":1720959829,"current_range_meters":30000,"station_id":"ce4bhr12rcd13ifvqhqg","pricing_plan_id":"cebpf4jnsgd1na2vs0mg"},{"bike_id":"09a6b4a0-f7b3-48bc-b332-7dd9caf84890","system_id":"levelo_inurba_marseille","lat":43.322872,"lon":5.382756,"is_reserved":false,"is_disabled":false,"rental_uris":{"android":"levelo://app?vid=09a6b4a0-f7b3-48bc-b332-7dd9caf84890","ios":"levelo://app?vid=09a6b4a0-f7b3-48bc-b332-7dd9caf84890"},"vehicle_type_id":"4","last_reported":1720959829,"current_range_meters":29200,"station_id":"ce4bhr12rcd13ifvqhqg","pricing_plan_id":"cebpf4jnsgd1na2vs0mg"},{"bike_id":"162badee-c4a1-493a-95b2-afd641c8e25c","system_id":"levelo_inurba_marseille","lat":43.322901,"lon":5.382845,"is_reserved":false,"is_disabled":false,"rental_uris":{"android":"levelo://app?vid=162badee-c4a1-493a-95b2-afd641c8e25c","ios":"levelo://app?vid=162badee-c4a1-493a-95b2-afd641c8e25c"},"vehicle_type_id":"4","last_reported":1720959829,"current_range_meters":31200,"station_id":"ce4bhr12rcd13ifvqhqg","pricing_plan_id":"cebpf4jnsgd1na2vs0mg"},{"bike_id":"79e85a6e-f441-4274-ad29-d3a577eb3134","system_id":"levelo_inurba_marseille","lat":43.297163,"lon":5.365866,"is_reserved":false,"is_disabled":false,"rental_uris":{"android":"levelo://app?vid=79e85a6e-f441-4274-ad29-d3a577eb3134","ios":"levelo://app?vid=79e85a6e-f441-4274-ad29-d3a577eb3134"},"vehicle_type_id":"4","last_reported":1720959829,"current_range_meters":16800,"station_id":"ce4bgn12rcd13ifvqbt0","pricing_plan_id":"cebpf4jnsgd1na2vs0mg"},{"bike_id":"6c16b799-f1b3-4a2a-9921-8a5280d4e323","system_id":"levelo_inurba_marseille","lat":43.297163,"lon":5.365866,"is_reserved":false,"is_disabled":false,"rental_uris":{"android":"levelo://app?vid=6c16b799-f1b3-4a2a-9921-8a5280d4e323","ios":"levelo://app?vid=6c16b799-f1b3-4a2a-9921-8a5280d4e323"},"vehicle_type_id":"4","last_reported":1720959829,"current_range_meters":25200,"station_id":"ce4bgn12rcd13ifvqbt0","pricing_plan_id":"cebpf4jnsgd1na2vs0mg"},{"bike_id":"010a681f-dffe-489e-b886-9d8093e3fab6","system_id":"levelo_inurba_marseille","lat":43.32302,"lon":5.38543,"is_reserved":false,"is_disabled":false,"rental_uris":{"android":"levelo://app?vid=010a681f-dffe-489e-b886-9d8093e3fab6","ios":"levelo://app?vid=010a681f-dffe-489e-b886-9d8093e3fab6"},"vehicle_type_id":"4","last_reported":1720959829,"current_range_meters":19600,"station_id":"","pricing_plan_id":"cebpf4jnsgd1na2vs0mg"},{"bike_id":"4e977fff-ad41-4542-afa2-97d0d9d7577b","system_id":"levelo_inurba_marseille","lat":43.29713,"lon":5.37687,"is_reserved":false,"is_disabled":false,"rental_uris":{"android":"levelo://app?vid=4e977fff-ad41-4542-afa2-97d0d9d7577b","ios":"levelo://app?vid=4e977fff-ad41-4542-afa2-97d0d9d7577b"},"vehicle_type_id":"4","last_reported":1720959829,"current_range_meters":28400,"station_id":"ce4bgkh2rcd13ifvqbl0","pricing_plan_id":"cebpf4jnsgd1na2vs0mg"},{"bike_id":"3d44e3d6-4baf-4b83-aecc-552c46ea0717","system_id":"levelo_inurba_marseille","lat":43.309589,"lon":5.390258,"is_reserved":false,"is_disabled":false,"rental_uris":{"android":"levelo://app?vid=3d44e3d6-4baf-4b83-aecc-552c46ea0717","ios":"levelo://app?vid=3d44e3d6-4baf-4b83-aecc-552c46ea0717"},"vehicle_type_id":"4","last_reported":1720959829,"current_range_meters":30400,"station_id":"ce4bgup2rcd13ifvqco0","pricing_plan_id":"cebpf4jnsgd1na2vs0mg"},{"bike_id":"87bc1857-3177-4246-a116-b47139862f2f","system_id":"levelo_inurba_marseille","lat":43.296921,"lon":5.376579,"is_reserved":false,"is_disabled":false,"rental_uris":{"android":"levelo://app?vid=87bc1857-3177-4246-a116-b47139862f2f","ios":"levelo://app?vid=87bc1857-3177-4246-a116-b47139862f2f"},"vehicle_type_id":"4","last_reported":1720959829,"current_range_meters":800,"station_id":"ce4bgkh2rcd13ifvqbl0","pricing_plan_id":"cebpf4jnsgd1na2vs0mg"},{"bike_id":"b3ad7e3a-acd2-449c-9326-e9b958da5a4d","system_id":"levelo_inurba_marseille","lat":43.30957,"lon":5.39035,"is_reserved":false,"is_disabled":false,"rental_uris":{"android":"levelo://app?vid=b3ad7e3a-acd2-449c-9326-e9b958da5a4d","ios":"levelo://app?vid=b3ad7e3a-acd2-449c-9326-e9b958da5a4d"},"vehicle_type_id":"4","last_reported":1720959829,"current_range_meters":20400,"station_id":"ce4bgup2rcd13ifvqco0","pricing_plan_id":"cebpf4jnsgd1na2vs0mg"},{"bike_id":"181cd291-5285-4073-b486-8164c4a23cab","system_id":"levelo_inurba_marseille","lat":43.317557,"lon":5.390173,"is_reserved":false,"is_disabled":false,"rental_uris":{"android":"levelo://app?vid=181cd291-5285-4073-b486-8164c4a23cab","ios":"levelo://app?vid=181cd291-5285-4073-b486-8164c4a23cab"},"vehicle_type_id":"4","last_reported":1720959829,"current_range_meters":11200,"station_id":"ce4bhqp2rcd13ifvqhng","pricing_plan_id":"cebpf4jnsgd1na2vs0mg"},{"bike_id":"eba01c1b-35b1-4548-82e7-5bafde7684ec","system_id":"levelo_inurba_marseille","lat":43.29575,"lon":5.3751,"is_reserved":false,"is_disabled":false,"rental_uris":{"android":"levelo://app?vid=eba01c1b-35b1-4548-82e7-5bafde7684ec","ios":"levelo://app?vid=eba01c1b-35b1-4548-82e7-5bafde7684ec"},"vehicle_type_id":"4","last_reported":1720959829,"current_range_meters":0,"station_id":"ce4bgh92rcd13ifvqb50","pricing_plan_id":"cebpf4jnsgd1na2vs0mg"},{"bike_id":"ba58602d-21b4-4c8b-b7df-b4bf2c326140","system_id":"levelo_inurba_marseille","lat":43.2958,"lon":5.37543,"is_reserved":false,"is_disabled":false,"rental_uris":{"android":"levelo://app?vid=ba58602d-21b4-4c8b-b7df-b4bf2c326140","ios":"levelo://app?vid=ba58602d-21b4-4c8b-b7df-b4bf2c326140"},"vehicle_type_id":"4","last_reported":1720959829,"current_range_meters":8400,"station_id":"","pricing_plan_id":"cebpf4jnsgd1na2vs0mg"},{"bike_id":"5003cd47-ee9f-4ba8-8507-e72baaefc584","system_id":"levelo_inurba_marseille","lat":43.29753,"lon":5.38085,"is_reserved":false,"is_disabled":false,"rental_uris":{"android":"levelo://app?vid=5003cd47-ee9f-4ba8-8507-e72baaefc584","ios":"levelo://app?vid=5003cd47-ee9f-4ba8-8507-e72baaefc584"},"vehicle_type_id":"4","last_reported":1720959829,"current_range_meters":2800,"station_id":"","pricing_plan_id":"cebpf4jnsgd1na2vs0mg"},{"bike_id":"42834c4e-337d-42e6-9ef9-ce4f558a4a32","system_id":"levelo_inurba_marseille","lat":43.295279,"lon":5.375048,"is_reserved":false,"is_disabled":false,"rental_uris":{"android":"levelo://app?vid=42834c4e-337d-42e6-9ef9-ce4f558a4a32","ios":"levelo://app?vid=42834c4e-337d-42e6-9ef9-ce4f558a4a32"},"vehicle_type_id":"4","last_reported":1720959829,"current_range_meters":7200,"station_id":"ce4bgkp2rcd13ifvqbmg","pricing_plan_id":"cebpf4jnsgd1na2vs0mg"},{"bike_id":"cbfd4822-8049-49de-b0e8-d189620eca11","system_id":"levelo_inurba_marseille","lat":43.2953,"lon":5.37498,"is_reserved":false,"is_disabled":false,"rental_uris":{"android":"levelo://app?vid=cbfd4822-8049-49de-b0e8-d189620eca11","ios":"levelo://app?vid=cbfd4822-8049-49de-b0e8-d189620eca11"},"vehicle_type_id":"4","last_reported":1720959829,"current_range_meters":0,"station_id":"ce4bgkp2rcd13ifvqbmg","pricing_plan_id":"cebpf4jnsgd1na2vs0mg"},{"bike_id":"c57470f1-8442-4bcc-a111-9f20f8cf86c7","system_id":"levelo_inurba_marseille","lat":43.295279,"lon":5.375048,"is_reserved":false,"is_disabled":false,"rental_uris":{"android":"levelo://app?vid=c57470f1-8442-4bcc-a111-9f20f8cf86c7","ios":"levelo://app?vid=c57470f1-8442-4bcc-a111-9f20f8cf86c7"},"vehicle_type_id":"4","last_reported":1720959829,"current_range_meters":0,"station_id":"ce4bgkp2rcd13ifvqbmg","pricing_plan_id":"cebpf4jnsgd1na2vs0mg"},{"bike_id":"a51d0944-c33d-47c8-868f-1a7253e73770","system_id":"levelo_inurba_marseille","lat":43.29553,"lon":5.37723,"is_reserved":false,"is_disabled":false,"rental_uris":{"android":"levelo://app?vid=a51d0944-c33d-47c8-868f-1a7253e73770","ios":"levelo://app?vid=a51d0944-c33d-47c8-868f-1a7253e73770"},"vehicle_type_id":"4","last_reported":1720959829,"current_range_meters":15200,"station_id":"","pricing_plan_id":"cebpf4jnsgd1na2vs0mg"},{"bike_id":"6a71a23c-6448-463a-b8f4-0e4083b8ea3d","system_id":"levelo_inurba_marseille","lat":43.29405,"lon":5.37341,"is_reserved":false,"is_disabled":false,"rental_uris":{"android":"levelo://app?vid=6a71a23c-6448-463a-b8f4-0e4083b8ea3d","ios":"levelo://app?vid=6a71a23c-6448-463a-b8f4-0e4083b8ea3d"},"vehicle_type_id":"4","last_reported":1720959829,"current_range_meters":7600,"station_id":"","pricing_plan_id":"cebpf4jnsgd1na2vs0mg"},{"bike_id":"a52f5ef7-19ef-44d8-ba1d-17d5e90df0d8","system_id":"levelo_inurba_marseille","lat":43.32362,"lon":5.38882,"is_reserved":false,"is_disabled":false,"rental_uris":{"android":"levelo://app?vid=a52f5ef7-19ef-44d8-ba1d-17d5e90df0d8","ios":"levelo://app?vid=a52f5ef7-19ef-44d8-ba1d-17d5e90df0d8"},"vehicle_type_id":"4","last_reported":1720959829,"current_range_meters":0,"station_id":"ce4bhqp2rcd13ifvqhog","pricing_plan_id":"cebpf4jnsgd1na2vs0mg"},{"bike_id":"61c59942-c51f-4b2f-a1e7-0007f4805679","system_id":"levelo_inurba_marseille","lat":43.32368,"lon":5.38895,"is_reserved":false,"is_disabled":false,"rental_uris":{"android":"levelo://app?vid=61c59942-c51f-4b2f-a1e7-0007f4805679","ios":"levelo://app?vid=61c59942-c51f-4b2f-a1e7-0007f4805679"},"vehicle_type_id":"4","last_reported":1720959829,"current_range_meters":400,"station_id":"ce4bhqp2rcd13ifvqhog","pricing_plan_id":"cebpf4jnsgd1na2vs0mg"},{"bike_id":"66c6b240-540a-422d-ba02-3a5ec0a24a12","system_id":"levelo_inurba_marseille","lat":43.293259,"lon":5.371586,"is_reserved":false,"is_disabled":false,"rental_uris":{"android":"levelo://app?vid=66c6b240-540a-422d-ba02-3a5ec0a24a12","ios":"levelo://app?vid=66c6b240-540a-422d-ba02-3a5ec0a24a12"},"vehicle_type_id":"4","last_reported":1720959829,"current_range_meters":20000,"station_id":"ce4bgh92rcd13ifvqb40","pricing_plan_id":"cebpf4jnsgd1na2vs0mg"},{"bike_id":"672e9eeb-1f28-491b-af89-d07c6f4098c4","system_id":"levelo_inurba_marseille","lat":43.305994,"lon":5.393687,"is_reserved":false,"is_disabled":false,"rental_uris":{"android":"levelo://app?vid=672e9eeb-1f28-491b-af89-d07c6f4098c4","ios":"levelo://app?vid=672e9eeb-1f28-491b-af89-d07c6f4098c4"},"vehicle_type_id":"4","last_reported":1720959829,"current_range_meters":10000,"station_id":"ce4bh0p2rcd13ifvqd80","pricing_plan_id":"cebpf4jnsgd1na2vs0mg"},{"bike_id":"289c2260-2cca-485e-8613-631083aea64d","system_id":"levelo_inurba_marseille","lat":43.2936,"lon":5.37835,"is_reserved":false,"is_disabled":false,"rental_uris":{"android":"levelo://app?vid=289c2260-2cca-485e-8613-631083aea64d","ios":"levelo://app?vid=289c2260-2cca-485e-8613-631083aea64d"},"vehicle_type_id":"4","last_reported":1720959829,"current_range_meters":7600,"station_id":"ce4bgjh2rcd13ifvqbf0","pricing_plan_id":"cebpf4jnsgd1na2vs0mg"},{"bike_id":"e7418cd4-58ac-46a8-9dfe-f0f52d3c48ef","system_id":"levelo_inurba_marseille","lat":43.292311,"lon":5.360731,"is_reserved":false,"is_disabled":false,"rental_uris":{"android":"levelo://app?vid=e7418cd4-58ac-46a8-9dfe-f0f52d3c48ef","ios":"levelo://app?vid=e7418cd4-58ac-46a8-9dfe-f0f52d3c48ef"},"vehicle_type_id":"4","last_reported":1720959829,"current_range_meters":0,"station_id":"ce4bhbh2rcd13ifvqeqg","pricing_plan_id":"cebpf4jnsgd1na2vs0mg"},{"bike_id":"f8a32c7d-293d-42fe-8f54-3b613a6753cd","system_id":"levelo_inurba_marseille","lat":43.292311,"lon":5.360731,"is_reserved":false,"is_disabled":false,"rental_uris":{"android":"levelo://app?vid=f8a32c7d-293d-42fe-8f54-3b613a6753cd","ios":"levelo://app?vid=f8a32c7d-293d-42fe-8f54-3b613a6753cd"},"vehicle_type_id":"4","last_reported":1720959829,"current_range_meters":0,"station_id":"ce4bhbh2rcd13ifvqeqg","pricing_plan_id":"cebpf4jnsgd1na2vs0mg"},{"bike_id":"10a387cc-df0d-445e-acb6-c8cc8448eaf6","system_id":"levelo_inurba_marseille","lat":43.30901,"lon":5.39649,"is_reserved":false,"is_disabled":false,"rental_uris":{"android":"levelo://app?vid=10a387cc-df0d-445e-acb6-c8cc8448eaf6","ios":"levelo://app?vid=10a387cc-df0d-445e-acb6-c8cc8448eaf6"},"vehicle_type_id":"4","last_reported":1720959829,"current_range_meters":0,"station_id":"ce4bh012rcd13ifvqcv0","pricing_plan_id":"cebpf4jnsgd1na2vs0mg"},{"bike_id":"cdf72b1e-b957-4560-a902-a9d266ea826a","system_id":"levelo_inurba_marseille","lat":43.28928,"lon":5.36398,"is_reserved":false,"is_disabled":false,"rental_uris":{"android":"levelo://app?vid=cdf72b1e-b957-4560-a902-a9d266ea826a","ios":"levelo://app?vid=cdf72b1e-b957-4560-a902-a9d266ea826a"},"vehicle_type_id":"4","last_reported":1720959829,"current_range_meters":24400,"station_id":"ce4bhc92rcd13ifvqetg","pricing_plan_id":"cebpf4jnsgd1na2vs0mg"},{"bike_id":"f55174fb-6e0e-489d-a47a-82d08928964c","system_id":"levelo_inurba_marseille","lat":43.29008,"lon":5.35624,"is_reserved":false,"is_disabled":false,"rental_uris":{"android":"levelo://app?vid=f55174fb-6e0e-489d-a47a-82d08928964c","ios":"levelo://app?vid=f55174fb-6e0e-489d-a47a-82d08928964c"},"vehicle_type_id":"4","last_reported":1720959829,"current_range_meters":13200,"station_id":"ce4bhb92rcd13ifvqen0","pricing_plan_id":"cebpf4jnsgd1na2vs0mg"},{"bike_id":"ad2087e6-c46d-41b5-9e3b-6187ee81374b","system_id":"levelo_inurba_marseille","lat":43.29005,"lon":5.35622,"is_reserved":false,"is_disabled":false,"rental_uris":{"android":"levelo://app?vid=ad2087e6-c46d-41b5-9e3b-6187ee81374b","ios":"levelo://app?vid=ad2087e6-c46d-41b5-9e3b-6187ee81374b"},"vehicle_type_id":"4","last_reported":1720959829,"current_range_meters":0,"station_id":"ce4bhb92rcd13ifvqen0","pricing_plan_id":"cebpf4jnsgd1na2vs0mg"},{"bike_id":"7452edad-44c0-4841-baca-b1daf9fafa1f","system_id":"levelo_inurba_marseille","lat":43.290104,"lon":5.356111,"is_reserved":false,"is_disabled":false,"rental_uris":{"android":"levelo://app?vid=7452edad-44c0-4841-baca-b1daf9fafa1f","ios":"levelo://app?vid=7452edad-44c0-4841-baca-b1daf9fafa1f"},"vehicle_type_id":"4","last_reported":1720959829,"current_range_meters":0,"station_id":"ce4bhb92rcd13ifvqen0","pricing_plan_id":"cebpf4jnsgd1na2vs0mg"},{"bike_id":"e9701fb0-5df9-46f9-9da0-37166e0b7b06","system_id":"levelo_inurba_marseille","lat":43.32314,"lon":5.39691,"is_reserved":false,"is_disabled":false,"rental_uris":{"android":"levelo://app?vid=e9701fb0-5df9-46f9-9da0-37166e0b7b06","ios":"levelo://app?vid=e9701fb0-5df9-46f9-9da0-37166e0b7b06"},"vehicle_type_id":"4","last_reported":1720959829,"current_range_meters":5600,"station_id":"","pricing_plan_id":"cebpf4jnsgd1na2vs0mg"},{"bike_id":"56b0b194-2ae7-42a8-95b1-316e8c476d56","system_id":"levelo_inurba_marseille","lat":43.282744,"lon":5.350533,"is_reserved":false,"is_disabled":false,"rental_uris":{"android":"levelo://app?vid=56b0b194-2ae7-42a8-95b1-316e8c476d56","ios":"levelo://app?vid=56b0b194-2ae7-42a8-95b1-316e8c476d56"},"vehicle_type_id":"4","last_reported":1720959829,"current_range_meters":29600,"station_id":"ce4bhbp2rcd13ifvqerg","pricing_plan_id":"cebpf4jnsgd1na2vs0mg"},{"bike_id":"bcfb620c-ce4e-4dbe-b50c-1911815723e3","system_id":"levelo_inurba_marseille","lat":43.3302,"lon":5.39033,"is_reserved":false,"is_disabled":false,"rental_uris":{"android":"levelo://app?vid=bcfb620c-ce4e-4dbe-b50c-1911815723e3","ios":"levelo://app?vid=bcfb620c-ce4e-4dbe-b50c-1911815723e3"},"vehicle_type_id":"4","last_reported":1720959829,"current_range_meters":28400,"station_id":"ce4bhr92rcd13ifvqhrg","pricing_plan_id":"cebpf4jnsgd1na2vs0mg"},{"bike_id":"a3a59f09-6967-4f22-978a-0f1ba8f5bad9","system_id":"levelo_inurba_marseille","lat":43.33021,"lon":5.39036,"is_reserved":false,"is_disabled":false,"rental_uris":{"android":"levelo://app?vid=a3a59f09-6967-4f22-978a-0f1ba8f5bad9","ios":"levelo://app?vid=a3a59f09-6967-4f22-978a-0f1ba8f5bad9"},"vehicle_type_id":"4","last_reported":1720959829,"current_range_meters":29600,"station_id":"ce4bhr92rcd13ifvqhrg","pricing_plan_id":"cebpf4jnsgd1na2vs0mg"},{"bike_id":"6357fb50-c7cc-4151-81f3-a2fc3422a5d1","system_id":"levelo_inurba_marseille","lat":43.33021,"lon":5.39037,"is_reserved":false,"is_disabled":false,"rental_uris":{"android":"levelo://app?vid=6357fb50-c7cc-4151-81f3-a2fc3422a5d1","ios":"levelo://app?vid=6357fb50-c7cc-4151-81f3-a2fc3422a5d1"},"vehicle_type_id":"4","last_reported":1720959829,"current_range_meters":6400,"station_id":"ce4bhr92rcd13ifvqhrg","pricing_plan_id":"cebpf4jnsgd1na2vs0mg"},{"bike_id":"e73b2cf8-60c1-4311-b16f-c5b90627bfed","system_id":"levelo_inurba_marseille","lat":43.330244,"lon":5.39039,"is_reserved":false,"is_disabled":false,"rental_uris":{"android":"levelo://app?vid=e73b2cf8-60c1-4311-b16f-c5b90627bfed","ios":"levelo://app?vid=e73b2cf8-60c1-4311-b16f-c5b90627bfed"},"vehicle_type_id":"4","last_reported":1720959829,"current_range_meters":7200,"station_id":"ce4bhr92rcd13ifvqhrg","pricing_plan_id":"cebpf4jnsgd1na2vs0mg"},{"bike_id":"c6762821-d9fc-45ee-b59d-0aba6cbdf2dd","system_id":"levelo_inurba_marseille","lat":43.330442,"lon":5.389148,"is_reserved":false,"is_disabled":false,"rental_uris":{"android":"levelo://app?vid=c6762821-d9fc-45ee-b59d-0aba6cbdf2dd","ios":"levelo://app?vid=c6762821-d9fc-45ee-b59d-0aba6cbdf2dd"},"vehicle_type_id":"4","last_reported":1720959829,"current_range_meters":13200,"station_id":"ce4bhr92rcd13ifvqhrg","pricing_plan_id":"cebpf4jnsgd1na2vs0mg"},{"bike_id":"9492ec6b-38b5-42a5-b3f3-a49ce7fff143","system_id":"levelo_inurba_marseille","lat":43.330442,"lon":5.389148,"is_reserved":false,"is_disabled":false,"rental_uris":{"android":"levelo://app?vid=9492ec6b-38b5-42a5-b3f3-a49ce7fff143","ios":"levelo://app?vid=9492ec6b-38b5-42a5-b3f3-a49ce7fff143"},"vehicle_type_id":"4","last_reported":1720959829,"current_range_meters":6800,"station_id":"ce4bhr92rcd13ifvqhrg","pricing_plan_id":"cebpf4jnsgd1na2vs0mg"},{"bike_id":"658677c5-d775-4d8a-944c-ef4b6bb7e4d9","system_id":"levelo_inurba_marseille","lat":43.330442,"lon":5.389148,"is_reserved":false,"is_disabled":false,"rental_uris":{"android":"levelo://app?vid=658677c5-d775-4d8a-944c-ef4b6bb7e4d9","ios":"levelo://app?vid=658677c5-d775-4d8a-944c-ef4b6bb7e4d9"},"vehicle_type_id":"4","last_reported":1720959829,"current_range_meters":12800,"station_id":"ce4bhr92rcd13ifvqhrg","pricing_plan_id":"cebpf4jnsgd1na2vs0mg"},{"bike_id":"15e26ab3-467b-4f32-a5b4-66d37504cd19","system_id":"levelo_inurba_marseille","lat":43.330442,"lon":5.389148,"is_reserved":false,"is_disabled":false,"rental_uris":{"android":"levelo://app?vid=15e26ab3-467b-4f32-a5b4-66d37504cd19","ios":"levelo://app?vid=15e26ab3-467b-4f32-a5b4-66d37504cd19"},"vehicle_type_id":"4","last_reported":1720959829,"current_range_meters":22000,"station_id":"ce4bhr92rcd13ifvqhrg","pricing_plan_id":"cebpf4jnsgd1na2vs0mg"},{"bike_id":"65534245-b223-4025-8eb1-295b75e5cc5d","system_id":"levelo_inurba_marseille","lat":43.330442,"lon":5.389148,"is_reserved":false,"is_disabled":false,"rental_uris":{"android":"levelo://app?vid=65534245-b223-4025-8eb1-295b75e5cc5d","ios":"levelo://app?vid=65534245-b223-4025-8eb1-295b75e5cc5d"},"vehicle_type_id":"4","last_reported":1720959829,"current_range_meters":19200,"station_id":"ce4bhr92rcd13ifvqhrg","pricing_plan_id":"cebpf4jnsgd1na2vs0mg"},{"bike_id":"542940b3-ae80-4fed-ada3-8ed41eb63afe","system_id":"levelo_inurba_marseille","lat":43.28954,"lon":5.35489,"is_reserved":false,"is_disabled":false,"rental_uris":{"android":"levelo://app?vid=542940b3-ae80-4fed-ada3-8ed41eb63afe","ios":"levelo://app?vid=542940b3-ae80-4fed-ada3-8ed41eb63afe"},"vehicle_type_id":"4","last_reported":1720959829,"current_range_meters":10400,"station_id":"","pricing_plan_id":"cebpf4jnsgd1na2vs0mg"},{"bike_id":"c8d2c321-1aaf-4a37-9072-5d0418337f68","system_id":"levelo_inurba_marseille","lat":43.28856,"lon":5.358371,"is_reserved":false,"is_disabled":false,"rental_uris":{"android":"levelo://app?vid=c8d2c321-1aaf-4a37-9072-5d0418337f68","ios":"levelo://app?vid=c8d2c321-1aaf-4a37-9072-5d0418337f68"},"vehicle_type_id":"4","last_reported":1720959829,"current_range_meters":6000,"station_id":"ce4bhb12rcd13ifvqem0","pricing_plan_id":"cebpf4jnsgd1na2vs0mg"},{"bike_id":"69dea246-0134-4918-a255-70bbc1ac9cc0","system_id":"levelo_inurba_marseille","lat":43.28856,"lon":5.358371,"is_reserved":false,"is_disabled":false,"rental_uris":{"android":"levelo://app?vid=69dea246-0134-4918-a255-70bbc1ac9cc0","ios":"levelo://app?vid=69dea246-0134-4918-a255-70bbc1ac9cc0"},"vehicle_type_id":"4","last_reported":1720959829,"current_range_meters":0,"station_id":"ce4bhb12rcd13ifvqem0","pricing_plan_id":"cebpf4jnsgd1na2vs0mg"},{"bike_id":"afe64dfd-628f-46e1-a995-49287fc080d8","system_id":"levelo_inurba_marseille","lat":43.309371,"lon":5.401449,"is_reserved":false,"is_disabled":false,"rental_uris":{"android":"levelo://app?vid=afe64dfd-628f-46e1-a995-49287fc080d8","ios":"levelo://app?vid=afe64dfd-628f-46e1-a995-49287fc080d8"},"vehicle_type_id":"4","last_reported":1720959829,"current_range_meters":10800,"station_id":"ce4bgvp2rcd13ifvqct0","pricing_plan_id":"cebpf4jnsgd1na2vs0mg"},{"bike_id":"15cee8c2-30c8-4e7d-a56f-427886510415","system_id":"levelo_inurba_marseille","lat":43.312609,"lon":5.401662,"is_reserved":false,"is_disabled":false,"rental_uris":{"android":"levelo://app?vid=15cee8c2-30c8-4e7d-a56f-427886510415","ios":"levelo://app?vid=15cee8c2-30c8-4e7d-a56f-427886510415"},"vehicle_type_id":"4","last_reported":1720959829,"current_range_meters":21200,"station_id":"ce4bh092rcd13ifvqd30","pricing_plan_id":"cebpf4jnsgd1na2vs0mg"},{"bike_id":"7db14a83-5996-4107-aac5-8660c0fb36ae","system_id":"levelo_inurba_marseille","lat":43.337584,"lon":5.374721,"is_reserved":false,"is_disabled":false,"rental_uris":{"android":"levelo://app?vid=7db14a83-5996-4107-aac5-8660c0fb36ae","ios":"levelo://app?vid=7db14a83-5996-4107-aac5-8660c0fb36ae"},"vehicle_type_id":"4","last_reported":1720959829,"current_range_meters":18400,"station_id":"","pricing_plan_id":"cebpf4jnsgd1na2vs0mg"},{"bike_id":"39abbf07-2729-49b9-a62e-e135ca141c9b","system_id":"levelo_inurba_marseille","lat":43.33764,"lon":5.3747,"is_reserved":false,"is_disabled":false,"rental_uris":{"android":"levelo://app?vid=39abbf07-2729-49b9-a62e-e135ca141c9b","ios":"levelo://app?vid=39abbf07-2729-49b9-a62e-e135ca141c9b"},"vehicle_type_id":"4","last_reported":1720959829,"current_range_meters":22000,"station_id":"","pricing_plan_id":"cebpf4jnsgd1na2vs0mg"},{"bike_id":"2c101ebf-47bb-4075-9995-419fb34d5f57","system_id":"levelo_inurba_marseille","lat":43.33765,"lon":5.3747,"is_reserved":false,"is_disabled":false,"rental_uris":{"android":"levelo://app?vid=2c101ebf-47bb-4075-9995-419fb34d5f57","ios":"levelo://app?vid=2c101ebf-47bb-4075-9995-419fb34d5f57"},"vehicle_type_id":"4","last_reported":1720959829,"current_range_meters":29600,"station_id":"","pricing_plan_id":"cebpf4jnsgd1na2vs0mg"},{"bike_id":"e6537933-0eb1-41a8-b76a-584d0a7d4a3c","system_id":"levelo_inurba_marseille","lat":43.33766,"lon":5.37467,"is_reserved":false,"is_disabled":false,"rental_uris":{"android":"levelo://app?vid=e6537933-0eb1-41a8-b76a-584d0a7d4a3c","ios":"levelo://app?vid=e6537933-0eb1-41a8-b76a-584d0a7d4a3c"},"vehicle_type_id":"4","last_reported":1720959829,"current_range_meters":30400,"station_id":"","pricing_plan_id":"cebpf4jnsgd1na2vs0mg"},{"bike_id":"893b3f9e-8d19-4e89-b4e3-e6aa5e07ff06","system_id":"levelo_inurba_marseille","lat":43.33766,"lon":5.37471,"is_reserved":false,"is_disabled":false,"rental_uris":{"android":"levelo://app?vid=893b3f9e-8d19-4e89-b4e3-e6aa5e07ff06","ios":"levelo://app?vid=893b3f9e-8d19-4e89-b4e3-e6aa5e07ff06"},"vehicle_type_id":"4","last_reported":1720959829,"current_range_meters":26800,"station_id":"","pricing_plan_id":"cebpf4jnsgd1na2vs0mg"},{"bike_id":"37772fd2-0f82-4f52-ad98-1e17b9e6b7e2","system_id":"levelo_inurba_marseille","lat":43.33767,"lon":5.37471,"is_reserved":false,"is_disabled":false,"rental_uris":{"android":"levelo://app?vid=37772fd2-0f82-4f52-ad98-1e17b9e6b7e2","ios":"levelo://app?vid=37772fd2-0f82-4f52-ad98-1e17b9e6b7e2"},"vehicle_type_id":"4","last_reported":1720959829,"current_range_meters":20800,"station_id":"","pricing_plan_id":"cebpf4jnsgd1na2vs0mg"},{"bike_id":"cf958edf-a973-4ef8-838e-9cc8f1679483","system_id":"levelo_inurba_marseille","lat":43.33766,"lon":5.37478,"is_reserved":false,"is_disabled":false,"rental_uris":{"android":"levelo://app?vid=cf958edf-a973-4ef8-838e-9cc8f1679483","ios":"levelo://app?vid=cf958edf-a973-4ef8-838e-9cc8f1679483"},"vehicle_type_id":"4","last_reported":1720959829,"current_range_meters":14400,"station_id":"","pricing_plan_id":"cebpf4jnsgd1na2vs0mg"},{"bike_id":"5cd2f239-467e-4111-8850-d9782eca2470","system_id":"levelo_inurba_marseille","lat":43.33767,"lon":5.37472,"is_reserved":false,"is_disabled":false,"rental_uris":{"android":"levelo://app?vid=5cd2f239-467e-4111-8850-d9782eca2470","ios":"levelo://app?vid=5cd2f239-467e-4111-8850-d9782eca2470"},"vehicle_type_id":"4","last_reported":1720959829,"current_range_meters":29600,"station_id":"","pricing_plan_id":"cebpf4jnsgd1na2vs0mg"},{"bike_id":"bfbef46d-097c-4ecc-a4cf-db53c94b13b1","system_id":"levelo_inurba_marseille","lat":43.33767,"lon":5.37472,"is_reserved":false,"is_disabled":false,"rental_uris":{"android":"levelo://app?vid=bfbef46d-097c-4ecc-a4cf-db53c94b13b1","ios":"levelo://app?vid=bfbef46d-097c-4ecc-a4cf-db53c94b13b1"},"vehicle_type_id":"4","last_reported":1720959829,"current_range_meters":29600,"station_id":"","pricing_plan_id":"cebpf4jnsgd1na2vs0mg"},{"bike_id":"8f381f06-2b48-4b7f-9444-eca237a2fc44","system_id":"levelo_inurba_marseille","lat":43.291994,"lon":5.357886,"is_reserved":false,"is_disabled":false,"rental_uris":{"android":"levelo://app?vid=8f381f06-2b48-4b7f-9444-eca237a2fc44","ios":"levelo://app?vid=8f381f06-2b48-4b7f-9444-eca237a2fc44"},"vehicle_type_id":"4","last_reported":1720959829,"current_range_meters":25600,"station_id":"ce4bhb12rcd13ifvqel0","pricing_plan_id":"cebpf4jnsgd1na2vs0mg"},{"bike_id":"26f86cb7-ac0c-4cfd-84f1-3a9e9042360d","system_id":"levelo_inurba_marseille","lat":43.33767,"lon":5.37474,"is_reserved":false,"is_disabled":false,"rental_uris":{"android":"levelo://app?vid=26f86cb7-ac0c-4cfd-84f1-3a9e9042360d","ios":"levelo://app?vid=26f86cb7-ac0c-4cfd-84f1-3a9e9042360d"},"vehicle_type_id":"4","last_reported":1720959829,"current_range_meters":14800,"station_id":"","pricing_plan_id":"cebpf4jnsgd1na2vs0mg"},{"bike_id":"039a10e5-aed9-4f01-a151-04375f715c5b","system_id":"levelo_inurba_marseille","lat":43.33767,"lon":5.37478,"is_reserved":false,"is_disabled":false,"rental_uris":{"android":"levelo://app?vid=039a10e5-aed9-4f01-a151-04375f715c5b","ios":"levelo://app?vid=039a10e5-aed9-4f01-a151-04375f715c5b"},"vehicle_type_id":"4","last_reported":1720959829,"current_range_meters":24800,"station_id":"","pricing_plan_id":"cebpf4jnsgd1na2vs0mg"},{"bike_id":"6005b925-bbeb-43fb-9a4b-148f3086b364","system_id":"levelo_inurba_marseille","lat":43.33767,"lon":5.37481,"is_reserved":false,"is_disabled":false,"rental_uris":{"android":"levelo://app?vid=6005b925-bbeb-43fb-9a4b-148f3086b364","ios":"levelo://app?vid=6005b925-bbeb-43fb-9a4b-148f3086b364"},"vehicle_type_id":"4","last_reported":1720959829,"current_range_meters":3200,"station_id":"","pricing_plan_id":"cebpf4jnsgd1na2vs0mg"},{"bike_id":"9641f142-48bc-49b9-9b2a-634a9b288110","system_id":"levelo_inurba_marseille","lat":43.33768,"lon":5.37476,"is_reserved":false,"is_disabled":false,"rental_uris":{"android":"levelo://app?vid=9641f142-48bc-49b9-9b2a-634a9b288110","ios":"levelo://app?vid=9641f142-48bc-49b9-9b2a-634a9b288110"},"vehicle_type_id":"4","last_reported":1720959829,"current_range_meters":22000,"station_id":"","pricing_plan_id":"cebpf4jnsgd1na2vs0mg"},{"bike_id":"e951615b-5573-4435-a7b6-8167ff6ade63","system_id":"levelo_inurba_marseille","lat":43.33769,"lon":5.3747,"is_reserved":false,"is_disabled":false,"rental_uris":{"android":"levelo://app?vid=e951615b-5573-4435-a7b6-8167ff6ade63","ios":"levelo://app?vid=e951615b-5573-4435-a7b6-8167ff6ade63"},"vehicle_type_id":"4","last_reported":1720959829,"current_range_meters":14400,"station_id":"","pricing_plan_id":"cebpf4jnsgd1na2vs0mg"},{"bike_id":"0dd06392-f63f-44b8-af4f-590dfd121b02","system_id":"levelo_inurba_marseille","lat":43.33769,"lon":5.3747,"is_reserved":false,"is_disabled":false,"rental_uris":{"android":"levelo://app?vid=0dd06392-f63f-44b8-af4f-590dfd121b02","ios":"levelo://app?vid=0dd06392-f63f-44b8-af4f-590dfd121b02"},"vehicle_type_id":"4","last_reported":1720959829,"current_range_meters":6000,"station_id":"","pricing_plan_id":"cebpf4jnsgd1na2vs0mg"},{"bike_id":"0c80325e-daf1-446d-8059-bffa294c7e3e","system_id":"levelo_inurba_marseille","lat":43.3377,"lon":5.37466,"is_reserved":false,"is_disabled":false,"rental_uris":{"android":"levelo://app?vid=0c80325e-daf1-446d-8059-bffa294c7e3e","ios":"levelo://app?vid=0c80325e-daf1-446d-8059-bffa294c7e3e"},"vehicle_type_id":"4","last_reported":1720959829,"current_range_meters":22800,"station_id":"","pricing_plan_id":"cebpf4jnsgd1na2vs0mg"},{"bike_id":"b490573b-32d3-4854-ab3f-e801cde5a636","system_id":"levelo_inurba_marseille","lat":43.33769,"lon":5.37473,"is_reserved":false,"is_disabled":false,"rental_uris":{"android":"levelo://app?vid=b490573b-32d3-4854-ab3f-e801cde5a636","ios":"levelo://app?vid=b490573b-32d3-4854-ab3f-e801cde5a636"},"vehicle_type_id":"4","last_reported":1720959829,"current_range_meters":15200,"station_id":"","pricing_plan_id":"cebpf4jnsgd1na2vs0mg"},{"bike_id":"e880369d-9e45-4e17-b710-89d03f821f41","system_id":"levelo_inurba_marseille","lat":43.3377,"lon":5.3747,"is_reserved":false,"is_disabled":false,"rental_uris":{"android":"levelo://app?vid=e880369d-9e45-4e17-b710-89d03f821f41","ios":"levelo://app?vid=e880369d-9e45-4e17-b710-89d03f821f41"},"vehicle_type_id":"4","last_reported":1720959829,"current_range_meters":5600,"station_id":"","pricing_plan_id":"cebpf4jnsgd1na2vs0mg"},{"bike_id":"c67a12ba-5c42-41ae-847c-0956c8b147e5","system_id":"levelo_inurba_marseille","lat":43.3377,"lon":5.37471,"is_reserved":false,"is_disabled":false,"rental_uris":{"android":"levelo://app?vid=c67a12ba-5c42-41ae-847c-0956c8b147e5","ios":"levelo://app?vid=c67a12ba-5c42-41ae-847c-0956c8b147e5"},"vehicle_type_id":"4","last_reported":1720959829,"current_range_meters":13200,"station_id":"","pricing_plan_id":"cebpf4jnsgd1na2vs0mg"},{"bike_id":"cd48b539-8a8f-4ccd-a8aa-e74e2abaf1f5","system_id":"levelo_inurba_marseille","lat":43.3377,"lon":5.37472,"is_reserved":false,"is_disabled":false,"rental_uris":{"android":"levelo://app?vid=cd48b539-8a8f-4ccd-a8aa-e74e2abaf1f5","ios":"levelo://app?vid=cd48b539-8a8f-4ccd-a8aa-e74e2abaf1f5"},"vehicle_type_id":"4","last_reported":1720959829,"current_range_meters":24800,"station_id":"","pricing_plan_id":"cebpf4jnsgd1na2vs0mg"},{"bike_id":"02f0d131-963f-495a-beaf-edc5a91d6439","system_id":"levelo_inurba_marseille","lat":43.33771,"lon":5.37466,"is_reserved":false,"is_disabled":false,"rental_uris":{"android":"levelo://app?vid=02f0d131-963f-495a-beaf-edc5a91d6439","ios":"levelo://app?vid=02f0d131-963f-495a-beaf-edc5a91d6439"},"vehicle_type_id":"4","last_reported":1720959829,"current_range_meters":26000,"station_id":"","pricing_plan_id":"cebpf4jnsgd1na2vs0mg"},{"bike_id":"a005e922-b721-4196-b009-e1125dd6e3b2","system_id":"levelo_inurba_marseille","lat":43.33769,"lon":5.37479,"is_reserved":false,"is_disabled":false,"rental_uris":{"android":"levelo://app?vid=a005e922-b721-4196-b009-e1125dd6e3b2","ios":"levelo://app?vid=a005e922-b721-4196-b009-e1125dd6e3b2"},"vehicle_type_id":"4","last_reported":1720959829,"current_range_meters":29600,"station_id":"","pricing_plan_id":"cebpf4jnsgd1na2vs0mg"},{"bike_id":"a7714764-2436-42f7-8089-0fc1ef357d42","system_id":"levelo_inurba_marseille","lat":43.3377,"lon":5.37474,"is_reserved":false,"is_disabled":false,"rental_uris":{"android":"levelo://app?vid=a7714764-2436-42f7-8089-0fc1ef357d42","ios":"levelo://app?vid=a7714764-2436-42f7-8089-0fc1ef357d42"},"vehicle_type_id":"4","last_reported":1720959829,"current_range_meters":0,"station_id":"","pricing_plan_id":"cebpf4jnsgd1na2vs0mg"},{"bike_id":"5aae94a6-c440-4789-857e-46a54718fede","system_id":"levelo_inurba_marseille","lat":43.3377,"lon":5.37474,"is_reserved":false,"is_disabled":false,"rental_uris":{"android":"levelo://app?vid=5aae94a6-c440-4789-857e-46a54718fede","ios":"levelo://app?vid=5aae94a6-c440-4789-857e-46a54718fede"},"vehicle_type_id":"4","last_reported":1720959829,"current_range_meters":29600,"station_id":"","pricing_plan_id":"cebpf4jnsgd1na2vs0mg"},{"bike_id":"a73dad2b-dded-4096-b591-d9883c2ff43e","system_id":"levelo_inurba_marseille","lat":43.33772,"lon":5.37471,"is_reserved":false,"is_disabled":false,"rental_uris":{"android":"levelo://app?vid=a73dad2b-dded-4096-b591-d9883c2ff43e","ios":"levelo://app?vid=a73dad2b-dded-4096-b591-d9883c2ff43e"},"vehicle_type_id":"4","last_reported":1720959829,"current_range_meters":0,"station_id":"","pricing_plan_id":"cebpf4jnsgd1na2vs0mg"},{"bike_id":"d77e79b4-bbcc-4fb4-abd6-01e5d49b13f4","system_id":"levelo_inurba_marseille","lat":43.33771,"lon":5.37478,"is_reserved":false,"is_disabled":false,"rental_uris":{"android":"levelo://app?vid=d77e79b4-bbcc-4fb4-abd6-01e5d49b13f4","ios":"levelo://app?vid=d77e79b4-bbcc-4fb4-abd6-01e5d49b13f4"},"vehicle_type_id":"4","last_reported":1720959829,"current_range_meters":15600,"station_id":"","pricing_plan_id":"cebpf4jnsgd1na2vs0mg"},{"bike_id":"c761b19e-877d-432b-bfa8-ed72a86a6759","system_id":"levelo_inurba_marseille","lat":43.33772,"lon":5.37473,"is_reserved":false,"is_disabled":false,"rental_uris":{"android":"levelo://app?vid=c761b19e-877d-432b-bfa8-ed72a86a6759","ios":"levelo://app?vid=c761b19e-877d-432b-bfa8-ed72a86a6759"},"vehicle_type_id":"4","last_reported":1720959829,"current_range_meters":2000,"station_id":"","pricing_plan_id":"cebpf4jnsgd1na2vs0mg"},{"bike_id":"9e13c9a5-7387-424a-b4fb-1dc4dce029b5","system_id":"levelo_inurba_marseille","lat":43.33772,"lon":5.37473,"is_reserved":false,"is_disabled":false,"rental_uris":{"android":"levelo://app?vid=9e13c9a5-7387-424a-b4fb-1dc4dce029b5","ios":"levelo://app?vid=9e13c9a5-7387-424a-b4fb-1dc4dce029b5"},"vehicle_type_id":"4","last_reported":1720959829,"current_range_meters":25600,"station_id":"","pricing_plan_id":"cebpf4jnsgd1na2vs0mg"},{"bike_id":"ac9d66fe-9bf5-4789-93e4-8c7d750a082c","system_id":"levelo_inurba_marseille","lat":43.33773,"lon":5.37468,"is_reserved":false,"is_disabled":false,"rental_uris":{"android":"levelo://app?vid=ac9d66fe-9bf5-4789-93e4-8c7d750a082c","ios":"levelo://app?vid=ac9d66fe-9bf5-4789-93e4-8c7d750a082c"},"vehicle_type_id":"4","last_reported":1720959829,"current_range_meters":21200,"station_id":"","pricing_plan_id":"cebpf4jnsgd1na2vs0mg"},{"bike_id":"38b57823-eda1-4e58-a521-74a065ade509","system_id":"levelo_inurba_marseille","lat":43.33773,"lon":5.37469,"is_reserved":false,"is_disabled":false,"rental_uris":{"android":"levelo://app?vid=38b57823-eda1-4e58-a521-74a065ade509","ios":"levelo://app?vid=38b57823-eda1-4e58-a521-74a065ade509"},"vehicle_type_id":"4","last_reported":1720959829,"current_range_meters":24800,"station_id":"","pricing_plan_id":"cebpf4jnsgd1na2vs0mg"},{"bike_id":"80ff1c69-9419-4f4b-9d57-bf214620b8b3","system_id":"levelo_inurba_marseille","lat":43.33773,"lon":5.374716,"is_reserved":false,"is_disabled":false,"rental_uris":{"android":"levelo://app?vid=80ff1c69-9419-4f4b-9d57-bf214620b8b3","ios":"levelo://app?vid=80ff1c69-9419-4f4b-9d57-bf214620b8b3"},"vehicle_type_id":"4","last_reported":1720959829,"current_range_meters":5200,"station_id":"","pricing_plan_id":"cebpf4jnsgd1na2vs0mg"},{"bike_id":"ecca751a-c24b-4d06-bee9-480915f9bb4a","system_id":"levelo_inurba_marseille","lat":43.33774,"lon":5.37467,"is_reserved":false,"is_disabled":false,"rental_uris":{"android":"levelo://app?vid=ecca751a-c24b-4d06-bee9-480915f9bb4a","ios":"levelo://app?vid=ecca751a-c24b-4d06-bee9-480915f9bb4a"},"vehicle_type_id":"4","last_reported":1720959829,"current_range_meters":400,"station_id":"","pricing_plan_id":"cebpf4jnsgd1na2vs0mg"},{"bike_id":"a4701b34-a47a-4547-9be9-b5a6ebb6ef0f","system_id":"levelo_inurba_marseille","lat":43.33774,"lon":5.3747,"is_reserved":false,"is_disabled":false,"rental_uris":{"android":"levelo://app?vid=a4701b34-a47a-4547-9be9-b5a6ebb6ef0f","ios":"levelo://app?vid=a4701b34-a47a-4547-9be9-b5a6ebb6ef0f"},"vehicle_type_id":"4","last_reported":1720959829,"current_range_meters":16800,"station_id":"","pricing_plan_id":"cebpf4jnsgd1na2vs0mg"},{"bike_id":"0496dc13-34e3-45c2-af9a-f6e2516b223a","system_id":"levelo_inurba_marseille","lat":43.33773,"lon":5.37479,"is_reserved":false,"is_disabled":false,"rental_uris":{"android":"levelo://app?vid=0496dc13-34e3-45c2-af9a-f6e2516b223a","ios":"levelo://app?vid=0496dc13-34e3-45c2-af9a-f6e2516b223a"},"vehicle_type_id":"4","last_reported":1720959829,"current_range_meters":28800,"station_id":"","pricing_plan_id":"cebpf4jnsgd1na2vs0mg"},{"bike_id":"573b9d78-4adb-4e9e-b480-d279544660f2","system_id":"levelo_inurba_marseille","lat":43.33774,"lon":5.37474,"is_reserved":false,"is_disabled":false,"rental_uris":{"android":"levelo://app?vid=573b9d78-4adb-4e9e-b480-d279544660f2","ios":"levelo://app?vid=573b9d78-4adb-4e9e-b480-d279544660f2"},"vehicle_type_id":"4","last_reported":1720959829,"current_range_meters":8800,"station_id":"","pricing_plan_id":"cebpf4jnsgd1na2vs0mg"},{"bike_id":"45416cd9-028f-41b0-ac5a-269637c45e42","system_id":"levelo_inurba_marseille","lat":43.33774,"lon":5.37475,"is_reserved":false,"is_disabled":false,"rental_uris":{"android":"levelo://app?vid=45416cd9-028f-41b0-ac5a-269637c45e42","ios":"levelo://app?vid=45416cd9-028f-41b0-ac5a-269637c45e42"},"vehicle_type_id":"4","last_reported":1720959829,"current_range_meters":10000,"station_id":"","pricing_plan_id":"cebpf4jnsgd1na2vs0mg"},{"bike_id":"215d24e0-7b63-49a8-aed8-8b8c5a53b355","system_id":"levelo_inurba_marseille","lat":43.33774,"lon":5.37478,"is_reserved":false,"is_disabled":false,"rental_uris":{"android":"levelo://app?vid=215d24e0-7b63-49a8-aed8-8b8c5a53b355","ios":"levelo://app?vid=215d24e0-7b63-49a8-aed8-8b8c5a53b355"},"vehicle_type_id":"4","last_reported":1720959829,"current_range_meters":14000,"station_id":"","pricing_plan_id":"cebpf4jnsgd1na2vs0mg"},{"bike_id":"0146c428-cfdd-4a76-a91e-317ac3b8cedc","system_id":"levelo_inurba_marseille","lat":43.33775,"lon":5.37472,"is_reserved":false,"is_disabled":false,"rental_uris":{"android":"levelo://app?vid=0146c428-cfdd-4a76-a91e-317ac3b8cedc","ios":"levelo://app?vid=0146c428-cfdd-4a76-a91e-317ac3b8cedc"},"vehicle_type_id":"4","last_reported":1720959829,"current_range_meters":0,"station_id":"","pricing_plan_id":"cebpf4jnsgd1na2vs0mg"},{"bike_id":"2fa411ed-3fa9-4268-b414-c8e45152bf4d","system_id":"levelo_inurba_marseille","lat":43.33775,"lon":5.374725,"is_reserved":false,"is_disabled":false,"rental_uris":{"android":"levelo://app?vid=2fa411ed-3fa9-4268-b414-c8e45152bf4d","ios":"levelo://app?vid=2fa411ed-3fa9-4268-b414-c8e45152bf4d"},"vehicle_type_id":"4","last_reported":1720959829,"current_range_meters":14800,"station_id":"","pricing_plan_id":"cebpf4jnsgd1na2vs0mg"},{"bike_id":"db8d58e3-38a2-4c75-ae4a-e4abfcab3724","system_id":"levelo_inurba_marseille","lat":43.33775,"lon":5.37475,"is_reserved":false,"is_disabled":false,"rental_uris":{"android":"levelo://app?vid=db8d58e3-38a2-4c75-ae4a-e4abfcab3724","ios":"levelo://app?vid=db8d58e3-38a2-4c75-ae4a-e4abfcab3724"},"vehicle_type_id":"4","last_reported":1720959829,"current_range_meters":28800,"station_id":"","pricing_plan_id":"cebpf4jnsgd1na2vs0mg"},{"bike_id":"a5b64c84-5508-41ed-bc97-8b733f293107","system_id":"levelo_inurba_marseille","lat":43.33776,"lon":5.37471,"is_reserved":false,"is_disabled":false,"rental_uris":{"android":"levelo://app?vid=a5b64c84-5508-41ed-bc97-8b733f293107","ios":"levelo://app?vid=a5b64c84-5508-41ed-bc97-8b733f293107"},"vehicle_type_id":"4","last_reported":1720959829,"current_range_meters":24800,"station_id":"","pricing_plan_id":"cebpf4jnsgd1na2vs0mg"},{"bike_id":"51544219-3a97-477c-9642-d66a5be4ade3","system_id":"levelo_inurba_marseille","lat":43.33775,"lon":5.37485,"is_reserved":false,"is_disabled":false,"rental_uris":{"android":"levelo://app?vid=51544219-3a97-477c-9642-d66a5be4ade3","ios":"levelo://app?vid=51544219-3a97-477c-9642-d66a5be4ade3"},"vehicle_type_id":"4","last_reported":1720959829,"current_range_meters":18400,"station_id":"","pricing_plan_id":"cebpf4jnsgd1na2vs0mg"},{"bike_id":"60014351-6980-43c2-9516-117e9bc87905","system_id":"levelo_inurba_marseille","lat":43.33777,"lon":5.37474,"is_reserved":false,"is_disabled":false,"rental_uris":{"android":"levelo://app?vid=60014351-6980-43c2-9516-117e9bc87905","ios":"levelo://app?vid=60014351-6980-43c2-9516-117e9bc87905"},"vehicle_type_id":"4","last_reported":1720959829,"current_range_meters":16000,"station_id":"","pricing_plan_id":"cebpf4jnsgd1na2vs0mg"},{"bike_id":"7fe8718f-2ce5-43ca-bf2f-4cadfbd7a814","system_id":"levelo_inurba_marseille","lat":43.33778,"lon":5.37476,"is_reserved":false,"is_disabled":false,"rental_uris":{"android":"levelo://app?vid=7fe8718f-2ce5-43ca-bf2f-4cadfbd7a814","ios":"levelo://app?vid=7fe8718f-2ce5-43ca-bf2f-4cadfbd7a814"},"vehicle_type_id":"4","last_reported":1720959829,"current_range_meters":18000,"station_id":"","pricing_plan_id":"cebpf4jnsgd1na2vs0mg"},{"bike_id":"0d58fd1b-f1d1-4fc6-a4e4-51a623e9a871","system_id":"levelo_inurba_marseille","lat":43.33778,"lon":5.37483,"is_reserved":false,"is_disabled":false,"rental_uris":{"android":"levelo://app?vid=0d58fd1b-f1d1-4fc6-a4e4-51a623e9a871","ios":"levelo://app?vid=0d58fd1b-f1d1-4fc6-a4e4-51a623e9a871"},"vehicle_type_id":"4","last_reported":1720959829,"current_range_meters":31200,"station_id":"","pricing_plan_id":"cebpf4jnsgd1na2vs0mg"},{"bike_id":"4e370a75-f239-47c4-859a-d105c30dac36","system_id":"levelo_inurba_marseille","lat":43.286961,"lon":5.373785,"is_reserved":false,"is_disabled":false,"rental_uris":{"android":"levelo://app?vid=4e370a75-f239-47c4-859a-d105c30dac36","ios":"levelo://app?vid=4e370a75-f239-47c4-859a-d105c30dac36"},"vehicle_type_id":"4","last_reported":1720959829,"current_range_meters":20800,"station_id":"ce4bh3p2rcd13ifvqdq0","pricing_plan_id":"cebpf4jnsgd1na2vs0mg"},{"bike_id":"5637f32e-96f8-46f0-bdac-83f0be6ab399","system_id":"levelo_inurba_marseille","lat":43.280382,"lon":5.369291,"is_reserved":false,"is_disabled":false,"rental_uris":{"android":"levelo://app?vid=5637f32e-96f8-46f0-bdac-83f0be6ab399","ios":"levelo://app?vid=5637f32e-96f8-46f0-bdac-83f0be6ab399"},"vehicle_type_id":"4","last_reported":1720959829,"current_range_meters":12400,"station_id":"ce4bha12rcd13ifvqef0","pricing_plan_id":"cebpf4jnsgd1na2vs0mg"},{"bike_id":"b837032f-cf3e-4ec5-a499-680072407684","system_id":"levelo_inurba_marseille","lat":43.294096,"lon":5.392995,"is_reserved":false,"is_disabled":false,"rental_uris":{"android":"levelo://app?vid=b837032f-cf3e-4ec5-a499-680072407684","ios":"levelo://app?vid=b837032f-cf3e-4ec5-a499-680072407684"},"vehicle_type_id":"4","last_reported":1720959829,"current_range_meters":26800,"station_id":"","pricing_plan_id":"cebpf4jnsgd1na2vs0mg"},{"bike_id":"a6c5d38d-56e6-421a-8ead-675ca480bfda","system_id":"levelo_inurba_marseille","lat":43.286039,"lon":5.370681,"is_reserved":false,"is_disabled":false,"rental_uris":{"android":"levelo://app?vid=a6c5d38d-56e6-421a-8ead-675ca480bfda","ios":"levelo://app?vid=a6c5d38d-56e6-421a-8ead-675ca480bfda"},"vehicle_type_id":"4","last_reported":1720959829,"current_range_meters":10400,"station_id":"ce4bht12rcd13ifvqi60","pricing_plan_id":"cebpf4jnsgd1na2vs0mg"},{"bike_id":"79ffeec1-f717-4ed9-a94c-8300dea236f7","system_id":"levelo_inurba_marseille","lat":43.286039,"lon":5.370681,"is_reserved":false,"is_disabled":false,"rental_uris":{"android":"levelo://app?vid=79ffeec1-f717-4ed9-a94c-8300dea236f7","ios":"levelo://app?vid=79ffeec1-f717-4ed9-a94c-8300dea236f7"},"vehicle_type_id":"4","last_reported":1720959829,"current_range_meters":12400,"station_id":"ce4bht12rcd13ifvqi60","pricing_plan_id":"cebpf4jnsgd1na2vs0mg"},{"bike_id":"4c4a29f7-b83e-42d1-b26b-7f8ccae0d8df","system_id":"levelo_inurba_marseille","lat":43.286039,"lon":5.370681,"is_reserved":false,"is_disabled":false,"rental_uris":{"android":"levelo://app?vid=4c4a29f7-b83e-42d1-b26b-7f8ccae0d8df","ios":"levelo://app?vid=4c4a29f7-b83e-42d1-b26b-7f8ccae0d8df"},"vehicle_type_id":"4","last_reported":1720959829,"current_range_meters":0,"station_id":"ce4bht12rcd13ifvqi60","pricing_plan_id":"cebpf4jnsgd1na2vs0mg"},{"bike_id":"27981fc7-a152-4043-b6d9-4638f7b6e08f","system_id":"levelo_inurba_marseille","lat":43.287184,"lon":5.37937,"is_reserved":false,"is_disabled":false,"rental_uris":{"android":"levelo://app?vid=27981fc7-a152-4043-b6d9-4638f7b6e08f","ios":"levelo://app?vid=27981fc7-a152-4043-b6d9-4638f7b6e08f"},"vehicle_type_id":"4","last_reported":1720959829,"current_range_meters":27600,"station_id":"ce4bh9p2rcd13ifvqec0","pricing_plan_id":"cebpf4jnsgd1na2vs0mg"},{"bike_id":"e090d25e-ee57-4e6c-b686-aa4412b3c728","system_id":"levelo_inurba_marseille","lat":43.316828,"lon":5.404723,"is_reserved":false,"is_disabled":false,"rental_uris":{"android":"levelo://app?vid=e090d25e-ee57-4e6c-b686-aa4412b3c728","ios":"levelo://app?vid=e090d25e-ee57-4e6c-b686-aa4412b3c728"},"vehicle_type_id":"4","last_reported":1720959829,"current_range_meters":27600,"station_id":"ce4bh012rcd13ifvqd00","pricing_plan_id":"cebpf4jnsgd1na2vs0mg"},{"bike_id":"70ba24ad-86ea-47c1-9d0f-8ce419588806","system_id":"levelo_inurba_marseille","lat":43.316821,"lon":5.404737,"is_reserved":false,"is_disabled":false,"rental_uris":{"android":"levelo://app?vid=70ba24ad-86ea-47c1-9d0f-8ce419588806","ios":"levelo://app?vid=70ba24ad-86ea-47c1-9d0f-8ce419588806"},"vehicle_type_id":"4","last_reported":1720959829,"current_range_meters":11200,"station_id":"ce4bh012rcd13ifvqd00","pricing_plan_id":"cebpf4jnsgd1na2vs0mg"},{"bike_id":"c0431857-8fef-4468-a913-dbd2090e6184","system_id":"levelo_inurba_marseille","lat":43.316821,"lon":5.404737,"is_reserved":false,"is_disabled":false,"rental_uris":{"android":"levelo://app?vid=c0431857-8fef-4468-a913-dbd2090e6184","ios":"levelo://app?vid=c0431857-8fef-4468-a913-dbd2090e6184"},"vehicle_type_id":"4","last_reported":1720959829,"current_range_meters":30400,"station_id":"ce4bh012rcd13ifvqd00","pricing_plan_id":"cebpf4jnsgd1na2vs0mg"},{"bike_id":"2ddb8ad6-201f-409f-9c3f-3a92a89757cd","system_id":"levelo_inurba_marseille","lat":43.284538,"lon":5.358657,"is_reserved":false,"is_disabled":false,"rental_uris":{"android":"levelo://app?vid=2ddb8ad6-201f-409f-9c3f-3a92a89757cd","ios":"levelo://app?vid=2ddb8ad6-201f-409f-9c3f-3a92a89757cd"},"vehicle_type_id":"4","last_reported":1720959829,"current_range_meters":1200,"station_id":"ce4bhah2rcd13ifvqei0","pricing_plan_id":"cebpf4jnsgd1na2vs0mg"},{"bike_id":"57ad3ecf-8434-4e1d-8f3c-6f65951ca40c","system_id":"levelo_inurba_marseille","lat":43.28622,"lon":5.35106,"is_reserved":false,"is_disabled":false,"rental_uris":{"android":"levelo://app?vid=57ad3ecf-8434-4e1d-8f3c-6f65951ca40c","ios":"levelo://app?vid=57ad3ecf-8434-4e1d-8f3c-6f65951ca40c"},"vehicle_type_id":"4","last_reported":1720959829,"current_range_meters":25600,"station_id":"ce4bhch2rcd13ifvqeug","pricing_plan_id":"cebpf4jnsgd1na2vs0mg"},{"bike_id":"53c4d8fd-f678-4778-aa56-d12bc0894aa3","system_id":"levelo_inurba_marseille","lat":43.28619,"lon":5.35112,"is_reserved":false,"is_disabled":false,"rental_uris":{"android":"levelo://app?vid=53c4d8fd-f678-4778-aa56-d12bc0894aa3","ios":"levelo://app?vid=53c4d8fd-f678-4778-aa56-d12bc0894aa3"},"vehicle_type_id":"4","last_reported":1720959829,"current_range_meters":24800,"station_id":"ce4bhch2rcd13ifvqeug","pricing_plan_id":"cebpf4jnsgd1na2vs0mg"},{"bike_id":"bde1a4d5-27c3-480c-9326-9fcb0f636ce6","system_id":"levelo_inurba_marseille","lat":43.28619,"lon":5.35108,"is_reserved":false,"is_disabled":false,"rental_uris":{"android":"levelo://app?vid=bde1a4d5-27c3-480c-9326-9fcb0f636ce6","ios":"levelo://app?vid=bde1a4d5-27c3-480c-9326-9fcb0f636ce6"},"vehicle_type_id":"4","last_reported":1720959829,"current_range_meters":2800,"station_id":"ce4bhch2rcd13ifvqeug","pricing_plan_id":"cebpf4jnsgd1na2vs0mg"},{"bike_id":"6a254d4d-eceb-4ee0-b5cd-34055e2e7025","system_id":"levelo_inurba_marseille","lat":43.28619,"lon":5.35106,"is_reserved":false,"is_disabled":false,"rental_uris":{"android":"levelo://app?vid=6a254d4d-eceb-4ee0-b5cd-34055e2e7025","ios":"levelo://app?vid=6a254d4d-eceb-4ee0-b5cd-34055e2e7025"},"vehicle_type_id":"4","last_reported":1720959829,"current_range_meters":12400,"station_id":"ce4bhch2rcd13ifvqeug","pricing_plan_id":"cebpf4jnsgd1na2vs0mg"},{"bike_id":"a85e5ef0-f842-44fc-8b21-5fb82d3683ac","system_id":"levelo_inurba_marseille","lat":43.286164,"lon":5.351136,"is_reserved":false,"is_disabled":false,"rental_uris":{"android":"levelo://app?vid=a85e5ef0-f842-44fc-8b21-5fb82d3683ac","ios":"levelo://app?vid=a85e5ef0-f842-44fc-8b21-5fb82d3683ac"},"vehicle_type_id":"4","last_reported":1720959829,"current_range_meters":18000,"station_id":"ce4bhbh2rcd13ifvqeo0","pricing_plan_id":"cebpf4jnsgd1na2vs0mg"},{"bike_id":"088e1f43-6ddc-4f6b-9d6d-42e279668efe","system_id":"levelo_inurba_marseille","lat":43.28618,"lon":5.35108,"is_reserved":false,"is_disabled":false,"rental_uris":{"android":"levelo://app?vid=088e1f43-6ddc-4f6b-9d6d-42e279668efe","ios":"levelo://app?vid=088e1f43-6ddc-4f6b-9d6d-42e279668efe"},"vehicle_type_id":"4","last_reported":1720959829,"current_range_meters":30400,"station_id":"ce4bhch2rcd13ifvqeug","pricing_plan_id":"cebpf4jnsgd1na2vs0mg"},{"bike_id":"07009214-663d-4945-a3f0-ebab9765bbfe","system_id":"levelo_inurba_marseille","lat":43.28617,"lon":5.35111,"is_reserved":false,"is_disabled":false,"rental_uris":{"android":"levelo://app?vid=07009214-663d-4945-a3f0-ebab9765bbfe","ios":"levelo://app?vid=07009214-663d-4945-a3f0-ebab9765bbfe"},"vehicle_type_id":"4","last_reported":1720959829,"current_range_meters":0,"station_id":"ce4bhch2rcd13ifvqeug","pricing_plan_id":"cebpf4jnsgd1na2vs0mg"},{"bike_id":"11ed65fc-411c-4f1a-ab7b-6117680a87e3","system_id":"levelo_inurba_marseille","lat":43.28618,"lon":5.35107,"is_reserved":false,"is_disabled":false,"rental_uris":{"android":"levelo://app?vid=11ed65fc-411c-4f1a-ab7b-6117680a87e3","ios":"levelo://app?vid=11ed65fc-411c-4f1a-ab7b-6117680a87e3"},"vehicle_type_id":"4","last_reported":1720959829,"current_range_meters":4800,"station_id":"ce4bhch2rcd13ifvqeug","pricing_plan_id":"cebpf4jnsgd1na2vs0mg"},{"bike_id":"05979ca9-30a0-4212-a26c-5877dab99a33","system_id":"levelo_inurba_marseille","lat":43.28618,"lon":5.35107,"is_reserved":false,"is_disabled":false,"rental_uris":{"android":"levelo://app?vid=05979ca9-30a0-4212-a26c-5877dab99a33","ios":"levelo://app?vid=05979ca9-30a0-4212-a26c-5877dab99a33"},"vehicle_type_id":"4","last_reported":1720959829,"current_range_meters":16400,"station_id":"ce4bhch2rcd13ifvqeug","pricing_plan_id":"cebpf4jnsgd1na2vs0mg"},{"bike_id":"036bfc30-2b4c-447e-b406-67dce8e78e7d","system_id":"levelo_inurba_marseille","lat":43.28617,"lon":5.3511,"is_reserved":false,"is_disabled":false,"rental_uris":{"android":"levelo://app?vid=036bfc30-2b4c-447e-b406-67dce8e78e7d","ios":"levelo://app?vid=036bfc30-2b4c-447e-b406-67dce8e78e7d"},"vehicle_type_id":"4","last_reported":1720959829,"current_range_meters":2800,"station_id":"ce4bhch2rcd13ifvqeug","pricing_plan_id":"cebpf4jnsgd1na2vs0mg"},{"bike_id":"47661d65-3c2b-4fbd-a2dc-5daeff0302b0","system_id":"levelo_inurba_marseille","lat":43.28618,"lon":5.35102,"is_reserved":false,"is_disabled":false,"rental_uris":{"android":"levelo://app?vid=47661d65-3c2b-4fbd-a2dc-5daeff0302b0","ios":"levelo://app?vid=47661d65-3c2b-4fbd-a2dc-5daeff0302b0"},"vehicle_type_id":"4","last_reported":1720959829,"current_range_meters":15600,"station_id":"ce4bhch2rcd13ifvqeug","pricing_plan_id":"cebpf4jnsgd1na2vs0mg"},{"bike_id":"9f151628-2ec8-43fb-b32c-6b802b5e0b29","system_id":"levelo_inurba_marseille","lat":43.28618,"lon":5.35101,"is_reserved":false,"is_disabled":false,"rental_uris":{"android":"levelo://app?vid=9f151628-2ec8-43fb-b32c-6b802b5e0b29","ios":"levelo://app?vid=9f151628-2ec8-43fb-b32c-6b802b5e0b29"},"vehicle_type_id":"4","last_reported":1720959829,"current_range_meters":2400,"station_id":"ce4bhch2rcd13ifvqeug","pricing_plan_id":"cebpf4jnsgd1na2vs0mg"},{"bike_id":"0daa8fa8-fda5-4a8c-b9d4-e94fddc63443","system_id":"levelo_inurba_marseille","lat":43.28616,"lon":5.35105,"is_reserved":false,"is_disabled":false,"rental_uris":{"android":"levelo://app?vid=0daa8fa8-fda5-4a8c-b9d4-e94fddc63443","ios":"levelo://app?vid=0daa8fa8-fda5-4a8c-b9d4-e94fddc63443"},"vehicle_type_id":"4","last_reported":1720959829,"current_range_meters":21600,"station_id":"ce4bhch2rcd13ifvqeug","pricing_plan_id":"cebpf4jnsgd1na2vs0mg"},{"bike_id":"04fd8e07-0633-4927-b02d-701cd3293141","system_id":"levelo_inurba_marseille","lat":43.28616,"lon":5.35102,"is_reserved":false,"is_disabled":false,"rental_uris":{"android":"levelo://app?vid=04fd8e07-0633-4927-b02d-701cd3293141","ios":"levelo://app?vid=04fd8e07-0633-4927-b02d-701cd3293141"},"vehicle_type_id":"4","last_reported":1720959829,"current_range_meters":20800,"station_id":"ce4bhch2rcd13ifvqeug","pricing_plan_id":"cebpf4jnsgd1na2vs0mg"},{"bike_id":"05d51a5e-b08a-4e96-bb36-e1aedc264f9d","system_id":"levelo_inurba_marseille","lat":43.28614,"lon":5.35105,"is_reserved":false,"is_disabled":false,"rental_uris":{"android":"levelo://app?vid=05d51a5e-b08a-4e96-bb36-e1aedc264f9d","ios":"levelo://app?vid=05d51a5e-b08a-4e96-bb36-e1aedc264f9d"},"vehicle_type_id":"4","last_reported":1720959829,"current_range_meters":22800,"station_id":"ce4bhch2rcd13ifvqeug","pricing_plan_id":"cebpf4jnsgd1na2vs0mg"},{"bike_id":"d9acc07b-b8f3-4a30-afd2-79fcef5dc600","system_id":"levelo_inurba_marseille","lat":43.28613,"lon":5.35103,"is_reserved":false,"is_disabled":false,"rental_uris":{"android":"levelo://app?vid=d9acc07b-b8f3-4a30-afd2-79fcef5dc600","ios":"levelo://app?vid=d9acc07b-b8f3-4a30-afd2-79fcef5dc600"},"vehicle_type_id":"4","last_reported":1720959829,"current_range_meters":29200,"station_id":"ce4bhch2rcd13ifvqeug","pricing_plan_id":"cebpf4jnsgd1na2vs0mg"},{"bike_id":"cfe42120-1e1a-4914-ad72-1061cd869678","system_id":"levelo_inurba_marseille","lat":43.28612,"lon":5.35105,"is_reserved":false,"is_disabled":false,"rental_uris":{"android":"levelo://app?vid=cfe42120-1e1a-4914-ad72-1061cd869678","ios":"levelo://app?vid=cfe42120-1e1a-4914-ad72-1061cd869678"},"vehicle_type_id":"4","last_reported":1720959829,"current_range_meters":1600,"station_id":"ce4bhch2rcd13ifvqeug","pricing_plan_id":"cebpf4jnsgd1na2vs0mg"},{"bike_id":"bb11de75-256c-4c4b-bfcf-6c25a7605f04","system_id":"levelo_inurba_marseille","lat":43.28613,"lon":5.351,"is_reserved":false,"is_disabled":false,"rental_uris":{"android":"levelo://app?vid=bb11de75-256c-4c4b-bfcf-6c25a7605f04","ios":"levelo://app?vid=bb11de75-256c-4c4b-bfcf-6c25a7605f04"},"vehicle_type_id":"4","last_reported":1720959829,"current_range_meters":7600,"station_id":"ce4bhch2rcd13ifvqeug","pricing_plan_id":"cebpf4jnsgd1na2vs0mg"},{"bike_id":"aea79c64-5d2f-4539-91c1-61008de31ec6","system_id":"levelo_inurba_marseille","lat":43.28611,"lon":5.35104,"is_reserved":false,"is_disabled":false,"rental_uris":{"android":"levelo://app?vid=aea79c64-5d2f-4539-91c1-61008de31ec6","ios":"levelo://app?vid=aea79c64-5d2f-4539-91c1-61008de31ec6"},"vehicle_type_id":"4","last_reported":1720959829,"current_range_meters":22800,"station_id":"ce4bhch2rcd13ifvqeug","pricing_plan_id":"cebpf4jnsgd1na2vs0mg"},{"bike_id":"782cb3ae-e3ab-4a03-8367-dc6586f183fb","system_id":"levelo_inurba_marseille","lat":43.283998,"lon":5.375062,"is_reserved":false,"is_disabled":false,"rental_uris":{"android":"levelo://app?vid=782cb3ae-e3ab-4a03-8367-dc6586f183fb","ios":"levelo://app?vid=782cb3ae-e3ab-4a03-8367-dc6586f183fb"},"vehicle_type_id":"4","last_reported":1720959829,"current_range_meters":11600,"station_id":"ce4bh412rcd13ifvqds0","pricing_plan_id":"cebpf4jnsgd1na2vs0mg"},{"bike_id":"499911e7-03c1-4435-8820-cdec9d060501","system_id":"levelo_inurba_marseille","lat":43.283998,"lon":5.375062,"is_reserved":false,"is_disabled":false,"rental_uris":{"android":"levelo://app?vid=499911e7-03c1-4435-8820-cdec9d060501","ios":"levelo://app?vid=499911e7-03c1-4435-8820-cdec9d060501"},"vehicle_type_id":"4","last_reported":1720959829,"current_range_meters":800,"station_id":"ce4bh412rcd13ifvqds0","pricing_plan_id":"cebpf4jnsgd1na2vs0mg"},{"bike_id":"3669a729-98c2-47c5-ba33-8fdbe8723a14","system_id":"levelo_inurba_marseille","lat":43.33717,"lon":5.391857,"is_reserved":false,"is_disabled":false,"rental_uris":{"android":"levelo://app?vid=3669a729-98c2-47c5-ba33-8fdbe8723a14","ios":"levelo://app?vid=3669a729-98c2-47c5-ba33-8fdbe8723a14"},"vehicle_type_id":"4","last_reported":1720959829,"current_range_meters":24400,"station_id":"ce4bhr92rcd13ifvqhsg","pricing_plan_id":"cebpf4jnsgd1na2vs0mg"},{"bike_id":"9333b8c1-0385-4eed-8d6e-70036366fa3c","system_id":"levelo_inurba_marseille","lat":43.33717,"lon":5.391857,"is_reserved":false,"is_disabled":false,"rental_uris":{"android":"levelo://app?vid=9333b8c1-0385-4eed-8d6e-70036366fa3c","ios":"levelo://app?vid=9333b8c1-0385-4eed-8d6e-70036366fa3c"},"vehicle_type_id":"4","last_reported":1720959829,"current_range_meters":30400,"station_id":"ce4bhr92rcd13ifvqhsg","pricing_plan_id":"cebpf4jnsgd1na2vs0mg"},{"bike_id":"d8a53db4-479e-4511-bee3-cbcbb80ffb8a","system_id":"levelo_inurba_marseille","lat":43.33717,"lon":5.391857,"is_reserved":false,"is_disabled":false,"rental_uris":{"android":"levelo://app?vid=d8a53db4-479e-4511-bee3-cbcbb80ffb8a","ios":"levelo://app?vid=d8a53db4-479e-4511-bee3-cbcbb80ffb8a"},"vehicle_type_id":"4","last_reported":1720959829,"current_range_meters":30000,"station_id":"ce4bhr92rcd13ifvqhsg","pricing_plan_id":"cebpf4jnsgd1na2vs0mg"},{"bike_id":"ea8d7904-d1b4-462f-a06c-7bbb0e574f67","system_id":"levelo_inurba_marseille","lat":43.323464,"lon":5.406297,"is_reserved":false,"is_disabled":false,"rental_uris":{"android":"levelo://app?vid=ea8d7904-d1b4-462f-a06c-7bbb0e574f67","ios":"levelo://app?vid=ea8d7904-d1b4-462f-a06c-7bbb0e574f67"},"vehicle_type_id":"4","last_reported":1720959829,"current_range_meters":10000,"station_id":"ce4bhq92rcd13ifvqhjg","pricing_plan_id":"cebpf4jnsgd1na2vs0mg"},{"bike_id":"5b66c812-c312-4ef7-9677-78053920fa7f","system_id":"levelo_inurba_marseille","lat":43.337168,"lon":5.391825,"is_reserved":false,"is_disabled":false,"rental_uris":{"android":"levelo://app?vid=5b66c812-c312-4ef7-9677-78053920fa7f","ios":"levelo://app?vid=5b66c812-c312-4ef7-9677-78053920fa7f"},"vehicle_type_id":"4","last_reported":1720959829,"current_range_meters":30400,"station_id":"ce4bhr92rcd13ifvqhsg","pricing_plan_id":"cebpf4jnsgd1na2vs0mg"},{"bike_id":"ca370fc9-f07f-46ad-b105-ed3826d5870d","system_id":"levelo_inurba_marseille","lat":43.323419,"lon":5.406158,"is_reserved":false,"is_disabled":false,"rental_uris":{"android":"levelo://app?vid=ca370fc9-f07f-46ad-b105-ed3826d5870d","ios":"levelo://app?vid=ca370fc9-f07f-46ad-b105-ed3826d5870d"},"vehicle_type_id":"4","last_reported":1720959829,"current_range_meters":0,"station_id":"ce4bhq92rcd13ifvqhjg","pricing_plan_id":"cebpf4jnsgd1na2vs0mg"},{"bike_id":"21e4ef63-0a9d-476f-b956-f659d25c40c2","system_id":"levelo_inurba_marseille","lat":43.337224,"lon":5.391902,"is_reserved":false,"is_disabled":false,"rental_uris":{"android":"levelo://app?vid=21e4ef63-0a9d-476f-b956-f659d25c40c2","ios":"levelo://app?vid=21e4ef63-0a9d-476f-b956-f659d25c40c2"},"vehicle_type_id":"4","last_reported":1720959829,"current_range_meters":1600,"station_id":"ce4bhr92rcd13ifvqhsg","pricing_plan_id":"cebpf4jnsgd1na2vs0mg"},{"bike_id":"2f9eeeac-76e8-4385-bc95-c4fdafc2b3f8","system_id":"levelo_inurba_marseille","lat":43.33717,"lon":5.391857,"is_reserved":false,"is_disabled":false,"rental_uris":{"android":"levelo://app?vid=2f9eeeac-76e8-4385-bc95-c4fdafc2b3f8","ios":"levelo://app?vid=2f9eeeac-76e8-4385-bc95-c4fdafc2b3f8"},"vehicle_type_id":"4","last_reported":1720959829,"current_range_meters":14000,"station_id":"ce4bhr92rcd13ifvqhsg","pricing_plan_id":"cebpf4jnsgd1na2vs0mg"},{"bike_id":"6d2a3240-a9f5-4419-b25e-0a8d297d0866","system_id":"levelo_inurba_marseille","lat":43.32342,"lon":5.40621,"is_reserved":false,"is_disabled":false,"rental_uris":{"android":"levelo://app?vid=6d2a3240-a9f5-4419-b25e-0a8d297d0866","ios":"levelo://app?vid=6d2a3240-a9f5-4419-b25e-0a8d297d0866"},"vehicle_type_id":"4","last_reported":1720959829,"current_range_meters":18000,"station_id":"ce4bhq92rcd13ifvqhjg","pricing_plan_id":"cebpf4jnsgd1na2vs0mg"},{"bike_id":"ebbb14d1-0326-4e14-8ed4-ca833ba1e3ff","system_id":"levelo_inurba_marseille","lat":43.32348,"lon":5.4062,"is_reserved":false,"is_disabled":false,"rental_uris":{"android":"levelo://app?vid=ebbb14d1-0326-4e14-8ed4-ca833ba1e3ff","ios":"levelo://app?vid=ebbb14d1-0326-4e14-8ed4-ca833ba1e3ff"},"vehicle_type_id":"4","last_reported":1720959829,"current_range_meters":9200,"station_id":"ce4bhq92rcd13ifvqhjg","pricing_plan_id":"cebpf4jnsgd1na2vs0mg"},{"bike_id":"2d940ee5-88e2-47e7-becf-8a2178e98459","system_id":"levelo_inurba_marseille","lat":43.33717,"lon":5.391857,"is_reserved":false,"is_disabled":false,"rental_uris":{"android":"levelo://app?vid=2d940ee5-88e2-47e7-becf-8a2178e98459","ios":"levelo://app?vid=2d940ee5-88e2-47e7-becf-8a2178e98459"},"vehicle_type_id":"4","last_reported":1720959829,"current_range_meters":17600,"station_id":"ce4bhr92rcd13ifvqhsg","pricing_plan_id":"cebpf4jnsgd1na2vs0mg"},{"bike_id":"7671f802-b899-4567-b116-c0c7b8f8b32d","system_id":"levelo_inurba_marseille","lat":43.284787,"lon":5.384116,"is_reserved":false,"is_disabled":false,"rental_uris":{"android":"levelo://app?vid=7671f802-b899-4567-b116-c0c7b8f8b32d","ios":"levelo://app?vid=7671f802-b899-4567-b116-c0c7b8f8b32d"},"vehicle_type_id":"4","last_reported":1720959829,"current_range_meters":0,"station_id":"ce4bh512rcd13ifvqe3g","pricing_plan_id":"cebpf4jnsgd1na2vs0mg"},{"bike_id":"e61ee147-dc2c-4fbb-a2af-c261d2696ec7","system_id":"levelo_inurba_marseille","lat":43.28438,"lon":5.35001,"is_reserved":false,"is_disabled":false,"rental_uris":{"android":"levelo://app?vid=e61ee147-dc2c-4fbb-a2af-c261d2696ec7","ios":"levelo://app?vid=e61ee147-dc2c-4fbb-a2af-c261d2696ec7"},"vehicle_type_id":"4","last_reported":1720959829,"current_range_meters":15600,"station_id":"ce4bhbh2rcd13ifvqepg","pricing_plan_id":"cebpf4jnsgd1na2vs0mg"},{"bike_id":"763b32b0-7aec-4989-bf7a-c49d65066a33","system_id":"levelo_inurba_marseille","lat":43.28433,"lon":5.35005,"is_reserved":false,"is_disabled":false,"rental_uris":{"android":"levelo://app?vid=763b32b0-7aec-4989-bf7a-c49d65066a33","ios":"levelo://app?vid=763b32b0-7aec-4989-bf7a-c49d65066a33"},"vehicle_type_id":"4","last_reported":1720959829,"current_range_meters":21600,"station_id":"ce4bhbh2rcd13ifvqepg","pricing_plan_id":"cebpf4jnsgd1na2vs0mg"},{"bike_id":"270afea8-a183-4446-b845-892ada318fe1","system_id":"levelo_inurba_marseille","lat":43.28432,"lon":5.35007,"is_reserved":false,"is_disabled":false,"rental_uris":{"android":"levelo://app?vid=270afea8-a183-4446-b845-892ada318fe1","ios":"levelo://app?vid=270afea8-a183-4446-b845-892ada318fe1"},"vehicle_type_id":"4","last_reported":1720959829,"current_range_meters":16800,"station_id":"ce4bhbh2rcd13ifvqepg","pricing_plan_id":"cebpf4jnsgd1na2vs0mg"},{"bike_id":"7d220fb7-4fb4-4849-9491-ceca1cd35adb","system_id":"levelo_inurba_marseille","lat":43.284293,"lon":5.349935,"is_reserved":false,"is_disabled":false,"rental_uris":{"android":"levelo://app?vid=7d220fb7-4fb4-4849-9491-ceca1cd35adb","ios":"levelo://app?vid=7d220fb7-4fb4-4849-9491-ceca1cd35adb"},"vehicle_type_id":"4","last_reported":1720959829,"current_range_meters":20400,"station_id":"ce4bhbh2rcd13ifvqepg","pricing_plan_id":"cebpf4jnsgd1na2vs0mg"},{"bike_id":"dfb60529-0d3b-4721-9781-f724336ba9cf","system_id":"levelo_inurba_marseille","lat":43.284288,"lon":5.349945,"is_reserved":false,"is_disabled":false,"rental_uris":{"android":"levelo://app?vid=dfb60529-0d3b-4721-9781-f724336ba9cf","ios":"levelo://app?vid=dfb60529-0d3b-4721-9781-f724336ba9cf"},"vehicle_type_id":"4","last_reported":1720959829,"current_range_meters":6800,"station_id":"ce4bhbh2rcd13ifvqepg","pricing_plan_id":"cebpf4jnsgd1na2vs0mg"},{"bike_id":"38b724ae-2a4a-4095-98bc-55c29b9c9cac","system_id":"levelo_inurba_marseille","lat":43.28428,"lon":5.34996,"is_reserved":false,"is_disabled":false,"rental_uris":{"android":"levelo://app?vid=38b724ae-2a4a-4095-98bc-55c29b9c9cac","ios":"levelo://app?vid=38b724ae-2a4a-4095-98bc-55c29b9c9cac"},"vehicle_type_id":"4","last_reported":1720959829,"current_range_meters":0,"station_id":"ce4bhbh2rcd13ifvqepg","pricing_plan_id":"cebpf4jnsgd1na2vs0mg"},{"bike_id":"193dab35-8aed-4bac-a404-65caec0c9515","system_id":"levelo_inurba_marseille","lat":43.2843,"lon":5.34985,"is_reserved":false,"is_disabled":false,"rental_uris":{"android":"levelo://app?vid=193dab35-8aed-4bac-a404-65caec0c9515","ios":"levelo://app?vid=193dab35-8aed-4bac-a404-65caec0c9515"},"vehicle_type_id":"4","last_reported":1720959829,"current_range_meters":8800,"station_id":"ce4bhbh2rcd13ifvqepg","pricing_plan_id":"cebpf4jnsgd1na2vs0mg"},{"bike_id":"fbe0ad8a-2d0f-4f79-a24d-c29a4a91f5c8","system_id":"levelo_inurba_marseille","lat":43.28427,"lon":5.3499,"is_reserved":false,"is_disabled":false,"rental_uris":{"android":"levelo://app?vid=fbe0ad8a-2d0f-4f79-a24d-c29a4a91f5c8","ios":"levelo://app?vid=fbe0ad8a-2d0f-4f79-a24d-c29a4a91f5c8"},"vehicle_type_id":"4","last_reported":1720959829,"current_range_meters":24800,"station_id":"ce4bhbh2rcd13ifvqepg","pricing_plan_id":"cebpf4jnsgd1na2vs0mg"},{"bike_id":"95cae070-be2e-4dab-a480-92239297be99","system_id":"levelo_inurba_marseille","lat":43.28425,"lon":5.34996,"is_reserved":false,"is_disabled":false,"rental_uris":{"android":"levelo://app?vid=95cae070-be2e-4dab-a480-92239297be99","ios":"levelo://app?vid=95cae070-be2e-4dab-a480-92239297be99"},"vehicle_type_id":"4","last_reported":1720959829,"current_range_meters":0,"station_id":"ce4bhbh2rcd13ifvqepg","pricing_plan_id":"cebpf4jnsgd1na2vs0mg"},{"bike_id":"c274f5ec-aba4-45e5-b9e1-25824a298fbb","system_id":"levelo_inurba_marseille","lat":43.283498,"lon":5.380948,"is_reserved":false,"is_disabled":false,"rental_uris":{"android":"levelo://app?vid=c274f5ec-aba4-45e5-b9e1-25824a298fbb","ios":"levelo://app?vid=c274f5ec-aba4-45e5-b9e1-25824a298fbb"},"vehicle_type_id":"4","last_reported":1720959829,"current_range_meters":12400,"station_id":"ce4bh412rcd13ifvqdr0","pricing_plan_id":"cebpf4jnsgd1na2vs0mg"},{"bike_id":"90a17226-1beb-40ee-bfdf-7be8f946e9ca","system_id":"levelo_inurba_marseille","lat":43.284214,"lon":5.349706,"is_reserved":false,"is_disabled":false,"rental_uris":{"android":"levelo://app?vid=90a17226-1beb-40ee-bfdf-7be8f946e9ca","ios":"levelo://app?vid=90a17226-1beb-40ee-bfdf-7be8f946e9ca"},"vehicle_type_id":"4","last_reported":1720959829,"current_range_meters":14400,"station_id":"ce4bhbh2rcd13ifvqepg","pricing_plan_id":"cebpf4jnsgd1na2vs0mg"},{"bike_id":"c10d6404-3180-45d7-ae3c-27b2c1d10870","system_id":"levelo_inurba_marseille","lat":43.284251,"lon":5.349923,"is_reserved":false,"is_disabled":false,"rental_uris":{"android":"levelo://app?vid=c10d6404-3180-45d7-ae3c-27b2c1d10870","ios":"levelo://app?vid=c10d6404-3180-45d7-ae3c-27b2c1d10870"},"vehicle_type_id":"4","last_reported":1720959829,"current_range_meters":0,"station_id":"ce4bhbh2rcd13ifvqepg","pricing_plan_id":"cebpf4jnsgd1na2vs0mg"},{"bike_id":"82c1ab09-4896-4c81-8885-491036b5ffe5","system_id":"levelo_inurba_marseille","lat":43.28425,"lon":5.34991,"is_reserved":false,"is_disabled":false,"rental_uris":{"android":"levelo://app?vid=82c1ab09-4896-4c81-8885-491036b5ffe5","ios":"levelo://app?vid=82c1ab09-4896-4c81-8885-491036b5ffe5"},"vehicle_type_id":"4","last_reported":1720959829,"current_range_meters":8400,"station_id":"ce4bhbh2rcd13ifvqepg","pricing_plan_id":"cebpf4jnsgd1na2vs0mg"},{"bike_id":"ea8686b0-b309-4882-b50e-3e508e6b878c","system_id":"levelo_inurba_marseille","lat":43.284217,"lon":5.349943,"is_reserved":false,"is_disabled":false,"rental_uris":{"android":"levelo://app?vid=ea8686b0-b309-4882-b50e-3e508e6b878c","ios":"levelo://app?vid=ea8686b0-b309-4882-b50e-3e508e6b878c"},"vehicle_type_id":"4","last_reported":1720959829,"current_range_meters":20000,"station_id":"ce4bhbh2rcd13ifvqepg","pricing_plan_id":"cebpf4jnsgd1na2vs0mg"},{"bike_id":"63269533-0bdf-4a7f-a585-0b246e4f2921","system_id":"levelo_inurba_marseille","lat":43.28422,"lon":5.34991,"is_reserved":false,"is_disabled":false,"rental_uris":{"android":"levelo://app?vid=63269533-0bdf-4a7f-a585-0b246e4f2921","ios":"levelo://app?vid=63269533-0bdf-4a7f-a585-0b246e4f2921"},"vehicle_type_id":"4","last_reported":1720959829,"current_range_meters":16800,"station_id":"ce4bhbh2rcd13ifvqepg","pricing_plan_id":"cebpf4jnsgd1na2vs0mg"},{"bike_id":"7d5c57eb-330e-41c1-b3f0-e52f9e3f1452","system_id":"levelo_inurba_marseille","lat":43.2842,"lon":5.34997,"is_reserved":false,"is_disabled":false,"rental_uris":{"android":"levelo://app?vid=7d5c57eb-330e-41c1-b3f0-e52f9e3f1452","ios":"levelo://app?vid=7d5c57eb-330e-41c1-b3f0-e52f9e3f1452"},"vehicle_type_id":"4","last_reported":1720959829,"current_range_meters":14400,"station_id":"ce4bhbh2rcd13ifvqepg","pricing_plan_id":"cebpf4jnsgd1na2vs0mg"},{"bike_id":"a7215011-2f6b-4478-a10f-991990b3aaef","system_id":"levelo_inurba_marseille","lat":43.284237,"lon":5.349846,"is_reserved":false,"is_disabled":false,"rental_uris":{"android":"levelo://app?vid=a7215011-2f6b-4478-a10f-991990b3aaef","ios":"levelo://app?vid=a7215011-2f6b-4478-a10f-991990b3aaef"},"vehicle_type_id":"4","last_reported":1720959829,"current_range_meters":21200,"station_id":"ce4bhbh2rcd13ifvqepg","pricing_plan_id":"cebpf4jnsgd1na2vs0mg"},{"bike_id":"60c304c5-2a80-4886-936f-9e2b52ce8884","system_id":"levelo_inurba_marseille","lat":43.28421,"lon":5.34993,"is_reserved":false,"is_disabled":false,"rental_uris":{"android":"levelo://app?vid=60c304c5-2a80-4886-936f-9e2b52ce8884","ios":"levelo://app?vid=60c304c5-2a80-4886-936f-9e2b52ce8884"},"vehicle_type_id":"4","last_reported":1720959829,"current_range_meters":12400,"station_id":"ce4bhbh2rcd13ifvqepg","pricing_plan_id":"cebpf4jnsgd1na2vs0mg"},{"bike_id":"f44a9a7b-ecc0-4ef1-8015-c720daae4150","system_id":"levelo_inurba_marseille","lat":43.284221,"lon":5.349888,"is_reserved":false,"is_disabled":false,"rental_uris":{"android":"levelo://app?vid=f44a9a7b-ecc0-4ef1-8015-c720daae4150","ios":"levelo://app?vid=f44a9a7b-ecc0-4ef1-8015-c720daae4150"},"vehicle_type_id":"4","last_reported":1720959829,"current_range_meters":20800,"station_id":"ce4bhbh2rcd13ifvqepg","pricing_plan_id":"cebpf4jnsgd1na2vs0mg"},{"bike_id":"a064037b-1b8c-4116-aac7-913b27888595","system_id":"levelo_inurba_marseille","lat":43.28419,"lon":5.34994,"is_reserved":false,"is_disabled":false,"rental_uris":{"android":"levelo://app?vid=a064037b-1b8c-4116-aac7-913b27888595","ios":"levelo://app?vid=a064037b-1b8c-4116-aac7-913b27888595"},"vehicle_type_id":"4","last_reported":1720959829,"current_range_meters":10800,"station_id":"ce4bhbh2rcd13ifvqepg","pricing_plan_id":"cebpf4jnsgd1na2vs0mg"},{"bike_id":"c228bc66-fe5a-47b2-98c1-c9391d9778bb","system_id":"levelo_inurba_marseille","lat":43.284205,"lon":5.349892,"is_reserved":false,"is_disabled":false,"rental_uris":{"android":"levelo://app?vid=c228bc66-fe5a-47b2-98c1-c9391d9778bb","ios":"levelo://app?vid=c228bc66-fe5a-47b2-98c1-c9391d9778bb"},"vehicle_type_id":"4","last_reported":1720959829,"current_range_meters":6800,"station_id":"ce4bhbh2rcd13ifvqepg","pricing_plan_id":"cebpf4jnsgd1na2vs0mg"},{"bike_id":"eed93b1d-a3de-4f34-88c8-465eefd5eb8f","system_id":"levelo_inurba_marseille","lat":43.283494,"lon":5.380945,"is_reserved":false,"is_disabled":false,"rental_uris":{"android":"levelo://app?vid=eed93b1d-a3de-4f34-88c8-465eefd5eb8f","ios":"levelo://app?vid=eed93b1d-a3de-4f34-88c8-465eefd5eb8f"},"vehicle_type_id":"4","last_reported":1720959829,"current_range_meters":28400,"station_id":"ce4bh412rcd13ifvqdr0","pricing_plan_id":"cebpf4jnsgd1na2vs0mg"},{"bike_id":"5f84eab2-ce4f-4c6d-8cc3-1fb53881f6bc","system_id":"levelo_inurba_marseille","lat":43.284184,"lon":5.349897,"is_reserved":false,"is_disabled":false,"rental_uris":{"android":"levelo://app?vid=5f84eab2-ce4f-4c6d-8cc3-1fb53881f6bc","ios":"levelo://app?vid=5f84eab2-ce4f-4c6d-8cc3-1fb53881f6bc"},"vehicle_type_id":"4","last_reported":1720959829,"current_range_meters":18400,"station_id":"ce4bhbh2rcd13ifvqepg","pricing_plan_id":"cebpf4jnsgd1na2vs0mg"},{"bike_id":"f9367ce1-7441-4f39-8581-46b18cfa850d","system_id":"levelo_inurba_marseille","lat":43.2842,"lon":5.349837,"is_reserved":false,"is_disabled":false,"rental_uris":{"android":"levelo://app?vid=f9367ce1-7441-4f39-8581-46b18cfa850d","ios":"levelo://app?vid=f9367ce1-7441-4f39-8581-46b18cfa850d"},"vehicle_type_id":"4","last_reported":1720959829,"current_range_meters":21200,"station_id":"ce4bhbh2rcd13ifvqepg","pricing_plan_id":"cebpf4jnsgd1na2vs0mg"},{"bike_id":"edcf8327-6877-42b2-a05c-2144ca25a51d","system_id":"levelo_inurba_marseille","lat":43.28415,"lon":5.349957,"is_reserved":false,"is_disabled":false,"rental_uris":{"android":"levelo://app?vid=edcf8327-6877-42b2-a05c-2144ca25a51d","ios":"levelo://app?vid=edcf8327-6877-42b2-a05c-2144ca25a51d"},"vehicle_type_id":"4","last_reported":1720959829,"current_range_meters":23200,"station_id":"ce4bhbh2rcd13ifvqepg","pricing_plan_id":"cebpf4jnsgd1na2vs0mg"},