{"last_updated":1729081040,"ttl":60,"version":"2.2","data":{"bikes":[{"bike_id":"d784866f-4d52-4cfb-98a4-dbebd1c93589","system_id":"levelo_inurba_marseille","lat":43.27945,"lon":5.41044,"is_reserved":false,"is_disabled":false,"rental_uris":{"android":"levelo://app?vid=d784866f-4d52-4cfb-98a4-dbebd1c93589","ios":"levelo://app?vid=d784866f-4d52-4cfb-98a4-dbebd1c93589"},"vehicle_type_id":"4","last_reported":1729081040,"current_range_meters":24000,"station_id":"ce4bhnp2rcd13ifvqh0g","pricing_plan_id":"cebpf4jnsgd1na2vs0mg"},{"bike_id":"238c4423-4dd5-4044-be7e-03d4eb12b800","system_id":"levelo_inurba_marseille","lat":43.30535,"lon":5.36702,"is_reserved":false,"is_disabled":false,"rental_uris":{"android":"levelo://app?vid=238c4423-4dd5-4044-be7e-03d4eb12b800","ios":"levelo://app?vid=238c4423-4dd5-4044-be7e-03d4eb12b800"},"vehicle_type_id":"4","last_reported":1729081040,"current_range_meters":38800,"station_id":"ce4bgrp2rcd13ifvqc9g","pricing_plan_id":"cebpf4jnsgd1na2vs0mg"},{"bike_id":"b4066a84-11e2-4186-8d3a-57c27e87db57","system_id":"levelo_inurba_marseille","lat":43.27812,"lon":5.40725,"is_reserved":false,"is_disabled":false,"rental_uris":{"android":"levelo://app?vid=b4066a84-11e2-4186-8d3a-57c27e87db57","ios":"levelo://app?vid=b4066a84-11e2-4186-8d3a-57c27e87db57"},"vehicle_type_id":"4","last_reported":1729081040,"current_range_meters":28000,"station_id":"ce4bhnh2rcd13ifvqgtg","pricing_plan_id":"cebpf4jnsgd1na2vs0mg"},{"bike_id":"3b15014d-3ac0-4a3b-82c4-0ec8a30232ef","system_id":"levelo_inurba_marseille","lat":43.28943,"lon":5.36638,"is_reserved":false,"is_disabled":false,"rental_uris":{"android":"levelo://app?vid=3b15014d-3ac0-4a3b-82c4-0ec8a30232ef","ios":"levelo://app?vid=3b15014d-3ac0-4a3b-82c4-0ec8a30232ef"},"vehicle_type_id":"4","last_reported":1729081040,"current_range_meters":11200,"station_id":"ce4bhap2rcd13ifvqek0","pricing_plan_id":"cebpf4jnsgd1na2vs0mg"},{"bike_id":"5002f4ca-68aa-4a9a-bbfb-321dee34c575","system_id":"levelo_inurba_marseille","lat":43.25938,"lon":5.40903,"is_reserved":false,"is_disabled":false,"rental_uris":{"android":"levelo://app?vid=5002f4ca-68aa-4a9a-bbfb-321dee34c575","ios":"levelo://app?vid=5002f4ca-68aa-4a9a-bbfb-321dee34c575"},"vehicle_type_id":"4","last_reported":1729081040,"current_range_meters":24400,"station_id":"ce4bhm92rcd13ifvqglg","pricing_plan_id":"cebpf4jnsgd1na2vs0mg"},{"bike_id":"4e3ae144-e388-4b4f-ac80-a31ee8ee9bdf","system_id":"levelo_inurba_marseille","lat":43.24652,"lon":5.38899,"is_reserved":false,"is_disabled":false,"rental_uris":{"android":"levelo://app?vid=4e3ae144-e388-4b4f-ac80-a31ee8ee9bdf","ios":"levelo://app?vid=4e3ae144-e388-4b4f-ac80-a31ee8ee9bdf"},"vehicle_type_id":"4","last_reported":1729081040,"current_range_meters":36800,"station_id":"ce4bhg12rcd13ifvqf60","pricing_plan_id":"cebpf4jnsgd1na2vs0mg"},{"bike_id":"979638f0-5c67-408f-bbfd-0de28da1b117","system_id":"levelo_inurba_marseille","lat":43.2972,"lon":5.3769,"is_reserved":false,"is_disabled":false,"rental_uris":{"android":"levelo://app?vid=979638f0-5c67-408f-bbfd-0de28da1b117","ios":"levelo://app?vid=979638f0-5c67-408f-bbfd-0de28da1b117"},"vehicle_type_id":"4","last_reported":1729081040,"current_range_meters":38000,"station_id":"ce4bgkh2rcd13ifvqbl0","pricing_plan_id":"cebpf4jnsgd1na2vs0mg"},{"bike_id":"64d9953f-af6f-4e08-9449-a621c2b0fda5","system_id":"levelo_inurba_marseille","lat":43.29981,"lon":5.37182,"is_reserved":false,"is_disabled":false,"rental_uris":{"android":"levelo://app?vid=64d9953f-af6f-4e08-9449-a621c2b0fda5","ios":"levelo://app?vid=64d9953f-af6f-4e08-9449-a621c2b0fda5"},"vehicle_type_id":"4","last_reported":1729081040,"current_range_meters":20400,"station_id":"ce4bgr92rcd13ifvqc7g","pricing_plan_id":"cebpf4jnsgd1na2vs0mg"},{"bike_id":"54513a11-cfc0-4602-a901-a052e3e7058a","system_id":"levelo_inurba_marseille","lat":43.3091,"lon":5.36859,"is_reserved":false,"is_disabled":false,"rental_uris":{"android":"levelo://app?vid=54513a11-cfc0-4602-a901-a052e3e7058a","ios":"levelo://app?vid=54513a11-cfc0-4602-a901-a052e3e7058a"},"vehicle_type_id":"4","last_reported":1729081040,"current_range_meters":38800,"station_id":"ce4bgn92rcd13ifvqbvg","pricing_plan_id":"cebpf4jnsgd1na2vs0mg"},{"bike_id":"a317d19b-3e4c-466d-b1f0-ad5b7ee20519","system_id":"levelo_inurba_marseille","lat":43.25941,"lon":5.409,"is_reserved":false,"is_disabled":false,"rental_uris":{"android":"levelo://app?vid=a317d19b-3e4c-466d-b1f0-ad5b7ee20519","ios":"levelo://app?vid=a317d19b-3e4c-466d-b1f0-ad5b7ee20519"},"vehicle_type_id":"4","last_reported":1729081040,"current_range_meters":8000,"station_id":"ce4bhm92rcd13ifvqglg","pricing_plan_id":"cebpf4jnsgd1na2vs0mg"},{"bike_id":"9df6f68d-0058-4a6e-838e-8f6554c459f5","system_id":"levelo_inurba_marseille","lat":43.27368,"lon":5.36249,"is_reserved":false,"is_disabled":false,"rental_uris":{"android":"levelo://app?vid=9df6f68d-0058-4a6e-838e-8f6554c459f5","ios":"levelo://app?vid=9df6f68d-0058-4a6e-838e-8f6554c459f5"},"vehicle_type_id":"4","last_reported":1729081040,"current_range_meters":26000,"station_id":"","pricing_plan_id":"cebpf4jnsgd1na2vs0mg"},{"bike_id":"f753014a-e02a-4cf3-9817-33330c7ddf67","system_id":"levelo_inurba_marseille","lat":43.27813,"lon":5.40707,"is_reserved":false,"is_disabled":false,"rental_uris":{"android":"levelo://app?vid=f753014a-e02a-4cf3-9817-33330c7ddf67","ios":"levelo://app?vid=f753014a-e02a-4cf3-9817-33330c7ddf67"},"vehicle_type_id":"4","last_reported":1729081040,"current_range_meters":38400,"station_id":"ce4bhnh2rcd13ifvqgtg","pricing_plan_id":"cebpf4jnsgd1na2vs0mg"},{"bike_id":"2cf64092-e430-478f-b5e3-11ceb9491d7d","system_id":"levelo_inurba_marseille","lat":43.26805,"lon":5.40268,"is_reserved":false,"is_disabled":false,"rental_uris":{"android":"levelo://app?vid=2cf64092-e430-478f-b5e3-11ceb9491d7d","ios":"levelo://app?vid=2cf64092-e430-478f-b5e3-11ceb9491d7d"},"vehicle_type_id":"4","last_reported":1729081040,"current_range_meters":19600,"station_id":"ce501612rcd8frsf0b60","pricing_plan_id":"cebpf4jnsgd1na2vs0mg"},{"bike_id":"042e5b40-9e97-45f4-843e-ff54af18e3a3","system_id":"levelo_inurba_marseille","lat":43.337444,"lon":5.374475,"is_reserved":false,"is_disabled":false,"rental_uris":{"android":"levelo://app?vid=042e5b40-9e97-45f4-843e-ff54af18e3a3","ios":"levelo://app?vid=042e5b40-9e97-45f4-843e-ff54af18e3a3"},"vehicle_type_id":"4","last_reported":1729081040,"current_range_meters":36000,"station_id":"","pricing_plan_id":"cebpf4jnsgd1na2vs0mg"},{"bike_id":"e40ecf43-661b-4835-a1f9-79d981dcc8d2","system_id":"levelo_inurba_marseille","lat":43.23179,"lon":5.39988,"is_reserved":false,"is_disabled":false,"rental_uris":{"android":"levelo://app?vid=e40ecf43-661b-4835-a1f9-79d981dcc8d2","ios":"levelo://app?vid=e40ecf43-661b-4835-a1f9-79d981dcc8d2"},"vehicle_type_id":"4","last_reported":1729081040,"current_range_meters":7200,"station_id":"ce4bhn12rcd13ifvqgqg","pricing_plan_id":"cebpf4jnsgd1na2vs0mg"},{"bike_id":"4880e5d1-a3fb-40fa-8a07-d36c1cd72bdf","system_id":"levelo_inurba_marseille","lat":43.33027,"lon":5.39042,"is_reserved":false,"is_disabled":false,"rental_uris":{"android":"levelo://app?vid=4880e5d1-a3fb-40fa-8a07-d36c1cd72bdf","ios":"levelo://app?vid=4880e5d1-a3fb-40fa-8a07-d36c1cd72bdf"},"vehicle_type_id":"4","last_reported":1729081040,"current_range_meters":4800,"station_id":"ce4bhr92rcd13ifvqhrg","pricing_plan_id":"cebpf4jnsgd1na2vs0mg"},{"bike_id":"56fb6d4f-5902-450a-981d-24283be7d7dd","system_id":"levelo_inurba_marseille","lat":43.33024,"lon":5.39042,"is_reserved":false,"is_disabled":false,"rental_uris":{"android":"levelo://app?vid=56fb6d4f-5902-450a-981d-24283be7d7dd","ios":"levelo://app?vid=56fb6d4f-5902-450a-981d-24283be7d7dd"},"vehicle_type_id":"4","last_reported":1729081040,"current_range_meters":24400,"station_id":"ce4bhr92rcd13ifvqhrg","pricing_plan_id":"cebpf4jnsgd1na2vs0mg"},{"bike_id":"3e5953c5-0032-4c9c-937c-529c03faa40f","system_id":"levelo_inurba_marseille","lat":43.28041,"lon":5.36945,"is_reserved":false,"is_disabled":false,"rental_uris":{"android":"levelo://app?vid=3e5953c5-0032-4c9c-937c-529c03faa40f","ios":"levelo://app?vid=3e5953c5-0032-4c9c-937c-529c03faa40f"},"vehicle_type_id":"4","last_reported":1729081040,"current_range_meters":24800,"station_id":"ce4bha12rcd13ifvqef0","pricing_plan_id":"cebpf4jnsgd1na2vs0mg"},{"bike_id":"ea00cd59-e8ad-43b1-bcc3-13b30d9ea808","system_id":"levelo_inurba_marseille","lat":43.30886,"lon":5.37191,"is_reserved":false,"is_disabled":false,"rental_uris":{"android":"levelo://app?vid=ea00cd59-e8ad-43b1-bcc3-13b30d9ea808","ios":"levelo://app?vid=ea00cd59-e8ad-43b1-bcc3-13b30d9ea808"},"vehicle_type_id":"4","last_reported":1729081040,"current_range_meters":31200,"station_id":"ce4bguh2rcd13ifvqckg","pricing_plan_id":"cebpf4jnsgd1na2vs0mg"},{"bike_id":"240cd38c-3f53-4d0a-9562-2ee3357878a4","system_id":"levelo_inurba_marseille","lat":43.3054,"lon":5.36699,"is_reserved":false,"is_disabled":false,"rental_uris":{"android":"levelo://app?vid=240cd38c-3f53-4d0a-9562-2ee3357878a4","ios":"levelo://app?vid=240cd38c-3f53-4d0a-9562-2ee3357878a4"},"vehicle_type_id":"4","last_reported":1729081040,"current_range_meters":38800,"station_id":"ce4bgrp2rcd13ifvqc9g","pricing_plan_id":"cebpf4jnsgd1na2vs0mg"},{"bike_id":"11bb7ed5-1970-4a73-a794-e55c1684750f","system_id":"levelo_inurba_marseille","lat":43.2315,"lon":5.43716,"is_reserved":false,"is_disabled":false,"rental_uris":{"android":"levelo://app?vid=11bb7ed5-1970-4a73-a794-e55c1684750f","ios":"levelo://app?vid=11bb7ed5-1970-4a73-a794-e55c1684750f"},"vehicle_type_id":"4","last_reported":1729081040,"current_range_meters":38800,"station_id":"ce4bhmp2rcd13ifvqgog","pricing_plan_id":"cebpf4jnsgd1na2vs0mg"},{"bike_id":"7040a4c8-ae2b-44bc-a895-15793e3f6664","system_id":"levelo_inurba_marseille","lat":43.32661,"lon":5.40995,"is_reserved":false,"is_disabled":false,"rental_uris":{"android":"levelo://app?vid=7040a4c8-ae2b-44bc-a895-15793e3f6664","ios":"levelo://app?vid=7040a4c8-ae2b-44bc-a895-15793e3f6664"},"vehicle_type_id":"4","last_reported":1729081040,"current_range_meters":18000,"station_id":"ce4bhpp2rcd13ifvqhgg","pricing_plan_id":"cebpf4jnsgd1na2vs0mg"},{"bike_id":"ea9bf9be-e376-437f-9532-e41765e758db","system_id":"levelo_inurba_marseille","lat":43.32336,"lon":5.40627,"is_reserved":false,"is_disabled":false,"rental_uris":{"android":"levelo://app?vid=ea9bf9be-e376-437f-9532-e41765e758db","ios":"levelo://app?vid=ea9bf9be-e376-437f-9532-e41765e758db"},"vehicle_type_id":"4","last_reported":1729081040,"current_range_meters":20000,"station_id":"ce4bhq92rcd13ifvqhjg","pricing_plan_id":"cebpf4jnsgd1na2vs0mg"},{"bike_id":"309a7a9f-68bb-4de9-913b-18e91dc82ea8","system_id":"levelo_inurba_marseille","lat":43.28939,"lon":5.36641,"is_reserved":false,"is_disabled":false,"rental_uris":{"android":"levelo://app?vid=309a7a9f-68bb-4de9-913b-18e91dc82ea8","ios":"levelo://app?vid=309a7a9f-68bb-4de9-913b-18e91dc82ea8"},"vehicle_type_id":"4","last_reported":1729081040,"current_range_meters":30000,"station_id":"ce4bhap2rcd13ifvqek0","pricing_plan_id":"cebpf4jnsgd1na2vs0mg"},{"bike_id":"89f8225b-c5f3-4f4c-9fb4-00ba771c6c7d","system_id":"levelo_inurba_marseille","lat":43.282685,"lon":5.350643,"is_reserved":false,"is_disabled":false,"rental_uris":{"android":"levelo://app?vid=89f8225b-c5f3-4f4c-9fb4-00ba771c6c7d","ios":"levelo://app?vid=89f8225b-c5f3-4f4c-9fb4-00ba771c6c7d"},"vehicle_type_id":"4","last_reported":1729081040,"current_range_meters":16000,"station_id":"ce4bhbp2rcd13ifvqerg","pricing_plan_id":"cebpf4jnsgd1na2vs0mg"},{"bike_id":"842bdfb8-cce6-4db6-b51d-7b5c18cbbc1e","system_id":"levelo_inurba_marseille","lat":43.23151,"lon":5.43703,"is_reserved":false,"is_disabled":false,"rental_uris":{"android":"levelo://app?vid=842bdfb8-cce6-4db6-b51d-7b5c18cbbc1e","ios":"levelo://app?vid=842bdfb8-cce6-4db6-b51d-7b5c18cbbc1e"},"vehicle_type_id":"4","last_reported":1729081040,"current_range_meters":12400,"station_id":"ce4bhmp2rcd13ifvqgog","pricing_plan_id":"cebpf4jnsgd1na2vs0mg"},{"bike_id":"dc04d24a-10e3-423c-98bd-7073f5d4b065","system_id":"levelo_inurba_marseille","lat":43.30322,"lon":5.40437,"is_reserved":false,"is_disabled":false,"rental_uris":{"android":"levelo://app?vid=dc04d24a-10e3-423c-98bd-7073f5d4b065","ios":"levelo://app?vid=dc04d24a-10e3-423c-98bd-7073f5d4b065"},"vehicle_type_id":"4","last_reported":1729081040,"current_range_meters":28800,"station_id":"ce4bh012rcd13ifvqd10","pricing_plan_id":"cebpf4jnsgd1na2vs0mg"},{"bike_id":"57c53fe7-bdcf-43a9-ab12-a4c829fef893","system_id":"levelo_inurba_marseille","lat":43.30426,"lon":5.3889,"is_reserved":false,"is_disabled":false,"rental_uris":{"android":"levelo://app?vid=57c53fe7-bdcf-43a9-ab12-a4c829fef893","ios":"levelo://app?vid=57c53fe7-bdcf-43a9-ab12-a4c829fef893"},"vehicle_type_id":"4","last_reported":1729081040,"current_range_meters":21600,"station_id":"ce4bgk12rcd13ifvqbi0","pricing_plan_id":"cebpf4jnsgd1na2vs0mg"},{"bike_id":"9fa3ef6c-b54a-4cce-8b58-0d61f05ad393","system_id":"levelo_inurba_marseille","lat":43.31714,"lon":5.43704,"is_reserved":false,"is_disabled":false,"rental_uris":{"android":"levelo://app?vid=9fa3ef6c-b54a-4cce-8b58-0d61f05ad393","ios":"levelo://app?vid=9fa3ef6c-b54a-4cce-8b58-0d61f05ad393"},"vehicle_type_id":"4","last_reported":1729081040,"current_range_meters":2800,"station_id":"ce4bhp92rcd13ifvqhcg","pricing_plan_id":"cebpf4jnsgd1na2vs0mg"},{"bike_id":"6dc5b725-0b8c-49b8-a19b-3f297b3f6f14","system_id":"levelo_inurba_marseille","lat":43.25928,"lon":5.40904,"is_reserved":false,"is_disabled":false,"rental_uris":{"android":"levelo://app?vid=6dc5b725-0b8c-49b8-a19b-3f297b3f6f14","ios":"levelo://app?vid=6dc5b725-0b8c-49b8-a19b-3f297b3f6f14"},"vehicle_type_id":"4","last_reported":1729081040,"current_range_meters":38000,"station_id":"ce4bhm92rcd13ifvqglg","pricing_plan_id":"cebpf4jnsgd1na2vs0mg"},{"bike_id":"8a7678c7-f9ba-405a-acf9-9a3cfe8f6d47","system_id":"levelo_inurba_marseille","lat":43.2894,"lon":5.36628,"is_reserved":false,"is_disabled":false,"rental_uris":{"android":"levelo://app?vid=8a7678c7-f9ba-405a-acf9-9a3cfe8f6d47","ios":"levelo://app?vid=8a7678c7-f9ba-405a-acf9-9a3cfe8f6d47"},"vehicle_type_id":"4","last_reported":1729081040,"current_range_meters":38800,"station_id":"ce4bhap2rcd13ifvqek0","pricing_plan_id":"cebpf4jnsgd1na2vs0mg"},{"bike_id":"c9a76ef6-f819-4166-83ee-0a5f69f525d7","system_id":"levelo_inurba_marseille","lat":43.29977,"lon":5.37177,"is_reserved":false,"is_disabled":false,"rental_uris":{"android":"levelo://app?vid=c9a76ef6-f819-4166-83ee-0a5f69f525d7","ios":"levelo://app?vid=c9a76ef6-f819-4166-83ee-0a5f69f525d7"},"vehicle_type_id":"4","last_reported":1729081040,"current_range_meters":30000,"station_id":"ce4bgr92rcd13ifvqc7g","pricing_plan_id":"cebpf4jnsgd1na2vs0mg"},{"bike_id":"e81ec7ef-a75d-45a0-829e-099ccb37d0c9","system_id":"levelo_inurba_marseille","lat":43.23184,"lon":5.39984,"is_reserved":false,"is_disabled":false,"rental_uris":{"android":"levelo://app?vid=e81ec7ef-a75d-45a0-829e-099ccb37d0c9","ios":"levelo://app?vid=e81ec7ef-a75d-45a0-829e-099ccb37d0c9"},"vehicle_type_id":"4","last_reported":1729081040,"current_range_meters":36800,"station_id":"ce4bhn12rcd13ifvqgqg","pricing_plan_id":"cebpf4jnsgd1na2vs0mg"},{"bike_id":"787c59b6-8080-4c31-944e-c419583cedf1","system_id":"levelo_inurba_marseille","lat":43.32043,"lon":5.41544,"is_reserved":false,"is_disabled":false,"rental_uris":{"android":"levelo://app?vid=787c59b6-8080-4c31-944e-c419583cedf1","ios":"levelo://app?vid=787c59b6-8080-4c31-944e-c419583cedf1"},"vehicle_type_id":"4","last_reported":1729081040,"current_range_meters":19600,"station_id":"ce4bhq92rcd13ifvqhkg","pricing_plan_id":"cebpf4jnsgd1na2vs0mg"},{"bike_id":"cd74800c-e854-45ea-b04d-049e6ea0ef7b","system_id":"levelo_inurba_marseille","lat":43.28178,"lon":5.36348,"is_reserved":false,"is_disabled":false,"rental_uris":{"android":"levelo://app?vid=cd74800c-e854-45ea-b04d-049e6ea0ef7b","ios":"levelo://app?vid=cd74800c-e854-45ea-b04d-049e6ea0ef7b"},"vehicle_type_id":"4","last_reported":1729081040,"current_range_meters":27200,"station_id":"ce4bhi12rcd13ifvqfp0","pricing_plan_id":"cebpf4jnsgd1na2vs0mg"},{"bike_id":"4f5fdd29-2a50-45ed-9529-057819ec9480","system_id":"levelo_inurba_marseille","lat":43.3031,"lon":5.36896,"is_reserved":false,"is_disabled":false,"rental_uris":{"android":"levelo://app?vid=4f5fdd29-2a50-45ed-9529-057819ec9480","ios":"levelo://app?vid=4f5fdd29-2a50-45ed-9529-057819ec9480"},"vehicle_type_id":"4","last_reported":1729081040,"current_range_meters":32800,"station_id":"ce4bgqh2rcd13ifvqc5g","pricing_plan_id":"cebpf4jnsgd1na2vs0mg"},{"bike_id":"4449652e-6ac7-4c4e-aeaa-ef005266e82f","system_id":"levelo_inurba_marseille","lat":43.32366,"lon":5.38882,"is_reserved":false,"is_disabled":false,"rental_uris":{"android":"levelo://app?vid=4449652e-6ac7-4c4e-aeaa-ef005266e82f","ios":"levelo://app?vid=4449652e-6ac7-4c4e-aeaa-ef005266e82f"},"vehicle_type_id":"4","last_reported":1729081040,"current_range_meters":18800,"station_id":"ce4bhqp2rcd13ifvqhog","pricing_plan_id":"cebpf4jnsgd1na2vs0mg"},{"bike_id":"ca0163ac-d25a-437e-9b06-c3be4e515504","system_id":"levelo_inurba_marseille","lat":43.30314,"lon":5.36898,"is_reserved":false,"is_disabled":false,"rental_uris":{"android":"levelo://app?vid=ca0163ac-d25a-437e-9b06-c3be4e515504","ios":"levelo://app?vid=ca0163ac-d25a-437e-9b06-c3be4e515504"},"vehicle_type_id":"4","last_reported":1729081040,"current_range_meters":34000,"station_id":"ce4bgqh2rcd13ifvqc5g","pricing_plan_id":"cebpf4jnsgd1na2vs0mg"},{"bike_id":"fd11ca81-dbe5-4428-9fa4-01d0f5602ffe","system_id":"levelo_inurba_marseille","lat":43.24391,"lon":5.37053,"is_reserved":false,"is_disabled":false,"rental_uris":{"android":"levelo://app?vid=fd11ca81-dbe5-4428-9fa4-01d0f5602ffe","ios":"levelo://app?vid=fd11ca81-dbe5-4428-9fa4-01d0f5602ffe"},"vehicle_type_id":"4","last_reported":1729081040,"current_range_meters":18800,"station_id":"ce4bhhh2rcd13ifvqfk0","pricing_plan_id":"cebpf4jnsgd1na2vs0mg"},{"bike_id":"3d345541-8cc4-4a78-8d79-d41d0d8fd35c","system_id":"levelo_inurba_marseille","lat":43.2594,"lon":5.40904,"is_reserved":false,"is_disabled":false,"rental_uris":{"android":"levelo://app?vid=3d345541-8cc4-4a78-8d79-d41d0d8fd35c","ios":"levelo://app?vid=3d345541-8cc4-4a78-8d79-d41d0d8fd35c"},"vehicle_type_id":"4","last_reported":1729081040,"current_range_meters":22800,"station_id":"ce4bhm92rcd13ifvqglg","pricing_plan_id":"cebpf4jnsgd1na2vs0mg"},{"bike_id":"e54890cc-1584-4f57-9b9b-63722af55ddb","system_id":"levelo_inurba_marseille","lat":43.30264,"lon":5.37712,"is_reserved":false,"is_disabled":false,"rental_uris":{"android":"levelo://app?vid=e54890cc-1584-4f57-9b9b-63722af55ddb","ios":"levelo://app?vid=e54890cc-1584-4f57-9b9b-63722af55ddb"},"vehicle_type_id":"4","last_reported":1729081040,"current_range_meters":36000,"station_id":"ce4bguh2rcd13ifvqcj0","pricing_plan_id":"cebpf4jnsgd1na2vs0mg"},{"bike_id":"549ce41e-b802-4495-9703-2906da9356e4","system_id":"levelo_inurba_marseille","lat":43.29576,"lon":5.39991,"is_reserved":false,"is_disabled":false,"rental_uris":{"android":"levelo://app?vid=549ce41e-b802-4495-9703-2906da9356e4","ios":"levelo://app?vid=549ce41e-b802-4495-9703-2906da9356e4"},"vehicle_type_id":"4","last_reported":1729081040,"current_range_meters":31200,"station_id":"ce4bh312rcd13ifvqdj0","pricing_plan_id":"cebpf4jnsgd1na2vs0mg"},{"bike_id":"b3414e9f-e991-44cb-8362-0a7d75f1ca79","system_id":"levelo_inurba_marseille","lat":43.3031,"lon":5.36894,"is_reserved":false,"is_disabled":false,"rental_uris":{"android":"levelo://app?vid=b3414e9f-e991-44cb-8362-0a7d75f1ca79","ios":"levelo://app?vid=b3414e9f-e991-44cb-8362-0a7d75f1ca79"},"vehicle_type_id":"4","last_reported":1729081040,"current_range_meters":38800,"station_id":"ce4bgqh2rcd13ifvqc5g","pricing_plan_id":"cebpf4jnsgd1na2vs0mg"},{"bike_id":"8a3f4ed7-7ab2-41b1-8d75-0742559afb1f","system_id":"levelo_inurba_marseille","lat":43.25109,"lon":5.40318,"is_reserved":false,"is_disabled":false,"rental_uris":{"android":"levelo://app?vid=8a3f4ed7-7ab2-41b1-8d75-0742559afb1f","ios":"levelo://app?vid=8a3f4ed7-7ab2-41b1-8d75-0742559afb1f"},"vehicle_type_id":"4","last_reported":1729081040,"current_range_meters":28000,"station_id":"ce4bhlh2rcd13ifvqgig","pricing_plan_id":"cebpf4jnsgd1na2vs0mg"},{"bike_id":"2c82f2ba-4783-46a4-badf-7e02ac73c778","system_id":"levelo_inurba_marseille","lat":43.2694,"lon":5.40256,"is_reserved":false,"is_disabled":false,"rental_uris":{"android":"levelo://app?vid=2c82f2ba-4783-46a4-badf-7e02ac73c778","ios":"levelo://app?vid=2c82f2ba-4783-46a4-badf-7e02ac73c778"},"vehicle_type_id":"4","last_reported":1729081040,"current_range_meters":11200,"station_id":"cjm6bp8fraef2m0cb0m0","pricing_plan_id":"cebpf4jnsgd1na2vs0mg"},{"bike_id":"b325087f-6118-4ad4-b60f-bacfc8d667c5","system_id":"levelo_inurba_marseille","lat":43.30911,"lon":5.36855,"is_reserved":false,"is_disabled":false,"rental_uris":{"android":"levelo://app?vid=b325087f-6118-4ad4-b60f-bacfc8d667c5","ios":"levelo://app?vid=b325087f-6118-4ad4-b60f-bacfc8d667c5"},"vehicle_type_id":"4","last_reported":1729081040,"current_range_meters":38800,"station_id":"ce4bgn92rcd13ifvqbvg","pricing_plan_id":"cebpf4jnsgd1na2vs0mg"},{"bike_id":"a5fb3a9d-0c3c-4c1c-b79f-b40bdb914263","system_id":"levelo_inurba_marseille","lat":43.30308,"lon":5.36903,"is_reserved":false,"is_disabled":false,"rental_uris":{"android":"levelo://app?vid=a5fb3a9d-0c3c-4c1c-b79f-b40bdb914263","ios":"levelo://app?vid=a5fb3a9d-0c3c-4c1c-b79f-b40bdb914263"},"vehicle_type_id":"4","last_reported":1729081040,"current_range_meters":19200,"station_id":"ce4bgqh2rcd13ifvqc5g","pricing_plan_id":"cebpf4jnsgd1na2vs0mg"},{"bike_id":"293099a1-73f4-410f-a3ea-e11764788e18","system_id":"levelo_inurba_marseille","lat":43.27173,"lon":5.40992,"is_reserved":false,"is_disabled":false,"rental_uris":{"android":"levelo://app?vid=293099a1-73f4-410f-a3ea-e11764788e18","ios":"levelo://app?vid=293099a1-73f4-410f-a3ea-e11764788e18"},"vehicle_type_id":"4","last_reported":1729081040,"current_range_meters":36800,"station_id":"ce4bhl12rcd13ifvqgf0","pricing_plan_id":"cebpf4jnsgd1na2vs0mg"},{"bike_id":"8b89f175-d99c-4443-af38-c4cd2535f07b","system_id":"levelo_inurba_marseille","lat":43.30949,"lon":5.38643,"is_reserved":false,"is_disabled":false,"rental_uris":{"android":"levelo://app?vid=8b89f175-d99c-4443-af38-c4cd2535f07b","ios":"levelo://app?vid=8b89f175-d99c-4443-af38-c4cd2535f07b"},"vehicle_type_id":"4","last_reported":1729081040,"current_range_meters":37600,"station_id":"","pricing_plan_id":"cebpf4jnsgd1na2vs0mg"},{"bike_id":"4178ef09-f18f-40f7-99ab-705a146ccc90","system_id":"levelo_inurba_marseille","lat":43.30465,"lon":5.3791,"is_reserved":false,"is_disabled":false,"rental_uris":{"android":"levelo://app?vid=4178ef09-f18f-40f7-99ab-705a146ccc90","ios":"levelo://app?vid=4178ef09-f18f-40f7-99ab-705a146ccc90"},"vehicle_type_id":"4","last_reported":1729081040,"current_range_meters":22000,"station_id":"ce4bgup2rcd13ifvqcn0","pricing_plan_id":"cebpf4jnsgd1na2vs0mg"},{"bike_id":"4ab36224-cf4f-495e-8f06-8fdb8c4fcdae","system_id":"levelo_inurba_marseille","lat":43.25493,"lon":5.3765,"is_reserved":false,"is_disabled":false,"rental_uris":{"android":"levelo://app?vid=4ab36224-cf4f-495e-8f06-8fdb8c4fcdae","ios":"levelo://app?vid=4ab36224-cf4f-495e-8f06-8fdb8c4fcdae"},"vehicle_type_id":"4","last_reported":1729081040,"current_range_meters":36000,"station_id":"ce4bhh12rcd13ifvqff0","pricing_plan_id":"cebpf4jnsgd1na2vs0mg"},{"bike_id":"fa7bbdc9-afbe-404d-8676-647037cc76a9","system_id":"levelo_inurba_marseille","lat":43.23194,"lon":5.35546,"is_reserved":false,"is_disabled":false,"rental_uris":{"android":"levelo://app?vid=fa7bbdc9-afbe-404d-8676-647037cc76a9","ios":"levelo://app?vid=fa7bbdc9-afbe-404d-8676-647037cc76a9"},"vehicle_type_id":"4","last_reported":1729081040,"current_range_meters":38000,"station_id":"ce4bhu92rcd13ifvqi70","pricing_plan_id":"cebpf4jnsgd1na2vs0mg"},{"bike_id":"931ad2f4-35ea-42b5-bc1a-1fdec477398a","system_id":"levelo_inurba_marseille","lat":43.337444,"lon":5.374475,"is_reserved":false,"is_disabled":false,"rental_uris":{"android":"levelo://app?vid=931ad2f4-35ea-42b5-bc1a-1fdec477398a","ios":"levelo://app?vid=931ad2f4-35ea-42b5-bc1a-1fdec477398a"},"vehicle_type_id":"4","last_reported":1729081040,"current_range_meters":38400,"station_id":"","pricing_plan_id":"cebpf4jnsgd1na2vs0mg"},{"bike_id":"987ba475-1a23-4cda-89a3-1c7b4939e57c","system_id":"levelo_inurba_marseille","lat":43.2957,"lon":5.39967,"is_reserved":false,"is_disabled":false,"rental_uris":{"android":"levelo://app?vid=987ba475-1a23-4cda-89a3-1c7b4939e57c","ios":"levelo://app?vid=987ba475-1a23-4cda-89a3-1c7b4939e57c"},"vehicle_type_id":"4","last_reported":1729081040,"current_range_meters":18000,"station_id":"ce4bh312rcd13ifvqdj0","pricing_plan_id":"cebpf4jnsgd1na2vs0mg"},{"bike_id":"e22feaa4-aa87-43b0-bc3d-0051e6f987cd","system_id":"levelo_inurba_marseille","lat":43.30431,"lon":5.38896,"is_reserved":false,"is_disabled":false,"rental_uris":{"android":"levelo://app?vid=e22feaa4-aa87-43b0-bc3d-0051e6f987cd","ios":"levelo://app?vid=e22feaa4-aa87-43b0-bc3d-0051e6f987cd"},"vehicle_type_id":"4","last_reported":1729081040,"current_range_meters":3600,"station_id":"ce4bgk12rcd13ifvqbi0","pricing_plan_id":"cebpf4jnsgd1na2vs0mg"},{"bike_id":"eb00224c-cdf7-4d90-8768-5bcf8b1010e0","system_id":"levelo_inurba_marseille","lat":43.29957,"lon":5.41319,"is_reserved":false,"is_disabled":false,"rental_uris":{"android":"levelo://app?vid=eb00224c-cdf7-4d90-8768-5bcf8b1010e0","ios":"levelo://app?vid=eb00224c-cdf7-4d90-8768-5bcf8b1010e0"},"vehicle_type_id":"4","last_reported":1729081040,"current_range_meters":38000,"station_id":"ce4bhp12rcd13ifvqh9g","pricing_plan_id":"cebpf4jnsgd1na2vs0mg"},{"bike_id":"81e32d4e-df25-4349-90c7-1831752870c9","system_id":"levelo_inurba_marseille","lat":43.27948,"lon":5.41047,"is_reserved":false,"is_disabled":false,"rental_uris":{"android":"levelo://app?vid=81e32d4e-df25-4349-90c7-1831752870c9","ios":"levelo://app?vid=81e32d4e-df25-4349-90c7-1831752870c9"},"vehicle_type_id":"4","last_reported":1729081040,"current_range_meters":35200,"station_id":"ce4bhnp2rcd13ifvqh0g","pricing_plan_id":"cebpf4jnsgd1na2vs0mg"},{"bike_id":"39cca2b7-1966-4295-84af-dd5e2a3ca9f4","system_id":"levelo_inurba_marseille","lat":43.24552,"lon":5.39522,"is_reserved":false,"is_disabled":false,"rental_uris":{"android":"levelo://app?vid=39cca2b7-1966-4295-84af-dd5e2a3ca9f4","ios":"levelo://app?vid=39cca2b7-1966-4295-84af-dd5e2a3ca9f4"},"vehicle_type_id":"4","last_reported":1729081040,"current_range_meters":6800,"station_id":"ce4bhlp2rcd13ifvqgjg","pricing_plan_id":"cebpf4jnsgd1na2vs0mg"},{"bike_id":"35062a99-b1ff-4854-a3c8-e3d4c2f7adab","system_id":"levelo_inurba_marseille","lat":43.3029,"lon":5.37706,"is_reserved":false,"is_disabled":false,"rental_uris":{"android":"levelo://app?vid=35062a99-b1ff-4854-a3c8-e3d4c2f7adab","ios":"levelo://app?vid=35062a99-b1ff-4854-a3c8-e3d4c2f7adab"},"vehicle_type_id":"4","last_reported":1729081040,"current_range_meters":38800,"station_id":"ce4bguh2rcd13ifvqcj0","pricing_plan_id":"cebpf4jnsgd1na2vs0mg"},{"bike_id":"968d0445-611c-45d9-a597-b0a86f014e1b","system_id":"levelo_inurba_marseille","lat":43.30134,"lon":5.37425,"is_reserved":false,"is_disabled":false,"rental_uris":{"android":"levelo://app?vid=968d0445-611c-45d9-a597-b0a86f014e1b","ios":"levelo://app?vid=968d0445-611c-45d9-a597-b0a86f014e1b"},"vehicle_type_id":"4","last_reported":1729081040,"current_range_meters":31200,"station_id":"ce4bgs92rcd13ifvqcc0","pricing_plan_id":"cebpf4jnsgd1na2vs0mg"},{"bike_id":"56ba13e2-c3b1-45a2-a7a7-266afdab071b","system_id":"levelo_inurba_marseille","lat":43.25818,"lon":5.39425,"is_reserved":false,"is_disabled":false,"rental_uris":{"android":"levelo://app?vid=56ba13e2-c3b1-45a2-a7a7-266afdab071b","ios":"levelo://app?vid=56ba13e2-c3b1-45a2-a7a7-266afdab071b"},"vehicle_type_id":"4","last_reported":1729081040,"current_range_meters":16800,"station_id":"ce4bhip2rcd13ifvqft0","pricing_plan_id":"cebpf4jnsgd1na2vs0mg"},{"bike_id":"5d4185c5-efd5-458a-89de-9f5bf51cb954","system_id":"levelo_inurba_marseille","lat":43.25935,"lon":5.40897,"is_reserved":false,"is_disabled":false,"rental_uris":{"android":"levelo://app?vid=5d4185c5-efd5-458a-89de-9f5bf51cb954","ios":"levelo://app?vid=5d4185c5-efd5-458a-89de-9f5bf51cb954"},"vehicle_type_id":"4","last_reported":1729081040,"current_range_meters":28000,"station_id":"ce4bhm92rcd13ifvqglg","pricing_plan_id":"cebpf4jnsgd1na2vs0mg"},{"bike_id":"03b52a53-4015-42f1-a46b-0d68e4ef1cf1","system_id":"levelo_inurba_marseille","lat":43.30535,"lon":5.36703,"is_reserved":false,"is_disabled":false,"rental_uris":{"android":"levelo://app?vid=03b52a53-4015-42f1-a46b-0d68e4ef1cf1","ios":"levelo://app?vid=03b52a53-4015-42f1-a46b-0d68e4ef1cf1"},"vehicle_type_id":"4","last_reported":1729081040,"current_range_meters":40000,"station_id":"ce4bgrp2rcd13ifvqc9g","pricing_plan_id":"cebpf4jnsgd1na2vs0mg"},{"bike_id":"230796ff-db1b-4afd-92a4-4f4a19b339f7","system_id":"levelo_inurba_marseille","lat":43.28001,"lon":5.4001,"is_reserved":false,"is_disabled":false,"rental_uris":{"android":"levelo://app?vid=230796ff-db1b-4afd-92a4-4f4a19b339f7","ios":"levelo://app?vid=230796ff-db1b-4afd-92a4-4f4a19b339f7"},"vehicle_type_id":"4","last_reported":1729081040,"current_range_meters":6800,"station_id":"ce4bho92rcd13ifvqh4g","pricing_plan_id":"cebpf4jnsgd1na2vs0mg"},{"bike_id":"85d70bc7-a693-4e9a-8b91-709d878d62cc","system_id":"levelo_inurba_marseille","lat":43.27821,"lon":5.40715,"is_reserved":false,"is_disabled":false,"rental_uris":{"android":"levelo://app?vid=85d70bc7-a693-4e9a-8b91-709d878d62cc","ios":"levelo://app?vid=85d70bc7-a693-4e9a-8b91-709d878d62cc"},"vehicle_type_id":"4","last_reported":1729081040,"current_range_meters":26000,"station_id":"ce4bhnh2rcd13ifvqgtg","pricing_plan_id":"cebpf4jnsgd1na2vs0mg"},{"bike_id":"ffbc9a8b-06a3-43cf-a342-6c9c26fd244b","system_id":"levelo_inurba_marseille","lat":43.30146,"lon":5.37419,"is_reserved":false,"is_disabled":false,"rental_uris":{"android":"levelo://app?vid=ffbc9a8b-06a3-43cf-a342-6c9c26fd244b","ios":"levelo://app?vid=ffbc9a8b-06a3-43cf-a342-6c9c26fd244b"},"vehicle_type_id":"4","last_reported":1729081040,"current_range_meters":30000,"station_id":"ce4bgs92rcd13ifvqcc0","pricing_plan_id":"cebpf4jnsgd1na2vs0mg"},{"bike_id":"0243b6e2-12f0-490c-880d-8108a0c7c13b","system_id":"levelo_inurba_marseille","lat":43.28929,"lon":5.38388,"is_reserved":false,"is_disabled":false,"rental_uris":{"android":"levelo://app?vid=0243b6e2-12f0-490c-880d-8108a0c7c13b","ios":"levelo://app?vid=0243b6e2-12f0-490c-880d-8108a0c7c13b"},"vehicle_type_id":"4","last_reported":1729081040,"current_range_meters":3200,"station_id":"ce4bh612rcd13ifvqe6g","pricing_plan_id":"cebpf4jnsgd1na2vs0mg"},{"bike_id":"c8229813-5ea4-40de-a97b-4b0c94c3a861","system_id":"levelo_inurba_marseille","lat":43.29854,"lon":5.36286,"is_reserved":false,"is_disabled":false,"rental_uris":{"android":"levelo://app?vid=c8229813-5ea4-40de-a97b-4b0c94c3a861","ios":"levelo://app?vid=c8229813-5ea4-40de-a97b-4b0c94c3a861"},"vehicle_type_id":"4","last_reported":1729081040,"current_range_meters":22800,"station_id":"ce4bgpp2rcd13ifvqc3g","pricing_plan_id":"cebpf4jnsgd1na2vs0mg"},{"bike_id":"c60e07dd-e495-49d2-bf5a-07d7a7991b7e","system_id":"levelo_inurba_marseille","lat":43.32657,"lon":5.40997,"is_reserved":false,"is_disabled":false,"rental_uris":{"android":"levelo://app?vid=c60e07dd-e495-49d2-bf5a-07d7a7991b7e","ios":"levelo://app?vid=c60e07dd-e495-49d2-bf5a-07d7a7991b7e"},"vehicle_type_id":"4","last_reported":1729081040,"current_range_meters":38400,"station_id":"ce4bhpp2rcd13ifvqhgg","pricing_plan_id":"cebpf4jnsgd1na2vs0mg"},{"bike_id":"0994d7f0-fa2e-480f-b967-2b1e1b476b78","system_id":"levelo_inurba_marseille","lat":43.23192,"lon":5.35559,"is_reserved":false,"is_disabled":false,"rental_uris":{"android":"levelo://app?vid=0994d7f0-fa2e-480f-b967-2b1e1b476b78","ios":"levelo://app?vid=0994d7f0-fa2e-480f-b967-2b1e1b476b78"},"vehicle_type_id":"4","last_reported":1729081040,"current_range_meters":21600,"station_id":"ce4bhu92rcd13ifvqi70","pricing_plan_id":"cebpf4jnsgd1na2vs0mg"},{"bike_id":"ee2e0cb7-7ee2-4c59-90d8-4a6feb6bf84c","system_id":"levelo_inurba_marseille","lat":43.28273,"lon":5.35062,"is_reserved":false,"is_disabled":false,"rental_uris":{"android":"levelo://app?vid=ee2e0cb7-7ee2-4c59-90d8-4a6feb6bf84c","ios":"levelo://app?vid=ee2e0cb7-7ee2-4c59-90d8-4a6feb6bf84c"},"vehicle_type_id":"4","last_reported":1729081040,"current_range_meters":18800,"station_id":"ce4bhbp2rcd13ifvqerg","pricing_plan_id":"cebpf4jnsgd1na2vs0mg"},{"bike_id":"30acf321-cbec-489e-9186-56fdd93adb06","system_id":"levelo_inurba_marseille","lat":43.2987,"lon":5.39722,"is_reserved":false,"is_disabled":false,"rental_uris":{"android":"levelo://app?vid=30acf321-cbec-489e-9186-56fdd93adb06","ios":"levelo://app?vid=30acf321-cbec-489e-9186-56fdd93adb06"},"vehicle_type_id":"4","last_reported":1729081040,"current_range_meters":38800,"station_id":"ce4bh0h2rcd13ifvqd50","pricing_plan_id":"cebpf4jnsgd1na2vs0mg"},{"bike_id":"66ccc46d-618e-4760-b09c-27382152bdab","system_id":"levelo_inurba_marseille","lat":43.23199,"lon":5.35555,"is_reserved":false,"is_disabled":false,"rental_uris":{"android":"levelo://app?vid=66ccc46d-618e-4760-b09c-27382152bdab","ios":"levelo://app?vid=66ccc46d-618e-4760-b09c-27382152bdab"},"vehicle_type_id":"4","last_reported":1729081040,"current_range_meters":37600,"station_id":"ce4bhu92rcd13ifvqi70","pricing_plan_id":"cebpf4jnsgd1na2vs0mg"},{"bike_id":"2d44de4e-bb7a-4736-9a78-e1d8ce816f45","system_id":"levelo_inurba_marseille","lat":43.30421,"lon":5.39749,"is_reserved":false,"is_disabled":false,"rental_uris":{"android":"levelo://app?vid=2d44de4e-bb7a-4736-9a78-e1d8ce816f45","ios":"levelo://app?vid=2d44de4e-bb7a-4736-9a78-e1d8ce816f45"},"vehicle_type_id":"4","last_reported":1729081040,"current_range_meters":37600,"station_id":"ce4bh092rcd13ifvqd20","pricing_plan_id":"cebpf4jnsgd1na2vs0mg"},{"bike_id":"8a331acc-70d9-496a-b0bc-87f49792f9b4","system_id":"levelo_inurba_marseille","lat":43.24165,"lon":5.364,"is_reserved":false,"is_disabled":false,"rental_uris":{"android":"levelo://app?vid=8a331acc-70d9-496a-b0bc-87f49792f9b4","ios":"levelo://app?vid=8a331acc-70d9-496a-b0bc-87f49792f9b4"},"vehicle_type_id":"4","last_reported":1729081040,"current_range_meters":24000,"station_id":"cpo36qri1sfpv3e86is0","pricing_plan_id":"cebpf4jnsgd1na2vs0mg"},{"bike_id":"a8c6dcbb-71df-4d01-9f13-286e6119c0fd","system_id":"levelo_inurba_marseille","lat":43.23143,"lon":5.43725,"is_reserved":false,"is_disabled":false,"rental_uris":{"android":"levelo://app?vid=a8c6dcbb-71df-4d01-9f13-286e6119c0fd","ios":"levelo://app?vid=a8c6dcbb-71df-4d01-9f13-286e6119c0fd"},"vehicle_type_id":"4","last_reported":1729081040,"current_range_meters":38800,"station_id":"ce4bhmp2rcd13ifvqgog","pricing_plan_id":"cebpf4jnsgd1na2vs0mg"},{"bike_id":"001091d6-94bc-4119-b28d-ebb6982951d8","system_id":"levelo_inurba_marseille","lat":43.25087,"lon":5.39523,"is_reserved":false,"is_disabled":false,"rental_uris":{"android":"levelo://app?vid=001091d6-94bc-4119-b28d-ebb6982951d8","ios":"levelo://app?vid=001091d6-94bc-4119-b28d-ebb6982951d8"},"vehicle_type_id":"4","last_reported":1729081040,"current_range_meters":34000,"station_id":"ce4bhm12rcd13ifvqgkg","pricing_plan_id":"cebpf4jnsgd1na2vs0mg"},{"bike_id":"8c0b89f1-3857-497f-a08e-b3f7b22abe32","system_id":"levelo_inurba_marseille","lat":43.27816,"lon":5.40716,"is_reserved":false,"is_disabled":false,"rental_uris":{"android":"levelo://app?vid=8c0b89f1-3857-497f-a08e-b3f7b22abe32","ios":"levelo://app?vid=8c0b89f1-3857-497f-a08e-b3f7b22abe32"},"vehicle_type_id":"4","last_reported":1729081040,"current_range_meters":28000,"station_id":"ce4bhc92rcd13ifvqetg","pricing_plan_id":"cebpf4jnsgd1na2vs0mg"},{"bike_id":"d2cbc342-88c1-4281-bd7f-27bf451d58a8","system_id":"levelo_inurba_marseille","lat":43.25004,"lon":5.38928,"is_reserved":false,"is_disabled":false,"rental_uris":{"android":"levelo://app?vid=d2cbc342-88c1-4281-bd7f-27bf451d58a8","ios":"levelo://app?vid=d2cbc342-88c1-4281-bd7f-27bf451d58a8"},"vehicle_type_id":"4","last_reported":1729081040,"current_range_meters":38800,"station_id":"ce4bhgp2rcd13ifvqfd0","pricing_plan_id":"cebpf4jnsgd1na2vs0mg"},{"bike_id":"620789ae-7d40-4cf7-bd3f-6a67a0d22950","system_id":"levelo_inurba_marseille","lat":43.30535,"lon":5.36703,"is_reserved":false,"is_disabled":false,"rental_uris":{"android":"levelo://app?vid=620789ae-7d40-4cf7-bd3f-6a67a0d22950","ios":"levelo://app?vid=620789ae-7d40-4cf7-bd3f-6a67a0d22950"},"vehicle_type_id":"4","last_reported":1729081040,"current_range_meters":33200,"station_id":"ce4bgrp2rcd13ifvqc9g","pricing_plan_id":"cebpf4jnsgd1na2vs0mg"},{"bike_id":"ca0b978c-0eba-432f-9bd8-794a6993635a","system_id":"levelo_inurba_marseille","lat":43.2872,"lon":5.36099,"is_reserved":false,"is_disabled":false,"rental_uris":{"android":"levelo://app?vid=ca0b978c-0eba-432f-9bd8-794a6993635a","ios":"levelo://app?vid=ca0b978c-0eba-432f-9bd8-794a6993635a"},"vehicle_type_id":"4","last_reported":1729081040,"current_range_meters":6800,"station_id":"cki0cbj6b192h4jlfktg","pricing_plan_id":"cebpf4jnsgd1na2vs0mg"},{"bike_id":"e4e1ee33-f289-42a3-81df-0931f1b2f05a","system_id":"levelo_inurba_marseille","lat":43.29724,"lon":5.36609,"is_reserved":false,"is_disabled":false,"rental_uris":{"android":"levelo://app?vid=e4e1ee33-f289-42a3-81df-0931f1b2f05a","ios":"levelo://app?vid=e4e1ee33-f289-42a3-81df-0931f1b2f05a"},"vehicle_type_id":"4","last_reported":1729081040,"current_range_meters":26800,"station_id":"ce4bgn12rcd13ifvqbt0","pricing_plan_id":"cebpf4jnsgd1na2vs0mg"},{"bike_id":"1e69292e-e3fe-4906-9ca6-103259c9e5f0","system_id":"levelo_inurba_marseille","lat":43.30523,"lon":5.36711,"is_reserved":false,"is_disabled":false,"rental_uris":{"android":"levelo://app?vid=1e69292e-e3fe-4906-9ca6-103259c9e5f0","ios":"levelo://app?vid=1e69292e-e3fe-4906-9ca6-103259c9e5f0"},"vehicle_type_id":"4","last_reported":1729081040,"current_range_meters":38000,"station_id":"ce4bgrp2rcd13ifvqc9g","pricing_plan_id":"cebpf4jnsgd1na2vs0mg"},{"bike_id":"6300df2c-b9fe-4275-916d-dd75e59140c9","system_id":"levelo_inurba_marseille","lat":43.2319,"lon":5.35539,"is_reserved":false,"is_disabled":false,"rental_uris":{"android":"levelo://app?vid=6300df2c-b9fe-4275-916d-dd75e59140c9","ios":"levelo://app?vid=6300df2c-b9fe-4275-916d-dd75e59140c9"},"vehicle_type_id":"4","last_reported":1729081040,"current_range_meters":38000,"station_id":"ce4bhu92rcd13ifvqi70","pricing_plan_id":"cebpf4jnsgd1na2vs0mg"},{"bike_id":"9e5b27c9-3509-48d2-8a05-9010e3bd11e1","system_id":"levelo_inurba_marseille","lat":43.33023,"lon":5.39046,"is_reserved":false,"is_disabled":false,"rental_uris":{"android":"levelo://app?vid=9e5b27c9-3509-48d2-8a05-9010e3bd11e1","ios":"levelo://app?vid=9e5b27c9-3509-48d2-8a05-9010e3bd11e1"},"vehicle_type_id":"4","last_reported":1729081040,"current_range_meters":7200,"station_id":"ce4bhr92rcd13ifvqhrg","pricing_plan_id":"cebpf4jnsgd1na2vs0mg"},{"bike_id":"82bf2be3-709d-4811-948a-1556c7f07e77","system_id":"levelo_inurba_marseille","lat":43.27942,"lon":5.41048,"is_reserved":false,"is_disabled":false,"rental_uris":{"android":"levelo://app?vid=82bf2be3-709d-4811-948a-1556c7f07e77","ios":"levelo://app?vid=82bf2be3-709d-4811-948a-1556c7f07e77"},"vehicle_type_id":"4","last_reported":1729081040,"current_range_meters":23200,"station_id":"ce4bhnp2rcd13ifvqh0g","pricing_plan_id":"cebpf4jnsgd1na2vs0mg"},{"bike_id":"fbd7765a-f956-4983-b4af-2e711761c93f","system_id":"levelo_inurba_marseille","lat":43.295929,"lon":5.368434,"is_reserved":false,"is_disabled":false,"rental_uris":{"android":"levelo://app?vid=fbd7765a-f956-4983-b4af-2e711761c93f","ios":"levelo://app?vid=fbd7765a-f956-4983-b4af-2e711761c93f"},"vehicle_type_id":"4","last_reported":1729081040,"current_range_meters":36400,"station_id":"ce4bhb12rcd13ifvqem0","pricing_plan_id":"cebpf4jnsgd1na2vs0mg"},{"bike_id":"4c97f5c1-0cc8-4668-9b87-38400a1c1d31","system_id":"levelo_inurba_marseille","lat":43.30423,"lon":5.41284,"is_reserved":false,"is_disabled":false,"rental_uris":{"android":"levelo://app?vid=4c97f5c1-0cc8-4668-9b87-38400a1c1d31","ios":"levelo://app?vid=4c97f5c1-0cc8-4668-9b87-38400a1c1d31"},"vehicle_type_id":"4","last_reported":1729081040,"current_range_meters":25200,"station_id":"ce4bhop2rcd13ifvqh8g","pricing_plan_id":"cebpf4jnsgd1na2vs0mg"},{"bike_id":"e3b7dbfb-6f30-458b-b4dc-782770dde0e4","system_id":"levelo_inurba_marseille","lat":43.32488,"lon":5.3658,"is_reserved":false,"is_disabled":false,"rental_uris":{"android":"levelo://app?vid=e3b7dbfb-6f30-458b-b4dc-782770dde0e4","ios":"levelo://app?vid=e3b7dbfb-6f30-458b-b4dc-782770dde0e4"},"vehicle_type_id":"4","last_reported":1729081040,"current_range_meters":18000,"station_id":"ce4bhs12rcd13ifvqhvg","pricing_plan_id":"cebpf4jnsgd1na2vs0mg"},{"bike_id":"79a0682c-4c0f-44dc-91bc-6b4806c2b650","system_id":"levelo_inurba_marseille","lat":43.31328,"lon":5.39696,"is_reserved":false,"is_disabled":false,"rental_uris":{"android":"levelo://app?vid=79a0682c-4c0f-44dc-91bc-6b4806c2b650","ios":"levelo://app?vid=79a0682c-4c0f-44dc-91bc-6b4806c2b650"},"vehicle_type_id":"4","last_reported":1729081040,"current_range_meters":38800,"station_id":"ce4bgvp2rcd13ifvqcu0","pricing_plan_id":"cebpf4jnsgd1na2vs0mg"},{"bike_id":"ba3f3f09-c86e-4d15-87ee-69ece159c4d9","system_id":"levelo_inurba_marseille","lat":43.24803,"lon":5.37454,"is_reserved":false,"is_disabled":false,"rental_uris":{"android":"levelo://app?vid=ba3f3f09-c86e-4d15-87ee-69ece159c4d9","ios":"levelo://app?vid=ba3f3f09-c86e-4d15-87ee-69ece159c4d9"},"vehicle_type_id":"4","last_reported":1729081040,"current_range_meters":16000,"station_id":"ce4bhgh2rcd13ifvqfb0","pricing_plan_id":"cebpf4jnsgd1na2vs0mg"},{"bike_id":"a1e432ae-d112-4262-a656-be76beb1ceb9","system_id":"levelo_inurba_marseille","lat":43.28006,"lon":5.40014,"is_reserved":false,"is_disabled":false,"rental_uris":{"android":"levelo://app?vid=a1e432ae-d112-4262-a656-be76beb1ceb9","ios":"levelo://app?vid=a1e432ae-d112-4262-a656-be76beb1ceb9"},"vehicle_type_id":"4","last_reported":1729081040,"current_range_meters":38000,"station_id":"ce4bho92rcd13ifvqh4g","pricing_plan_id":"cebpf4jnsgd1na2vs0mg"},{"bike_id":"079ea524-ac4e-4dc3-9469-034c9abb1603","system_id":"levelo_inurba_marseille","lat":43.30323,"lon":5.40449,"is_reserved":false,"is_disabled":false,"rental_uris":{"android":"levelo://app?vid=079ea524-ac4e-4dc3-9469-034c9abb1603","ios":"levelo://app?vid=079ea524-ac4e-4dc3-9469-034c9abb1603"},"vehicle_type_id":"4","last_reported":1729081040,"current_range_meters":11200,"station_id":"ce4bh012rcd13ifvqd10","pricing_plan_id":"cebpf4jnsgd1na2vs0mg"},{"bike_id":"b7fa7fe6-9072-44be-80a2-541af4de1e03","system_id":"levelo_inurba_marseille","lat":43.29692,"lon":5.37282,"is_reserved":false,"is_disabled":false,"rental_uris":{"android":"levelo://app?vid=b7fa7fe6-9072-44be-80a2-541af4de1e03","ios":"levelo://app?vid=b7fa7fe6-9072-44be-80a2-541af4de1e03"},"vehicle_type_id":"4","last_reported":1729081040,"current_range_meters":24800,"station_id":"ce4bgk12rcd13ifvqbj0","pricing_plan_id":"cebpf4jnsgd1na2vs0mg"},{"bike_id":"da07080c-1196-46a1-aea5-19a3b6f415ec","system_id":"levelo_inurba_marseille","lat":43.33025,"lon":5.39045,"is_reserved":false,"is_disabled":false,"rental_uris":{"android":"levelo://app?vid=da07080c-1196-46a1-aea5-19a3b6f415ec","ios":"levelo://app?vid=da07080c-1196-46a1-aea5-19a3b6f415ec"},"vehicle_type_id":"4","last_reported":1729081040,"current_range_meters":37600,"station_id":"ce4bhr92rcd13ifvqhrg","pricing_plan_id":"cebpf4jnsgd1na2vs0mg"},{"bike_id":"2140b6a3-5118-4150-823e-9225aeb56201","system_id":"levelo_inurba_marseille","lat":43.23191,"lon":5.35551,"is_reserved":false,"is_disabled":false,"rental_uris":{"android":"levelo://app?vid=2140b6a3-5118-4150-823e-9225aeb56201","ios":"levelo://app?vid=2140b6a3-5118-4150-823e-9225aeb56201"},"vehicle_type_id":"4","last_reported":1729081040,"current_range_meters":4000,"station_id":"ce4bhu92rcd13ifvqi70","pricing_plan_id":"cebpf4jnsgd1na2vs0mg"},{"bike_id":"c71256e3-f91a-415b-a206-25fe3e2d20b5","system_id":"levelo_inurba_marseille","lat":43.24999,"lon":5.38932,"is_reserved":false,"is_disabled":false,"rental_uris":{"android":"levelo://app?vid=c71256e3-f91a-415b-a206-25fe3e2d20b5","ios":"levelo://app?vid=c71256e3-f91a-415b-a206-25fe3e2d20b5"},"vehicle_type_id":"4","last_reported":1729081040,"current_range_meters":28400,"station_id":"ce4bhgp2rcd13ifvqfd0","pricing_plan_id":"cebpf4jnsgd1na2vs0mg"},{"bike_id":"d1305ace-8ee2-485a-a4b1-80a2cba8fc6e","system_id":"levelo_inurba_marseille","lat":43.29008,"lon":5.35616,"is_reserved":false,"is_disabled":false,"rental_uris":{"android":"levelo://app?vid=d1305ace-8ee2-485a-a4b1-80a2cba8fc6e","ios":"levelo://app?vid=d1305ace-8ee2-485a-a4b1-80a2cba8fc6e"},"vehicle_type_id":"4","last_reported":1729081040,"current_range_meters":6000,"station_id":"ce4bhb92rcd13ifvqen0","pricing_plan_id":"cebpf4jnsgd1na2vs0mg"},{"bike_id":"50080035-6716-47ec-87d7-ca879d4cf126","system_id":"levelo_inurba_marseille","lat":43.30189,"lon":5.36622,"is_reserved":false,"is_disabled":false,"rental_uris":{"android":"levelo://app?vid=50080035-6716-47ec-87d7-ca879d4cf126","ios":"levelo://app?vid=50080035-6716-47ec-87d7-ca879d4cf126"},"vehicle_type_id":"4","last_reported":1729081040,"current_range_meters":25600,"station_id":"ce4bgrh2rcd13ifvqc8g","pricing_plan_id":"cebpf4jnsgd1na2vs0mg"},{"bike_id":"efe9840c-8fb2-4e9f-845d-e5b20acfb757","system_id":"levelo_inurba_marseille","lat":43.23153,"lon":5.43709,"is_reserved":false,"is_disabled":false,"rental_uris":{"android":"levelo://app?vid=efe9840c-8fb2-4e9f-845d-e5b20acfb757","ios":"levelo://app?vid=efe9840c-8fb2-4e9f-845d-e5b20acfb757"},"vehicle_type_id":"4","last_reported":1729081040,"current_range_meters":8800,"station_id":"ce4bhmp2rcd13ifvqgog","pricing_plan_id":"cebpf4jnsgd1na2vs0mg"},{"bike_id":"25cb8ec2-1ba1-4361-a0d8-34d3dff9720b","system_id":"levelo_inurba_marseille","lat":43.23154,"lon":5.43703,"is_reserved":false,"is_disabled":false,"rental_uris":{"android":"levelo://app?vid=25cb8ec2-1ba1-4361-a0d8-34d3dff9720b","ios":"levelo://app?vid=25cb8ec2-1ba1-4361-a0d8-34d3dff9720b"},"vehicle_type_id":"4","last_reported":1729081040,"current_range_meters":14000,"station_id":"ce4bhmp2rcd13ifvqgog","pricing_plan_id":"cebpf4jnsgd1na2vs0mg"},{"bike_id":"e3867f28-04ab-4fcc-8f24-9acf939f3085","system_id":"levelo_inurba_marseille","lat":43.31269,"lon":5.4017,"is_reserved":false,"is_disabled":false,"rental_uris":{"android":"levelo://app?vid=e3867f28-04ab-4fcc-8f24-9acf939f3085","ios":"levelo://app?vid=e3867f28-04ab-4fcc-8f24-9acf939f3085"},"vehicle_type_id":"4","last_reported":1729081040,"current_range_meters":36000,"station_id":"ce4bh092rcd13ifvqd30","pricing_plan_id":"cebpf4jnsgd1na2vs0mg"},{"bike_id":"8c5f6cb2-2534-400b-9faa-95a35c4c59a7","system_id":"levelo_inurba_marseille","lat":43.2572,"lon":5.41106,"is_reserved":false,"is_disabled":false,"rental_uris":{"android":"levelo://app?vid=8c5f6cb2-2534-400b-9faa-95a35c4c59a7","ios":"levelo://app?vid=8c5f6cb2-2534-400b-9faa-95a35c4c59a7"},"vehicle_type_id":"4","last_reported":1729081040,"current_range_meters":33600,"station_id":"ce4bhkp2rcd13ifvqgd0","pricing_plan_id":"cebpf4jnsgd1na2vs0mg"},{"bike_id":"7290204c-a2b4-473a-8ba3-21522a5d7491","system_id":"levelo_inurba_marseille","lat":43.29574,"lon":5.39965,"is_reserved":false,"is_disabled":false,"rental_uris":{"android":"levelo://app?vid=7290204c-a2b4-473a-8ba3-21522a5d7491","ios":"levelo://app?vid=7290204c-a2b4-473a-8ba3-21522a5d7491"},"vehicle_type_id":"4","last_reported":1729081040,"current_range_meters":34000,"station_id":"ce4bh312rcd13ifvqdj0","pricing_plan_id":"cebpf4jnsgd1na2vs0mg"},{"bike_id":"aa74074a-5ce0-4c78-ac0c-f3d34b052e76","system_id":"levelo_inurba_marseille","lat":43.28044,"lon":5.36941,"is_reserved":false,"is_disabled":false,"rental_uris":{"android":"levelo://app?vid=aa74074a-5ce0-4c78-ac0c-f3d34b052e76","ios":"levelo://app?vid=aa74074a-5ce0-4c78-ac0c-f3d34b052e76"},"vehicle_type_id":"4","last_reported":1729081040,"current_range_meters":36000,"station_id":"ce4bha12rcd13ifvqef0","pricing_plan_id":"cebpf4jnsgd1na2vs0mg"},{"bike_id":"3213665e-989c-4d22-9f5a-31c8522597dd","system_id":"levelo_inurba_marseille","lat":43.296,"lon":5.36142,"is_reserved":false,"is_disabled":false,"rental_uris":{"android":"levelo://app?vid=3213665e-989c-4d22-9f5a-31c8522597dd","ios":"levelo://app?vid=3213665e-989c-4d22-9f5a-31c8522597dd"},"vehicle_type_id":"4","last_reported":1729081040,"current_range_meters":33200,"station_id":"","pricing_plan_id":"cebpf4jnsgd1na2vs0mg"},{"bike_id":"61702124-6d8c-4c6f-8f27-a925d8ccd417","system_id":"levelo_inurba_marseille","lat":43.25502,"lon":5.37652,"is_reserved":false,"is_disabled":false,"rental_uris":{"android":"levelo://app?vid=61702124-6d8c-4c6f-8f27-a925d8ccd417","ios":"levelo://app?vid=61702124-6d8c-4c6f-8f27-a925d8ccd417"},"vehicle_type_id":"4","last_reported":1729081040,"current_range_meters":36800,"station_id":"ce4bhh12rcd13ifvqff0","pricing_plan_id":"cebpf4jnsgd1na2vs0mg"},{"bike_id":"5e0b8d77-88ff-4f43-a7b3-7a6ad2b5f23e","system_id":"levelo_inurba_marseille","lat":43.29786,"lon":5.37101,"is_reserved":false,"is_disabled":false,"rental_uris":{"android":"levelo://app?vid=5e0b8d77-88ff-4f43-a7b3-7a6ad2b5f23e","ios":"levelo://app?vid=5e0b8d77-88ff-4f43-a7b3-7a6ad2b5f23e"},"vehicle_type_id":"4","last_reported":1729081040,"current_range_meters":20400,"station_id":"ce4bgop2rcd13ifvqc1g","pricing_plan_id":"cebpf4jnsgd1na2vs0mg"},{"bike_id":"e01a7008-7baf-4589-9103-bf5095c2feed","system_id":"levelo_inurba_marseille","lat":43.29439,"lon":5.3975,"is_reserved":false,"is_disabled":false,"rental_uris":{"android":"levelo://app?vid=e01a7008-7baf-4589-9103-bf5095c2feed","ios":"levelo://app?vid=e01a7008-7baf-4589-9103-bf5095c2feed"},"vehicle_type_id":"4","last_reported":1729081040,"current_range_meters":8400,"station_id":"ce4bh3h2rcd13ifvqdo0","pricing_plan_id":"cebpf4jnsgd1na2vs0mg"},{"bike_id":"8ed3f8d6-5675-4168-8c96-06036d3fb4c5","system_id":"levelo_inurba_marseille","lat":43.28433,"lon":5.39198,"is_reserved":false,"is_disabled":false,"rental_uris":{"android":"levelo://app?vid=8ed3f8d6-5675-4168-8c96-06036d3fb4c5","ios":"levelo://app?vid=8ed3f8d6-5675-4168-8c96-06036d3fb4c5"},"vehicle_type_id":"4","last_reported":1729081040,"current_range_meters":26000,"station_id":"ce4bhoh2rcd13ifvqh5g","pricing_plan_id":"cebpf4jnsgd1na2vs0mg"},{"bike_id":"1641b826-604a-4181-8231-dca386f637a6","system_id":"levelo_inurba_marseille","lat":43.23195,"lon":5.35559,"is_reserved":false,"is_disabled":false,"rental_uris":{"android":"levelo://app?vid=1641b826-604a-4181-8231-dca386f637a6","ios":"levelo://app?vid=1641b826-604a-4181-8231-dca386f637a6"},"vehicle_type_id":"4","last_reported":1729081040,"current_range_meters":38000,"station_id":"ce4bhu92rcd13ifvqi70","pricing_plan_id":"cebpf4jnsgd1na2vs0mg"},{"bike_id":"89211ee2-076f-4df3-92bd-cd8885f2e76d","system_id":"levelo_inurba_marseille","lat":43.23193,"lon":5.35556,"is_reserved":false,"is_disabled":false,"rental_uris":{"android":"levelo://app?vid=89211ee2-076f-4df3-92bd-cd8885f2e76d","ios":"levelo://app?vid=89211ee2-076f-4df3-92bd-cd8885f2e76d"},"vehicle_type_id":"4","last_reported":1729081040,"current_range_meters":38000,"station_id":"ce4bhu92rcd13ifvqi70","pricing_plan_id":"cebpf4jnsgd1na2vs0mg"},{"bike_id":"90f80907-e0d5-4716-a7d8-45b2c2640b01","system_id":"levelo_inurba_marseille","lat":43.2315,"lon":5.43709,"is_reserved":false,"is_disabled":false,"rental_uris":{"android":"levelo://app?vid=90f80907-e0d5-4716-a7d8-45b2c2640b01","ios":"levelo://app?vid=90f80907-e0d5-4716-a7d8-45b2c2640b01"},"vehicle_type_id":"4","last_reported":1729081040,"current_range_meters":38000,"station_id":"ce4bhmp2rcd13ifvqgog","pricing_plan_id":"cebpf4jnsgd1na2vs0mg"},{"bike_id":"2e20f4cd-27e6-4825-9985-188df4f7e78f","system_id":"levelo_inurba_marseille","lat":43.25503,"lon":5.37652,"is_reserved":false,"is_disabled":false,"rental_uris":{"android":"levelo://app?vid=2e20f4cd-27e6-4825-9985-188df4f7e78f","ios":"levelo://app?vid=2e20f4cd-27e6-4825-9985-188df4f7e78f"},"vehicle_type_id":"4","last_reported":1729081040,"current_range_meters":5600,"station_id":"ce4bhh12rcd13ifvqff0","pricing_plan_id":"cebpf4jnsgd1na2vs0mg"},{"bike_id":"975adece-daeb-433e-b5fe-8997a00f0604","system_id":"levelo_inurba_marseille","lat":43.33025,"lon":5.39039,"is_reserved":false,"is_disabled":false,"rental_uris":{"android":"levelo://app?vid=975adece-daeb-433e-b5fe-8997a00f0604","ios":"levelo://app?vid=975adece-daeb-433e-b5fe-8997a00f0604"},"vehicle_type_id":"4","last_reported":1729081040,"current_range_meters":31200,"station_id":"ce4bhr92rcd13ifvqhrg","pricing_plan_id":"cebpf4jnsgd1na2vs0mg"},{"bike_id":"7c5f840d-ee91-49f8-abf1-6481edcbe346","system_id":"levelo_inurba_marseille","lat":43.23152,"lon":5.43701,"is_reserved":false,"is_disabled":false,"rental_uris":{"android":"levelo://app?vid=7c5f840d-ee91-49f8-abf1-6481edcbe346","ios":"levelo://app?vid=7c5f840d-ee91-49f8-abf1-6481edcbe346"},"vehicle_type_id":"4","last_reported":1729081040,"current_range_meters":27600,"station_id":"ce4bhmp2rcd13ifvqgog","pricing_plan_id":"cebpf4jnsgd1na2vs0mg"},{"bike_id":"799c1744-3dcd-430d-9b9d-e64c5efb11f7","system_id":"levelo_inurba_marseille","lat":43.27496,"lon":5.42454,"is_reserved":false,"is_disabled":false,"rental_uris":{"android":"levelo://app?vid=799c1744-3dcd-430d-9b9d-e64c5efb11f7","ios":"levelo://app?vid=799c1744-3dcd-430d-9b9d-e64c5efb11f7"},"vehicle_type_id":"4","last_reported":1729081040,"current_range_meters":2800,"station_id":"ce4bhn92rcd13ifvqgrg","pricing_plan_id":"cebpf4jnsgd1na2vs0mg"},{"bike_id":"02af67c6-7c68-4559-a056-7404a067af01","system_id":"levelo_inurba_marseille","lat":43.33028,"lon":5.39039,"is_reserved":false,"is_disabled":false,"rental_uris":{"android":"levelo://app?vid=02af67c6-7c68-4559-a056-7404a067af01","ios":"levelo://app?vid=02af67c6-7c68-4559-a056-7404a067af01"},"vehicle_type_id":"4","last_reported":1729081040,"current_range_meters":39200,"station_id":"ce4bhr92rcd13ifvqhrg","pricing_plan_id":"cebpf4jnsgd1na2vs0mg"},{"bike_id":"459a0643-dd10-48df-9d57-d876cab70da5","system_id":"levelo_inurba_marseille","lat":43.2997,"lon":5.37174,"is_reserved":false,"is_disabled":false,"rental_uris":{"android":"levelo://app?vid=459a0643-dd10-48df-9d57-d876cab70da5","ios":"levelo://app?vid=459a0643-dd10-48df-9d57-d876cab70da5"},"vehicle_type_id":"4","last_reported":1729081040,"current_range_meters":38400,"station_id":"ce4bgr92rcd13ifvqc7g","pricing_plan_id":"cebpf4jnsgd1na2vs0mg"},{"bike_id":"8e25be89-a8dd-4bf7-ad4b-86638f7e01df","system_id":"levelo_inurba_marseille","lat":43.30146,"lon":5.37419,"is_reserved":false,"is_disabled":false,"rental_uris":{"android":"levelo://app?vid=8e25be89-a8dd-4bf7-ad4b-86638f7e01df","ios":"levelo://app?vid=8e25be89-a8dd-4bf7-ad4b-86638f7e01df"},"vehicle_type_id":"4","last_reported":1729081040,"current_range_meters":38800,"station_id":"ce4bgs92rcd13ifvqcc0","pricing_plan_id":"cebpf4jnsgd1na2vs0mg"},{"bike_id":"8e3963b6-8131-4c1e-b4d2-add46d4dfbf9","system_id":"levelo_inurba_marseille","lat":43.30318,"lon":5.36898,"is_reserved":false,"is_disabled":false,"rental_uris":{"android":"levelo://app?vid=8e3963b6-8131-4c1e-b4d2-add46d4dfbf9","ios":"levelo://app?vid=8e3963b6-8131-4c1e-b4d2-add46d4dfbf9"},"vehicle_type_id":"4","last_reported":1729081040,"current_range_meters":18800,"station_id":"ce4bgqh2rcd13ifvqc5g","pricing_plan_id":"cebpf4jnsgd1na2vs0mg"},{"bike_id":"2b0a7b83-91f5-40bf-a831-8680c1dcf19d","system_id":"levelo_inurba_marseille","lat":43.272045,"lon":5.391813,"is_reserved":false,"is_disabled":false,"rental_uris":{"android":"levelo://app?vid=2b0a7b83-91f5-40bf-a831-8680c1dcf19d","ios":"levelo://app?vid=2b0a7b83-91f5-40bf-a831-8680c1dcf19d"},"vehicle_type_id":"4","last_reported":1729081040,"current_range_meters":38400,"station_id":"ce4bhkp2rcd13ifvqgd0","pricing_plan_id":"cebpf4jnsgd1na2vs0mg"},{"bike_id":"a95a9124-896b-4742-bdcf-8fbe2e567623","system_id":"levelo_inurba_marseille","lat":43.29525,"lon":5.38541,"is_reserved":false,"is_disabled":false,"rental_uris":{"android":"levelo://app?vid=a95a9124-896b-4742-bdcf-8fbe2e567623","ios":"levelo://app?vid=a95a9124-896b-4742-bdcf-8fbe2e567623"},"vehicle_type_id":"4","last_reported":1729081040,"current_range_meters":0,"station_id":"ce4bgih2rcd13ifvqba0","pricing_plan_id":"cebpf4jnsgd1na2vs0mg"},{"bike_id":"20e356f3-16a9-45d9-8d31-26b9053d6d70","system_id":"levelo_inurba_marseille","lat":43.31759,"lon":5.39017,"is_reserved":false,"is_disabled":false,"rental_uris":{"android":"levelo://app?vid=20e356f3-16a9-45d9-8d31-26b9053d6d70","ios":"levelo://app?vid=20e356f3-16a9-45d9-8d31-26b9053d6d70"},"vehicle_type_id":"4","last_reported":1729081040,"current_range_meters":32800,"station_id":"ce4bhqp2rcd13ifvqhng","pricing_plan_id":"cebpf4jnsgd1na2vs0mg"},{"bike_id":"87dde795-a848-4abe-8563-92325ec050f2","system_id":"levelo_inurba_marseille","lat":43.3018,"lon":5.36613,"is_reserved":false,"is_disabled":false,"rental_uris":{"android":"levelo://app?vid=87dde795-a848-4abe-8563-92325ec050f2","ios":"levelo://app?vid=87dde795-a848-4abe-8563-92325ec050f2"},"vehicle_type_id":"4","last_reported":1729081040,"current_range_meters":38800,"station_id":"ce4bgrh2rcd13ifvqc8g","pricing_plan_id":"cebpf4jnsgd1na2vs0mg"},{"bike_id":"87440bd7-4730-412f-b52f-03b263c3d6ba","system_id":"levelo_inurba_marseille","lat":43.23192,"lon":5.35565,"is_reserved":false,"is_disabled":false,"rental_uris":{"android":"levelo://app?vid=87440bd7-4730-412f-b52f-03b263c3d6ba","ios":"levelo://app?vid=87440bd7-4730-412f-b52f-03b263c3d6ba"},"vehicle_type_id":"4","last_reported":1729081040,"current_range_meters":24800,"station_id":"ce4bhu92rcd13ifvqi70","pricing_plan_id":"cebpf4jnsgd1na2vs0mg"},{"bike_id":"d3e64805-45cc-4973-ba5d-2bd2aba6ae68","system_id":"levelo_inurba_marseille","lat":43.31485,"lon":5.37297,"is_reserved":false,"is_disabled":false,"rental_uris":{"android":"levelo://app?vid=d3e64805-45cc-4973-ba5d-2bd2aba6ae68","ios":"levelo://app?vid=d3e64805-45cc-4973-ba5d-2bd2aba6ae68"},"vehicle_type_id":"4","last_reported":1729081040,"current_range_meters":10000,"station_id":"ce4bgt12rcd13ifvqcd0","pricing_plan_id":"cebpf4jnsgd1na2vs0mg"},{"bike_id":"7484c344-debf-4edc-af17-e722b5059f6c","system_id":"levelo_inurba_marseille","lat":43.33748,"lon":5.37467,"is_reserved":false,"is_disabled":false,"rental_uris":{"android":"levelo://app?vid=7484c344-debf-4edc-af17-e722b5059f6c","ios":"levelo://app?vid=7484c344-debf-4edc-af17-e722b5059f6c"},"vehicle_type_id":"4","last_reported":1729081040,"current_range_meters":16400,"station_id":"","pricing_plan_id":"cebpf4jnsgd1na2vs0mg"},{"bike_id":"cdae481f-9aa1-4014-97de-af082fcf5979","system_id":"levelo_inurba_marseille","lat":43.25866,"lon":5.39902,"is_reserved":false,"is_disabled":false,"rental_uris":{"android":"levelo://app?vid=cdae481f-9aa1-4014-97de-af082fcf5979","ios":"levelo://app?vid=cdae481f-9aa1-4014-97de-af082fcf5979"},"vehicle_type_id":"4","last_reported":1729081040,"current_range_meters":4400,"station_id":"ce4bhl92rcd13ifvqghg","pricing_plan_id":"cebpf4jnsgd1na2vs0mg"},{"bike_id":"af11b9bc-94eb-4870-a372-a1d070ea521a","system_id":"levelo_inurba_marseille","lat":43.337444,"lon":5.374475,"is_reserved":false,"is_disabled":false,"rental_uris":{"android":"levelo://app?vid=af11b9bc-94eb-4870-a372-a1d070ea521a","ios":"levelo://app?vid=af11b9bc-94eb-4870-a372-a1d070ea521a"},"vehicle_type_id":"4","last_reported":1729081040,"current_range_meters":37600,"station_id":"ce4bh2p2rcd13ifvqdi0","pricing_plan_id":"cebpf4jnsgd1na2vs0mg"},{"bike_id":"ff96eee3-1ac8-4888-9ae7-e4b6cc8154af","system_id":"levelo_inurba_marseille","lat":43.33739,"lon":5.3746,"is_reserved":false,"is_disabled":false,"rental_uris":{"android":"levelo://app?vid=ff96eee3-1ac8-4888-9ae7-e4b6cc8154af","ios":"levelo://app?vid=ff96eee3-1ac8-4888-9ae7-e4b6cc8154af"},"vehicle_type_id":"4","last_reported":1729081040,"current_range_meters":29600,"station_id":"","pricing_plan_id":"cebpf4jnsgd1na2vs0mg"},{"bike_id":"67a883f4-26ab-46a7-a869-c25383e2bfe1","system_id":"levelo_inurba_marseille","lat":43.29529,"lon":5.375,"is_reserved":false,"is_disabled":false,"rental_uris":{"android":"levelo://app?vid=67a883f4-26ab-46a7-a869-c25383e2bfe1","ios":"levelo://app?vid=67a883f4-26ab-46a7-a869-c25383e2bfe1"},"vehicle_type_id":"4","last_reported":1729081040,"current_range_meters":18800,"station_id":"ce4bgkp2rcd13ifvqbmg","pricing_plan_id":"cebpf4jnsgd1na2vs0mg"},{"bike_id":"727886fd-a85c-47c1-82e6-6f2f3699bc98","system_id":"levelo_inurba_marseille","lat":43.30606,"lon":5.37224,"is_reserved":false,"is_disabled":false,"rental_uris":{"android":"levelo://app?vid=727886fd-a85c-47c1-82e6-6f2f3699bc98","ios":"levelo://app?vid=727886fd-a85c-47c1-82e6-6f2f3699bc98"},"vehicle_type_id":"4","last_reported":1729081040,"current_range_meters":6400,"station_id":"ce4bgqh2rcd13ifvqc4g","pricing_plan_id":"cebpf4jnsgd1na2vs0mg"},{"bike_id":"e381f590-fd89-49e1-b4a1-66c56de528c9","system_id":"levelo_inurba_marseille","lat":43.30145,"lon":5.37416,"is_reserved":false,"is_disabled":false,"rental_uris":{"android":"levelo://app?vid=e381f590-fd89-49e1-b4a1-66c56de528c9","ios":"levelo://app?vid=e381f590-fd89-49e1-b4a1-66c56de528c9"},"vehicle_type_id":"4","last_reported":1729081040,"current_range_meters":24400,"station_id":"ce4bgs92rcd13ifvqcc0","pricing_plan_id":"cebpf4jnsgd1na2vs0mg"},{"bike_id":"83042ac9-519c-420c-adf7-f7f1ca7582c7","system_id":"levelo_inurba_marseille","lat":43.33749,"lon":5.37473,"is_reserved":false,"is_disabled":false,"rental_uris":{"android":"levelo://app?vid=83042ac9-519c-420c-adf7-f7f1ca7582c7","ios":"levelo://app?vid=83042ac9-519c-420c-adf7-f7f1ca7582c7"},"vehicle_type_id":"4","last_reported":1729081040,"current_range_meters":24800,"station_id":"","pricing_plan_id":"cebpf4jnsgd1na2vs0mg"},{"bike_id":"58abbaf2-287a-4741-b1b6-1c93e38053a4","system_id":"levelo_inurba_marseille","lat":43.30192,"lon":5.36618,"is_reserved":false,"is_disabled":false,"rental_uris":{"android":"levelo://app?vid=58abbaf2-287a-4741-b1b6-1c93e38053a4","ios":"levelo://app?vid=58abbaf2-287a-4741-b1b6-1c93e38053a4"},"vehicle_type_id":"4","last_reported":1729081040,"current_range_meters":28400,"station_id":"ce4bgrh2rcd13ifvqc8g","pricing_plan_id":"cebpf4jnsgd1na2vs0mg"},{"bike_id":"1f5d6817-da92-4702-9da2-1fc138e604d5","system_id":"levelo_inurba_marseille","lat":43.32115,"lon":5.36769,"is_reserved":false,"is_disabled":false,"rental_uris":{"android":"levelo://app?vid=1f5d6817-da92-4702-9da2-1fc138e604d5","ios":"levelo://app?vid=1f5d6817-da92-4702-9da2-1fc138e604d5"},"vehicle_type_id":"4","last_reported":1729081040,"current_range_meters":4400,"station_id":"ce4bhrh2rcd13ifvqhug","pricing_plan_id":"cebpf4jnsgd1na2vs0mg"},{"bike_id":"ad0f25b9-b319-4bb2-9d92-1d0280998e8e","system_id":"levelo_inurba_marseille","lat":43.28701,"lon":5.3998,"is_reserved":false,"is_disabled":false,"rental_uris":{"android":"levelo://app?vid=ad0f25b9-b319-4bb2-9d92-1d0280998e8e","ios":"levelo://app?vid=ad0f25b9-b319-4bb2-9d92-1d0280998e8e"},"vehicle_type_id":"4","last_reported":1729081040,"current_range_meters":2000,"station_id":"ce4bho92rcd13ifvqh3g","pricing_plan_id":"cebpf4jnsgd1na2vs0mg"},{"bike_id":"3e6761da-2955-48d0-b4a6-5188b735c9d7","system_id":"levelo_inurba_marseille","lat":43.27054,"lon":5.40263,"is_reserved":false,"is_disabled":false,"rental_uris":{"android":"levelo://app?vid=3e6761da-2955-48d0-b4a6-5188b735c9d7","ios":"levelo://app?vid=3e6761da-2955-48d0-b4a6-5188b735c9d7"},"vehicle_type_id":"4","last_reported":1729081040,"current_range_meters":31200,"station_id":"ce4bhk92rcd13ifvqgc0","pricing_plan_id":"cebpf4jnsgd1na2vs0mg"},{"bike_id":"f79d4da0-23c8-4a70-bf9c-c31122668a9a","system_id":"levelo_inurba_marseille","lat":43.29785,"lon":5.37112,"is_reserved":false,"is_disabled":false,"rental_uris":{"android":"levelo://app?vid=f79d4da0-23c8-4a70-bf9c-c31122668a9a","ios":"levelo://app?vid=f79d4da0-23c8-4a70-bf9c-c31122668a9a"},"vehicle_type_id":"4","last_reported":1729081040,"current_range_meters":14400,"station_id":"ce4bgop2rcd13ifvqc1g","pricing_plan_id":"cebpf4jnsgd1na2vs0mg"},{"bike_id":"292b9425-1372-40d4-bf0a-fe57aa779a41","system_id":"levelo_inurba_marseille","lat":43.23061,"lon":5.35499,"is_reserved":false,"is_disabled":false,"rental_uris":{"android":"levelo://app?vid=292b9425-1372-40d4-bf0a-fe57aa779a41","ios":"levelo://app?vid=292b9425-1372-40d4-bf0a-fe57aa779a41"},"vehicle_type_id":"4","last_reported":1729081040,"current_range_meters":28400,"station_id":"cpo3342slgdg3j2ifvpg","pricing_plan_id":"cebpf4jnsgd1na2vs0mg"},{"bike_id":"39c42b68-651d-4417-a824-d90f355b49e8","system_id":"levelo_inurba_marseille","lat":43.25122,"lon":5.40316,"is_reserved":false,"is_disabled":false,"rental_uris":{"android":"levelo://app?vid=39c42b68-651d-4417-a824-d90f355b49e8","ios":"levelo://app?vid=39c42b68-651d-4417-a824-d90f355b49e8"},"vehicle_type_id":"4","last_reported":1729081040,"current_range_meters":19600,"station_id":"ce4bhlh2rcd13ifvqgig","pricing_plan_id":"cebpf4jnsgd1na2vs0mg"},{"bike_id":"51190ab5-8077-48fc-aba0-6ae2551f2882","system_id":"levelo_inurba_marseille","lat":43.31345,"lon":5.36718,"is_reserved":false,"is_disabled":false,"rental_uris":{"android":"levelo://app?vid=51190ab5-8077-48fc-aba0-6ae2551f2882","ios":"levelo://app?vid=51190ab5-8077-48fc-aba0-6ae2551f2882"},"vehicle_type_id":"4","last_reported":1729081040,"current_range_meters":34000,"station_id":"ce4bgr92rcd13ifvqc6g","pricing_plan_id":"cebpf4jnsgd1na2vs0mg"},{"bike_id":"a343d11d-6050-407b-a4a8-b02c3bfc4602","system_id":"levelo_inurba_marseille","lat":43.30102,"lon":5.39079,"is_reserved":false,"is_disabled":false,"rental_uris":{"android":"levelo://app?vid=a343d11d-6050-407b-a4a8-b02c3bfc4602","ios":"levelo://app?vid=a343d11d-6050-407b-a4a8-b02c3bfc4602"},"vehicle_type_id":"4","last_reported":1729081040,"current_range_meters":22800,"station_id":"ce4bh192rcd13ifvqdb0","pricing_plan_id":"cebpf4jnsgd1na2vs0mg"},{"bike_id":"6992855a-4174-472a-897b-c11eeeb6bb55","system_id":"levelo_inurba_marseille","lat":43.30425,"lon":5.39753,"is_reserved":false,"is_disabled":false,"rental_uris":{"android":"levelo://app?vid=6992855a-4174-472a-897b-c11eeeb6bb55","ios":"levelo://app?vid=6992855a-4174-472a-897b-c11eeeb6bb55"},"vehicle_type_id":"4","last_reported":1729081040,"current_range_meters":38800,"station_id":"ce4bh092rcd13ifvqd20","pricing_plan_id":"cebpf4jnsgd1na2vs0mg"},{"bike_id":"c3db3ae3-9bac-4a3b-ac4f-421f8a36dea0","system_id":"levelo_inurba_marseille","lat":43.32649,"lon":5.41005,"is_reserved":false,"is_disabled":false,"rental_uris":{"android":"levelo://app?vid=c3db3ae3-9bac-4a3b-ac4f-421f8a36dea0","ios":"levelo://app?vid=c3db3ae3-9bac-4a3b-ac4f-421f8a36dea0"},"vehicle_type_id":"4","last_reported":1729081040,"current_range_meters":37600,"station_id":"ce4bhpp2rcd13ifvqhgg","pricing_plan_id":"cebpf4jnsgd1na2vs0mg"},{"bike_id":"baa409bf-3c79-4b8d-8c7a-b693bb33f5e9","system_id":"levelo_inurba_marseille","lat":43.28444,"lon":5.39198,"is_reserved":false,"is_disabled":false,"rental_uris":{"android":"levelo://app?vid=baa409bf-3c79-4b8d-8c7a-b693bb33f5e9","ios":"levelo://app?vid=baa409bf-3c79-4b8d-8c7a-b693bb33f5e9"},"vehicle_type_id":"4","last_reported":1729081040,"current_range_meters":16000,"station_id":"ce4bhoh2rcd13ifvqh5g","pricing_plan_id":"cebpf4jnsgd1na2vs0mg"},{"bike_id":"6ace01bb-9b94-4600-8785-8619a2548a91","system_id":"levelo_inurba_marseille","lat":43.23158,"lon":5.43704,"is_reserved":false,"is_disabled":false,"rental_uris":{"android":"levelo://app?vid=6ace01bb-9b94-4600-8785-8619a2548a91","ios":"levelo://app?vid=6ace01bb-9b94-4600-8785-8619a2548a91"},"vehicle_type_id":"4","last_reported":1729081040,"current_range_meters":38800,"station_id":"ce4bhmp2rcd13ifvqgog","pricing_plan_id":"cebpf4jnsgd1na2vs0mg"},{"bike_id":"d286d16b-d7b6-4f6a-a21c-cf0d612f24d3","system_id":"levelo_inurba_marseille","lat":43.30564,"lon":5.39726,"is_reserved":false,"is_disabled":false,"rental_uris":{"android":"levelo://app?vid=d286d16b-d7b6-4f6a-a21c-cf0d612f24d3","ios":"levelo://app?vid=d286d16b-d7b6-4f6a-a21c-cf0d612f24d3"},"vehicle_type_id":"4","last_reported":1729081040,"current_range_meters":25600,"station_id":"ce4bh092rcd13ifvqd20","pricing_plan_id":"cebpf4jnsgd1na2vs0mg"},{"bike_id":"d02b9ad1-c551-432f-9b15-e8a35d3f6f78","system_id":"levelo_inurba_marseille","lat":43.30887,"lon":5.37191,"is_reserved":false,"is_disabled":false,"rental_uris":{"android":"levelo://app?vid=d02b9ad1-c551-432f-9b15-e8a35d3f6f78","ios":"levelo://app?vid=d02b9ad1-c551-432f-9b15-e8a35d3f6f78"},"vehicle_type_id":"4","last_reported":1729081040,"current_range_meters":34800,"station_id":"ce4bguh2rcd13ifvqckg","pricing_plan_id":"cebpf4jnsgd1na2vs0mg"},{"bike_id":"29276928-537c-4d1f-9e2d-828e7530afa5","system_id":"levelo_inurba_marseille","lat":43.30427,"lon":5.38881,"is_reserved":false,"is_disabled":false,"rental_uris":{"android":"levelo://app?vid=29276928-537c-4d1f-9e2d-828e7530afa5","ios":"levelo://app?vid=29276928-537c-4d1f-9e2d-828e7530afa5"},"vehicle_type_id":"4","last_reported":1729081040,"current_range_meters":33200,"station_id":"ce4bgk12rcd13ifvqbi0","pricing_plan_id":"cebpf4jnsgd1na2vs0mg"},{"bike_id":"4b39118f-bb62-406b-9203-0b8ddf9c99cc","system_id":"levelo_inurba_marseille","lat":43.22934,"lon":5.35378,"is_reserved":false,"is_disabled":false,"rental_uris":{"android":"levelo://app?vid=4b39118f-bb62-406b-9203-0b8ddf9c99cc","ios":"levelo://app?vid=4b39118f-bb62-406b-9203-0b8ddf9c99cc"},"vehicle_type_id":"4","last_reported":1729081040,"current_range_meters":17600,"station_id":"cpo3532slgdg3j2ikp40","pricing_plan_id":"cebpf4jnsgd1na2vs0mg"},{"bike_id":"f17c1e24-4a12-4901-8b26-0249124958ae","system_id":"levelo_inurba_marseille","lat":43.30358,"lon":5.41875,"is_reserved":false,"is_disabled":false,"rental_uris":{"android":"levelo://app?vid=f17c1e24-4a12-4901-8b26-0249124958ae","ios":"levelo://app?vid=f17c1e24-4a12-4901-8b26-0249124958ae"},"vehicle_type_id":"4","last_reported":1729081040,"current_range_meters":9600,"station_id":"ce4bhop2rcd13ifvqh7g","pricing_plan_id":"cebpf4jnsgd1na2vs0mg"},{"bike_id":"90d2ac56-7f61-4910-82b9-d6f03947a44e","system_id":"levelo_inurba_marseille","lat":43.29036,"lon":5.36879,"is_reserved":false,"is_disabled":false,"rental_uris":{"android":"levelo://app?vid=90d2ac56-7f61-4910-82b9-d6f03947a44e","ios":"levelo://app?vid=90d2ac56-7f61-4910-82b9-d6f03947a44e"},"vehicle_type_id":"4","last_reported":1729081040,"current_range_meters":23200,"station_id":"ce4bhb92rcd13ifvqen0","pricing_plan_id":"cebpf4jnsgd1na2vs0mg"},{"bike_id":"18fae231-f0eb-45db-9d60-2e85a3e71119","system_id":"levelo_inurba_marseille","lat":43.23196,"lon":5.3998,"is_reserved":false,"is_disabled":false,"rental_uris":{"android":"levelo://app?vid=18fae231-f0eb-45db-9d60-2e85a3e71119","ios":"levelo://app?vid=18fae231-f0eb-45db-9d60-2e85a3e71119"},"vehicle_type_id":"4","last_reported":1729081040,"current_range_meters":38800,"station_id":"ce4bhn12rcd13ifvqgqg","pricing_plan_id":"cebpf4jnsgd1na2vs0mg"},{"bike_id":"2f520745-4998-4890-b566-ec4bc91f45ff","system_id":"levelo_inurba_marseille","lat":43.30137,"lon":5.37424,"is_reserved":false,"is_disabled":false,"rental_uris":{"android":"levelo://app?vid=2f520745-4998-4890-b566-ec4bc91f45ff","ios":"levelo://app?vid=2f520745-4998-4890-b566-ec4bc91f45ff"},"vehicle_type_id":"4","last_reported":1729081040,"current_range_meters":32000,"station_id":"ce4bgs92rcd13ifvqcc0","pricing_plan_id":"cebpf4jnsgd1na2vs0mg"},{"bike_id":"a9d80141-cb04-4f88-bcc5-9763572e3517","system_id":"levelo_inurba_marseille","lat":43.23194,"lon":5.35546,"is_reserved":false,"is_disabled":false,"rental_uris":{"android":"levelo://app?vid=a9d80141-cb04-4f88-bcc5-9763572e3517","ios":"levelo://app?vid=a9d80141-cb04-4f88-bcc5-9763572e3517"},"vehicle_type_id":"4","last_reported":1729081040,"current_range_meters":37600,"station_id":"ce4bhu92rcd13ifvqi70","pricing_plan_id":"cebpf4jnsgd1na2vs0mg"},{"bike_id":"99709067-cea9-41de-8a71-aa3d20ec63c6","system_id":"levelo_inurba_marseille","lat":43.32295,"lon":5.38268,"is_reserved":false,"is_disabled":false,"rental_uris":{"android":"levelo://app?vid=99709067-cea9-41de-8a71-aa3d20ec63c6","ios":"levelo://app?vid=99709067-cea9-41de-8a71-aa3d20ec63c6"},"vehicle_type_id":"4","last_reported":1729081040,"current_range_meters":4400,"station_id":"ce4bhr12rcd13ifvqhqg","pricing_plan_id":"cebpf4jnsgd1na2vs0mg"},{"bike_id":"d06f24f3-1961-4c39-8b26-c72733863fe9","system_id":"levelo_inurba_marseille","lat":43.33803,"lon":5.37398,"is_reserved":false,"is_disabled":false,"rental_uris":{"android":"levelo://app?vid=d06f24f3-1961-4c39-8b26-c72733863fe9","ios":"levelo://app?vid=d06f24f3-1961-4c39-8b26-c72733863fe9"},"vehicle_type_id":"4","last_reported":1729081040,"current_range_meters":36800,"station_id":"","pricing_plan_id":"cebpf4jnsgd1na2vs0mg"},{"bike_id":"db45f48c-e71c-40dd-b1b4-60a43af2c942","system_id":"levelo_inurba_marseille","lat":43.29674,"lon":5.37295,"is_reserved":false,"is_disabled":false,"rental_uris":{"android":"levelo://app?vid=db45f48c-e71c-40dd-b1b4-60a43af2c942","ios":"levelo://app?vid=db45f48c-e71c-40dd-b1b4-60a43af2c942"},"vehicle_type_id":"4","last_reported":1729081040,"current_range_meters":26800,"station_id":"ce4bgk12rcd13ifvqbj0","pricing_plan_id":"cebpf4jnsgd1na2vs0mg"},{"bike_id":"d3c87ae6-422d-455b-8797-f7d19d0cd4f9","system_id":"levelo_inurba_marseille","lat":43.24652,"lon":5.38895,"is_reserved":false,"is_disabled":false,"rental_uris":{"android":"levelo://app?vid=d3c87ae6-422d-455b-8797-f7d19d0cd4f9","ios":"levelo://app?vid=d3c87ae6-422d-455b-8797-f7d19d0cd4f9"},"vehicle_type_id":"4","last_reported":1729081040,"current_range_meters":38400,"station_id":"ce4bhg12rcd13ifvqf60","pricing_plan_id":"cebpf4jnsgd1na2vs0mg"},{"bike_id":"7de7e9d3-1985-4d76-bef6-76bc63f2ecc8","system_id":"levelo_inurba_marseille","lat":43.30589,"lon":5.39355,"is_reserved":false,"is_disabled":false,"rental_uris":{"android":"levelo://app?vid=7de7e9d3-1985-4d76-bef6-76bc63f2ecc8","ios":"levelo://app?vid=7de7e9d3-1985-4d76-bef6-76bc63f2ecc8"},"vehicle_type_id":"4","last_reported":1729081040,"current_range_meters":30800,"station_id":"ce4bh0p2rcd13ifvqd80","pricing_plan_id":"cebpf4jnsgd1na2vs0mg"},{"bike_id":"c8556234-a327-4571-a3b0-cad2786172ac","system_id":"levelo_inurba_marseille","lat":43.29851,"lon":5.36277,"is_reserved":false,"is_disabled":false,"rental_uris":{"android":"levelo://app?vid=c8556234-a327-4571-a3b0-cad2786172ac","ios":"levelo://app?vid=c8556234-a327-4571-a3b0-cad2786172ac"},"vehicle_type_id":"4","last_reported":1729081040,"current_range_meters":38800,"station_id":"ce4bgpp2rcd13ifvqc3g","pricing_plan_id":"cebpf4jnsgd1na2vs0mg"},{"bike_id":"d41309ab-1a1f-4395-acaa-455483c3f8e1","system_id":"levelo_inurba_marseille","lat":43.23193,"lon":5.3556,"is_reserved":false,"is_disabled":false,"rental_uris":{"android":"levelo://app?vid=d41309ab-1a1f-4395-acaa-455483c3f8e1","ios":"levelo://app?vid=d41309ab-1a1f-4395-acaa-455483c3f8e1"},"vehicle_type_id":"4","last_reported":1729081040,"current_range_meters":27600,"station_id":"ce4bhu92rcd13ifvqi70","pricing_plan_id":"cebpf4jnsgd1na2vs0mg"},{"bike_id":"2e13e338-7f75-4dff-a996-3517d8969c0d","system_id":"levelo_inurba_marseille","lat":43.30133,"lon":5.37421,"is_reserved":false,"is_disabled":false,"rental_uris":{"android":"levelo://app?vid=2e13e338-7f75-4dff-a996-3517d8969c0d","ios":"levelo://app?vid=2e13e338-7f75-4dff-a996-3517d8969c0d"},"vehicle_type_id":"4","last_reported":1729081040,"current_range_meters":16800,"station_id":"ce4bgs92rcd13ifvqcc0","pricing_plan_id":"cebpf4jnsgd1na2vs0mg"},{"bike_id":"0beee719-bd69-491d-ab4f-202b7c488cf5","system_id":"levelo_inurba_marseille","lat":43.30539,"lon":5.36704,"is_reserved":false,"is_disabled":false,"rental_uris":{"android":"levelo://app?vid=0beee719-bd69-491d-ab4f-202b7c488cf5","ios":"levelo://app?vid=0beee719-bd69-491d-ab4f-202b7c488cf5"},"vehicle_type_id":"4","last_reported":1729081040,"current_range_meters":37600,"station_id":"ce4bgrp2rcd13ifvqc9g","pricing_plan_id":"cebpf4jnsgd1na2vs0mg"},{"bike_id":"94902fb1-a766-4d90-8978-e732725ca583","system_id":"levelo_inurba_marseille","lat":43.23184,"lon":5.39982,"is_reserved":false,"is_disabled":false,"rental_uris":{"android":"levelo://app?vid=94902fb1-a766-4d90-8978-e732725ca583","ios":"levelo://app?vid=94902fb1-a766-4d90-8978-e732725ca583"},"vehicle_type_id":"4","last_reported":1729081040,"current_range_meters":38800,"station_id":"ce4bhn12rcd13ifvqgqg","pricing_plan_id":"cebpf4jnsgd1na2vs0mg"},{"bike_id":"b6ba18ac-f9f7-47ce-97ee-a57309932db4","system_id":"levelo_inurba_marseille","lat":43.27811,"lon":5.40709,"is_reserved":false,"is_disabled":false,"rental_uris":{"android":"levelo://app?vid=b6ba18ac-f9f7-47ce-97ee-a57309932db4","ios":"levelo://app?vid=b6ba18ac-f9f7-47ce-97ee-a57309932db4"},"vehicle_type_id":"4","last_reported":1729081040,"current_range_meters":38800,"station_id":"ce4bhnh2rcd13ifvqgtg","pricing_plan_id":"cebpf4jnsgd1na2vs0mg"},{"bike_id":"a65d6fd2-3c23-4923-876a-bfcd2a893779","system_id":"levelo_inurba_marseille","lat":43.29917,"lon":5.3748,"is_reserved":false,"is_disabled":false,"rental_uris":{"android":"levelo://app?vid=a65d6fd2-3c23-4923-876a-bfcd2a893779","ios":"levelo://app?vid=a65d6fd2-3c23-4923-876a-bfcd2a893779"},"vehicle_type_id":"4","last_reported":1729081040,"current_range_meters":38800,"station_id":"ce4bgjh2rcd13ifvqbg0","pricing_plan_id":"cebpf4jnsgd1na2vs0mg"},{"bike_id":"665c3f8e-8be5-4d80-a8dc-dbb11d59399c","system_id":"levelo_inurba_marseille","lat":43.33027,"lon":5.39035,"is_reserved":false,"is_disabled":false,"rental_uris":{"android":"levelo://app?vid=665c3f8e-8be5-4d80-a8dc-dbb11d59399c","ios":"levelo://app?vid=665c3f8e-8be5-4d80-a8dc-dbb11d59399c"},"vehicle_type_id":"4","last_reported":1729081040,"current_range_meters":37600,"station_id":"ce4bhr92rcd13ifvqhrg","pricing_plan_id":"cebpf4jnsgd1na2vs0mg"},{"bike_id":"38aef28f-2c42-42cb-a94d-1a10aa09402c","system_id":"levelo_inurba_marseille","lat":43.29423,"lon":5.38618,"is_reserved":false,"is_disabled":false,"rental_uris":{"android":"levelo://app?vid=38aef28f-2c42-42cb-a94d-1a10aa09402c","ios":"levelo://app?vid=38aef28f-2c42-42cb-a94d-1a10aa09402c"},"vehicle_type_id":"4","last_reported":1729081040,"current_range_meters":4800,"station_id":"ce4bh2h2rcd13ifvqdh0","pricing_plan_id":"cebpf4jnsgd1na2vs0mg"},{"bike_id":"033a7f68-f273-426e-84a9-8a3b2c56f6f5","system_id":"levelo_inurba_marseille","lat":43.35096,"lon":5.36807,"is_reserved":false,"is_disabled":false,"rental_uris":{"android":"levelo://app?vid=033a7f68-f273-426e-84a9-8a3b2c56f6f5","ios":"levelo://app?vid=033a7f68-f273-426e-84a9-8a3b2c56f6f5"},"vehicle_type_id":"4","last_reported":1729081040,"current_range_meters":11600,"station_id":"","pricing_plan_id":"cebpf4jnsgd1na2vs0mg"},{"bike_id":"f0a6be36-6625-407f-9edf-9da92c056327","system_id":"levelo_inurba_marseille","lat":43.28439,"lon":5.3749,"is_reserved":false,"is_disabled":false,"rental_uris":{"android":"levelo://app?vid=f0a6be36-6625-407f-9edf-9da92c056327","ios":"levelo://app?vid=f0a6be36-6625-407f-9edf-9da92c056327"},"vehicle_type_id":"4","last_reported":1729081040,"current_range_meters":9600,"station_id":"ce4bha12rcd13ifvqee0","pricing_plan_id":"cebpf4jnsgd1na2vs0mg"},{"bike_id":"a0c51bc2-039e-4643-8c93-e66ceaf6e95f","system_id":"levelo_inurba_marseille","lat":43.27674,"lon":5.38869,"is_reserved":false,"is_disabled":false,"rental_uris":{"android":"levelo://app?vid=a0c51bc2-039e-4643-8c93-e66ceaf6e95f","ios":"levelo://app?vid=a0c51bc2-039e-4643-8c93-e66ceaf6e95f"},"vehicle_type_id":"4","last_reported":1729081040,"current_range_meters":26800,"station_id":"ce4bhi12rcd13ifvqfo0","pricing_plan_id":"cebpf4jnsgd1na2vs0mg"},{"bike_id":"0cac5042-2075-4b66-8658-3a0f53449b77","system_id":"levelo_inurba_marseille","lat":43.30142,"lon":5.37416,"is_reserved":false,"is_disabled":false,"rental_uris":{"android":"levelo://app?vid=0cac5042-2075-4b66-8658-3a0f53449b77","ios":"levelo://app?vid=0cac5042-2075-4b66-8658-3a0f53449b77"},"vehicle_type_id":"4","last_reported":1729081040,"current_range_meters":31200,"station_id":"ce4bgs92rcd13ifvqcc0","pricing_plan_id":"cebpf4jnsgd1na2vs0mg"},{"bike_id":"3cf148d3-e430-4302-b5e1-2adde63db40c","system_id":"levelo_inurba_marseille","lat":43.26205,"lon":5.37929,"is_reserved":false,"is_disabled":false,"rental_uris":{"android":"levelo://app?vid=3cf148d3-e430-4302-b5e1-2adde63db40c","ios":"levelo://app?vid=3cf148d3-e430-4302-b5e1-2adde63db40c"},"vehicle_type_id":"4","last_reported":1729081040,"current_range_meters":17600,"station_id":"ce4bhjp2rcd13ifvqg90","pricing_plan_id":"cebpf4jnsgd1na2vs0mg"},{"bike_id":"1af2813b-98a0-4b62-aaf8-89652b30f639","system_id":"levelo_inurba_marseille","lat":43.22934,"lon":5.35375,"is_reserved":false,"is_disabled":false,"rental_uris":{"android":"levelo://app?vid=1af2813b-98a0-4b62-aaf8-89652b30f639","ios":"levelo://app?vid=1af2813b-98a0-4b62-aaf8-89652b30f639"},"vehicle_type_id":"4","last_reported":1729081040,"current_range_meters":25200,"station_id":"cpo3532slgdg3j2ikp40","pricing_plan_id":"cebpf4jnsgd1na2vs0mg"},{"bike_id":"12316f30-8023-4797-928a-90a3eeeb08c3","system_id":"levelo_inurba_marseille","lat":43.30442,"lon":5.38893,"is_reserved":false,"is_disabled":false,"rental_uris":{"android":"levelo://app?vid=12316f30-8023-4797-928a-90a3eeeb08c3","ios":"levelo://app?vid=12316f30-8023-4797-928a-90a3eeeb08c3"},"vehicle_type_id":"4","last_reported":1729081040,"current_range_meters":8000,"station_id":"ce4bgk12rcd13ifvqbi0","pricing_plan_id":"cebpf4jnsgd1na2vs0mg"},{"bike_id":"46c000b4-0623-41d7-94e9-ccd778089a04","system_id":"levelo_inurba_marseille","lat":43.26805,"lon":5.40268,"is_reserved":false,"is_disabled":false,"rental_uris":{"android":"levelo://app?vid=46c000b4-0623-41d7-94e9-ccd778089a04","ios":"levelo://app?vid=46c000b4-0623-41d7-94e9-ccd778089a04"},"vehicle_type_id":"4","last_reported":1729081040,"current_range_meters":18000,"station_id":"ce501612rcd8frsf0b60","pricing_plan_id":"cebpf4jnsgd1na2vs0mg"},{"bike_id":"7d133e9c-440c-4db0-aaf0-2f0ff662b4fa","system_id":"levelo_inurba_marseille","lat":43.24545,"lon":5.39529,"is_reserved":false,"is_disabled":false,"rental_uris":{"android":"levelo://app?vid=7d133e9c-440c-4db0-aaf0-2f0ff662b4fa","ios":"levelo://app?vid=7d133e9c-440c-4db0-aaf0-2f0ff662b4fa"},"vehicle_type_id":"4","last_reported":1729081040,"current_range_meters":38800,"station_id":"ce4bhlp2rcd13ifvqgjg","pricing_plan_id":"cebpf4jnsgd1na2vs0mg"},{"bike_id":"f93454e1-a669-4c63-a4ca-b572042c7971","system_id":"levelo_inurba_marseille","lat":43.23189,"lon":5.35561,"is_reserved":false,"is_disabled":false,"rental_uris":{"android":"levelo://app?vid=f93454e1-a669-4c63-a4ca-b572042c7971","ios":"levelo://app?vid=f93454e1-a669-4c63-a4ca-b572042c7971"},"vehicle_type_id":"4","last_reported":1729081040,"current_range_meters":20000,"station_id":"ce4bhu92rcd13ifvqi70","pricing_plan_id":"cebpf4jnsgd1na2vs0mg"},{"bike_id":"2af5859f-047a-4381-aac2-e3bd49c33a20","system_id":"levelo_inurba_marseille","lat":43.25119,"lon":5.40326,"is_reserved":false,"is_disabled":false,"rental_uris":{"android":"levelo://app?vid=2af5859f-047a-4381-aac2-e3bd49c33a20","ios":"levelo://app?vid=2af5859f-047a-4381-aac2-e3bd49c33a20"},"vehicle_type_id":"4","last_reported":1729081040,"current_range_meters":15200,"station_id":"ce4bhlh2rcd13ifvqgig","pricing_plan_id":"cebpf4jnsgd1na2vs0mg"},{"bike_id":"f8177542-bc91-4598-9785-8666a953dd6e","system_id":"levelo_inurba_marseille","lat":43.30243,"lon":5.40066,"is_reserved":false,"is_disabled":false,"rental_uris":{"android":"levelo://app?vid=f8177542-bc91-4598-9785-8666a953dd6e","ios":"levelo://app?vid=f8177542-bc91-4598-9785-8666a953dd6e"},"vehicle_type_id":"4","last_reported":1729081040,"current_range_meters":38800,"station_id":"ce4bgvh2rcd13ifvqcs0","pricing_plan_id":"cebpf4jnsgd1na2vs0mg"},{"bike_id":"2b43ba77-65a0-4518-8886-2e24500744f0","system_id":"levelo_inurba_marseille","lat":43.32375,"lon":5.38883,"is_reserved":false,"is_disabled":false,"rental_uris":{"android":"levelo://app?vid=2b43ba77-65a0-4518-8886-2e24500744f0","ios":"levelo://app?vid=2b43ba77-65a0-4518-8886-2e24500744f0"},"vehicle_type_id":"4","last_reported":1729081040,"current_range_meters":29600,"station_id":"ce4bhqp2rcd13ifvqhog","pricing_plan_id":"cebpf4jnsgd1na2vs0mg"},{"bike_id":"35e7b281-d52f-4de7-933c-d2b9bc62d3ed","system_id":"levelo_inurba_marseille","lat":43.23183,"lon":5.39977,"is_reserved":false,"is_disabled":false,"rental_uris":{"android":"levelo://app?vid=35e7b281-d52f-4de7-933c-d2b9bc62d3ed","ios":"levelo://app?vid=35e7b281-d52f-4de7-933c-d2b9bc62d3ed"},"vehicle_type_id":"4","last_reported":1729081040,"current_range_meters":14800,"station_id":"ce4bhn12rcd13ifvqgqg","pricing_plan_id":"cebpf4jnsgd1na2vs0mg"},{"bike_id":"72c5f2ae-d980-499f-8459-f8d20438ff66","system_id":"levelo_inurba_marseille","lat":43.32544,"lon":5.41435,"is_reserved":false,"is_disabled":false,"rental_uris":{"android":"levelo://app?vid=72c5f2ae-d980-499f-8459-f8d20438ff66","ios":"levelo://app?vid=72c5f2ae-d980-499f-8459-f8d20438ff66"},"vehicle_type_id":"4","last_reported":1729081040,"current_range_meters":22800,"station_id":"ce4bhq12rcd13ifvqhhg","pricing_plan_id":"cebpf4jnsgd1na2vs0mg"},{"bike_id":"9a18534a-dc28-4877-89d5-9c39765e3cf6","system_id":"levelo_inurba_marseille","lat":43.28939,"lon":5.36628,"is_reserved":false,"is_disabled":false,"rental_uris":{"android":"levelo://app?vid=9a18534a-dc28-4877-89d5-9c39765e3cf6","ios":"levelo://app?vid=9a18534a-dc28-4877-89d5-9c39765e3cf6"},"vehicle_type_id":"4","last_reported":1729081040,"current_range_meters":21600,"station_id":"ce4bhap2rcd13ifvqek0","pricing_plan_id":"cebpf4jnsgd1na2vs0mg"},{"bike_id":"172d1eb7-31aa-4d45-9c79-93e9ed1f0f50","system_id":"levelo_inurba_marseille","lat":43.30913,"lon":5.36856,"is_reserved":false,"is_disabled":false,"rental_uris":{"android":"levelo://app?vid=172d1eb7-31aa-4d45-9c79-93e9ed1f0f50","ios":"levelo://app?vid=172d1eb7-31aa-4d45-9c79-93e9ed1f0f50"},"vehicle_type_id":"4","last_reported":1729081040,"current_range_meters":38800,"station_id":"ce4bgn92rcd13ifvqbvg","pricing_plan_id":"cebpf4jnsgd1na2vs0mg"},{"bike_id":"353a08f3-d971-4f9d-9102-eb081512539d","system_id":"levelo_inurba_marseille","lat":43.337444,"lon":5.374475,"is_reserved":false,"is_disabled":false,"rental_uris":{"android":"levelo://app?vid=353a08f3-d971-4f9d-9102-eb081512539d","ios":"levelo://app?vid=353a08f3-d971-4f9d-9102-eb081512539d"},"vehicle_type_id":"4","last_reported":1729081040,"current_range_meters":38800,"station_id":"","pricing_plan_id":"cebpf4jnsgd1na2vs0mg"},{"bike_id":"1e3f08a4-099c-4a6f-bf64-7f629976eb25","system_id":"levelo_inurba_marseille","lat":43.25728,"lon":5.41109,"is_reserved":false,"is_disabled":false,"rental_uris":{"android":"levelo://app?vid=1e3f08a4-099c-4a6f-bf64-7f629976eb25","ios":"levelo://app?vid=1e3f08a4-099c-4a6f-bf64-7f629976eb25"},"vehicle_type_id":"4","last_reported":1729081040,"current_range_meters":18000,"station_id":"ce4bhkp2rcd13ifvqgd0","pricing_plan_id":"cebpf4jnsgd1na2vs0mg"},{"bike_id":"eb149e04-552c-462a-981d-38c6c1f898b5","system_id":"levelo_inurba_marseille","lat":43.23197,"lon":5.35545,"is_reserved":false,"is_disabled":false,"rental_uris":{"android":"levelo://app?vid=eb149e04-552c-462a-981d-38c6c1f898b5","ios":"levelo://app?vid=eb149e04-552c-462a-981d-38c6c1f898b5"},"vehicle_type_id":"4","last_reported":1729081040,"current_range_meters":2800,"station_id":"ce4bhu92rcd13ifvqi70","pricing_plan_id":"cebpf4jnsgd1na2vs0mg"},{"bike_id":"ae268a20-89e6-41d1-a5f2-0688af861109","system_id":"levelo_inurba_marseille","lat":43.26947,"lon":5.40245,"is_reserved":false,"is_disabled":false,"rental_uris":{"android":"levelo://app?vid=ae268a20-89e6-41d1-a5f2-0688af861109","ios":"levelo://app?vid=ae268a20-89e6-41d1-a5f2-0688af861109"},"vehicle_type_id":"4","last_reported":1729081040,"current_range_meters":13600,"station_id":"cjm6bp8fraef2m0cb0m0","pricing_plan_id":"cebpf4jnsgd1na2vs0mg"},{"bike_id":"3c4104b7-67f5-4e07-866d-b6f9395a3a4d","system_id":"levelo_inurba_marseille","lat":43.29861,"lon":5.37484,"is_reserved":false,"is_disabled":false,"rental_uris":{"android":"levelo://app?vid=3c4104b7-67f5-4e07-866d-b6f9395a3a4d","ios":"levelo://app?vid=3c4104b7-67f5-4e07-866d-b6f9395a3a4d"},"vehicle_type_id":"4","last_reported":1729081040,"current_range_meters":38800,"station_id":"ce4bgjh2rcd13ifvqbg0","pricing_plan_id":"cebpf4jnsgd1na2vs0mg"},{"bike_id":"5b5bc22c-766f-4316-a64b-689ce6668696","system_id":"levelo_inurba_marseille","lat":43.31066,"lon":5.40088,"is_reserved":false,"is_disabled":false,"rental_uris":{"android":"levelo://app?vid=5b5bc22c-766f-4316-a64b-689ce6668696","ios":"levelo://app?vid=5b5bc22c-766f-4316-a64b-689ce6668696"},"vehicle_type_id":"4","last_reported":1729081040,"current_range_meters":34000,"station_id":"","pricing_plan_id":"cebpf4jnsgd1na2vs0mg"},{"bike_id":"523a355c-bfd6-4bdc-91fc-2d8a331ccd8f","system_id":"levelo_inurba_marseille","lat":43.30312,"lon":5.36894,"is_reserved":false,"is_disabled":false,"rental_uris":{"android":"levelo://app?vid=523a355c-bfd6-4bdc-91fc-2d8a331ccd8f","ios":"levelo://app?vid=523a355c-bfd6-4bdc-91fc-2d8a331ccd8f"},"vehicle_type_id":"4","last_reported":1729081040,"current_range_meters":16800,"station_id":"ce4bgqh2rcd13ifvqc5g","pricing_plan_id":"cebpf4jnsgd1na2vs0mg"},{"bike_id":"c1d86f49-8774-4439-b5e2-0912985649d3","system_id":"levelo_inurba_marseille","lat":43.24996,"lon":5.38938,"is_reserved":false,"is_disabled":false,"rental_uris":{"android":"levelo://app?vid=c1d86f49-8774-4439-b5e2-0912985649d3","ios":"levelo://app?vid=c1d86f49-8774-4439-b5e2-0912985649d3"},"vehicle_type_id":"4","last_reported":1729081040,"current_range_meters":30400,"station_id":"ce4bhgp2rcd13ifvqfd0","pricing_plan_id":"cebpf4jnsgd1na2vs0mg"},{"bike_id":"8c2b3e22-a321-4235-84ed-a67ca8b98046","system_id":"levelo_inurba_marseille","lat":43.31705,"lon":5.37761,"is_reserved":false,"is_disabled":false,"rental_uris":{"android":"levelo://app?vid=8c2b3e22-a321-4235-84ed-a67ca8b98046","ios":"levelo://app?vid=8c2b3e22-a321-4235-84ed-a67ca8b98046"},"vehicle_type_id":"4","last_reported":1729081040,"current_range_meters":33200,"station_id":"ce4bgth2rcd13ifvqch0","pricing_plan_id":"cebpf4jnsgd1na2vs0mg"},{"bike_id":"88628f6b-c1f5-4db8-9226-a87fefa07624","system_id":"levelo_inurba_marseille","lat":43.28967,"lon":5.37835,"is_reserved":false,"is_disabled":false,"rental_uris":{"android":"levelo://app?vid=88628f6b-c1f5-4db8-9226-a87fefa07624","ios":"levelo://app?vid=88628f6b-c1f5-4db8-9226-a87fefa07624"},"vehicle_type_id":"4","last_reported":1729081040,"current_range_meters":33200,"station_id":"ce4bh9p2rcd13ifvqed0","pricing_plan_id":"cebpf4jnsgd1na2vs0mg"},{"bike_id":"cfe6f03a-319f-49e9-bc90-83b285b46cac","system_id":"levelo_inurba_marseille","lat":43.31759,"lon":5.39019,"is_reserved":false,"is_disabled":false,"rental_uris":{"android":"levelo://app?vid=cfe6f03a-319f-49e9-bc90-83b285b46cac","ios":"levelo://app?vid=cfe6f03a-319f-49e9-bc90-83b285b46cac"},"vehicle_type_id":"4","last_reported":1729081040,"current_range_meters":38000,"station_id":"ce4bhqp2rcd13ifvqhng","pricing_plan_id":"cebpf4jnsgd1na2vs0mg"},{"bike_id":"e5c53085-18b0-4068-a705-5ab89baff5fa","system_id":"levelo_inurba_marseille","lat":43.30184,"lon":5.36619,"is_reserved":false,"is_disabled":false,"rental_uris":{"android":"levelo://app?vid=e5c53085-18b0-4068-a705-5ab89baff5fa","ios":"levelo://app?vid=e5c53085-18b0-4068-a705-5ab89baff5fa"},"vehicle_type_id":"4","last_reported":1729081040,"current_range_meters":37600,"station_id":"ce4bgrh2rcd13ifvqc8g","pricing_plan_id":"cebpf4jnsgd1na2vs0mg"},{"bike_id":"0123d508-cec9-49bb-8f8c-e3c0ec31b0ce","system_id":"levelo_inurba_marseille","lat":43.29971,"lon":5.38489,"is_reserved":false,"is_disabled":false,"rental_uris":{"android":"levelo://app?vid=0123d508-cec9-49bb-8f8c-e3c0ec31b0ce","ios":"levelo://app?vid=0123d508-cec9-49bb-8f8c-e3c0ec31b0ce"},"vehicle_type_id":"4","last_reported":1729081040,"current_range_meters":26000,"station_id":"ce4bgj92rcd13ifvqbd0","pricing_plan_id":"cebpf4jnsgd1na2vs0mg"},{"bike_id":"f94da947-b1a0-40ed-8143-ed5ebffc5c44","system_id":"levelo_inurba_marseille","lat":43.27956,"lon":5.41051,"is_reserved":false,"is_disabled":false,"rental_uris":{"android":"levelo://app?vid=f94da947-b1a0-40ed-8143-ed5ebffc5c44","ios":"levelo://app?vid=f94da947-b1a0-40ed-8143-ed5ebffc5c44"},"vehicle_type_id":"4","last_reported":1729081040,"current_range_meters":36000,"station_id":"ce4bhnp2rcd13ifvqh0g","pricing_plan_id":"cebpf4jnsgd1na2vs0mg"},{"bike_id":"fe827aa5-39b7-4313-af09-2e4668ae156f","system_id":"levelo_inurba_marseille","lat":43.31357,"lon":5.36715,"is_reserved":false,"is_disabled":false,"rental_uris":{"android":"levelo://app?vid=fe827aa5-39b7-4313-af09-2e4668ae156f","ios":"levelo://app?vid=fe827aa5-39b7-4313-af09-2e4668ae156f"},"vehicle_type_id":"4","last_reported":1729081040,"current_range_meters":36000,"station_id":"ce4bgr92rcd13ifvqc6g","pricing_plan_id":"cebpf4jnsgd1na2vs0mg"},{"bike_id":"f5829e40-b211-4dbc-9caa-24e03bb5a117","system_id":"levelo_inurba_marseille","lat":43.251092,"lon":5.403215,"is_reserved":false,"is_disabled":false,"rental_uris":{"android":"levelo://app?vid=f5829e40-b211-4dbc-9caa-24e03bb5a117","ios":"levelo://app?vid=f5829e40-b211-4dbc-9caa-24e03bb5a117"},"vehicle_type_id":"4","last_reported":1729081040,"current_range_meters":20800,"station_id":"","pricing_plan_id":"cebpf4jnsgd1na2vs0mg"},{"bike_id":"e8c48900-91bb-40dd-ae54-4213ba0efefa","system_id":"levelo_inurba_marseille","lat":43.29573,"lon":5.3752,"is_reserved":false,"is_disabled":false,"rental_uris":{"android":"levelo://app?vid=e8c48900-91bb-40dd-ae54-4213ba0efefa","ios":"levelo://app?vid=e8c48900-91bb-40dd-ae54-4213ba0efefa"},"vehicle_type_id":"4","last_reported":1729081040,"current_range_meters":29600,"station_id":"ce4bgh92rcd13ifvqb50","pricing_plan_id":"cebpf4jnsgd1na2vs0mg"},{"bike_id":"7df5b501-76b7-4ee9-a8e1-f6b7723dc727","system_id":"levelo_inurba_marseille","lat":43.26792,"lon":5.39409,"is_reserved":false,"is_disabled":false,"rental_uris":{"android":"levelo://app?vid=7df5b501-76b7-4ee9-a8e1-f6b7723dc727","ios":"levelo://app?vid=7df5b501-76b7-4ee9-a8e1-f6b7723dc727"},"vehicle_type_id":"4","last_reported":1729081040,"current_range_meters":6000,"station_id":"ce4bhh12rcd13ifvqfg0","pricing_plan_id":"cebpf4jnsgd1na2vs0mg"},{"bike_id":"9aee57aa-4a2c-4ba1-8b0b-3dbf10d502a0","system_id":"levelo_inurba_marseille","lat":43.24174,"lon":5.36401,"is_reserved":false,"is_disabled":false,"rental_uris":{"android":"levelo://app?vid=9aee57aa-4a2c-4ba1-8b0b-3dbf10d502a0","ios":"levelo://app?vid=9aee57aa-4a2c-4ba1-8b0b-3dbf10d502a0"},"vehicle_type_id":"4","last_reported":1729081040,"current_range_meters":3200,"station_id":"cpo36qri1sfpv3e86is0","pricing_plan_id":"cebpf4jnsgd1na2vs0mg"},{"bike_id":"68ac4c07-630f-41a6-9fc6-31f6810fcd32","system_id":"levelo_inurba_marseille","lat":43.30799,"lon":5.43527,"is_reserved":false,"is_disabled":false,"rental_uris":{"android":"levelo://app?vid=68ac4c07-630f-41a6-9fc6-31f6810fcd32","ios":"levelo://app?vid=68ac4c07-630f-41a6-9fc6-31f6810fcd32"},"vehicle_type_id":"4","last_reported":1729081040,"current_range_meters":20800,"station_id":"ce4bhph2rcd13ifvqheg","pricing_plan_id":"cebpf4jnsgd1na2vs0mg"},{"bike_id":"b97868ac-f7fe-420e-8808-9b5dc8d4d72c","system_id":"levelo_inurba_marseille","lat":43.29071,"lon":5.37173,"is_reserved":false,"is_disabled":false,"rental_uris":{"android":"levelo://app?vid=b97868ac-f7fe-420e-8808-9b5dc8d4d72c","ios":"levelo://app?vid=b97868ac-f7fe-420e-8808-9b5dc8d4d72c"},"vehicle_type_id":"4","last_reported":1729081040,"current_range_meters":36400,"station_id":"ce4bh5p2rcd13ifvqe4g","pricing_plan_id":"cebpf4jnsgd1na2vs0mg"},{"bike_id":"f1e41c77-7b00-491a-84f2-4c3a9f8bb90e","system_id":"levelo_inurba_marseille","lat":43.33758,"lon":5.37431,"is_reserved":false,"is_disabled":false,"rental_uris":{"android":"levelo://app?vid=f1e41c77-7b00-491a-84f2-4c3a9f8bb90e","ios":"levelo://app?vid=f1e41c77-7b00-491a-84f2-4c3a9f8bb90e"},"vehicle_type_id":"4","last_reported":1729081040,"current_range_meters":34000,"station_id":"","pricing_plan_id":"cebpf4jnsgd1na2vs0mg"},{"bike_id":"ac29632d-85cc-4735-b3f9-5d959418ac79","system_id":"levelo_inurba_marseille","lat":43.27817,"lon":5.40707,"is_reserved":false,"is_disabled":false,"rental_uris":{"android":"levelo://app?vid=ac29632d-85cc-4735-b3f9-5d959418ac79","ios":"levelo://app?vid=ac29632d-85cc-4735-b3f9-5d959418ac79"},"vehicle_type_id":"4","last_reported":1729081040,"current_range_meters":30400,"station_id":"ce4bhnh2rcd13ifvqgtg","pricing_plan_id":"cebpf4jnsgd1na2vs0mg"},{"bike_id":"c1e3b852-8e55-4055-a0d6-1d067b430b33","system_id":"levelo_inurba_marseille","lat":43.32487,"lon":5.36555,"is_reserved":false,"is_disabled":false,"rental_uris":{"android":"levelo://app?vid=c1e3b852-8e55-4055-a0d6-1d067b430b33","ios":"levelo://app?vid=c1e3b852-8e55-4055-a0d6-1d067b430b33"},"vehicle_type_id":"4","last_reported":1729081040,"current_range_meters":24800,"station_id":"ce4bhs12rcd13ifvqhvg","pricing_plan_id":"cebpf4jnsgd1na2vs0mg"},{"bike_id":"f269126c-1b0b-4a1a-a1d6-f8c3716f5336","system_id":"levelo_inurba_marseille","lat":43.23202,"lon":5.35554,"is_reserved":false,"is_disabled":false,"rental_uris":{"android":"levelo://app?vid=f269126c-1b0b-4a1a-a1d6-f8c3716f5336","ios":"levelo://app?vid=f269126c-1b0b-4a1a-a1d6-f8c3716f5336"},"vehicle_type_id":"4","last_reported":1729081040,"current_range_meters":28000,"station_id":"ce4bhu92rcd13ifvqi70","pricing_plan_id":"cebpf4jnsgd1na2vs0mg"},{"bike_id":"9f09fc68-e7e3-40a6-9cd4-93027dec5241","system_id":"levelo_inurba_marseille","lat":43.272,"lon":5.39175,"is_reserved":false,"is_disabled":false,"rental_uris":{"android":"levelo://app?vid=9f09fc68-e7e3-40a6-9cd4-93027dec5241","ios":"levelo://app?vid=9f09fc68-e7e3-40a6-9cd4-93027dec5241"},"vehicle_type_id":"4","last_reported":1729081040,"current_range_meters":36800,"station_id":"ce4bhhp2rcd13ifvqfm0","pricing_plan_id":"cebpf4jnsgd1na2vs0mg"},{"bike_id":"617ea15b-7e88-40a6-894f-923122654d74","system_id":"levelo_inurba_marseille","lat":43.34144,"lon":5.40902,"is_reserved":false,"is_disabled":false,"rental_uris":{"android":"levelo://app?vid=617ea15b-7e88-40a6-894f-923122654d74","ios":"levelo://app?vid=617ea15b-7e88-40a6-894f-923122654d74"},"vehicle_type_id":"4","last_reported":1729081040,"current_range_meters":12000,"station_id":"ce4bhqh2rcd13ifvqhlg","pricing_plan_id":"cebpf4jnsgd1na2vs0mg"},{"bike_id":"9146fb7e-43c5-457d-bae0-a7333ab1c125","system_id":"levelo_inurba_marseille","lat":43.29041,"lon":5.37563,"is_reserved":false,"is_disabled":false,"rental_uris":{"android":"levelo://app?vid=9146fb7e-43c5-457d-bae0-a7333ab1c125","ios":"levelo://app?vid=9146fb7e-43c5-457d-bae0-a7333ab1c125"},"vehicle_type_id":"4","last_reported":1729081040,"current_range_meters":2000,"station_id":"ce4bh692rcd13ifvqe90","pricing_plan_id":"cebpf4jnsgd1na2vs0mg"},{"bike_id":"a9976100-495a-4635-a9d6-69142401b83b","system_id":"levelo_inurba_marseille","lat":43.23968,"lon":5.36634,"is_reserved":false,"is_disabled":false,"rental_uris":{"android":"levelo://app?vid=a9976100-495a-4635-a9d6-69142401b83b","ios":"levelo://app?vid=a9976100-495a-4635-a9d6-69142401b83b"},"vehicle_type_id":"4","last_reported":1729081040,"current_range_meters":38800,"station_id":"ce4bhi12rcd13ifvqfp0","pricing_plan_id":"cebpf4jnsgd1na2vs0mg"},{"bike_id":"8df88f79-0eec-49dc-b2e2-d48d8a372051","system_id":"levelo_inurba_marseille","lat":43.30358,"lon":5.41878,"is_reserved":false,"is_disabled":false,"rental_uris":{"android":"levelo://app?vid=8df88f79-0eec-49dc-b2e2-d48d8a372051","ios":"levelo://app?vid=8df88f79-0eec-49dc-b2e2-d48d8a372051"},"vehicle_type_id":"4","last_reported":1729081040,"current_range_meters":20400,"station_id":"ce4bhop2rcd13ifvqh7g","pricing_plan_id":"cebpf4jnsgd1na2vs0mg"},{"bike_id":"7edd7948-a2f1-4e00-b005-221528afdd44","system_id":"levelo_inurba_marseille","lat":43.29847,"lon":5.36276,"is_reserved":false,"is_disabled":false,"rental_uris":{"android":"levelo://app?vid=7edd7948-a2f1-4e00-b005-221528afdd44","ios":"levelo://app?vid=7edd7948-a2f1-4e00-b005-221528afdd44"},"vehicle_type_id":"4","last_reported":1729081040,"current_range_meters":38800,"station_id":"ce4bgpp2rcd13ifvqc3g","pricing_plan_id":"cebpf4jnsgd1na2vs0mg"},