{"last_updated":1734437951,"ttl":60,"version":"2.2","data":{"bikes":[{"bike_id":"55259469-20b7-4df7-bc06-2aaa3f400ee2","system_id":"levelo_inurba_marseille","lat":43.27057,"lon":5.40254,"is_reserved":false,"is_disabled":false,"rental_uris":{"android":"levelo://app?vid=55259469-20b7-4df7-bc06-2aaa3f400ee2","ios":"levelo://app?vid=55259469-20b7-4df7-bc06-2aaa3f400ee2"},"vehicle_type_id":"4","last_reported":1734437951,"current_range_meters":38800,"station_id":"ce4bhk92rcd13ifvqgc0","pricing_plan_id":"cebpf4jnsgd1na2vs0mg"},{"bike_id":"84ae3487-8d36-4c14-a338-c77fc47af52a","system_id":"levelo_inurba_marseille","lat":43.288507,"lon":5.39308,"is_reserved":false,"is_disabled":false,"rental_uris":{"android":"levelo://app?vid=84ae3487-8d36-4c14-a338-c77fc47af52a","ios":"levelo://app?vid=84ae3487-8d36-4c14-a338-c77fc47af52a"},"vehicle_type_id":"4","last_reported":1734437951,"current_range_meters":6400,"station_id":"ce4bh2p2rcd13ifvqdi0","pricing_plan_id":"cebpf4jnsgd1na2vs0mg"},{"bike_id":"ac3c766f-7bc7-421e-871b-304fe0bcbc21","system_id":"levelo_inurba_marseille","lat":43.30404,"lon":5.42314,"is_reserved":false,"is_disabled":true,"rental_uris":{"android":"levelo://app?vid=ac3c766f-7bc7-421e-871b-304fe0bcbc21","ios":"levelo://app?vid=ac3c766f-7bc7-421e-871b-304fe0bcbc21"},"vehicle_type_id":"4","last_reported":1734437951,"current_range_meters":0,"station_id":"","pricing_plan_id":"cebpf4jnsgd1na2vs0mg"},{"bike_id":"eee77d90-3808-4d78-a14f-c07954719075","system_id":"levelo_inurba_marseille","lat":43.30131,"lon":5.37274,"is_reserved":false,"is_disabled":false,"rental_uris":{"android":"levelo://app?vid=eee77d90-3808-4d78-a14f-c07954719075","ios":"levelo://app?vid=eee77d90-3808-4d78-a14f-c07954719075"},"vehicle_type_id":"4","last_reported":1734437951,"current_range_meters":20000,"station_id":"","pricing_plan_id":"cebpf4jnsgd1na2vs0mg"},{"bike_id":"37048610-0aea-4ee8-88b6-948fe69bca7c","system_id":"levelo_inurba_marseille","lat":43.33741,"lon":5.37468,"is_reserved":false,"is_disabled":true,"rental_uris":{"android":"levelo://app?vid=37048610-0aea-4ee8-88b6-948fe69bca7c","ios":"levelo://app?vid=37048610-0aea-4ee8-88b6-948fe69bca7c"},"vehicle_type_id":"4","last_reported":1734437951,"current_range_meters":4400,"station_id":"","pricing_plan_id":"cebpf4jnsgd1na2vs0mg"},{"bike_id":"457ef8e6-45e6-4aa5-871b-30eaf278b375","system_id":"levelo_inurba_marseille","lat":43.24073,"lon":5.37768,"is_reserved":false,"is_disabled":true,"rental_uris":{"android":"levelo://app?vid=457ef8e6-45e6-4aa5-871b-30eaf278b375","ios":"levelo://app?vid=457ef8e6-45e6-4aa5-871b-30eaf278b375"},"vehicle_type_id":"4","last_reported":1734437951,"current_range_meters":0,"station_id":"ce4bhnp2rcd13ifvqgvg","pricing_plan_id":"cebpf4jnsgd1na2vs0mg"},{"bike_id":"b2fae302-f5eb-4bc2-b462-662e3f43cfa7","system_id":"levelo_inurba_marseille","lat":43.26927,"lon":5.40259,"is_reserved":false,"is_disabled":false,"rental_uris":{"android":"levelo://app?vid=b2fae302-f5eb-4bc2-b462-662e3f43cfa7","ios":"levelo://app?vid=b2fae302-f5eb-4bc2-b462-662e3f43cfa7"},"vehicle_type_id":"4","last_reported":1734437951,"current_range_meters":39200,"station_id":"cjm6bp8fraef2m0cb0m0","pricing_plan_id":"cebpf4jnsgd1na2vs0mg"},{"bike_id":"23acbc02-64e1-4de2-997f-200de044b21e","system_id":"levelo_inurba_marseille","lat":43.27308,"lon":5.39117,"is_reserved":false,"is_disabled":false,"rental_uris":{"android":"levelo://app?vid=23acbc02-64e1-4de2-997f-200de044b21e","ios":"levelo://app?vid=23acbc02-64e1-4de2-997f-200de044b21e"},"vehicle_type_id":"4","last_reported":1734437951,"current_range_meters":27200,"station_id":"ce4bhgp2rcd13ifvqfe0","pricing_plan_id":"cebpf4jnsgd1na2vs0mg"},{"bike_id":"d0867c34-5d65-45d7-be9a-ceb5f1a5a786","system_id":"levelo_inurba_marseille","lat":43.31377,"lon":5.36685,"is_reserved":false,"is_disabled":false,"rental_uris":{"android":"levelo://app?vid=d0867c34-5d65-45d7-be9a-ceb5f1a5a786","ios":"levelo://app?vid=d0867c34-5d65-45d7-be9a-ceb5f1a5a786"},"vehicle_type_id":"4","last_reported":1734437951,"current_range_meters":37600,"station_id":"ce4bgr92rcd13ifvqc6g","pricing_plan_id":"cebpf4jnsgd1na2vs0mg"},{"bike_id":"a3628e7f-34e6-487b-bf65-3b8010500349","system_id":"levelo_inurba_marseille","lat":43.27051,"lon":5.40257,"is_reserved":false,"is_disabled":false,"rental_uris":{"android":"levelo://app?vid=a3628e7f-34e6-487b-bf65-3b8010500349","ios":"levelo://app?vid=a3628e7f-34e6-487b-bf65-3b8010500349"},"vehicle_type_id":"4","last_reported":1734437951,"current_range_meters":38800,"station_id":"ce4bhk92rcd13ifvqgc0","pricing_plan_id":"cebpf4jnsgd1na2vs0mg"},{"bike_id":"37d7adf1-667b-4281-8a8e-4648237fdcf8","system_id":"levelo_inurba_marseille","lat":43.25487,"lon":5.37655,"is_reserved":false,"is_disabled":false,"rental_uris":{"android":"levelo://app?vid=37d7adf1-667b-4281-8a8e-4648237fdcf8","ios":"levelo://app?vid=37d7adf1-667b-4281-8a8e-4648237fdcf8"},"vehicle_type_id":"4","last_reported":1734437951,"current_range_meters":36800,"station_id":"ce4bhh12rcd13ifvqff0","pricing_plan_id":"cebpf4jnsgd1na2vs0mg"},{"bike_id":"20358b83-225d-4ff6-8386-f5d7e4ace024","system_id":"levelo_inurba_marseille","lat":43.30008,"lon":5.37745,"is_reserved":false,"is_disabled":true,"rental_uris":{"android":"levelo://app?vid=20358b83-225d-4ff6-8386-f5d7e4ace024","ios":"levelo://app?vid=20358b83-225d-4ff6-8386-f5d7e4ace024"},"vehicle_type_id":"4","last_reported":1734437951,"current_range_meters":7200,"station_id":"","pricing_plan_id":"cebpf4jnsgd1na2vs0mg"},{"bike_id":"31ff14a8-42cf-4195-9f69-ad8e0a51b343","system_id":"levelo_inurba_marseille","lat":43.29848,"lon":5.3628,"is_reserved":false,"is_disabled":false,"rental_uris":{"android":"levelo://app?vid=31ff14a8-42cf-4195-9f69-ad8e0a51b343","ios":"levelo://app?vid=31ff14a8-42cf-4195-9f69-ad8e0a51b343"},"vehicle_type_id":"4","last_reported":1734437951,"current_range_meters":38800,"station_id":"ce4bgpp2rcd13ifvqc3g","pricing_plan_id":"cebpf4jnsgd1na2vs0mg"},{"bike_id":"2c31a8db-b2e8-4068-865a-ba376c5f2045","system_id":"levelo_inurba_marseille","lat":43.30093,"lon":5.39081,"is_reserved":false,"is_disabled":false,"rental_uris":{"android":"levelo://app?vid=2c31a8db-b2e8-4068-865a-ba376c5f2045","ios":"levelo://app?vid=2c31a8db-b2e8-4068-865a-ba376c5f2045"},"vehicle_type_id":"4","last_reported":1734437951,"current_range_meters":38800,"station_id":"ce4bh192rcd13ifvqdb0","pricing_plan_id":"cebpf4jnsgd1na2vs0mg"},{"bike_id":"97c72130-fbd7-4b03-80f2-44ecd5df2702","system_id":"levelo_inurba_marseille","lat":43.28486,"lon":5.35089,"is_reserved":false,"is_disabled":false,"rental_uris":{"android":"levelo://app?vid=97c72130-fbd7-4b03-80f2-44ecd5df2702","ios":"levelo://app?vid=97c72130-fbd7-4b03-80f2-44ecd5df2702"},"vehicle_type_id":"4","last_reported":1734437951,"current_range_meters":28800,"station_id":"","pricing_plan_id":"cebpf4jnsgd1na2vs0mg"},{"bike_id":"4ef58d0d-8e30-4280-aa40-6d3ae5111f3b","system_id":"levelo_inurba_marseille","lat":43.30904,"lon":5.36868,"is_reserved":false,"is_disabled":false,"rental_uris":{"android":"levelo://app?vid=4ef58d0d-8e30-4280-aa40-6d3ae5111f3b","ios":"levelo://app?vid=4ef58d0d-8e30-4280-aa40-6d3ae5111f3b"},"vehicle_type_id":"4","last_reported":1734437951,"current_range_meters":38800,"station_id":"ce4bgn92rcd13ifvqbvg","pricing_plan_id":"cebpf4jnsgd1na2vs0mg"},{"bike_id":"afb8faed-965b-412e-a506-02decfaceca9","system_id":"levelo_inurba_marseille","lat":43.30544,"lon":5.36707,"is_reserved":false,"is_disabled":false,"rental_uris":{"android":"levelo://app?vid=afb8faed-965b-412e-a506-02decfaceca9","ios":"levelo://app?vid=afb8faed-965b-412e-a506-02decfaceca9"},"vehicle_type_id":"4","last_reported":1734437951,"current_range_meters":31200,"station_id":"ce4bgrp2rcd13ifvqc9g","pricing_plan_id":"cebpf4jnsgd1na2vs0mg"},{"bike_id":"c84f081f-95ac-4349-bb7a-ee90028e4aca","system_id":"levelo_inurba_marseille","lat":43.29887,"lon":5.43673,"is_reserved":false,"is_disabled":false,"rental_uris":{"android":"levelo://app?vid=c84f081f-95ac-4349-bb7a-ee90028e4aca","ios":"levelo://app?vid=c84f081f-95ac-4349-bb7a-ee90028e4aca"},"vehicle_type_id":"4","last_reported":1734437951,"current_range_meters":18000,"station_id":"ce4bhpp2rcd13ifvqhfg","pricing_plan_id":"cebpf4jnsgd1na2vs0mg"},{"bike_id":"eb0a9021-95ba-4323-9c1d-59f4e952dd11","system_id":"levelo_inurba_marseille","lat":43.29618,"lon":5.37169,"is_reserved":false,"is_disabled":true,"rental_uris":{"android":"levelo://app?vid=eb0a9021-95ba-4323-9c1d-59f4e952dd11","ios":"levelo://app?vid=eb0a9021-95ba-4323-9c1d-59f4e952dd11"},"vehicle_type_id":"4","last_reported":1734437951,"current_range_meters":0,"station_id":"ce4bgnh2rcd13ifvqc0g","pricing_plan_id":"cebpf4jnsgd1na2vs0mg"},{"bike_id":"33a6cab6-9865-4172-8f1d-a5789e8467c5","system_id":"levelo_inurba_marseille","lat":43.3302,"lon":5.39044,"is_reserved":false,"is_disabled":false,"rental_uris":{"android":"levelo://app?vid=33a6cab6-9865-4172-8f1d-a5789e8467c5","ios":"levelo://app?vid=33a6cab6-9865-4172-8f1d-a5789e8467c5"},"vehicle_type_id":"4","last_reported":1734437951,"current_range_meters":15200,"station_id":"ce4bhr92rcd13ifvqhrg","pricing_plan_id":"cebpf4jnsgd1na2vs0mg"},{"bike_id":"f52442d7-0894-415a-8422-3d92f51f9b7c","system_id":"levelo_inurba_marseille","lat":43.25742,"lon":5.41042,"is_reserved":false,"is_disabled":false,"rental_uris":{"android":"levelo://app?vid=f52442d7-0894-415a-8422-3d92f51f9b7c","ios":"levelo://app?vid=f52442d7-0894-415a-8422-3d92f51f9b7c"},"vehicle_type_id":"4","last_reported":1734437951,"current_range_meters":22400,"station_id":"ce4bhkp2rcd13ifvqgd0","pricing_plan_id":"cebpf4jnsgd1na2vs0mg"},{"bike_id":"aacc7da2-1446-4d2a-aa32-e804470fc32d","system_id":"levelo_inurba_marseille","lat":43.29258,"lon":5.40914,"is_reserved":false,"is_disabled":true,"rental_uris":{"android":"levelo://app?vid=aacc7da2-1446-4d2a-aa32-e804470fc32d","ios":"levelo://app?vid=aacc7da2-1446-4d2a-aa32-e804470fc32d"},"vehicle_type_id":"4","last_reported":1734437951,"current_range_meters":35600,"station_id":"ce4bh192rcd13ifvqdc0","pricing_plan_id":"cebpf4jnsgd1na2vs0mg"},{"bike_id":"937c90ec-cf04-465b-97b2-ee54435829e8","system_id":"levelo_inurba_marseille","lat":43.301974,"lon":5.366212,"is_reserved":false,"is_disabled":true,"rental_uris":{"android":"levelo://app?vid=937c90ec-cf04-465b-97b2-ee54435829e8","ios":"levelo://app?vid=937c90ec-cf04-465b-97b2-ee54435829e8"},"vehicle_type_id":"4","last_reported":1734437951,"current_range_meters":32000,"station_id":"","pricing_plan_id":"cebpf4jnsgd1na2vs0mg"},{"bike_id":"d663afee-b13c-40f4-881c-b7873bf86cad","system_id":"levelo_inurba_marseille","lat":43.30419,"lon":5.36756,"is_reserved":false,"is_disabled":false,"rental_uris":{"android":"levelo://app?vid=d663afee-b13c-40f4-881c-b7873bf86cad","ios":"levelo://app?vid=d663afee-b13c-40f4-881c-b7873bf86cad"},"vehicle_type_id":"4","last_reported":1734437951,"current_range_meters":21600,"station_id":"","pricing_plan_id":"cebpf4jnsgd1na2vs0mg"},{"bike_id":"af5ab7be-b471-49d1-8c59-45890b1581bc","system_id":"levelo_inurba_marseille","lat":43.29275,"lon":5.40125,"is_reserved":false,"is_disabled":false,"rental_uris":{"android":"levelo://app?vid=af5ab7be-b471-49d1-8c59-45890b1581bc","ios":"levelo://app?vid=af5ab7be-b471-49d1-8c59-45890b1581bc"},"vehicle_type_id":"4","last_reported":1734437951,"current_range_meters":34800,"station_id":"ce4bh312rcd13ifvqdk0","pricing_plan_id":"cebpf4jnsgd1na2vs0mg"},{"bike_id":"d859aef6-d89c-439d-ba13-d9a6320dc171","system_id":"levelo_inurba_marseille","lat":43.30533,"lon":5.36554,"is_reserved":false,"is_disabled":false,"rental_uris":{"android":"levelo://app?vid=d859aef6-d89c-439d-ba13-d9a6320dc171","ios":"levelo://app?vid=d859aef6-d89c-439d-ba13-d9a6320dc171"},"vehicle_type_id":"4","last_reported":1734437951,"current_range_meters":12000,"station_id":"ce4bgs12rcd13ifvqcag","pricing_plan_id":"cebpf4jnsgd1na2vs0mg"},{"bike_id":"af50809c-c0a7-46cc-a973-e44dee78efd4","system_id":"levelo_inurba_marseille","lat":43.24158,"lon":5.3973,"is_reserved":false,"is_disabled":false,"rental_uris":{"android":"levelo://app?vid=af50809c-c0a7-46cc-a973-e44dee78efd4","ios":"levelo://app?vid=af50809c-c0a7-46cc-a973-e44dee78efd4"},"vehicle_type_id":"4","last_reported":1734437951,"current_range_meters":38800,"station_id":"ce4bhn12rcd13ifvqgpg","pricing_plan_id":"cebpf4jnsgd1na2vs0mg"},{"bike_id":"eac4768b-3585-47d4-a655-f381d0b05b28","system_id":"levelo_inurba_marseille","lat":43.31165,"lon":5.38724,"is_reserved":false,"is_disabled":false,"rental_uris":{"android":"levelo://app?vid=eac4768b-3585-47d4-a655-f381d0b05b28","ios":"levelo://app?vid=eac4768b-3585-47d4-a655-f381d0b05b28"},"vehicle_type_id":"4","last_reported":1734437951,"current_range_meters":36400,"station_id":"ce4bgv12rcd13ifvqcp0","pricing_plan_id":"cebpf4jnsgd1na2vs0mg"},{"bike_id":"dc0e6df7-295d-4e62-8939-9c7a9d49b036","system_id":"levelo_inurba_marseille","lat":43.29963,"lon":5.41315,"is_reserved":false,"is_disabled":true,"rental_uris":{"android":"levelo://app?vid=dc0e6df7-295d-4e62-8939-9c7a9d49b036","ios":"levelo://app?vid=dc0e6df7-295d-4e62-8939-9c7a9d49b036"},"vehicle_type_id":"4","last_reported":1734437951,"current_range_meters":30400,"station_id":"ce4bhp12rcd13ifvqh9g","pricing_plan_id":"cebpf4jnsgd1na2vs0mg"},{"bike_id":"7a5ffb90-db1f-4139-bce2-4f1860ad3559","system_id":"levelo_inurba_marseille","lat":43.305274,"lon":5.367121,"is_reserved":false,"is_disabled":false,"rental_uris":{"android":"levelo://app?vid=7a5ffb90-db1f-4139-bce2-4f1860ad3559","ios":"levelo://app?vid=7a5ffb90-db1f-4139-bce2-4f1860ad3559"},"vehicle_type_id":"4","last_reported":1734437951,"current_range_meters":38800,"station_id":"ce4bgrp2rcd13ifvqc9g","pricing_plan_id":"cebpf4jnsgd1na2vs0mg"},{"bike_id":"0dba4919-5f90-4467-a457-68db4473569c","system_id":"levelo_inurba_marseille","lat":43.32541,"lon":5.41454,"is_reserved":false,"is_disabled":true,"rental_uris":{"android":"levelo://app?vid=0dba4919-5f90-4467-a457-68db4473569c","ios":"levelo://app?vid=0dba4919-5f90-4467-a457-68db4473569c"},"vehicle_type_id":"4","last_reported":1734437951,"current_range_meters":33200,"station_id":"ce4bhq12rcd13ifvqhhg","pricing_plan_id":"cebpf4jnsgd1na2vs0mg"},{"bike_id":"d2d0ef7a-738a-4025-b86d-99f472add6b4","system_id":"levelo_inurba_marseille","lat":43.24652,"lon":5.38908,"is_reserved":false,"is_disabled":false,"rental_uris":{"android":"levelo://app?vid=d2d0ef7a-738a-4025-b86d-99f472add6b4","ios":"levelo://app?vid=d2d0ef7a-738a-4025-b86d-99f472add6b4"},"vehicle_type_id":"4","last_reported":1734437951,"current_range_meters":39200,"station_id":"ce4bhg12rcd13ifvqf60","pricing_plan_id":"cebpf4jnsgd1na2vs0mg"},{"bike_id":"d159f797-9811-4fb4-a3e8-37da34d17c4b","system_id":"levelo_inurba_marseille","lat":43.30526,"lon":5.36552,"is_reserved":false,"is_disabled":false,"rental_uris":{"android":"levelo://app?vid=d159f797-9811-4fb4-a3e8-37da34d17c4b","ios":"levelo://app?vid=d159f797-9811-4fb4-a3e8-37da34d17c4b"},"vehicle_type_id":"4","last_reported":1734437951,"current_range_meters":38800,"station_id":"ce4bgs12rcd13ifvqcag","pricing_plan_id":"cebpf4jnsgd1na2vs0mg"},{"bike_id":"162477b8-da33-4d9d-be45-0af1a3229da1","system_id":"levelo_inurba_marseille","lat":43.29684,"lon":5.37284,"is_reserved":false,"is_disabled":false,"rental_uris":{"android":"levelo://app?vid=162477b8-da33-4d9d-be45-0af1a3229da1","ios":"levelo://app?vid=162477b8-da33-4d9d-be45-0af1a3229da1"},"vehicle_type_id":"4","last_reported":1734437951,"current_range_meters":39200,"station_id":"ce4bgk12rcd13ifvqbj0","pricing_plan_id":"cebpf4jnsgd1na2vs0mg"},{"bike_id":"ea1ee0a0-f240-4d25-84d9-e6fb6fc7a18c","system_id":"levelo_inurba_marseille","lat":43.33782,"lon":5.42102,"is_reserved":false,"is_disabled":true,"rental_uris":{"android":"levelo://app?vid=ea1ee0a0-f240-4d25-84d9-e6fb6fc7a18c","ios":"levelo://app?vid=ea1ee0a0-f240-4d25-84d9-e6fb6fc7a18c"},"vehicle_type_id":"4","last_reported":1734437951,"current_range_meters":0,"station_id":"","pricing_plan_id":"cebpf4jnsgd1na2vs0mg"},{"bike_id":"146a42e3-1081-443f-8946-09f94a81a402","system_id":"levelo_inurba_marseille","lat":43.26207,"lon":5.37446,"is_reserved":false,"is_disabled":false,"rental_uris":{"android":"levelo://app?vid=146a42e3-1081-443f-8946-09f94a81a402","ios":"levelo://app?vid=146a42e3-1081-443f-8946-09f94a81a402"},"vehicle_type_id":"4","last_reported":1734437951,"current_range_meters":38000,"station_id":"ce4bhgp2rcd13ifvqfc0","pricing_plan_id":"cebpf4jnsgd1na2vs0mg"},{"bike_id":"150a1f53-80ae-42e5-9ea3-8d8cfbb6507c","system_id":"levelo_inurba_marseille","lat":43.30467,"lon":5.37912,"is_reserved":false,"is_disabled":false,"rental_uris":{"android":"levelo://app?vid=150a1f53-80ae-42e5-9ea3-8d8cfbb6507c","ios":"levelo://app?vid=150a1f53-80ae-42e5-9ea3-8d8cfbb6507c"},"vehicle_type_id":"4","last_reported":1734437951,"current_range_meters":18000,"station_id":"ce4bgup2rcd13ifvqcn0","pricing_plan_id":"cebpf4jnsgd1na2vs0mg"},{"bike_id":"a2f60cbb-aa02-4530-92a3-7597251e95e4","system_id":"levelo_inurba_marseille","lat":43.2665,"lon":5.38322,"is_reserved":false,"is_disabled":false,"rental_uris":{"android":"levelo://app?vid=a2f60cbb-aa02-4530-92a3-7597251e95e4","ios":"levelo://app?vid=a2f60cbb-aa02-4530-92a3-7597251e95e4"},"vehicle_type_id":"4","last_reported":1734437951,"current_range_meters":35200,"station_id":"","pricing_plan_id":"cebpf4jnsgd1na2vs0mg"},{"bike_id":"b806002d-7aa2-401d-87f2-68b102fdccd2","system_id":"levelo_inurba_marseille","lat":43.27621,"lon":5.36105,"is_reserved":false,"is_disabled":false,"rental_uris":{"android":"levelo://app?vid=b806002d-7aa2-401d-87f2-68b102fdccd2","ios":"levelo://app?vid=b806002d-7aa2-401d-87f2-68b102fdccd2"},"vehicle_type_id":"4","last_reported":1734437951,"current_range_meters":38000,"station_id":"ce4bgj92rcd13ifvqbe0","pricing_plan_id":"cebpf4jnsgd1na2vs0mg"},{"bike_id":"00f694cf-3a25-43bc-a129-dfeee772a105","system_id":"levelo_inurba_marseille","lat":43.27052,"lon":5.40261,"is_reserved":false,"is_disabled":false,"rental_uris":{"android":"levelo://app?vid=00f694cf-3a25-43bc-a129-dfeee772a105","ios":"levelo://app?vid=00f694cf-3a25-43bc-a129-dfeee772a105"},"vehicle_type_id":"4","last_reported":1734437951,"current_range_meters":25200,"station_id":"ce4bhk92rcd13ifvqgc0","pricing_plan_id":"cebpf4jnsgd1na2vs0mg"},{"bike_id":"80ca011d-d32d-497e-852b-b59a8111cbf4","system_id":"levelo_inurba_marseille","lat":43.26696,"lon":5.38269,"is_reserved":false,"is_disabled":false,"rental_uris":{"android":"levelo://app?vid=80ca011d-d32d-497e-852b-b59a8111cbf4","ios":"levelo://app?vid=80ca011d-d32d-497e-852b-b59a8111cbf4"},"vehicle_type_id":"4","last_reported":1734437951,"current_range_meters":27600,"station_id":"ce4bhg92rcd13ifvqf90","pricing_plan_id":"cebpf4jnsgd1na2vs0mg"},{"bike_id":"492eaa14-96e8-425f-b3df-16672f5179e1","system_id":"levelo_inurba_marseille","lat":43.25107,"lon":5.40327,"is_reserved":false,"is_disabled":true,"rental_uris":{"android":"levelo://app?vid=492eaa14-96e8-425f-b3df-16672f5179e1","ios":"levelo://app?vid=492eaa14-96e8-425f-b3df-16672f5179e1"},"vehicle_type_id":"4","last_reported":1734437951,"current_range_meters":1200,"station_id":"ce4bhlh2rcd13ifvqgig","pricing_plan_id":"cebpf4jnsgd1na2vs0mg"},{"bike_id":"3e875617-69c6-4f7e-9849-1d2ba7412dd5","system_id":"levelo_inurba_marseille","lat":43.25118,"lon":5.40318,"is_reserved":false,"is_disabled":false,"rental_uris":{"android":"levelo://app?vid=3e875617-69c6-4f7e-9849-1d2ba7412dd5","ios":"levelo://app?vid=3e875617-69c6-4f7e-9849-1d2ba7412dd5"},"vehicle_type_id":"4","last_reported":1734437951,"current_range_meters":20000,"station_id":"ce4bhlh2rcd13ifvqgig","pricing_plan_id":"cebpf4jnsgd1na2vs0mg"},{"bike_id":"cd9c4237-357e-43dd-87ea-b819a10fbb0e","system_id":"levelo_inurba_marseille","lat":43.30458,"lon":5.37904,"is_reserved":false,"is_disabled":true,"rental_uris":{"android":"levelo://app?vid=cd9c4237-357e-43dd-87ea-b819a10fbb0e","ios":"levelo://app?vid=cd9c4237-357e-43dd-87ea-b819a10fbb0e"},"vehicle_type_id":"4","last_reported":1734437951,"current_range_meters":0,"station_id":"ce4bgup2rcd13ifvqcn0","pricing_plan_id":"cebpf4jnsgd1na2vs0mg"},{"bike_id":"33f85b2c-94af-459b-8409-cc8cf3a6d228","system_id":"levelo_inurba_marseille","lat":43.26687,"lon":5.38264,"is_reserved":false,"is_disabled":false,"rental_uris":{"android":"levelo://app?vid=33f85b2c-94af-459b-8409-cc8cf3a6d228","ios":"levelo://app?vid=33f85b2c-94af-459b-8409-cc8cf3a6d228"},"vehicle_type_id":"4","last_reported":1734437951,"current_range_meters":18800,"station_id":"ce4bhg92rcd13ifvqf90","pricing_plan_id":"cebpf4jnsgd1na2vs0mg"},{"bike_id":"c4f1da37-0960-4a66-af96-9019e459648e","system_id":"levelo_inurba_marseille","lat":43.26553,"lon":5.37298,"is_reserved":false,"is_disabled":false,"rental_uris":{"android":"levelo://app?vid=c4f1da37-0960-4a66-af96-9019e459648e","ios":"levelo://app?vid=c4f1da37-0960-4a66-af96-9019e459648e"},"vehicle_type_id":"4","last_reported":1734437951,"current_range_meters":36800,"station_id":"ce4bhg12rcd13ifvqf70","pricing_plan_id":"cebpf4jnsgd1na2vs0mg"},{"bike_id":"32eeea4a-86b1-4dc1-8efb-61e58666d909","system_id":"levelo_inurba_marseille","lat":43.29785,"lon":5.38102,"is_reserved":false,"is_disabled":false,"rental_uris":{"android":"levelo://app?vid=32eeea4a-86b1-4dc1-8efb-61e58666d909","ios":"levelo://app?vid=32eeea4a-86b1-4dc1-8efb-61e58666d909"},"vehicle_type_id":"4","last_reported":1734437951,"current_range_meters":20000,"station_id":"ce4bgip2rcd13ifvqbb0","pricing_plan_id":"cebpf4jnsgd1na2vs0mg"},{"bike_id":"2b109fc5-2ad5-44d6-994f-55e37d7d8b89","system_id":"levelo_inurba_marseille","lat":43.32104,"lon":5.36772,"is_reserved":false,"is_disabled":false,"rental_uris":{"android":"levelo://app?vid=2b109fc5-2ad5-44d6-994f-55e37d7d8b89","ios":"levelo://app?vid=2b109fc5-2ad5-44d6-994f-55e37d7d8b89"},"vehicle_type_id":"4","last_reported":1734437951,"current_range_meters":34800,"station_id":"ce4bhrh2rcd13ifvqhug","pricing_plan_id":"cebpf4jnsgd1na2vs0mg"},{"bike_id":"9c01fdd8-5024-4289-9c28-2a37131a0b65","system_id":"levelo_inurba_marseille","lat":43.29786,"lon":5.39351,"is_reserved":false,"is_disabled":false,"rental_uris":{"android":"levelo://app?vid=9c01fdd8-5024-4289-9c28-2a37131a0b65","ios":"levelo://app?vid=9c01fdd8-5024-4289-9c28-2a37131a0b65"},"vehicle_type_id":"4","last_reported":1734437951,"current_range_meters":35200,"station_id":"chh1huq6cuj3fo74tm60","pricing_plan_id":"cebpf4jnsgd1na2vs0mg"},{"bike_id":"d95b5929-d9bd-4e45-8d48-6054291d86a5","system_id":"levelo_inurba_marseille","lat":43.231551,"lon":5.43717,"is_reserved":false,"is_disabled":false,"rental_uris":{"android":"levelo://app?vid=d95b5929-d9bd-4e45-8d48-6054291d86a5","ios":"levelo://app?vid=d95b5929-d9bd-4e45-8d48-6054291d86a5"},"vehicle_type_id":"4","last_reported":1734437951,"current_range_meters":38800,"station_id":"ce4bhmp2rcd13ifvqgog","pricing_plan_id":"cebpf4jnsgd1na2vs0mg"},{"bike_id":"ffbd8e61-9b14-4ee1-914d-0ef1e36f4ec7","system_id":"levelo_inurba_marseille","lat":43.2869,"lon":5.3738,"is_reserved":false,"is_disabled":false,"rental_uris":{"android":"levelo://app?vid=ffbd8e61-9b14-4ee1-914d-0ef1e36f4ec7","ios":"levelo://app?vid=ffbd8e61-9b14-4ee1-914d-0ef1e36f4ec7"},"vehicle_type_id":"4","last_reported":1734437951,"current_range_meters":36000,"station_id":"ce4bh3p2rcd13ifvqdq0","pricing_plan_id":"cebpf4jnsgd1na2vs0mg"},{"bike_id":"18cb3e79-9874-4dfd-8dcf-20f9175efa1f","system_id":"levelo_inurba_marseille","lat":43.26038,"lon":5.37569,"is_reserved":false,"is_disabled":false,"rental_uris":{"android":"levelo://app?vid=18cb3e79-9874-4dfd-8dcf-20f9175efa1f","ios":"levelo://app?vid=18cb3e79-9874-4dfd-8dcf-20f9175efa1f"},"vehicle_type_id":"4","last_reported":1734437951,"current_range_meters":38400,"station_id":"ce4bhgh2rcd13ifvqfa0","pricing_plan_id":"cebpf4jnsgd1na2vs0mg"},{"bike_id":"60fdd052-49f9-462f-8d9f-0359ff5e5d73","system_id":"levelo_inurba_marseille","lat":43.30459,"lon":5.3792,"is_reserved":false,"is_disabled":false,"rental_uris":{"android":"levelo://app?vid=60fdd052-49f9-462f-8d9f-0359ff5e5d73","ios":"levelo://app?vid=60fdd052-49f9-462f-8d9f-0359ff5e5d73"},"vehicle_type_id":"4","last_reported":1734437951,"current_range_meters":38800,"station_id":"ce4bgup2rcd13ifvqcn0","pricing_plan_id":"cebpf4jnsgd1na2vs0mg"},{"bike_id":"502644c9-e5c7-45d3-9b9f-d0672464e4c7","system_id":"levelo_inurba_marseille","lat":43.2903,"lon":5.37558,"is_reserved":false,"is_disabled":false,"rental_uris":{"android":"levelo://app?vid=502644c9-e5c7-45d3-9b9f-d0672464e4c7","ios":"levelo://app?vid=502644c9-e5c7-45d3-9b9f-d0672464e4c7"},"vehicle_type_id":"4","last_reported":1734437951,"current_range_meters":28800,"station_id":"ce4bh692rcd13ifvqe90","pricing_plan_id":"cebpf4jnsgd1na2vs0mg"},{"bike_id":"2efe5cd0-3061-4c4f-877d-3ab1d5f8411e","system_id":"levelo_inurba_marseille","lat":43.30539,"lon":5.3654,"is_reserved":false,"is_disabled":false,"rental_uris":{"android":"levelo://app?vid=2efe5cd0-3061-4c4f-877d-3ab1d5f8411e","ios":"levelo://app?vid=2efe5cd0-3061-4c4f-877d-3ab1d5f8411e"},"vehicle_type_id":"4","last_reported":1734437951,"current_range_meters":38800,"station_id":"ce4bgs12rcd13ifvqcag","pricing_plan_id":"cebpf4jnsgd1na2vs0mg"},{"bike_id":"4f720f2b-c111-4327-aa85-323f2f97bdbe","system_id":"levelo_inurba_marseille","lat":43.27827,"lon":5.40737,"is_reserved":false,"is_disabled":false,"rental_uris":{"android":"levelo://app?vid=4f720f2b-c111-4327-aa85-323f2f97bdbe","ios":"levelo://app?vid=4f720f2b-c111-4327-aa85-323f2f97bdbe"},"vehicle_type_id":"4","last_reported":1734437951,"current_range_meters":37600,"station_id":"ce4bhnh2rcd13ifvqgtg","pricing_plan_id":"cebpf4jnsgd1na2vs0mg"},{"bike_id":"e1eece86-300a-4033-8f83-0eb42e0a21db","system_id":"levelo_inurba_marseille","lat":43.29791,"lon":5.38102,"is_reserved":false,"is_disabled":false,"rental_uris":{"android":"levelo://app?vid=e1eece86-300a-4033-8f83-0eb42e0a21db","ios":"levelo://app?vid=e1eece86-300a-4033-8f83-0eb42e0a21db"},"vehicle_type_id":"4","last_reported":1734437951,"current_range_meters":29600,"station_id":"ce4bgip2rcd13ifvqbb0","pricing_plan_id":"cebpf4jnsgd1na2vs0mg"},{"bike_id":"e41489c0-88e9-4bc5-8337-0192fd797063","system_id":"levelo_inurba_marseille","lat":43.2547,"lon":5.37641,"is_reserved":false,"is_disabled":true,"rental_uris":{"android":"levelo://app?vid=e41489c0-88e9-4bc5-8337-0192fd797063","ios":"levelo://app?vid=e41489c0-88e9-4bc5-8337-0192fd797063"},"vehicle_type_id":"4","last_reported":1734437951,"current_range_meters":0,"station_id":"ce4bhh12rcd13ifvqff0","pricing_plan_id":"cebpf4jnsgd1na2vs0mg"},{"bike_id":"6d5d4483-1d56-424f-a960-f8190e42890c","system_id":"levelo_inurba_marseille","lat":43.27184,"lon":5.40992,"is_reserved":false,"is_disabled":true,"rental_uris":{"android":"levelo://app?vid=6d5d4483-1d56-424f-a960-f8190e42890c","ios":"levelo://app?vid=6d5d4483-1d56-424f-a960-f8190e42890c"},"vehicle_type_id":"4","last_reported":1734437951,"current_range_meters":10800,"station_id":"ce4bhl12rcd13ifvqgf0","pricing_plan_id":"cebpf4jnsgd1na2vs0mg"},{"bike_id":"44dc5ab4-35ba-4aed-8cb2-afa8c30aa358","system_id":"levelo_inurba_marseille","lat":43.26035,"lon":5.39402,"is_reserved":false,"is_disabled":false,"rental_uris":{"android":"levelo://app?vid=44dc5ab4-35ba-4aed-8cb2-afa8c30aa358","ios":"levelo://app?vid=44dc5ab4-35ba-4aed-8cb2-afa8c30aa358"},"vehicle_type_id":"4","last_reported":1734437951,"current_range_meters":38800,"station_id":"ce4bhh92rcd13ifvqfj0","pricing_plan_id":"cebpf4jnsgd1na2vs0mg"},{"bike_id":"a74e2f2e-5305-46cf-a4a9-9eb5976ad548","system_id":"levelo_inurba_marseille","lat":43.27915,"lon":5.39583,"is_reserved":false,"is_disabled":false,"rental_uris":{"android":"levelo://app?vid=a74e2f2e-5305-46cf-a4a9-9eb5976ad548","ios":"levelo://app?vid=a74e2f2e-5305-46cf-a4a9-9eb5976ad548"},"vehicle_type_id":"4","last_reported":1734437951,"current_range_meters":4800,"station_id":"ce4bhf92rcd13ifvqf40","pricing_plan_id":"cebpf4jnsgd1na2vs0mg"},{"bike_id":"67b8fb37-58ea-498b-8732-22a3a491a250","system_id":"levelo_inurba_marseille","lat":43.243858,"lon":5.370481,"is_reserved":false,"is_disabled":false,"rental_uris":{"android":"levelo://app?vid=67b8fb37-58ea-498b-8732-22a3a491a250","ios":"levelo://app?vid=67b8fb37-58ea-498b-8732-22a3a491a250"},"vehicle_type_id":"4","last_reported":1734437951,"current_range_meters":38800,"station_id":"ce4bhhh2rcd13ifvqfk0","pricing_plan_id":"cebpf4jnsgd1na2vs0mg"},{"bike_id":"94486c75-00f7-41da-8797-6de13a7bb0fc","system_id":"levelo_inurba_marseille","lat":43.30436,"lon":5.38891,"is_reserved":false,"is_disabled":true,"rental_uris":{"android":"levelo://app?vid=94486c75-00f7-41da-8797-6de13a7bb0fc","ios":"levelo://app?vid=94486c75-00f7-41da-8797-6de13a7bb0fc"},"vehicle_type_id":"4","last_reported":1734437951,"current_range_meters":23200,"station_id":"ce4bgk12rcd13ifvqbi0","pricing_plan_id":"cebpf4jnsgd1na2vs0mg"},{"bike_id":"06130177-598b-426e-b195-cf93a9bf414a","system_id":"levelo_inurba_marseille","lat":43.27498,"lon":5.42454,"is_reserved":false,"is_disabled":false,"rental_uris":{"android":"levelo://app?vid=06130177-598b-426e-b195-cf93a9bf414a","ios":"levelo://app?vid=06130177-598b-426e-b195-cf93a9bf414a"},"vehicle_type_id":"4","last_reported":1734437951,"current_range_meters":32800,"station_id":"ce4bhn92rcd13ifvqgrg","pricing_plan_id":"cebpf4jnsgd1na2vs0mg"},{"bike_id":"b54ca4a0-2464-4773-8571-e9a8f0dcf440","system_id":"levelo_inurba_marseille","lat":43.24542,"lon":5.39526,"is_reserved":false,"is_disabled":false,"rental_uris":{"android":"levelo://app?vid=b54ca4a0-2464-4773-8571-e9a8f0dcf440","ios":"levelo://app?vid=b54ca4a0-2464-4773-8571-e9a8f0dcf440"},"vehicle_type_id":"4","last_reported":1734437951,"current_range_meters":16800,"station_id":"ce4bhlp2rcd13ifvqgjg","pricing_plan_id":"cebpf4jnsgd1na2vs0mg"},{"bike_id":"59298ee5-b340-4ded-a44a-2709d5f895c9","system_id":"levelo_inurba_marseille","lat":43.29205,"lon":5.39323,"is_reserved":false,"is_disabled":false,"rental_uris":{"android":"levelo://app?vid=59298ee5-b340-4ded-a44a-2709d5f895c9","ios":"levelo://app?vid=59298ee5-b340-4ded-a44a-2709d5f895c9"},"vehicle_type_id":"4","last_reported":1734437951,"current_range_meters":33600,"station_id":"ce4bh192rcd13ifvqdd0","pricing_plan_id":"cebpf4jnsgd1na2vs0mg"},{"bike_id":"e4792bb6-9e6d-483a-a5ae-2b1904da6da2","system_id":"levelo_inurba_marseille","lat":43.30533,"lon":5.36708,"is_reserved":false,"is_disabled":false,"rental_uris":{"android":"levelo://app?vid=e4792bb6-9e6d-483a-a5ae-2b1904da6da2","ios":"levelo://app?vid=e4792bb6-9e6d-483a-a5ae-2b1904da6da2"},"vehicle_type_id":"4","last_reported":1734437951,"current_range_meters":36400,"station_id":"ce4bgrp2rcd13ifvqc9g","pricing_plan_id":"cebpf4jnsgd1na2vs0mg"},{"bike_id":"33ccc4c4-6436-4565-a446-7983ef378054","system_id":"levelo_inurba_marseille","lat":43.30135,"lon":5.3743,"is_reserved":false,"is_disabled":false,"rental_uris":{"android":"levelo://app?vid=33ccc4c4-6436-4565-a446-7983ef378054","ios":"levelo://app?vid=33ccc4c4-6436-4565-a446-7983ef378054"},"vehicle_type_id":"4","last_reported":1734437951,"current_range_meters":19600,"station_id":"ce4bgs92rcd13ifvqcc0","pricing_plan_id":"cebpf4jnsgd1na2vs0mg"},{"bike_id":"782bcbf2-b7de-4b04-bebc-aaa0329dd90c","system_id":"levelo_inurba_marseille","lat":43.23192,"lon":5.35557,"is_reserved":false,"is_disabled":false,"rental_uris":{"android":"levelo://app?vid=782bcbf2-b7de-4b04-bebc-aaa0329dd90c","ios":"levelo://app?vid=782bcbf2-b7de-4b04-bebc-aaa0329dd90c"},"vehicle_type_id":"4","last_reported":1734437951,"current_range_meters":38800,"station_id":"ce4bhu92rcd13ifvqi70","pricing_plan_id":"cebpf4jnsgd1na2vs0mg"},{"bike_id":"a925316d-9d31-43b0-a430-5cb1bef87372","system_id":"levelo_inurba_marseille","lat":43.2718,"lon":5.40992,"is_reserved":false,"is_disabled":false,"rental_uris":{"android":"levelo://app?vid=a925316d-9d31-43b0-a430-5cb1bef87372","ios":"levelo://app?vid=a925316d-9d31-43b0-a430-5cb1bef87372"},"vehicle_type_id":"4","last_reported":1734437951,"current_range_meters":25200,"station_id":"ce4bhl12rcd13ifvqgf0","pricing_plan_id":"cebpf4jnsgd1na2vs0mg"},{"bike_id":"540c19ab-e8ac-4092-909b-c3e5069b6978","system_id":"levelo_inurba_marseille","lat":43.337444,"lon":5.374475,"is_reserved":false,"is_disabled":true,"rental_uris":{"android":"levelo://app?vid=540c19ab-e8ac-4092-909b-c3e5069b6978","ios":"levelo://app?vid=540c19ab-e8ac-4092-909b-c3e5069b6978"},"vehicle_type_id":"4","last_reported":1734437951,"current_range_meters":0,"station_id":"","pricing_plan_id":"cebpf4jnsgd1na2vs0mg"},{"bike_id":"9c837bda-6aa6-4b47-892e-ebd978dec9fa","system_id":"levelo_inurba_marseille","lat":43.3111,"lon":5.37767,"is_reserved":false,"is_disabled":false,"rental_uris":{"android":"levelo://app?vid=9c837bda-6aa6-4b47-892e-ebd978dec9fa","ios":"levelo://app?vid=9c837bda-6aa6-4b47-892e-ebd978dec9fa"},"vehicle_type_id":"4","last_reported":1734437951,"current_range_meters":24000,"station_id":"ce4bgt92rcd13ifvqcg0","pricing_plan_id":"cebpf4jnsgd1na2vs0mg"},{"bike_id":"883f4374-b7bb-4f3d-9a52-d7ee47e64fe2","system_id":"levelo_inurba_marseille","lat":43.297977,"lon":5.381038,"is_reserved":false,"is_disabled":false,"rental_uris":{"android":"levelo://app?vid=883f4374-b7bb-4f3d-9a52-d7ee47e64fe2","ios":"levelo://app?vid=883f4374-b7bb-4f3d-9a52-d7ee47e64fe2"},"vehicle_type_id":"4","last_reported":1734437951,"current_range_meters":37600,"station_id":"ce4bgip2rcd13ifvqbb0","pricing_plan_id":"cebpf4jnsgd1na2vs0mg"},{"bike_id":"5b9dadf4-f3ef-496a-933f-556a1442196c","system_id":"levelo_inurba_marseille","lat":43.27942,"lon":5.41048,"is_reserved":false,"is_disabled":false,"rental_uris":{"android":"levelo://app?vid=5b9dadf4-f3ef-496a-933f-556a1442196c","ios":"levelo://app?vid=5b9dadf4-f3ef-496a-933f-556a1442196c"},"vehicle_type_id":"4","last_reported":1734437951,"current_range_meters":38800,"station_id":"ce4bhnp2rcd13ifvqh0g","pricing_plan_id":"cebpf4jnsgd1na2vs0mg"},{"bike_id":"b3073351-fc40-454d-9c2c-39a4039d63b1","system_id":"levelo_inurba_marseille","lat":43.2992,"lon":5.37486,"is_reserved":false,"is_disabled":false,"rental_uris":{"android":"levelo://app?vid=b3073351-fc40-454d-9c2c-39a4039d63b1","ios":"levelo://app?vid=b3073351-fc40-454d-9c2c-39a4039d63b1"},"vehicle_type_id":"4","last_reported":1734437951,"current_range_meters":32800,"station_id":"ce4bgjh2rcd13ifvqbg0","pricing_plan_id":"cebpf4jnsgd1na2vs0mg"},{"bike_id":"abc12ef1-d5c2-4626-9327-bedf0f14a4a6","system_id":"levelo_inurba_marseille","lat":43.29524,"lon":5.39054,"is_reserved":false,"is_disabled":false,"rental_uris":{"android":"levelo://app?vid=abc12ef1-d5c2-4626-9327-bedf0f14a4a6","ios":"levelo://app?vid=abc12ef1-d5c2-4626-9327-bedf0f14a4a6"},"vehicle_type_id":"4","last_reported":1734437951,"current_range_meters":34000,"station_id":"ce4bh3p2rcd13ifvqdp0","pricing_plan_id":"cebpf4jnsgd1na2vs0mg"},{"bike_id":"367038fd-f5a6-46bd-8ca8-65587b2d3434","system_id":"levelo_inurba_marseille","lat":43.29795,"lon":5.38108,"is_reserved":false,"is_disabled":false,"rental_uris":{"android":"levelo://app?vid=367038fd-f5a6-46bd-8ca8-65587b2d3434","ios":"levelo://app?vid=367038fd-f5a6-46bd-8ca8-65587b2d3434"},"vehicle_type_id":"4","last_reported":1734437951,"current_range_meters":38800,"station_id":"ce4bgip2rcd13ifvqbb0","pricing_plan_id":"cebpf4jnsgd1na2vs0mg"},{"bike_id":"594d74a5-94a7-45b9-8408-a6a373448d6d","system_id":"levelo_inurba_marseille","lat":43.29223,"lon":5.36071,"is_reserved":false,"is_disabled":false,"rental_uris":{"android":"levelo://app?vid=594d74a5-94a7-45b9-8408-a6a373448d6d","ios":"levelo://app?vid=594d74a5-94a7-45b9-8408-a6a373448d6d"},"vehicle_type_id":"4","last_reported":1734437951,"current_range_meters":19200,"station_id":"ce4bhbh2rcd13ifvqeqg","pricing_plan_id":"cebpf4jnsgd1na2vs0mg"},{"bike_id":"e82f4bcc-e8c7-45fb-935b-84f0ae3e27c2","system_id":"levelo_inurba_marseille","lat":43.24543,"lon":5.3953,"is_reserved":false,"is_disabled":false,"rental_uris":{"android":"levelo://app?vid=e82f4bcc-e8c7-45fb-935b-84f0ae3e27c2","ios":"levelo://app?vid=e82f4bcc-e8c7-45fb-935b-84f0ae3e27c2"},"vehicle_type_id":"4","last_reported":1734437951,"current_range_meters":30800,"station_id":"ce4bhlp2rcd13ifvqgjg","pricing_plan_id":"cebpf4jnsgd1na2vs0mg"},{"bike_id":"ddbbfe5d-94ec-4ed2-8677-23a6e78f43c1","system_id":"levelo_inurba_marseille","lat":43.25568,"lon":5.38244,"is_reserved":false,"is_disabled":false,"rental_uris":{"android":"levelo://app?vid=ddbbfe5d-94ec-4ed2-8677-23a6e78f43c1","ios":"levelo://app?vid=ddbbfe5d-94ec-4ed2-8677-23a6e78f43c1"},"vehicle_type_id":"4","last_reported":1734437951,"current_range_meters":30800,"station_id":"ce4bhih2rcd13ifvqfs0","pricing_plan_id":"cebpf4jnsgd1na2vs0mg"},{"bike_id":"c096fd4b-e881-4158-a46f-38ce1c416d1d","system_id":"levelo_inurba_marseille","lat":43.32487,"lon":5.36562,"is_reserved":false,"is_disabled":true,"rental_uris":{"android":"levelo://app?vid=c096fd4b-e881-4158-a46f-38ce1c416d1d","ios":"levelo://app?vid=c096fd4b-e881-4158-a46f-38ce1c416d1d"},"vehicle_type_id":"4","last_reported":1734437951,"current_range_meters":38800,"station_id":"ce4bhs12rcd13ifvqhvg","pricing_plan_id":"cebpf4jnsgd1na2vs0mg"},{"bike_id":"e570e38a-85d6-4b1d-89e9-03facfda4fdf","system_id":"levelo_inurba_marseille","lat":43.30541,"lon":5.36712,"is_reserved":false,"is_disabled":false,"rental_uris":{"android":"levelo://app?vid=e570e38a-85d6-4b1d-89e9-03facfda4fdf","ios":"levelo://app?vid=e570e38a-85d6-4b1d-89e9-03facfda4fdf"},"vehicle_type_id":"4","last_reported":1734437951,"current_range_meters":28000,"station_id":"ce4bgrp2rcd13ifvqc9g","pricing_plan_id":"cebpf4jnsgd1na2vs0mg"},{"bike_id":"7b767a23-32ec-4485-9cca-76cc3147b1d9","system_id":"levelo_inurba_marseille","lat":43.2791,"lon":5.39588,"is_reserved":false,"is_disabled":false,"rental_uris":{"android":"levelo://app?vid=7b767a23-32ec-4485-9cca-76cc3147b1d9","ios":"levelo://app?vid=7b767a23-32ec-4485-9cca-76cc3147b1d9"},"vehicle_type_id":"4","last_reported":1734437951,"current_range_meters":8800,"station_id":"ce4bhf92rcd13ifvqf40","pricing_plan_id":"cebpf4jnsgd1na2vs0mg"},{"bike_id":"ca1cea99-57b3-4dac-a5bc-b5ca0136e7aa","system_id":"levelo_inurba_marseille","lat":43.30523,"lon":5.36543,"is_reserved":false,"is_disabled":false,"rental_uris":{"android":"levelo://app?vid=ca1cea99-57b3-4dac-a5bc-b5ca0136e7aa","ios":"levelo://app?vid=ca1cea99-57b3-4dac-a5bc-b5ca0136e7aa"},"vehicle_type_id":"4","last_reported":1734437951,"current_range_meters":38800,"station_id":"ce4bgs12rcd13ifvqcag","pricing_plan_id":"cebpf4jnsgd1na2vs0mg"},{"bike_id":"e1059a0b-a850-4e64-b9a1-bf84ffb8adcc","system_id":"levelo_inurba_marseille","lat":43.31701,"lon":5.37747,"is_reserved":false,"is_disabled":false,"rental_uris":{"android":"levelo://app?vid=e1059a0b-a850-4e64-b9a1-bf84ffb8adcc","ios":"levelo://app?vid=e1059a0b-a850-4e64-b9a1-bf84ffb8adcc"},"vehicle_type_id":"4","last_reported":1734437951,"current_range_meters":5600,"station_id":"ce4bgth2rcd13ifvqch0","pricing_plan_id":"cebpf4jnsgd1na2vs0mg"},{"bike_id":"140b7c77-450d-4ce4-8982-6cc405fe0924","system_id":"levelo_inurba_marseille","lat":43.2797,"lon":5.41657,"is_reserved":false,"is_disabled":false,"rental_uris":{"android":"levelo://app?vid=140b7c77-450d-4ce4-8982-6cc405fe0924","ios":"levelo://app?vid=140b7c77-450d-4ce4-8982-6cc405fe0924"},"vehicle_type_id":"4","last_reported":1734437951,"current_range_meters":26000,"station_id":"ce4bho12rcd13ifvqh1g","pricing_plan_id":"cebpf4jnsgd1na2vs0mg"},{"bike_id":"215c2ee6-5c55-4293-823f-ab36743cf925","system_id":"levelo_inurba_marseille","lat":43.26551,"lon":5.37301,"is_reserved":false,"is_disabled":false,"rental_uris":{"android":"levelo://app?vid=215c2ee6-5c55-4293-823f-ab36743cf925","ios":"levelo://app?vid=215c2ee6-5c55-4293-823f-ab36743cf925"},"vehicle_type_id":"4","last_reported":1734437951,"current_range_meters":27600,"station_id":"ce4bhg12rcd13ifvqf70","pricing_plan_id":"cebpf4jnsgd1na2vs0mg"},{"bike_id":"cdb0b79b-c747-49ec-9c4e-a338d34cf2bb","system_id":"levelo_inurba_marseille","lat":43.26198,"lon":5.37934,"is_reserved":false,"is_disabled":false,"rental_uris":{"android":"levelo://app?vid=cdb0b79b-c747-49ec-9c4e-a338d34cf2bb","ios":"levelo://app?vid=cdb0b79b-c747-49ec-9c4e-a338d34cf2bb"},"vehicle_type_id":"4","last_reported":1734437951,"current_range_meters":36000,"station_id":"ce4bhjp2rcd13ifvqg90","pricing_plan_id":"cebpf4jnsgd1na2vs0mg"},{"bike_id":"e7003594-66f3-4f16-8a8f-22796d18fc63","system_id":"levelo_inurba_marseille","lat":43.30533,"lon":5.36547,"is_reserved":false,"is_disabled":false,"rental_uris":{"android":"levelo://app?vid=e7003594-66f3-4f16-8a8f-22796d18fc63","ios":"levelo://app?vid=e7003594-66f3-4f16-8a8f-22796d18fc63"},"vehicle_type_id":"4","last_reported":1734437951,"current_range_meters":39200,"station_id":"ce4bgs12rcd13ifvqcag","pricing_plan_id":"cebpf4jnsgd1na2vs0mg"},{"bike_id":"6cdb4950-1b7e-4415-abc4-2362b7e51082","system_id":"levelo_inurba_marseille","lat":43.32472,"lon":5.3657,"is_reserved":false,"is_disabled":false,"rental_uris":{"android":"levelo://app?vid=6cdb4950-1b7e-4415-abc4-2362b7e51082","ios":"levelo://app?vid=6cdb4950-1b7e-4415-abc4-2362b7e51082"},"vehicle_type_id":"4","last_reported":1734437951,"current_range_meters":38800,"station_id":"ce4bhs12rcd13ifvqhvg","pricing_plan_id":"cebpf4jnsgd1na2vs0mg"},{"bike_id":"736d3a42-338d-432b-81bf-2ef41542759b","system_id":"levelo_inurba_marseille","lat":43.30252,"lon":5.40084,"is_reserved":false,"is_disabled":false,"rental_uris":{"android":"levelo://app?vid=736d3a42-338d-432b-81bf-2ef41542759b","ios":"levelo://app?vid=736d3a42-338d-432b-81bf-2ef41542759b"},"vehicle_type_id":"4","last_reported":1734437951,"current_range_meters":28800,"station_id":"ce4bgvh2rcd13ifvqcs0","pricing_plan_id":"cebpf4jnsgd1na2vs0mg"},{"bike_id":"ea57f2b5-1080-44b3-b5a3-c4823a87c394","system_id":"levelo_inurba_marseille","lat":43.30949,"lon":5.39034,"is_reserved":false,"is_disabled":true,"rental_uris":{"android":"levelo://app?vid=ea57f2b5-1080-44b3-b5a3-c4823a87c394","ios":"levelo://app?vid=ea57f2b5-1080-44b3-b5a3-c4823a87c394"},"vehicle_type_id":"4","last_reported":1734437951,"current_range_meters":0,"station_id":"ce4bgup2rcd13ifvqco0","pricing_plan_id":"cebpf4jnsgd1na2vs0mg"},{"bike_id":"4b6e1560-ae0a-4c4e-adbf-8263ae29060d","system_id":"levelo_inurba_marseille","lat":43.27066,"lon":5.40262,"is_reserved":false,"is_disabled":false,"rental_uris":{"android":"levelo://app?vid=4b6e1560-ae0a-4c4e-adbf-8263ae29060d","ios":"levelo://app?vid=4b6e1560-ae0a-4c4e-adbf-8263ae29060d"},"vehicle_type_id":"4","last_reported":1734437951,"current_range_meters":12400,"station_id":"ce4bhk92rcd13ifvqgc0","pricing_plan_id":"cebpf4jnsgd1na2vs0mg"},{"bike_id":"20ea503d-5e12-4fb4-af5c-d40361cb7a04","system_id":"levelo_inurba_marseille","lat":43.24542,"lon":5.39534,"is_reserved":false,"is_disabled":false,"rental_uris":{"android":"levelo://app?vid=20ea503d-5e12-4fb4-af5c-d40361cb7a04","ios":"levelo://app?vid=20ea503d-5e12-4fb4-af5c-d40361cb7a04"},"vehicle_type_id":"4","last_reported":1734437951,"current_range_meters":28400,"station_id":"ce4bhlp2rcd13ifvqgjg","pricing_plan_id":"cebpf4jnsgd1na2vs0mg"},{"bike_id":"df1efd16-c219-4b68-ae78-a147db987d3a","system_id":"levelo_inurba_marseille","lat":43.29041,"lon":5.35926,"is_reserved":false,"is_disabled":false,"rental_uris":{"android":"levelo://app?vid=df1efd16-c219-4b68-ae78-a147db987d3a","ios":"levelo://app?vid=df1efd16-c219-4b68-ae78-a147db987d3a"},"vehicle_type_id":"4","last_reported":1734437951,"current_range_meters":28000,"station_id":"ce4bha92rcd13ifvqeg0","pricing_plan_id":"cebpf4jnsgd1na2vs0mg"},{"bike_id":"55a9541e-cc0c-4a4b-9b15-e6a7c4c6d0df","system_id":"levelo_inurba_marseille","lat":43.24543,"lon":5.39524,"is_reserved":false,"is_disabled":false,"rental_uris":{"android":"levelo://app?vid=55a9541e-cc0c-4a4b-9b15-e6a7c4c6d0df","ios":"levelo://app?vid=55a9541e-cc0c-4a4b-9b15-e6a7c4c6d0df"},"vehicle_type_id":"4","last_reported":1734437951,"current_range_meters":37600,"station_id":"ce4bhlp2rcd13ifvqgjg","pricing_plan_id":"cebpf4jnsgd1na2vs0mg"},{"bike_id":"645c7daf-6ef1-4c01-8904-078f4b7bafd4","system_id":"levelo_inurba_marseille","lat":43.29611,"lon":5.37709,"is_reserved":false,"is_disabled":true,"rental_uris":{"android":"levelo://app?vid=645c7daf-6ef1-4c01-8904-078f4b7bafd4","ios":"levelo://app?vid=645c7daf-6ef1-4c01-8904-078f4b7bafd4"},"vehicle_type_id":"4","last_reported":1734437951,"current_range_meters":0,"station_id":"ce4bgi92rcd13ifvqb90","pricing_plan_id":"cebpf4jnsgd1na2vs0mg"},{"bike_id":"aa30aa9c-0acd-467d-8909-6a05063c8ce8","system_id":"levelo_inurba_marseille","lat":43.2835,"lon":5.38123,"is_reserved":false,"is_disabled":false,"rental_uris":{"android":"levelo://app?vid=aa30aa9c-0acd-467d-8909-6a05063c8ce8","ios":"levelo://app?vid=aa30aa9c-0acd-467d-8909-6a05063c8ce8"},"vehicle_type_id":"4","last_reported":1734437951,"current_range_meters":29600,"station_id":"ce4bh412rcd13ifvqdr0","pricing_plan_id":"cebpf4jnsgd1na2vs0mg"},{"bike_id":"7d29eb11-03a4-48e1-97ee-f367d78ad9b4","system_id":"levelo_inurba_marseille","lat":43.29609,"lon":5.37724,"is_reserved":false,"is_disabled":false,"rental_uris":{"android":"levelo://app?vid=7d29eb11-03a4-48e1-97ee-f367d78ad9b4","ios":"levelo://app?vid=7d29eb11-03a4-48e1-97ee-f367d78ad9b4"},"vehicle_type_id":"4","last_reported":1734437951,"current_range_meters":27200,"station_id":"ce4bgi92rcd13ifvqb90","pricing_plan_id":"cebpf4jnsgd1na2vs0mg"},{"bike_id":"cb71125f-f15f-4cf9-9db3-a382db86e685","system_id":"levelo_inurba_marseille","lat":43.29774,"lon":5.37114,"is_reserved":false,"is_disabled":true,"rental_uris":{"android":"levelo://app?vid=cb71125f-f15f-4cf9-9db3-a382db86e685","ios":"levelo://app?vid=cb71125f-f15f-4cf9-9db3-a382db86e685"},"vehicle_type_id":"4","last_reported":1734437951,"current_range_meters":35200,"station_id":"","pricing_plan_id":"cebpf4jnsgd1na2vs0mg"},{"bike_id":"7e23e9cb-b6ee-4233-9e4a-321349524cc3","system_id":"levelo_inurba_marseille","lat":43.32445,"lon":5.3656,"is_reserved":false,"is_disabled":false,"rental_uris":{"android":"levelo://app?vid=7e23e9cb-b6ee-4233-9e4a-321349524cc3","ios":"levelo://app?vid=7e23e9cb-b6ee-4233-9e4a-321349524cc3"},"vehicle_type_id":"4","last_reported":1734437951,"current_range_meters":33600,"station_id":"ce4bhs12rcd13ifvqhvg","pricing_plan_id":"cebpf4jnsgd1na2vs0mg"},{"bike_id":"4508be75-53db-4b57-beb6-68b4fa9b1606","system_id":"levelo_inurba_marseille","lat":43.29255,"lon":5.40912,"is_reserved":false,"is_disabled":false,"rental_uris":{"android":"levelo://app?vid=4508be75-53db-4b57-beb6-68b4fa9b1606","ios":"levelo://app?vid=4508be75-53db-4b57-beb6-68b4fa9b1606"},"vehicle_type_id":"4","last_reported":1734437951,"current_range_meters":9600,"station_id":"ce4bh192rcd13ifvqdc0","pricing_plan_id":"cebpf4jnsgd1na2vs0mg"},{"bike_id":"8d75bee7-b5cd-4a79-9029-cbc9cb1e0eb4","system_id":"levelo_inurba_marseille","lat":43.32468,"lon":5.36583,"is_reserved":false,"is_disabled":false,"rental_uris":{"android":"levelo://app?vid=8d75bee7-b5cd-4a79-9029-cbc9cb1e0eb4","ios":"levelo://app?vid=8d75bee7-b5cd-4a79-9029-cbc9cb1e0eb4"},"vehicle_type_id":"4","last_reported":1734437951,"current_range_meters":35600,"station_id":"ce4bhs12rcd13ifvqhvg","pricing_plan_id":"cebpf4jnsgd1na2vs0mg"},{"bike_id":"bb337245-7c41-4671-900b-a4d92ae562c6","system_id":"levelo_inurba_marseille","lat":43.29519,"lon":5.39028,"is_reserved":false,"is_disabled":true,"rental_uris":{"android":"levelo://app?vid=bb337245-7c41-4671-900b-a4d92ae562c6","ios":"levelo://app?vid=bb337245-7c41-4671-900b-a4d92ae562c6"},"vehicle_type_id":"4","last_reported":1734437951,"current_range_meters":6400,"station_id":"ce4bh3p2rcd13ifvqdp0","pricing_plan_id":"cebpf4jnsgd1na2vs0mg"},{"bike_id":"cde7e2f5-4860-4cf0-9bdb-0bd1e783aab6","system_id":"levelo_inurba_marseille","lat":43.3048,"lon":5.37912,"is_reserved":false,"is_disabled":false,"rental_uris":{"android":"levelo://app?vid=cde7e2f5-4860-4cf0-9bdb-0bd1e783aab6","ios":"levelo://app?vid=cde7e2f5-4860-4cf0-9bdb-0bd1e783aab6"},"vehicle_type_id":"4","last_reported":1734437951,"current_range_meters":25600,"station_id":"ce4bgup2rcd13ifvqcn0","pricing_plan_id":"cebpf4jnsgd1na2vs0mg"},{"bike_id":"7399fd58-5dfd-44fa-92b1-0692ace70e73","system_id":"levelo_inurba_marseille","lat":43.30602,"lon":5.37247,"is_reserved":false,"is_disabled":false,"rental_uris":{"android":"levelo://app?vid=7399fd58-5dfd-44fa-92b1-0692ace70e73","ios":"levelo://app?vid=7399fd58-5dfd-44fa-92b1-0692ace70e73"},"vehicle_type_id":"4","last_reported":1734437951,"current_range_meters":28800,"station_id":"ce4bgn92rcd13ifvqbvg","pricing_plan_id":"cebpf4jnsgd1na2vs0mg"},{"bike_id":"f93a5208-e2db-4a5b-9656-73a8ffdbcfa4","system_id":"levelo_inurba_marseille","lat":43.2779,"lon":5.40733,"is_reserved":false,"is_disabled":false,"rental_uris":{"android":"levelo://app?vid=f93a5208-e2db-4a5b-9656-73a8ffdbcfa4","ios":"levelo://app?vid=f93a5208-e2db-4a5b-9656-73a8ffdbcfa4"},"vehicle_type_id":"4","last_reported":1734437951,"current_range_meters":38800,"station_id":"ce4bhnh2rcd13ifvqgtg","pricing_plan_id":"cebpf4jnsgd1na2vs0mg"},{"bike_id":"75243274-71c1-44af-8cfc-8d18c3266782","system_id":"levelo_inurba_marseille","lat":43.30296,"lon":5.39209,"is_reserved":false,"is_disabled":false,"rental_uris":{"android":"levelo://app?vid=75243274-71c1-44af-8cfc-8d18c3266782","ios":"levelo://app?vid=75243274-71c1-44af-8cfc-8d18c3266782"},"vehicle_type_id":"4","last_reported":1734437951,"current_range_meters":4000,"station_id":"ce4bgkh2rcd13ifvqbk0","pricing_plan_id":"cebpf4jnsgd1na2vs0mg"},{"bike_id":"44ff8e7d-1339-43c2-b508-1f594ee49259","system_id":"levelo_inurba_marseille","lat":43.27921,"lon":5.3956,"is_reserved":false,"is_disabled":false,"rental_uris":{"android":"levelo://app?vid=44ff8e7d-1339-43c2-b508-1f594ee49259","ios":"levelo://app?vid=44ff8e7d-1339-43c2-b508-1f594ee49259"},"vehicle_type_id":"4","last_reported":1734437951,"current_range_meters":38400,"station_id":"ce4bhf92rcd13ifvqf40","pricing_plan_id":"cebpf4jnsgd1na2vs0mg"},{"bike_id":"efad3903-21ac-4cd9-ba9c-bf70bc007e1e","system_id":"levelo_inurba_marseille","lat":43.3027,"lon":5.40025,"is_reserved":false,"is_disabled":true,"rental_uris":{"android":"levelo://app?vid=efad3903-21ac-4cd9-ba9c-bf70bc007e1e","ios":"levelo://app?vid=efad3903-21ac-4cd9-ba9c-bf70bc007e1e"},"vehicle_type_id":"4","last_reported":1734437951,"current_range_meters":33200,"station_id":"ce4bgvh2rcd13ifvqcs0","pricing_plan_id":"cebpf4jnsgd1na2vs0mg"},{"bike_id":"ff52c0f9-5bc3-4147-97cc-1c9a6030d599","system_id":"levelo_inurba_marseille","lat":43.2705,"lon":5.40261,"is_reserved":false,"is_disabled":false,"rental_uris":{"android":"levelo://app?vid=ff52c0f9-5bc3-4147-97cc-1c9a6030d599","ios":"levelo://app?vid=ff52c0f9-5bc3-4147-97cc-1c9a6030d599"},"vehicle_type_id":"4","last_reported":1734437951,"current_range_meters":38000,"station_id":"ce4bhk92rcd13ifvqgc0","pricing_plan_id":"cebpf4jnsgd1na2vs0mg"},{"bike_id":"0e6622b0-cde9-42a4-ba6c-c33ba3ed39c6","system_id":"levelo_inurba_marseille","lat":43.30934,"lon":5.40156,"is_reserved":false,"is_disabled":false,"rental_uris":{"android":"levelo://app?vid=0e6622b0-cde9-42a4-ba6c-c33ba3ed39c6","ios":"levelo://app?vid=0e6622b0-cde9-42a4-ba6c-c33ba3ed39c6"},"vehicle_type_id":"4","last_reported":1734437951,"current_range_meters":26800,"station_id":"ce4bgvp2rcd13ifvqct0","pricing_plan_id":"cebpf4jnsgd1na2vs0mg"},{"bike_id":"eba901e5-0847-4fc0-b2b6-9eb1834c3e7a","system_id":"levelo_inurba_marseille","lat":43.2954,"lon":5.42283,"is_reserved":false,"is_disabled":true,"rental_uris":{"android":"levelo://app?vid=eba901e5-0847-4fc0-b2b6-9eb1834c3e7a","ios":"levelo://app?vid=eba901e5-0847-4fc0-b2b6-9eb1834c3e7a"},"vehicle_type_id":"4","last_reported":1734437951,"current_range_meters":0,"station_id":"ce4bhph2rcd13ifvqhdg","pricing_plan_id":"cebpf4jnsgd1na2vs0mg"},{"bike_id":"51d58731-3602-4b5d-afa9-5c7b297d8b0d","system_id":"levelo_inurba_marseille","lat":43.29677,"lon":5.37288,"is_reserved":false,"is_disabled":false,"rental_uris":{"android":"levelo://app?vid=51d58731-3602-4b5d-afa9-5c7b297d8b0d","ios":"levelo://app?vid=51d58731-3602-4b5d-afa9-5c7b297d8b0d"},"vehicle_type_id":"4","last_reported":1734437951,"current_range_meters":20400,"station_id":"ce4bgk12rcd13ifvqbj0","pricing_plan_id":"cebpf4jnsgd1na2vs0mg"},{"bike_id":"f00a63f1-ffba-457a-93eb-7ff0315f6052","system_id":"levelo_inurba_marseille","lat":43.2466,"lon":5.3816,"is_reserved":false,"is_disabled":false,"rental_uris":{"android":"levelo://app?vid=f00a63f1-ffba-457a-93eb-7ff0315f6052","ios":"levelo://app?vid=f00a63f1-ffba-457a-93eb-7ff0315f6052"},"vehicle_type_id":"4","last_reported":1734437951,"current_range_meters":37600,"station_id":"ce4bhih2rcd13ifvqfr0","pricing_plan_id":"cebpf4jnsgd1na2vs0mg"},{"bike_id":"1b35c38b-b763-472e-ab0e-c507ff9dd034","system_id":"levelo_inurba_marseille","lat":43.26193,"lon":5.37444,"is_reserved":false,"is_disabled":false,"rental_uris":{"android":"levelo://app?vid=1b35c38b-b763-472e-ab0e-c507ff9dd034","ios":"levelo://app?vid=1b35c38b-b763-472e-ab0e-c507ff9dd034"},"vehicle_type_id":"4","last_reported":1734437951,"current_range_meters":36400,"station_id":"ce4bhgp2rcd13ifvqfc0","pricing_plan_id":"cebpf4jnsgd1na2vs0mg"},{"bike_id":"e70d4dff-c791-447b-a5ae-12d47e70a255","system_id":"levelo_inurba_marseille","lat":43.28846,"lon":5.35871,"is_reserved":false,"is_disabled":false,"rental_uris":{"android":"levelo://app?vid=e70d4dff-c791-447b-a5ae-12d47e70a255","ios":"levelo://app?vid=e70d4dff-c791-447b-a5ae-12d47e70a255"},"vehicle_type_id":"4","last_reported":1734437951,"current_range_meters":38400,"station_id":"ce4bhb12rcd13ifvqem0","pricing_plan_id":"cebpf4jnsgd1na2vs0mg"},{"bike_id":"5a2daf4b-5018-4575-b909-272bf976b2a3","system_id":"levelo_inurba_marseille","lat":43.30291,"lon":5.36908,"is_reserved":false,"is_disabled":false,"rental_uris":{"android":"levelo://app?vid=5a2daf4b-5018-4575-b909-272bf976b2a3","ios":"levelo://app?vid=5a2daf4b-5018-4575-b909-272bf976b2a3"},"vehicle_type_id":"4","last_reported":1734437951,"current_range_meters":27200,"station_id":"ce4bgqh2rcd13ifvqc5g","pricing_plan_id":"cebpf4jnsgd1na2vs0mg"},{"bike_id":"491c9d1e-d534-4418-8bdc-23649286cf0b","system_id":"levelo_inurba_marseille","lat":43.24387,"lon":5.37049,"is_reserved":false,"is_disabled":false,"rental_uris":{"android":"levelo://app?vid=491c9d1e-d534-4418-8bdc-23649286cf0b","ios":"levelo://app?vid=491c9d1e-d534-4418-8bdc-23649286cf0b"},"vehicle_type_id":"4","last_reported":1734437951,"current_range_meters":29600,"station_id":"ce4bhhh2rcd13ifvqfk0","pricing_plan_id":"cebpf4jnsgd1na2vs0mg"},{"bike_id":"a1c1fbba-9f8b-4e55-a7e6-e3031108193b","system_id":"levelo_inurba_marseille","lat":43.29842,"lon":5.36273,"is_reserved":false,"is_disabled":false,"rental_uris":{"android":"levelo://app?vid=a1c1fbba-9f8b-4e55-a7e6-e3031108193b","ios":"levelo://app?vid=a1c1fbba-9f8b-4e55-a7e6-e3031108193b"},"vehicle_type_id":"4","last_reported":1734437951,"current_range_meters":38800,"station_id":"ce4bgpp2rcd13ifvqc3g","pricing_plan_id":"cebpf4jnsgd1na2vs0mg"},{"bike_id":"49003dfc-63e2-4783-9cef-579fc78f36f9","system_id":"levelo_inurba_marseille","lat":43.29568,"lon":5.39969,"is_reserved":false,"is_disabled":false,"rental_uris":{"android":"levelo://app?vid=49003dfc-63e2-4783-9cef-579fc78f36f9","ios":"levelo://app?vid=49003dfc-63e2-4783-9cef-579fc78f36f9"},"vehicle_type_id":"4","last_reported":1734437951,"current_range_meters":26800,"station_id":"ce4bh312rcd13ifvqdj0","pricing_plan_id":"cebpf4jnsgd1na2vs0mg"},{"bike_id":"628ebc57-49da-4537-b862-e631ecd1aef0","system_id":"levelo_inurba_marseille","lat":43.28428,"lon":5.35004,"is_reserved":false,"is_disabled":false,"rental_uris":{"android":"levelo://app?vid=628ebc57-49da-4537-b862-e631ecd1aef0","ios":"levelo://app?vid=628ebc57-49da-4537-b862-e631ecd1aef0"},"vehicle_type_id":"4","last_reported":1734437951,"current_range_meters":36400,"station_id":"ce4bhbh2rcd13ifvqepg","pricing_plan_id":"cebpf4jnsgd1na2vs0mg"},{"bike_id":"76b85fd9-94a8-4d27-9836-3b405519d0c6","system_id":"levelo_inurba_marseille","lat":43.28098,"lon":5.37832,"is_reserved":false,"is_disabled":false,"rental_uris":{"android":"levelo://app?vid=76b85fd9-94a8-4d27-9836-3b405519d0c6","ios":"levelo://app?vid=76b85fd9-94a8-4d27-9836-3b405519d0c6"},"vehicle_type_id":"4","last_reported":1734437951,"current_range_meters":36400,"station_id":"ce4bha12rcd13ifvqee0","pricing_plan_id":"cebpf4jnsgd1na2vs0mg"},{"bike_id":"d7555f75-e3a4-4132-831d-4d469450cbaf","system_id":"levelo_inurba_marseille","lat":43.301824,"lon":5.366121,"is_reserved":false,"is_disabled":false,"rental_uris":{"android":"levelo://app?vid=d7555f75-e3a4-4132-831d-4d469450cbaf","ios":"levelo://app?vid=d7555f75-e3a4-4132-831d-4d469450cbaf"},"vehicle_type_id":"4","last_reported":1734437951,"current_range_meters":22000,"station_id":"ce4bgrh2rcd13ifvqc8g","pricing_plan_id":"cebpf4jnsgd1na2vs0mg"},{"bike_id":"d283b9e9-469d-4791-9530-ca9134c5a01e","system_id":"levelo_inurba_marseille","lat":43.27055,"lon":5.4026,"is_reserved":false,"is_disabled":false,"rental_uris":{"android":"levelo://app?vid=d283b9e9-469d-4791-9530-ca9134c5a01e","ios":"levelo://app?vid=d283b9e9-469d-4791-9530-ca9134c5a01e"},"vehicle_type_id":"4","last_reported":1734437951,"current_range_meters":27200,"station_id":"ce4bhk92rcd13ifvqgc0","pricing_plan_id":"cebpf4jnsgd1na2vs0mg"},{"bike_id":"2290742f-5615-4660-ac62-495e69bec5cf","system_id":"levelo_inurba_marseille","lat":43.26213,"lon":5.37453,"is_reserved":false,"is_disabled":false,"rental_uris":{"android":"levelo://app?vid=2290742f-5615-4660-ac62-495e69bec5cf","ios":"levelo://app?vid=2290742f-5615-4660-ac62-495e69bec5cf"},"vehicle_type_id":"4","last_reported":1734437951,"current_range_meters":19200,"station_id":"ce4bhgp2rcd13ifvqfc0","pricing_plan_id":"cebpf4jnsgd1na2vs0mg"},{"bike_id":"c8633fba-d966-4eb0-9128-6e7147230d93","system_id":"levelo_inurba_marseille","lat":43.24806,"lon":5.37457,"is_reserved":false,"is_disabled":false,"rental_uris":{"android":"levelo://app?vid=c8633fba-d966-4eb0-9128-6e7147230d93","ios":"levelo://app?vid=c8633fba-d966-4eb0-9128-6e7147230d93"},"vehicle_type_id":"4","last_reported":1734437951,"current_range_meters":38800,"station_id":"ce4bhgh2rcd13ifvqfb0","pricing_plan_id":"cebpf4jnsgd1na2vs0mg"},{"bike_id":"8cadfb8a-358a-4856-9147-c3482cc7eb21","system_id":"levelo_inurba_marseille","lat":43.27428,"lon":5.39406,"is_reserved":false,"is_disabled":false,"rental_uris":{"android":"levelo://app?vid=8cadfb8a-358a-4856-9147-c3482cc7eb21","ios":"levelo://app?vid=8cadfb8a-358a-4856-9147-c3482cc7eb21"},"vehicle_type_id":"4","last_reported":1734437951,"current_range_meters":20000,"station_id":"ce4bhdp2rcd13ifvqf20","pricing_plan_id":"cebpf4jnsgd1na2vs0mg"},{"bike_id":"b341511f-7d6d-4e1c-83d0-7b47ba56eab2","system_id":"levelo_inurba_marseille","lat":43.29273,"lon":5.40122,"is_reserved":false,"is_disabled":false,"rental_uris":{"android":"levelo://app?vid=b341511f-7d6d-4e1c-83d0-7b47ba56eab2","ios":"levelo://app?vid=b341511f-7d6d-4e1c-83d0-7b47ba56eab2"},"vehicle_type_id":"4","last_reported":1734437951,"current_range_meters":36800,"station_id":"ce4bh312rcd13ifvqdk0","pricing_plan_id":"cebpf4jnsgd1na2vs0mg"},{"bike_id":"89df0b58-342d-485b-87a5-6dea34918c0f","system_id":"levelo_inurba_marseille","lat":43.29578,"lon":5.36743,"is_reserved":false,"is_disabled":false,"rental_uris":{"android":"levelo://app?vid=89df0b58-342d-485b-87a5-6dea34918c0f","ios":"levelo://app?vid=89df0b58-342d-485b-87a5-6dea34918c0f"},"vehicle_type_id":"4","last_reported":1734437951,"current_range_meters":17200,"station_id":"ce4bgph2rcd13ifvqc2g","pricing_plan_id":"cebpf4jnsgd1na2vs0mg"},{"bike_id":"528235a9-b9e5-474f-b03e-a6d635d5793c","system_id":"levelo_inurba_marseille","lat":43.30193,"lon":5.36637,"is_reserved":false,"is_disabled":false,"rental_uris":{"android":"levelo://app?vid=528235a9-b9e5-474f-b03e-a6d635d5793c","ios":"levelo://app?vid=528235a9-b9e5-474f-b03e-a6d635d5793c"},"vehicle_type_id":"4","last_reported":1734437951,"current_range_meters":35200,"station_id":"ce4bgrh2rcd13ifvqc8g","pricing_plan_id":"cebpf4jnsgd1na2vs0mg"},{"bike_id":"954f7240-cc4d-4c9d-a0f9-f23eb102bca2","system_id":"levelo_inurba_marseille","lat":43.29529,"lon":5.38544,"is_reserved":false,"is_disabled":false,"rental_uris":{"android":"levelo://app?vid=954f7240-cc4d-4c9d-a0f9-f23eb102bca2","ios":"levelo://app?vid=954f7240-cc4d-4c9d-a0f9-f23eb102bca2"},"vehicle_type_id":"4","last_reported":1734437951,"current_range_meters":26000,"station_id":"ce4bgih2rcd13ifvqba0","pricing_plan_id":"cebpf4jnsgd1na2vs0mg"},{"bike_id":"ebef13cd-16d0-4396-9ebc-078adb879fe9","system_id":"levelo_inurba_marseille","lat":43.29833,"lon":5.36266,"is_reserved":false,"is_disabled":false,"rental_uris":{"android":"levelo://app?vid=ebef13cd-16d0-4396-9ebc-078adb879fe9","ios":"levelo://app?vid=ebef13cd-16d0-4396-9ebc-078adb879fe9"},"vehicle_type_id":"4","last_reported":1734437951,"current_range_meters":38000,"station_id":"ce4bgpp2rcd13ifvqc3g","pricing_plan_id":"cebpf4jnsgd1na2vs0mg"},{"bike_id":"485ba61d-b271-4e6a-b663-6f4ed40085d4","system_id":"levelo_inurba_marseille","lat":43.2994,"lon":5.36558,"is_reserved":false,"is_disabled":true,"rental_uris":{"android":"levelo://app?vid=485ba61d-b271-4e6a-b663-6f4ed40085d4","ios":"levelo://app?vid=485ba61d-b271-4e6a-b663-6f4ed40085d4"},"vehicle_type_id":"4","last_reported":1734437951,"current_range_meters":33600,"station_id":"ce4bgm92rcd13ifvqbr0","pricing_plan_id":"cebpf4jnsgd1na2vs0mg"},{"bike_id":"2145d229-7839-4ece-b3f9-3d679533add2","system_id":"levelo_inurba_marseille","lat":43.33741,"lon":5.37459,"is_reserved":false,"is_disabled":true,"rental_uris":{"android":"levelo://app?vid=2145d229-7839-4ece-b3f9-3d679533add2","ios":"levelo://app?vid=2145d229-7839-4ece-b3f9-3d679533add2"},"vehicle_type_id":"4","last_reported":1734437951,"current_range_meters":18000,"station_id":"","pricing_plan_id":"cebpf4jnsgd1na2vs0mg"},{"bike_id":"87cc57ff-c3fd-4c8c-97a3-71773ad06acd","system_id":"levelo_inurba_marseille","lat":43.27309,"lon":5.39087,"is_reserved":false,"is_disabled":false,"rental_uris":{"android":"levelo://app?vid=87cc57ff-c3fd-4c8c-97a3-71773ad06acd","ios":"levelo://app?vid=87cc57ff-c3fd-4c8c-97a3-71773ad06acd"},"vehicle_type_id":"4","last_reported":1734437951,"current_range_meters":38800,"station_id":"ce4bhgp2rcd13ifvqfe0","pricing_plan_id":"cebpf4jnsgd1na2vs0mg"},{"bike_id":"d62ac77d-2289-4abf-97b7-04296f31e62a","system_id":"levelo_inurba_marseille","lat":43.28691,"lon":5.3739,"is_reserved":false,"is_disabled":true,"rental_uris":{"android":"levelo://app?vid=d62ac77d-2289-4abf-97b7-04296f31e62a","ios":"levelo://app?vid=d62ac77d-2289-4abf-97b7-04296f31e62a"},"vehicle_type_id":"4","last_reported":1734437951,"current_range_meters":0,"station_id":"ce4bh3p2rcd13ifvqdq0","pricing_plan_id":"cebpf4jnsgd1na2vs0mg"},{"bike_id":"528b0bab-c0c1-474e-930e-fb8e01a6d992","system_id":"levelo_inurba_marseille","lat":43.30138,"lon":5.38781,"is_reserved":false,"is_disabled":false,"rental_uris":{"android":"levelo://app?vid=528b0bab-c0c1-474e-930e-fb8e01a6d992","ios":"levelo://app?vid=528b0bab-c0c1-474e-930e-fb8e01a6d992"},"vehicle_type_id":"4","last_reported":1734437951,"current_range_meters":28400,"station_id":"ce4bghh2rcd13ifvqb60","pricing_plan_id":"cebpf4jnsgd1na2vs0mg"},{"bike_id":"acd2dde7-c22f-4a58-ab5d-28e98de57bf7","system_id":"levelo_inurba_marseille","lat":43.28483,"lon":5.38407,"is_reserved":false,"is_disabled":false,"rental_uris":{"android":"levelo://app?vid=acd2dde7-c22f-4a58-ab5d-28e98de57bf7","ios":"levelo://app?vid=acd2dde7-c22f-4a58-ab5d-28e98de57bf7"},"vehicle_type_id":"4","last_reported":1734437951,"current_range_meters":32800,"station_id":"ce4bh512rcd13ifvqe3g","pricing_plan_id":"cebpf4jnsgd1na2vs0mg"},{"bike_id":"a05fac21-a78b-4e1b-9e08-ed1afb81896d","system_id":"levelo_inurba_marseille","lat":43.301494,"lon":5.374077,"is_reserved":false,"is_disabled":false,"rental_uris":{"android":"levelo://app?vid=a05fac21-a78b-4e1b-9e08-ed1afb81896d","ios":"levelo://app?vid=a05fac21-a78b-4e1b-9e08-ed1afb81896d"},"vehicle_type_id":"4","last_reported":1734437951,"current_range_meters":6400,"station_id":"ce4bgs92rcd13ifvqcc0","pricing_plan_id":"cebpf4jnsgd1na2vs0mg"},{"bike_id":"59f3f0ba-2ef1-403f-885d-6f5b1ea4c104","system_id":"levelo_inurba_marseille","lat":43.2904,"lon":5.35919,"is_reserved":false,"is_disabled":false,"rental_uris":{"android":"levelo://app?vid=59f3f0ba-2ef1-403f-885d-6f5b1ea4c104","ios":"levelo://app?vid=59f3f0ba-2ef1-403f-885d-6f5b1ea4c104"},"vehicle_type_id":"4","last_reported":1734437951,"current_range_meters":38800,"station_id":"ce4bha92rcd13ifvqeg0","pricing_plan_id":"cebpf4jnsgd1na2vs0mg"},{"bike_id":"cab5cb01-b33a-421c-bfaf-c7630f90de8b","system_id":"levelo_inurba_marseille","lat":43.29041,"lon":5.39961,"is_reserved":false,"is_disabled":true,"rental_uris":{"android":"levelo://app?vid=cab5cb01-b33a-421c-bfaf-c7630f90de8b","ios":"levelo://app?vid=cab5cb01-b33a-421c-bfaf-c7630f90de8b"},"vehicle_type_id":"4","last_reported":1734437951,"current_range_meters":800,"station_id":"ce4bh392rcd13ifvqdm0","pricing_plan_id":"cebpf4jnsgd1na2vs0mg"},{"bike_id":"78f5dcee-b6ca-4cfa-ae6f-ebcf64be1236","system_id":"levelo_inurba_marseille","lat":43.32334,"lon":5.4063,"is_reserved":false,"is_disabled":true,"rental_uris":{"android":"levelo://app?vid=78f5dcee-b6ca-4cfa-ae6f-ebcf64be1236","ios":"levelo://app?vid=78f5dcee-b6ca-4cfa-ae6f-ebcf64be1236"},"vehicle_type_id":"4","last_reported":1734437951,"current_range_meters":0,"station_id":"ce4bhq92rcd13ifvqhjg","pricing_plan_id":"cebpf4jnsgd1na2vs0mg"},{"bike_id":"9be197f5-0403-45c0-9822-79adef79c188","system_id":"levelo_inurba_marseille","lat":43.25,"lon":5.389286,"is_reserved":false,"is_disabled":false,"rental_uris":{"android":"levelo://app?vid=9be197f5-0403-45c0-9822-79adef79c188","ios":"levelo://app?vid=9be197f5-0403-45c0-9822-79adef79c188"},"vehicle_type_id":"4","last_reported":1734437951,"current_range_meters":36800,"station_id":"ce4bhgp2rcd13ifvqfd0","pricing_plan_id":"cebpf4jnsgd1na2vs0mg"},{"bike_id":"d1adb045-11f4-4330-9d2b-f77d89c262d4","system_id":"levelo_inurba_marseille","lat":43.29305,"lon":5.37177,"is_reserved":false,"is_disabled":true,"rental_uris":{"android":"levelo://app?vid=d1adb045-11f4-4330-9d2b-f77d89c262d4","ios":"levelo://app?vid=d1adb045-11f4-4330-9d2b-f77d89c262d4"},"vehicle_type_id":"4","last_reported":1734437951,"current_range_meters":38000,"station_id":"ce4bgh92rcd13ifvqb40","pricing_plan_id":"cebpf4jnsgd1na2vs0mg"},{"bike_id":"41f814c0-78c4-47ef-b1fb-0e8cf666432c","system_id":"levelo_inurba_marseille","lat":43.2953,"lon":5.38546,"is_reserved":false,"is_disabled":false,"rental_uris":{"android":"levelo://app?vid=41f814c0-78c4-47ef-b1fb-0e8cf666432c","ios":"levelo://app?vid=41f814c0-78c4-47ef-b1fb-0e8cf666432c"},"vehicle_type_id":"4","last_reported":1734437951,"current_range_meters":35600,"station_id":"ce4bgih2rcd13ifvqba0","pricing_plan_id":"cebpf4jnsgd1na2vs0mg"},{"bike_id":"6046db9f-1e3a-4293-9750-5d2e7386cd58","system_id":"levelo_inurba_marseille","lat":43.23965,"lon":5.36643,"is_reserved":false,"is_disabled":false,"rental_uris":{"android":"levelo://app?vid=6046db9f-1e3a-4293-9750-5d2e7386cd58","ios":"levelo://app?vid=6046db9f-1e3a-4293-9750-5d2e7386cd58"},"vehicle_type_id":"4","last_reported":1734437951,"current_range_meters":12400,"station_id":"ce4bhi12rcd13ifvqfp0","pricing_plan_id":"cebpf4jnsgd1na2vs0mg"},{"bike_id":"7dbef647-048e-4b11-939f-01a8d9aaa947","system_id":"levelo_inurba_marseille","lat":43.27311,"lon":5.39085,"is_reserved":false,"is_disabled":false,"rental_uris":{"android":"levelo://app?vid=7dbef647-048e-4b11-939f-01a8d9aaa947","ios":"levelo://app?vid=7dbef647-048e-4b11-939f-01a8d9aaa947"},"vehicle_type_id":"4","last_reported":1734437951,"current_range_meters":34000,"station_id":"ce4bhgp2rcd13ifvqfe0","pricing_plan_id":"cebpf4jnsgd1na2vs0mg"},{"bike_id":"bfbabb6f-cbcf-4a00-ac65-d6345a496269","system_id":"levelo_inurba_marseille","lat":43.30554,"lon":5.36529,"is_reserved":false,"is_disabled":false,"rental_uris":{"android":"levelo://app?vid=bfbabb6f-cbcf-4a00-ac65-d6345a496269","ios":"levelo://app?vid=bfbabb6f-cbcf-4a00-ac65-d6345a496269"},"vehicle_type_id":"4","last_reported":1734437951,"current_range_meters":27200,"station_id":"ce4bgs12rcd13ifvqcag","pricing_plan_id":"cebpf4jnsgd1na2vs0mg"},{"bike_id":"55e10bfc-798b-48b7-9661-2ee0b769abeb","system_id":"levelo_inurba_marseille","lat":43.30533,"lon":5.38437,"is_reserved":false,"is_disabled":false,"rental_uris":{"android":"levelo://app?vid=55e10bfc-798b-48b7-9661-2ee0b769abeb","ios":"levelo://app?vid=55e10bfc-798b-48b7-9661-2ee0b769abeb"},"vehicle_type_id":"4","last_reported":1734437951,"current_range_meters":38800,"station_id":"ce4bgg92rcd13ifvqb30","pricing_plan_id":"cebpf4jnsgd1na2vs0mg"},{"bike_id":"03ce4e06-7fdc-4b0e-913f-14cea80c2caf","system_id":"levelo_inurba_marseille","lat":43.2929,"lon":5.37448,"is_reserved":false,"is_disabled":false,"rental_uris":{"android":"levelo://app?vid=03ce4e06-7fdc-4b0e-913f-14cea80c2caf","ios":"levelo://app?vid=03ce4e06-7fdc-4b0e-913f-14cea80c2caf"},"vehicle_type_id":"4","last_reported":1734437951,"current_range_meters":38800,"station_id":"ce4bgi12rcd13ifvqb70","pricing_plan_id":"cebpf4jnsgd1na2vs0mg"},{"bike_id":"8f999bf4-19b7-4df8-ab2c-90fbbe76c703","system_id":"levelo_inurba_marseille","lat":43.27989,"lon":5.4003,"is_reserved":false,"is_disabled":false,"rental_uris":{"android":"levelo://app?vid=8f999bf4-19b7-4df8-ab2c-90fbbe76c703","ios":"levelo://app?vid=8f999bf4-19b7-4df8-ab2c-90fbbe76c703"},"vehicle_type_id":"4","last_reported":1734437951,"current_range_meters":38800,"station_id":"ce4bho92rcd13ifvqh4g","pricing_plan_id":"cebpf4jnsgd1na2vs0mg"},{"bike_id":"9a9ca54f-8f83-4db0-b780-a7eb0fa7f88d","system_id":"levelo_inurba_marseille","lat":43.2602,"lon":5.37558,"is_reserved":false,"is_disabled":false,"rental_uris":{"android":"levelo://app?vid=9a9ca54f-8f83-4db0-b780-a7eb0fa7f88d","ios":"levelo://app?vid=9a9ca54f-8f83-4db0-b780-a7eb0fa7f88d"},"vehicle_type_id":"4","last_reported":1734437951,"current_range_meters":37600,"station_id":"ce4bhgh2rcd13ifvqfa0","pricing_plan_id":"cebpf4jnsgd1na2vs0mg"},{"bike_id":"c95988c2-c8eb-41d0-876d-7ef83f3c500e","system_id":"levelo_inurba_marseille","lat":43.24384,"lon":5.37063,"is_reserved":false,"is_disabled":false,"rental_uris":{"android":"levelo://app?vid=c95988c2-c8eb-41d0-876d-7ef83f3c500e","ios":"levelo://app?vid=c95988c2-c8eb-41d0-876d-7ef83f3c500e"},"vehicle_type_id":"4","last_reported":1734437951,"current_range_meters":38800,"station_id":"ce4bhhh2rcd13ifvqfk0","pricing_plan_id":"cebpf4jnsgd1na2vs0mg"},{"bike_id":"6cf9a3fa-e89d-4e47-ac71-7adbf6f14141","system_id":"levelo_inurba_marseille","lat":43.29538,"lon":5.423,"is_reserved":false,"is_disabled":true,"rental_uris":{"android":"levelo://app?vid=6cf9a3fa-e89d-4e47-ac71-7adbf6f14141","ios":"levelo://app?vid=6cf9a3fa-e89d-4e47-ac71-7adbf6f14141"},"vehicle_type_id":"4","last_reported":1734437951,"current_range_meters":34800,"station_id":"ce4bhph2rcd13ifvqhdg","pricing_plan_id":"cebpf4jnsgd1na2vs0mg"},{"bike_id":"da57aa68-d142-42a8-a41a-f99538cb51d3","system_id":"levelo_inurba_marseille","lat":43.28931,"lon":5.36654,"is_reserved":false,"is_disabled":false,"rental_uris":{"android":"levelo://app?vid=da57aa68-d142-42a8-a41a-f99538cb51d3","ios":"levelo://app?vid=da57aa68-d142-42a8-a41a-f99538cb51d3"},"vehicle_type_id":"4","last_reported":1734437951,"current_range_meters":10000,"station_id":"ce4bhap2rcd13ifvqek0","pricing_plan_id":"cebpf4jnsgd1na2vs0mg"},{"bike_id":"2fb89adf-305b-43ac-b40a-b2c625a19cf4","system_id":"levelo_inurba_marseille","lat":43.24656,"lon":5.38898,"is_reserved":false,"is_disabled":false,"rental_uris":{"android":"levelo://app?vid=2fb89adf-305b-43ac-b40a-b2c625a19cf4","ios":"levelo://app?vid=2fb89adf-305b-43ac-b40a-b2c625a19cf4"},"vehicle_type_id":"4","last_reported":1734437951,"current_range_meters":26800,"station_id":"ce4bhg12rcd13ifvqf60","pricing_plan_id":"cebpf4jnsgd1na2vs0mg"},{"bike_id":"c219a7df-ad09-4d1f-888c-f951431d2cc1","system_id":"levelo_inurba_marseille","lat":43.28277,"lon":5.35073,"is_reserved":false,"is_disabled":false,"rental_uris":{"android":"levelo://app?vid=c219a7df-ad09-4d1f-888c-f951431d2cc1","ios":"levelo://app?vid=c219a7df-ad09-4d1f-888c-f951431d2cc1"},"vehicle_type_id":"4","last_reported":1734437951,"current_range_meters":36000,"station_id":"ce4bhbp2rcd13ifvqerg","pricing_plan_id":"cebpf4jnsgd1na2vs0mg"},{"bike_id":"bdf3034e-62b9-4ee0-8cec-ae18930d0c4b","system_id":"levelo_inurba_marseille","lat":43.266832,"lon":5.382705,"is_reserved":false,"is_disabled":false,"rental_uris":{"android":"levelo://app?vid=bdf3034e-62b9-4ee0-8cec-ae18930d0c4b","ios":"levelo://app?vid=bdf3034e-62b9-4ee0-8cec-ae18930d0c4b"},"vehicle_type_id":"4","last_reported":1734437951,"current_range_meters":32800,"station_id":"ce4bhg92rcd13ifvqf90","pricing_plan_id":"cebpf4jnsgd1na2vs0mg"},{"bike_id":"daf0666b-a904-4d3a-8a61-b89c9e25c851","system_id":"levelo_inurba_marseille","lat":43.24541,"lon":5.39525,"is_reserved":false,"is_disabled":false,"rental_uris":{"android":"levelo://app?vid=daf0666b-a904-4d3a-8a61-b89c9e25c851","ios":"levelo://app?vid=daf0666b-a904-4d3a-8a61-b89c9e25c851"},"vehicle_type_id":"4","last_reported":1734437951,"current_range_meters":7200,"station_id":"ce4bhlp2rcd13ifvqgjg","pricing_plan_id":"cebpf4jnsgd1na2vs0mg"},{"bike_id":"a7e50631-2acc-463c-a7ce-21f9700b06c1","system_id":"levelo_inurba_marseille","lat":43.2407,"lon":5.37763,"is_reserved":false,"is_disabled":false,"rental_uris":{"android":"levelo://app?vid=a7e50631-2acc-463c-a7ce-21f9700b06c1","ios":"levelo://app?vid=a7e50631-2acc-463c-a7ce-21f9700b06c1"},"vehicle_type_id":"4","last_reported":1734437951,"current_range_meters":26000,"station_id":"ce4bhnp2rcd13ifvqgvg","pricing_plan_id":"cebpf4jnsgd1na2vs0mg"},{"bike_id":"a104c3f8-d3c0-4ac5-82c4-290bf9a02c1a","system_id":"levelo_inurba_marseille","lat":43.299763,"lon":5.371793,"is_reserved":false,"is_disabled":false,"rental_uris":{"android":"levelo://app?vid=a104c3f8-d3c0-4ac5-82c4-290bf9a02c1a","ios":"levelo://app?vid=a104c3f8-d3c0-4ac5-82c4-290bf9a02c1a"},"vehicle_type_id":"4","last_reported":1734437951,"current_range_meters":37600,"station_id":"ce4bgr92rcd13ifvqc7g","pricing_plan_id":"cebpf4jnsgd1na2vs0mg"},{"bike_id":"d3e743ee-8c3f-4efd-b466-f9c21ea0dbee","system_id":"levelo_inurba_marseille","lat":43.32345,"lon":5.41466,"is_reserved":false,"is_disabled":false,"rental_uris":{"android":"levelo://app?vid=d3e743ee-8c3f-4efd-b466-f9c21ea0dbee","ios":"levelo://app?vid=d3e743ee-8c3f-4efd-b466-f9c21ea0dbee"},"vehicle_type_id":"4","last_reported":1734437951,"current_range_meters":33600,"station_id":"","pricing_plan_id":"cebpf4jnsgd1na2vs0mg"},{"bike_id":"14a08d23-f3c3-4cdb-bad8-a3e95a65ff56","system_id":"levelo_inurba_marseille","lat":43.2511,"lon":5.40311,"is_reserved":false,"is_disabled":false,"rental_uris":{"android":"levelo://app?vid=14a08d23-f3c3-4cdb-bad8-a3e95a65ff56","ios":"levelo://app?vid=14a08d23-f3c3-4cdb-bad8-a3e95a65ff56"},"vehicle_type_id":"4","last_reported":1734437951,"current_range_meters":36400,"station_id":"ce4bhlh2rcd13ifvqgig","pricing_plan_id":"cebpf4jnsgd1na2vs0mg"},{"bike_id":"1c06df37-cafa-447f-bba3-6451f09547fe","system_id":"levelo_inurba_marseille","lat":43.30539,"lon":5.36533,"is_reserved":false,"is_disabled":false,"rental_uris":{"android":"levelo://app?vid=1c06df37-cafa-447f-bba3-6451f09547fe","ios":"levelo://app?vid=1c06df37-cafa-447f-bba3-6451f09547fe"},"vehicle_type_id":"4","last_reported":1734437951,"current_range_meters":38800,"station_id":"ce4bgs12rcd13ifvqcag","pricing_plan_id":"cebpf4jnsgd1na2vs0mg"},{"bike_id":"72f5024c-f42b-4dbe-8b29-34ae2b8875af","system_id":"levelo_inurba_marseille","lat":43.30453,"lon":5.37902,"is_reserved":false,"is_disabled":false,"rental_uris":{"android":"levelo://app?vid=72f5024c-f42b-4dbe-8b29-34ae2b8875af","ios":"levelo://app?vid=72f5024c-f42b-4dbe-8b29-34ae2b8875af"},"vehicle_type_id":"4","last_reported":1734437951,"current_range_meters":32400,"station_id":"ce4bgup2rcd13ifvqcn0","pricing_plan_id":"cebpf4jnsgd1na2vs0mg"},{"bike_id":"2b87d84c-09c5-402d-b95e-5668f6b4ae20","system_id":"levelo_inurba_marseille","lat":43.30144,"lon":5.37421,"is_reserved":false,"is_disabled":false,"rental_uris":{"android":"levelo://app?vid=2b87d84c-09c5-402d-b95e-5668f6b4ae20","ios":"levelo://app?vid=2b87d84c-09c5-402d-b95e-5668f6b4ae20"},"vehicle_type_id":"4","last_reported":1734437951,"current_range_meters":4400,"station_id":"ce4bgs92rcd13ifvqcc0","pricing_plan_id":"cebpf4jnsgd1na2vs0mg"},{"bike_id":"7dec4137-4ce6-412a-b618-d8897bfaf458","system_id":"levelo_inurba_marseille","lat":43.30207,"lon":5.39466,"is_reserved":false,"is_disabled":false,"rental_uris":{"android":"levelo://app?vid=7dec4137-4ce6-412a-b618-d8897bfaf458","ios":"levelo://app?vid=7dec4137-4ce6-412a-b618-d8897bfaf458"},"vehicle_type_id":"4","last_reported":1734437951,"current_range_meters":34000,"station_id":"ce4bh0p2rcd13ifvqd70","pricing_plan_id":"cebpf4jnsgd1na2vs0mg"},{"bike_id":"c8399855-72d4-4f25-aa5a-52a18924a7b8","system_id":"levelo_inurba_marseille","lat":43.24162,"lon":5.36395,"is_reserved":false,"is_disabled":false,"rental_uris":{"android":"levelo://app?vid=c8399855-72d4-4f25-aa5a-52a18924a7b8","ios":"levelo://app?vid=c8399855-72d4-4f25-aa5a-52a18924a7b8"},"vehicle_type_id":"4","last_reported":1734437951,"current_range_meters":11200,"station_id":"cpo36qri1sfpv3e86is0","pricing_plan_id":"cebpf4jnsgd1na2vs0mg"},{"bike_id":"8ae9b01e-e59a-4f07-9e5e-49e3a024236c","system_id":"levelo_inurba_marseille","lat":43.3009,"lon":5.39083,"is_reserved":false,"is_disabled":false,"rental_uris":{"android":"levelo://app?vid=8ae9b01e-e59a-4f07-9e5e-49e3a024236c","ios":"levelo://app?vid=8ae9b01e-e59a-4f07-9e5e-49e3a024236c"},"vehicle_type_id":"4","last_reported":1734437951,"current_range_meters":38000,"station_id":"ce4bh192rcd13ifvqdb0","pricing_plan_id":"cebpf4jnsgd1na2vs0mg"},{"bike_id":"7e62f384-c891-4a26-8814-0f7a4db07555","system_id":"levelo_inurba_marseille","lat":43.30466,"lon":5.37919,"is_reserved":false,"is_disabled":false,"rental_uris":{"android":"levelo://app?vid=7e62f384-c891-4a26-8814-0f7a4db07555","ios":"levelo://app?vid=7e62f384-c891-4a26-8814-0f7a4db07555"},"vehicle_type_id":"4","last_reported":1734437951,"current_range_meters":31200,"station_id":"ce4bgup2rcd13ifvqcn0","pricing_plan_id":"cebpf4jnsgd1na2vs0mg"},{"bike_id":"84376599-27db-4361-bb5a-fcc6460505fb","system_id":"levelo_inurba_marseille","lat":43.30595,"lon":5.39363,"is_reserved":false,"is_disabled":false,"rental_uris":{"android":"levelo://app?vid=84376599-27db-4361-bb5a-fcc6460505fb","ios":"levelo://app?vid=84376599-27db-4361-bb5a-fcc6460505fb"},"vehicle_type_id":"4","last_reported":1734437951,"current_range_meters":38400,"station_id":"ce4bh0p2rcd13ifvqd80","pricing_plan_id":"cebpf4jnsgd1na2vs0mg"},{"bike_id":"aa8ad162-0fab-44f2-a72b-c4c6288ec375","system_id":"levelo_inurba_marseille","lat":43.24547,"lon":5.39534,"is_reserved":false,"is_disabled":false,"rental_uris":{"android":"levelo://app?vid=aa8ad162-0fab-44f2-a72b-c4c6288ec375","ios":"levelo://app?vid=aa8ad162-0fab-44f2-a72b-c4c6288ec375"},"vehicle_type_id":"4","last_reported":1734437951,"current_range_meters":9200,"station_id":"ce4bhlp2rcd13ifvqgjg","pricing_plan_id":"cebpf4jnsgd1na2vs0mg"},{"bike_id":"5314aefe-f931-4c7d-8b9e-4f6e48fd0640","system_id":"levelo_inurba_marseille","lat":43.3035,"lon":5.41881,"is_reserved":false,"is_disabled":false,"rental_uris":{"android":"levelo://app?vid=5314aefe-f931-4c7d-8b9e-4f6e48fd0640","ios":"levelo://app?vid=5314aefe-f931-4c7d-8b9e-4f6e48fd0640"},"vehicle_type_id":"4","last_reported":1734437951,"current_range_meters":39200,"station_id":"ce4bhop2rcd13ifvqh7g","pricing_plan_id":"cebpf4jnsgd1na2vs0mg"},{"bike_id":"f4c3e2df-21f9-4b94-b06b-917856d2e9e5","system_id":"levelo_inurba_marseille","lat":43.23156,"lon":5.43701,"is_reserved":false,"is_disabled":false,"rental_uris":{"android":"levelo://app?vid=f4c3e2df-21f9-4b94-b06b-917856d2e9e5","ios":"levelo://app?vid=f4c3e2df-21f9-4b94-b06b-917856d2e9e5"},"vehicle_type_id":"4","last_reported":1734437951,"current_range_meters":34000,"station_id":"ce4bhmp2rcd13ifvqgog","pricing_plan_id":"cebpf4jnsgd1na2vs0mg"},{"bike_id":"3568cdb7-a62d-4498-8809-376823fbc08e","system_id":"levelo_inurba_marseille","lat":43.29519,"lon":5.37488,"is_reserved":false,"is_disabled":false,"rental_uris":{"android":"levelo://app?vid=3568cdb7-a62d-4498-8809-376823fbc08e","ios":"levelo://app?vid=3568cdb7-a62d-4498-8809-376823fbc08e"},"vehicle_type_id":"4","last_reported":1734437951,"current_range_meters":38400,"station_id":"ce4bgkp2rcd13ifvqbmg","pricing_plan_id":"cebpf4jnsgd1na2vs0mg"},{"bike_id":"45eed315-4e7b-405c-a074-46441b8dab52","system_id":"levelo_inurba_marseille","lat":43.32485,"lon":5.36571,"is_reserved":false,"is_disabled":false,"rental_uris":{"android":"levelo://app?vid=45eed315-4e7b-405c-a074-46441b8dab52","ios":"levelo://app?vid=45eed315-4e7b-405c-a074-46441b8dab52"},"vehicle_type_id":"4","last_reported":1734437951,"current_range_meters":26000,"station_id":"ce4bhs12rcd13ifvqhvg","pricing_plan_id":"cebpf4jnsgd1na2vs0mg"},{"bike_id":"b3d8f4c6-c856-4ace-9147-c7d8ed67d49d","system_id":"levelo_inurba_marseille","lat":43.26983,"lon":5.40125,"is_reserved":false,"is_disabled":false,"rental_uris":{"android":"levelo://app?vid=b3d8f4c6-c856-4ace-9147-c7d8ed67d49d","ios":"levelo://app?vid=b3d8f4c6-c856-4ace-9147-c7d8ed67d49d"},"vehicle_type_id":"4","last_reported":1734437951,"current_range_meters":31200,"station_id":"ce4bh412rcd13ifvqdr0","pricing_plan_id":"cebpf4jnsgd1na2vs0mg"},{"bike_id":"fafd257e-d2d3-46c7-8b43-5caae1f12554","system_id":"levelo_inurba_marseille","lat":43.29519,"lon":5.39039,"is_reserved":false,"is_disabled":false,"rental_uris":{"android":"levelo://app?vid=fafd257e-d2d3-46c7-8b43-5caae1f12554","ios":"levelo://app?vid=fafd257e-d2d3-46c7-8b43-5caae1f12554"},"vehicle_type_id":"4","last_reported":1734437951,"current_range_meters":39200,"station_id":"ce4bh3p2rcd13ifvqdp0","pricing_plan_id":"cebpf4jnsgd1na2vs0mg"},{"bike_id":"c4c1aa90-42af-47f6-98e1-ca458ba171fc","system_id":"levelo_inurba_marseille","lat":43.308,"lon":5.3817,"is_reserved":false,"is_disabled":false,"rental_uris":{"android":"levelo://app?vid=c4c1aa90-42af-47f6-98e1-ca458ba171fc","ios":"levelo://app?vid=c4c1aa90-42af-47f6-98e1-ca458ba171fc"},"vehicle_type_id":"4","last_reported":1734437951,"current_range_meters":25200,"station_id":"ce4bgt12rcd13ifvqce0","pricing_plan_id":"cebpf4jnsgd1na2vs0mg"},{"bike_id":"27ab8e72-a857-4dc2-a2a8-aee3af4d77b2","system_id":"levelo_inurba_marseille","lat":43.28612,"lon":5.35105,"is_reserved":false,"is_disabled":false,"rental_uris":{"android":"levelo://app?vid=27ab8e72-a857-4dc2-a2a8-aee3af4d77b2","ios":"levelo://app?vid=27ab8e72-a857-4dc2-a2a8-aee3af4d77b2"},"vehicle_type_id":"4","last_reported":1734437951,"current_range_meters":18800,"station_id":"ce4bhch2rcd13ifvqeug","pricing_plan_id":"cebpf4jnsgd1na2vs0mg"},{"bike_id":"b2d380e8-08ed-495f-a052-5d7dfa068f5b","system_id":"levelo_inurba_marseille","lat":43.26949,"lon":5.3863,"is_reserved":false,"is_disabled":true,"rental_uris":{"android":"levelo://app?vid=b2d380e8-08ed-495f-a052-5d7dfa068f5b","ios":"levelo://app?vid=b2d380e8-08ed-495f-a052-5d7dfa068f5b"},"vehicle_type_id":"4","last_reported":1734437951,"current_range_meters":0,"station_id":"ce4bhh92rcd13ifvqfh0","pricing_plan_id":"cebpf4jnsgd1na2vs0mg"},{"bike_id":"262db747-5df7-439b-b4e7-c313a4a57308","system_id":"levelo_inurba_marseille","lat":43.27807,"lon":5.407158,"is_reserved":false,"is_disabled":false,"rental_uris":{"android":"levelo://app?vid=262db747-5df7-439b-b4e7-c313a4a57308","ios":"levelo://app?vid=262db747-5df7-439b-b4e7-c313a4a57308"},"vehicle_type_id":"4","last_reported":1734437951,"current_range_meters":20000,"station_id":"ce4bhnh2rcd13ifvqgtg","pricing_plan_id":"cebpf4jnsgd1na2vs0mg"},{"bike_id":"19fc6bf2-d5a1-43c9-b912-c79a7692f6ac","system_id":"levelo_inurba_marseille","lat":43.26667,"lon":5.38262,"is_reserved":false,"is_disabled":false,"rental_uris":{"android":"levelo://app?vid=19fc6bf2-d5a1-43c9-b912-c79a7692f6ac","ios":"levelo://app?vid=19fc6bf2-d5a1-43c9-b912-c79a7692f6ac"},"vehicle_type_id":"4","last_reported":1734437951,"current_range_meters":38800,"station_id":"ce4bhg92rcd13ifvqf90","pricing_plan_id":"cebpf4jnsgd1na2vs0mg"},{"bike_id":"f64ba8ba-600f-46fb-ba95-0ac8bd29392f","system_id":"levelo_inurba_marseille","lat":43.26186,"lon":5.37923,"is_reserved":false,"is_disabled":false,"rental_uris":{"android":"levelo://app?vid=f64ba8ba-600f-46fb-ba95-0ac8bd29392f","ios":"levelo://app?vid=f64ba8ba-600f-46fb-ba95-0ac8bd29392f"},"vehicle_type_id":"4","last_reported":1734437951,"current_range_meters":38400,"station_id":"ce4bhjp2rcd13ifvqg90","pricing_plan_id":"cebpf4jnsgd1na2vs0mg"},{"bike_id":"82f7f145-591c-4ce0-8f76-660882a2845e","system_id":"levelo_inurba_marseille","lat":43.33619,"lon":5.40999,"is_reserved":false,"is_disabled":true,"rental_uris":{"android":"levelo://app?vid=82f7f145-591c-4ce0-8f76-660882a2845e","ios":"levelo://app?vid=82f7f145-591c-4ce0-8f76-660882a2845e"},"vehicle_type_id":"4","last_reported":1734437951,"current_range_meters":35200,"station_id":"ce4bhqh2rcd13ifvqhmg","pricing_plan_id":"cebpf4jnsgd1na2vs0mg"},{"bike_id":"3cbd3730-c384-4a6b-9719-fc4f0183bbff","system_id":"levelo_inurba_marseille","lat":43.27806,"lon":5.40697,"is_reserved":false,"is_disabled":false,"rental_uris":{"android":"levelo://app?vid=3cbd3730-c384-4a6b-9719-fc4f0183bbff","ios":"levelo://app?vid=3cbd3730-c384-4a6b-9719-fc4f0183bbff"},"vehicle_type_id":"4","last_reported":1734437951,"current_range_meters":30800,"station_id":"ce4bhnh2rcd13ifvqgtg","pricing_plan_id":"cebpf4jnsgd1na2vs0mg"},{"bike_id":"b5c2fc51-0cf4-4ecc-b2b8-f85e69045690","system_id":"levelo_inurba_marseille","lat":43.30801,"lon":5.38149,"is_reserved":false,"is_disabled":false,"rental_uris":{"android":"levelo://app?vid=b5c2fc51-0cf4-4ecc-b2b8-f85e69045690","ios":"levelo://app?vid=b5c2fc51-0cf4-4ecc-b2b8-f85e69045690"},"vehicle_type_id":"4","last_reported":1734437951,"current_range_meters":36000,"station_id":"ce4bgt12rcd13ifvqce0","pricing_plan_id":"cebpf4jnsgd1na2vs0mg"},{"bike_id":"ac7c5f56-daad-496c-965f-9103737000e8","system_id":"levelo_inurba_marseille","lat":43.2396,"lon":5.36647,"is_reserved":false,"is_disabled":false,"rental_uris":{"android":"levelo://app?vid=ac7c5f56-daad-496c-965f-9103737000e8","ios":"levelo://app?vid=ac7c5f56-daad-496c-965f-9103737000e8"},"vehicle_type_id":"4","last_reported":1734437951,"current_range_meters":38800,"station_id":"ce4bhi12rcd13ifvqfp0","pricing_plan_id":"cebpf4jnsgd1na2vs0mg"},{"bike_id":"30943ecb-ecb0-4ac9-9219-dc3c35f2f4ec","system_id":"levelo_inurba_marseille","lat":43.27996,"lon":5.41667,"is_reserved":false,"is_disabled":false,"rental_uris":{"android":"levelo://app?vid=30943ecb-ecb0-4ac9-9219-dc3c35f2f4ec","ios":"levelo://app?vid=30943ecb-ecb0-4ac9-9219-dc3c35f2f4ec"},"vehicle_type_id":"4","last_reported":1734437951,"current_range_meters":25600,"station_id":"ce4bho12rcd13ifvqh1g","pricing_plan_id":"cebpf4jnsgd1na2vs0mg"},{"bike_id":"677f2f20-67b1-43ae-ab0d-c86c94aad358","system_id":"levelo_inurba_marseille","lat":43.33016,"lon":5.39046,"is_reserved":false,"is_disabled":false,"rental_uris":{"android":"levelo://app?vid=677f2f20-67b1-43ae-ab0d-c86c94aad358","ios":"levelo://app?vid=677f2f20-67b1-43ae-ab0d-c86c94aad358"},"vehicle_type_id":"4","last_reported":1734437951,"current_range_meters":25200,"station_id":"ce4bhr92rcd13ifvqhrg","pricing_plan_id":"cebpf4jnsgd1na2vs0mg"},{"bike_id":"c36bdd7d-50b7-411d-93ce-da825cc15c4e","system_id":"levelo_inurba_marseille","lat":43.27904,"lon":5.39574,"is_reserved":false,"is_disabled":false,"rental_uris":{"android":"levelo://app?vid=c36bdd7d-50b7-411d-93ce-da825cc15c4e","ios":"levelo://app?vid=c36bdd7d-50b7-411d-93ce-da825cc15c4e"},"vehicle_type_id":"4","last_reported":1734437951,"current_range_meters":13600,"station_id":"ce4bhf92rcd13ifvqf40","pricing_plan_id":"cebpf4jnsgd1na2vs0mg"},{"bike_id":"ff91c3b1-6995-4fae-ace0-324001778175","system_id":"levelo_inurba_marseille","lat":43.31325,"lon":5.397,"is_reserved":false,"is_disabled":false,"rental_uris":{"android":"levelo://app?vid=ff91c3b1-6995-4fae-ace0-324001778175","ios":"levelo://app?vid=ff91c3b1-6995-4fae-ace0-324001778175"},"vehicle_type_id":"4","last_reported":1734437951,"current_range_meters":32000,"station_id":"ce4bgvp2rcd13ifvqcu0","pricing_plan_id":"cebpf4jnsgd1na2vs0mg"},{"bike_id":"4d9d5006-b55a-4902-9f3b-b86d8e183a9b","system_id":"levelo_inurba_marseille","lat":43.31081,"lon":5.4243,"is_reserved":false,"is_disabled":false,"rental_uris":{"android":"levelo://app?vid=4d9d5006-b55a-4902-9f3b-b86d8e183a9b","ios":"levelo://app?vid=4d9d5006-b55a-4902-9f3b-b86d8e183a9b"},"vehicle_type_id":"4","last_reported":1734437951,"current_range_meters":26000,"station_id":"ce4bhp92rcd13ifvqhag","pricing_plan_id":"cebpf4jnsgd1na2vs0mg"},{"bike_id":"650b01d1-7c0a-47aa-94a5-828702dd1c60","system_id":"levelo_inurba_marseille","lat":43.2988,"lon":5.38902,"is_reserved":false,"is_disabled":false,"rental_uris":{"android":"levelo://app?vid=650b01d1-7c0a-47aa-94a5-828702dd1c60","ios":"levelo://app?vid=650b01d1-7c0a-47aa-94a5-828702dd1c60"},"vehicle_type_id":"4","last_reported":1734437951,"current_range_meters":33200,"station_id":"ce4bh392rcd13ifvqdl0","pricing_plan_id":"cebpf4jnsgd1na2vs0mg"},{"bike_id":"2669ff4c-99a2-4ab7-aefb-a488f7229b10","system_id":"levelo_inurba_marseille","lat":43.30948,"lon":5.39042,"is_reserved":false,"is_disabled":false,"rental_uris":{"android":"levelo://app?vid=2669ff4c-99a2-4ab7-aefb-a488f7229b10","ios":"levelo://app?vid=2669ff4c-99a2-4ab7-aefb-a488f7229b10"},"vehicle_type_id":"4","last_reported":1734437951,"current_range_meters":16400,"station_id":"ce4bgup2rcd13ifvqco0","pricing_plan_id":"cebpf4jnsgd1na2vs0mg"},{"bike_id":"3b67904f-73f7-490c-be60-426233897789","system_id":"levelo_inurba_marseille","lat":43.30532,"lon":5.36535,"is_reserved":false,"is_disabled":false,"rental_uris":{"android":"levelo://app?vid=3b67904f-73f7-490c-be60-426233897789","ios":"levelo://app?vid=3b67904f-73f7-490c-be60-426233897789"},"vehicle_type_id":"4","last_reported":1734437951,"current_range_meters":37600,"station_id":"ce4bgs12rcd13ifvqcag","pricing_plan_id":"cebpf4jnsgd1na2vs0mg"},{"bike_id":"9baba8e5-182e-46b6-a710-73ee9b0f3024","system_id":"levelo_inurba_marseille","lat":43.25001,"lon":5.38947,"is_reserved":false,"is_disabled":false,"rental_uris":{"android":"levelo://app?vid=9baba8e5-182e-46b6-a710-73ee9b0f3024","ios":"levelo://app?vid=9baba8e5-182e-46b6-a710-73ee9b0f3024"},"vehicle_type_id":"4","last_reported":1734437951,"current_range_meters":39200,"station_id":"ce4bhgp2rcd13ifvqfd0","pricing_plan_id":"cebpf4jnsgd1na2vs0mg"},{"bike_id":"45f21af8-220d-48c9-a4e2-73cd053fa7b7","system_id":"levelo_inurba_marseille","lat":43.28712,"lon":5.40005,"is_reserved":false,"is_disabled":false,"rental_uris":{"android":"levelo://app?vid=45f21af8-220d-48c9-a4e2-73cd053fa7b7","ios":"levelo://app?vid=45f21af8-220d-48c9-a4e2-73cd053fa7b7"},"vehicle_type_id":"4","last_reported":1734437951,"current_range_meters":16400,"station_id":"ce4bho92rcd13ifvqh3g","pricing_plan_id":"cebpf4jnsgd1na2vs0mg"},{"bike_id":"a05b841c-cbd3-4219-aa4f-920594972101","system_id":"levelo_inurba_marseille","lat":43.30511,"lon":5.36547,"is_reserved":false,"is_disabled":false,"rental_uris":{"android":"levelo://app?vid=a05b841c-cbd3-4219-aa4f-920594972101","ios":"levelo://app?vid=a05b841c-cbd3-4219-aa4f-920594972101"},"vehicle_type_id":"4","last_reported":1734437951,"current_range_meters":39200,"station_id":"ce4bgs12rcd13ifvqcag","pricing_plan_id":"cebpf4jnsgd1na2vs0mg"},{"bike_id":"26f048eb-25c8-4c58-be97-08915deb9561","system_id":"levelo_inurba_marseille","lat":43.30089,"lon":5.39078,"is_reserved":false,"is_disabled":false,"rental_uris":{"android":"levelo://app?vid=26f048eb-25c8-4c58-be97-08915deb9561","ios":"levelo://app?vid=26f048eb-25c8-4c58-be97-08915deb9561"},"vehicle_type_id":"4","last_reported":1734437951,"current_range_meters":38000,"station_id":"ce4bh192rcd13ifvqdb0","pricing_plan_id":"cebpf4jnsgd1na2vs0mg"},{"bike_id":"8439ee01-7cdb-4db2-a58b-64c4f602d9c8","system_id":"levelo_inurba_marseille","lat":43.29565,"lon":5.39979,"is_reserved":false,"is_disabled":false,"rental_uris":{"android":"levelo://app?vid=8439ee01-7cdb-4db2-a58b-64c4f602d9c8","ios":"levelo://app?vid=8439ee01-7cdb-4db2-a58b-64c4f602d9c8"},"vehicle_type_id":"4","last_reported":1734437951,"current_range_meters":24800,"station_id":"ce4bh312rcd13ifvqdj0","pricing_plan_id":"cebpf4jnsgd1na2vs0mg"},{"bike_id":"b3a108c8-12f3-49d8-a89a-f5dfcdedbb6e","system_id":"levelo_inurba_marseille","lat":43.2705,"lon":5.40266,"is_reserved":false,"is_disabled":false,"rental_uris":{"android":"levelo://app?vid=b3a108c8-12f3-49d8-a89a-f5dfcdedbb6e","ios":"levelo://app?vid=b3a108c8-12f3-49d8-a89a-f5dfcdedbb6e"},"vehicle_type_id":"4","last_reported":1734437951,"current_range_meters":34800,"station_id":"ce4bhk92rcd13ifvqgc0","pricing_plan_id":"cebpf4jnsgd1na2vs0mg"},{"bike_id":"525d55ae-bf3c-4557-8b37-12236b10d9f0","system_id":"levelo_inurba_marseille","lat":43.31481,"lon":5.37309,"is_reserved":false,"is_disabled":false,"rental_uris":{"android":"levelo://app?vid=525d55ae-bf3c-4557-8b37-12236b10d9f0","ios":"levelo://app?vid=525d55ae-bf3c-4557-8b37-12236b10d9f0"},"vehicle_type_id":"4","last_reported":1734437951,"current_range_meters":38800,"station_id":"ce4bgt12rcd13ifvqcd0","pricing_plan_id":"cebpf4jnsgd1na2vs0mg"},{"bike_id":"cdf38644-88eb-4b4c-a9b9-96b8192ad244","system_id":"levelo_inurba_marseille","lat":43.32464,"lon":5.36774,"is_reserved":false,"is_disabled":false,"rental_uris":{"android":"levelo://app?vid=cdf38644-88eb-4b4c-a9b9-96b8192ad244","ios":"levelo://app?vid=cdf38644-88eb-4b4c-a9b9-96b8192ad244"},"vehicle_type_id":"4","last_reported":1734437951,"current_range_meters":11200,"station_id":"","pricing_plan_id":"cebpf4jnsgd1na2vs0mg"},{"bike_id":"4baf23ce-2bf7-4bc5-8016-a37dde7b8f4d","system_id":"levelo_inurba_marseille","lat":43.29089,"lon":5.38155,"is_reserved":false,"is_disabled":false,"rental_uris":{"android":"levelo://app?vid=4baf23ce-2bf7-4bc5-8016-a37dde7b8f4d","ios":"levelo://app?vid=4baf23ce-2bf7-4bc5-8016-a37dde7b8f4d"},"vehicle_type_id":"4","last_reported":1734437951,"current_range_meters":30400,"station_id":"ce4bh512rcd13ifvqe2g","pricing_plan_id":"cebpf4jnsgd1na2vs0mg"},{"bike_id":"b2317ee3-5803-4af9-b9b3-4aa01cd8f4ee","system_id":"levelo_inurba_marseille","lat":43.30144,"lon":5.37413,"is_reserved":false,"is_disabled":false,"rental_uris":{"android":"levelo://app?vid=b2317ee3-5803-4af9-b9b3-4aa01cd8f4ee","ios":"levelo://app?vid=b2317ee3-5803-4af9-b9b3-4aa01cd8f4ee"},"vehicle_type_id":"4","last_reported":1734437951,"current_range_meters":11200,"station_id":"ce4bgs92rcd13ifvqcc0","pricing_plan_id":"cebpf4jnsgd1na2vs0mg"},{"bike_id":"ba9b0b54-c2ff-4ef6-a97c-8b499b96ea6e","system_id":"levelo_inurba_marseille","lat":43.2657,"lon":5.39022,"is_reserved":false,"is_disabled":false,"rental_uris":{"android":"levelo://app?vid=ba9b0b54-c2ff-4ef6-a97c-8b499b96ea6e","ios":"levelo://app?vid=ba9b0b54-c2ff-4ef6-a97c-8b499b96ea6e"},"vehicle_type_id":"4","last_reported":1734437951,"current_range_meters":12000,"station_id":"ce4bhe12rcd13ifvqf30","pricing_plan_id":"cebpf4jnsgd1na2vs0mg"},{"bike_id":"b600e401-dd09-4bc4-9356-0e85b47e9cf8","system_id":"levelo_inurba_marseille","lat":43.26571,"lon":5.39038,"is_reserved":false,"is_disabled":true,"rental_uris":{"android":"levelo://app?vid=b600e401-dd09-4bc4-9356-0e85b47e9cf8","ios":"levelo://app?vid=b600e401-dd09-4bc4-9356-0e85b47e9cf8"},"vehicle_type_id":"4","last_reported":1734437951,"current_range_meters":0,"station_id":"ce4bhe12rcd13ifvqf30","pricing_plan_id":"cebpf4jnsgd1na2vs0mg"},{"bike_id":"c0204919-a04c-46a7-9e7a-4ba2aea4c957","system_id":"levelo_inurba_marseille","lat":43.29626,"lon":5.406,"is_reserved":false,"is_disabled":false,"rental_uris":{"android":"levelo://app?vid=c0204919-a04c-46a7-9e7a-4ba2aea4c957","ios":"levelo://app?vid=c0204919-a04c-46a7-9e7a-4ba2aea4c957"},"vehicle_type_id":"4","last_reported":1734437951,"current_range_meters":38800,"station_id":"ce4bh0h2rcd13ifvqd60","pricing_plan_id":"cebpf4jnsgd1na2vs0mg"},{"bike_id":"b3ffb7c5-c361-4ac0-a8e2-721b811db0f3","system_id":"levelo_inurba_marseille","lat":43.32539,"lon":5.41434,"is_reserved":false,"is_disabled":false,"rental_uris":{"android":"levelo://app?vid=b3ffb7c5-c361-4ac0-a8e2-721b811db0f3","ios":"levelo://app?vid=b3ffb7c5-c361-4ac0-a8e2-721b811db0f3"},"vehicle_type_id":"4","last_reported":1734437951,"current_range_meters":8400,"station_id":"ce4bhq12rcd13ifvqhhg","pricing_plan_id":"cebpf4jnsgd1na2vs0mg"},{"bike_id":"62fa7f89-6de2-4bc8-8eb6-09e44ff16e37","system_id":"levelo_inurba_marseille","lat":43.2319,"lon":5.35551,"is_reserved":false,"is_disabled":false,"rental_uris":{"android":"levelo://app?vid=62fa7f89-6de2-4bc8-8eb6-09e44ff16e37","ios":"levelo://app?vid=62fa7f89-6de2-4bc8-8eb6-09e44ff16e37"},"vehicle_type_id":"4","last_reported":1734437951,"current_range_meters":38800,"station_id":"ce4bhu92rcd13ifvqi70","pricing_plan_id":"cebpf4jnsgd1na2vs0mg"},{"bike_id":"8401173e-4d8f-4da1-a63d-6c4d30c99e68","system_id":"levelo_inurba_marseille","lat":43.26566,"lon":5.39027,"is_reserved":false,"is_disabled":false,"rental_uris":{"android":"levelo://app?vid=8401173e-4d8f-4da1-a63d-6c4d30c99e68","ios":"levelo://app?vid=8401173e-4d8f-4da1-a63d-6c4d30c99e68"},"vehicle_type_id":"4","last_reported":1734437951,"current_range_meters":23200,"station_id":"ce4bhe12rcd13ifvqf30","pricing_plan_id":"cebpf4jnsgd1na2vs0mg"},{"bike_id":"c9b9299c-bf5f-4fa6-9e39-af13d29d5ff6","system_id":"levelo_inurba_marseille","lat":43.24078,"lon":5.37761,"is_reserved":false,"is_disabled":false,"rental_uris":{"android":"levelo://app?vid=c9b9299c-bf5f-4fa6-9e39-af13d29d5ff6","ios":"levelo://app?vid=c9b9299c-bf5f-4fa6-9e39-af13d29d5ff6"},"vehicle_type_id":"4","last_reported":1734437951,"current_range_meters":38400,"station_id":"ce4bhnp2rcd13ifvqgvg","pricing_plan_id":"cebpf4jnsgd1na2vs0mg"},{"bike_id":"1543f4bb-ffd5-451d-837b-75cce4148c96","system_id":"levelo_inurba_marseille","lat":43.337444,"lon":5.374475,"is_reserved":false,"is_disabled":true,"rental_uris":{"android":"levelo://app?vid=1543f4bb-ffd5-451d-837b-75cce4148c96","ios":"levelo://app?vid=1543f4bb-ffd5-451d-837b-75cce4148c96"},"vehicle_type_id":"4","last_reported":1734437951,"current_range_meters":0,"station_id":"","pricing_plan_id":"cebpf4jnsgd1na2vs0mg"},{"bike_id":"7fa8e328-5593-4381-bad7-15554e5cc18c","system_id":"levelo_inurba_marseille","lat":43.27183,"lon":5.40996,"is_reserved":false,"is_disabled":false,"rental_uris":{"android":"levelo://app?vid=7fa8e328-5593-4381-bad7-15554e5cc18c","ios":"levelo://app?vid=7fa8e328-5593-4381-bad7-15554e5cc18c"},"vehicle_type_id":"4","last_reported":1734437951,"current_range_meters":10000,"station_id":"ce4bhl12rcd13ifvqgf0","pricing_plan_id":"cebpf4jnsgd1na2vs0mg"},{"bike_id":"6c7b8923-b813-41ee-a5f9-db806a12dc03","system_id":"levelo_inurba_marseille","lat":43.27057,"lon":5.40265,"is_reserved":false,"is_disabled":false,"rental_uris":{"android":"levelo://app?vid=6c7b8923-b813-41ee-a5f9-db806a12dc03","ios":"levelo://app?vid=6c7b8923-b813-41ee-a5f9-db806a12dc03"},"vehicle_type_id":"4","last_reported":1734437951,"current_range_meters":13600,"station_id":"ce4bhk92rcd13ifvqgc0","pricing_plan_id":"cebpf4jnsgd1na2vs0mg"},{"bike_id":"e6136c20-6aba-4487-aa4e-0db5db0ac7d1","system_id":"levelo_inurba_marseille","lat":43.29033,"lon":5.35917,"is_reserved":false,"is_disabled":false,"rental_uris":{"android":"levelo://app?vid=e6136c20-6aba-4487-aa4e-0db5db0ac7d1","ios":"levelo://app?vid=e6136c20-6aba-4487-aa4e-0db5db0ac7d1"},"vehicle_type_id":"4","last_reported":1734437951,"current_range_meters":14400,"station_id":"ce4bha92rcd13ifvqeg0","pricing_plan_id":"cebpf4jnsgd1na2vs0mg"},{"bike_id":"78e22e84-d148-40f4-bb7c-6c5b40044c63","system_id":"levelo_inurba_marseille","lat":43.30137,"lon":5.37405,"is_reserved":false,"is_disabled":false,"rental_uris":{"android":"levelo://app?vid=78e22e84-d148-40f4-bb7c-6c5b40044c63","ios":"levelo://app?vid=78e22e84-d148-40f4-bb7c-6c5b40044c63"},"vehicle_type_id":"4","last_reported":1734437951,"current_range_meters":9200,"station_id":"ce4bgs92rcd13ifvqcc0","pricing_plan_id":"cebpf4jnsgd1na2vs0mg"},