{"last_updated":1729872665,"ttl":60,"version":"2.2","data":{"bikes":[{"bike_id":"83a2350e-995a-419c-b7c3-c8d1a6cec5b9","system_id":"levelo_inurba_marseille","lat":43.30076,"lon":5.38998,"is_reserved":false,"is_disabled":false,"rental_uris":{"android":"levelo://app?vid=83a2350e-995a-419c-b7c3-c8d1a6cec5b9","ios":"levelo://app?vid=83a2350e-995a-419c-b7c3-c8d1a6cec5b9"},"vehicle_type_id":"4","last_reported":1729872665,"current_range_meters":3200,"station_id":"ce4bh2h2rcd13ifvqdh0","pricing_plan_id":"cebpf4jnsgd1na2vs0mg"},{"bike_id":"3ec43732-9ba3-4ed3-8d55-e2d21b31c8e2","system_id":"levelo_inurba_marseille","lat":43.24388,"lon":5.37058,"is_reserved":false,"is_disabled":false,"rental_uris":{"android":"levelo://app?vid=3ec43732-9ba3-4ed3-8d55-e2d21b31c8e2","ios":"levelo://app?vid=3ec43732-9ba3-4ed3-8d55-e2d21b31c8e2"},"vehicle_type_id":"4","last_reported":1729872665,"current_range_meters":4000,"station_id":"ce4bhhh2rcd13ifvqfk0","pricing_plan_id":"cebpf4jnsgd1na2vs0mg"},{"bike_id":"6ed29093-218c-45fc-8bf0-5d7e174541b9","system_id":"levelo_inurba_marseille","lat":43.28608,"lon":5.35107,"is_reserved":false,"is_disabled":false,"rental_uris":{"android":"levelo://app?vid=6ed29093-218c-45fc-8bf0-5d7e174541b9","ios":"levelo://app?vid=6ed29093-218c-45fc-8bf0-5d7e174541b9"},"vehicle_type_id":"4","last_reported":1729872665,"current_range_meters":32400,"station_id":"ce4bhch2rcd13ifvqeug","pricing_plan_id":"cebpf4jnsgd1na2vs0mg"},{"bike_id":"4c399fb1-9647-4112-8bcc-648e8f8d0923","system_id":"levelo_inurba_marseille","lat":43.31711,"lon":5.43711,"is_reserved":false,"is_disabled":false,"rental_uris":{"android":"levelo://app?vid=4c399fb1-9647-4112-8bcc-648e8f8d0923","ios":"levelo://app?vid=4c399fb1-9647-4112-8bcc-648e8f8d0923"},"vehicle_type_id":"4","last_reported":1729872665,"current_range_meters":8800,"station_id":"ce4bhp92rcd13ifvqhcg","pricing_plan_id":"cebpf4jnsgd1na2vs0mg"},{"bike_id":"4e80b807-e9c1-424e-b857-9683df278543","system_id":"levelo_inurba_marseille","lat":43.29785,"lon":5.37104,"is_reserved":false,"is_disabled":false,"rental_uris":{"android":"levelo://app?vid=4e80b807-e9c1-424e-b857-9683df278543","ios":"levelo://app?vid=4e80b807-e9c1-424e-b857-9683df278543"},"vehicle_type_id":"4","last_reported":1729872665,"current_range_meters":38800,"station_id":"ce4bgop2rcd13ifvqc1g","pricing_plan_id":"cebpf4jnsgd1na2vs0mg"},{"bike_id":"04df14ff-97d4-4ebe-b538-2e47742b3287","system_id":"levelo_inurba_marseille","lat":43.28462,"lon":5.35892,"is_reserved":false,"is_disabled":false,"rental_uris":{"android":"levelo://app?vid=04df14ff-97d4-4ebe-b538-2e47742b3287","ios":"levelo://app?vid=04df14ff-97d4-4ebe-b538-2e47742b3287"},"vehicle_type_id":"4","last_reported":1729872665,"current_range_meters":14800,"station_id":"ce4bhah2rcd13ifvqei0","pricing_plan_id":"cebpf4jnsgd1na2vs0mg"},{"bike_id":"d562c1ab-3a01-499d-b41a-84ec4e14dd96","system_id":"levelo_inurba_marseille","lat":43.30318,"lon":5.40439,"is_reserved":false,"is_disabled":false,"rental_uris":{"android":"levelo://app?vid=d562c1ab-3a01-499d-b41a-84ec4e14dd96","ios":"levelo://app?vid=d562c1ab-3a01-499d-b41a-84ec4e14dd96"},"vehicle_type_id":"4","last_reported":1729872665,"current_range_meters":13600,"station_id":"ce4bh012rcd13ifvqd10","pricing_plan_id":"cebpf4jnsgd1na2vs0mg"},{"bike_id":"865124a8-5cf8-4f1f-ba5e-7dd42a2c84cc","system_id":"levelo_inurba_marseille","lat":43.28269,"lon":5.35066,"is_reserved":false,"is_disabled":false,"rental_uris":{"android":"levelo://app?vid=865124a8-5cf8-4f1f-ba5e-7dd42a2c84cc","ios":"levelo://app?vid=865124a8-5cf8-4f1f-ba5e-7dd42a2c84cc"},"vehicle_type_id":"4","last_reported":1729872665,"current_range_meters":20800,"station_id":"ce4bhbp2rcd13ifvqerg","pricing_plan_id":"cebpf4jnsgd1na2vs0mg"},{"bike_id":"05f15195-028a-42fc-980f-e10f3d2f4906","system_id":"levelo_inurba_marseille","lat":43.2951,"lon":5.39041,"is_reserved":false,"is_disabled":false,"rental_uris":{"android":"levelo://app?vid=05f15195-028a-42fc-980f-e10f3d2f4906","ios":"levelo://app?vid=05f15195-028a-42fc-980f-e10f3d2f4906"},"vehicle_type_id":"4","last_reported":1729872665,"current_range_meters":38800,"station_id":"ce4bh3p2rcd13ifvqdp0","pricing_plan_id":"cebpf4jnsgd1na2vs0mg"},{"bike_id":"25619a0e-861d-4e01-9b56-fddfb2375f0f","system_id":"levelo_inurba_marseille","lat":43.25816,"lon":5.39435,"is_reserved":false,"is_disabled":false,"rental_uris":{"android":"levelo://app?vid=25619a0e-861d-4e01-9b56-fddfb2375f0f","ios":"levelo://app?vid=25619a0e-861d-4e01-9b56-fddfb2375f0f"},"vehicle_type_id":"4","last_reported":1729872665,"current_range_meters":37600,"station_id":"ce4bhip2rcd13ifvqft0","pricing_plan_id":"cebpf4jnsgd1na2vs0mg"},{"bike_id":"1407e43f-5e0f-419f-b4ba-c263b2fb97e4","system_id":"levelo_inurba_marseille","lat":43.29618,"lon":5.3715,"is_reserved":false,"is_disabled":false,"rental_uris":{"android":"levelo://app?vid=1407e43f-5e0f-419f-b4ba-c263b2fb97e4","ios":"levelo://app?vid=1407e43f-5e0f-419f-b4ba-c263b2fb97e4"},"vehicle_type_id":"4","last_reported":1729872665,"current_range_meters":8400,"station_id":"ce4bgnh2rcd13ifvqc0g","pricing_plan_id":"cebpf4jnsgd1na2vs0mg"},{"bike_id":"deabc0e8-b371-411d-a983-bc76ed17698d","system_id":"levelo_inurba_marseille","lat":43.31705,"lon":5.37743,"is_reserved":false,"is_disabled":false,"rental_uris":{"android":"levelo://app?vid=deabc0e8-b371-411d-a983-bc76ed17698d","ios":"levelo://app?vid=deabc0e8-b371-411d-a983-bc76ed17698d"},"vehicle_type_id":"4","last_reported":1729872665,"current_range_meters":38000,"station_id":"ce4bgth2rcd13ifvqch0","pricing_plan_id":"cebpf4jnsgd1na2vs0mg"},{"bike_id":"a69925f5-f019-426c-87f5-a7e7e2d934bf","system_id":"levelo_inurba_marseille","lat":43.24648,"lon":5.38898,"is_reserved":false,"is_disabled":false,"rental_uris":{"android":"levelo://app?vid=a69925f5-f019-426c-87f5-a7e7e2d934bf","ios":"levelo://app?vid=a69925f5-f019-426c-87f5-a7e7e2d934bf"},"vehicle_type_id":"4","last_reported":1729872665,"current_range_meters":31200,"station_id":"ce4bhg12rcd13ifvqf60","pricing_plan_id":"cebpf4jnsgd1na2vs0mg"},{"bike_id":"c4b8dd00-6920-4fe3-84cb-cda27da2cbbe","system_id":"levelo_inurba_marseille","lat":43.29511,"lon":5.39041,"is_reserved":false,"is_disabled":false,"rental_uris":{"android":"levelo://app?vid=c4b8dd00-6920-4fe3-84cb-cda27da2cbbe","ios":"levelo://app?vid=c4b8dd00-6920-4fe3-84cb-cda27da2cbbe"},"vehicle_type_id":"4","last_reported":1729872665,"current_range_meters":27200,"station_id":"ce4bh3p2rcd13ifvqdp0","pricing_plan_id":"cebpf4jnsgd1na2vs0mg"},{"bike_id":"36de3157-2f70-4293-bd3c-a4f89bda5122","system_id":"levelo_inurba_marseille","lat":43.27367,"lon":5.36262,"is_reserved":false,"is_disabled":false,"rental_uris":{"android":"levelo://app?vid=36de3157-2f70-4293-bd3c-a4f89bda5122","ios":"levelo://app?vid=36de3157-2f70-4293-bd3c-a4f89bda5122"},"vehicle_type_id":"4","last_reported":1729872665,"current_range_meters":16800,"station_id":"ce4bhbh2rcd13ifvqeo0","pricing_plan_id":"cebpf4jnsgd1na2vs0mg"},{"bike_id":"b3126cfb-a2ff-449b-a809-11fbce7a526f","system_id":"levelo_inurba_marseille","lat":43.30134,"lon":5.39843,"is_reserved":false,"is_disabled":false,"rental_uris":{"android":"levelo://app?vid=b3126cfb-a2ff-449b-a809-11fbce7a526f","ios":"levelo://app?vid=b3126cfb-a2ff-449b-a809-11fbce7a526f"},"vehicle_type_id":"4","last_reported":1729872665,"current_range_meters":33600,"station_id":"ce4bh0h2rcd13ifvqd40","pricing_plan_id":"cebpf4jnsgd1na2vs0mg"},{"bike_id":"cbc5287e-dce8-418e-bac7-864a68889123","system_id":"levelo_inurba_marseille","lat":43.28406,"lon":5.34981,"is_reserved":false,"is_disabled":false,"rental_uris":{"android":"levelo://app?vid=cbc5287e-dce8-418e-bac7-864a68889123","ios":"levelo://app?vid=cbc5287e-dce8-418e-bac7-864a68889123"},"vehicle_type_id":"4","last_reported":1729872665,"current_range_meters":12800,"station_id":"ce4bhbh2rcd13ifvqepg","pricing_plan_id":"cebpf4jnsgd1na2vs0mg"},{"bike_id":"332b4875-c53d-45df-985f-4b7e6cfbbc95","system_id":"levelo_inurba_marseille","lat":43.28737,"lon":5.36065,"is_reserved":false,"is_disabled":false,"rental_uris":{"android":"levelo://app?vid=332b4875-c53d-45df-985f-4b7e6cfbbc95","ios":"levelo://app?vid=332b4875-c53d-45df-985f-4b7e6cfbbc95"},"vehicle_type_id":"4","last_reported":1729872665,"current_range_meters":13600,"station_id":"cki0cbj6b192h4jlfktg","pricing_plan_id":"cebpf4jnsgd1na2vs0mg"},{"bike_id":"4a70479b-3c12-4765-b3db-0c18e26f2d10","system_id":"levelo_inurba_marseille","lat":43.23176,"lon":5.39987,"is_reserved":false,"is_disabled":false,"rental_uris":{"android":"levelo://app?vid=4a70479b-3c12-4765-b3db-0c18e26f2d10","ios":"levelo://app?vid=4a70479b-3c12-4765-b3db-0c18e26f2d10"},"vehicle_type_id":"4","last_reported":1729872665,"current_range_meters":3200,"station_id":"ce4bhn12rcd13ifvqgqg","pricing_plan_id":"cebpf4jnsgd1na2vs0mg"},{"bike_id":"a6060deb-3edf-4ad3-8ed9-5dafccfe2ed1","system_id":"levelo_inurba_marseille","lat":43.28028,"lon":5.36943,"is_reserved":false,"is_disabled":false,"rental_uris":{"android":"levelo://app?vid=a6060deb-3edf-4ad3-8ed9-5dafccfe2ed1","ios":"levelo://app?vid=a6060deb-3edf-4ad3-8ed9-5dafccfe2ed1"},"vehicle_type_id":"4","last_reported":1729872665,"current_range_meters":30400,"station_id":"ce4bha12rcd13ifvqef0","pricing_plan_id":"cebpf4jnsgd1na2vs0mg"},{"bike_id":"10c046ab-e2b1-4f5b-8bdc-1e1324df690c","system_id":"levelo_inurba_marseille","lat":43.28263,"lon":5.3507,"is_reserved":false,"is_disabled":false,"rental_uris":{"android":"levelo://app?vid=10c046ab-e2b1-4f5b-8bdc-1e1324df690c","ios":"levelo://app?vid=10c046ab-e2b1-4f5b-8bdc-1e1324df690c"},"vehicle_type_id":"4","last_reported":1729872665,"current_range_meters":22400,"station_id":"ce4bhbp2rcd13ifvqerg","pricing_plan_id":"cebpf4jnsgd1na2vs0mg"},{"bike_id":"364cd6a0-b0fb-4284-8571-1df4d16a9916","system_id":"levelo_inurba_marseille","lat":43.32475,"lon":5.36577,"is_reserved":false,"is_disabled":false,"rental_uris":{"android":"levelo://app?vid=364cd6a0-b0fb-4284-8571-1df4d16a9916","ios":"levelo://app?vid=364cd6a0-b0fb-4284-8571-1df4d16a9916"},"vehicle_type_id":"4","last_reported":1729872665,"current_range_meters":20400,"station_id":"ce4bhs12rcd13ifvqhvg","pricing_plan_id":"cebpf4jnsgd1na2vs0mg"},{"bike_id":"da043e32-97de-4d52-b4d9-e237a13f9283","system_id":"levelo_inurba_marseille","lat":43.23161,"lon":5.43694,"is_reserved":false,"is_disabled":false,"rental_uris":{"android":"levelo://app?vid=da043e32-97de-4d52-b4d9-e237a13f9283","ios":"levelo://app?vid=da043e32-97de-4d52-b4d9-e237a13f9283"},"vehicle_type_id":"4","last_reported":1729872665,"current_range_meters":38800,"station_id":"ce4bhmp2rcd13ifvqgog","pricing_plan_id":"cebpf4jnsgd1na2vs0mg"},{"bike_id":"7ec442a2-9e29-41db-9e6a-7b8ed8cd08d4","system_id":"levelo_inurba_marseille","lat":43.30328,"lon":5.40446,"is_reserved":false,"is_disabled":false,"rental_uris":{"android":"levelo://app?vid=7ec442a2-9e29-41db-9e6a-7b8ed8cd08d4","ios":"levelo://app?vid=7ec442a2-9e29-41db-9e6a-7b8ed8cd08d4"},"vehicle_type_id":"4","last_reported":1729872665,"current_range_meters":27600,"station_id":"ce4bh012rcd13ifvqd10","pricing_plan_id":"cebpf4jnsgd1na2vs0mg"},{"bike_id":"5d56e4e3-3893-45d7-a642-c8a5828485c2","system_id":"levelo_inurba_marseille","lat":43.31481,"lon":5.37313,"is_reserved":false,"is_disabled":false,"rental_uris":{"android":"levelo://app?vid=5d56e4e3-3893-45d7-a642-c8a5828485c2","ios":"levelo://app?vid=5d56e4e3-3893-45d7-a642-c8a5828485c2"},"vehicle_type_id":"4","last_reported":1729872665,"current_range_meters":35200,"station_id":"ce4bgt12rcd13ifvqcd0","pricing_plan_id":"cebpf4jnsgd1na2vs0mg"},{"bike_id":"12a14322-1d3a-48db-b39c-2fb889818eab","system_id":"levelo_inurba_marseille","lat":43.29372,"lon":5.37847,"is_reserved":false,"is_disabled":false,"rental_uris":{"android":"levelo://app?vid=12a14322-1d3a-48db-b39c-2fb889818eab","ios":"levelo://app?vid=12a14322-1d3a-48db-b39c-2fb889818eab"},"vehicle_type_id":"4","last_reported":1729872665,"current_range_meters":19600,"station_id":"ce4bgjh2rcd13ifvqbf0","pricing_plan_id":"cebpf4jnsgd1na2vs0mg"},{"bike_id":"819367a2-9c5d-4596-945d-414009a014dc","system_id":"levelo_inurba_marseille","lat":43.30129,"lon":5.39879,"is_reserved":false,"is_disabled":false,"rental_uris":{"android":"levelo://app?vid=819367a2-9c5d-4596-945d-414009a014dc","ios":"levelo://app?vid=819367a2-9c5d-4596-945d-414009a014dc"},"vehicle_type_id":"4","last_reported":1729872665,"current_range_meters":38800,"station_id":"ce4bh0h2rcd13ifvqd40","pricing_plan_id":"cebpf4jnsgd1na2vs0mg"},{"bike_id":"c34282b9-8956-40b3-9010-6051e5fcb460","system_id":"levelo_inurba_marseille","lat":43.30257,"lon":5.40076,"is_reserved":false,"is_disabled":false,"rental_uris":{"android":"levelo://app?vid=c34282b9-8956-40b3-9010-6051e5fcb460","ios":"levelo://app?vid=c34282b9-8956-40b3-9010-6051e5fcb460"},"vehicle_type_id":"4","last_reported":1729872665,"current_range_meters":39200,"station_id":"ce4bgvh2rcd13ifvqcs0","pricing_plan_id":"cebpf4jnsgd1na2vs0mg"},{"bike_id":"28eae170-99b9-49a5-b48e-f01277843867","system_id":"levelo_inurba_marseille","lat":43.2781,"lon":5.40723,"is_reserved":false,"is_disabled":false,"rental_uris":{"android":"levelo://app?vid=28eae170-99b9-49a5-b48e-f01277843867","ios":"levelo://app?vid=28eae170-99b9-49a5-b48e-f01277843867"},"vehicle_type_id":"4","last_reported":1729872665,"current_range_meters":38800,"station_id":"ce4bhnh2rcd13ifvqgtg","pricing_plan_id":"cebpf4jnsgd1na2vs0mg"},{"bike_id":"cbc9d2ee-c740-4b1a-96a2-f51c977a89aa","system_id":"levelo_inurba_marseille","lat":43.31743,"lon":5.39029,"is_reserved":false,"is_disabled":false,"rental_uris":{"android":"levelo://app?vid=cbc9d2ee-c740-4b1a-96a2-f51c977a89aa","ios":"levelo://app?vid=cbc9d2ee-c740-4b1a-96a2-f51c977a89aa"},"vehicle_type_id":"4","last_reported":1729872665,"current_range_meters":39200,"station_id":"ce4bhqp2rcd13ifvqhng","pricing_plan_id":"cebpf4jnsgd1na2vs0mg"},{"bike_id":"89206673-fdc6-4c61-b767-c66677e18d0b","system_id":"levelo_inurba_marseille","lat":43.22931,"lon":5.35378,"is_reserved":false,"is_disabled":false,"rental_uris":{"android":"levelo://app?vid=89206673-fdc6-4c61-b767-c66677e18d0b","ios":"levelo://app?vid=89206673-fdc6-4c61-b767-c66677e18d0b"},"vehicle_type_id":"4","last_reported":1729872665,"current_range_meters":36400,"station_id":"cpo3532slgdg3j2ikp40","pricing_plan_id":"cebpf4jnsgd1na2vs0mg"},{"bike_id":"c9fe4d9a-0470-48af-ad22-c12fcd26905d","system_id":"levelo_inurba_marseille","lat":43.31756,"lon":5.39014,"is_reserved":false,"is_disabled":false,"rental_uris":{"android":"levelo://app?vid=c9fe4d9a-0470-48af-ad22-c12fcd26905d","ios":"levelo://app?vid=c9fe4d9a-0470-48af-ad22-c12fcd26905d"},"vehicle_type_id":"4","last_reported":1729872665,"current_range_meters":38000,"station_id":"ce4bhqp2rcd13ifvqhng","pricing_plan_id":"cebpf4jnsgd1na2vs0mg"},{"bike_id":"989cc2d4-5caf-48ee-93ff-953342821e01","system_id":"levelo_inurba_marseille","lat":43.25574,"lon":5.3824,"is_reserved":false,"is_disabled":false,"rental_uris":{"android":"levelo://app?vid=989cc2d4-5caf-48ee-93ff-953342821e01","ios":"levelo://app?vid=989cc2d4-5caf-48ee-93ff-953342821e01"},"vehicle_type_id":"4","last_reported":1729872665,"current_range_meters":3200,"station_id":"ce4bhih2rcd13ifvqfs0","pricing_plan_id":"cebpf4jnsgd1na2vs0mg"},{"bike_id":"5a76e39f-de3f-4992-a813-5c23010aa303","system_id":"levelo_inurba_marseille","lat":43.29069,"lon":5.359,"is_reserved":false,"is_disabled":false,"rental_uris":{"android":"levelo://app?vid=5a76e39f-de3f-4992-a813-5c23010aa303","ios":"levelo://app?vid=5a76e39f-de3f-4992-a813-5c23010aa303"},"vehicle_type_id":"4","last_reported":1729872665,"current_range_meters":37600,"station_id":"ce4bha92rcd13ifvqeg0","pricing_plan_id":"cebpf4jnsgd1na2vs0mg"},{"bike_id":"a16acd7f-417d-4103-b9ce-c48a7fbd4d6a","system_id":"levelo_inurba_marseille","lat":43.28362,"lon":5.3862,"is_reserved":false,"is_disabled":false,"rental_uris":{"android":"levelo://app?vid=a16acd7f-417d-4103-b9ce-c48a7fbd4d6a","ios":"levelo://app?vid=a16acd7f-417d-4103-b9ce-c48a7fbd4d6a"},"vehicle_type_id":"4","last_reported":1729872665,"current_range_meters":8400,"station_id":"ce4bh492rcd13ifvqdvg","pricing_plan_id":"cebpf4jnsgd1na2vs0mg"},{"bike_id":"fbda76cf-ad32-44f5-8e46-a16eaabd2829","system_id":"levelo_inurba_marseille","lat":43.2293,"lon":5.35384,"is_reserved":false,"is_disabled":false,"rental_uris":{"android":"levelo://app?vid=fbda76cf-ad32-44f5-8e46-a16eaabd2829","ios":"levelo://app?vid=fbda76cf-ad32-44f5-8e46-a16eaabd2829"},"vehicle_type_id":"4","last_reported":1729872665,"current_range_meters":18800,"station_id":"cpo3532slgdg3j2ikp40","pricing_plan_id":"cebpf4jnsgd1na2vs0mg"},{"bike_id":"5e9ec102-b31a-4a48-b6c1-6872a92edb49","system_id":"levelo_inurba_marseille","lat":43.29799,"lon":5.38089,"is_reserved":false,"is_disabled":false,"rental_uris":{"android":"levelo://app?vid=5e9ec102-b31a-4a48-b6c1-6872a92edb49","ios":"levelo://app?vid=5e9ec102-b31a-4a48-b6c1-6872a92edb49"},"vehicle_type_id":"4","last_reported":1729872665,"current_range_meters":20400,"station_id":"ce4bgip2rcd13ifvqbb0","pricing_plan_id":"cebpf4jnsgd1na2vs0mg"},{"bike_id":"be3bcc46-35cc-43b2-b312-eb63c6be4aa1","system_id":"levelo_inurba_marseille","lat":43.24999,"lon":5.38926,"is_reserved":false,"is_disabled":false,"rental_uris":{"android":"levelo://app?vid=be3bcc46-35cc-43b2-b312-eb63c6be4aa1","ios":"levelo://app?vid=be3bcc46-35cc-43b2-b312-eb63c6be4aa1"},"vehicle_type_id":"4","last_reported":1729872665,"current_range_meters":11200,"station_id":"ce4bhgp2rcd13ifvqfd0","pricing_plan_id":"cebpf4jnsgd1na2vs0mg"},{"bike_id":"a9767d87-e0d0-491e-b02b-c60a9055e529","system_id":"levelo_inurba_marseille","lat":43.289137,"lon":5.396622,"is_reserved":false,"is_disabled":false,"rental_uris":{"android":"levelo://app?vid=a9767d87-e0d0-491e-b02b-c60a9055e529","ios":"levelo://app?vid=a9767d87-e0d0-491e-b02b-c60a9055e529"},"vehicle_type_id":"4","last_reported":1729872665,"current_range_meters":33200,"station_id":"","pricing_plan_id":"cebpf4jnsgd1na2vs0mg"},{"bike_id":"db220e45-38f8-43c2-822f-a835d9cc12b0","system_id":"levelo_inurba_marseille","lat":43.29263,"lon":5.38444,"is_reserved":false,"is_disabled":false,"rental_uris":{"android":"levelo://app?vid=db220e45-38f8-43c2-822f-a835d9cc12b0","ios":"levelo://app?vid=db220e45-38f8-43c2-822f-a835d9cc12b0"},"vehicle_type_id":"4","last_reported":1729872665,"current_range_meters":39200,"station_id":"ce4bh692rcd13ifvqea0","pricing_plan_id":"cebpf4jnsgd1na2vs0mg"},{"bike_id":"2caf1930-1843-4f4d-a3e1-b19904dfe8b7","system_id":"levelo_inurba_marseille","lat":43.29234,"lon":5.40896,"is_reserved":false,"is_disabled":false,"rental_uris":{"android":"levelo://app?vid=2caf1930-1843-4f4d-a3e1-b19904dfe8b7","ios":"levelo://app?vid=2caf1930-1843-4f4d-a3e1-b19904dfe8b7"},"vehicle_type_id":"4","last_reported":1729872665,"current_range_meters":36400,"station_id":"ce4bha12rcd13ifvqef0","pricing_plan_id":"cebpf4jnsgd1na2vs0mg"},{"bike_id":"7a9bebfb-3ca8-461f-9edc-3e4de00c7841","system_id":"levelo_inurba_marseille","lat":43.25565,"lon":5.38243,"is_reserved":false,"is_disabled":false,"rental_uris":{"android":"levelo://app?vid=7a9bebfb-3ca8-461f-9edc-3e4de00c7841","ios":"levelo://app?vid=7a9bebfb-3ca8-461f-9edc-3e4de00c7841"},"vehicle_type_id":"4","last_reported":1729872665,"current_range_meters":36800,"station_id":"ce4bhih2rcd13ifvqfs0","pricing_plan_id":"cebpf4jnsgd1na2vs0mg"},{"bike_id":"2c4578a4-5dde-4156-a5f4-d741c5b16c8d","system_id":"levelo_inurba_marseille","lat":43.26209,"lon":5.37445,"is_reserved":false,"is_disabled":false,"rental_uris":{"android":"levelo://app?vid=2c4578a4-5dde-4156-a5f4-d741c5b16c8d","ios":"levelo://app?vid=2c4578a4-5dde-4156-a5f4-d741c5b16c8d"},"vehicle_type_id":"4","last_reported":1729872665,"current_range_meters":18000,"station_id":"ce4bhgp2rcd13ifvqfc0","pricing_plan_id":"cebpf4jnsgd1na2vs0mg"},{"bike_id":"2a41d71b-d0b3-406f-8f6e-6e5070785049","system_id":"levelo_inurba_marseille","lat":43.30332,"lon":5.397,"is_reserved":false,"is_disabled":false,"rental_uris":{"android":"levelo://app?vid=2a41d71b-d0b3-406f-8f6e-6e5070785049","ios":"levelo://app?vid=2a41d71b-d0b3-406f-8f6e-6e5070785049"},"vehicle_type_id":"4","last_reported":1729872665,"current_range_meters":6000,"station_id":"ce4bh092rcd13ifvqd20","pricing_plan_id":"cebpf4jnsgd1na2vs0mg"},{"bike_id":"30a58045-5e86-4621-8a97-37f74aea516a","system_id":"levelo_inurba_marseille","lat":43.32216,"lon":5.387,"is_reserved":false,"is_disabled":false,"rental_uris":{"android":"levelo://app?vid=30a58045-5e86-4621-8a97-37f74aea516a","ios":"levelo://app?vid=30a58045-5e86-4621-8a97-37f74aea516a"},"vehicle_type_id":"4","last_reported":1729872665,"current_range_meters":12400,"station_id":"","pricing_plan_id":"cebpf4jnsgd1na2vs0mg"},{"bike_id":"585bddab-23a5-4e78-9e57-9779c242dddb","system_id":"levelo_inurba_marseille","lat":43.29413,"lon":5.38628,"is_reserved":false,"is_disabled":false,"rental_uris":{"android":"levelo://app?vid=585bddab-23a5-4e78-9e57-9779c242dddb","ios":"levelo://app?vid=585bddab-23a5-4e78-9e57-9779c242dddb"},"vehicle_type_id":"4","last_reported":1729872665,"current_range_meters":27200,"station_id":"ce4bh2h2rcd13ifvqdh0","pricing_plan_id":"cebpf4jnsgd1na2vs0mg"},{"bike_id":"d38e0507-7ec2-476f-b84a-7e5d87a49423","system_id":"levelo_inurba_marseille","lat":43.25817,"lon":5.39436,"is_reserved":false,"is_disabled":false,"rental_uris":{"android":"levelo://app?vid=d38e0507-7ec2-476f-b84a-7e5d87a49423","ios":"levelo://app?vid=d38e0507-7ec2-476f-b84a-7e5d87a49423"},"vehicle_type_id":"4","last_reported":1729872665,"current_range_meters":40000,"station_id":"ce4bhip2rcd13ifvqft0","pricing_plan_id":"cebpf4jnsgd1na2vs0mg"},{"bike_id":"f1b1090a-6152-4942-aea0-4a9b8c7d79b4","system_id":"levelo_inurba_marseille","lat":43.28399,"lon":5.37527,"is_reserved":false,"is_disabled":false,"rental_uris":{"android":"levelo://app?vid=f1b1090a-6152-4942-aea0-4a9b8c7d79b4","ios":"levelo://app?vid=f1b1090a-6152-4942-aea0-4a9b8c7d79b4"},"vehicle_type_id":"4","last_reported":1729872665,"current_range_meters":39200,"station_id":"ce4bh412rcd13ifvqds0","pricing_plan_id":"cebpf4jnsgd1na2vs0mg"},{"bike_id":"7fd9032d-6b0f-4d6b-b8e0-23495d7481ec","system_id":"levelo_inurba_marseille","lat":43.2953,"lon":5.38547,"is_reserved":false,"is_disabled":false,"rental_uris":{"android":"levelo://app?vid=7fd9032d-6b0f-4d6b-b8e0-23495d7481ec","ios":"levelo://app?vid=7fd9032d-6b0f-4d6b-b8e0-23495d7481ec"},"vehicle_type_id":"4","last_reported":1729872665,"current_range_meters":15200,"station_id":"ce4bgih2rcd13ifvqba0","pricing_plan_id":"cebpf4jnsgd1na2vs0mg"},{"bike_id":"04ac9ccd-ef3c-48e9-893e-e80de8a28015","system_id":"levelo_inurba_marseille","lat":43.31482,"lon":5.37306,"is_reserved":false,"is_disabled":false,"rental_uris":{"android":"levelo://app?vid=04ac9ccd-ef3c-48e9-893e-e80de8a28015","ios":"levelo://app?vid=04ac9ccd-ef3c-48e9-893e-e80de8a28015"},"vehicle_type_id":"4","last_reported":1729872665,"current_range_meters":16000,"station_id":"ce4bgt12rcd13ifvqcd0","pricing_plan_id":"cebpf4jnsgd1na2vs0mg"},{"bike_id":"4e22b1f2-b744-4471-9588-d46e48170dbb","system_id":"levelo_inurba_marseille","lat":43.29531,"lon":5.38542,"is_reserved":false,"is_disabled":false,"rental_uris":{"android":"levelo://app?vid=4e22b1f2-b744-4471-9588-d46e48170dbb","ios":"levelo://app?vid=4e22b1f2-b744-4471-9588-d46e48170dbb"},"vehicle_type_id":"4","last_reported":1729872665,"current_range_meters":8400,"station_id":"ce4bgih2rcd13ifvqba0","pricing_plan_id":"cebpf4jnsgd1na2vs0mg"},{"bike_id":"ec517bc8-aab9-4441-9a5a-13b6295f2e39","system_id":"levelo_inurba_marseille","lat":43.22933,"lon":5.35376,"is_reserved":false,"is_disabled":false,"rental_uris":{"android":"levelo://app?vid=ec517bc8-aab9-4441-9a5a-13b6295f2e39","ios":"levelo://app?vid=ec517bc8-aab9-4441-9a5a-13b6295f2e39"},"vehicle_type_id":"4","last_reported":1729872665,"current_range_meters":19200,"station_id":"cpo3532slgdg3j2ikp40","pricing_plan_id":"cebpf4jnsgd1na2vs0mg"},{"bike_id":"2c73d2d0-44a4-40a4-b017-07ef982ee047","system_id":"levelo_inurba_marseille","lat":43.29417,"lon":5.38629,"is_reserved":false,"is_disabled":false,"rental_uris":{"android":"levelo://app?vid=2c73d2d0-44a4-40a4-b017-07ef982ee047","ios":"levelo://app?vid=2c73d2d0-44a4-40a4-b017-07ef982ee047"},"vehicle_type_id":"4","last_reported":1729872665,"current_range_meters":22000,"station_id":"ce4bh2h2rcd13ifvqdh0","pricing_plan_id":"cebpf4jnsgd1na2vs0mg"},{"bike_id":"9dc29ec3-5fd7-4e9a-a895-03dd223dc20c","system_id":"levelo_inurba_marseille","lat":43.28613,"lon":5.35111,"is_reserved":false,"is_disabled":false,"rental_uris":{"android":"levelo://app?vid=9dc29ec3-5fd7-4e9a-a895-03dd223dc20c","ios":"levelo://app?vid=9dc29ec3-5fd7-4e9a-a895-03dd223dc20c"},"vehicle_type_id":"4","last_reported":1729872665,"current_range_meters":3200,"station_id":"ce4bhch2rcd13ifvqeug","pricing_plan_id":"cebpf4jnsgd1na2vs0mg"},{"bike_id":"4894bfae-6c57-4abe-b6f4-fce8faead69b","system_id":"levelo_inurba_marseille","lat":43.29252,"lon":5.40913,"is_reserved":false,"is_disabled":false,"rental_uris":{"android":"levelo://app?vid=4894bfae-6c57-4abe-b6f4-fce8faead69b","ios":"levelo://app?vid=4894bfae-6c57-4abe-b6f4-fce8faead69b"},"vehicle_type_id":"4","last_reported":1729872665,"current_range_meters":38400,"station_id":"ce4bh192rcd13ifvqdc0","pricing_plan_id":"cebpf4jnsgd1na2vs0mg"},{"bike_id":"ea4e90af-092b-40d0-b28f-808a99c5889c","system_id":"levelo_inurba_marseille","lat":43.29256,"lon":5.38441,"is_reserved":false,"is_disabled":false,"rental_uris":{"android":"levelo://app?vid=ea4e90af-092b-40d0-b28f-808a99c5889c","ios":"levelo://app?vid=ea4e90af-092b-40d0-b28f-808a99c5889c"},"vehicle_type_id":"4","last_reported":1729872665,"current_range_meters":6400,"station_id":"ce4bh692rcd13ifvqea0","pricing_plan_id":"cebpf4jnsgd1na2vs0mg"},{"bike_id":"6cb0d09c-4434-41fe-bab7-3f2ab7b0ac84","system_id":"levelo_inurba_marseille","lat":43.23055,"lon":5.35495,"is_reserved":false,"is_disabled":false,"rental_uris":{"android":"levelo://app?vid=6cb0d09c-4434-41fe-bab7-3f2ab7b0ac84","ios":"levelo://app?vid=6cb0d09c-4434-41fe-bab7-3f2ab7b0ac84"},"vehicle_type_id":"4","last_reported":1729872665,"current_range_meters":20000,"station_id":"cpo3342slgdg3j2ifvpg","pricing_plan_id":"cebpf4jnsgd1na2vs0mg"},{"bike_id":"9a77e82e-18e8-4a32-9059-8a0938c1ebf7","system_id":"levelo_inurba_marseille","lat":43.29416,"lon":5.38628,"is_reserved":false,"is_disabled":false,"rental_uris":{"android":"levelo://app?vid=9a77e82e-18e8-4a32-9059-8a0938c1ebf7","ios":"levelo://app?vid=9a77e82e-18e8-4a32-9059-8a0938c1ebf7"},"vehicle_type_id":"4","last_reported":1729872665,"current_range_meters":22000,"station_id":"ce4bh2h2rcd13ifvqdh0","pricing_plan_id":"cebpf4jnsgd1na2vs0mg"},{"bike_id":"f62844ed-b629-432e-9a06-7ed6f216baf2","system_id":"levelo_inurba_marseille","lat":43.276215,"lon":5.361016,"is_reserved":false,"is_disabled":false,"rental_uris":{"android":"levelo://app?vid=f62844ed-b629-432e-9a06-7ed6f216baf2","ios":"levelo://app?vid=f62844ed-b629-432e-9a06-7ed6f216baf2"},"vehicle_type_id":"4","last_reported":1729872665,"current_range_meters":36800,"station_id":"ce4bgj92rcd13ifvqbe0","pricing_plan_id":"cebpf4jnsgd1na2vs0mg"},{"bike_id":"8749faba-6d3e-4c22-b00b-c42f85497b39","system_id":"levelo_inurba_marseille","lat":43.23158,"lon":5.43715,"is_reserved":false,"is_disabled":false,"rental_uris":{"android":"levelo://app?vid=8749faba-6d3e-4c22-b00b-c42f85497b39","ios":"levelo://app?vid=8749faba-6d3e-4c22-b00b-c42f85497b39"},"vehicle_type_id":"4","last_reported":1729872665,"current_range_meters":39200,"station_id":"ce4bhmp2rcd13ifvqgog","pricing_plan_id":"cebpf4jnsgd1na2vs0mg"},{"bike_id":"e9dcf62f-236b-4f48-aa72-ae44b195d99e","system_id":"levelo_inurba_marseille","lat":43.29879,"lon":5.38905,"is_reserved":false,"is_disabled":false,"rental_uris":{"android":"levelo://app?vid=e9dcf62f-236b-4f48-aa72-ae44b195d99e","ios":"levelo://app?vid=e9dcf62f-236b-4f48-aa72-ae44b195d99e"},"vehicle_type_id":"4","last_reported":1729872665,"current_range_meters":16000,"station_id":"ce4bh392rcd13ifvqdl0","pricing_plan_id":"cebpf4jnsgd1na2vs0mg"},{"bike_id":"661e62a9-af33-4796-bf88-bdb0e3140103","system_id":"levelo_inurba_marseille","lat":43.28854,"lon":5.35855,"is_reserved":false,"is_disabled":false,"rental_uris":{"android":"levelo://app?vid=661e62a9-af33-4796-bf88-bdb0e3140103","ios":"levelo://app?vid=661e62a9-af33-4796-bf88-bdb0e3140103"},"vehicle_type_id":"4","last_reported":1729872665,"current_range_meters":38000,"station_id":"ce4bhb12rcd13ifvqem0","pricing_plan_id":"cebpf4jnsgd1na2vs0mg"},{"bike_id":"3348615e-e3d3-488a-873b-786b78979da9","system_id":"levelo_inurba_marseille","lat":43.29579,"lon":5.36737,"is_reserved":false,"is_disabled":false,"rental_uris":{"android":"levelo://app?vid=3348615e-e3d3-488a-873b-786b78979da9","ios":"levelo://app?vid=3348615e-e3d3-488a-873b-786b78979da9"},"vehicle_type_id":"4","last_reported":1729872665,"current_range_meters":19600,"station_id":"ce4bgph2rcd13ifvqc2g","pricing_plan_id":"cebpf4jnsgd1na2vs0mg"},{"bike_id":"d22b1578-eaa8-4029-b87c-f3c2b532faba","system_id":"levelo_inurba_marseille","lat":43.29555,"lon":5.42291,"is_reserved":false,"is_disabled":false,"rental_uris":{"android":"levelo://app?vid=d22b1578-eaa8-4029-b87c-f3c2b532faba","ios":"levelo://app?vid=d22b1578-eaa8-4029-b87c-f3c2b532faba"},"vehicle_type_id":"4","last_reported":1729872665,"current_range_meters":33600,"station_id":"ce4bhph2rcd13ifvqhdg","pricing_plan_id":"cebpf4jnsgd1na2vs0mg"},{"bike_id":"96a6f12c-3174-446e-9628-7e4ea594c6c7","system_id":"levelo_inurba_marseille","lat":43.303059,"lon":5.392071,"is_reserved":false,"is_disabled":false,"rental_uris":{"android":"levelo://app?vid=96a6f12c-3174-446e-9628-7e4ea594c6c7","ios":"levelo://app?vid=96a6f12c-3174-446e-9628-7e4ea594c6c7"},"vehicle_type_id":"4","last_reported":1729872665,"current_range_meters":4400,"station_id":"ce4bgkh2rcd13ifvqbk0","pricing_plan_id":"cebpf4jnsgd1na2vs0mg"},{"bike_id":"43b20a75-49b3-45ab-b19b-f5aa302cde8d","system_id":"levelo_inurba_marseille","lat":43.24804,"lon":5.3745,"is_reserved":false,"is_disabled":false,"rental_uris":{"android":"levelo://app?vid=43b20a75-49b3-45ab-b19b-f5aa302cde8d","ios":"levelo://app?vid=43b20a75-49b3-45ab-b19b-f5aa302cde8d"},"vehicle_type_id":"4","last_reported":1729872665,"current_range_meters":16000,"station_id":"ce4bhgh2rcd13ifvqfb0","pricing_plan_id":"cebpf4jnsgd1na2vs0mg"},{"bike_id":"25596ccd-8388-452e-9656-2a293e16965b","system_id":"levelo_inurba_marseille","lat":43.29524,"lon":5.38544,"is_reserved":false,"is_disabled":false,"rental_uris":{"android":"levelo://app?vid=25596ccd-8388-452e-9656-2a293e16965b","ios":"levelo://app?vid=25596ccd-8388-452e-9656-2a293e16965b"},"vehicle_type_id":"4","last_reported":1729872665,"current_range_meters":19200,"station_id":"ce4bgih2rcd13ifvqba0","pricing_plan_id":"cebpf4jnsgd1na2vs0mg"},{"bike_id":"ea9cd50f-1696-40f3-9d29-cc518a90405e","system_id":"levelo_inurba_marseille","lat":43.28457,"lon":5.35887,"is_reserved":false,"is_disabled":false,"rental_uris":{"android":"levelo://app?vid=ea9cd50f-1696-40f3-9d29-cc518a90405e","ios":"levelo://app?vid=ea9cd50f-1696-40f3-9d29-cc518a90405e"},"vehicle_type_id":"4","last_reported":1729872665,"current_range_meters":18000,"station_id":"ce4bhah2rcd13ifvqei0","pricing_plan_id":"cebpf4jnsgd1na2vs0mg"},{"bike_id":"19c8f9d5-6f90-4865-b31f-4922c0350891","system_id":"levelo_inurba_marseille","lat":43.30132,"lon":5.39869,"is_reserved":false,"is_disabled":false,"rental_uris":{"android":"levelo://app?vid=19c8f9d5-6f90-4865-b31f-4922c0350891","ios":"levelo://app?vid=19c8f9d5-6f90-4865-b31f-4922c0350891"},"vehicle_type_id":"4","last_reported":1729872665,"current_range_meters":12400,"station_id":"ce4bh0h2rcd13ifvqd40","pricing_plan_id":"cebpf4jnsgd1na2vs0mg"},{"bike_id":"efdd3aa0-e144-46ca-b8b0-257cd2be71e6","system_id":"levelo_inurba_marseille","lat":43.2557,"lon":5.38238,"is_reserved":false,"is_disabled":false,"rental_uris":{"android":"levelo://app?vid=efdd3aa0-e144-46ca-b8b0-257cd2be71e6","ios":"levelo://app?vid=efdd3aa0-e144-46ca-b8b0-257cd2be71e6"},"vehicle_type_id":"4","last_reported":1729872665,"current_range_meters":38400,"station_id":"ce4bhih2rcd13ifvqfs0","pricing_plan_id":"cebpf4jnsgd1na2vs0mg"},{"bike_id":"a42b0bdd-1f10-437f-813e-02df169ed0a9","system_id":"levelo_inurba_marseille","lat":43.22935,"lon":5.35374,"is_reserved":false,"is_disabled":false,"rental_uris":{"android":"levelo://app?vid=a42b0bdd-1f10-437f-813e-02df169ed0a9","ios":"levelo://app?vid=a42b0bdd-1f10-437f-813e-02df169ed0a9"},"vehicle_type_id":"4","last_reported":1729872665,"current_range_meters":27200,"station_id":"cpo3532slgdg3j2ikp40","pricing_plan_id":"cebpf4jnsgd1na2vs0mg"},{"bike_id":"8888de49-63f6-45db-8eb4-062b761fea9c","system_id":"levelo_inurba_marseille","lat":43.29017,"lon":5.38136,"is_reserved":false,"is_disabled":false,"rental_uris":{"android":"levelo://app?vid=8888de49-63f6-45db-8eb4-062b761fea9c","ios":"levelo://app?vid=8888de49-63f6-45db-8eb4-062b761fea9c"},"vehicle_type_id":"4","last_reported":1729872665,"current_range_meters":7200,"station_id":"ce4bh4p2rcd13ifvqe1g","pricing_plan_id":"cebpf4jnsgd1na2vs0mg"},{"bike_id":"09121ff1-8488-4bd0-86ec-47e7295135e8","system_id":"levelo_inurba_marseille","lat":43.30322,"lon":5.40433,"is_reserved":false,"is_disabled":false,"rental_uris":{"android":"levelo://app?vid=09121ff1-8488-4bd0-86ec-47e7295135e8","ios":"levelo://app?vid=09121ff1-8488-4bd0-86ec-47e7295135e8"},"vehicle_type_id":"4","last_reported":1729872665,"current_range_meters":6400,"station_id":"ce4bh012rcd13ifvqd10","pricing_plan_id":"cebpf4jnsgd1na2vs0mg"},{"bike_id":"4aa7c34d-a3b3-4ce8-9344-b390cbd54dae","system_id":"levelo_inurba_marseille","lat":43.231539,"lon":5.437146,"is_reserved":false,"is_disabled":false,"rental_uris":{"android":"levelo://app?vid=4aa7c34d-a3b3-4ce8-9344-b390cbd54dae","ios":"levelo://app?vid=4aa7c34d-a3b3-4ce8-9344-b390cbd54dae"},"vehicle_type_id":"4","last_reported":1729872665,"current_range_meters":38800,"station_id":"ce4bhmp2rcd13ifvqgog","pricing_plan_id":"cebpf4jnsgd1na2vs0mg"},{"bike_id":"f200085f-afd3-4490-adca-4cfb133ec3bc","system_id":"levelo_inurba_marseille","lat":43.29517,"lon":5.39408,"is_reserved":false,"is_disabled":false,"rental_uris":{"android":"levelo://app?vid=f200085f-afd3-4490-adca-4cfb133ec3bc","ios":"levelo://app?vid=f200085f-afd3-4490-adca-4cfb133ec3bc"},"vehicle_type_id":"4","last_reported":1729872665,"current_range_meters":25600,"station_id":"ce4bh292rcd13ifvqdf0","pricing_plan_id":"cebpf4jnsgd1na2vs0mg"},{"bike_id":"42203765-ef7e-4760-9270-bf2fa5e04c73","system_id":"levelo_inurba_marseille","lat":43.29066,"lon":5.37177,"is_reserved":false,"is_disabled":false,"rental_uris":{"android":"levelo://app?vid=42203765-ef7e-4760-9270-bf2fa5e04c73","ios":"levelo://app?vid=42203765-ef7e-4760-9270-bf2fa5e04c73"},"vehicle_type_id":"4","last_reported":1729872665,"current_range_meters":30800,"station_id":"ce4bh5p2rcd13ifvqe4g","pricing_plan_id":"cebpf4jnsgd1na2vs0mg"},{"bike_id":"df00caa9-f803-4a4c-a4c7-829dbcbf20a9","system_id":"levelo_inurba_marseille","lat":43.26557,"lon":5.37283,"is_reserved":false,"is_disabled":false,"rental_uris":{"android":"levelo://app?vid=df00caa9-f803-4a4c-a4c7-829dbcbf20a9","ios":"levelo://app?vid=df00caa9-f803-4a4c-a4c7-829dbcbf20a9"},"vehicle_type_id":"4","last_reported":1729872665,"current_range_meters":2800,"station_id":"ce4bhg12rcd13ifvqf70","pricing_plan_id":"cebpf4jnsgd1na2vs0mg"},{"bike_id":"f9ec36ed-f1e8-4d39-a330-d53d339322cc","system_id":"levelo_inurba_marseille","lat":43.24937,"lon":5.39739,"is_reserved":false,"is_disabled":false,"rental_uris":{"android":"levelo://app?vid=f9ec36ed-f1e8-4d39-a330-d53d339322cc","ios":"levelo://app?vid=f9ec36ed-f1e8-4d39-a330-d53d339322cc"},"vehicle_type_id":"4","last_reported":1729872665,"current_range_meters":16800,"station_id":"","pricing_plan_id":"cebpf4jnsgd1na2vs0mg"},{"bike_id":"14b32013-16c9-4a3a-9b24-38e904708fdb","system_id":"levelo_inurba_marseille","lat":43.28273,"lon":5.35072,"is_reserved":false,"is_disabled":false,"rental_uris":{"android":"levelo://app?vid=14b32013-16c9-4a3a-9b24-38e904708fdb","ios":"levelo://app?vid=14b32013-16c9-4a3a-9b24-38e904708fdb"},"vehicle_type_id":"4","last_reported":1729872665,"current_range_meters":25600,"station_id":"ce4bhbp2rcd13ifvqerg","pricing_plan_id":"cebpf4jnsgd1na2vs0mg"},{"bike_id":"bf78479d-6623-4bbe-a021-06f4b4d8a2c0","system_id":"levelo_inurba_marseille","lat":43.28268,"lon":5.35062,"is_reserved":false,"is_disabled":false,"rental_uris":{"android":"levelo://app?vid=bf78479d-6623-4bbe-a021-06f4b4d8a2c0","ios":"levelo://app?vid=bf78479d-6623-4bbe-a021-06f4b4d8a2c0"},"vehicle_type_id":"4","last_reported":1729872665,"current_range_meters":4800,"station_id":"ce4bhbp2rcd13ifvqerg","pricing_plan_id":"cebpf4jnsgd1na2vs0mg"},{"bike_id":"9547fe9f-7da9-478b-9033-f446ea71bb69","system_id":"levelo_inurba_marseille","lat":43.31072,"lon":5.42431,"is_reserved":false,"is_disabled":false,"rental_uris":{"android":"levelo://app?vid=9547fe9f-7da9-478b-9033-f446ea71bb69","ios":"levelo://app?vid=9547fe9f-7da9-478b-9033-f446ea71bb69"},"vehicle_type_id":"4","last_reported":1729872665,"current_range_meters":36400,"station_id":"ce4bhp92rcd13ifvqhag","pricing_plan_id":"cebpf4jnsgd1na2vs0mg"},{"bike_id":"cbc8ef28-f0dd-46bc-a374-bf126ae54cf2","system_id":"levelo_inurba_marseille","lat":43.28365,"lon":5.40007,"is_reserved":false,"is_disabled":false,"rental_uris":{"android":"levelo://app?vid=cbc8ef28-f0dd-46bc-a374-bf126ae54cf2","ios":"levelo://app?vid=cbc8ef28-f0dd-46bc-a374-bf126ae54cf2"},"vehicle_type_id":"4","last_reported":1729872665,"current_range_meters":28000,"station_id":"","pricing_plan_id":"cebpf4jnsgd1na2vs0mg"},{"bike_id":"914712da-9129-49a4-ad21-34c49f788602","system_id":"levelo_inurba_marseille","lat":43.30885,"lon":5.3965,"is_reserved":false,"is_disabled":false,"rental_uris":{"android":"levelo://app?vid=914712da-9129-49a4-ad21-34c49f788602","ios":"levelo://app?vid=914712da-9129-49a4-ad21-34c49f788602"},"vehicle_type_id":"4","last_reported":1729872665,"current_range_meters":36400,"station_id":"ce4bh012rcd13ifvqcv0","pricing_plan_id":"cebpf4jnsgd1na2vs0mg"},{"bike_id":"954d08d6-46fd-402b-9a4b-c9181c747c4c","system_id":"levelo_inurba_marseille","lat":43.28846,"lon":5.39311,"is_reserved":false,"is_disabled":false,"rental_uris":{"android":"levelo://app?vid=954d08d6-46fd-402b-9a4b-c9181c747c4c","ios":"levelo://app?vid=954d08d6-46fd-402b-9a4b-c9181c747c4c"},"vehicle_type_id":"4","last_reported":1729872665,"current_range_meters":32400,"station_id":"ce4bh2p2rcd13ifvqdi0","pricing_plan_id":"cebpf4jnsgd1na2vs0mg"},{"bike_id":"c402c880-0470-4e8a-ac20-8317f48fc5dd","system_id":"levelo_inurba_marseille","lat":43.27941,"lon":5.41052,"is_reserved":false,"is_disabled":false,"rental_uris":{"android":"levelo://app?vid=c402c880-0470-4e8a-ac20-8317f48fc5dd","ios":"levelo://app?vid=c402c880-0470-4e8a-ac20-8317f48fc5dd"},"vehicle_type_id":"4","last_reported":1729872665,"current_range_meters":37600,"station_id":"ce4bhnp2rcd13ifvqh0g","pricing_plan_id":"cebpf4jnsgd1na2vs0mg"},{"bike_id":"405ba2b3-9962-4409-a116-f21f6ca89fd5","system_id":"levelo_inurba_marseille","lat":43.30125,"lon":5.39869,"is_reserved":false,"is_disabled":false,"rental_uris":{"android":"levelo://app?vid=405ba2b3-9962-4409-a116-f21f6ca89fd5","ios":"levelo://app?vid=405ba2b3-9962-4409-a116-f21f6ca89fd5"},"vehicle_type_id":"4","last_reported":1729872665,"current_range_meters":38800,"station_id":"ce4bh0h2rcd13ifvqd40","pricing_plan_id":"cebpf4jnsgd1na2vs0mg"},{"bike_id":"a3eeba97-8d75-45c7-8ce4-166d75a9b74d","system_id":"levelo_inurba_marseille","lat":43.29529,"lon":5.38542,"is_reserved":false,"is_disabled":false,"rental_uris":{"android":"levelo://app?vid=a3eeba97-8d75-45c7-8ce4-166d75a9b74d","ios":"levelo://app?vid=a3eeba97-8d75-45c7-8ce4-166d75a9b74d"},"vehicle_type_id":"4","last_reported":1729872665,"current_range_meters":5600,"station_id":"ce4bgih2rcd13ifvqba0","pricing_plan_id":"cebpf4jnsgd1na2vs0mg"},{"bike_id":"bbb7aa92-2975-4cb2-bbd7-4d25a018447d","system_id":"levelo_inurba_marseille","lat":43.29627,"lon":5.37188,"is_reserved":false,"is_disabled":false,"rental_uris":{"android":"levelo://app?vid=bbb7aa92-2975-4cb2-bbd7-4d25a018447d","ios":"levelo://app?vid=bbb7aa92-2975-4cb2-bbd7-4d25a018447d"},"vehicle_type_id":"4","last_reported":1729872665,"current_range_meters":34800,"station_id":"ce4bgnh2rcd13ifvqc0g","pricing_plan_id":"cebpf4jnsgd1na2vs0mg"},{"bike_id":"1c29c1bc-6669-48b6-b338-b12047a00e11","system_id":"levelo_inurba_marseille","lat":43.28436,"lon":5.39187,"is_reserved":false,"is_disabled":false,"rental_uris":{"android":"levelo://app?vid=1c29c1bc-6669-48b6-b338-b12047a00e11","ios":"levelo://app?vid=1c29c1bc-6669-48b6-b338-b12047a00e11"},"vehicle_type_id":"4","last_reported":1729872665,"current_range_meters":38800,"station_id":"ce4bhoh2rcd13ifvqh5g","pricing_plan_id":"cebpf4jnsgd1na2vs0mg"},{"bike_id":"11ffbeee-70d3-488c-ad27-c1a02e03c9bc","system_id":"levelo_inurba_marseille","lat":43.30923,"lon":5.40154,"is_reserved":false,"is_disabled":false,"rental_uris":{"android":"levelo://app?vid=11ffbeee-70d3-488c-ad27-c1a02e03c9bc","ios":"levelo://app?vid=11ffbeee-70d3-488c-ad27-c1a02e03c9bc"},"vehicle_type_id":"4","last_reported":1729872665,"current_range_meters":17200,"station_id":"ce4bgvp2rcd13ifvqct0","pricing_plan_id":"cebpf4jnsgd1na2vs0mg"},{"bike_id":"7691659f-eea1-4b4d-8db5-2728fcde3a23","system_id":"levelo_inurba_marseille","lat":43.30017,"lon":5.3636,"is_reserved":false,"is_disabled":false,"rental_uris":{"android":"levelo://app?vid=7691659f-eea1-4b4d-8db5-2728fcde3a23","ios":"levelo://app?vid=7691659f-eea1-4b4d-8db5-2728fcde3a23"},"vehicle_type_id":"4","last_reported":1729872665,"current_range_meters":28000,"station_id":"","pricing_plan_id":"cebpf4jnsgd1na2vs0mg"},{"bike_id":"1c270387-1023-41f6-b103-9adc47e0c532","system_id":"levelo_inurba_marseille","lat":43.296021,"lon":5.373997,"is_reserved":false,"is_disabled":false,"rental_uris":{"android":"levelo://app?vid=1c270387-1023-41f6-b103-9adc47e0c532","ios":"levelo://app?vid=1c270387-1023-41f6-b103-9adc47e0c532"},"vehicle_type_id":"4","last_reported":1729872665,"current_range_meters":37600,"station_id":"","pricing_plan_id":"cebpf4jnsgd1na2vs0mg"},{"bike_id":"f6ad66a4-45fa-4688-9ae7-48900ea2ce6b","system_id":"levelo_inurba_marseille","lat":43.31072,"lon":5.38359,"is_reserved":false,"is_disabled":false,"rental_uris":{"android":"levelo://app?vid=f6ad66a4-45fa-4688-9ae7-48900ea2ce6b","ios":"levelo://app?vid=f6ad66a4-45fa-4688-9ae7-48900ea2ce6b"},"vehicle_type_id":"4","last_reported":1729872665,"current_range_meters":18000,"station_id":"ce4bgv92rcd13ifvqcr0","pricing_plan_id":"cebpf4jnsgd1na2vs0mg"},{"bike_id":"445cd842-740c-4e17-a471-937c836f3d86","system_id":"levelo_inurba_marseille","lat":43.29012,"lon":5.3814,"is_reserved":false,"is_disabled":false,"rental_uris":{"android":"levelo://app?vid=445cd842-740c-4e17-a471-937c836f3d86","ios":"levelo://app?vid=445cd842-740c-4e17-a471-937c836f3d86"},"vehicle_type_id":"4","last_reported":1729872665,"current_range_meters":39200,"station_id":"ce4bh4p2rcd13ifvqe1g","pricing_plan_id":"cebpf4jnsgd1na2vs0mg"},{"bike_id":"6880b2b4-370c-477c-b395-a4e045fda3e5","system_id":"levelo_inurba_marseille","lat":43.26025,"lon":5.3755,"is_reserved":false,"is_disabled":false,"rental_uris":{"android":"levelo://app?vid=6880b2b4-370c-477c-b395-a4e045fda3e5","ios":"levelo://app?vid=6880b2b4-370c-477c-b395-a4e045fda3e5"},"vehicle_type_id":"4","last_reported":1729872665,"current_range_meters":8800,"station_id":"ce4bhgh2rcd13ifvqfa0","pricing_plan_id":"cebpf4jnsgd1na2vs0mg"},{"bike_id":"cfa05915-fc1a-4787-bd5a-d7e1e99cf267","system_id":"levelo_inurba_marseille","lat":43.28255,"lon":5.35072,"is_reserved":false,"is_disabled":false,"rental_uris":{"android":"levelo://app?vid=cfa05915-fc1a-4787-bd5a-d7e1e99cf267","ios":"levelo://app?vid=cfa05915-fc1a-4787-bd5a-d7e1e99cf267"},"vehicle_type_id":"4","last_reported":1729872665,"current_range_meters":38800,"station_id":"ce4bhbp2rcd13ifvqerg","pricing_plan_id":"cebpf4jnsgd1na2vs0mg"},{"bike_id":"18cd883a-f1cd-4f34-98dc-7580d7e4256d","system_id":"levelo_inurba_marseille","lat":43.24654,"lon":5.38892,"is_reserved":false,"is_disabled":false,"rental_uris":{"android":"levelo://app?vid=18cd883a-f1cd-4f34-98dc-7580d7e4256d","ios":"levelo://app?vid=18cd883a-f1cd-4f34-98dc-7580d7e4256d"},"vehicle_type_id":"4","last_reported":1729872665,"current_range_meters":32000,"station_id":"ce4bhg12rcd13ifvqf60","pricing_plan_id":"cebpf4jnsgd1na2vs0mg"},{"bike_id":"f0fc82ca-f5ec-4e02-8e94-135a203ff8d2","system_id":"levelo_inurba_marseille","lat":43.24803,"lon":5.37459,"is_reserved":false,"is_disabled":false,"rental_uris":{"android":"levelo://app?vid=f0fc82ca-f5ec-4e02-8e94-135a203ff8d2","ios":"levelo://app?vid=f0fc82ca-f5ec-4e02-8e94-135a203ff8d2"},"vehicle_type_id":"4","last_reported":1729872665,"current_range_meters":39200,"station_id":"ce4bhgh2rcd13ifvqfb0","pricing_plan_id":"cebpf4jnsgd1na2vs0mg"},{"bike_id":"bef0f98e-928e-4943-83ce-7b60f0d730d7","system_id":"levelo_inurba_marseille","lat":43.22925,"lon":5.35382,"is_reserved":false,"is_disabled":false,"rental_uris":{"android":"levelo://app?vid=bef0f98e-928e-4943-83ce-7b60f0d730d7","ios":"levelo://app?vid=bef0f98e-928e-4943-83ce-7b60f0d730d7"},"vehicle_type_id":"4","last_reported":1729872665,"current_range_meters":36800,"station_id":"cpo3532slgdg3j2ikp40","pricing_plan_id":"cebpf4jnsgd1na2vs0mg"},{"bike_id":"66f020ae-5526-4ad0-8af9-6a968240ac52","system_id":"levelo_inurba_marseille","lat":43.3248,"lon":5.36576,"is_reserved":false,"is_disabled":false,"rental_uris":{"android":"levelo://app?vid=66f020ae-5526-4ad0-8af9-6a968240ac52","ios":"levelo://app?vid=66f020ae-5526-4ad0-8af9-6a968240ac52"},"vehicle_type_id":"4","last_reported":1729872665,"current_range_meters":36800,"station_id":"ce4bhs12rcd13ifvqhvg","pricing_plan_id":"cebpf4jnsgd1na2vs0mg"},{"bike_id":"e00d5ca9-91f5-4a7a-85e1-167d68daccd0","system_id":"levelo_inurba_marseille","lat":43.29783,"lon":5.39347,"is_reserved":false,"is_disabled":false,"rental_uris":{"android":"levelo://app?vid=e00d5ca9-91f5-4a7a-85e1-167d68daccd0","ios":"levelo://app?vid=e00d5ca9-91f5-4a7a-85e1-167d68daccd0"},"vehicle_type_id":"4","last_reported":1729872665,"current_range_meters":10000,"station_id":"chh1huq6cuj3fo74tm60","pricing_plan_id":"cebpf4jnsgd1na2vs0mg"},{"bike_id":"1aac1f7a-a64c-43c7-9fea-28291f50e750","system_id":"levelo_inurba_marseille","lat":43.29536,"lon":5.38543,"is_reserved":false,"is_disabled":false,"rental_uris":{"android":"levelo://app?vid=1aac1f7a-a64c-43c7-9fea-28291f50e750","ios":"levelo://app?vid=1aac1f7a-a64c-43c7-9fea-28291f50e750"},"vehicle_type_id":"4","last_reported":1729872665,"current_range_meters":40000,"station_id":"ce4bgih2rcd13ifvqba0","pricing_plan_id":"cebpf4jnsgd1na2vs0mg"},{"bike_id":"5520dd6d-b531-479f-ba7b-d7f030157cb6","system_id":"levelo_inurba_marseille","lat":43.295804,"lon":5.375299,"is_reserved":false,"is_disabled":false,"rental_uris":{"android":"levelo://app?vid=5520dd6d-b531-479f-ba7b-d7f030157cb6","ios":"levelo://app?vid=5520dd6d-b531-479f-ba7b-d7f030157cb6"},"vehicle_type_id":"4","last_reported":1729872665,"current_range_meters":25200,"station_id":"","pricing_plan_id":"cebpf4jnsgd1na2vs0mg"},{"bike_id":"5085653b-05c6-4f3a-a5a1-da4cffcb9ec9","system_id":"levelo_inurba_marseille","lat":43.28149,"lon":5.42649,"is_reserved":false,"is_disabled":false,"rental_uris":{"android":"levelo://app?vid=5085653b-05c6-4f3a-a5a1-da4cffcb9ec9","ios":"levelo://app?vid=5085653b-05c6-4f3a-a5a1-da4cffcb9ec9"},"vehicle_type_id":"4","last_reported":1729872665,"current_range_meters":38800,"station_id":"ce4bhnh2rcd13ifvqgug","pricing_plan_id":"cebpf4jnsgd1na2vs0mg"},{"bike_id":"58ba8ad7-7b0a-4f7b-bee1-79b9bdc0a2d6","system_id":"levelo_inurba_marseille","lat":43.29883,"lon":5.3891,"is_reserved":false,"is_disabled":false,"rental_uris":{"android":"levelo://app?vid=58ba8ad7-7b0a-4f7b-bee1-79b9bdc0a2d6","ios":"levelo://app?vid=58ba8ad7-7b0a-4f7b-bee1-79b9bdc0a2d6"},"vehicle_type_id":"4","last_reported":1729872665,"current_range_meters":28800,"station_id":"ce4bh392rcd13ifvqdl0","pricing_plan_id":"cebpf4jnsgd1na2vs0mg"},{"bike_id":"fc767b17-f027-4c5a-bb6b-7d44459e03ed","system_id":"levelo_inurba_marseille","lat":43.31073,"lon":5.38355,"is_reserved":false,"is_disabled":false,"rental_uris":{"android":"levelo://app?vid=fc767b17-f027-4c5a-bb6b-7d44459e03ed","ios":"levelo://app?vid=fc767b17-f027-4c5a-bb6b-7d44459e03ed"},"vehicle_type_id":"4","last_reported":1729872665,"current_range_meters":6000,"station_id":"ce4bgv92rcd13ifvqcr0","pricing_plan_id":"cebpf4jnsgd1na2vs0mg"},{"bike_id":"4251a455-6a51-4266-a828-feb5d7a95895","system_id":"levelo_inurba_marseille","lat":43.270602,"lon":5.422908,"is_reserved":false,"is_disabled":false,"rental_uris":{"android":"levelo://app?vid=4251a455-6a51-4266-a828-feb5d7a95895","ios":"levelo://app?vid=4251a455-6a51-4266-a828-feb5d7a95895"},"vehicle_type_id":"4","last_reported":1729872665,"current_range_meters":39200,"station_id":"ce4bhk92rcd13ifvqgb0","pricing_plan_id":"cebpf4jnsgd1na2vs0mg"},{"bike_id":"b69629f5-3119-4609-ab12-4016242cb5ca","system_id":"levelo_inurba_marseille","lat":43.27071,"lon":5.42274,"is_reserved":false,"is_disabled":false,"rental_uris":{"android":"levelo://app?vid=b69629f5-3119-4609-ab12-4016242cb5ca","ios":"levelo://app?vid=b69629f5-3119-4609-ab12-4016242cb5ca"},"vehicle_type_id":"4","last_reported":1729872665,"current_range_meters":38400,"station_id":"ce4bhk92rcd13ifvqgb0","pricing_plan_id":"cebpf4jnsgd1na2vs0mg"},{"bike_id":"f347d2d3-8e62-42af-b56b-5696da48a0b0","system_id":"levelo_inurba_marseille","lat":43.26031,"lon":5.37549,"is_reserved":false,"is_disabled":false,"rental_uris":{"android":"levelo://app?vid=f347d2d3-8e62-42af-b56b-5696da48a0b0","ios":"levelo://app?vid=f347d2d3-8e62-42af-b56b-5696da48a0b0"},"vehicle_type_id":"4","last_reported":1729872665,"current_range_meters":39200,"station_id":"ce4bhgh2rcd13ifvqfa0","pricing_plan_id":"cebpf4jnsgd1na2vs0mg"},{"bike_id":"43b45036-be9f-479d-b882-ad7dfa3d1cf2","system_id":"levelo_inurba_marseille","lat":43.30933,"lon":5.40145,"is_reserved":false,"is_disabled":false,"rental_uris":{"android":"levelo://app?vid=43b45036-be9f-479d-b882-ad7dfa3d1cf2","ios":"levelo://app?vid=43b45036-be9f-479d-b882-ad7dfa3d1cf2"},"vehicle_type_id":"4","last_reported":1729872665,"current_range_meters":35600,"station_id":"ce4bgvp2rcd13ifvqct0","pricing_plan_id":"cebpf4jnsgd1na2vs0mg"},{"bike_id":"56c6f9f5-fdcb-4236-a945-56b86ab994b2","system_id":"levelo_inurba_marseille","lat":43.29225,"lon":5.36075,"is_reserved":false,"is_disabled":false,"rental_uris":{"android":"levelo://app?vid=56c6f9f5-fdcb-4236-a945-56b86ab994b2","ios":"levelo://app?vid=56c6f9f5-fdcb-4236-a945-56b86ab994b2"},"vehicle_type_id":"4","last_reported":1729872665,"current_range_meters":24000,"station_id":"ce4bhbh2rcd13ifvqeqg","pricing_plan_id":"cebpf4jnsgd1na2vs0mg"},{"bike_id":"31a57b9e-7abd-4c71-9f8a-04706c493db6","system_id":"levelo_inurba_marseille","lat":43.29581,"lon":5.3674,"is_reserved":false,"is_disabled":false,"rental_uris":{"android":"levelo://app?vid=31a57b9e-7abd-4c71-9f8a-04706c493db6","ios":"levelo://app?vid=31a57b9e-7abd-4c71-9f8a-04706c493db6"},"vehicle_type_id":"4","last_reported":1729872665,"current_range_meters":10800,"station_id":"ce4bgph2rcd13ifvqc2g","pricing_plan_id":"cebpf4jnsgd1na2vs0mg"},{"bike_id":"f68f9a5d-9f6f-4e9b-a260-c646a873f52f","system_id":"levelo_inurba_marseille","lat":43.2481,"lon":5.37459,"is_reserved":false,"is_disabled":false,"rental_uris":{"android":"levelo://app?vid=f68f9a5d-9f6f-4e9b-a260-c646a873f52f","ios":"levelo://app?vid=f68f9a5d-9f6f-4e9b-a260-c646a873f52f"},"vehicle_type_id":"4","last_reported":1729872665,"current_range_meters":32400,"station_id":"ce4bhgh2rcd13ifvqfb0","pricing_plan_id":"cebpf4jnsgd1na2vs0mg"},{"bike_id":"8b34db6e-7ac5-421b-8140-e12375d73aa9","system_id":"levelo_inurba_marseille","lat":43.29528,"lon":5.38547,"is_reserved":false,"is_disabled":false,"rental_uris":{"android":"levelo://app?vid=8b34db6e-7ac5-421b-8140-e12375d73aa9","ios":"levelo://app?vid=8b34db6e-7ac5-421b-8140-e12375d73aa9"},"vehicle_type_id":"4","last_reported":1729872665,"current_range_meters":24800,"station_id":"ce4bgih2rcd13ifvqba0","pricing_plan_id":"cebpf4jnsgd1na2vs0mg"},{"bike_id":"4d227370-bda0-4aeb-95e4-c1c70947d86a","system_id":"levelo_inurba_marseille","lat":43.27991,"lon":5.41667,"is_reserved":false,"is_disabled":false,"rental_uris":{"android":"levelo://app?vid=4d227370-bda0-4aeb-95e4-c1c70947d86a","ios":"levelo://app?vid=4d227370-bda0-4aeb-95e4-c1c70947d86a"},"vehicle_type_id":"4","last_reported":1729872665,"current_range_meters":20000,"station_id":"ce4bho12rcd13ifvqh1g","pricing_plan_id":"cebpf4jnsgd1na2vs0mg"},{"bike_id":"dcfc1fef-5e7e-475a-93ac-c05af2d6bc1d","system_id":"levelo_inurba_marseille","lat":43.30917,"lon":5.40147,"is_reserved":false,"is_disabled":false,"rental_uris":{"android":"levelo://app?vid=dcfc1fef-5e7e-475a-93ac-c05af2d6bc1d","ios":"levelo://app?vid=dcfc1fef-5e7e-475a-93ac-c05af2d6bc1d"},"vehicle_type_id":"4","last_reported":1729872665,"current_range_meters":16000,"station_id":"ce4bgvp2rcd13ifvqct0","pricing_plan_id":"cebpf4jnsgd1na2vs0mg"},{"bike_id":"85abecaf-7451-45fb-ab9c-010170815016","system_id":"levelo_inurba_marseille","lat":43.28563,"lon":5.3951,"is_reserved":false,"is_disabled":false,"rental_uris":{"android":"levelo://app?vid=85abecaf-7451-45fb-ab9c-010170815016","ios":"levelo://app?vid=85abecaf-7451-45fb-ab9c-010170815016"},"vehicle_type_id":"4","last_reported":1729872665,"current_range_meters":9200,"station_id":"ce4bh292rcd13ifvqdg0","pricing_plan_id":"cebpf4jnsgd1na2vs0mg"},{"bike_id":"c518ae7f-46ca-4192-acaa-3d39f73a19dd","system_id":"levelo_inurba_marseille","lat":43.2885,"lon":5.39319,"is_reserved":false,"is_disabled":false,"rental_uris":{"android":"levelo://app?vid=c518ae7f-46ca-4192-acaa-3d39f73a19dd","ios":"levelo://app?vid=c518ae7f-46ca-4192-acaa-3d39f73a19dd"},"vehicle_type_id":"4","last_reported":1729872665,"current_range_meters":16800,"station_id":"ce4bh2p2rcd13ifvqdi0","pricing_plan_id":"cebpf4jnsgd1na2vs0mg"},{"bike_id":"ac09cc18-b772-4906-8124-62044f908300","system_id":"levelo_inurba_marseille","lat":43.29895,"lon":5.43672,"is_reserved":false,"is_disabled":false,"rental_uris":{"android":"levelo://app?vid=ac09cc18-b772-4906-8124-62044f908300","ios":"levelo://app?vid=ac09cc18-b772-4906-8124-62044f908300"},"vehicle_type_id":"4","last_reported":1729872665,"current_range_meters":17600,"station_id":"ce4bhpp2rcd13ifvqhfg","pricing_plan_id":"cebpf4jnsgd1na2vs0mg"},{"bike_id":"13ee381e-4482-455b-87ce-c75fa5e30b6c","system_id":"levelo_inurba_marseille","lat":43.29523,"lon":5.38553,"is_reserved":false,"is_disabled":false,"rental_uris":{"android":"levelo://app?vid=13ee381e-4482-455b-87ce-c75fa5e30b6c","ios":"levelo://app?vid=13ee381e-4482-455b-87ce-c75fa5e30b6c"},"vehicle_type_id":"4","last_reported":1729872665,"current_range_meters":12000,"station_id":"ce4bgih2rcd13ifvqba0","pricing_plan_id":"cebpf4jnsgd1na2vs0mg"},{"bike_id":"1280435e-6413-49a2-81a7-cae35d56ec7a","system_id":"levelo_inurba_marseille","lat":43.30238,"lon":5.40045,"is_reserved":false,"is_disabled":false,"rental_uris":{"android":"levelo://app?vid=1280435e-6413-49a2-81a7-cae35d56ec7a","ios":"levelo://app?vid=1280435e-6413-49a2-81a7-cae35d56ec7a"},"vehicle_type_id":"4","last_reported":1729872665,"current_range_meters":20400,"station_id":"ce4bgvh2rcd13ifvqcs0","pricing_plan_id":"cebpf4jnsgd1na2vs0mg"},{"bike_id":"bd995abb-12e7-47a6-b0b9-e1f25439576a","system_id":"levelo_inurba_marseille","lat":43.24998,"lon":5.3893,"is_reserved":false,"is_disabled":false,"rental_uris":{"android":"levelo://app?vid=bd995abb-12e7-47a6-b0b9-e1f25439576a","ios":"levelo://app?vid=bd995abb-12e7-47a6-b0b9-e1f25439576a"},"vehicle_type_id":"4","last_reported":1729872665,"current_range_meters":39200,"station_id":"ce4bhgp2rcd13ifvqfd0","pricing_plan_id":"cebpf4jnsgd1na2vs0mg"},{"bike_id":"6c0219aa-4e24-4ea9-8074-31ece6d0c560","system_id":"levelo_inurba_marseille","lat":43.3228,"lon":5.38257,"is_reserved":false,"is_disabled":false,"rental_uris":{"android":"levelo://app?vid=6c0219aa-4e24-4ea9-8074-31ece6d0c560","ios":"levelo://app?vid=6c0219aa-4e24-4ea9-8074-31ece6d0c560"},"vehicle_type_id":"4","last_reported":1729872665,"current_range_meters":30000,"station_id":"ce4bhr12rcd13ifvqhqg","pricing_plan_id":"cebpf4jnsgd1na2vs0mg"},{"bike_id":"43e0342e-7c69-4ef3-9959-2e5c770bab9f","system_id":"levelo_inurba_marseille","lat":43.22937,"lon":5.35381,"is_reserved":false,"is_disabled":false,"rental_uris":{"android":"levelo://app?vid=43e0342e-7c69-4ef3-9959-2e5c770bab9f","ios":"levelo://app?vid=43e0342e-7c69-4ef3-9959-2e5c770bab9f"},"vehicle_type_id":"4","last_reported":1729872665,"current_range_meters":18000,"station_id":"cpo3532slgdg3j2ikp40","pricing_plan_id":"cebpf4jnsgd1na2vs0mg"},{"bike_id":"58901c6c-e6bf-4931-bfb8-58e0b2429ca9","system_id":"levelo_inurba_marseille","lat":43.28712,"lon":5.37941,"is_reserved":false,"is_disabled":false,"rental_uris":{"android":"levelo://app?vid=58901c6c-e6bf-4931-bfb8-58e0b2429ca9","ios":"levelo://app?vid=58901c6c-e6bf-4931-bfb8-58e0b2429ca9"},"vehicle_type_id":"4","last_reported":1729872665,"current_range_meters":18800,"station_id":"ce4bh9p2rcd13ifvqec0","pricing_plan_id":"cebpf4jnsgd1na2vs0mg"},{"bike_id":"9eb6cb0d-4d89-4087-9c88-9379ba2e4123","system_id":"levelo_inurba_marseille","lat":43.29516,"lon":5.39041,"is_reserved":false,"is_disabled":false,"rental_uris":{"android":"levelo://app?vid=9eb6cb0d-4d89-4087-9c88-9379ba2e4123","ios":"levelo://app?vid=9eb6cb0d-4d89-4087-9c88-9379ba2e4123"},"vehicle_type_id":"4","last_reported":1729872665,"current_range_meters":20000,"station_id":"ce4bh3p2rcd13ifvqdp0","pricing_plan_id":"cebpf4jnsgd1na2vs0mg"},{"bike_id":"d3c4e640-57d6-4389-b8e6-eb4c10541417","system_id":"levelo_inurba_marseille","lat":43.28663,"lon":5.36354,"is_reserved":false,"is_disabled":false,"rental_uris":{"android":"levelo://app?vid=d3c4e640-57d6-4389-b8e6-eb4c10541417","ios":"levelo://app?vid=d3c4e640-57d6-4389-b8e6-eb4c10541417"},"vehicle_type_id":"4","last_reported":1729872665,"current_range_meters":39200,"station_id":"ce4bhah2rcd13ifvqej0","pricing_plan_id":"cebpf4jnsgd1na2vs0mg"},{"bike_id":"69c50a7a-8960-41bd-bcf6-67af981ebe82","system_id":"levelo_inurba_marseille","lat":43.28842,"lon":5.35855,"is_reserved":false,"is_disabled":false,"rental_uris":{"android":"levelo://app?vid=69c50a7a-8960-41bd-bcf6-67af981ebe82","ios":"levelo://app?vid=69c50a7a-8960-41bd-bcf6-67af981ebe82"},"vehicle_type_id":"4","last_reported":1729872665,"current_range_meters":36800,"station_id":"ce4bhb12rcd13ifvqem0","pricing_plan_id":"cebpf4jnsgd1na2vs0mg"},{"bike_id":"bf1f917d-6fa9-4a2e-afa1-a39c1e7f64cd","system_id":"levelo_inurba_marseille","lat":43.28404,"lon":5.34989,"is_reserved":false,"is_disabled":false,"rental_uris":{"android":"levelo://app?vid=bf1f917d-6fa9-4a2e-afa1-a39c1e7f64cd","ios":"levelo://app?vid=bf1f917d-6fa9-4a2e-afa1-a39c1e7f64cd"},"vehicle_type_id":"4","last_reported":1729872665,"current_range_meters":38400,"station_id":"ce4bhbh2rcd13ifvqepg","pricing_plan_id":"cebpf4jnsgd1na2vs0mg"},{"bike_id":"365a5e76-e012-4983-b8a9-1a07480bde83","system_id":"levelo_inurba_marseille","lat":43.23194,"lon":5.35548,"is_reserved":false,"is_disabled":false,"rental_uris":{"android":"levelo://app?vid=365a5e76-e012-4983-b8a9-1a07480bde83","ios":"levelo://app?vid=365a5e76-e012-4983-b8a9-1a07480bde83"},"vehicle_type_id":"4","last_reported":1729872665,"current_range_meters":39200,"station_id":"ce4bhu92rcd13ifvqi70","pricing_plan_id":"cebpf4jnsgd1na2vs0mg"},{"bike_id":"8ddd7c29-e9c7-4165-99db-f296afe27a8a","system_id":"levelo_inurba_marseille","lat":43.241741,"lon":5.397306,"is_reserved":false,"is_disabled":false,"rental_uris":{"android":"levelo://app?vid=8ddd7c29-e9c7-4165-99db-f296afe27a8a","ios":"levelo://app?vid=8ddd7c29-e9c7-4165-99db-f296afe27a8a"},"vehicle_type_id":"4","last_reported":1729872665,"current_range_meters":33600,"station_id":"ce4bhn12rcd13ifvqgpg","pricing_plan_id":"cebpf4jnsgd1na2vs0mg"},{"bike_id":"0c225e48-0cf4-411d-8254-336745b7f7e5","system_id":"levelo_inurba_marseille","lat":43.28267,"lon":5.35064,"is_reserved":false,"is_disabled":false,"rental_uris":{"android":"levelo://app?vid=0c225e48-0cf4-411d-8254-336745b7f7e5","ios":"levelo://app?vid=0c225e48-0cf4-411d-8254-336745b7f7e5"},"vehicle_type_id":"4","last_reported":1729872665,"current_range_meters":27600,"station_id":"ce4bhbp2rcd13ifvqerg","pricing_plan_id":"cebpf4jnsgd1na2vs0mg"},{"bike_id":"41f153c9-6e2f-4115-a2bf-ece305a88b3a","system_id":"levelo_inurba_marseille","lat":43.23064,"lon":5.35498,"is_reserved":false,"is_disabled":false,"rental_uris":{"android":"levelo://app?vid=41f153c9-6e2f-4115-a2bf-ece305a88b3a","ios":"levelo://app?vid=41f153c9-6e2f-4115-a2bf-ece305a88b3a"},"vehicle_type_id":"4","last_reported":1729872665,"current_range_meters":24400,"station_id":"cpo3342slgdg3j2ifvpg","pricing_plan_id":"cebpf4jnsgd1na2vs0mg"},{"bike_id":"f1f3124d-156b-4ea3-8f8c-6dfee18217ad","system_id":"levelo_inurba_marseille","lat":43.27809,"lon":5.40721,"is_reserved":false,"is_disabled":false,"rental_uris":{"android":"levelo://app?vid=f1f3124d-156b-4ea3-8f8c-6dfee18217ad","ios":"levelo://app?vid=f1f3124d-156b-4ea3-8f8c-6dfee18217ad"},"vehicle_type_id":"4","last_reported":1729872665,"current_range_meters":39200,"station_id":"ce4bhnh2rcd13ifvqgtg","pricing_plan_id":"cebpf4jnsgd1na2vs0mg"},{"bike_id":"310dfb07-5ec1-458c-8adc-ad355c2060e6","system_id":"levelo_inurba_marseille","lat":43.28153,"lon":5.42643,"is_reserved":false,"is_disabled":false,"rental_uris":{"android":"levelo://app?vid=310dfb07-5ec1-458c-8adc-ad355c2060e6","ios":"levelo://app?vid=310dfb07-5ec1-458c-8adc-ad355c2060e6"},"vehicle_type_id":"4","last_reported":1729872665,"current_range_meters":18000,"station_id":"ce4bhnh2rcd13ifvqgug","pricing_plan_id":"cebpf4jnsgd1na2vs0mg"},{"bike_id":"f6e3c2e5-9b45-4367-a3b4-deba755b4eec","system_id":"levelo_inurba_marseille","lat":43.29592,"lon":5.38109,"is_reserved":false,"is_disabled":false,"rental_uris":{"android":"levelo://app?vid=f6e3c2e5-9b45-4367-a3b4-deba755b4eec","ios":"levelo://app?vid=f6e3c2e5-9b45-4367-a3b4-deba755b4eec"},"vehicle_type_id":"4","last_reported":1729872665,"current_range_meters":17600,"station_id":"ce4bgl12rcd13ifvqbo0","pricing_plan_id":"cebpf4jnsgd1na2vs0mg"},{"bike_id":"79bccba7-f8c9-4258-8dad-fe372a9b3439","system_id":"levelo_inurba_marseille","lat":43.287476,"lon":5.361595,"is_reserved":false,"is_disabled":false,"rental_uris":{"android":"levelo://app?vid=79bccba7-f8c9-4258-8dad-fe372a9b3439","ios":"levelo://app?vid=79bccba7-f8c9-4258-8dad-fe372a9b3439"},"vehicle_type_id":"4","last_reported":1729872665,"current_range_meters":18800,"station_id":"cki0cbj6b192h4jlfktg","pricing_plan_id":"cebpf4jnsgd1na2vs0mg"},{"bike_id":"71cda5a0-571c-4b08-8476-48efcbdc28b3","system_id":"levelo_inurba_marseille","lat":43.24664,"lon":5.38167,"is_reserved":false,"is_disabled":false,"rental_uris":{"android":"levelo://app?vid=71cda5a0-571c-4b08-8476-48efcbdc28b3","ios":"levelo://app?vid=71cda5a0-571c-4b08-8476-48efcbdc28b3"},"vehicle_type_id":"4","last_reported":1729872665,"current_range_meters":7200,"station_id":"ce4bhih2rcd13ifvqfr0","pricing_plan_id":"cebpf4jnsgd1na2vs0mg"},{"bike_id":"2f36d7b5-7a80-4198-b04a-5ac3950feb02","system_id":"levelo_inurba_marseille","lat":43.29529,"lon":5.38542,"is_reserved":false,"is_disabled":false,"rental_uris":{"android":"levelo://app?vid=2f36d7b5-7a80-4198-b04a-5ac3950feb02","ios":"levelo://app?vid=2f36d7b5-7a80-4198-b04a-5ac3950feb02"},"vehicle_type_id":"4","last_reported":1729872665,"current_range_meters":33600,"station_id":"ce4bgih2rcd13ifvqba0","pricing_plan_id":"cebpf4jnsgd1na2vs0mg"},{"bike_id":"a11538d9-da66-4366-8563-87682512db47","system_id":"levelo_inurba_marseille","lat":43.26555,"lon":5.37285,"is_reserved":false,"is_disabled":false,"rental_uris":{"android":"levelo://app?vid=a11538d9-da66-4366-8563-87682512db47","ios":"levelo://app?vid=a11538d9-da66-4366-8563-87682512db47"},"vehicle_type_id":"4","last_reported":1729872665,"current_range_meters":2800,"station_id":"ce4bhg12rcd13ifvqf70","pricing_plan_id":"cebpf4jnsgd1na2vs0mg"},{"bike_id":"33f12643-aecd-4397-a15a-84cf1324f707","system_id":"levelo_inurba_marseille","lat":43.30535,"lon":5.38435,"is_reserved":false,"is_disabled":false,"rental_uris":{"android":"levelo://app?vid=33f12643-aecd-4397-a15a-84cf1324f707","ios":"levelo://app?vid=33f12643-aecd-4397-a15a-84cf1324f707"},"vehicle_type_id":"4","last_reported":1729872665,"current_range_meters":34000,"station_id":"ce4bgg92rcd13ifvqb30","pricing_plan_id":"cebpf4jnsgd1na2vs0mg"},{"bike_id":"1d7cee0a-edfe-4412-a5fb-9fe5e33bf805","system_id":"levelo_inurba_marseille","lat":43.25491,"lon":5.37653,"is_reserved":false,"is_disabled":false,"rental_uris":{"android":"levelo://app?vid=1d7cee0a-edfe-4412-a5fb-9fe5e33bf805","ios":"levelo://app?vid=1d7cee0a-edfe-4412-a5fb-9fe5e33bf805"},"vehicle_type_id":"4","last_reported":1729872665,"current_range_meters":32000,"station_id":"ce4bhh12rcd13ifvqff0","pricing_plan_id":"cebpf4jnsgd1na2vs0mg"},{"bike_id":"407ae404-87ac-4d26-9031-66109cfd2dc9","system_id":"levelo_inurba_marseille","lat":43.286171,"lon":5.351058,"is_reserved":false,"is_disabled":false,"rental_uris":{"android":"levelo://app?vid=407ae404-87ac-4d26-9031-66109cfd2dc9","ios":"levelo://app?vid=407ae404-87ac-4d26-9031-66109cfd2dc9"},"vehicle_type_id":"4","last_reported":1729872665,"current_range_meters":24000,"station_id":"ce4bhch2rcd13ifvqeug","pricing_plan_id":"cebpf4jnsgd1na2vs0mg"},{"bike_id":"e51e7bef-f214-4bb4-9a45-318e62ab135a","system_id":"levelo_inurba_marseille","lat":43.29934,"lon":5.37467,"is_reserved":false,"is_disabled":false,"rental_uris":{"android":"levelo://app?vid=e51e7bef-f214-4bb4-9a45-318e62ab135a","ios":"levelo://app?vid=e51e7bef-f214-4bb4-9a45-318e62ab135a"},"vehicle_type_id":"4","last_reported":1729872665,"current_range_meters":19600,"station_id":"ce4bgjh2rcd13ifvqbg0","pricing_plan_id":"cebpf4jnsgd1na2vs0mg"},{"bike_id":"5d4d222a-2fa4-4f33-addb-151d534e7e3a","system_id":"levelo_inurba_marseille","lat":43.31492,"lon":5.37297,"is_reserved":false,"is_disabled":false,"rental_uris":{"android":"levelo://app?vid=5d4d222a-2fa4-4f33-addb-151d534e7e3a","ios":"levelo://app?vid=5d4d222a-2fa4-4f33-addb-151d534e7e3a"},"vehicle_type_id":"4","last_reported":1729872665,"current_range_meters":15200,"station_id":"ce4bgt12rcd13ifvqcd0","pricing_plan_id":"cebpf4jnsgd1na2vs0mg"},{"bike_id":"2f4fa534-5203-4d3a-882d-7a153a026d65","system_id":"levelo_inurba_marseille","lat":43.2694,"lon":5.4025,"is_reserved":false,"is_disabled":false,"rental_uris":{"android":"levelo://app?vid=2f4fa534-5203-4d3a-882d-7a153a026d65","ios":"levelo://app?vid=2f4fa534-5203-4d3a-882d-7a153a026d65"},"vehicle_type_id":"4","last_reported":1729872665,"current_range_meters":7200,"station_id":"cjm6bp8fraef2m0cb0m0","pricing_plan_id":"cebpf4jnsgd1na2vs0mg"},{"bike_id":"d5ed5176-eee0-4493-8937-56c9fdfb73fc","system_id":"levelo_inurba_marseille","lat":43.27995,"lon":5.40024,"is_reserved":false,"is_disabled":false,"rental_uris":{"android":"levelo://app?vid=d5ed5176-eee0-4493-8937-56c9fdfb73fc","ios":"levelo://app?vid=d5ed5176-eee0-4493-8937-56c9fdfb73fc"},"vehicle_type_id":"4","last_reported":1729872665,"current_range_meters":29600,"station_id":"ce4bho92rcd13ifvqh4g","pricing_plan_id":"cebpf4jnsgd1na2vs0mg"},{"bike_id":"dd597fa0-7572-4461-b91e-e2f05386310f","system_id":"levelo_inurba_marseille","lat":43.29788,"lon":5.38093,"is_reserved":false,"is_disabled":false,"rental_uris":{"android":"levelo://app?vid=dd597fa0-7572-4461-b91e-e2f05386310f","ios":"levelo://app?vid=dd597fa0-7572-4461-b91e-e2f05386310f"},"vehicle_type_id":"4","last_reported":1729872665,"current_range_meters":16400,"station_id":"ce4bgip2rcd13ifvqbb0","pricing_plan_id":"cebpf4jnsgd1na2vs0mg"},{"bike_id":"7b8b631b-05a1-4bd7-bbbf-6c9fbfe178ce","system_id":"levelo_inurba_marseille","lat":43.29266,"lon":5.38443,"is_reserved":false,"is_disabled":false,"rental_uris":{"android":"levelo://app?vid=7b8b631b-05a1-4bd7-bbbf-6c9fbfe178ce","ios":"levelo://app?vid=7b8b631b-05a1-4bd7-bbbf-6c9fbfe178ce"},"vehicle_type_id":"4","last_reported":1729872665,"current_range_meters":38800,"station_id":"ce4bh692rcd13ifvqea0","pricing_plan_id":"cebpf4jnsgd1na2vs0mg"},{"bike_id":"17da8b3c-324b-4e79-9bea-e23eba27870b","system_id":"levelo_inurba_marseille","lat":43.3171,"lon":5.37756,"is_reserved":false,"is_disabled":false,"rental_uris":{"android":"levelo://app?vid=17da8b3c-324b-4e79-9bea-e23eba27870b","ios":"levelo://app?vid=17da8b3c-324b-4e79-9bea-e23eba27870b"},"vehicle_type_id":"4","last_reported":1729872665,"current_range_meters":38000,"station_id":"ce4bgth2rcd13ifvqch0","pricing_plan_id":"cebpf4jnsgd1na2vs0mg"},{"bike_id":"644aee1a-d14d-490d-8103-3808733f7d2c","system_id":"levelo_inurba_marseille","lat":43.249969,"lon":5.389216,"is_reserved":false,"is_disabled":false,"rental_uris":{"android":"levelo://app?vid=644aee1a-d14d-490d-8103-3808733f7d2c","ios":"levelo://app?vid=644aee1a-d14d-490d-8103-3808733f7d2c"},"vehicle_type_id":"4","last_reported":1729872665,"current_range_meters":20800,"station_id":"ce4bhgp2rcd13ifvqfd0","pricing_plan_id":"cebpf4jnsgd1na2vs0mg"},{"bike_id":"4b319778-2c6a-44a0-a594-bae100133a9a","system_id":"levelo_inurba_marseille","lat":43.29192,"lon":5.39329,"is_reserved":false,"is_disabled":false,"rental_uris":{"android":"levelo://app?vid=4b319778-2c6a-44a0-a594-bae100133a9a","ios":"levelo://app?vid=4b319778-2c6a-44a0-a594-bae100133a9a"},"vehicle_type_id":"4","last_reported":1729872665,"current_range_meters":27600,"station_id":"ce4bh192rcd13ifvqdd0","pricing_plan_id":"cebpf4jnsgd1na2vs0mg"},{"bike_id":"53058b10-7c79-43f4-963c-3acc4edad4eb","system_id":"levelo_inurba_marseille","lat":43.28416,"lon":5.34978,"is_reserved":false,"is_disabled":false,"rental_uris":{"android":"levelo://app?vid=53058b10-7c79-43f4-963c-3acc4edad4eb","ios":"levelo://app?vid=53058b10-7c79-43f4-963c-3acc4edad4eb"},"vehicle_type_id":"4","last_reported":1729872665,"current_range_meters":39200,"station_id":"ce4bhbh2rcd13ifvqepg","pricing_plan_id":"cebpf4jnsgd1na2vs0mg"},{"bike_id":"a1aa28f4-aceb-4c42-9823-d8ff46c4099c","system_id":"levelo_inurba_marseille","lat":43.29064,"lon":5.37169,"is_reserved":false,"is_disabled":false,"rental_uris":{"android":"levelo://app?vid=a1aa28f4-aceb-4c42-9823-d8ff46c4099c","ios":"levelo://app?vid=a1aa28f4-aceb-4c42-9823-d8ff46c4099c"},"vehicle_type_id":"4","last_reported":1729872665,"current_range_meters":35600,"station_id":"ce4bh5p2rcd13ifvqe4g","pricing_plan_id":"cebpf4jnsgd1na2vs0mg"},{"bike_id":"d913e464-44d7-415a-809c-7925f19bf8b3","system_id":"levelo_inurba_marseille","lat":43.3172,"lon":5.42396,"is_reserved":false,"is_disabled":false,"rental_uris":{"android":"levelo://app?vid=d913e464-44d7-415a-809c-7925f19bf8b3","ios":"levelo://app?vid=d913e464-44d7-415a-809c-7925f19bf8b3"},"vehicle_type_id":"4","last_reported":1729872665,"current_range_meters":14000,"station_id":"ce4bhp92rcd13ifvqhbg","pricing_plan_id":"cebpf4jnsgd1na2vs0mg"},{"bike_id":"08f49f05-494a-43cf-8f08-4735db0f1ac5","system_id":"levelo_inurba_marseille","lat":43.29444,"lon":5.39747,"is_reserved":false,"is_disabled":false,"rental_uris":{"android":"levelo://app?vid=08f49f05-494a-43cf-8f08-4735db0f1ac5","ios":"levelo://app?vid=08f49f05-494a-43cf-8f08-4735db0f1ac5"},"vehicle_type_id":"4","last_reported":1729872665,"current_range_meters":38800,"station_id":"ce4bh3h2rcd13ifvqdo0","pricing_plan_id":"cebpf4jnsgd1na2vs0mg"},{"bike_id":"819bae78-d577-428b-a85d-aaec5b70f756","system_id":"levelo_inurba_marseille","lat":43.30324,"lon":5.40446,"is_reserved":false,"is_disabled":false,"rental_uris":{"android":"levelo://app?vid=819bae78-d577-428b-a85d-aaec5b70f756","ios":"levelo://app?vid=819bae78-d577-428b-a85d-aaec5b70f756"},"vehicle_type_id":"4","last_reported":1729872665,"current_range_meters":17600,"station_id":"ce4bh012rcd13ifvqd10","pricing_plan_id":"cebpf4jnsgd1na2vs0mg"},{"bike_id":"91186fec-cfdf-4d5e-bc15-cc5f39db427d","system_id":"levelo_inurba_marseille","lat":43.2439,"lon":5.3706,"is_reserved":false,"is_disabled":false,"rental_uris":{"android":"levelo://app?vid=91186fec-cfdf-4d5e-bc15-cc5f39db427d","ios":"levelo://app?vid=91186fec-cfdf-4d5e-bc15-cc5f39db427d"},"vehicle_type_id":"4","last_reported":1729872665,"current_range_meters":3200,"station_id":"ce4bhhh2rcd13ifvqfk0","pricing_plan_id":"cebpf4jnsgd1na2vs0mg"},{"bike_id":"8cb4ca24-f683-4ec2-9d78-8cae24c56829","system_id":"levelo_inurba_marseille","lat":43.29849,"lon":5.36288,"is_reserved":false,"is_disabled":false,"rental_uris":{"android":"levelo://app?vid=8cb4ca24-f683-4ec2-9d78-8cae24c56829","ios":"levelo://app?vid=8cb4ca24-f683-4ec2-9d78-8cae24c56829"},"vehicle_type_id":"4","last_reported":1729872665,"current_range_meters":37600,"station_id":"ce4bgpp2rcd13ifvqc3g","pricing_plan_id":"cebpf4jnsgd1na2vs0mg"},{"bike_id":"50050ccc-5f4c-4d64-9704-074ab43e93d4","system_id":"levelo_inurba_marseille","lat":43.29271,"lon":5.36853,"is_reserved":false,"is_disabled":false,"rental_uris":{"android":"levelo://app?vid=50050ccc-5f4c-4d64-9704-074ab43e93d4","ios":"levelo://app?vid=50050ccc-5f4c-4d64-9704-074ab43e93d4"},"vehicle_type_id":"4","last_reported":1729872665,"current_range_meters":38800,"station_id":"ce4bhbp2rcd13ifvqesg","pricing_plan_id":"cebpf4jnsgd1na2vs0mg"},{"bike_id":"e2c1cb24-943e-4934-ba67-7caf1b4b5a1e","system_id":"levelo_inurba_marseille","lat":43.305401,"lon":5.365428,"is_reserved":false,"is_disabled":false,"rental_uris":{"android":"levelo://app?vid=e2c1cb24-943e-4934-ba67-7caf1b4b5a1e","ios":"levelo://app?vid=e2c1cb24-943e-4934-ba67-7caf1b4b5a1e"},"vehicle_type_id":"4","last_reported":1729872665,"current_range_meters":34800,"station_id":"ce4bh3p2rcd13ifvqdq0","pricing_plan_id":"cebpf4jnsgd1na2vs0mg"},{"bike_id":"ac882e24-bdf7-4af4-9963-3160303962e4","system_id":"levelo_inurba_marseille","lat":43.30139,"lon":5.37422,"is_reserved":false,"is_disabled":false,"rental_uris":{"android":"levelo://app?vid=ac882e24-bdf7-4af4-9963-3160303962e4","ios":"levelo://app?vid=ac882e24-bdf7-4af4-9963-3160303962e4"},"vehicle_type_id":"4","last_reported":1729872665,"current_range_meters":12000,"station_id":"ce4bgs92rcd13ifvqcc0","pricing_plan_id":"cebpf4jnsgd1na2vs0mg"},{"bike_id":"0adc0c41-e768-479b-9488-867ddf8e0784","system_id":"levelo_inurba_marseille","lat":43.31711,"lon":5.43709,"is_reserved":false,"is_disabled":false,"rental_uris":{"android":"levelo://app?vid=0adc0c41-e768-479b-9488-867ddf8e0784","ios":"levelo://app?vid=0adc0c41-e768-479b-9488-867ddf8e0784"},"vehicle_type_id":"4","last_reported":1729872665,"current_range_meters":24800,"station_id":"ce4bhp92rcd13ifvqhcg","pricing_plan_id":"cebpf4jnsgd1na2vs0mg"},{"bike_id":"ed6713bc-d136-41e9-b2cb-4c5e09d9a0dc","system_id":"levelo_inurba_marseille","lat":43.24739,"lon":5.38026,"is_reserved":false,"is_disabled":false,"rental_uris":{"android":"levelo://app?vid=ed6713bc-d136-41e9-b2cb-4c5e09d9a0dc","ios":"levelo://app?vid=ed6713bc-d136-41e9-b2cb-4c5e09d9a0dc"},"vehicle_type_id":"4","last_reported":1729872665,"current_range_meters":17600,"station_id":"","pricing_plan_id":"cebpf4jnsgd1na2vs0mg"},{"bike_id":"84e2cb0f-484a-491b-ae45-6aac51170ed8","system_id":"levelo_inurba_marseille","lat":43.28265,"lon":5.3508,"is_reserved":false,"is_disabled":false,"rental_uris":{"android":"levelo://app?vid=84e2cb0f-484a-491b-ae45-6aac51170ed8","ios":"levelo://app?vid=84e2cb0f-484a-491b-ae45-6aac51170ed8"},"vehicle_type_id":"4","last_reported":1729872665,"current_range_meters":38800,"station_id":"ce4bhbp2rcd13ifvqerg","pricing_plan_id":"cebpf4jnsgd1na2vs0mg"},{"bike_id":"065780dc-32ec-41d3-bb41-d8deff891cf1","system_id":"levelo_inurba_marseille","lat":43.27997,"lon":5.40023,"is_reserved":false,"is_disabled":false,"rental_uris":{"android":"levelo://app?vid=065780dc-32ec-41d3-bb41-d8deff891cf1","ios":"levelo://app?vid=065780dc-32ec-41d3-bb41-d8deff891cf1"},"vehicle_type_id":"4","last_reported":1729872665,"current_range_meters":22800,"station_id":"ce4bho92rcd13ifvqh4g","pricing_plan_id":"cebpf4jnsgd1na2vs0mg"},{"bike_id":"7b83d6e9-1ec9-43e1-bfc7-920883ab29db","system_id":"levelo_inurba_marseille","lat":43.319122,"lon":5.407843,"is_reserved":false,"is_disabled":false,"rental_uris":{"android":"levelo://app?vid=7b83d6e9-1ec9-43e1-bfc7-920883ab29db","ios":"levelo://app?vid=7b83d6e9-1ec9-43e1-bfc7-920883ab29db"},"vehicle_type_id":"4","last_reported":1729872665,"current_range_meters":10000,"station_id":"ce4bhq12rcd13ifvqhig","pricing_plan_id":"cebpf4jnsgd1na2vs0mg"},{"bike_id":"64472841-b343-48f6-9676-124a0e4ffcee","system_id":"levelo_inurba_marseille","lat":43.31167,"lon":5.38713,"is_reserved":false,"is_disabled":false,"rental_uris":{"android":"levelo://app?vid=64472841-b343-48f6-9676-124a0e4ffcee","ios":"levelo://app?vid=64472841-b343-48f6-9676-124a0e4ffcee"},"vehicle_type_id":"4","last_reported":1729872665,"current_range_meters":8800,"station_id":"ce4bgv12rcd13ifvqcp0","pricing_plan_id":"cebpf4jnsgd1na2vs0mg"},{"bike_id":"c68b33a7-6d62-4d37-a74c-7c17c52711f2","system_id":"levelo_inurba_marseille","lat":43.30437,"lon":5.38891,"is_reserved":false,"is_disabled":false,"rental_uris":{"android":"levelo://app?vid=c68b33a7-6d62-4d37-a74c-7c17c52711f2","ios":"levelo://app?vid=c68b33a7-6d62-4d37-a74c-7c17c52711f2"},"vehicle_type_id":"4","last_reported":1729872665,"current_range_meters":28400,"station_id":"ce4bgk12rcd13ifvqbi0","pricing_plan_id":"cebpf4jnsgd1na2vs0mg"},{"bike_id":"2cf1cae8-4486-4790-b269-b0f2733c71d2","system_id":"levelo_inurba_marseille","lat":43.23198,"lon":5.35552,"is_reserved":false,"is_disabled":false,"rental_uris":{"android":"levelo://app?vid=2cf1cae8-4486-4790-b269-b0f2733c71d2","ios":"levelo://app?vid=2cf1cae8-4486-4790-b269-b0f2733c71d2"},"vehicle_type_id":"4","last_reported":1729872665,"current_range_meters":5600,"station_id":"ce4bhu92rcd13ifvqi70","pricing_plan_id":"cebpf4jnsgd1na2vs0mg"},{"bike_id":"a5123b5e-91d2-4fd3-8bb7-75ca5f8f5b91","system_id":"levelo_inurba_marseille","lat":43.31708,"lon":5.43712,"is_reserved":false,"is_disabled":false,"rental_uris":{"android":"levelo://app?vid=a5123b5e-91d2-4fd3-8bb7-75ca5f8f5b91","ios":"levelo://app?vid=a5123b5e-91d2-4fd3-8bb7-75ca5f8f5b91"},"vehicle_type_id":"4","last_reported":1729872665,"current_range_meters":17200,"station_id":"ce4bhp92rcd13ifvqhcg","pricing_plan_id":"cebpf4jnsgd1na2vs0mg"},{"bike_id":"97871a69-d4a7-4c4f-98d4-24422f8f1052","system_id":"levelo_inurba_marseille","lat":43.29528,"lon":5.38533,"is_reserved":false,"is_disabled":false,"rental_uris":{"android":"levelo://app?vid=97871a69-d4a7-4c4f-98d4-24422f8f1052","ios":"levelo://app?vid=97871a69-d4a7-4c4f-98d4-24422f8f1052"},"vehicle_type_id":"4","last_reported":1729872665,"current_range_meters":14000,"station_id":"ce4bgih2rcd13ifvqba0","pricing_plan_id":"cebpf4jnsgd1na2vs0mg"},{"bike_id":"c496f2d6-16bc-4951-91ae-5fc5338f6691","system_id":"levelo_inurba_marseille","lat":43.3376,"lon":5.374567,"is_reserved":false,"is_disabled":false,"rental_uris":{"android":"levelo://app?vid=c496f2d6-16bc-4951-91ae-5fc5338f6691","ios":"levelo://app?vid=c496f2d6-16bc-4951-91ae-5fc5338f6691"},"vehicle_type_id":"4","last_reported":1729872665,"current_range_meters":35200,"station_id":"","pricing_plan_id":"cebpf4jnsgd1na2vs0mg"},{"bike_id":"cdc6a438-9e55-494c-8897-03546cdd280e","system_id":"levelo_inurba_marseille","lat":43.291,"lon":5.38146,"is_reserved":false,"is_disabled":false,"rental_uris":{"android":"levelo://app?vid=cdc6a438-9e55-494c-8897-03546cdd280e","ios":"levelo://app?vid=cdc6a438-9e55-494c-8897-03546cdd280e"},"vehicle_type_id":"4","last_reported":1729872665,"current_range_meters":8000,"station_id":"ce4bh512rcd13ifvqe2g","pricing_plan_id":"cebpf4jnsgd1na2vs0mg"},{"bike_id":"6c0f09af-a9a0-4daa-b1f0-b90b599ccc5f","system_id":"levelo_inurba_marseille","lat":43.2417,"lon":5.36398,"is_reserved":false,"is_disabled":false,"rental_uris":{"android":"levelo://app?vid=6c0f09af-a9a0-4daa-b1f0-b90b599ccc5f","ios":"levelo://app?vid=6c0f09af-a9a0-4daa-b1f0-b90b599ccc5f"},"vehicle_type_id":"4","last_reported":1729872665,"current_range_meters":26800,"station_id":"cpo36qri1sfpv3e86is0","pricing_plan_id":"cebpf4jnsgd1na2vs0mg"},{"bike_id":"333a2298-2aff-44c9-8a02-564c5830842d","system_id":"levelo_inurba_marseille","lat":43.31064,"lon":5.38345,"is_reserved":false,"is_disabled":false,"rental_uris":{"android":"levelo://app?vid=333a2298-2aff-44c9-8a02-564c5830842d","ios":"levelo://app?vid=333a2298-2aff-44c9-8a02-564c5830842d"},"vehicle_type_id":"4","last_reported":1729872665,"current_range_meters":26000,"station_id":"ce4bgv92rcd13ifvqcr0","pricing_plan_id":"cebpf4jnsgd1na2vs0mg"},{"bike_id":"d3035504-3f1a-4fb0-998c-0737b49322a1","system_id":"levelo_inurba_marseille","lat":43.29401,"lon":5.43055,"is_reserved":false,"is_disabled":false,"rental_uris":{"android":"levelo://app?vid=d3035504-3f1a-4fb0-998c-0737b49322a1","ios":"levelo://app?vid=d3035504-3f1a-4fb0-998c-0737b49322a1"},"vehicle_type_id":"4","last_reported":1729872665,"current_range_meters":34000,"station_id":"ce4bh192rcd13ifvqdc0","pricing_plan_id":"cebpf4jnsgd1na2vs0mg"},{"bike_id":"9fa8cb91-4c70-4214-b0d6-7fd1cffcfdb8","system_id":"levelo_inurba_marseille","lat":43.28716,"lon":5.379321,"is_reserved":false,"is_disabled":false,"rental_uris":{"android":"levelo://app?vid=9fa8cb91-4c70-4214-b0d6-7fd1cffcfdb8","ios":"levelo://app?vid=9fa8cb91-4c70-4214-b0d6-7fd1cffcfdb8"},"vehicle_type_id":"4","last_reported":1729872665,"current_range_meters":11200,"station_id":"ce4bhi12rcd13ifvqfq0","pricing_plan_id":"cebpf4jnsgd1na2vs0mg"},{"bike_id":"2c0ce6cf-5fea-46af-b308-9036225fe445","system_id":"levelo_inurba_marseille","lat":43.27997,"lon":5.40026,"is_reserved":false,"is_disabled":false,"rental_uris":{"android":"levelo://app?vid=2c0ce6cf-5fea-46af-b308-9036225fe445","ios":"levelo://app?vid=2c0ce6cf-5fea-46af-b308-9036225fe445"},"vehicle_type_id":"4","last_reported":1729872665,"current_range_meters":39200,"station_id":"ce4bho92rcd13ifvqh4g","pricing_plan_id":"cebpf4jnsgd1na2vs0mg"},{"bike_id":"35c20e1c-2b7c-43b7-816f-1b50bb34fb92","system_id":"levelo_inurba_marseille","lat":43.29531,"lon":5.38533,"is_reserved":false,"is_disabled":false,"rental_uris":{"android":"levelo://app?vid=35c20e1c-2b7c-43b7-816f-1b50bb34fb92","ios":"levelo://app?vid=35c20e1c-2b7c-43b7-816f-1b50bb34fb92"},"vehicle_type_id":"4","last_reported":1729872665,"current_range_meters":6800,"station_id":"ce4bgih2rcd13ifvqba0","pricing_plan_id":"cebpf4jnsgd1na2vs0mg"},{"bike_id":"316f07bc-cff2-4210-977e-5323bb6767b2","system_id":"levelo_inurba_marseille","lat":43.30424,"lon":5.39754,"is_reserved":false,"is_disabled":false,"rental_uris":{"android":"levelo://app?vid=316f07bc-cff2-4210-977e-5323bb6767b2","ios":"levelo://app?vid=316f07bc-cff2-4210-977e-5323bb6767b2"},"vehicle_type_id":"4","last_reported":1729872665,"current_range_meters":39200,"station_id":"ce4bh092rcd13ifvqd20","pricing_plan_id":"cebpf4jnsgd1na2vs0mg"},{"bike_id":"f4a0523f-03d2-4588-adb4-7481b0229b28","system_id":"levelo_inurba_marseille","lat":43.24655,"lon":5.38175,"is_reserved":false,"is_disabled":false,"rental_uris":{"android":"levelo://app?vid=f4a0523f-03d2-4588-adb4-7481b0229b28","ios":"levelo://app?vid=f4a0523f-03d2-4588-adb4-7481b0229b28"},"vehicle_type_id":"4","last_reported":1729872665,"current_range_meters":22400,"station_id":"ce4bhih2rcd13ifvqfr0","pricing_plan_id":"cebpf4jnsgd1na2vs0mg"},{"bike_id":"d6e9fef2-7e55-4f51-97ad-b807b6fa7382","system_id":"levelo_inurba_marseille","lat":43.24657,"lon":5.38162,"is_reserved":false,"is_disabled":false,"rental_uris":{"android":"levelo://app?vid=d6e9fef2-7e55-4f51-97ad-b807b6fa7382","ios":"levelo://app?vid=d6e9fef2-7e55-4f51-97ad-b807b6fa7382"},"vehicle_type_id":"4","last_reported":1729872665,"current_range_meters":29600,"station_id":"ce4bhih2rcd13ifvqfr0","pricing_plan_id":"cebpf4jnsgd1na2vs0mg"},{"bike_id":"72debdd9-2650-4c26-a1da-32445fceddac","system_id":"levelo_inurba_marseille","lat":43.23191,"lon":5.35546,"is_reserved":false,"is_disabled":false,"rental_uris":{"android":"levelo://app?vid=72debdd9-2650-4c26-a1da-32445fceddac","ios":"levelo://app?vid=72debdd9-2650-4c26-a1da-32445fceddac"},"vehicle_type_id":"4","last_reported":1729872665,"current_range_meters":29600,"station_id":"ce4bhu92rcd13ifvqi70","pricing_plan_id":"cebpf4jnsgd1na2vs0mg"},{"bike_id":"dfe9db19-0830-4271-bcc2-3e3d7e412b26","system_id":"levelo_inurba_marseille","lat":43.24808,"lon":5.3746,"is_reserved":false,"is_disabled":false,"rental_uris":{"android":"levelo://app?vid=dfe9db19-0830-4271-bcc2-3e3d7e412b26","ios":"levelo://app?vid=dfe9db19-0830-4271-bcc2-3e3d7e412b26"},"vehicle_type_id":"4","last_reported":1729872665,"current_range_meters":35600,"station_id":"ce4bhgh2rcd13ifvqfb0","pricing_plan_id":"cebpf4jnsgd1na2vs0mg"},{"bike_id":"84074c01-9114-4a3d-8d86-428e77e8b073","system_id":"levelo_inurba_marseille","lat":43.25002,"lon":5.38928,"is_reserved":false,"is_disabled":false,"rental_uris":{"android":"levelo://app?vid=84074c01-9114-4a3d-8d86-428e77e8b073","ios":"levelo://app?vid=84074c01-9114-4a3d-8d86-428e77e8b073"},"vehicle_type_id":"4","last_reported":1729872665,"current_range_meters":12800,"station_id":"ce4bhgp2rcd13ifvqfd0","pricing_plan_id":"cebpf4jnsgd1na2vs0mg"},{"bike_id":"9440f6cd-ce5a-4b14-a150-8fa37fd9c4ef","system_id":"levelo_inurba_marseille","lat":43.29514,"lon":5.39408,"is_reserved":false,"is_disabled":false,"rental_uris":{"android":"levelo://app?vid=9440f6cd-ce5a-4b14-a150-8fa37fd9c4ef","ios":"levelo://app?vid=9440f6cd-ce5a-4b14-a150-8fa37fd9c4ef"},"vehicle_type_id":"4","last_reported":1729872665,"current_range_meters":2800,"station_id":"ce4bh292rcd13ifvqdf0","pricing_plan_id":"cebpf4jnsgd1na2vs0mg"},{"bike_id":"888971c8-9be0-42b9-95b8-2b45f266f34e","system_id":"levelo_inurba_marseille","lat":43.330221,"lon":5.390784,"is_reserved":false,"is_disabled":false,"rental_uris":{"android":"levelo://app?vid=888971c8-9be0-42b9-95b8-2b45f266f34e","ios":"levelo://app?vid=888971c8-9be0-42b9-95b8-2b45f266f34e"},"vehicle_type_id":"4","last_reported":1729872665,"current_range_meters":28000,"station_id":"ce4bhr92rcd13ifvqhrg","pricing_plan_id":"cebpf4jnsgd1na2vs0mg"},{"bike_id":"3cef4d1a-27e0-44bf-ba29-ac3d5733e995","system_id":"levelo_inurba_marseille","lat":43.23963,"lon":5.3664,"is_reserved":false,"is_disabled":false,"rental_uris":{"android":"levelo://app?vid=3cef4d1a-27e0-44bf-ba29-ac3d5733e995","ios":"levelo://app?vid=3cef4d1a-27e0-44bf-ba29-ac3d5733e995"},"vehicle_type_id":"4","last_reported":1729872665,"current_range_meters":7200,"station_id":"ce4bhi12rcd13ifvqfp0","pricing_plan_id":"cebpf4jnsgd1na2vs0mg"},{"bike_id":"59842295-9fa4-4821-97a0-ce105fca6f01","system_id":"levelo_inurba_marseille","lat":43.29785,"lon":5.38102,"is_reserved":false,"is_disabled":false,"rental_uris":{"android":"levelo://app?vid=59842295-9fa4-4821-97a0-ce105fca6f01","ios":"levelo://app?vid=59842295-9fa4-4821-97a0-ce105fca6f01"},"vehicle_type_id":"4","last_reported":1729872665,"current_range_meters":24800,"station_id":"ce4bgip2rcd13ifvqbb0","pricing_plan_id":"cebpf4jnsgd1na2vs0mg"},{"bike_id":"66f54f37-7df7-473c-9b0b-5c039fdefd5d","system_id":"levelo_inurba_marseille","lat":43.2587,"lon":5.39896,"is_reserved":false,"is_disabled":false,"rental_uris":{"android":"levelo://app?vid=66f54f37-7df7-473c-9b0b-5c039fdefd5d","ios":"levelo://app?vid=66f54f37-7df7-473c-9b0b-5c039fdefd5d"},"vehicle_type_id":"4","last_reported":1729872665,"current_range_meters":30800,"station_id":"ce4bhl92rcd13ifvqghg","pricing_plan_id":"cebpf4jnsgd1na2vs0mg"},{"bike_id":"2a4539ef-619b-4dea-9c77-9531f441adf6","system_id":"levelo_inurba_marseille","lat":43.28407,"lon":5.34983,"is_reserved":false,"is_disabled":false,"rental_uris":{"android":"levelo://app?vid=2a4539ef-619b-4dea-9c77-9531f441adf6","ios":"levelo://app?vid=2a4539ef-619b-4dea-9c77-9531f441adf6"},"vehicle_type_id":"4","last_reported":1729872665,"current_range_meters":39200,"station_id":"ce4bhbh2rcd13ifvqepg","pricing_plan_id":"cebpf4jnsgd1na2vs0mg"},{"bike_id":"e649243e-73cf-44ee-8672-96d47eb74ec9","system_id":"levelo_inurba_marseille","lat":43.29299,"lon":5.37165,"is_reserved":false,"is_disabled":false,"rental_uris":{"android":"levelo://app?vid=e649243e-73cf-44ee-8672-96d47eb74ec9","ios":"levelo://app?vid=e649243e-73cf-44ee-8672-96d47eb74ec9"},"vehicle_type_id":"4","last_reported":1729872665,"current_range_meters":6800,"station_id":"ce4bgh92rcd13ifvqb40","pricing_plan_id":"cebpf4jnsgd1na2vs0mg"},{"bike_id":"6ccdf444-893b-4833-a1e3-264865dd5bde","system_id":"levelo_inurba_marseille","lat":43.30348,"lon":5.41901,"is_reserved":false,"is_disabled":false,"rental_uris":{"android":"levelo://app?vid=6ccdf444-893b-4833-a1e3-264865dd5bde","ios":"levelo://app?vid=6ccdf444-893b-4833-a1e3-264865dd5bde"},"vehicle_type_id":"4","last_reported":1729872665,"current_range_meters":36000,"station_id":"ce4bhop2rcd13ifvqh7g","pricing_plan_id":"cebpf4jnsgd1na2vs0mg"},{"bike_id":"b411f2ff-bded-4b97-9905-10662f2fbbce","system_id":"levelo_inurba_marseille","lat":43.2843,"lon":5.3919,"is_reserved":false,"is_disabled":false,"rental_uris":{"android":"levelo://app?vid=b411f2ff-bded-4b97-9905-10662f2fbbce","ios":"levelo://app?vid=b411f2ff-bded-4b97-9905-10662f2fbbce"},"vehicle_type_id":"4","last_reported":1729872665,"current_range_meters":38000,"station_id":"ce4bhoh2rcd13ifvqh5g","pricing_plan_id":"cebpf4jnsgd1na2vs0mg"},{"bike_id":"35de4562-97c1-4869-9e48-f5d9aced558c","system_id":"levelo_inurba_marseille","lat":43.24807,"lon":5.37457,"is_reserved":false,"is_disabled":false,"rental_uris":{"android":"levelo://app?vid=35de4562-97c1-4869-9e48-f5d9aced558c","ios":"levelo://app?vid=35de4562-97c1-4869-9e48-f5d9aced558c"},"vehicle_type_id":"4","last_reported":1729872665,"current_range_meters":33600,"station_id":"ce4bhgh2rcd13ifvqfb0","pricing_plan_id":"cebpf4jnsgd1na2vs0mg"},{"bike_id":"a543c694-ce5d-481b-8fec-27a22e4dfc55","system_id":"levelo_inurba_marseille","lat":43.29255,"lon":5.38447,"is_reserved":false,"is_disabled":false,"rental_uris":{"android":"levelo://app?vid=a543c694-ce5d-481b-8fec-27a22e4dfc55","ios":"levelo://app?vid=a543c694-ce5d-481b-8fec-27a22e4dfc55"},"vehicle_type_id":"4","last_reported":1729872665,"current_range_meters":32000,"station_id":"ce4bh692rcd13ifvqea0","pricing_plan_id":"cebpf4jnsgd1na2vs0mg"},{"bike_id":"c5b873f9-225a-4c7e-a663-d3ff99099a3d","system_id":"levelo_inurba_marseille","lat":43.31324,"lon":5.39697,"is_reserved":false,"is_disabled":false,"rental_uris":{"android":"levelo://app?vid=c5b873f9-225a-4c7e-a663-d3ff99099a3d","ios":"levelo://app?vid=c5b873f9-225a-4c7e-a663-d3ff99099a3d"},"vehicle_type_id":"4","last_reported":1729872665,"current_range_meters":16800,"station_id":"ce4bgvp2rcd13ifvqcu0","pricing_plan_id":"cebpf4jnsgd1na2vs0mg"},{"bike_id":"01ba8c55-9d6b-4e28-9ae5-93293d5375e9","system_id":"levelo_inurba_marseille","lat":43.28269,"lon":5.35065,"is_reserved":false,"is_disabled":false,"rental_uris":{"android":"levelo://app?vid=01ba8c55-9d6b-4e28-9ae5-93293d5375e9","ios":"levelo://app?vid=01ba8c55-9d6b-4e28-9ae5-93293d5375e9"},"vehicle_type_id":"4","last_reported":1729872665,"current_range_meters":26000,"station_id":"ce4bhbp2rcd13ifvqerg","pricing_plan_id":"cebpf4jnsgd1na2vs0mg"},{"bike_id":"666d1dff-d36a-483b-96cf-945169325981","system_id":"levelo_inurba_marseille","lat":43.29007,"lon":5.3562,"is_reserved":false,"is_disabled":false,"rental_uris":{"android":"levelo://app?vid=666d1dff-d36a-483b-96cf-945169325981","ios":"levelo://app?vid=666d1dff-d36a-483b-96cf-945169325981"},"vehicle_type_id":"4","last_reported":1729872665,"current_range_meters":32800,"station_id":"ce4bhb92rcd13ifvqen0","pricing_plan_id":"cebpf4jnsgd1na2vs0mg"},{"bike_id":"5cf81e77-5b2e-4fce-88e8-85c373694551","system_id":"levelo_inurba_marseille","lat":43.28264,"lon":5.3506,"is_reserved":false,"is_disabled":false,"rental_uris":{"android":"levelo://app?vid=5cf81e77-5b2e-4fce-88e8-85c373694551","ios":"levelo://app?vid=5cf81e77-5b2e-4fce-88e8-85c373694551"},"vehicle_type_id":"4","last_reported":1729872665,"current_range_meters":22800,"station_id":"ce4bhbp2rcd13ifvqerg","pricing_plan_id":"cebpf4jnsgd1na2vs0mg"},{"bike_id":"9213b7b2-44fb-4047-92c7-3b953e87c86d","system_id":"levelo_inurba_marseille","lat":43.25128,"lon":5.381923,"is_reserved":false,"is_disabled":false,"rental_uris":{"android":"levelo://app?vid=9213b7b2-44fb-4047-92c7-3b953e87c86d","ios":"levelo://app?vid=9213b7b2-44fb-4047-92c7-3b953e87c86d"},"vehicle_type_id":"4","last_reported":1729872665,"current_range_meters":12400,"station_id":"ce4bhih2rcd13ifvqfr0","pricing_plan_id":"cebpf4jnsgd1na2vs0mg"},{"bike_id":"95ac5556-0194-421e-bc81-375833334402","system_id":"levelo_inurba_marseille","lat":43.29959,"lon":5.41317,"is_reserved":false,"is_disabled":false,"rental_uris":{"android":"levelo://app?vid=95ac5556-0194-421e-bc81-375833334402","ios":"levelo://app?vid=95ac5556-0194-421e-bc81-375833334402"},"vehicle_type_id":"4","last_reported":1729872665,"current_range_meters":39200,"station_id":"ce4bhp12rcd13ifvqh9g","pricing_plan_id":"cebpf4jnsgd1na2vs0mg"},{"bike_id":"bbb0c372-31b0-4071-b6df-7715e3d470e3","system_id":"levelo_inurba_marseille","lat":43.29421,"lon":5.38628,"is_reserved":false,"is_disabled":false,"rental_uris":{"android":"levelo://app?vid=bbb0c372-31b0-4071-b6df-7715e3d470e3","ios":"levelo://app?vid=bbb0c372-31b0-4071-b6df-7715e3d470e3"},"vehicle_type_id":"4","last_reported":1729872665,"current_range_meters":16800,"station_id":"ce4bh2h2rcd13ifvqdh0","pricing_plan_id":"cebpf4jnsgd1na2vs0mg"},{"bike_id":"67d7fa6f-0c38-482d-8c35-e64b5ca04286","system_id":"levelo_inurba_marseille","lat":43.29568,"lon":5.39987,"is_reserved":false,"is_disabled":false,"rental_uris":{"android":"levelo://app?vid=67d7fa6f-0c38-482d-8c35-e64b5ca04286","ios":"levelo://app?vid=67d7fa6f-0c38-482d-8c35-e64b5ca04286"},"vehicle_type_id":"4","last_reported":1729872665,"current_range_meters":30800,"station_id":"ce4bh312rcd13ifvqdj0","pricing_plan_id":"cebpf4jnsgd1na2vs0mg"},{"bike_id":"520460d9-9e9d-440e-aa42-70fc42c8670c","system_id":"levelo_inurba_marseille","lat":43.29522,"lon":5.38546,"is_reserved":false,"is_disabled":false,"rental_uris":{"android":"levelo://app?vid=520460d9-9e9d-440e-aa42-70fc42c8670c","ios":"levelo://app?vid=520460d9-9e9d-440e-aa42-70fc42c8670c"},"vehicle_type_id":"4","last_reported":1729872665,"current_range_meters":30000,"station_id":"ce4bgih2rcd13ifvqba0","pricing_plan_id":"cebpf4jnsgd1na2vs0mg"},{"bike_id":"61224535-3620-4fa3-a9b8-eb9d872f909d","system_id":"levelo_inurba_marseille","lat":43.2952,"lon":5.3854,"is_reserved":false,"is_disabled":false,"rental_uris":{"android":"levelo://app?vid=61224535-3620-4fa3-a9b8-eb9d872f909d","ios":"levelo://app?vid=61224535-3620-4fa3-a9b8-eb9d872f909d"},"vehicle_type_id":"4","last_reported":1729872665,"current_range_meters":32800,"station_id":"ce4bgih2rcd13ifvqba0","pricing_plan_id":"cebpf4jnsgd1na2vs0mg"},{"bike_id":"0ba024ae-0ee3-4b59-8307-3bd7e5fecb6a","system_id":"levelo_inurba_marseille","lat":43.25817,"lon":5.39435,"is_reserved":false,"is_disabled":false,"rental_uris":{"android":"levelo://app?vid=0ba024ae-0ee3-4b59-8307-3bd7e5fecb6a","ios":"levelo://app?vid=0ba024ae-0ee3-4b59-8307-3bd7e5fecb6a"},"vehicle_type_id":"4","last_reported":1729872665,"current_range_meters":8800,"station_id":"ce4bhip2rcd13ifvqft0","pricing_plan_id":"cebpf4jnsgd1na2vs0mg"},{"bike_id":"2abfdea3-facf-4d17-8b1e-8cfc918e174e","system_id":"levelo_inurba_marseille","lat":43.30429,"lon":5.39735,"is_reserved":false,"is_disabled":false,"rental_uris":{"android":"levelo://app?vid=2abfdea3-facf-4d17-8b1e-8cfc918e174e","ios":"levelo://app?vid=2abfdea3-facf-4d17-8b1e-8cfc918e174e"},"vehicle_type_id":"4","last_reported":1729872665,"current_range_meters":7200,"station_id":"ce4bh092rcd13ifvqd20","pricing_plan_id":"cebpf4jnsgd1na2vs0mg"},{"bike_id":"a7049261-4dd0-456a-ac35-96ccc22efefd","system_id":"levelo_inurba_marseille","lat":43.28421,"lon":5.37508,"is_reserved":false,"is_disabled":false,"rental_uris":{"android":"levelo://app?vid=a7049261-4dd0-456a-ac35-96ccc22efefd","ios":"levelo://app?vid=a7049261-4dd0-456a-ac35-96ccc22efefd"},"vehicle_type_id":"4","last_reported":1729872665,"current_range_meters":4000,"station_id":"ce4bh412rcd13ifvqds0","pricing_plan_id":"cebpf4jnsgd1na2vs0mg"},{"bike_id":"be5c7d2f-290f-4e7a-b4ec-c0f1952d0a81","system_id":"levelo_inurba_marseille","lat":43.323228,"lon":5.385238,"is_reserved":false,"is_disabled":false,"rental_uris":{"android":"levelo://app?vid=be5c7d2f-290f-4e7a-b4ec-c0f1952d0a81","ios":"levelo://app?vid=be5c7d2f-290f-4e7a-b4ec-c0f1952d0a81"},"vehicle_type_id":"4","last_reported":1729872665,"current_range_meters":36800,"station_id":"","pricing_plan_id":"cebpf4jnsgd1na2vs0mg"},{"bike_id":"a6306392-23de-448b-a6f8-32110aaea61f","system_id":"levelo_inurba_marseille","lat":43.28487,"lon":5.41307,"is_reserved":false,"is_disabled":false,"rental_uris":{"android":"levelo://app?vid=a6306392-23de-448b-a6f8-32110aaea61f","ios":"levelo://app?vid=a6306392-23de-448b-a6f8-32110aaea61f"},"vehicle_type_id":"4","last_reported":1729872665,"current_range_meters":38000,"station_id":"","pricing_plan_id":"cebpf4jnsgd1na2vs0mg"},{"bike_id":"3e03fc28-7c83-47f7-86f0-7fab5b3f589d","system_id":"levelo_inurba_marseille","lat":43.29706,"lon":5.366,"is_reserved":false,"is_disabled":false,"rental_uris":{"android":"levelo://app?vid=3e03fc28-7c83-47f7-86f0-7fab5b3f589d","ios":"levelo://app?vid=3e03fc28-7c83-47f7-86f0-7fab5b3f589d"},"vehicle_type_id":"4","last_reported":1729872665,"current_range_meters":26000,"station_id":"ce4bgn12rcd13ifvqbt0","pricing_plan_id":"cebpf4jnsgd1na2vs0mg"},{"bike_id":"5bfd5ae9-35cd-4643-82a6-6d9ff86ca9a0","system_id":"levelo_inurba_marseille","lat":43.29416,"lon":5.38622,"is_reserved":false,"is_disabled":false,"rental_uris":{"android":"levelo://app?vid=5bfd5ae9-35cd-4643-82a6-6d9ff86ca9a0","ios":"levelo://app?vid=5bfd5ae9-35cd-4643-82a6-6d9ff86ca9a0"},"vehicle_type_id":"4","last_reported":1729872665,"current_range_meters":32000,"station_id":"ce4bh2h2rcd13ifvqdh0","pricing_plan_id":"cebpf4jnsgd1na2vs0mg"},{"bike_id":"b2dc351c-5d1b-4918-b612-b5a337fe5d68","system_id":"levelo_inurba_marseille","lat":43.24802,"lon":5.37454,"is_reserved":false,"is_disabled":false,"rental_uris":{"android":"levelo://app?vid=b2dc351c-5d1b-4918-b612-b5a337fe5d68","ios":"levelo://app?vid=b2dc351c-5d1b-4918-b612-b5a337fe5d68"},"vehicle_type_id":"4","last_reported":1729872665,"current_range_meters":24400,"station_id":"ce4bhgh2rcd13ifvqfb0","pricing_plan_id":"cebpf4jnsgd1na2vs0mg"},{"bike_id":"6bdfff4d-d11f-4e79-9315-36fd8a5727c8","system_id":"levelo_inurba_marseille","lat":43.28001,"lon":5.40013,"is_reserved":false,"is_disabled":false,"rental_uris":{"android":"levelo://app?vid=6bdfff4d-d11f-4e79-9315-36fd8a5727c8","ios":"levelo://app?vid=6bdfff4d-d11f-4e79-9315-36fd8a5727c8"},"vehicle_type_id":"4","last_reported":1729872665,"current_range_meters":24800,"station_id":"ce4bho92rcd13ifvqh4g","pricing_plan_id":"cebpf4jnsgd1na2vs0mg"},{"bike_id":"4470f50c-7aa7-4d7d-8e33-492b84d3972c","system_id":"levelo_inurba_marseille","lat":43.27675,"lon":5.38887,"is_reserved":false,"is_disabled":false,"rental_uris":{"android":"levelo://app?vid=4470f50c-7aa7-4d7d-8e33-492b84d3972c","ios":"levelo://app?vid=4470f50c-7aa7-4d7d-8e33-492b84d3972c"},"vehicle_type_id":"4","last_reported":1729872665,"current_range_meters":5600,"station_id":"ce4bgvp2rcd13ifvqcu0","pricing_plan_id":"cebpf4jnsgd1na2vs0mg"},{"bike_id":"c1476285-c1fa-4916-b005-a05e85635bf5","system_id":"levelo_inurba_marseille","lat":43.28721,"lon":5.36085,"is_reserved":false,"is_disabled":false,"rental_uris":{"android":"levelo://app?vid=c1476285-c1fa-4916-b005-a05e85635bf5","ios":"levelo://app?vid=c1476285-c1fa-4916-b005-a05e85635bf5"},"vehicle_type_id":"4","last_reported":1729872665,"current_range_meters":16000,"station_id":"cki0cbj6b192h4jlfktg","pricing_plan_id":"cebpf4jnsgd1na2vs0mg"},{"bike_id":"c7d42db5-91b3-4d03-aacf-27b63f2cf530","system_id":"levelo_inurba_marseille","lat":43.27175,"lon":5.40999,"is_reserved":false,"is_disabled":false,"rental_uris":{"android":"levelo://app?vid=c7d42db5-91b3-4d03-aacf-27b63f2cf530","ios":"levelo://app?vid=c7d42db5-91b3-4d03-aacf-27b63f2cf530"},"vehicle_type_id":"4","last_reported":1729872665,"current_range_meters":39200,"station_id":"ce4bhl12rcd13ifvqgf0","pricing_plan_id":"cebpf4jnsgd1na2vs0mg"},