{"last_updated":1781280482,"ttl":60,"version":"2.2","data":{"bikes":[{"bike_id":"ec12d144-24c8-4071-abf6-197e520eae96","system_id":"levelo_inurba_marseille","lat":43.337444,"lon":5.374475,"is_reserved":false,"is_disabled":false,"rental_uris":{"android":"levelo://app?vid=ec12d144-24c8-4071-abf6-197e520eae96","ios":"levelo://app?vid=ec12d144-24c8-4071-abf6-197e520eae96"},"vehicle_type_id":"4","last_reported":1781280483,"current_range_meters":0,"station_id":"","pricing_plan_id":"cebpf4jnsgd1na2vs0mg"},{"bike_id":"1d312adb-1ed2-4a36-9389-907473287a72","system_id":"levelo_inurba_marseille","lat":43.29692,"lon":5.37712,"is_reserved":false,"is_disabled":false,"rental_uris":{"android":"levelo://app?vid=1d312adb-1ed2-4a36-9389-907473287a72","ios":"levelo://app?vid=1d312adb-1ed2-4a36-9389-907473287a72"},"vehicle_type_id":"4","last_reported":1781280483,"current_range_meters":2800,"station_id":"ce4bgkh2rcd13ifvqbl0","pricing_plan_id":"cebpf4jnsgd1na2vs0mg"},{"bike_id":"11accc81-1379-4ff1-9aa2-c83dda7c741f","system_id":"levelo_inurba_marseille","lat":43.30336,"lon":5.40409,"is_reserved":false,"is_disabled":false,"rental_uris":{"android":"levelo://app?vid=11accc81-1379-4ff1-9aa2-c83dda7c741f","ios":"levelo://app?vid=11accc81-1379-4ff1-9aa2-c83dda7c741f"},"vehicle_type_id":"4","last_reported":1781280483,"current_range_meters":2800,"station_id":"ce4bh012rcd13ifvqd10","pricing_plan_id":"cebpf4jnsgd1na2vs0mg"},{"bike_id":"7d697069-780e-4659-8b0f-5679ab0c3df7","system_id":"levelo_inurba_marseille","lat":43.22569,"lon":5.41615,"is_reserved":false,"is_disabled":false,"rental_uris":{"android":"levelo://app?vid=7d697069-780e-4659-8b0f-5679ab0c3df7","ios":"levelo://app?vid=7d697069-780e-4659-8b0f-5679ab0c3df7"},"vehicle_type_id":"4","last_reported":1781280483,"current_range_meters":2800,"station_id":"st_d2o4gvlbi1j2169b742g","pricing_plan_id":"cebpf4jnsgd1na2vs0mg"},{"bike_id":"aad626b2-6f57-4878-b908-8561b610d50e","system_id":"levelo_inurba_marseille","lat":43.27614,"lon":5.36121,"is_reserved":false,"is_disabled":true,"rental_uris":{"android":"levelo://app?vid=aad626b2-6f57-4878-b908-8561b610d50e","ios":"levelo://app?vid=aad626b2-6f57-4878-b908-8561b610d50e"},"vehicle_type_id":"4","last_reported":1781280483,"current_range_meters":2800,"station_id":"ce4bgj92rcd13ifvqbe0","pricing_plan_id":"cebpf4jnsgd1na2vs0mg"},{"bike_id":"21a05357-941d-43da-a7e4-34c1465eff3c","system_id":"levelo_inurba_marseille","lat":43.30266,"lon":5.40054,"is_reserved":false,"is_disabled":false,"rental_uris":{"android":"levelo://app?vid=21a05357-941d-43da-a7e4-34c1465eff3c","ios":"levelo://app?vid=21a05357-941d-43da-a7e4-34c1465eff3c"},"vehicle_type_id":"4","last_reported":1781280483,"current_range_meters":2800,"station_id":"ce4bgvh2rcd13ifvqcs0","pricing_plan_id":"cebpf4jnsgd1na2vs0mg"},{"bike_id":"c7e4dd65-c36b-4bdd-a7ed-7a1a867cae26","system_id":"levelo_inurba_marseille","lat":43.29036,"lon":5.35925,"is_reserved":false,"is_disabled":true,"rental_uris":{"android":"levelo://app?vid=c7e4dd65-c36b-4bdd-a7ed-7a1a867cae26","ios":"levelo://app?vid=c7e4dd65-c36b-4bdd-a7ed-7a1a867cae26"},"vehicle_type_id":"4","last_reported":1781280483,"current_range_meters":2800,"station_id":"ce4bha92rcd13ifvqeg0","pricing_plan_id":"cebpf4jnsgd1na2vs0mg"},{"bike_id":"59408d90-0ac4-4ac1-9844-fe703a050584","system_id":"levelo_inurba_marseille","lat":43.26223,"lon":5.38772,"is_reserved":false,"is_disabled":false,"rental_uris":{"android":"levelo://app?vid=59408d90-0ac4-4ac1-9844-fe703a050584","ios":"levelo://app?vid=59408d90-0ac4-4ac1-9844-fe703a050584"},"vehicle_type_id":"4","last_reported":1781280483,"current_range_meters":2800,"station_id":"st_d8gjfg747rts73coq3b0","pricing_plan_id":"cebpf4jnsgd1na2vs0mg"},{"bike_id":"8bc771aa-4b9f-41eb-a3a7-78bd862c908a","system_id":"levelo_inurba_marseille","lat":43.29191,"lon":5.35847,"is_reserved":false,"is_disabled":false,"rental_uris":{"android":"levelo://app?vid=8bc771aa-4b9f-41eb-a3a7-78bd862c908a","ios":"levelo://app?vid=8bc771aa-4b9f-41eb-a3a7-78bd862c908a"},"vehicle_type_id":"4","last_reported":1781280483,"current_range_meters":2800,"station_id":"ce4bhb12rcd13ifvqel0","pricing_plan_id":"cebpf4jnsgd1na2vs0mg"},{"bike_id":"a48dd0fc-75d1-4184-b946-3a13d27f5b36","system_id":"levelo_inurba_marseille","lat":43.28839,"lon":5.35863,"is_reserved":false,"is_disabled":false,"rental_uris":{"android":"levelo://app?vid=a48dd0fc-75d1-4184-b946-3a13d27f5b36","ios":"levelo://app?vid=a48dd0fc-75d1-4184-b946-3a13d27f5b36"},"vehicle_type_id":"4","last_reported":1781280483,"current_range_meters":2800,"station_id":"ce4bhb12rcd13ifvqem0","pricing_plan_id":"cebpf4jnsgd1na2vs0mg"},{"bike_id":"ce76ed82-f775-4652-b12d-b0d4ac8253e6","system_id":"levelo_inurba_marseille","lat":43.33732,"lon":5.39171,"is_reserved":false,"is_disabled":false,"rental_uris":{"android":"levelo://app?vid=ce76ed82-f775-4652-b12d-b0d4ac8253e6","ios":"levelo://app?vid=ce76ed82-f775-4652-b12d-b0d4ac8253e6"},"vehicle_type_id":"4","last_reported":1781280483,"current_range_meters":2800,"station_id":"ce4bhr92rcd13ifvqhsg","pricing_plan_id":"cebpf4jnsgd1na2vs0mg"},{"bike_id":"c342faa0-854b-4f63-b6f4-d490bd493659","system_id":"levelo_inurba_marseille","lat":43.29231,"lon":5.3607,"is_reserved":false,"is_disabled":false,"rental_uris":{"android":"levelo://app?vid=c342faa0-854b-4f63-b6f4-d490bd493659","ios":"levelo://app?vid=c342faa0-854b-4f63-b6f4-d490bd493659"},"vehicle_type_id":"4","last_reported":1781280483,"current_range_meters":2800,"station_id":"ce4bhbh2rcd13ifvqeqg","pricing_plan_id":"cebpf4jnsgd1na2vs0mg"},{"bike_id":"464ab973-7dfe-40f2-ae4e-9602b854a492","system_id":"levelo_inurba_marseille","lat":43.23961,"lon":5.36628,"is_reserved":false,"is_disabled":false,"rental_uris":{"android":"levelo://app?vid=464ab973-7dfe-40f2-ae4e-9602b854a492","ios":"levelo://app?vid=464ab973-7dfe-40f2-ae4e-9602b854a492"},"vehicle_type_id":"4","last_reported":1781280483,"current_range_meters":2800,"station_id":"ce4bhi12rcd13ifvqfp0","pricing_plan_id":"cebpf4jnsgd1na2vs0mg"},{"bike_id":"6aef67fa-3e0e-4599-a53a-fcc3aa84ac28","system_id":"levelo_inurba_marseille","lat":43.27915,"lon":5.39583,"is_reserved":false,"is_disabled":false,"rental_uris":{"android":"levelo://app?vid=6aef67fa-3e0e-4599-a53a-fcc3aa84ac28","ios":"levelo://app?vid=6aef67fa-3e0e-4599-a53a-fcc3aa84ac28"},"vehicle_type_id":"4","last_reported":1781280483,"current_range_meters":2800,"station_id":"ce4bhf92rcd13ifvqf40","pricing_plan_id":"cebpf4jnsgd1na2vs0mg"},{"bike_id":"a86948d9-e031-4388-95a1-844d8351be7f","system_id":"levelo_inurba_marseille","lat":43.2861,"lon":5.37065,"is_reserved":false,"is_disabled":false,"rental_uris":{"android":"levelo://app?vid=a86948d9-e031-4388-95a1-844d8351be7f","ios":"levelo://app?vid=a86948d9-e031-4388-95a1-844d8351be7f"},"vehicle_type_id":"4","last_reported":1781280483,"current_range_meters":2800,"station_id":"ce4bht12rcd13ifvqi60","pricing_plan_id":"cebpf4jnsgd1na2vs0mg"},{"bike_id":"d4396864-3dc2-43db-b189-e6a2c92d0a04","system_id":"levelo_inurba_marseille","lat":43.2603,"lon":5.37543,"is_reserved":false,"is_disabled":false,"rental_uris":{"android":"levelo://app?vid=d4396864-3dc2-43db-b189-e6a2c92d0a04","ios":"levelo://app?vid=d4396864-3dc2-43db-b189-e6a2c92d0a04"},"vehicle_type_id":"4","last_reported":1781280483,"current_range_meters":2800,"station_id":"ce4bhgh2rcd13ifvqfa0","pricing_plan_id":"cebpf4jnsgd1na2vs0mg"},{"bike_id":"b9afd8fa-6df8-4de8-9c1b-a4b76666390b","system_id":"levelo_inurba_marseille","lat":43.29786,"lon":5.38078,"is_reserved":false,"is_disabled":false,"rental_uris":{"android":"levelo://app?vid=b9afd8fa-6df8-4de8-9c1b-a4b76666390b","ios":"levelo://app?vid=b9afd8fa-6df8-4de8-9c1b-a4b76666390b"},"vehicle_type_id":"4","last_reported":1781280483,"current_range_meters":2800,"station_id":"ce4bgip2rcd13ifvqbb0","pricing_plan_id":"cebpf4jnsgd1na2vs0mg"},{"bike_id":"643a5108-6712-460c-84ac-96a9e310c2a1","system_id":"levelo_inurba_marseille","lat":43.32335,"lon":5.36766,"is_reserved":false,"is_disabled":false,"rental_uris":{"android":"levelo://app?vid=643a5108-6712-460c-84ac-96a9e310c2a1","ios":"levelo://app?vid=643a5108-6712-460c-84ac-96a9e310c2a1"},"vehicle_type_id":"4","last_reported":1781280483,"current_range_meters":3200,"station_id":"","pricing_plan_id":"cebpf4jnsgd1na2vs0mg"},{"bike_id":"b2ad6388-0d4f-4e9c-8ff3-f1ad38b97382","system_id":"levelo_inurba_marseille","lat":43.27676,"lon":5.42441,"is_reserved":false,"is_disabled":false,"rental_uris":{"android":"levelo://app?vid=b2ad6388-0d4f-4e9c-8ff3-f1ad38b97382","ios":"levelo://app?vid=b2ad6388-0d4f-4e9c-8ff3-f1ad38b97382"},"vehicle_type_id":"4","last_reported":1781280483,"current_range_meters":3200,"station_id":"","pricing_plan_id":"cebpf4jnsgd1na2vs0mg"},{"bike_id":"7d670955-2936-440c-bd70-613ec77c1cc0","system_id":"levelo_inurba_marseille","lat":43.26217,"lon":5.37431,"is_reserved":false,"is_disabled":true,"rental_uris":{"android":"levelo://app?vid=7d670955-2936-440c-bd70-613ec77c1cc0","ios":"levelo://app?vid=7d670955-2936-440c-bd70-613ec77c1cc0"},"vehicle_type_id":"4","last_reported":1781280483,"current_range_meters":3200,"station_id":"ce4bhgp2rcd13ifvqfc0","pricing_plan_id":"cebpf4jnsgd1na2vs0mg"},{"bike_id":"1bc3d913-636b-4a3d-bdfd-83126cd6b142","system_id":"levelo_inurba_marseille","lat":43.2551,"lon":5.3763,"is_reserved":false,"is_disabled":false,"rental_uris":{"android":"levelo://app?vid=1bc3d913-636b-4a3d-bdfd-83126cd6b142","ios":"levelo://app?vid=1bc3d913-636b-4a3d-bdfd-83126cd6b142"},"vehicle_type_id":"4","last_reported":1781280483,"current_range_meters":3200,"station_id":"ce4bhh12rcd13ifvqff0","pricing_plan_id":"cebpf4jnsgd1na2vs0mg"},{"bike_id":"96826a3d-c18a-4837-a726-8285a2b820c1","system_id":"levelo_inurba_marseille","lat":43.27376,"lon":5.36259,"is_reserved":false,"is_disabled":false,"rental_uris":{"android":"levelo://app?vid=96826a3d-c18a-4837-a726-8285a2b820c1","ios":"levelo://app?vid=96826a3d-c18a-4837-a726-8285a2b820c1"},"vehicle_type_id":"4","last_reported":1781280483,"current_range_meters":3200,"station_id":"ce4bhbh2rcd13ifvqeo0","pricing_plan_id":"cebpf4jnsgd1na2vs0mg"},{"bike_id":"758b8575-bd39-4c4b-83ba-b708bb22f91d","system_id":"levelo_inurba_marseille","lat":43.27572,"lon":5.3592,"is_reserved":false,"is_disabled":false,"rental_uris":{"android":"levelo://app?vid=758b8575-bd39-4c4b-83ba-b708bb22f91d","ios":"levelo://app?vid=758b8575-bd39-4c4b-83ba-b708bb22f91d"},"vehicle_type_id":"4","last_reported":1781280483,"current_range_meters":3200,"station_id":"","pricing_plan_id":"cebpf4jnsgd1na2vs0mg"},{"bike_id":"40faacd1-be08-477b-b4f3-78038df6be16","system_id":"levelo_inurba_marseille","lat":43.29534,"lon":5.3854,"is_reserved":false,"is_disabled":false,"rental_uris":{"android":"levelo://app?vid=40faacd1-be08-477b-b4f3-78038df6be16","ios":"levelo://app?vid=40faacd1-be08-477b-b4f3-78038df6be16"},"vehicle_type_id":"4","last_reported":1781280483,"current_range_meters":3200,"station_id":"ce4bgih2rcd13ifvqba0","pricing_plan_id":"cebpf4jnsgd1na2vs0mg"},{"bike_id":"060a45f0-b850-416d-b290-4d1498287cad","system_id":"levelo_inurba_marseille","lat":43.24393,"lon":5.37058,"is_reserved":false,"is_disabled":false,"rental_uris":{"android":"levelo://app?vid=060a45f0-b850-416d-b290-4d1498287cad","ios":"levelo://app?vid=060a45f0-b850-416d-b290-4d1498287cad"},"vehicle_type_id":"4","last_reported":1781280483,"current_range_meters":3200,"station_id":"ce4bhhh2rcd13ifvqfk0","pricing_plan_id":"cebpf4jnsgd1na2vs0mg"},{"bike_id":"548ca3f8-bc2d-46ba-bbc0-fa615c1c43dc","system_id":"levelo_inurba_marseille","lat":43.27662,"lon":5.38922,"is_reserved":false,"is_disabled":true,"rental_uris":{"android":"levelo://app?vid=548ca3f8-bc2d-46ba-bbc0-fa615c1c43dc","ios":"levelo://app?vid=548ca3f8-bc2d-46ba-bbc0-fa615c1c43dc"},"vehicle_type_id":"4","last_reported":1781280483,"current_range_meters":3200,"station_id":"ce4bhi12rcd13ifvqfo0","pricing_plan_id":"cebpf4jnsgd1na2vs0mg"},{"bike_id":"8882fb3c-c0d3-4c77-a0ff-0ed4b2bce66c","system_id":"levelo_inurba_marseille","lat":43.30282,"lon":5.37699,"is_reserved":false,"is_disabled":false,"rental_uris":{"android":"levelo://app?vid=8882fb3c-c0d3-4c77-a0ff-0ed4b2bce66c","ios":"levelo://app?vid=8882fb3c-c0d3-4c77-a0ff-0ed4b2bce66c"},"vehicle_type_id":"4","last_reported":1781280483,"current_range_meters":3200,"station_id":"ce4bguh2rcd13ifvqcj0","pricing_plan_id":"cebpf4jnsgd1na2vs0mg"},{"bike_id":"9f78c3d6-f61a-4b81-ae6f-53563c8463a8","system_id":"levelo_inurba_marseille","lat":43.28858,"lon":5.35862,"is_reserved":false,"is_disabled":false,"rental_uris":{"android":"levelo://app?vid=9f78c3d6-f61a-4b81-ae6f-53563c8463a8","ios":"levelo://app?vid=9f78c3d6-f61a-4b81-ae6f-53563c8463a8"},"vehicle_type_id":"4","last_reported":1781280483,"current_range_meters":3200,"station_id":"ce4bhb12rcd13ifvqem0","pricing_plan_id":"cebpf4jnsgd1na2vs0mg"},{"bike_id":"187f391b-4b33-488e-9d94-27999b863b0c","system_id":"levelo_inurba_marseille","lat":43.25494,"lon":5.37646,"is_reserved":false,"is_disabled":false,"rental_uris":{"android":"levelo://app?vid=187f391b-4b33-488e-9d94-27999b863b0c","ios":"levelo://app?vid=187f391b-4b33-488e-9d94-27999b863b0c"},"vehicle_type_id":"4","last_reported":1781280483,"current_range_meters":3200,"station_id":"ce4bhh12rcd13ifvqff0","pricing_plan_id":"cebpf4jnsgd1na2vs0mg"},{"bike_id":"16c0cd94-6111-44d1-a18d-7ce048140459","system_id":"levelo_inurba_marseille","lat":43.29534,"lon":5.38531,"is_reserved":false,"is_disabled":false,"rental_uris":{"android":"levelo://app?vid=16c0cd94-6111-44d1-a18d-7ce048140459","ios":"levelo://app?vid=16c0cd94-6111-44d1-a18d-7ce048140459"},"vehicle_type_id":"4","last_reported":1781280483,"current_range_meters":3200,"station_id":"ce4bgih2rcd13ifvqba0","pricing_plan_id":"cebpf4jnsgd1na2vs0mg"},{"bike_id":"cdb51552-946c-4f57-8807-f1cfa55d450c","system_id":"levelo_inurba_marseille","lat":43.31507,"lon":5.37301,"is_reserved":false,"is_disabled":true,"rental_uris":{"android":"levelo://app?vid=cdb51552-946c-4f57-8807-f1cfa55d450c","ios":"levelo://app?vid=cdb51552-946c-4f57-8807-f1cfa55d450c"},"vehicle_type_id":"4","last_reported":1781280483,"current_range_meters":3200,"station_id":"ce4bgt12rcd13ifvqcd0","pricing_plan_id":"cebpf4jnsgd1na2vs0mg"},{"bike_id":"e936ce68-07d5-4b29-94c8-6fc84b32f351","system_id":"levelo_inurba_marseille","lat":43.29407,"lon":5.39649,"is_reserved":false,"is_disabled":false,"rental_uris":{"android":"levelo://app?vid=e936ce68-07d5-4b29-94c8-6fc84b32f351","ios":"levelo://app?vid=e936ce68-07d5-4b29-94c8-6fc84b32f351"},"vehicle_type_id":"4","last_reported":1781280483,"current_range_meters":3200,"station_id":"","pricing_plan_id":"cebpf4jnsgd1na2vs0mg"},{"bike_id":"cd96002d-2d10-40e5-9ddf-f0850a393e6e","system_id":"levelo_inurba_marseille","lat":43.26381,"lon":5.37809,"is_reserved":false,"is_disabled":false,"rental_uris":{"android":"levelo://app?vid=cd96002d-2d10-40e5-9ddf-f0850a393e6e","ios":"levelo://app?vid=cd96002d-2d10-40e5-9ddf-f0850a393e6e"},"vehicle_type_id":"4","last_reported":1781280483,"current_range_meters":3200,"station_id":"","pricing_plan_id":"cebpf4jnsgd1na2vs0mg"},{"bike_id":"a1412ca0-9ee7-478d-9710-25f7dddc4d50","system_id":"levelo_inurba_marseille","lat":43.29299,"lon":5.3746,"is_reserved":false,"is_disabled":false,"rental_uris":{"android":"levelo://app?vid=a1412ca0-9ee7-478d-9710-25f7dddc4d50","ios":"levelo://app?vid=a1412ca0-9ee7-478d-9710-25f7dddc4d50"},"vehicle_type_id":"4","last_reported":1781280483,"current_range_meters":3200,"station_id":"ce4bgi12rcd13ifvqb70","pricing_plan_id":"cebpf4jnsgd1na2vs0mg"},{"bike_id":"b32925f6-5205-402d-bdb8-4dcd37a3a4d3","system_id":"levelo_inurba_marseille","lat":43.28666,"lon":5.38656,"is_reserved":false,"is_disabled":false,"rental_uris":{"android":"levelo://app?vid=b32925f6-5205-402d-bdb8-4dcd37a3a4d3","ios":"levelo://app?vid=b32925f6-5205-402d-bdb8-4dcd37a3a4d3"},"vehicle_type_id":"4","last_reported":1781280483,"current_range_meters":3200,"station_id":"ce4bh492rcd13ifvqdug","pricing_plan_id":"cebpf4jnsgd1na2vs0mg"},{"bike_id":"db6cb58c-9293-4b01-a492-bdf5fe090ed6","system_id":"levelo_inurba_marseille","lat":43.29266,"lon":5.38438,"is_reserved":false,"is_disabled":false,"rental_uris":{"android":"levelo://app?vid=db6cb58c-9293-4b01-a492-bdf5fe090ed6","ios":"levelo://app?vid=db6cb58c-9293-4b01-a492-bdf5fe090ed6"},"vehicle_type_id":"4","last_reported":1781280483,"current_range_meters":3200,"station_id":"ce4bh692rcd13ifvqea0","pricing_plan_id":"cebpf4jnsgd1na2vs0mg"},{"bike_id":"ec3871a7-fb68-40be-a633-843cae03923e","system_id":"levelo_inurba_marseille","lat":43.24168,"lon":5.36396,"is_reserved":false,"is_disabled":false,"rental_uris":{"android":"levelo://app?vid=ec3871a7-fb68-40be-a633-843cae03923e","ios":"levelo://app?vid=ec3871a7-fb68-40be-a633-843cae03923e"},"vehicle_type_id":"4","last_reported":1781280483,"current_range_meters":3200,"station_id":"cpo36qri1sfpv3e86is0","pricing_plan_id":"cebpf4jnsgd1na2vs0mg"},{"bike_id":"81786957-3570-46c8-9436-8d21f741c249","system_id":"levelo_inurba_marseille","lat":43.30327,"lon":5.40426,"is_reserved":false,"is_disabled":false,"rental_uris":{"android":"levelo://app?vid=81786957-3570-46c8-9436-8d21f741c249","ios":"levelo://app?vid=81786957-3570-46c8-9436-8d21f741c249"},"vehicle_type_id":"4","last_reported":1781280483,"current_range_meters":3600,"station_id":"ce4bh012rcd13ifvqd10","pricing_plan_id":"cebpf4jnsgd1na2vs0mg"},{"bike_id":"0a743a51-5728-422c-8a96-f69476a8f4cb","system_id":"levelo_inurba_marseille","lat":43.27619,"lon":5.36113,"is_reserved":false,"is_disabled":true,"rental_uris":{"android":"levelo://app?vid=0a743a51-5728-422c-8a96-f69476a8f4cb","ios":"levelo://app?vid=0a743a51-5728-422c-8a96-f69476a8f4cb"},"vehicle_type_id":"4","last_reported":1781280483,"current_range_meters":3600,"station_id":"ce4bgj92rcd13ifvqbe0","pricing_plan_id":"cebpf4jnsgd1na2vs0mg"},{"bike_id":"2e41d0d3-9e86-4c08-89a6-e0a70cc8ae89","system_id":"levelo_inurba_marseille","lat":43.29248,"lon":5.38251,"is_reserved":false,"is_disabled":true,"rental_uris":{"android":"levelo://app?vid=2e41d0d3-9e86-4c08-89a6-e0a70cc8ae89","ios":"levelo://app?vid=2e41d0d3-9e86-4c08-89a6-e0a70cc8ae89"},"vehicle_type_id":"4","last_reported":1781280483,"current_range_meters":3600,"station_id":"","pricing_plan_id":"cebpf4jnsgd1na2vs0mg"},{"bike_id":"5ac28b06-af05-4d8b-a509-2f5043908588","system_id":"levelo_inurba_marseille","lat":43.23493,"lon":5.36927,"is_reserved":false,"is_disabled":false,"rental_uris":{"android":"levelo://app?vid=5ac28b06-af05-4d8b-a509-2f5043908588","ios":"levelo://app?vid=5ac28b06-af05-4d8b-a509-2f5043908588"},"vehicle_type_id":"4","last_reported":1781280483,"current_range_meters":3600,"station_id":"","pricing_plan_id":"cebpf4jnsgd1na2vs0mg"},{"bike_id":"17be60fe-ff7f-4ced-b2c5-f100be112574","system_id":"levelo_inurba_marseille","lat":43.31366,"lon":5.38496,"is_reserved":false,"is_disabled":true,"rental_uris":{"android":"levelo://app?vid=17be60fe-ff7f-4ced-b2c5-f100be112574","ios":"levelo://app?vid=17be60fe-ff7f-4ced-b2c5-f100be112574"},"vehicle_type_id":"4","last_reported":1781280483,"current_range_meters":3600,"station_id":"ce4bgt92rcd13ifvqcf0","pricing_plan_id":"cebpf4jnsgd1na2vs0mg"},{"bike_id":"dd8f2fa1-b5da-4cef-87c9-29d3b1051138","system_id":"levelo_inurba_marseille","lat":43.25647,"lon":5.42748,"is_reserved":false,"is_disabled":false,"rental_uris":{"android":"levelo://app?vid=dd8f2fa1-b5da-4cef-87c9-29d3b1051138","ios":"levelo://app?vid=dd8f2fa1-b5da-4cef-87c9-29d3b1051138"},"vehicle_type_id":"4","last_reported":1781280483,"current_range_meters":3600,"station_id":"","pricing_plan_id":"cebpf4jnsgd1na2vs0mg"},{"bike_id":"39008bdd-ec06-4509-aef5-6005174c0c03","system_id":"levelo_inurba_marseille","lat":43.27932,"lon":5.38558,"is_reserved":false,"is_disabled":false,"rental_uris":{"android":"levelo://app?vid=39008bdd-ec06-4509-aef5-6005174c0c03","ios":"levelo://app?vid=39008bdd-ec06-4509-aef5-6005174c0c03"},"vehicle_type_id":"4","last_reported":1781280483,"current_range_meters":3600,"station_id":"","pricing_plan_id":"cebpf4jnsgd1na2vs0mg"},{"bike_id":"a7035cfa-2cad-4a3c-b6b7-082bb42a565d","system_id":"levelo_inurba_marseille","lat":43.26028,"lon":5.37551,"is_reserved":false,"is_disabled":false,"rental_uris":{"android":"levelo://app?vid=a7035cfa-2cad-4a3c-b6b7-082bb42a565d","ios":"levelo://app?vid=a7035cfa-2cad-4a3c-b6b7-082bb42a565d"},"vehicle_type_id":"4","last_reported":1781280483,"current_range_meters":3600,"station_id":"ce4bhgh2rcd13ifvqfa0","pricing_plan_id":"cebpf4jnsgd1na2vs0mg"},{"bike_id":"331d3c2a-5f8a-4e76-bd63-cd3594144ab5","system_id":"levelo_inurba_marseille","lat":43.28608,"lon":5.37057,"is_reserved":false,"is_disabled":false,"rental_uris":{"android":"levelo://app?vid=331d3c2a-5f8a-4e76-bd63-cd3594144ab5","ios":"levelo://app?vid=331d3c2a-5f8a-4e76-bd63-cd3594144ab5"},"vehicle_type_id":"4","last_reported":1781280483,"current_range_meters":3600,"station_id":"ce4bht12rcd13ifvqi60","pricing_plan_id":"cebpf4jnsgd1na2vs0mg"},{"bike_id":"47c7d08e-d36b-4492-892a-b5fef4180959","system_id":"levelo_inurba_marseille","lat":43.26207,"lon":5.37427,"is_reserved":false,"is_disabled":false,"rental_uris":{"android":"levelo://app?vid=47c7d08e-d36b-4492-892a-b5fef4180959","ios":"levelo://app?vid=47c7d08e-d36b-4492-892a-b5fef4180959"},"vehicle_type_id":"4","last_reported":1781280483,"current_range_meters":3600,"station_id":"ce4bhgp2rcd13ifvqfc0","pricing_plan_id":"cebpf4jnsgd1na2vs0mg"},{"bike_id":"8859d173-9f5d-4e39-86ed-34ec86a90175","system_id":"levelo_inurba_marseille","lat":43.29939,"lon":5.42787,"is_reserved":false,"is_disabled":false,"rental_uris":{"android":"levelo://app?vid=8859d173-9f5d-4e39-86ed-34ec86a90175","ios":"levelo://app?vid=8859d173-9f5d-4e39-86ed-34ec86a90175"},"vehicle_type_id":"4","last_reported":1781280483,"current_range_meters":3600,"station_id":"","pricing_plan_id":"cebpf4jnsgd1na2vs0mg"},{"bike_id":"7cf0657c-1825-4cac-b5ca-a94646d0863b","system_id":"levelo_inurba_marseille","lat":43.255791,"lon":5.382297,"is_reserved":false,"is_disabled":false,"rental_uris":{"android":"levelo://app?vid=7cf0657c-1825-4cac-b5ca-a94646d0863b","ios":"levelo://app?vid=7cf0657c-1825-4cac-b5ca-a94646d0863b"},"vehicle_type_id":"4","last_reported":1781280483,"current_range_meters":3600,"station_id":"ce4bhih2rcd13ifvqfs0","pricing_plan_id":"cebpf4jnsgd1na2vs0mg"},{"bike_id":"4e0b615e-312c-4057-9a07-9db50c738a53","system_id":"levelo_inurba_marseille","lat":43.2867,"lon":5.36348,"is_reserved":false,"is_disabled":true,"rental_uris":{"android":"levelo://app?vid=4e0b615e-312c-4057-9a07-9db50c738a53","ios":"levelo://app?vid=4e0b615e-312c-4057-9a07-9db50c738a53"},"vehicle_type_id":"4","last_reported":1781280483,"current_range_meters":3600,"station_id":"ce4bhah2rcd13ifvqej0","pricing_plan_id":"cebpf4jnsgd1na2vs0mg"},{"bike_id":"2fe78ccb-070f-432a-a7e8-216efa06d701","system_id":"levelo_inurba_marseille","lat":43.28578,"lon":5.4299,"is_reserved":false,"is_disabled":false,"rental_uris":{"android":"levelo://app?vid=2fe78ccb-070f-432a-a7e8-216efa06d701","ios":"levelo://app?vid=2fe78ccb-070f-432a-a7e8-216efa06d701"},"vehicle_type_id":"4","last_reported":1781280483,"current_range_meters":3600,"station_id":"","pricing_plan_id":"cebpf4jnsgd1na2vs0mg"},{"bike_id":"8a93af44-b1bb-41d2-bca3-17796890af5c","system_id":"levelo_inurba_marseille","lat":43.29705,"lon":5.37701,"is_reserved":false,"is_disabled":false,"rental_uris":{"android":"levelo://app?vid=8a93af44-b1bb-41d2-bca3-17796890af5c","ios":"levelo://app?vid=8a93af44-b1bb-41d2-bca3-17796890af5c"},"vehicle_type_id":"4","last_reported":1781280483,"current_range_meters":3600,"station_id":"ce4bgkh2rcd13ifvqbl0","pricing_plan_id":"cebpf4jnsgd1na2vs0mg"},{"bike_id":"32e65dbb-64c4-4911-9176-a4e011b0a593","system_id":"levelo_inurba_marseille","lat":43.28665,"lon":5.42653,"is_reserved":false,"is_disabled":false,"rental_uris":{"android":"levelo://app?vid=32e65dbb-64c4-4911-9176-a4e011b0a593","ios":"levelo://app?vid=32e65dbb-64c4-4911-9176-a4e011b0a593"},"vehicle_type_id":"4","last_reported":1781280483,"current_range_meters":3600,"station_id":"","pricing_plan_id":"cebpf4jnsgd1na2vs0mg"},{"bike_id":"d102b215-261c-4768-bfea-06e6434777dc","system_id":"levelo_inurba_marseille","lat":43.2842,"lon":5.34971,"is_reserved":false,"is_disabled":false,"rental_uris":{"android":"levelo://app?vid=d102b215-261c-4768-bfea-06e6434777dc","ios":"levelo://app?vid=d102b215-261c-4768-bfea-06e6434777dc"},"vehicle_type_id":"4","last_reported":1781280483,"current_range_meters":3600,"station_id":"ce4bhbh2rcd13ifvqepg","pricing_plan_id":"cebpf4jnsgd1na2vs0mg"},{"bike_id":"8682f4e8-0798-4b4f-8fef-c4dc002ea1c8","system_id":"levelo_inurba_marseille","lat":43.29143,"lon":5.46112,"is_reserved":false,"is_disabled":false,"rental_uris":{"android":"levelo://app?vid=8682f4e8-0798-4b4f-8fef-c4dc002ea1c8","ios":"levelo://app?vid=8682f4e8-0798-4b4f-8fef-c4dc002ea1c8"},"vehicle_type_id":"4","last_reported":1781280483,"current_range_meters":3600,"station_id":"","pricing_plan_id":"cebpf4jnsgd1na2vs0mg"},{"bike_id":"a5f4887e-abf0-46d1-8e75-2a4387c50e42","system_id":"levelo_inurba_marseille","lat":43.30284,"lon":5.37257,"is_reserved":false,"is_disabled":false,"rental_uris":{"android":"levelo://app?vid=a5f4887e-abf0-46d1-8e75-2a4387c50e42","ios":"levelo://app?vid=a5f4887e-abf0-46d1-8e75-2a4387c50e42"},"vehicle_type_id":"4","last_reported":1781280483,"current_range_meters":3600,"station_id":"","pricing_plan_id":"cebpf4jnsgd1na2vs0mg"},{"bike_id":"75248494-6e46-4c4b-92d2-9db9ddbe9016","system_id":"levelo_inurba_marseille","lat":43.28477,"lon":5.48397,"is_reserved":false,"is_disabled":false,"rental_uris":{"android":"levelo://app?vid=75248494-6e46-4c4b-92d2-9db9ddbe9016","ios":"levelo://app?vid=75248494-6e46-4c4b-92d2-9db9ddbe9016"},"vehicle_type_id":"4","last_reported":1781280483,"current_range_meters":3600,"station_id":"st_d3svhcjqgbts73a3dn0g","pricing_plan_id":"cebpf4jnsgd1na2vs0mg"},{"bike_id":"01aba978-2b0d-48ac-83cb-dbf9c6c59825","system_id":"levelo_inurba_marseille","lat":43.28635,"lon":5.35099,"is_reserved":false,"is_disabled":false,"rental_uris":{"android":"levelo://app?vid=01aba978-2b0d-48ac-83cb-dbf9c6c59825","ios":"levelo://app?vid=01aba978-2b0d-48ac-83cb-dbf9c6c59825"},"vehicle_type_id":"4","last_reported":1781280483,"current_range_meters":4000,"station_id":"ce4bhch2rcd13ifvqeug","pricing_plan_id":"cebpf4jnsgd1na2vs0mg"},{"bike_id":"39cbe2f8-9361-4ec6-ba73-17e2bed26fad","system_id":"levelo_inurba_marseille","lat":43.3013,"lon":5.39871,"is_reserved":false,"is_disabled":false,"rental_uris":{"android":"levelo://app?vid=39cbe2f8-9361-4ec6-ba73-17e2bed26fad","ios":"levelo://app?vid=39cbe2f8-9361-4ec6-ba73-17e2bed26fad"},"vehicle_type_id":"4","last_reported":1781280483,"current_range_meters":4000,"station_id":"ce4bh0h2rcd13ifvqd40","pricing_plan_id":"cebpf4jnsgd1na2vs0mg"},{"bike_id":"c1f77a92-552d-4ec2-b467-59c9eb529021","system_id":"levelo_inurba_marseille","lat":43.26064,"lon":5.39401,"is_reserved":false,"is_disabled":false,"rental_uris":{"android":"levelo://app?vid=c1f77a92-552d-4ec2-b467-59c9eb529021","ios":"levelo://app?vid=c1f77a92-552d-4ec2-b467-59c9eb529021"},"vehicle_type_id":"4","last_reported":1781280483,"current_range_meters":4000,"station_id":"ce4bhh92rcd13ifvqfj0","pricing_plan_id":"cebpf4jnsgd1na2vs0mg"},{"bike_id":"977075a4-40dc-4723-a526-d5ddfecea214","system_id":"levelo_inurba_marseille","lat":43.24956,"lon":5.40502,"is_reserved":false,"is_disabled":false,"rental_uris":{"android":"levelo://app?vid=977075a4-40dc-4723-a526-d5ddfecea214","ios":"levelo://app?vid=977075a4-40dc-4723-a526-d5ddfecea214"},"vehicle_type_id":"4","last_reported":1781280483,"current_range_meters":4000,"station_id":"st_d2ngiaodas8pm72gd1h0","pricing_plan_id":"cebpf4jnsgd1na2vs0mg"},{"bike_id":"3e28917f-12dd-4b37-af94-6f348c8b7c68","system_id":"levelo_inurba_marseille","lat":43.25592,"lon":5.3819,"is_reserved":false,"is_disabled":false,"rental_uris":{"android":"levelo://app?vid=3e28917f-12dd-4b37-af94-6f348c8b7c68","ios":"levelo://app?vid=3e28917f-12dd-4b37-af94-6f348c8b7c68"},"vehicle_type_id":"4","last_reported":1781280483,"current_range_meters":4000,"station_id":"ce4bhih2rcd13ifvqfs0","pricing_plan_id":"cebpf4jnsgd1na2vs0mg"},{"bike_id":"3643eb2e-b0e4-40f6-9aa2-b567c4963540","system_id":"levelo_inurba_marseille","lat":43.32108,"lon":5.36771,"is_reserved":false,"is_disabled":false,"rental_uris":{"android":"levelo://app?vid=3643eb2e-b0e4-40f6-9aa2-b567c4963540","ios":"levelo://app?vid=3643eb2e-b0e4-40f6-9aa2-b567c4963540"},"vehicle_type_id":"4","last_reported":1781280483,"current_range_meters":4000,"station_id":"ce4bhrh2rcd13ifvqhug","pricing_plan_id":"cebpf4jnsgd1na2vs0mg"},{"bike_id":"86980992-c341-4d42-9003-5f417602c220","system_id":"levelo_inurba_marseille","lat":43.29605,"lon":5.37991,"is_reserved":false,"is_disabled":false,"rental_uris":{"android":"levelo://app?vid=86980992-c341-4d42-9003-5f417602c220","ios":"levelo://app?vid=86980992-c341-4d42-9003-5f417602c220"},"vehicle_type_id":"4","last_reported":1781280483,"current_range_meters":4000,"station_id":"","pricing_plan_id":"cebpf4jnsgd1na2vs0mg"},{"bike_id":"f63e0e69-6a54-4e19-8d8e-f67680de3ed1","system_id":"levelo_inurba_marseille","lat":43.24634,"lon":5.43141,"is_reserved":false,"is_disabled":false,"rental_uris":{"android":"levelo://app?vid=f63e0e69-6a54-4e19-8d8e-f67680de3ed1","ios":"levelo://app?vid=f63e0e69-6a54-4e19-8d8e-f67680de3ed1"},"vehicle_type_id":"4","last_reported":1781280483,"current_range_meters":4000,"station_id":"st_d2m6c4gdas8pm72e190g","pricing_plan_id":"cebpf4jnsgd1na2vs0mg"},{"bike_id":"95936fb9-6643-4bdd-8b1f-c4ea9a60a36a","system_id":"levelo_inurba_marseille","lat":43.26225,"lon":5.38761,"is_reserved":false,"is_disabled":false,"rental_uris":{"android":"levelo://app?vid=95936fb9-6643-4bdd-8b1f-c4ea9a60a36a","ios":"levelo://app?vid=95936fb9-6643-4bdd-8b1f-c4ea9a60a36a"},"vehicle_type_id":"4","last_reported":1781280483,"current_range_meters":4000,"station_id":"st_d8gjfg747rts73coq3b0","pricing_plan_id":"cebpf4jnsgd1na2vs0mg"},{"bike_id":"2507d607-3822-4c87-a669-ab9b0690fc01","system_id":"levelo_inurba_marseille","lat":43.28605,"lon":5.35104,"is_reserved":false,"is_disabled":false,"rental_uris":{"android":"levelo://app?vid=2507d607-3822-4c87-a669-ab9b0690fc01","ios":"levelo://app?vid=2507d607-3822-4c87-a669-ab9b0690fc01"},"vehicle_type_id":"4","last_reported":1781280483,"current_range_meters":4000,"station_id":"ce4bhch2rcd13ifvqeug","pricing_plan_id":"cebpf4jnsgd1na2vs0mg"},{"bike_id":"3371e92b-963a-4ab0-918d-9217e8fd09be","system_id":"levelo_inurba_marseille","lat":43.28387,"lon":5.36767,"is_reserved":false,"is_disabled":false,"rental_uris":{"android":"levelo://app?vid=3371e92b-963a-4ab0-918d-9217e8fd09be","ios":"levelo://app?vid=3371e92b-963a-4ab0-918d-9217e8fd09be"},"vehicle_type_id":"4","last_reported":1781280483,"current_range_meters":4000,"station_id":"","pricing_plan_id":"cebpf4jnsgd1na2vs0mg"},{"bike_id":"59f12f94-3a0b-4422-9de5-b870d2e776d9","system_id":"levelo_inurba_marseille","lat":43.25572,"lon":5.38225,"is_reserved":false,"is_disabled":false,"rental_uris":{"android":"levelo://app?vid=59f12f94-3a0b-4422-9de5-b870d2e776d9","ios":"levelo://app?vid=59f12f94-3a0b-4422-9de5-b870d2e776d9"},"vehicle_type_id":"4","last_reported":1781280483,"current_range_meters":4000,"station_id":"ce4bhih2rcd13ifvqfs0","pricing_plan_id":"cebpf4jnsgd1na2vs0mg"},{"bike_id":"3a44773b-a64a-45f6-9197-56969bf49878","system_id":"levelo_inurba_marseille","lat":43.29714,"lon":5.37006,"is_reserved":false,"is_disabled":false,"rental_uris":{"android":"levelo://app?vid=3a44773b-a64a-45f6-9197-56969bf49878","ios":"levelo://app?vid=3a44773b-a64a-45f6-9197-56969bf49878"},"vehicle_type_id":"4","last_reported":1781280483,"current_range_meters":4000,"station_id":"","pricing_plan_id":"cebpf4jnsgd1na2vs0mg"},{"bike_id":"a2be5248-f74b-4e85-a978-000ac558be18","system_id":"levelo_inurba_marseille","lat":43.265398,"lon":5.3729,"is_reserved":false,"is_disabled":false,"rental_uris":{"android":"levelo://app?vid=a2be5248-f74b-4e85-a978-000ac558be18","ios":"levelo://app?vid=a2be5248-f74b-4e85-a978-000ac558be18"},"vehicle_type_id":"4","last_reported":1781280483,"current_range_meters":4000,"station_id":"ce4bhg12rcd13ifvqf70","pricing_plan_id":"cebpf4jnsgd1na2vs0mg"},{"bike_id":"bef01a14-5339-4e56-a454-f47c53761a70","system_id":"levelo_inurba_marseille","lat":43.29184,"lon":5.39312,"is_reserved":false,"is_disabled":false,"rental_uris":{"android":"levelo://app?vid=bef01a14-5339-4e56-a454-f47c53761a70","ios":"levelo://app?vid=bef01a14-5339-4e56-a454-f47c53761a70"},"vehicle_type_id":"4","last_reported":1781280483,"current_range_meters":4000,"station_id":"ce4bh192rcd13ifvqdd0","pricing_plan_id":"cebpf4jnsgd1na2vs0mg"},{"bike_id":"216e856e-229a-4998-9698-f2699480ab86","system_id":"levelo_inurba_marseille","lat":43.31038,"lon":5.37169,"is_reserved":false,"is_disabled":false,"rental_uris":{"android":"levelo://app?vid=216e856e-229a-4998-9698-f2699480ab86","ios":"levelo://app?vid=216e856e-229a-4998-9698-f2699480ab86"},"vehicle_type_id":"4","last_reported":1781280483,"current_range_meters":4000,"station_id":"st_d4kl2rp97mjs73e7tdfg","pricing_plan_id":"cebpf4jnsgd1na2vs0mg"},{"bike_id":"cfca987a-456e-47df-a095-b63382c88e43","system_id":"levelo_inurba_marseille","lat":43.23201,"lon":5.3553,"is_reserved":false,"is_disabled":false,"rental_uris":{"android":"levelo://app?vid=cfca987a-456e-47df-a095-b63382c88e43","ios":"levelo://app?vid=cfca987a-456e-47df-a095-b63382c88e43"},"vehicle_type_id":"4","last_reported":1781280483,"current_range_meters":4400,"station_id":"ce4bhu92rcd13ifvqi70","pricing_plan_id":"cebpf4jnsgd1na2vs0mg"},{"bike_id":"2a192182-021b-439d-a0e2-993561972500","system_id":"levelo_inurba_marseille","lat":43.225345,"lon":5.348271,"is_reserved":false,"is_disabled":false,"rental_uris":{"android":"levelo://app?vid=2a192182-021b-439d-a0e2-993561972500","ios":"levelo://app?vid=2a192182-021b-439d-a0e2-993561972500"},"vehicle_type_id":"4","last_reported":1781280483,"current_range_meters":4400,"station_id":"st_cvj5dfep6f1abm77gieg","pricing_plan_id":"cebpf4jnsgd1na2vs0mg"},{"bike_id":"40877921-cf64-4231-b6a7-7f65220da3fe","system_id":"levelo_inurba_marseille","lat":43.29605,"lon":5.38074,"is_reserved":false,"is_disabled":true,"rental_uris":{"android":"levelo://app?vid=40877921-cf64-4231-b6a7-7f65220da3fe","ios":"levelo://app?vid=40877921-cf64-4231-b6a7-7f65220da3fe"},"vehicle_type_id":"4","last_reported":1781280483,"current_range_meters":4400,"station_id":"ce4bgl12rcd13ifvqbo0","pricing_plan_id":"cebpf4jnsgd1na2vs0mg"},{"bike_id":"15989203-e4c1-40f8-b844-9fd0478f82a7","system_id":"levelo_inurba_marseille","lat":43.309434,"lon":5.401407,"is_reserved":false,"is_disabled":false,"rental_uris":{"android":"levelo://app?vid=15989203-e4c1-40f8-b844-9fd0478f82a7","ios":"levelo://app?vid=15989203-e4c1-40f8-b844-9fd0478f82a7"},"vehicle_type_id":"4","last_reported":1781280483,"current_range_meters":4400,"station_id":"ce4bgvp2rcd13ifvqct0","pricing_plan_id":"cebpf4jnsgd1na2vs0mg"},{"bike_id":"40de0209-043c-4ed6-84c3-7ac1da5cf58d","system_id":"levelo_inurba_marseille","lat":43.32106,"lon":5.36772,"is_reserved":false,"is_disabled":false,"rental_uris":{"android":"levelo://app?vid=40de0209-043c-4ed6-84c3-7ac1da5cf58d","ios":"levelo://app?vid=40de0209-043c-4ed6-84c3-7ac1da5cf58d"},"vehicle_type_id":"4","last_reported":1781280483,"current_range_meters":4400,"station_id":"ce4bhrh2rcd13ifvqhug","pricing_plan_id":"cebpf4jnsgd1na2vs0mg"},{"bike_id":"01ec52f6-8639-4915-90d2-a2a528f9d1ea","system_id":"levelo_inurba_marseille","lat":43.25572,"lon":5.38246,"is_reserved":false,"is_disabled":false,"rental_uris":{"android":"levelo://app?vid=01ec52f6-8639-4915-90d2-a2a528f9d1ea","ios":"levelo://app?vid=01ec52f6-8639-4915-90d2-a2a528f9d1ea"},"vehicle_type_id":"4","last_reported":1781280483,"current_range_meters":4400,"station_id":"ce4bhih2rcd13ifvqfs0","pricing_plan_id":"cebpf4jnsgd1na2vs0mg"},{"bike_id":"5b4ca53d-59ef-42cf-b3eb-c531019538cb","system_id":"levelo_inurba_marseille","lat":43.28152,"lon":5.42649,"is_reserved":false,"is_disabled":false,"rental_uris":{"android":"levelo://app?vid=5b4ca53d-59ef-42cf-b3eb-c531019538cb","ios":"levelo://app?vid=5b4ca53d-59ef-42cf-b3eb-c531019538cb"},"vehicle_type_id":"4","last_reported":1781280483,"current_range_meters":4400,"station_id":"ce4bhnh2rcd13ifvqgug","pricing_plan_id":"cebpf4jnsgd1na2vs0mg"},{"bike_id":"5fe816be-adb0-4ccc-a8a6-ac6bd0711409","system_id":"levelo_inurba_marseille","lat":43.2668,"lon":5.38266,"is_reserved":false,"is_disabled":false,"rental_uris":{"android":"levelo://app?vid=5fe816be-adb0-4ccc-a8a6-ac6bd0711409","ios":"levelo://app?vid=5fe816be-adb0-4ccc-a8a6-ac6bd0711409"},"vehicle_type_id":"4","last_reported":1781280483,"current_range_meters":4400,"station_id":"ce4bhg92rcd13ifvqf90","pricing_plan_id":"cebpf4jnsgd1na2vs0mg"},{"bike_id":"b7974c8d-c7bf-4090-b58a-47fbc83a3c0b","system_id":"levelo_inurba_marseille","lat":43.25427,"lon":5.42792,"is_reserved":false,"is_disabled":false,"rental_uris":{"android":"levelo://app?vid=b7974c8d-c7bf-4090-b58a-47fbc83a3c0b","ios":"levelo://app?vid=b7974c8d-c7bf-4090-b58a-47fbc83a3c0b"},"vehicle_type_id":"4","last_reported":1781280483,"current_range_meters":4400,"station_id":"","pricing_plan_id":"cebpf4jnsgd1na2vs0mg"},{"bike_id":"e7f8e0bb-2342-4046-87a8-0282628665cb","system_id":"levelo_inurba_marseille","lat":43.26025,"lon":5.37543,"is_reserved":false,"is_disabled":false,"rental_uris":{"android":"levelo://app?vid=e7f8e0bb-2342-4046-87a8-0282628665cb","ios":"levelo://app?vid=e7f8e0bb-2342-4046-87a8-0282628665cb"},"vehicle_type_id":"4","last_reported":1781280483,"current_range_meters":4400,"station_id":"ce4bhgh2rcd13ifvqfa0","pricing_plan_id":"cebpf4jnsgd1na2vs0mg"},{"bike_id":"088a5444-f5d5-4beb-9db7-274b2519a022","system_id":"levelo_inurba_marseille","lat":43.31869,"lon":5.39996,"is_reserved":false,"is_disabled":false,"rental_uris":{"android":"levelo://app?vid=088a5444-f5d5-4beb-9db7-274b2519a022","ios":"levelo://app?vid=088a5444-f5d5-4beb-9db7-274b2519a022"},"vehicle_type_id":"4","last_reported":1781280483,"current_range_meters":4400,"station_id":"","pricing_plan_id":"cebpf4jnsgd1na2vs0mg"},{"bike_id":"2ca137e5-3ca8-4479-9cac-39265871a0b1","system_id":"levelo_inurba_marseille","lat":43.27868,"lon":5.42446,"is_reserved":false,"is_disabled":false,"rental_uris":{"android":"levelo://app?vid=2ca137e5-3ca8-4479-9cac-39265871a0b1","ios":"levelo://app?vid=2ca137e5-3ca8-4479-9cac-39265871a0b1"},"vehicle_type_id":"4","last_reported":1781280483,"current_range_meters":4400,"station_id":"","pricing_plan_id":"cebpf4jnsgd1na2vs0mg"},{"bike_id":"187e26a1-34d2-4989-b3cb-8b552ec18635","system_id":"levelo_inurba_marseille","lat":43.25586,"lon":5.382431,"is_reserved":false,"is_disabled":false,"rental_uris":{"android":"levelo://app?vid=187e26a1-34d2-4989-b3cb-8b552ec18635","ios":"levelo://app?vid=187e26a1-34d2-4989-b3cb-8b552ec18635"},"vehicle_type_id":"4","last_reported":1781280483,"current_range_meters":4800,"station_id":"ce4bhih2rcd13ifvqfs0","pricing_plan_id":"cebpf4jnsgd1na2vs0mg"},{"bike_id":"de42cefd-f597-4c07-b713-c4e26aaa4e0f","system_id":"levelo_inurba_marseille","lat":43.28997,"lon":5.35611,"is_reserved":false,"is_disabled":false,"rental_uris":{"android":"levelo://app?vid=de42cefd-f597-4c07-b713-c4e26aaa4e0f","ios":"levelo://app?vid=de42cefd-f597-4c07-b713-c4e26aaa4e0f"},"vehicle_type_id":"4","last_reported":1781280483,"current_range_meters":4800,"station_id":"ce4bhb92rcd13ifvqen0","pricing_plan_id":"cebpf4jnsgd1na2vs0mg"},{"bike_id":"693207c0-f47b-4016-bdf2-26a1b3765bde","system_id":"levelo_inurba_marseille","lat":43.2885,"lon":5.35833,"is_reserved":false,"is_disabled":false,"rental_uris":{"android":"levelo://app?vid=693207c0-f47b-4016-bdf2-26a1b3765bde","ios":"levelo://app?vid=693207c0-f47b-4016-bdf2-26a1b3765bde"},"vehicle_type_id":"4","last_reported":1781280483,"current_range_meters":4800,"station_id":"ce4bhb12rcd13ifvqem0","pricing_plan_id":"cebpf4jnsgd1na2vs0mg"},{"bike_id":"cb4a87f1-ecd2-4522-a840-5c2028883f08","system_id":"levelo_inurba_marseille","lat":43.28674,"lon":5.35047,"is_reserved":false,"is_disabled":false,"rental_uris":{"android":"levelo://app?vid=cb4a87f1-ecd2-4522-a840-5c2028883f08","ios":"levelo://app?vid=cb4a87f1-ecd2-4522-a840-5c2028883f08"},"vehicle_type_id":"4","last_reported":1781280483,"current_range_meters":4800,"station_id":"","pricing_plan_id":"cebpf4jnsgd1na2vs0mg"},{"bike_id":"794f201a-435b-44a5-8c05-660ec1ae7766","system_id":"levelo_inurba_marseille","lat":43.25587,"lon":5.38244,"is_reserved":false,"is_disabled":false,"rental_uris":{"android":"levelo://app?vid=794f201a-435b-44a5-8c05-660ec1ae7766","ios":"levelo://app?vid=794f201a-435b-44a5-8c05-660ec1ae7766"},"vehicle_type_id":"4","last_reported":1781280483,"current_range_meters":4800,"station_id":"ce4bhih2rcd13ifvqfs0","pricing_plan_id":"cebpf4jnsgd1na2vs0mg"},{"bike_id":"8b6b68f1-e508-4aca-8408-2e25b4d6ced5","system_id":"levelo_inurba_marseille","lat":43.2118,"lon":5.35065,"is_reserved":false,"is_disabled":false,"rental_uris":{"android":"levelo://app?vid=8b6b68f1-e508-4aca-8408-2e25b4d6ced5","ios":"levelo://app?vid=8b6b68f1-e508-4aca-8408-2e25b4d6ced5"},"vehicle_type_id":"4","last_reported":1781280483,"current_range_meters":4800,"station_id":"st_cvj6sg6p6f1abm77japg","pricing_plan_id":"cebpf4jnsgd1na2vs0mg"},{"bike_id":"fdc21814-149a-410f-b193-382784505a0f","system_id":"levelo_inurba_marseille","lat":43.23787,"lon":5.36634,"is_reserved":false,"is_disabled":false,"rental_uris":{"android":"levelo://app?vid=fdc21814-149a-410f-b193-382784505a0f","ios":"levelo://app?vid=fdc21814-149a-410f-b193-382784505a0f"},"vehicle_type_id":"4","last_reported":1781280483,"current_range_meters":4800,"station_id":"st_d3nk18o9ro0c73en2l3g","pricing_plan_id":"cebpf4jnsgd1na2vs0mg"},{"bike_id":"5c18f13e-1f6e-4fc8-ae5f-251bb48be226","system_id":"levelo_inurba_marseille","lat":43.23195,"lon":5.35553,"is_reserved":false,"is_disabled":false,"rental_uris":{"android":"levelo://app?vid=5c18f13e-1f6e-4fc8-ae5f-251bb48be226","ios":"levelo://app?vid=5c18f13e-1f6e-4fc8-ae5f-251bb48be226"},"vehicle_type_id":"4","last_reported":1781280483,"current_range_meters":4800,"station_id":"ce4bhu92rcd13ifvqi70","pricing_plan_id":"cebpf4jnsgd1na2vs0mg"},{"bike_id":"227a6425-2654-4be3-90e9-e97aa99895e8","system_id":"levelo_inurba_marseille","lat":43.306061,"lon":5.372265,"is_reserved":false,"is_disabled":false,"rental_uris":{"android":"levelo://app?vid=227a6425-2654-4be3-90e9-e97aa99895e8","ios":"levelo://app?vid=227a6425-2654-4be3-90e9-e97aa99895e8"},"vehicle_type_id":"4","last_reported":1781280483,"current_range_meters":4800,"station_id":"ce4bgqh2rcd13ifvqc4g","pricing_plan_id":"cebpf4jnsgd1na2vs0mg"},{"bike_id":"edd7f6cf-c00d-4334-ba4f-ddda86c6a12e","system_id":"levelo_inurba_marseille","lat":43.30272,"lon":5.37689,"is_reserved":false,"is_disabled":false,"rental_uris":{"android":"levelo://app?vid=edd7f6cf-c00d-4334-ba4f-ddda86c6a12e","ios":"levelo://app?vid=edd7f6cf-c00d-4334-ba4f-ddda86c6a12e"},"vehicle_type_id":"4","last_reported":1781280483,"current_range_meters":4800,"station_id":"ce4bguh2rcd13ifvqcj0","pricing_plan_id":"cebpf4jnsgd1na2vs0mg"},{"bike_id":"30046d34-eca3-4fba-bf41-b633dac1b4c8","system_id":"levelo_inurba_marseille","lat":43.31868,"lon":5.3999,"is_reserved":false,"is_disabled":false,"rental_uris":{"android":"levelo://app?vid=30046d34-eca3-4fba-bf41-b633dac1b4c8","ios":"levelo://app?vid=30046d34-eca3-4fba-bf41-b633dac1b4c8"},"vehicle_type_id":"4","last_reported":1781280483,"current_range_meters":4800,"station_id":"","pricing_plan_id":"cebpf4jnsgd1na2vs0mg"},{"bike_id":"a1edb859-e6ef-4fe8-840c-fbee9b3aa8a9","system_id":"levelo_inurba_marseille","lat":43.29777,"lon":5.37109,"is_reserved":false,"is_disabled":false,"rental_uris":{"android":"levelo://app?vid=a1edb859-e6ef-4fe8-840c-fbee9b3aa8a9","ios":"levelo://app?vid=a1edb859-e6ef-4fe8-840c-fbee9b3aa8a9"},"vehicle_type_id":"4","last_reported":1781280483,"current_range_meters":4800,"station_id":"ce4bgop2rcd13ifvqc1g","pricing_plan_id":"cebpf4jnsgd1na2vs0mg"},{"bike_id":"1a706732-5203-4eb8-9878-0ee7ddc2410a","system_id":"levelo_inurba_marseille","lat":43.26338,"lon":5.37823,"is_reserved":false,"is_disabled":false,"rental_uris":{"android":"levelo://app?vid=1a706732-5203-4eb8-9878-0ee7ddc2410a","ios":"levelo://app?vid=1a706732-5203-4eb8-9878-0ee7ddc2410a"},"vehicle_type_id":"4","last_reported":1781280483,"current_range_meters":4800,"station_id":"","pricing_plan_id":"cebpf4jnsgd1na2vs0mg"},{"bike_id":"b71af7c2-4d98-4630-86ae-a4a165ba23e9","system_id":"levelo_inurba_marseille","lat":43.28882,"lon":5.37664,"is_reserved":false,"is_disabled":false,"rental_uris":{"android":"levelo://app?vid=b71af7c2-4d98-4630-86ae-a4a165ba23e9","ios":"levelo://app?vid=b71af7c2-4d98-4630-86ae-a4a165ba23e9"},"vehicle_type_id":"4","last_reported":1781280483,"current_range_meters":5600,"station_id":"","pricing_plan_id":"cebpf4jnsgd1na2vs0mg"},{"bike_id":"2f009c59-0e0c-443e-982b-ef77b79ea1c3","system_id":"levelo_inurba_marseille","lat":43.292,"lon":5.3579,"is_reserved":false,"is_disabled":false,"rental_uris":{"android":"levelo://app?vid=2f009c59-0e0c-443e-982b-ef77b79ea1c3","ios":"levelo://app?vid=2f009c59-0e0c-443e-982b-ef77b79ea1c3"},"vehicle_type_id":"4","last_reported":1781280483,"current_range_meters":5600,"station_id":"ce4bhb12rcd13ifvqel0","pricing_plan_id":"cebpf4jnsgd1na2vs0mg"},{"bike_id":"b83be4d3-06f4-4b3e-9ba2-a6d47abaf96e","system_id":"levelo_inurba_marseille","lat":43.29268,"lon":5.37635,"is_reserved":false,"is_disabled":true,"rental_uris":{"android":"levelo://app?vid=b83be4d3-06f4-4b3e-9ba2-a6d47abaf96e","ios":"levelo://app?vid=b83be4d3-06f4-4b3e-9ba2-a6d47abaf96e"},"vehicle_type_id":"4","last_reported":1781280483,"current_range_meters":5600,"station_id":"ce4bgi12rcd13ifvqb80","pricing_plan_id":"cebpf4jnsgd1na2vs0mg"},{"bike_id":"4b0b24dd-ad73-4bb3-9fae-7336dd822b0d","system_id":"levelo_inurba_marseille","lat":43.244342,"lon":5.37986,"is_reserved":false,"is_disabled":false,"rental_uris":{"android":"levelo://app?vid=4b0b24dd-ad73-4bb3-9fae-7336dd822b0d","ios":"levelo://app?vid=4b0b24dd-ad73-4bb3-9fae-7336dd822b0d"},"vehicle_type_id":"4","last_reported":1781280483,"current_range_meters":5600,"station_id":"ce4bhi12rcd13ifvqfp0","pricing_plan_id":"cebpf4jnsgd1na2vs0mg"},{"bike_id":"318c2327-cd61-4b3a-8efa-5ff92eb9038b","system_id":"levelo_inurba_marseille","lat":43.33112,"lon":5.36633,"is_reserved":false,"is_disabled":false,"rental_uris":{"android":"levelo://app?vid=318c2327-cd61-4b3a-8efa-5ff92eb9038b","ios":"levelo://app?vid=318c2327-cd61-4b3a-8efa-5ff92eb9038b"},"vehicle_type_id":"4","last_reported":1781280483,"current_range_meters":5600,"station_id":"","pricing_plan_id":"cebpf4jnsgd1na2vs0mg"},{"bike_id":"5c4c7c29-d67c-425c-b25c-05cae9e3f92c","system_id":"levelo_inurba_marseille","lat":43.284717,"lon":5.384201,"is_reserved":false,"is_disabled":true,"rental_uris":{"android":"levelo://app?vid=5c4c7c29-d67c-425c-b25c-05cae9e3f92c","ios":"levelo://app?vid=5c4c7c29-d67c-425c-b25c-05cae9e3f92c"},"vehicle_type_id":"4","last_reported":1781280483,"current_range_meters":5600,"station_id":"ce4bh512rcd13ifvqe3g","pricing_plan_id":"cebpf4jnsgd1na2vs0mg"},{"bike_id":"6164542d-2099-4b3e-b48e-1145b506a9a1","system_id":"levelo_inurba_marseille","lat":43.31685,"lon":5.40475,"is_reserved":false,"is_disabled":false,"rental_uris":{"android":"levelo://app?vid=6164542d-2099-4b3e-b48e-1145b506a9a1","ios":"levelo://app?vid=6164542d-2099-4b3e-b48e-1145b506a9a1"},"vehicle_type_id":"4","last_reported":1781280483,"current_range_meters":5600,"station_id":"ce4bh012rcd13ifvqd00","pricing_plan_id":"cebpf4jnsgd1na2vs0mg"},{"bike_id":"f7698676-1932-4dbf-ab9d-6c907c9bbe14","system_id":"levelo_inurba_marseille","lat":43.31886,"lon":5.37143,"is_reserved":false,"is_disabled":false,"rental_uris":{"android":"levelo://app?vid=f7698676-1932-4dbf-ab9d-6c907c9bbe14","ios":"levelo://app?vid=f7698676-1932-4dbf-ab9d-6c907c9bbe14"},"vehicle_type_id":"4","last_reported":1781280483,"current_range_meters":5600,"station_id":"","pricing_plan_id":"cebpf4jnsgd1na2vs0mg"},{"bike_id":"8afeb7a8-b686-4611-8220-2ade2d33c717","system_id":"levelo_inurba_marseille","lat":43.2959,"lon":5.37703,"is_reserved":false,"is_disabled":true,"rental_uris":{"android":"levelo://app?vid=8afeb7a8-b686-4611-8220-2ade2d33c717","ios":"levelo://app?vid=8afeb7a8-b686-4611-8220-2ade2d33c717"},"vehicle_type_id":"4","last_reported":1781280483,"current_range_meters":5600,"station_id":"ce4bgi92rcd13ifvqb90","pricing_plan_id":"cebpf4jnsgd1na2vs0mg"},{"bike_id":"24f02d56-4cb2-4734-b396-c4353be9b86c","system_id":"levelo_inurba_marseille","lat":43.32111,"lon":5.36795,"is_reserved":false,"is_disabled":false,"rental_uris":{"android":"levelo://app?vid=24f02d56-4cb2-4734-b396-c4353be9b86c","ios":"levelo://app?vid=24f02d56-4cb2-4734-b396-c4353be9b86c"},"vehicle_type_id":"4","last_reported":1781280483,"current_range_meters":5600,"station_id":"ce4bhrh2rcd13ifvqhug","pricing_plan_id":"cebpf4jnsgd1na2vs0mg"},{"bike_id":"6182fb3b-b8ba-4fe8-afce-d653a572300b","system_id":"levelo_inurba_marseille","lat":43.30155,"lon":5.38774,"is_reserved":false,"is_disabled":false,"rental_uris":{"android":"levelo://app?vid=6182fb3b-b8ba-4fe8-afce-d653a572300b","ios":"levelo://app?vid=6182fb3b-b8ba-4fe8-afce-d653a572300b"},"vehicle_type_id":"4","last_reported":1781280483,"current_range_meters":5600,"station_id":"ce4bghh2rcd13ifvqb60","pricing_plan_id":"cebpf4jnsgd1na2vs0mg"},{"bike_id":"899fc967-7875-4bbe-9778-4c7d3ea1d62e","system_id":"levelo_inurba_marseille","lat":43.29116,"lon":5.38771,"is_reserved":false,"is_disabled":false,"rental_uris":{"android":"levelo://app?vid=899fc967-7875-4bbe-9778-4c7d3ea1d62e","ios":"levelo://app?vid=899fc967-7875-4bbe-9778-4c7d3ea1d62e"},"vehicle_type_id":"4","last_reported":1781280483,"current_range_meters":5600,"station_id":"","pricing_plan_id":"cebpf4jnsgd1na2vs0mg"},{"bike_id":"3c529788-446b-471c-9d2a-6518b5be24e4","system_id":"levelo_inurba_marseille","lat":43.26569,"lon":5.39008,"is_reserved":false,"is_disabled":false,"rental_uris":{"android":"levelo://app?vid=3c529788-446b-471c-9d2a-6518b5be24e4","ios":"levelo://app?vid=3c529788-446b-471c-9d2a-6518b5be24e4"},"vehicle_type_id":"4","last_reported":1781280483,"current_range_meters":5600,"station_id":"ce4bhe12rcd13ifvqf30","pricing_plan_id":"cebpf4jnsgd1na2vs0mg"},{"bike_id":"f6c360ef-74d5-49fb-8431-cc252651020e","system_id":"levelo_inurba_marseille","lat":43.28408,"lon":5.34967,"is_reserved":false,"is_disabled":false,"rental_uris":{"android":"levelo://app?vid=f6c360ef-74d5-49fb-8431-cc252651020e","ios":"levelo://app?vid=f6c360ef-74d5-49fb-8431-cc252651020e"},"vehicle_type_id":"4","last_reported":1781280483,"current_range_meters":5600,"station_id":"ce4bhbh2rcd13ifvqepg","pricing_plan_id":"cebpf4jnsgd1na2vs0mg"},{"bike_id":"31e2ad24-3edc-483e-9c48-bdf3d89974f0","system_id":"levelo_inurba_marseille","lat":43.28119,"lon":5.38297,"is_reserved":false,"is_disabled":false,"rental_uris":{"android":"levelo://app?vid=31e2ad24-3edc-483e-9c48-bdf3d89974f0","ios":"levelo://app?vid=31e2ad24-3edc-483e-9c48-bdf3d89974f0"},"vehicle_type_id":"4","last_reported":1781280483,"current_range_meters":5600,"station_id":"","pricing_plan_id":"cebpf4jnsgd1na2vs0mg"},{"bike_id":"aaa66412-2aa3-4106-bf51-3d316dbc10b4","system_id":"levelo_inurba_marseille","lat":43.22563,"lon":5.41632,"is_reserved":false,"is_disabled":false,"rental_uris":{"android":"levelo://app?vid=aaa66412-2aa3-4106-bf51-3d316dbc10b4","ios":"levelo://app?vid=aaa66412-2aa3-4106-bf51-3d316dbc10b4"},"vehicle_type_id":"4","last_reported":1781280483,"current_range_meters":6000,"station_id":"st_d2o4gvlbi1j2169b742g","pricing_plan_id":"cebpf4jnsgd1na2vs0mg"},{"bike_id":"bffb5bc9-add3-49eb-8545-6c9e27e1c437","system_id":"levelo_inurba_marseille","lat":43.28066,"lon":5.3477,"is_reserved":false,"is_disabled":false,"rental_uris":{"android":"levelo://app?vid=bffb5bc9-add3-49eb-8545-6c9e27e1c437","ios":"levelo://app?vid=bffb5bc9-add3-49eb-8545-6c9e27e1c437"},"vehicle_type_id":"4","last_reported":1781280483,"current_range_meters":6000,"station_id":"","pricing_plan_id":"cebpf4jnsgd1na2vs0mg"},{"bike_id":"c48d0cd6-9afd-4f24-97bc-cfac1a2467e0","system_id":"levelo_inurba_marseille","lat":43.31248,"lon":5.42782,"is_reserved":false,"is_disabled":false,"rental_uris":{"android":"levelo://app?vid=c48d0cd6-9afd-4f24-97bc-cfac1a2467e0","ios":"levelo://app?vid=c48d0cd6-9afd-4f24-97bc-cfac1a2467e0"},"vehicle_type_id":"4","last_reported":1781280483,"current_range_meters":6000,"station_id":"","pricing_plan_id":"cebpf4jnsgd1na2vs0mg"},{"bike_id":"9e0e1015-9a16-4a99-9f21-47c2eeb0ae0a","system_id":"levelo_inurba_marseille","lat":43.29045,"lon":5.37568,"is_reserved":false,"is_disabled":false,"rental_uris":{"android":"levelo://app?vid=9e0e1015-9a16-4a99-9f21-47c2eeb0ae0a","ios":"levelo://app?vid=9e0e1015-9a16-4a99-9f21-47c2eeb0ae0a"},"vehicle_type_id":"4","last_reported":1781280483,"current_range_meters":6000,"station_id":"ce4bh692rcd13ifvqe90","pricing_plan_id":"cebpf4jnsgd1na2vs0mg"},{"bike_id":"15d41085-5bf7-4f55-a97b-6ece7d94bf67","system_id":"levelo_inurba_marseille","lat":43.250874,"lon":5.395262,"is_reserved":false,"is_disabled":false,"rental_uris":{"android":"levelo://app?vid=15d41085-5bf7-4f55-a97b-6ece7d94bf67","ios":"levelo://app?vid=15d41085-5bf7-4f55-a97b-6ece7d94bf67"},"vehicle_type_id":"4","last_reported":1781280483,"current_range_meters":6000,"station_id":"ce4bhm12rcd13ifvqgkg","pricing_plan_id":"cebpf4jnsgd1na2vs0mg"},{"bike_id":"d6d70e7b-ad1e-427b-956f-1ca79748a4fc","system_id":"levelo_inurba_marseille","lat":43.28853,"lon":5.39318,"is_reserved":false,"is_disabled":false,"rental_uris":{"android":"levelo://app?vid=d6d70e7b-ad1e-427b-956f-1ca79748a4fc","ios":"levelo://app?vid=d6d70e7b-ad1e-427b-956f-1ca79748a4fc"},"vehicle_type_id":"4","last_reported":1781280483,"current_range_meters":6000,"station_id":"ce4bh2p2rcd13ifvqdi0","pricing_plan_id":"cebpf4jnsgd1na2vs0mg"},{"bike_id":"116e7e79-df73-459e-bb6d-922ab4ccb8bd","system_id":"levelo_inurba_marseille","lat":43.21199,"lon":5.3509,"is_reserved":false,"is_disabled":false,"rental_uris":{"android":"levelo://app?vid=116e7e79-df73-459e-bb6d-922ab4ccb8bd","ios":"levelo://app?vid=116e7e79-df73-459e-bb6d-922ab4ccb8bd"},"vehicle_type_id":"4","last_reported":1781280483,"current_range_meters":6000,"station_id":"st_cvj6sg6p6f1abm77japg","pricing_plan_id":"cebpf4jnsgd1na2vs0mg"},{"bike_id":"a5fe7e0e-bd7a-41d3-a96b-57f5c8a201f7","system_id":"levelo_inurba_marseille","lat":43.2294,"lon":5.35376,"is_reserved":false,"is_disabled":false,"rental_uris":{"android":"levelo://app?vid=a5fe7e0e-bd7a-41d3-a96b-57f5c8a201f7","ios":"levelo://app?vid=a5fe7e0e-bd7a-41d3-a96b-57f5c8a201f7"},"vehicle_type_id":"4","last_reported":1781280483,"current_range_meters":6000,"station_id":"cpo3532slgdg3j2ikp40","pricing_plan_id":"cebpf4jnsgd1na2vs0mg"},{"bike_id":"e0e3cf21-5217-45f7-b35b-50cc9adf67d6","system_id":"levelo_inurba_marseille","lat":43.27632,"lon":5.36105,"is_reserved":false,"is_disabled":false,"rental_uris":{"android":"levelo://app?vid=e0e3cf21-5217-45f7-b35b-50cc9adf67d6","ios":"levelo://app?vid=e0e3cf21-5217-45f7-b35b-50cc9adf67d6"},"vehicle_type_id":"4","last_reported":1781280483,"current_range_meters":6000,"station_id":"ce4bgj92rcd13ifvqbe0","pricing_plan_id":"cebpf4jnsgd1na2vs0mg"},{"bike_id":"aa090de1-3d16-4635-9f4b-f71ba42ea92b","system_id":"levelo_inurba_marseille","lat":43.30941,"lon":5.41063,"is_reserved":false,"is_disabled":false,"rental_uris":{"android":"levelo://app?vid=aa090de1-3d16-4635-9f4b-f71ba42ea92b","ios":"levelo://app?vid=aa090de1-3d16-4635-9f4b-f71ba42ea92b"},"vehicle_type_id":"4","last_reported":1781280483,"current_range_meters":6000,"station_id":"","pricing_plan_id":"cebpf4jnsgd1na2vs0mg"},{"bike_id":"8bee8db7-aa2b-497e-8a43-f42775c9f1b4","system_id":"levelo_inurba_marseille","lat":43.26675,"lon":5.38276,"is_reserved":false,"is_disabled":false,"rental_uris":{"android":"levelo://app?vid=8bee8db7-aa2b-497e-8a43-f42775c9f1b4","ios":"levelo://app?vid=8bee8db7-aa2b-497e-8a43-f42775c9f1b4"},"vehicle_type_id":"4","last_reported":1781280483,"current_range_meters":6000,"station_id":"ce4bhg92rcd13ifvqf90","pricing_plan_id":"cebpf4jnsgd1na2vs0mg"},{"bike_id":"6e2438bd-db9c-44c7-817f-8838bffe7fff","system_id":"levelo_inurba_marseille","lat":43.26678,"lon":5.3826,"is_reserved":false,"is_disabled":false,"rental_uris":{"android":"levelo://app?vid=6e2438bd-db9c-44c7-817f-8838bffe7fff","ios":"levelo://app?vid=6e2438bd-db9c-44c7-817f-8838bffe7fff"},"vehicle_type_id":"4","last_reported":1781280483,"current_range_meters":6000,"station_id":"ce4bhg92rcd13ifvqf90","pricing_plan_id":"cebpf4jnsgd1na2vs0mg"},{"bike_id":"fe2df644-7bea-4dc1-8da3-287677d6e6bf","system_id":"levelo_inurba_marseille","lat":43.28429,"lon":5.35279,"is_reserved":false,"is_disabled":false,"rental_uris":{"android":"levelo://app?vid=fe2df644-7bea-4dc1-8da3-287677d6e6bf","ios":"levelo://app?vid=fe2df644-7bea-4dc1-8da3-287677d6e6bf"},"vehicle_type_id":"4","last_reported":1781280483,"current_range_meters":6000,"station_id":"","pricing_plan_id":"cebpf4jnsgd1na2vs0mg"},{"bike_id":"d9bbcfa4-a44d-4020-b0df-d2651b3bdf41","system_id":"levelo_inurba_marseille","lat":43.2119,"lon":5.35069,"is_reserved":false,"is_disabled":false,"rental_uris":{"android":"levelo://app?vid=d9bbcfa4-a44d-4020-b0df-d2651b3bdf41","ios":"levelo://app?vid=d9bbcfa4-a44d-4020-b0df-d2651b3bdf41"},"vehicle_type_id":"4","last_reported":1781280483,"current_range_meters":6000,"station_id":"st_cvj6sg6p6f1abm77japg","pricing_plan_id":"cebpf4jnsgd1na2vs0mg"},{"bike_id":"6edb1571-ff0e-41be-86f6-ab57a8172f99","system_id":"levelo_inurba_marseille","lat":43.32123,"lon":5.36801,"is_reserved":false,"is_disabled":false,"rental_uris":{"android":"levelo://app?vid=6edb1571-ff0e-41be-86f6-ab57a8172f99","ios":"levelo://app?vid=6edb1571-ff0e-41be-86f6-ab57a8172f99"},"vehicle_type_id":"4","last_reported":1781280483,"current_range_meters":6000,"station_id":"ce4bhrh2rcd13ifvqhug","pricing_plan_id":"cebpf4jnsgd1na2vs0mg"},{"bike_id":"c4c8f592-2f0a-488a-9059-30a67bfcfd66","system_id":"levelo_inurba_marseille","lat":43.24813,"lon":5.37459,"is_reserved":false,"is_disabled":false,"rental_uris":{"android":"levelo://app?vid=c4c8f592-2f0a-488a-9059-30a67bfcfd66","ios":"levelo://app?vid=c4c8f592-2f0a-488a-9059-30a67bfcfd66"},"vehicle_type_id":"4","last_reported":1781280483,"current_range_meters":6000,"station_id":"ce4bhgh2rcd13ifvqfb0","pricing_plan_id":"cebpf4jnsgd1na2vs0mg"},{"bike_id":"79b613ed-d220-4868-8d82-240855be2e21","system_id":"levelo_inurba_marseille","lat":43.24642,"lon":5.38886,"is_reserved":false,"is_disabled":false,"rental_uris":{"android":"levelo://app?vid=79b613ed-d220-4868-8d82-240855be2e21","ios":"levelo://app?vid=79b613ed-d220-4868-8d82-240855be2e21"},"vehicle_type_id":"4","last_reported":1781280483,"current_range_meters":6000,"station_id":"ce4bhg12rcd13ifvqf60","pricing_plan_id":"cebpf4jnsgd1na2vs0mg"},{"bike_id":"2694b729-2691-4523-9744-df82535d337f","system_id":"levelo_inurba_marseille","lat":43.26206,"lon":5.37442,"is_reserved":false,"is_disabled":false,"rental_uris":{"android":"levelo://app?vid=2694b729-2691-4523-9744-df82535d337f","ios":"levelo://app?vid=2694b729-2691-4523-9744-df82535d337f"},"vehicle_type_id":"4","last_reported":1781280483,"current_range_meters":6000,"station_id":"ce4bhgp2rcd13ifvqfc0","pricing_plan_id":"cebpf4jnsgd1na2vs0mg"},{"bike_id":"8148c0e0-aa12-45e8-903a-433ca8b036d1","system_id":"levelo_inurba_marseille","lat":43.28676,"lon":5.38323,"is_reserved":false,"is_disabled":false,"rental_uris":{"android":"levelo://app?vid=8148c0e0-aa12-45e8-903a-433ca8b036d1","ios":"levelo://app?vid=8148c0e0-aa12-45e8-903a-433ca8b036d1"},"vehicle_type_id":"4","last_reported":1781280483,"current_range_meters":6000,"station_id":"","pricing_plan_id":"cebpf4jnsgd1na2vs0mg"},{"bike_id":"a848a5d1-feb4-4560-89e7-b2ad298b123f","system_id":"levelo_inurba_marseille","lat":43.24645,"lon":5.43151,"is_reserved":false,"is_disabled":false,"rental_uris":{"android":"levelo://app?vid=a848a5d1-feb4-4560-89e7-b2ad298b123f","ios":"levelo://app?vid=a848a5d1-feb4-4560-89e7-b2ad298b123f"},"vehicle_type_id":"4","last_reported":1781280483,"current_range_meters":6000,"station_id":"st_d2m6c4gdas8pm72e190g","pricing_plan_id":"cebpf4jnsgd1na2vs0mg"},{"bike_id":"b4c0f195-58a3-456c-9ed4-e0663f1468e6","system_id":"levelo_inurba_marseille","lat":43.28274,"lon":5.37402,"is_reserved":false,"is_disabled":false,"rental_uris":{"android":"levelo://app?vid=b4c0f195-58a3-456c-9ed4-e0663f1468e6","ios":"levelo://app?vid=b4c0f195-58a3-456c-9ed4-e0663f1468e6"},"vehicle_type_id":"4","last_reported":1781280483,"current_range_meters":6000,"station_id":"","pricing_plan_id":"cebpf4jnsgd1na2vs0mg"},{"bike_id":"6df7054b-12fc-4820-90eb-30a94928fe3f","system_id":"levelo_inurba_marseille","lat":43.23771,"lon":5.36622,"is_reserved":false,"is_disabled":false,"rental_uris":{"android":"levelo://app?vid=6df7054b-12fc-4820-90eb-30a94928fe3f","ios":"levelo://app?vid=6df7054b-12fc-4820-90eb-30a94928fe3f"},"vehicle_type_id":"4","last_reported":1781280483,"current_range_meters":6000,"station_id":"st_d3nk18o9ro0c73en2l3g","pricing_plan_id":"cebpf4jnsgd1na2vs0mg"},{"bike_id":"87cb36b3-5531-4886-be7c-fc5559016836","system_id":"levelo_inurba_marseille","lat":43.29191,"lon":5.35804,"is_reserved":false,"is_disabled":false,"rental_uris":{"android":"levelo://app?vid=87cb36b3-5531-4886-be7c-fc5559016836","ios":"levelo://app?vid=87cb36b3-5531-4886-be7c-fc5559016836"},"vehicle_type_id":"4","last_reported":1781280483,"current_range_meters":6000,"station_id":"ce4bhb12rcd13ifvqel0","pricing_plan_id":"cebpf4jnsgd1na2vs0mg"},{"bike_id":"71835586-2128-46f4-bceb-e638988d5c03","system_id":"levelo_inurba_marseille","lat":43.2843,"lon":5.34984,"is_reserved":false,"is_disabled":false,"rental_uris":{"android":"levelo://app?vid=71835586-2128-46f4-bceb-e638988d5c03","ios":"levelo://app?vid=71835586-2128-46f4-bceb-e638988d5c03"},"vehicle_type_id":"4","last_reported":1781280483,"current_range_meters":6000,"station_id":"ce4bhbh2rcd13ifvqepg","pricing_plan_id":"cebpf4jnsgd1na2vs0mg"},{"bike_id":"c7003374-df0a-4adf-a763-b7ffcb27c463","system_id":"levelo_inurba_marseille","lat":43.2848,"lon":5.48391,"is_reserved":false,"is_disabled":false,"rental_uris":{"android":"levelo://app?vid=c7003374-df0a-4adf-a763-b7ffcb27c463","ios":"levelo://app?vid=c7003374-df0a-4adf-a763-b7ffcb27c463"},"vehicle_type_id":"4","last_reported":1781280483,"current_range_meters":6000,"station_id":"st_d3svhcjqgbts73a3dn0g","pricing_plan_id":"cebpf4jnsgd1na2vs0mg"},{"bike_id":"750d545d-9962-42b9-9a8e-d0d1cf1bbc44","system_id":"levelo_inurba_marseille","lat":43.25508,"lon":5.37661,"is_reserved":false,"is_disabled":false,"rental_uris":{"android":"levelo://app?vid=750d545d-9962-42b9-9a8e-d0d1cf1bbc44","ios":"levelo://app?vid=750d545d-9962-42b9-9a8e-d0d1cf1bbc44"},"vehicle_type_id":"4","last_reported":1781280483,"current_range_meters":6000,"station_id":"ce4bhh12rcd13ifvqff0","pricing_plan_id":"cebpf4jnsgd1na2vs0mg"},{"bike_id":"95a6a820-080c-4047-9edc-2eab85cc3ea0","system_id":"levelo_inurba_marseille","lat":43.31232,"lon":5.37292,"is_reserved":false,"is_disabled":false,"rental_uris":{"android":"levelo://app?vid=95a6a820-080c-4047-9edc-2eab85cc3ea0","ios":"levelo://app?vid=95a6a820-080c-4047-9edc-2eab85cc3ea0"},"vehicle_type_id":"4","last_reported":1781280483,"current_range_meters":6000,"station_id":"","pricing_plan_id":"cebpf4jnsgd1na2vs0mg"},{"bike_id":"7efdbf23-071e-4b9f-b3fe-73a9122ae696","system_id":"levelo_inurba_marseille","lat":43.28675,"lon":5.36337,"is_reserved":false,"is_disabled":false,"rental_uris":{"android":"levelo://app?vid=7efdbf23-071e-4b9f-b3fe-73a9122ae696","ios":"levelo://app?vid=7efdbf23-071e-4b9f-b3fe-73a9122ae696"},"vehicle_type_id":"4","last_reported":1781280483,"current_range_meters":6000,"station_id":"ce4bhah2rcd13ifvqej0","pricing_plan_id":"cebpf4jnsgd1na2vs0mg"},{"bike_id":"d50e3eaf-7328-48aa-a231-426fb6d133a4","system_id":"levelo_inurba_marseille","lat":43.25118,"lon":5.40317,"is_reserved":false,"is_disabled":false,"rental_uris":{"android":"levelo://app?vid=d50e3eaf-7328-48aa-a231-426fb6d133a4","ios":"levelo://app?vid=d50e3eaf-7328-48aa-a231-426fb6d133a4"},"vehicle_type_id":"4","last_reported":1781280483,"current_range_meters":6000,"station_id":"ce4bhlh2rcd13ifvqgig","pricing_plan_id":"cebpf4jnsgd1na2vs0mg"},{"bike_id":"ee494397-ad1c-4b5e-80ed-9cc6e888762d","system_id":"levelo_inurba_marseille","lat":43.31897,"lon":5.42481,"is_reserved":false,"is_disabled":false,"rental_uris":{"android":"levelo://app?vid=ee494397-ad1c-4b5e-80ed-9cc6e888762d","ios":"levelo://app?vid=ee494397-ad1c-4b5e-80ed-9cc6e888762d"},"vehicle_type_id":"4","last_reported":1781280483,"current_range_meters":6000,"station_id":"","pricing_plan_id":"cebpf4jnsgd1na2vs0mg"},{"bike_id":"5f0e2b54-4459-449a-a7cc-2c4f61c97471","system_id":"levelo_inurba_marseille","lat":43.29528,"lon":5.38532,"is_reserved":false,"is_disabled":false,"rental_uris":{"android":"levelo://app?vid=5f0e2b54-4459-449a-a7cc-2c4f61c97471","ios":"levelo://app?vid=5f0e2b54-4459-449a-a7cc-2c4f61c97471"},"vehicle_type_id":"4","last_reported":1781280483,"current_range_meters":6000,"station_id":"ce4bgih2rcd13ifvqba0","pricing_plan_id":"cebpf4jnsgd1na2vs0mg"},{"bike_id":"4d052e3e-a802-4267-badd-35092e7d8120","system_id":"levelo_inurba_marseille","lat":43.28079,"lon":5.39657,"is_reserved":false,"is_disabled":false,"rental_uris":{"android":"levelo://app?vid=4d052e3e-a802-4267-badd-35092e7d8120","ios":"levelo://app?vid=4d052e3e-a802-4267-badd-35092e7d8120"},"vehicle_type_id":"4","last_reported":1781280483,"current_range_meters":6000,"station_id":"ce4bho12rcd13ifvqh2g","pricing_plan_id":"cebpf4jnsgd1na2vs0mg"},{"bike_id":"52e0ca30-f6db-4b40-a595-fe3e1b7ca10e","system_id":"levelo_inurba_marseille","lat":43.26179,"lon":5.37446,"is_reserved":false,"is_disabled":true,"rental_uris":{"android":"levelo://app?vid=52e0ca30-f6db-4b40-a595-fe3e1b7ca10e","ios":"levelo://app?vid=52e0ca30-f6db-4b40-a595-fe3e1b7ca10e"},"vehicle_type_id":"4","last_reported":1781280483,"current_range_meters":6400,"station_id":"ce4bhgp2rcd13ifvqfc0","pricing_plan_id":"cebpf4jnsgd1na2vs0mg"},{"bike_id":"4865a1c5-afe2-4dda-8194-f69b08d22f31","system_id":"levelo_inurba_marseille","lat":43.25573,"lon":5.38246,"is_reserved":false,"is_disabled":false,"rental_uris":{"android":"levelo://app?vid=4865a1c5-afe2-4dda-8194-f69b08d22f31","ios":"levelo://app?vid=4865a1c5-afe2-4dda-8194-f69b08d22f31"},"vehicle_type_id":"4","last_reported":1781280483,"current_range_meters":6400,"station_id":"ce4bhih2rcd13ifvqfs0","pricing_plan_id":"cebpf4jnsgd1na2vs0mg"},{"bike_id":"1092cd7f-d680-45ee-8ff2-7815bf031c7e","system_id":"levelo_inurba_marseille","lat":43.31672,"lon":5.3775,"is_reserved":false,"is_disabled":false,"rental_uris":{"android":"levelo://app?vid=1092cd7f-d680-45ee-8ff2-7815bf031c7e","ios":"levelo://app?vid=1092cd7f-d680-45ee-8ff2-7815bf031c7e"},"vehicle_type_id":"4","last_reported":1781280483,"current_range_meters":6400,"station_id":"ce4bgth2rcd13ifvqch0","pricing_plan_id":"cebpf4jnsgd1na2vs0mg"},{"bike_id":"0e737488-eea1-4c79-a09b-4e4182d3e90a","system_id":"levelo_inurba_marseille","lat":43.26218,"lon":5.38761,"is_reserved":false,"is_disabled":false,"rental_uris":{"android":"levelo://app?vid=0e737488-eea1-4c79-a09b-4e4182d3e90a","ios":"levelo://app?vid=0e737488-eea1-4c79-a09b-4e4182d3e90a"},"vehicle_type_id":"4","last_reported":1781280483,"current_range_meters":6400,"station_id":"st_d8gjfg747rts73coq3b0","pricing_plan_id":"cebpf4jnsgd1na2vs0mg"},{"bike_id":"85521702-77e2-4e79-bcb3-2e3888b78ab7","system_id":"levelo_inurba_marseille","lat":43.28616,"lon":5.35108,"is_reserved":false,"is_disabled":false,"rental_uris":{"android":"levelo://app?vid=85521702-77e2-4e79-bcb3-2e3888b78ab7","ios":"levelo://app?vid=85521702-77e2-4e79-bcb3-2e3888b78ab7"},"vehicle_type_id":"4","last_reported":1781280483,"current_range_meters":6400,"station_id":"ce4bhch2rcd13ifvqeug","pricing_plan_id":"cebpf4jnsgd1na2vs0mg"},{"bike_id":"bde0745f-8bed-46f9-9719-ec52cdf00334","system_id":"levelo_inurba_marseille","lat":43.28405,"lon":5.34997,"is_reserved":false,"is_disabled":false,"rental_uris":{"android":"levelo://app?vid=bde0745f-8bed-46f9-9719-ec52cdf00334","ios":"levelo://app?vid=bde0745f-8bed-46f9-9719-ec52cdf00334"},"vehicle_type_id":"4","last_reported":1781280483,"current_range_meters":6400,"station_id":"ce4bhbh2rcd13ifvqepg","pricing_plan_id":"cebpf4jnsgd1na2vs0mg"},{"bike_id":"b105e559-ad92-41ad-9bdf-4bd2f454dd68","system_id":"levelo_inurba_marseille","lat":43.30173,"lon":5.44962,"is_reserved":false,"is_disabled":false,"rental_uris":{"android":"levelo://app?vid=b105e559-ad92-41ad-9bdf-4bd2f454dd68","ios":"levelo://app?vid=b105e559-ad92-41ad-9bdf-4bd2f454dd68"},"vehicle_type_id":"4","last_reported":1781280483,"current_range_meters":6400,"station_id":"","pricing_plan_id":"cebpf4jnsgd1na2vs0mg"},{"bike_id":"053da4ad-0e65-446d-a318-557af5f87dd1","system_id":"levelo_inurba_marseille","lat":43.22565,"lon":5.41628,"is_reserved":false,"is_disabled":false,"rental_uris":{"android":"levelo://app?vid=053da4ad-0e65-446d-a318-557af5f87dd1","ios":"levelo://app?vid=053da4ad-0e65-446d-a318-557af5f87dd1"},"vehicle_type_id":"4","last_reported":1781280483,"current_range_meters":6400,"station_id":"st_d2o4gvlbi1j2169b742g","pricing_plan_id":"cebpf4jnsgd1na2vs0mg"},{"bike_id":"1345c154-16ee-4ed3-b4f1-947a1b328d12","system_id":"levelo_inurba_marseille","lat":43.26223,"lon":5.38766,"is_reserved":false,"is_disabled":false,"rental_uris":{"android":"levelo://app?vid=1345c154-16ee-4ed3-b4f1-947a1b328d12","ios":"levelo://app?vid=1345c154-16ee-4ed3-b4f1-947a1b328d12"},"vehicle_type_id":"4","last_reported":1781280483,"current_range_meters":6400,"station_id":"st_d8gjfg747rts73coq3b0","pricing_plan_id":"cebpf4jnsgd1na2vs0mg"},{"bike_id":"5959399d-2a5a-4619-a6df-91439cbfbae4","system_id":"levelo_inurba_marseille","lat":43.27068,"lon":5.38301,"is_reserved":false,"is_disabled":false,"rental_uris":{"android":"levelo://app?vid=5959399d-2a5a-4619-a6df-91439cbfbae4","ios":"levelo://app?vid=5959399d-2a5a-4619-a6df-91439cbfbae4"},"vehicle_type_id":"4","last_reported":1781280483,"current_range_meters":6400,"station_id":"st_d3n2fo6cfp8s73cte1j0","pricing_plan_id":"cebpf4jnsgd1na2vs0mg"},{"bike_id":"c3b6afa1-ea6f-4696-bd7c-80ca8846d2ed","system_id":"levelo_inurba_marseille","lat":43.24816,"lon":5.37457,"is_reserved":false,"is_disabled":false,"rental_uris":{"android":"levelo://app?vid=c3b6afa1-ea6f-4696-bd7c-80ca8846d2ed","ios":"levelo://app?vid=c3b6afa1-ea6f-4696-bd7c-80ca8846d2ed"},"vehicle_type_id":"4","last_reported":1781280483,"current_range_meters":6400,"station_id":"ce4bhgh2rcd13ifvqfb0","pricing_plan_id":"cebpf4jnsgd1na2vs0mg"},{"bike_id":"9e36cfa1-09fe-4bd5-9827-624ec281fd82","system_id":"levelo_inurba_marseille","lat":43.26012,"lon":5.37569,"is_reserved":false,"is_disabled":false,"rental_uris":{"android":"levelo://app?vid=9e36cfa1-09fe-4bd5-9827-624ec281fd82","ios":"levelo://app?vid=9e36cfa1-09fe-4bd5-9827-624ec281fd82"},"vehicle_type_id":"4","last_reported":1781280483,"current_range_meters":6400,"station_id":"ce4bhgh2rcd13ifvqfa0","pricing_plan_id":"cebpf4jnsgd1na2vs0mg"},{"bike_id":"a4b5c841-081f-4864-9ad4-e1c7a6e60416","system_id":"levelo_inurba_marseille","lat":43.23794,"lon":5.3663,"is_reserved":false,"is_disabled":true,"rental_uris":{"android":"levelo://app?vid=a4b5c841-081f-4864-9ad4-e1c7a6e60416","ios":"levelo://app?vid=a4b5c841-081f-4864-9ad4-e1c7a6e60416"},"vehicle_type_id":"4","last_reported":1781280483,"current_range_meters":6400,"station_id":"st_d3nk18o9ro0c73en2l3g","pricing_plan_id":"cebpf4jnsgd1na2vs0mg"},{"bike_id":"fc270660-fce5-467d-84e8-529222ed67c5","system_id":"levelo_inurba_marseille","lat":43.29706,"lon":5.37697,"is_reserved":false,"is_disabled":false,"rental_uris":{"android":"levelo://app?vid=fc270660-fce5-467d-84e8-529222ed67c5","ios":"levelo://app?vid=fc270660-fce5-467d-84e8-529222ed67c5"},"vehicle_type_id":"4","last_reported":1781280483,"current_range_meters":6400,"station_id":"ce4bgkh2rcd13ifvqbl0","pricing_plan_id":"cebpf4jnsgd1na2vs0mg"},{"bike_id":"ea5f31f2-0a03-41eb-8879-5e9a308cb5cb","system_id":"levelo_inurba_marseille","lat":43.24168,"lon":5.36389,"is_reserved":false,"is_disabled":false,"rental_uris":{"android":"levelo://app?vid=ea5f31f2-0a03-41eb-8879-5e9a308cb5cb","ios":"levelo://app?vid=ea5f31f2-0a03-41eb-8879-5e9a308cb5cb"},"vehicle_type_id":"4","last_reported":1781280483,"current_range_meters":6400,"station_id":"cpo36qri1sfpv3e86is0","pricing_plan_id":"cebpf4jnsgd1na2vs0mg"},{"bike_id":"fddbf6a7-cfab-4481-914f-86a0d0db8fc2","system_id":"levelo_inurba_marseille","lat":43.26357,"lon":5.37816,"is_reserved":false,"is_disabled":false,"rental_uris":{"android":"levelo://app?vid=fddbf6a7-cfab-4481-914f-86a0d0db8fc2","ios":"levelo://app?vid=fddbf6a7-cfab-4481-914f-86a0d0db8fc2"},"vehicle_type_id":"4","last_reported":1781280483,"current_range_meters":6400,"station_id":"","pricing_plan_id":"cebpf4jnsgd1na2vs0mg"},{"bike_id":"6feeffa7-0d8b-4403-8bef-ba0ec747eb86","system_id":"levelo_inurba_marseille","lat":43.284098,"lon":5.349804,"is_reserved":false,"is_disabled":false,"rental_uris":{"android":"levelo://app?vid=6feeffa7-0d8b-4403-8bef-ba0ec747eb86","ios":"levelo://app?vid=6feeffa7-0d8b-4403-8bef-ba0ec747eb86"},"vehicle_type_id":"4","last_reported":1781280483,"current_range_meters":6800,"station_id":"ce4bhbh2rcd13ifvqepg","pricing_plan_id":"cebpf4jnsgd1na2vs0mg"},{"bike_id":"3e4303bd-4e13-42f8-ae0c-25a66192c901","system_id":"levelo_inurba_marseille","lat":43.31548,"lon":5.38792,"is_reserved":false,"is_disabled":false,"rental_uris":{"android":"levelo://app?vid=3e4303bd-4e13-42f8-ae0c-25a66192c901","ios":"levelo://app?vid=3e4303bd-4e13-42f8-ae0c-25a66192c901"},"vehicle_type_id":"4","last_reported":1781280483,"current_range_meters":6800,"station_id":"","pricing_plan_id":"cebpf4jnsgd1na2vs0mg"},{"bike_id":"47e2ebdd-5440-4ccb-81b3-e5a06178b36a","system_id":"levelo_inurba_marseille","lat":43.28997,"lon":5.35611,"is_reserved":false,"is_disabled":false,"rental_uris":{"android":"levelo://app?vid=47e2ebdd-5440-4ccb-81b3-e5a06178b36a","ios":"levelo://app?vid=47e2ebdd-5440-4ccb-81b3-e5a06178b36a"},"vehicle_type_id":"4","last_reported":1781280483,"current_range_meters":6800,"station_id":"ce4bhb92rcd13ifvqen0","pricing_plan_id":"cebpf4jnsgd1na2vs0mg"},{"bike_id":"346fa47a-465f-4a3c-bdd7-b4d43cc63d0c","system_id":"levelo_inurba_marseille","lat":43.26676,"lon":5.38262,"is_reserved":false,"is_disabled":false,"rental_uris":{"android":"levelo://app?vid=346fa47a-465f-4a3c-bdd7-b4d43cc63d0c","ios":"levelo://app?vid=346fa47a-465f-4a3c-bdd7-b4d43cc63d0c"},"vehicle_type_id":"4","last_reported":1781280483,"current_range_meters":6800,"station_id":"ce4bhg92rcd13ifvqf90","pricing_plan_id":"cebpf4jnsgd1na2vs0mg"},{"bike_id":"88d88840-9fc2-4a2e-b363-e13f413fcb82","system_id":"levelo_inurba_marseille","lat":43.31038,"lon":5.37141,"is_reserved":false,"is_disabled":false,"rental_uris":{"android":"levelo://app?vid=88d88840-9fc2-4a2e-b363-e13f413fcb82","ios":"levelo://app?vid=88d88840-9fc2-4a2e-b363-e13f413fcb82"},"vehicle_type_id":"4","last_reported":1781280483,"current_range_meters":6800,"station_id":"st_d4kl2rp97mjs73e7tdfg","pricing_plan_id":"cebpf4jnsgd1na2vs0mg"},{"bike_id":"c77e711e-e141-4d52-870e-72ea26fee60b","system_id":"levelo_inurba_marseille","lat":43.28404,"lon":5.35,"is_reserved":false,"is_disabled":false,"rental_uris":{"android":"levelo://app?vid=c77e711e-e141-4d52-870e-72ea26fee60b","ios":"levelo://app?vid=c77e711e-e141-4d52-870e-72ea26fee60b"},"vehicle_type_id":"4","last_reported":1781280483,"current_range_meters":6800,"station_id":"ce4bhbh2rcd13ifvqepg","pricing_plan_id":"cebpf4jnsgd1na2vs0mg"},{"bike_id":"0629c57f-b9a9-40a0-8ef0-10cf99c73bdb","system_id":"levelo_inurba_marseille","lat":43.26802,"lon":5.40292,"is_reserved":false,"is_disabled":false,"rental_uris":{"android":"levelo://app?vid=0629c57f-b9a9-40a0-8ef0-10cf99c73bdb","ios":"levelo://app?vid=0629c57f-b9a9-40a0-8ef0-10cf99c73bdb"},"vehicle_type_id":"4","last_reported":1781280483,"current_range_meters":6800,"station_id":"ce501612rcd8frsf0b60","pricing_plan_id":"cebpf4jnsgd1na2vs0mg"},{"bike_id":"e3282d76-32fe-4d9c-a7cf-bdec093f9f7f","system_id":"levelo_inurba_marseille","lat":43.22563,"lon":5.41628,"is_reserved":false,"is_disabled":false,"rental_uris":{"android":"levelo://app?vid=e3282d76-32fe-4d9c-a7cf-bdec093f9f7f","ios":"levelo://app?vid=e3282d76-32fe-4d9c-a7cf-bdec093f9f7f"},"vehicle_type_id":"4","last_reported":1781280483,"current_range_meters":6800,"station_id":"st_d2o4gvlbi1j2169b742g","pricing_plan_id":"cebpf4jnsgd1na2vs0mg"},{"bike_id":"2b090a87-f68e-425b-bb1c-698cd697d363","system_id":"levelo_inurba_marseille","lat":43.2861,"lon":5.35111,"is_reserved":false,"is_disabled":false,"rental_uris":{"android":"levelo://app?vid=2b090a87-f68e-425b-bb1c-698cd697d363","ios":"levelo://app?vid=2b090a87-f68e-425b-bb1c-698cd697d363"},"vehicle_type_id":"4","last_reported":1781280483,"current_range_meters":6800,"station_id":"ce4bhch2rcd13ifvqeug","pricing_plan_id":"cebpf4jnsgd1na2vs0mg"},{"bike_id":"5ab25b28-e35d-4f10-9ca9-7d658cce4ea9","system_id":"levelo_inurba_marseille","lat":43.2892,"lon":5.38399,"is_reserved":false,"is_disabled":true,"rental_uris":{"android":"levelo://app?vid=5ab25b28-e35d-4f10-9ca9-7d658cce4ea9","ios":"levelo://app?vid=5ab25b28-e35d-4f10-9ca9-7d658cce4ea9"},"vehicle_type_id":"4","last_reported":1781280483,"current_range_meters":6800,"station_id":"ce4bh612rcd13ifvqe6g","pricing_plan_id":"cebpf4jnsgd1na2vs0mg"},{"bike_id":"4fe49793-dab8-47a4-8e07-e5cce39fa637","system_id":"levelo_inurba_marseille","lat":43.30359,"lon":5.4188,"is_reserved":false,"is_disabled":false,"rental_uris":{"android":"levelo://app?vid=4fe49793-dab8-47a4-8e07-e5cce39fa637","ios":"levelo://app?vid=4fe49793-dab8-47a4-8e07-e5cce39fa637"},"vehicle_type_id":"4","last_reported":1781280483,"current_range_meters":6800,"station_id":"ce4bhop2rcd13ifvqh7g","pricing_plan_id":"cebpf4jnsgd1na2vs0mg"},{"bike_id":"a318bc01-9889-445e-ad9e-b36118278119","system_id":"levelo_inurba_marseille","lat":43.28602,"lon":5.35097,"is_reserved":false,"is_disabled":true,"rental_uris":{"android":"levelo://app?vid=a318bc01-9889-445e-ad9e-b36118278119","ios":"levelo://app?vid=a318bc01-9889-445e-ad9e-b36118278119"},"vehicle_type_id":"4","last_reported":1781280483,"current_range_meters":6800,"station_id":"ce4bhch2rcd13ifvqeug","pricing_plan_id":"cebpf4jnsgd1na2vs0mg"},{"bike_id":"dd60785d-8896-4a2e-ae51-f8ac5a078eb9","system_id":"levelo_inurba_marseille","lat":43.27614,"lon":5.36114,"is_reserved":false,"is_disabled":false,"rental_uris":{"android":"levelo://app?vid=dd60785d-8896-4a2e-ae51-f8ac5a078eb9","ios":"levelo://app?vid=dd60785d-8896-4a2e-ae51-f8ac5a078eb9"},"vehicle_type_id":"4","last_reported":1781280483,"current_range_meters":6800,"station_id":"ce4bgj92rcd13ifvqbe0","pricing_plan_id":"cebpf4jnsgd1na2vs0mg"},{"bike_id":"218352c5-a5bf-45e5-805b-bcaeab3ea825","system_id":"levelo_inurba_marseille","lat":43.32106,"lon":5.36767,"is_reserved":false,"is_disabled":false,"rental_uris":{"android":"levelo://app?vid=218352c5-a5bf-45e5-805b-bcaeab3ea825","ios":"levelo://app?vid=218352c5-a5bf-45e5-805b-bcaeab3ea825"},"vehicle_type_id":"4","last_reported":1781280483,"current_range_meters":6800,"station_id":"ce4bhrh2rcd13ifvqhug","pricing_plan_id":"cebpf4jnsgd1na2vs0mg"},{"bike_id":"eef24d57-603c-4500-beb2-cf1de9e80755","system_id":"levelo_inurba_marseille","lat":43.27834,"lon":5.39213,"is_reserved":false,"is_disabled":false,"rental_uris":{"android":"levelo://app?vid=eef24d57-603c-4500-beb2-cf1de9e80755","ios":"levelo://app?vid=eef24d57-603c-4500-beb2-cf1de9e80755"},"vehicle_type_id":"4","last_reported":1781280483,"current_range_meters":6800,"station_id":"ce4bhjp2rcd13ifvqga0","pricing_plan_id":"cebpf4jnsgd1na2vs0mg"},{"bike_id":"1d22919b-3a0e-43e5-ae35-c987c9be0809","system_id":"levelo_inurba_marseille","lat":43.3236,"lon":5.36721,"is_reserved":false,"is_disabled":false,"rental_uris":{"android":"levelo://app?vid=1d22919b-3a0e-43e5-ae35-c987c9be0809","ios":"levelo://app?vid=1d22919b-3a0e-43e5-ae35-c987c9be0809"},"vehicle_type_id":"4","last_reported":1781280483,"current_range_meters":7200,"station_id":"ce4bhsh2rcd13ifvqi2g","pricing_plan_id":"cebpf4jnsgd1na2vs0mg"},{"bike_id":"447c13e8-0bdf-430b-b2b8-dd3f93658135","system_id":"levelo_inurba_marseille","lat":43.25526,"lon":5.37662,"is_reserved":false,"is_disabled":false,"rental_uris":{"android":"levelo://app?vid=447c13e8-0bdf-430b-b2b8-dd3f93658135","ios":"levelo://app?vid=447c13e8-0bdf-430b-b2b8-dd3f93658135"},"vehicle_type_id":"4","last_reported":1781280483,"current_range_meters":7200,"station_id":"ce4bhh12rcd13ifvqff0","pricing_plan_id":"cebpf4jnsgd1na2vs0mg"},{"bike_id":"6cc20b9e-a748-4f98-aa2d-527ee79ef506","system_id":"levelo_inurba_marseille","lat":43.21191,"lon":5.35074,"is_reserved":false,"is_disabled":false,"rental_uris":{"android":"levelo://app?vid=6cc20b9e-a748-4f98-aa2d-527ee79ef506","ios":"levelo://app?vid=6cc20b9e-a748-4f98-aa2d-527ee79ef506"},"vehicle_type_id":"4","last_reported":1781280483,"current_range_meters":7200,"station_id":"st_cvj6sg6p6f1abm77japg","pricing_plan_id":"cebpf4jnsgd1na2vs0mg"},{"bike_id":"7c56fbf2-b06b-4ad4-bd6e-fb0ad9ba401c","system_id":"levelo_inurba_marseille","lat":43.287,"lon":5.37895,"is_reserved":false,"is_disabled":true,"rental_uris":{"android":"levelo://app?vid=7c56fbf2-b06b-4ad4-bd6e-fb0ad9ba401c","ios":"levelo://app?vid=7c56fbf2-b06b-4ad4-bd6e-fb0ad9ba401c"},"vehicle_type_id":"4","last_reported":1781280483,"current_range_meters":7200,"station_id":"ce4bh9p2rcd13ifvqec0","pricing_plan_id":"cebpf4jnsgd1na2vs0mg"},{"bike_id":"c2738aee-04ae-4a08-a244-46ec9d6d89b2","system_id":"levelo_inurba_marseille","lat":43.28311,"lon":5.4364,"is_reserved":false,"is_disabled":false,"rental_uris":{"android":"levelo://app?vid=c2738aee-04ae-4a08-a244-46ec9d6d89b2","ios":"levelo://app?vid=c2738aee-04ae-4a08-a244-46ec9d6d89b2"},"vehicle_type_id":"4","last_reported":1781280483,"current_range_meters":7200,"station_id":"","pricing_plan_id":"cebpf4jnsgd1na2vs0mg"},{"bike_id":"f312a474-3688-43e4-8515-a784a5c48528","system_id":"levelo_inurba_marseille","lat":43.2119,"lon":5.35076,"is_reserved":false,"is_disabled":true,"rental_uris":{"android":"levelo://app?vid=f312a474-3688-43e4-8515-a784a5c48528","ios":"levelo://app?vid=f312a474-3688-43e4-8515-a784a5c48528"},"vehicle_type_id":"4","last_reported":1781280483,"current_range_meters":7200,"station_id":"st_cvj6sg6p6f1abm77japg","pricing_plan_id":"cebpf4jnsgd1na2vs0mg"},{"bike_id":"d39db183-6bf7-420a-96f5-b25822544857","system_id":"levelo_inurba_marseille","lat":43.3235,"lon":5.3674,"is_reserved":false,"is_disabled":false,"rental_uris":{"android":"levelo://app?vid=d39db183-6bf7-420a-96f5-b25822544857","ios":"levelo://app?vid=d39db183-6bf7-420a-96f5-b25822544857"},"vehicle_type_id":"4","last_reported":1781280483,"current_range_meters":7200,"station_id":"ce4bhsh2rcd13ifvqi2g","pricing_plan_id":"cebpf4jnsgd1na2vs0mg"},{"bike_id":"0a498362-6055-45b2-b20e-22d7fcb34656","system_id":"levelo_inurba_marseille","lat":43.24809,"lon":5.37448,"is_reserved":false,"is_disabled":false,"rental_uris":{"android":"levelo://app?vid=0a498362-6055-45b2-b20e-22d7fcb34656","ios":"levelo://app?vid=0a498362-6055-45b2-b20e-22d7fcb34656"},"vehicle_type_id":"4","last_reported":1781280483,"current_range_meters":7200,"station_id":"ce4bhgh2rcd13ifvqfb0","pricing_plan_id":"cebpf4jnsgd1na2vs0mg"},{"bike_id":"43ff98d5-61c5-4fca-8ec9-b7d16f387183","system_id":"levelo_inurba_marseille","lat":43.25825,"lon":5.3943,"is_reserved":false,"is_disabled":false,"rental_uris":{"android":"levelo://app?vid=43ff98d5-61c5-4fca-8ec9-b7d16f387183","ios":"levelo://app?vid=43ff98d5-61c5-4fca-8ec9-b7d16f387183"},"vehicle_type_id":"4","last_reported":1781280483,"current_range_meters":7200,"station_id":"ce4bhip2rcd13ifvqft0","pricing_plan_id":"cebpf4jnsgd1na2vs0mg"},{"bike_id":"ac792a5d-5a22-459e-89d5-f8d014fa5d24","system_id":"levelo_inurba_marseille","lat":43.28067,"lon":5.39637,"is_reserved":false,"is_disabled":false,"rental_uris":{"android":"levelo://app?vid=ac792a5d-5a22-459e-89d5-f8d014fa5d24","ios":"levelo://app?vid=ac792a5d-5a22-459e-89d5-f8d014fa5d24"},"vehicle_type_id":"4","last_reported":1781280483,"current_range_meters":7200,"station_id":"ce4bho12rcd13ifvqh2g","pricing_plan_id":"cebpf4jnsgd1na2vs0mg"},{"bike_id":"83fc350a-c891-4b75-9f3e-ef0c7fe9b8fc","system_id":"levelo_inurba_marseille","lat":43.29688,"lon":5.37696,"is_reserved":false,"is_disabled":false,"rental_uris":{"android":"levelo://app?vid=83fc350a-c891-4b75-9f3e-ef0c7fe9b8fc","ios":"levelo://app?vid=83fc350a-c891-4b75-9f3e-ef0c7fe9b8fc"},"vehicle_type_id":"4","last_reported":1781280483,"current_range_meters":7200,"station_id":"ce4bgkh2rcd13ifvqbl0","pricing_plan_id":"cebpf4jnsgd1na2vs0mg"},{"bike_id":"a0d2ac5f-fff6-43f6-831d-dfa81e9c3981","system_id":"levelo_inurba_marseille","lat":43.29602,"lon":5.36421,"is_reserved":false,"is_disabled":false,"rental_uris":{"android":"levelo://app?vid=a0d2ac5f-fff6-43f6-831d-dfa81e9c3981","ios":"levelo://app?vid=a0d2ac5f-fff6-43f6-831d-dfa81e9c3981"},"vehicle_type_id":"4","last_reported":1781280483,"current_range_meters":7200,"station_id":"","pricing_plan_id":"cebpf4jnsgd1na2vs0mg"},{"bike_id":"ab96553f-a6fa-4bd2-b6f7-3219e86c5658","system_id":"levelo_inurba_marseille","lat":43.22576,"lon":5.41612,"is_reserved":false,"is_disabled":false,"rental_uris":{"android":"levelo://app?vid=ab96553f-a6fa-4bd2-b6f7-3219e86c5658","ios":"levelo://app?vid=ab96553f-a6fa-4bd2-b6f7-3219e86c5658"},"vehicle_type_id":"4","last_reported":1781280483,"current_range_meters":7200,"station_id":"st_d2o4gvlbi1j2169b742g","pricing_plan_id":"cebpf4jnsgd1na2vs0mg"},{"bike_id":"9dc9b135-8b58-4422-a60e-e87f851a5d9f","system_id":"levelo_inurba_marseille","lat":43.26062,"lon":5.39396,"is_reserved":false,"is_disabled":false,"rental_uris":{"android":"levelo://app?vid=9dc9b135-8b58-4422-a60e-e87f851a5d9f","ios":"levelo://app?vid=9dc9b135-8b58-4422-a60e-e87f851a5d9f"},"vehicle_type_id":"4","last_reported":1781280483,"current_range_meters":7200,"station_id":"ce4bhh92rcd13ifvqfj0","pricing_plan_id":"cebpf4jnsgd1na2vs0mg"},{"bike_id":"0e270971-144a-4b81-96c3-837805f60e9b","system_id":"levelo_inurba_marseille","lat":43.25502,"lon":5.37637,"is_reserved":false,"is_disabled":false,"rental_uris":{"android":"levelo://app?vid=0e270971-144a-4b81-96c3-837805f60e9b","ios":"levelo://app?vid=0e270971-144a-4b81-96c3-837805f60e9b"},"vehicle_type_id":"4","last_reported":1781280483,"current_range_meters":7200,"station_id":"ce4bhh12rcd13ifvqff0","pricing_plan_id":"cebpf4jnsgd1na2vs0mg"},{"bike_id":"1ca3a914-a55c-4637-a9ca-4ffd36fbecad","system_id":"levelo_inurba_marseille","lat":43.262214,"lon":5.387661,"is_reserved":false,"is_disabled":true,"rental_uris":{"android":"levelo://app?vid=1ca3a914-a55c-4637-a9ca-4ffd36fbecad","ios":"levelo://app?vid=1ca3a914-a55c-4637-a9ca-4ffd36fbecad"},"vehicle_type_id":"4","last_reported":1781280483,"current_range_meters":7200,"station_id":"st_d8gjfg747rts73coq3b0","pricing_plan_id":"cebpf4jnsgd1na2vs0mg"},{"bike_id":"7af5dc62-7a31-4d7c-a26c-927a2cb82321","system_id":"levelo_inurba_marseille","lat":43.32108,"lon":5.36778,"is_reserved":false,"is_disabled":false,"rental_uris":{"android":"levelo://app?vid=7af5dc62-7a31-4d7c-a26c-927a2cb82321","ios":"levelo://app?vid=7af5dc62-7a31-4d7c-a26c-927a2cb82321"},"vehicle_type_id":"4","last_reported":1781280483,"current_range_meters":7200,"station_id":"ce4bhrh2rcd13ifvqhug","pricing_plan_id":"cebpf4jnsgd1na2vs0mg"},{"bike_id":"dcb262d3-ffdd-46f6-a092-15fc7810f7f0","system_id":"levelo_inurba_marseille","lat":43.25487,"lon":5.37643,"is_reserved":false,"is_disabled":false,"rental_uris":{"android":"levelo://app?vid=dcb262d3-ffdd-46f6-a092-15fc7810f7f0","ios":"levelo://app?vid=dcb262d3-ffdd-46f6-a092-15fc7810f7f0"},"vehicle_type_id":"4","last_reported":1781280483,"current_range_meters":7200,"station_id":"ce4bhh12rcd13ifvqff0","pricing_plan_id":"cebpf4jnsgd1na2vs0mg"},{"bike_id":"2fbbca0d-74b5-435c-a66c-0bd5380d163a","system_id":"levelo_inurba_marseille","lat":43.28407,"lon":5.38513,"is_reserved":false,"is_disabled":false,"rental_uris":{"android":"levelo://app?vid=2fbbca0d-74b5-435c-a66c-0bd5380d163a","ios":"levelo://app?vid=2fbbca0d-74b5-435c-a66c-0bd5380d163a"},"vehicle_type_id":"4","last_reported":1781280483,"current_range_meters":7200,"station_id":"","pricing_plan_id":"cebpf4jnsgd1na2vs0mg"},{"bike_id":"d6706ef6-f448-44aa-bb47-e5abd5c54a0b","system_id":"levelo_inurba_marseille","lat":43.24813,"lon":5.37457,"is_reserved":false,"is_disabled":false,"rental_uris":{"android":"levelo://app?vid=d6706ef6-f448-44aa-bb47-e5abd5c54a0b","ios":"levelo://app?vid=d6706ef6-f448-44aa-bb47-e5abd5c54a0b"},"vehicle_type_id":"4","last_reported":1781280483,"current_range_meters":7200,"station_id":"ce4bhgh2rcd13ifvqfb0","pricing_plan_id":"cebpf4jnsgd1na2vs0mg"},{"bike_id":"afbe0fda-b03e-4d81-bee2-f21cf5c8355d","system_id":"levelo_inurba_marseille","lat":43.24158,"lon":5.36404,"is_reserved":false,"is_disabled":false,"rental_uris":{"android":"levelo://app?vid=afbe0fda-b03e-4d81-bee2-f21cf5c8355d","ios":"levelo://app?vid=afbe0fda-b03e-4d81-bee2-f21cf5c8355d"},"vehicle_type_id":"4","last_reported":1781280483,"current_range_meters":7200,"station_id":"cpo36qri1sfpv3e86is0","pricing_plan_id":"cebpf4jnsgd1na2vs0mg"},{"bike_id":"b154e503-5e6b-4b2c-aea8-7afe1c19122c","system_id":"levelo_inurba_marseille","lat":43.28108,"lon":5.42645,"is_reserved":false,"is_disabled":false,"rental_uris":{"android":"levelo://app?vid=b154e503-5e6b-4b2c-aea8-7afe1c19122c","ios":"levelo://app?vid=b154e503-5e6b-4b2c-aea8-7afe1c19122c"},"vehicle_type_id":"4","last_reported":1781280483,"current_range_meters":7200,"station_id":"","pricing_plan_id":"cebpf4jnsgd1na2vs0mg"},{"bike_id":"580bb4fe-2113-4882-8559-3c84c3b68f85","system_id":"levelo_inurba_marseille","lat":43.2622,"lon":5.38773,"is_reserved":false,"is_disabled":false,"rental_uris":{"android":"levelo://app?vid=580bb4fe-2113-4882-8559-3c84c3b68f85","ios":"levelo://app?vid=580bb4fe-2113-4882-8559-3c84c3b68f85"},"vehicle_type_id":"4","last_reported":1781280483,"current_range_meters":7200,"station_id":"st_d8gjfg747rts73coq3b0","pricing_plan_id":"cebpf4jnsgd1na2vs0mg"},{"bike_id":"a779f5b5-4ccf-4676-bec6-ade36cb6f146","system_id":"levelo_inurba_marseille","lat":43.27706,"lon":5.35686,"is_reserved":false,"is_disabled":false,"rental_uris":{"android":"levelo://app?vid=a779f5b5-4ccf-4676-bec6-ade36cb6f146","ios":"levelo://app?vid=a779f5b5-4ccf-4676-bec6-ade36cb6f146"},"vehicle_type_id":"4","last_reported":1781280483,"current_range_meters":7200,"station_id":"","pricing_plan_id":"cebpf4jnsgd1na2vs0mg"},{"bike_id":"1c088a56-c389-4146-b2df-78ef2395fc5b","system_id":"levelo_inurba_marseille","lat":43.26232,"lon":5.38949,"is_reserved":false,"is_disabled":false,"rental_uris":{"android":"levelo://app?vid=1c088a56-c389-4146-b2df-78ef2395fc5b","ios":"levelo://app?vid=1c088a56-c389-4146-b2df-78ef2395fc5b"},"vehicle_type_id":"4","last_reported":1781280483,"current_range_meters":8000,"station_id":"","pricing_plan_id":"cebpf4jnsgd1na2vs0mg"},{"bike_id":"9355951e-b041-446b-b93e-73dce11071c1","system_id":"levelo_inurba_marseille","lat":43.30304,"lon":5.37325,"is_reserved":false,"is_disabled":false,"rental_uris":{"android":"levelo://app?vid=9355951e-b041-446b-b93e-73dce11071c1","ios":"levelo://app?vid=9355951e-b041-446b-b93e-73dce11071c1"},"vehicle_type_id":"4","last_reported":1781280483,"current_range_meters":8000,"station_id":"","pricing_plan_id":"cebpf4jnsgd1na2vs0mg"},{"bike_id":"7ec5ac6c-1ad1-484e-b1ac-0dd6240aeac8","system_id":"levelo_inurba_marseille","lat":43.32104,"lon":5.36791,"is_reserved":false,"is_disabled":false,"rental_uris":{"android":"levelo://app?vid=7ec5ac6c-1ad1-484e-b1ac-0dd6240aeac8","ios":"levelo://app?vid=7ec5ac6c-1ad1-484e-b1ac-0dd6240aeac8"},"vehicle_type_id":"4","last_reported":1781280483,"current_range_meters":8000,"station_id":"ce4bhrh2rcd13ifvqhug","pricing_plan_id":"cebpf4jnsgd1na2vs0mg"},{"bike_id":"a517a97b-bbca-4c9e-81b7-6b6d7d8c723d","system_id":"levelo_inurba_marseille","lat":43.23896,"lon":5.37447,"is_reserved":false,"is_disabled":false,"rental_uris":{"android":"levelo://app?vid=a517a97b-bbca-4c9e-81b7-6b6d7d8c723d","ios":"levelo://app?vid=a517a97b-bbca-4c9e-81b7-6b6d7d8c723d"},"vehicle_type_id":"4","last_reported":1781280483,"current_range_meters":8000,"station_id":"st_d6sm7csbq4hs73f8fpjg","pricing_plan_id":"cebpf4jnsgd1na2vs0mg"},{"bike_id":"315d3cd3-9556-47d2-bf87-42573b9faa84","system_id":"levelo_inurba_marseille","lat":43.29905,"lon":5.38398,"is_reserved":false,"is_disabled":false,"rental_uris":{"android":"levelo://app?vid=315d3cd3-9556-47d2-bf87-42573b9faa84","ios":"levelo://app?vid=315d3cd3-9556-47d2-bf87-42573b9faa84"},"vehicle_type_id":"4","last_reported":1781280483,"current_range_meters":8000,"station_id":"","pricing_plan_id":"cebpf4jnsgd1na2vs0mg"},{"bike_id":"799e9102-cccf-412f-9007-e1a602a4739b","system_id":"levelo_inurba_marseille","lat":43.26205,"lon":5.37445,"is_reserved":false,"is_disabled":false,"rental_uris":{"android":"levelo://app?vid=799e9102-cccf-412f-9007-e1a602a4739b","ios":"levelo://app?vid=799e9102-cccf-412f-9007-e1a602a4739b"},"vehicle_type_id":"4","last_reported":1781280483,"current_range_meters":8000,"station_id":"ce4bhgp2rcd13ifvqfc0","pricing_plan_id":"cebpf4jnsgd1na2vs0mg"},{"bike_id":"670c8bb8-7b6c-44f1-b063-bc57f5908415","system_id":"levelo_inurba_marseille","lat":43.28414,"lon":5.34982,"is_reserved":false,"is_disabled":false,"rental_uris":{"android":"levelo://app?vid=670c8bb8-7b6c-44f1-b063-bc57f5908415","ios":"levelo://app?vid=670c8bb8-7b6c-44f1-b063-bc57f5908415"},"vehicle_type_id":"4","last_reported":1781280483,"current_range_meters":8000,"station_id":"ce4bhbh2rcd13ifvqepg","pricing_plan_id":"cebpf4jnsgd1na2vs0mg"},{"bike_id":"ed734acb-8029-4ea8-881a-80e055834581","system_id":"levelo_inurba_marseille","lat":43.264909,"lon":5.395472,"is_reserved":false,"is_disabled":false,"rental_uris":{"android":"levelo://app?vid=ed734acb-8029-4ea8-881a-80e055834581","ios":"levelo://app?vid=ed734acb-8029-4ea8-881a-80e055834581"},"vehicle_type_id":"4","last_reported":1781280483,"current_range_meters":8000,"station_id":"ce4bhi12rcd13ifvqfq0","pricing_plan_id":"cebpf4jnsgd1na2vs0mg"},{"bike_id":"6b705251-17d1-4fae-8695-7c2613a36429","system_id":"levelo_inurba_marseille","lat":43.28279,"lon":5.35057,"is_reserved":false,"is_disabled":false,"rental_uris":{"android":"levelo://app?vid=6b705251-17d1-4fae-8695-7c2613a36429","ios":"levelo://app?vid=6b705251-17d1-4fae-8695-7c2613a36429"},"vehicle_type_id":"4","last_reported":1781280483,"current_range_meters":8000,"station_id":"ce4bhbp2rcd13ifvqerg","pricing_plan_id":"cebpf4jnsgd1na2vs0mg"},{"bike_id":"b642b880-37da-4104-9320-d842e35465fd","system_id":"levelo_inurba_marseille","lat":43.28623,"lon":5.35097,"is_reserved":false,"is_disabled":false,"rental_uris":{"android":"levelo://app?vid=b642b880-37da-4104-9320-d842e35465fd","ios":"levelo://app?vid=b642b880-37da-4104-9320-d842e35465fd"},"vehicle_type_id":"4","last_reported":1781280483,"current_range_meters":8000,"station_id":"ce4bhch2rcd13ifvqeug","pricing_plan_id":"cebpf4jnsgd1na2vs0mg"},{"bike_id":"ee15dc59-5cc6-4e4d-b92a-0fcd14ada449","system_id":"levelo_inurba_marseille","lat":43.28038,"lon":5.38364,"is_reserved":false,"is_disabled":false,"rental_uris":{"android":"levelo://app?vid=ee15dc59-5cc6-4e4d-b92a-0fcd14ada449","ios":"levelo://app?vid=ee15dc59-5cc6-4e4d-b92a-0fcd14ada449"},"vehicle_type_id":"4","last_reported":1781280483,"current_range_meters":8000,"station_id":"","pricing_plan_id":"cebpf4jnsgd1na2vs0mg"},{"bike_id":"f57ddc5d-b3ad-43f3-bbc4-226ea7be866d","system_id":"levelo_inurba_marseille","lat":43.29853,"lon":5.42272,"is_reserved":false,"is_disabled":false,"rental_uris":{"android":"levelo://app?vid=f57ddc5d-b3ad-43f3-bbc4-226ea7be866d","ios":"levelo://app?vid=f57ddc5d-b3ad-43f3-bbc4-226ea7be866d"},"vehicle_type_id":"4","last_reported":1781280483,"current_range_meters":8000,"station_id":"","pricing_plan_id":"cebpf4jnsgd1na2vs0mg"},{"bike_id":"fb2a1f7d-f7e9-4d12-bb3c-32e8cd55f82d","system_id":"levelo_inurba_marseille","lat":43.29068,"lon":5.4426,"is_reserved":false,"is_disabled":false,"rental_uris":{"android":"levelo://app?vid=fb2a1f7d-f7e9-4d12-bb3c-32e8cd55f82d","ios":"levelo://app?vid=fb2a1f7d-f7e9-4d12-bb3c-32e8cd55f82d"},"vehicle_type_id":"4","last_reported":1781280483,"current_range_meters":8000,"station_id":"","pricing_plan_id":"cebpf4jnsgd1na2vs0mg"},{"bike_id":"11b3084a-10a1-4df1-a3fb-88c609563994","system_id":"levelo_inurba_marseille","lat":43.31321,"lon":5.39714,"is_reserved":false,"is_disabled":false,"rental_uris":{"android":"levelo://app?vid=11b3084a-10a1-4df1-a3fb-88c609563994","ios":"levelo://app?vid=11b3084a-10a1-4df1-a3fb-88c609563994"},"vehicle_type_id":"4","last_reported":1781280483,"current_range_meters":8000,"station_id":"ce4bgvp2rcd13ifvqcu0","pricing_plan_id":"cebpf4jnsgd1na2vs0mg"},{"bike_id":"a3588eff-3c5a-47a2-af92-efa4744cbead","system_id":"levelo_inurba_marseille","lat":43.24384,"lon":5.3705,"is_reserved":false,"is_disabled":false,"rental_uris":{"android":"levelo://app?vid=a3588eff-3c5a-47a2-af92-efa4744cbead","ios":"levelo://app?vid=a3588eff-3c5a-47a2-af92-efa4744cbead"},"vehicle_type_id":"4","last_reported":1781280483,"current_range_meters":8000,"station_id":"ce4bhhh2rcd13ifvqfk0","pricing_plan_id":"cebpf4jnsgd1na2vs0mg"},{"bike_id":"f96f9850-1fa1-4da0-b9b2-06c64b7f75d3","system_id":"levelo_inurba_marseille","lat":43.26036,"lon":5.3754,"is_reserved":false,"is_disabled":false,"rental_uris":{"android":"levelo://app?vid=f96f9850-1fa1-4da0-b9b2-06c64b7f75d3","ios":"levelo://app?vid=f96f9850-1fa1-4da0-b9b2-06c64b7f75d3"},"vehicle_type_id":"4","last_reported":1781280483,"current_range_meters":8000,"station_id":"ce4bhgh2rcd13ifvqfa0","pricing_plan_id":"cebpf4jnsgd1na2vs0mg"},{"bike_id":"9baebc47-9a21-445a-b575-5e8cc4ed7549","system_id":"levelo_inurba_marseille","lat":43.28476,"lon":5.48397,"is_reserved":false,"is_disabled":false,"rental_uris":{"android":"levelo://app?vid=9baebc47-9a21-445a-b575-5e8cc4ed7549","ios":"levelo://app?vid=9baebc47-9a21-445a-b575-5e8cc4ed7549"},"vehicle_type_id":"4","last_reported":1781280483,"current_range_meters":8000,"station_id":"st_d3svhcjqgbts73a3dn0g","pricing_plan_id":"cebpf4jnsgd1na2vs0mg"},{"bike_id":"05953677-f427-4e3b-9693-6fa8817f0aee","system_id":"levelo_inurba_marseille","lat":43.267195,"lon":5.38238,"is_reserved":false,"is_disabled":false,"rental_uris":{"android":"levelo://app?vid=05953677-f427-4e3b-9693-6fa8817f0aee","ios":"levelo://app?vid=05953677-f427-4e3b-9693-6fa8817f0aee"},"vehicle_type_id":"4","last_reported":1781280483,"current_range_meters":8000,"station_id":"ce4bhg92rcd13ifvqf90","pricing_plan_id":"cebpf4jnsgd1na2vs0mg"},{"bike_id":"6e4387d7-bd16-4a30-af78-71416e460c6d","system_id":"levelo_inurba_marseille","lat":43.30827,"lon":5.38427,"is_reserved":false,"is_disabled":false,"rental_uris":{"android":"levelo://app?vid=6e4387d7-bd16-4a30-af78-71416e460c6d","ios":"levelo://app?vid=6e4387d7-bd16-4a30-af78-71416e460c6d"},"vehicle_type_id":"4","last_reported":1781280483,"current_range_meters":8000,"station_id":"","pricing_plan_id":"cebpf4jnsgd1na2vs0mg"},{"bike_id":"a80c2580-5bf7-4a86-b2d1-488615406ba4","system_id":"levelo_inurba_marseille","lat":43.29046,"lon":5.42623,"is_reserved":false,"is_disabled":false,"rental_uris":{"android":"levelo://app?vid=a80c2580-5bf7-4a86-b2d1-488615406ba4","ios":"levelo://app?vid=a80c2580-5bf7-4a86-b2d1-488615406ba4"},"vehicle_type_id":"4","last_reported":1781280483,"current_range_meters":8000,"station_id":"","pricing_plan_id":"cebpf4jnsgd1na2vs0mg"},{"bike_id":"6dc7cd75-fec3-4d9c-aff4-ab68a788d9d6","system_id":"levelo_inurba_marseille","lat":43.28537,"lon":5.44098,"is_reserved":false,"is_disabled":false,"rental_uris":{"android":"levelo://app?vid=6dc7cd75-fec3-4d9c-aff4-ab68a788d9d6","ios":"levelo://app?vid=6dc7cd75-fec3-4d9c-aff4-ab68a788d9d6"},"vehicle_type_id":"4","last_reported":1781280483,"current_range_meters":8000,"station_id":"st_d3j3df2ikq2c7380ej80","pricing_plan_id":"cebpf4jnsgd1na2vs0mg"},