{"last_updated":1751019095,"ttl":60,"version":"2.2","data":{"bikes":[{"bike_id":"3da29fb8-fc97-44c6-b9ac-31dd456b2fd4","system_id":"levelo_inurba_marseille","lat":43.33771,"lon":5.37424,"is_reserved":false,"is_disabled":true,"rental_uris":{"android":"levelo://app?vid=3da29fb8-fc97-44c6-b9ac-31dd456b2fd4","ios":"levelo://app?vid=3da29fb8-fc97-44c6-b9ac-31dd456b2fd4"},"vehicle_type_id":"4","last_reported":1751019095,"current_range_meters":0,"station_id":"","pricing_plan_id":"cebpf4jnsgd1na2vs0mg"},{"bike_id":"01861ad8-a8d7-4be6-816e-651927c87584","system_id":"levelo_inurba_marseille","lat":43.33751,"lon":5.37456,"is_reserved":false,"is_disabled":true,"rental_uris":{"android":"levelo://app?vid=01861ad8-a8d7-4be6-816e-651927c87584","ios":"levelo://app?vid=01861ad8-a8d7-4be6-816e-651927c87584"},"vehicle_type_id":"4","last_reported":1751019095,"current_range_meters":0,"station_id":"","pricing_plan_id":"cebpf4jnsgd1na2vs0mg"},{"bike_id":"a147e67d-e0b1-425e-bbda-ae9524df353e","system_id":"levelo_inurba_marseille","lat":43.337541,"lon":5.374577,"is_reserved":false,"is_disabled":true,"rental_uris":{"android":"levelo://app?vid=a147e67d-e0b1-425e-bbda-ae9524df353e","ios":"levelo://app?vid=a147e67d-e0b1-425e-bbda-ae9524df353e"},"vehicle_type_id":"4","last_reported":1751019095,"current_range_meters":0,"station_id":"","pricing_plan_id":"cebpf4jnsgd1na2vs0mg"},{"bike_id":"d7ab0e84-3bbe-4115-b0ab-ab05a5f13dfd","system_id":"levelo_inurba_marseille","lat":43.3306,"lon":5.40996,"is_reserved":false,"is_disabled":true,"rental_uris":{"android":"levelo://app?vid=d7ab0e84-3bbe-4115-b0ab-ab05a5f13dfd","ios":"levelo://app?vid=d7ab0e84-3bbe-4115-b0ab-ab05a5f13dfd"},"vehicle_type_id":"4","last_reported":1751019095,"current_range_meters":0,"station_id":"","pricing_plan_id":"cebpf4jnsgd1na2vs0mg"},{"bike_id":"2c5ab5ef-6e3c-47bf-9405-4e96ff645858","system_id":"levelo_inurba_marseille","lat":43.340251,"lon":5.429008,"is_reserved":false,"is_disabled":true,"rental_uris":{"android":"levelo://app?vid=2c5ab5ef-6e3c-47bf-9405-4e96ff645858","ios":"levelo://app?vid=2c5ab5ef-6e3c-47bf-9405-4e96ff645858"},"vehicle_type_id":"4","last_reported":1751019095,"current_range_meters":0,"station_id":"","pricing_plan_id":"cebpf4jnsgd1na2vs0mg"},{"bike_id":"4d064f95-6dcb-4234-9e98-7c70fbb74351","system_id":"levelo_inurba_marseille","lat":43.337444,"lon":5.374475,"is_reserved":false,"is_disabled":true,"rental_uris":{"android":"levelo://app?vid=4d064f95-6dcb-4234-9e98-7c70fbb74351","ios":"levelo://app?vid=4d064f95-6dcb-4234-9e98-7c70fbb74351"},"vehicle_type_id":"4","last_reported":1751019095,"current_range_meters":0,"station_id":"","pricing_plan_id":"cebpf4jnsgd1na2vs0mg"},{"bike_id":"d6609b4f-333b-43c1-9ebe-8726f5e76e88","system_id":"levelo_inurba_marseille","lat":43.337444,"lon":5.374475,"is_reserved":false,"is_disabled":true,"rental_uris":{"android":"levelo://app?vid=d6609b4f-333b-43c1-9ebe-8726f5e76e88","ios":"levelo://app?vid=d6609b4f-333b-43c1-9ebe-8726f5e76e88"},"vehicle_type_id":"4","last_reported":1751019095,"current_range_meters":0,"station_id":"","pricing_plan_id":"cebpf4jnsgd1na2vs0mg"},{"bike_id":"14903f35-1eaf-4a5d-86c3-23007b361999","system_id":"levelo_inurba_marseille","lat":43.27064,"lon":5.42274,"is_reserved":false,"is_disabled":true,"rental_uris":{"android":"levelo://app?vid=14903f35-1eaf-4a5d-86c3-23007b361999","ios":"levelo://app?vid=14903f35-1eaf-4a5d-86c3-23007b361999"},"vehicle_type_id":"4","last_reported":1751019095,"current_range_meters":0,"station_id":"","pricing_plan_id":"cebpf4jnsgd1na2vs0mg"},{"bike_id":"bf027107-0fe5-47a2-8fef-6473f83bb647","system_id":"levelo_inurba_marseille","lat":43.32954,"lon":5.36426,"is_reserved":false,"is_disabled":true,"rental_uris":{"android":"levelo://app?vid=bf027107-0fe5-47a2-8fef-6473f83bb647","ios":"levelo://app?vid=bf027107-0fe5-47a2-8fef-6473f83bb647"},"vehicle_type_id":"4","last_reported":1751019095,"current_range_meters":0,"station_id":"","pricing_plan_id":"cebpf4jnsgd1na2vs0mg"},{"bike_id":"b17b6606-336a-4606-9b65-af139c49de26","system_id":"levelo_inurba_marseille","lat":43.256715,"lon":5.426904,"is_reserved":false,"is_disabled":true,"rental_uris":{"android":"levelo://app?vid=b17b6606-336a-4606-9b65-af139c49de26","ios":"levelo://app?vid=b17b6606-336a-4606-9b65-af139c49de26"},"vehicle_type_id":"4","last_reported":1751019095,"current_range_meters":0,"station_id":"","pricing_plan_id":"cebpf4jnsgd1na2vs0mg"},{"bike_id":"9d3724b1-0dc8-4689-9d6a-55005a9503cb","system_id":"levelo_inurba_marseille","lat":43.28618,"lon":5.42816,"is_reserved":false,"is_disabled":true,"rental_uris":{"android":"levelo://app?vid=9d3724b1-0dc8-4689-9d6a-55005a9503cb","ios":"levelo://app?vid=9d3724b1-0dc8-4689-9d6a-55005a9503cb"},"vehicle_type_id":"4","last_reported":1751019095,"current_range_meters":0,"station_id":"","pricing_plan_id":"cebpf4jnsgd1na2vs0mg"},{"bike_id":"ce774a04-a4be-4eca-a30f-78eb921955bd","system_id":"levelo_inurba_marseille","lat":43.33867,"lon":5.35511,"is_reserved":false,"is_disabled":true,"rental_uris":{"android":"levelo://app?vid=ce774a04-a4be-4eca-a30f-78eb921955bd","ios":"levelo://app?vid=ce774a04-a4be-4eca-a30f-78eb921955bd"},"vehicle_type_id":"4","last_reported":1751019095,"current_range_meters":0,"station_id":"","pricing_plan_id":"cebpf4jnsgd1na2vs0mg"},{"bike_id":"242b9084-2bbf-4482-b994-16c82e2a4195","system_id":"levelo_inurba_marseille","lat":43.32658,"lon":5.42152,"is_reserved":false,"is_disabled":true,"rental_uris":{"android":"levelo://app?vid=242b9084-2bbf-4482-b994-16c82e2a4195","ios":"levelo://app?vid=242b9084-2bbf-4482-b994-16c82e2a4195"},"vehicle_type_id":"4","last_reported":1751019095,"current_range_meters":0,"station_id":"","pricing_plan_id":"cebpf4jnsgd1na2vs0mg"},{"bike_id":"eb21ffff-317b-4048-aeea-dc9659b48eff","system_id":"levelo_inurba_marseille","lat":43.30309,"lon":5.39196,"is_reserved":false,"is_disabled":true,"rental_uris":{"android":"levelo://app?vid=eb21ffff-317b-4048-aeea-dc9659b48eff","ios":"levelo://app?vid=eb21ffff-317b-4048-aeea-dc9659b48eff"},"vehicle_type_id":"4","last_reported":1751019095,"current_range_meters":0,"station_id":"ce4bgkh2rcd13ifvqbk0","pricing_plan_id":"cebpf4jnsgd1na2vs0mg"},{"bike_id":"e86da517-2d21-4407-a61c-94a6c684f84f","system_id":"levelo_inurba_marseille","lat":43.337444,"lon":5.374475,"is_reserved":false,"is_disabled":true,"rental_uris":{"android":"levelo://app?vid=e86da517-2d21-4407-a61c-94a6c684f84f","ios":"levelo://app?vid=e86da517-2d21-4407-a61c-94a6c684f84f"},"vehicle_type_id":"4","last_reported":1751019095,"current_range_meters":0,"station_id":"ce4bgnh2rcd13ifvqc0g","pricing_plan_id":"cebpf4jnsgd1na2vs0mg"},{"bike_id":"31a6fb42-35ee-414d-8700-83fe7afaaf3b","system_id":"levelo_inurba_marseille","lat":43.284055,"lon":5.38139,"is_reserved":false,"is_disabled":true,"rental_uris":{"android":"levelo://app?vid=31a6fb42-35ee-414d-8700-83fe7afaaf3b","ios":"levelo://app?vid=31a6fb42-35ee-414d-8700-83fe7afaaf3b"},"vehicle_type_id":"4","last_reported":1751019095,"current_range_meters":0,"station_id":"ce4bh412rcd13ifvqdr0","pricing_plan_id":"cebpf4jnsgd1na2vs0mg"},{"bike_id":"138b5e13-3b4b-4a07-9470-bc68687ae928","system_id":"levelo_inurba_marseille","lat":43.28486,"lon":5.38413,"is_reserved":false,"is_disabled":true,"rental_uris":{"android":"levelo://app?vid=138b5e13-3b4b-4a07-9470-bc68687ae928","ios":"levelo://app?vid=138b5e13-3b4b-4a07-9470-bc68687ae928"},"vehicle_type_id":"4","last_reported":1751019095,"current_range_meters":0,"station_id":"ce4bh512rcd13ifvqe3g","pricing_plan_id":"cebpf4jnsgd1na2vs0mg"},{"bike_id":"c63243f1-b402-4804-9438-90ac0f7d3b31","system_id":"levelo_inurba_marseille","lat":43.28474,"lon":5.38431,"is_reserved":false,"is_disabled":true,"rental_uris":{"android":"levelo://app?vid=c63243f1-b402-4804-9438-90ac0f7d3b31","ios":"levelo://app?vid=c63243f1-b402-4804-9438-90ac0f7d3b31"},"vehicle_type_id":"4","last_reported":1751019095,"current_range_meters":0,"station_id":"ce4bh512rcd13ifvqe3g","pricing_plan_id":"cebpf4jnsgd1na2vs0mg"},{"bike_id":"f0977316-a453-4ea8-8bc5-6f2f324b49f2","system_id":"levelo_inurba_marseille","lat":43.26192,"lon":5.374473,"is_reserved":false,"is_disabled":true,"rental_uris":{"android":"levelo://app?vid=f0977316-a453-4ea8-8bc5-6f2f324b49f2","ios":"levelo://app?vid=f0977316-a453-4ea8-8bc5-6f2f324b49f2"},"vehicle_type_id":"4","last_reported":1751019095,"current_range_meters":0,"station_id":"ce4bhgp2rcd13ifvqfc0","pricing_plan_id":"cebpf4jnsgd1na2vs0mg"},{"bike_id":"df14c15e-1c69-4493-a8b1-f29916d34673","system_id":"levelo_inurba_marseille","lat":43.2721,"lon":5.39182,"is_reserved":false,"is_disabled":true,"rental_uris":{"android":"levelo://app?vid=df14c15e-1c69-4493-a8b1-f29916d34673","ios":"levelo://app?vid=df14c15e-1c69-4493-a8b1-f29916d34673"},"vehicle_type_id":"4","last_reported":1751019095,"current_range_meters":0,"station_id":"ce4bhhp2rcd13ifvqfm0","pricing_plan_id":"cebpf4jnsgd1na2vs0mg"},{"bike_id":"b5b34be9-07b5-4db7-963c-2c7146c1cfd1","system_id":"levelo_inurba_marseille","lat":43.27196,"lon":5.40987,"is_reserved":false,"is_disabled":true,"rental_uris":{"android":"levelo://app?vid=b5b34be9-07b5-4db7-963c-2c7146c1cfd1","ios":"levelo://app?vid=b5b34be9-07b5-4db7-963c-2c7146c1cfd1"},"vehicle_type_id":"4","last_reported":1751019095,"current_range_meters":0,"station_id":"ce4bhl12rcd13ifvqgf0","pricing_plan_id":"cebpf4jnsgd1na2vs0mg"},{"bike_id":"ae838b2e-74e1-4ab3-b3f8-d1208753850a","system_id":"levelo_inurba_marseille","lat":43.23188,"lon":5.35555,"is_reserved":false,"is_disabled":true,"rental_uris":{"android":"levelo://app?vid=ae838b2e-74e1-4ab3-b3f8-d1208753850a","ios":"levelo://app?vid=ae838b2e-74e1-4ab3-b3f8-d1208753850a"},"vehicle_type_id":"4","last_reported":1751019095,"current_range_meters":0,"station_id":"ce4bhu92rcd13ifvqi70","pricing_plan_id":"cebpf4jnsgd1na2vs0mg"},{"bike_id":"67a5051a-b32e-408a-8389-c22b54eb81f6","system_id":"levelo_inurba_marseille","lat":43.33037,"lon":5.45602,"is_reserved":false,"is_disabled":true,"rental_uris":{"android":"levelo://app?vid=67a5051a-b32e-408a-8389-c22b54eb81f6","ios":"levelo://app?vid=67a5051a-b32e-408a-8389-c22b54eb81f6"},"vehicle_type_id":"4","last_reported":1751019095,"current_range_meters":400,"station_id":"","pricing_plan_id":"cebpf4jnsgd1na2vs0mg"},{"bike_id":"446c66be-a677-44c2-9116-79a23398a824","system_id":"levelo_inurba_marseille","lat":43.27625,"lon":5.43169,"is_reserved":false,"is_disabled":true,"rental_uris":{"android":"levelo://app?vid=446c66be-a677-44c2-9116-79a23398a824","ios":"levelo://app?vid=446c66be-a677-44c2-9116-79a23398a824"},"vehicle_type_id":"4","last_reported":1751019095,"current_range_meters":400,"station_id":"","pricing_plan_id":"cebpf4jnsgd1na2vs0mg"},{"bike_id":"623ceb34-b06e-4b6a-899a-b815ef2d1bf8","system_id":"levelo_inurba_marseille","lat":43.29616,"lon":5.37215,"is_reserved":false,"is_disabled":true,"rental_uris":{"android":"levelo://app?vid=623ceb34-b06e-4b6a-899a-b815ef2d1bf8","ios":"levelo://app?vid=623ceb34-b06e-4b6a-899a-b815ef2d1bf8"},"vehicle_type_id":"4","last_reported":1751019095,"current_range_meters":400,"station_id":"","pricing_plan_id":"cebpf4jnsgd1na2vs0mg"},{"bike_id":"0567599e-5d35-4d81-a403-1e7c2e075187","system_id":"levelo_inurba_marseille","lat":43.27571,"lon":5.384163,"is_reserved":false,"is_disabled":true,"rental_uris":{"android":"levelo://app?vid=0567599e-5d35-4d81-a403-1e7c2e075187","ios":"levelo://app?vid=0567599e-5d35-4d81-a403-1e7c2e075187"},"vehicle_type_id":"4","last_reported":1751019095,"current_range_meters":400,"station_id":"ce4bhh92rcd13ifvqfi0","pricing_plan_id":"cebpf4jnsgd1na2vs0mg"},{"bike_id":"a1ae4fee-cbeb-43dc-a969-5827f87e448d","system_id":"levelo_inurba_marseille","lat":43.383929,"lon":5.365261,"is_reserved":false,"is_disabled":true,"rental_uris":{"android":"levelo://app?vid=a1ae4fee-cbeb-43dc-a969-5827f87e448d","ios":"levelo://app?vid=a1ae4fee-cbeb-43dc-a969-5827f87e448d"},"vehicle_type_id":"4","last_reported":1751019095,"current_range_meters":800,"station_id":"","pricing_plan_id":"cebpf4jnsgd1na2vs0mg"},{"bike_id":"b8883780-a97a-49b6-8e37-bd7c6555e69e","system_id":"levelo_inurba_marseille","lat":43.30595,"lon":5.39351,"is_reserved":false,"is_disabled":true,"rental_uris":{"android":"levelo://app?vid=b8883780-a97a-49b6-8e37-bd7c6555e69e","ios":"levelo://app?vid=b8883780-a97a-49b6-8e37-bd7c6555e69e"},"vehicle_type_id":"4","last_reported":1751019095,"current_range_meters":800,"station_id":"ce4bh0p2rcd13ifvqd80","pricing_plan_id":"cebpf4jnsgd1na2vs0mg"},{"bike_id":"651754ee-f0d6-49f8-8ca3-abbdc3df12e1","system_id":"levelo_inurba_marseille","lat":43.26559,"lon":5.37283,"is_reserved":false,"is_disabled":true,"rental_uris":{"android":"levelo://app?vid=651754ee-f0d6-49f8-8ca3-abbdc3df12e1","ios":"levelo://app?vid=651754ee-f0d6-49f8-8ca3-abbdc3df12e1"},"vehicle_type_id":"4","last_reported":1751019095,"current_range_meters":800,"station_id":"ce4bhg12rcd13ifvqf70","pricing_plan_id":"cebpf4jnsgd1na2vs0mg"},{"bike_id":"d97ce13b-cd65-484e-bd13-69703b60ce6d","system_id":"levelo_inurba_marseille","lat":43.31354,"lon":5.38506,"is_reserved":false,"is_disabled":true,"rental_uris":{"android":"levelo://app?vid=d97ce13b-cd65-484e-bd13-69703b60ce6d","ios":"levelo://app?vid=d97ce13b-cd65-484e-bd13-69703b60ce6d"},"vehicle_type_id":"4","last_reported":1751019095,"current_range_meters":1200,"station_id":"ce4bgt92rcd13ifvqcf0","pricing_plan_id":"cebpf4jnsgd1na2vs0mg"},{"bike_id":"44bb87d6-107b-4193-8c25-f422424de429","system_id":"levelo_inurba_marseille","lat":43.30089,"lon":5.39069,"is_reserved":false,"is_disabled":true,"rental_uris":{"android":"levelo://app?vid=44bb87d6-107b-4193-8c25-f422424de429","ios":"levelo://app?vid=44bb87d6-107b-4193-8c25-f422424de429"},"vehicle_type_id":"4","last_reported":1751019095,"current_range_meters":1200,"station_id":"ce4bh192rcd13ifvqdb0","pricing_plan_id":"cebpf4jnsgd1na2vs0mg"},{"bike_id":"963e5e85-0de7-4b7c-a81c-d70f05d22694","system_id":"levelo_inurba_marseille","lat":43.33726,"lon":5.3918,"is_reserved":false,"is_disabled":true,"rental_uris":{"android":"levelo://app?vid=963e5e85-0de7-4b7c-a81c-d70f05d22694","ios":"levelo://app?vid=963e5e85-0de7-4b7c-a81c-d70f05d22694"},"vehicle_type_id":"4","last_reported":1751019095,"current_range_meters":1600,"station_id":"ce4bhr92rcd13ifvqhsg","pricing_plan_id":"cebpf4jnsgd1na2vs0mg"},{"bike_id":"a86d2f9f-83d8-4f17-8422-d08e982c4a2a","system_id":"levelo_inurba_marseille","lat":43.29748,"lon":5.44866,"is_reserved":false,"is_disabled":true,"rental_uris":{"android":"levelo://app?vid=a86d2f9f-83d8-4f17-8422-d08e982c4a2a","ios":"levelo://app?vid=a86d2f9f-83d8-4f17-8422-d08e982c4a2a"},"vehicle_type_id":"4","last_reported":1751019095,"current_range_meters":2000,"station_id":"","pricing_plan_id":"cebpf4jnsgd1na2vs0mg"},{"bike_id":"75b99ce5-98e2-480a-a889-073abbac7a3e","system_id":"levelo_inurba_marseille","lat":43.293025,"lon":5.374505,"is_reserved":false,"is_disabled":true,"rental_uris":{"android":"levelo://app?vid=75b99ce5-98e2-480a-a889-073abbac7a3e","ios":"levelo://app?vid=75b99ce5-98e2-480a-a889-073abbac7a3e"},"vehicle_type_id":"4","last_reported":1751019095,"current_range_meters":2000,"station_id":"ce4bgi12rcd13ifvqb70","pricing_plan_id":"cebpf4jnsgd1na2vs0mg"},{"bike_id":"c264efa5-c33f-4d2b-b4ab-c9a897ea0380","system_id":"levelo_inurba_marseille","lat":43.2998,"lon":5.38487,"is_reserved":false,"is_disabled":true,"rental_uris":{"android":"levelo://app?vid=c264efa5-c33f-4d2b-b4ab-c9a897ea0380","ios":"levelo://app?vid=c264efa5-c33f-4d2b-b4ab-c9a897ea0380"},"vehicle_type_id":"4","last_reported":1751019095,"current_range_meters":2000,"station_id":"ce4bgj92rcd13ifvqbd0","pricing_plan_id":"cebpf4jnsgd1na2vs0mg"},{"bike_id":"d60113c8-3387-46de-adde-b2b1abf1350a","system_id":"levelo_inurba_marseille","lat":43.29947,"lon":5.41316,"is_reserved":false,"is_disabled":true,"rental_uris":{"android":"levelo://app?vid=d60113c8-3387-46de-adde-b2b1abf1350a","ios":"levelo://app?vid=d60113c8-3387-46de-adde-b2b1abf1350a"},"vehicle_type_id":"4","last_reported":1751019095,"current_range_meters":2000,"station_id":"ce4bhp12rcd13ifvqh9g","pricing_plan_id":"cebpf4jnsgd1na2vs0mg"},{"bike_id":"301b394a-47f8-499f-b188-7fc63e416c59","system_id":"levelo_inurba_marseille","lat":43.29873,"lon":5.39736,"is_reserved":false,"is_disabled":false,"rental_uris":{"android":"levelo://app?vid=301b394a-47f8-499f-b188-7fc63e416c59","ios":"levelo://app?vid=301b394a-47f8-499f-b188-7fc63e416c59"},"vehicle_type_id":"4","last_reported":1751019095,"current_range_meters":2800,"station_id":"ce4bh0h2rcd13ifvqd50","pricing_plan_id":"cebpf4jnsgd1na2vs0mg"},{"bike_id":"e7092d94-ce78-4df6-aa69-3d340c98df7b","system_id":"levelo_inurba_marseille","lat":43.21752,"lon":5.34601,"is_reserved":false,"is_disabled":false,"rental_uris":{"android":"levelo://app?vid=e7092d94-ce78-4df6-aa69-3d340c98df7b","ios":"levelo://app?vid=e7092d94-ce78-4df6-aa69-3d340c98df7b"},"vehicle_type_id":"4","last_reported":1751019095,"current_range_meters":2800,"station_id":"st_cvj6r9ubvosntc0bgbag","pricing_plan_id":"cebpf4jnsgd1na2vs0mg"},{"bike_id":"3e5d0ae7-bac3-40ea-95d2-50ef1aae7bc7","system_id":"levelo_inurba_marseille","lat":43.26864,"lon":5.4159,"is_reserved":false,"is_disabled":false,"rental_uris":{"android":"levelo://app?vid=3e5d0ae7-bac3-40ea-95d2-50ef1aae7bc7","ios":"levelo://app?vid=3e5d0ae7-bac3-40ea-95d2-50ef1aae7bc7"},"vehicle_type_id":"4","last_reported":1751019095,"current_range_meters":3600,"station_id":"","pricing_plan_id":"cebpf4jnsgd1na2vs0mg"},{"bike_id":"c2ba2c25-be12-4853-ad78-e27c6d837842","system_id":"levelo_inurba_marseille","lat":43.29555,"lon":5.37527,"is_reserved":false,"is_disabled":false,"rental_uris":{"android":"levelo://app?vid=c2ba2c25-be12-4853-ad78-e27c6d837842","ios":"levelo://app?vid=c2ba2c25-be12-4853-ad78-e27c6d837842"},"vehicle_type_id":"4","last_reported":1751019095,"current_range_meters":3600,"station_id":"ce4bgh92rcd13ifvqb50","pricing_plan_id":"cebpf4jnsgd1na2vs0mg"},{"bike_id":"2d0357ae-5f0a-4520-9137-8044d3dff3a3","system_id":"levelo_inurba_marseille","lat":43.30952,"lon":5.39032,"is_reserved":false,"is_disabled":false,"rental_uris":{"android":"levelo://app?vid=2d0357ae-5f0a-4520-9137-8044d3dff3a3","ios":"levelo://app?vid=2d0357ae-5f0a-4520-9137-8044d3dff3a3"},"vehicle_type_id":"4","last_reported":1751019095,"current_range_meters":3600,"station_id":"ce4bgup2rcd13ifvqco0","pricing_plan_id":"cebpf4jnsgd1na2vs0mg"},{"bike_id":"af112b62-19de-41d4-b8d7-e14d0172315d","system_id":"levelo_inurba_marseille","lat":43.32666,"lon":5.39263,"is_reserved":false,"is_disabled":false,"rental_uris":{"android":"levelo://app?vid=af112b62-19de-41d4-b8d7-e14d0172315d","ios":"levelo://app?vid=af112b62-19de-41d4-b8d7-e14d0172315d"},"vehicle_type_id":"4","last_reported":1751019095,"current_range_meters":4000,"station_id":"","pricing_plan_id":"cebpf4jnsgd1na2vs0mg"},{"bike_id":"47497d3c-1b0b-402d-803c-45b7c5862f69","system_id":"levelo_inurba_marseille","lat":43.33603,"lon":5.41025,"is_reserved":false,"is_disabled":false,"rental_uris":{"android":"levelo://app?vid=47497d3c-1b0b-402d-803c-45b7c5862f69","ios":"levelo://app?vid=47497d3c-1b0b-402d-803c-45b7c5862f69"},"vehicle_type_id":"4","last_reported":1751019095,"current_range_meters":4000,"station_id":"ce4bhqh2rcd13ifvqhmg","pricing_plan_id":"cebpf4jnsgd1na2vs0mg"},{"bike_id":"784b48b6-254f-44fc-addf-bb5f2aa170fc","system_id":"levelo_inurba_marseille","lat":43.309357,"lon":5.368202,"is_reserved":false,"is_disabled":false,"rental_uris":{"android":"levelo://app?vid=784b48b6-254f-44fc-addf-bb5f2aa170fc","ios":"levelo://app?vid=784b48b6-254f-44fc-addf-bb5f2aa170fc"},"vehicle_type_id":"4","last_reported":1751019095,"current_range_meters":4400,"station_id":"ce4bgn92rcd13ifvqbvg","pricing_plan_id":"cebpf4jnsgd1na2vs0mg"},{"bike_id":"d62c73c5-52bf-48e6-af4f-7aa802010630","system_id":"levelo_inurba_marseille","lat":43.31111,"lon":5.3777,"is_reserved":false,"is_disabled":false,"rental_uris":{"android":"levelo://app?vid=d62c73c5-52bf-48e6-af4f-7aa802010630","ios":"levelo://app?vid=d62c73c5-52bf-48e6-af4f-7aa802010630"},"vehicle_type_id":"4","last_reported":1751019095,"current_range_meters":4400,"station_id":"ce4bgt92rcd13ifvqcg0","pricing_plan_id":"cebpf4jnsgd1na2vs0mg"},{"bike_id":"84d18d70-6aae-4643-a447-2aae52c1baf0","system_id":"levelo_inurba_marseille","lat":43.292666,"lon":5.384417,"is_reserved":false,"is_disabled":false,"rental_uris":{"android":"levelo://app?vid=84d18d70-6aae-4643-a447-2aae52c1baf0","ios":"levelo://app?vid=84d18d70-6aae-4643-a447-2aae52c1baf0"},"vehicle_type_id":"4","last_reported":1751019095,"current_range_meters":4400,"station_id":"ce4bh692rcd13ifvqea0","pricing_plan_id":"cebpf4jnsgd1na2vs0mg"},{"bike_id":"9a0fb02d-e582-496d-ab93-f24bd1f64819","system_id":"levelo_inurba_marseille","lat":43.32288,"lon":5.38268,"is_reserved":false,"is_disabled":false,"rental_uris":{"android":"levelo://app?vid=9a0fb02d-e582-496d-ab93-f24bd1f64819","ios":"levelo://app?vid=9a0fb02d-e582-496d-ab93-f24bd1f64819"},"vehicle_type_id":"4","last_reported":1751019095,"current_range_meters":4400,"station_id":"ce4bhr12rcd13ifvqhqg","pricing_plan_id":"cebpf4jnsgd1na2vs0mg"},{"bike_id":"26a14eba-87a9-47b8-9607-30bd0042d428","system_id":"levelo_inurba_marseille","lat":43.31487,"lon":5.39452,"is_reserved":false,"is_disabled":false,"rental_uris":{"android":"levelo://app?vid=26a14eba-87a9-47b8-9607-30bd0042d428","ios":"levelo://app?vid=26a14eba-87a9-47b8-9607-30bd0042d428"},"vehicle_type_id":"4","last_reported":1751019095,"current_range_meters":4800,"station_id":"","pricing_plan_id":"cebpf4jnsgd1na2vs0mg"},{"bike_id":"9ce852fe-9449-4c16-b29b-642a7abdbbbf","system_id":"levelo_inurba_marseille","lat":43.27395,"lon":5.36207,"is_reserved":false,"is_disabled":false,"rental_uris":{"android":"levelo://app?vid=9ce852fe-9449-4c16-b29b-642a7abdbbbf","ios":"levelo://app?vid=9ce852fe-9449-4c16-b29b-642a7abdbbbf"},"vehicle_type_id":"4","last_reported":1751019095,"current_range_meters":4800,"station_id":"","pricing_plan_id":"cebpf4jnsgd1na2vs0mg"},{"bike_id":"64922d42-fdb5-4501-9d86-270ac003823f","system_id":"levelo_inurba_marseille","lat":43.30558,"lon":5.3652,"is_reserved":false,"is_disabled":false,"rental_uris":{"android":"levelo://app?vid=64922d42-fdb5-4501-9d86-270ac003823f","ios":"levelo://app?vid=64922d42-fdb5-4501-9d86-270ac003823f"},"vehicle_type_id":"4","last_reported":1751019095,"current_range_meters":6000,"station_id":"ce4bgs12rcd13ifvqcag","pricing_plan_id":"cebpf4jnsgd1na2vs0mg"},{"bike_id":"d82aef51-8b3a-4e7b-825a-977130d7411d","system_id":"levelo_inurba_marseille","lat":43.273766,"lon":5.362611,"is_reserved":false,"is_disabled":false,"rental_uris":{"android":"levelo://app?vid=d82aef51-8b3a-4e7b-825a-977130d7411d","ios":"levelo://app?vid=d82aef51-8b3a-4e7b-825a-977130d7411d"},"vehicle_type_id":"4","last_reported":1751019095,"current_range_meters":6000,"station_id":"ce4bhbh2rcd13ifvqeo0","pricing_plan_id":"cebpf4jnsgd1na2vs0mg"},{"bike_id":"b7dff6c9-2741-4566-844b-ca40135ae799","system_id":"levelo_inurba_marseille","lat":43.28613,"lon":5.351,"is_reserved":false,"is_disabled":false,"rental_uris":{"android":"levelo://app?vid=b7dff6c9-2741-4566-844b-ca40135ae799","ios":"levelo://app?vid=b7dff6c9-2741-4566-844b-ca40135ae799"},"vehicle_type_id":"4","last_reported":1751019095,"current_range_meters":6000,"station_id":"ce4bhch2rcd13ifvqeug","pricing_plan_id":"cebpf4jnsgd1na2vs0mg"},{"bike_id":"81708ee9-bd74-4fad-a792-274383a581a0","system_id":"levelo_inurba_marseille","lat":43.337444,"lon":5.374475,"is_reserved":false,"is_disabled":false,"rental_uris":{"android":"levelo://app?vid=81708ee9-bd74-4fad-a792-274383a581a0","ios":"levelo://app?vid=81708ee9-bd74-4fad-a792-274383a581a0"},"vehicle_type_id":"4","last_reported":1751019095,"current_range_meters":6400,"station_id":"","pricing_plan_id":"cebpf4jnsgd1na2vs0mg"},{"bike_id":"b09b81de-4222-46e8-90d9-233a6c409821","system_id":"levelo_inurba_marseille","lat":43.28616,"lon":5.35108,"is_reserved":false,"is_disabled":false,"rental_uris":{"android":"levelo://app?vid=b09b81de-4222-46e8-90d9-233a6c409821","ios":"levelo://app?vid=b09b81de-4222-46e8-90d9-233a6c409821"},"vehicle_type_id":"4","last_reported":1751019095,"current_range_meters":6400,"station_id":"ce4bhch2rcd13ifvqeug","pricing_plan_id":"cebpf4jnsgd1na2vs0mg"},{"bike_id":"5541a369-9d7c-4c5f-bdef-d841b8193ee1","system_id":"levelo_inurba_marseille","lat":43.30418,"lon":5.41289,"is_reserved":false,"is_disabled":false,"rental_uris":{"android":"levelo://app?vid=5541a369-9d7c-4c5f-bdef-d841b8193ee1","ios":"levelo://app?vid=5541a369-9d7c-4c5f-bdef-d841b8193ee1"},"vehicle_type_id":"4","last_reported":1751019095,"current_range_meters":6400,"station_id":"ce4bhop2rcd13ifvqh8g","pricing_plan_id":"cebpf4jnsgd1na2vs0mg"},{"bike_id":"1c70acf0-f74f-48b0-a691-783cd3bf6eb8","system_id":"levelo_inurba_marseille","lat":43.32289,"lon":5.3829,"is_reserved":false,"is_disabled":false,"rental_uris":{"android":"levelo://app?vid=1c70acf0-f74f-48b0-a691-783cd3bf6eb8","ios":"levelo://app?vid=1c70acf0-f74f-48b0-a691-783cd3bf6eb8"},"vehicle_type_id":"4","last_reported":1751019095,"current_range_meters":6400,"station_id":"ce4bhr12rcd13ifvqhqg","pricing_plan_id":"cebpf4jnsgd1na2vs0mg"},{"bike_id":"e2f5b300-4a63-4778-aada-c29a8a0ea1e8","system_id":"levelo_inurba_marseille","lat":43.327954,"lon":5.391866,"is_reserved":false,"is_disabled":false,"rental_uris":{"android":"levelo://app?vid=e2f5b300-4a63-4778-aada-c29a8a0ea1e8","ios":"levelo://app?vid=e2f5b300-4a63-4778-aada-c29a8a0ea1e8"},"vehicle_type_id":"4","last_reported":1751019095,"current_range_meters":6800,"station_id":"","pricing_plan_id":"cebpf4jnsgd1na2vs0mg"},{"bike_id":"51607e89-c971-4135-aa30-4f1994cd2227","system_id":"levelo_inurba_marseille","lat":43.293,"lon":5.37469,"is_reserved":false,"is_disabled":false,"rental_uris":{"android":"levelo://app?vid=51607e89-c971-4135-aa30-4f1994cd2227","ios":"levelo://app?vid=51607e89-c971-4135-aa30-4f1994cd2227"},"vehicle_type_id":"4","last_reported":1751019095,"current_range_meters":6800,"station_id":"ce4bgi12rcd13ifvqb70","pricing_plan_id":"cebpf4jnsgd1na2vs0mg"},{"bike_id":"a3fc314d-650c-43ac-92c6-4981cd5fede9","system_id":"levelo_inurba_marseille","lat":43.2954,"lon":5.37501,"is_reserved":false,"is_disabled":false,"rental_uris":{"android":"levelo://app?vid=a3fc314d-650c-43ac-92c6-4981cd5fede9","ios":"levelo://app?vid=a3fc314d-650c-43ac-92c6-4981cd5fede9"},"vehicle_type_id":"4","last_reported":1751019095,"current_range_meters":6800,"station_id":"ce4bgkp2rcd13ifvqbmg","pricing_plan_id":"cebpf4jnsgd1na2vs0mg"},{"bike_id":"d3aa9c97-81b0-417b-a3eb-1cf5add54f4f","system_id":"levelo_inurba_marseille","lat":43.305412,"lon":5.3653,"is_reserved":false,"is_disabled":false,"rental_uris":{"android":"levelo://app?vid=d3aa9c97-81b0-417b-a3eb-1cf5add54f4f","ios":"levelo://app?vid=d3aa9c97-81b0-417b-a3eb-1cf5add54f4f"},"vehicle_type_id":"4","last_reported":1751019095,"current_range_meters":6800,"station_id":"ce4bgs12rcd13ifvqcag","pricing_plan_id":"cebpf4jnsgd1na2vs0mg"},{"bike_id":"d778b5fe-1249-4b65-b2da-f3876bad52d9","system_id":"levelo_inurba_marseille","lat":43.284143,"lon":5.374945,"is_reserved":false,"is_disabled":false,"rental_uris":{"android":"levelo://app?vid=d778b5fe-1249-4b65-b2da-f3876bad52d9","ios":"levelo://app?vid=d778b5fe-1249-4b65-b2da-f3876bad52d9"},"vehicle_type_id":"4","last_reported":1751019095,"current_range_meters":6800,"station_id":"ce4bh412rcd13ifvqds0","pricing_plan_id":"cebpf4jnsgd1na2vs0mg"},{"bike_id":"935324ae-f23b-44d4-a616-f0d73229e6b3","system_id":"levelo_inurba_marseille","lat":43.29008,"lon":5.35606,"is_reserved":false,"is_disabled":false,"rental_uris":{"android":"levelo://app?vid=935324ae-f23b-44d4-a616-f0d73229e6b3","ios":"levelo://app?vid=935324ae-f23b-44d4-a616-f0d73229e6b3"},"vehicle_type_id":"4","last_reported":1751019095,"current_range_meters":6800,"station_id":"ce4bhb92rcd13ifvqen0","pricing_plan_id":"cebpf4jnsgd1na2vs0mg"},{"bike_id":"3ed97791-4fd1-4beb-9e6b-4998740d59d9","system_id":"levelo_inurba_marseille","lat":43.271719,"lon":5.410008,"is_reserved":false,"is_disabled":false,"rental_uris":{"android":"levelo://app?vid=3ed97791-4fd1-4beb-9e6b-4998740d59d9","ios":"levelo://app?vid=3ed97791-4fd1-4beb-9e6b-4998740d59d9"},"vehicle_type_id":"4","last_reported":1751019095,"current_range_meters":8000,"station_id":"","pricing_plan_id":"cebpf4jnsgd1na2vs0mg"},{"bike_id":"e8eccf6e-5229-4898-9c92-8eca9288c58d","system_id":"levelo_inurba_marseille","lat":43.27569,"lon":5.38423,"is_reserved":false,"is_disabled":false,"rental_uris":{"android":"levelo://app?vid=e8eccf6e-5229-4898-9c92-8eca9288c58d","ios":"levelo://app?vid=e8eccf6e-5229-4898-9c92-8eca9288c58d"},"vehicle_type_id":"4","last_reported":1751019095,"current_range_meters":8000,"station_id":"ce4bhh92rcd13ifvqfi0","pricing_plan_id":"cebpf4jnsgd1na2vs0mg"},{"bike_id":"5926c0d7-cd62-47ea-9963-f37b8d2657d9","system_id":"levelo_inurba_marseille","lat":43.23161,"lon":5.43708,"is_reserved":false,"is_disabled":false,"rental_uris":{"android":"levelo://app?vid=5926c0d7-cd62-47ea-9963-f37b8d2657d9","ios":"levelo://app?vid=5926c0d7-cd62-47ea-9963-f37b8d2657d9"},"vehicle_type_id":"4","last_reported":1751019095,"current_range_meters":8000,"station_id":"ce4bhmp2rcd13ifvqgog","pricing_plan_id":"cebpf4jnsgd1na2vs0mg"},{"bike_id":"7ac2d6ad-16d3-463d-9f49-789f3bb8e5d0","system_id":"levelo_inurba_marseille","lat":43.33711,"lon":5.39186,"is_reserved":false,"is_disabled":false,"rental_uris":{"android":"levelo://app?vid=7ac2d6ad-16d3-463d-9f49-789f3bb8e5d0","ios":"levelo://app?vid=7ac2d6ad-16d3-463d-9f49-789f3bb8e5d0"},"vehicle_type_id":"4","last_reported":1751019095,"current_range_meters":8000,"station_id":"ce4bhr92rcd13ifvqhsg","pricing_plan_id":"cebpf4jnsgd1na2vs0mg"},{"bike_id":"db4e2ea3-c22f-48f0-b53e-224aec501d16","system_id":"levelo_inurba_marseille","lat":43.32351,"lon":5.36739,"is_reserved":false,"is_disabled":false,"rental_uris":{"android":"levelo://app?vid=db4e2ea3-c22f-48f0-b53e-224aec501d16","ios":"levelo://app?vid=db4e2ea3-c22f-48f0-b53e-224aec501d16"},"vehicle_type_id":"4","last_reported":1751019095,"current_range_meters":8000,"station_id":"ce4bhsh2rcd13ifvqi2g","pricing_plan_id":"cebpf4jnsgd1na2vs0mg"},{"bike_id":"a9d25cad-d480-4c75-aec5-3969f1a4e6c7","system_id":"levelo_inurba_marseille","lat":43.32957,"lon":5.39038,"is_reserved":false,"is_disabled":false,"rental_uris":{"android":"levelo://app?vid=a9d25cad-d480-4c75-aec5-3969f1a4e6c7","ios":"levelo://app?vid=a9d25cad-d480-4c75-aec5-3969f1a4e6c7"},"vehicle_type_id":"4","last_reported":1751019095,"current_range_meters":8400,"station_id":"","pricing_plan_id":"cebpf4jnsgd1na2vs0mg"},{"bike_id":"f47876d7-9c85-474e-92c5-7a242e08b67c","system_id":"levelo_inurba_marseille","lat":43.30552,"lon":5.37559,"is_reserved":false,"is_disabled":false,"rental_uris":{"android":"levelo://app?vid=f47876d7-9c85-474e-92c5-7a242e08b67c","ios":"levelo://app?vid=f47876d7-9c85-474e-92c5-7a242e08b67c"},"vehicle_type_id":"4","last_reported":1751019095,"current_range_meters":8800,"station_id":"","pricing_plan_id":"cebpf4jnsgd1na2vs0mg"},{"bike_id":"e2b1b81d-27e8-495b-9fce-5bef10a02ecf","system_id":"levelo_inurba_marseille","lat":43.27046,"lon":5.38824,"is_reserved":false,"is_disabled":false,"rental_uris":{"android":"levelo://app?vid=e2b1b81d-27e8-495b-9fce-5bef10a02ecf","ios":"levelo://app?vid=e2b1b81d-27e8-495b-9fce-5bef10a02ecf"},"vehicle_type_id":"4","last_reported":1751019095,"current_range_meters":8800,"station_id":"","pricing_plan_id":"cebpf4jnsgd1na2vs0mg"},{"bike_id":"5001ca29-6268-4776-9ed1-dbffebacf352","system_id":"levelo_inurba_marseille","lat":43.30536,"lon":5.36531,"is_reserved":false,"is_disabled":false,"rental_uris":{"android":"levelo://app?vid=5001ca29-6268-4776-9ed1-dbffebacf352","ios":"levelo://app?vid=5001ca29-6268-4776-9ed1-dbffebacf352"},"vehicle_type_id":"4","last_reported":1751019095,"current_range_meters":8800,"station_id":"ce4bgs12rcd13ifvqcag","pricing_plan_id":"cebpf4jnsgd1na2vs0mg"},{"bike_id":"56f3a932-5d7d-453e-87d6-23294f360de9","system_id":"levelo_inurba_marseille","lat":43.2963,"lon":5.40591,"is_reserved":false,"is_disabled":false,"rental_uris":{"android":"levelo://app?vid=56f3a932-5d7d-453e-87d6-23294f360de9","ios":"levelo://app?vid=56f3a932-5d7d-453e-87d6-23294f360de9"},"vehicle_type_id":"4","last_reported":1751019095,"current_range_meters":8800,"station_id":"ce4bh0h2rcd13ifvqd60","pricing_plan_id":"cebpf4jnsgd1na2vs0mg"},{"bike_id":"03b5348c-ee39-4d54-8f25-73a9c6bc36df","system_id":"levelo_inurba_marseille","lat":43.3037,"lon":5.42481,"is_reserved":false,"is_disabled":false,"rental_uris":{"android":"levelo://app?vid=03b5348c-ee39-4d54-8f25-73a9c6bc36df","ios":"levelo://app?vid=03b5348c-ee39-4d54-8f25-73a9c6bc36df"},"vehicle_type_id":"4","last_reported":1751019095,"current_range_meters":8800,"station_id":"ce4bhoh2rcd13ifvqh6g","pricing_plan_id":"cebpf4jnsgd1na2vs0mg"},{"bike_id":"a8f1d44c-de5e-4c11-ac91-7b2b8da7a2fb","system_id":"levelo_inurba_marseille","lat":43.33611,"lon":5.41014,"is_reserved":false,"is_disabled":false,"rental_uris":{"android":"levelo://app?vid=a8f1d44c-de5e-4c11-ac91-7b2b8da7a2fb","ios":"levelo://app?vid=a8f1d44c-de5e-4c11-ac91-7b2b8da7a2fb"},"vehicle_type_id":"4","last_reported":1751019095,"current_range_meters":8800,"station_id":"ce4bhqh2rcd13ifvqhmg","pricing_plan_id":"cebpf4jnsgd1na2vs0mg"},{"bike_id":"61d52301-5315-4462-9419-d597d7d2d7dd","system_id":"levelo_inurba_marseille","lat":43.2175,"lon":5.34597,"is_reserved":false,"is_disabled":false,"rental_uris":{"android":"levelo://app?vid=61d52301-5315-4462-9419-d597d7d2d7dd","ios":"levelo://app?vid=61d52301-5315-4462-9419-d597d7d2d7dd"},"vehicle_type_id":"4","last_reported":1751019095,"current_range_meters":8800,"station_id":"st_cvj6r9ubvosntc0bgbag","pricing_plan_id":"cebpf4jnsgd1na2vs0mg"},{"bike_id":"5371c9bc-3061-4745-8ac9-2fc5914ff687","system_id":"levelo_inurba_marseille","lat":43.249168,"lon":5.387327,"is_reserved":false,"is_disabled":false,"rental_uris":{"android":"levelo://app?vid=5371c9bc-3061-4745-8ac9-2fc5914ff687","ios":"levelo://app?vid=5371c9bc-3061-4745-8ac9-2fc5914ff687"},"vehicle_type_id":"4","last_reported":1751019095,"current_range_meters":9200,"station_id":"","pricing_plan_id":"cebpf4jnsgd1na2vs0mg"},{"bike_id":"3d332848-3fbf-45e3-97b7-1d89df5222c6","system_id":"levelo_inurba_marseille","lat":43.30149,"lon":5.38077,"is_reserved":false,"is_disabled":false,"rental_uris":{"android":"levelo://app?vid=3d332848-3fbf-45e3-97b7-1d89df5222c6","ios":"levelo://app?vid=3d332848-3fbf-45e3-97b7-1d89df5222c6"},"vehicle_type_id":"4","last_reported":1751019095,"current_range_meters":9200,"station_id":"ce4bgjp2rcd13ifvqbh0","pricing_plan_id":"cebpf4jnsgd1na2vs0mg"},{"bike_id":"94e84186-d780-461a-b647-8d1cf3f036ad","system_id":"levelo_inurba_marseille","lat":43.31682,"lon":5.37733,"is_reserved":false,"is_disabled":false,"rental_uris":{"android":"levelo://app?vid=94e84186-d780-461a-b647-8d1cf3f036ad","ios":"levelo://app?vid=94e84186-d780-461a-b647-8d1cf3f036ad"},"vehicle_type_id":"4","last_reported":1751019095,"current_range_meters":9200,"station_id":"ce4bgth2rcd13ifvqch0","pricing_plan_id":"cebpf4jnsgd1na2vs0mg"},{"bike_id":"2083fed2-f3f6-49d5-a248-db446462030a","system_id":"levelo_inurba_marseille","lat":43.23539,"lon":5.3989,"is_reserved":false,"is_disabled":false,"rental_uris":{"android":"levelo://app?vid=2083fed2-f3f6-49d5-a248-db446462030a","ios":"levelo://app?vid=2083fed2-f3f6-49d5-a248-db446462030a"},"vehicle_type_id":"4","last_reported":1751019095,"current_range_meters":9200,"station_id":"ce4bhn12rcd13ifvqgqg","pricing_plan_id":"cebpf4jnsgd1na2vs0mg"},{"bike_id":"af1ba19a-81f2-45a3-9bbf-f0d74fa0eb75","system_id":"levelo_inurba_marseille","lat":43.31341,"lon":5.36719,"is_reserved":false,"is_disabled":false,"rental_uris":{"android":"levelo://app?vid=af1ba19a-81f2-45a3-9bbf-f0d74fa0eb75","ios":"levelo://app?vid=af1ba19a-81f2-45a3-9bbf-f0d74fa0eb75"},"vehicle_type_id":"4","last_reported":1751019095,"current_range_meters":9600,"station_id":"ce4bgr92rcd13ifvqc6g","pricing_plan_id":"cebpf4jnsgd1na2vs0mg"},{"bike_id":"c310ad72-71fa-4b31-850a-2f92458e10bb","system_id":"levelo_inurba_marseille","lat":43.30475,"lon":5.37893,"is_reserved":false,"is_disabled":false,"rental_uris":{"android":"levelo://app?vid=c310ad72-71fa-4b31-850a-2f92458e10bb","ios":"levelo://app?vid=c310ad72-71fa-4b31-850a-2f92458e10bb"},"vehicle_type_id":"4","last_reported":1751019095,"current_range_meters":9600,"station_id":"ce4bgup2rcd13ifvqcn0","pricing_plan_id":"cebpf4jnsgd1na2vs0mg"},{"bike_id":"ebd0239d-05c6-4c95-a088-2fedfd7b4459","system_id":"levelo_inurba_marseille","lat":43.28699,"lon":5.39979,"is_reserved":false,"is_disabled":false,"rental_uris":{"android":"levelo://app?vid=ebd0239d-05c6-4c95-a088-2fedfd7b4459","ios":"levelo://app?vid=ebd0239d-05c6-4c95-a088-2fedfd7b4459"},"vehicle_type_id":"4","last_reported":1751019095,"current_range_meters":9600,"station_id":"ce4bho92rcd13ifvqh3g","pricing_plan_id":"cebpf4jnsgd1na2vs0mg"},{"bike_id":"4b8da722-ee9e-48a4-a5e5-3a8a10364708","system_id":"levelo_inurba_marseille","lat":43.31209,"lon":5.37811,"is_reserved":false,"is_disabled":false,"rental_uris":{"android":"levelo://app?vid=4b8da722-ee9e-48a4-a5e5-3a8a10364708","ios":"levelo://app?vid=4b8da722-ee9e-48a4-a5e5-3a8a10364708"},"vehicle_type_id":"4","last_reported":1751019095,"current_range_meters":10000,"station_id":"","pricing_plan_id":"cebpf4jnsgd1na2vs0mg"},{"bike_id":"b0e30270-a560-4924-9e4f-188ce1687f08","system_id":"levelo_inurba_marseille","lat":43.29269,"lon":5.37624,"is_reserved":false,"is_disabled":false,"rental_uris":{"android":"levelo://app?vid=b0e30270-a560-4924-9e4f-188ce1687f08","ios":"levelo://app?vid=b0e30270-a560-4924-9e4f-188ce1687f08"},"vehicle_type_id":"4","last_reported":1751019095,"current_range_meters":10000,"station_id":"ce4bgi12rcd13ifvqb80","pricing_plan_id":"cebpf4jnsgd1na2vs0mg"},{"bike_id":"a883f219-e577-4c8c-8a63-91ae6336dd84","system_id":"levelo_inurba_marseille","lat":43.29924,"lon":5.36548,"is_reserved":false,"is_disabled":false,"rental_uris":{"android":"levelo://app?vid=a883f219-e577-4c8c-8a63-91ae6336dd84","ios":"levelo://app?vid=a883f219-e577-4c8c-8a63-91ae6336dd84"},"vehicle_type_id":"4","last_reported":1751019095,"current_range_meters":10000,"station_id":"ce4bgm92rcd13ifvqbr0","pricing_plan_id":"cebpf4jnsgd1na2vs0mg"},{"bike_id":"bf60b126-b065-4396-a244-21a15c79c1d6","system_id":"levelo_inurba_marseille","lat":43.30946,"lon":5.39041,"is_reserved":false,"is_disabled":false,"rental_uris":{"android":"levelo://app?vid=bf60b126-b065-4396-a244-21a15c79c1d6","ios":"levelo://app?vid=bf60b126-b065-4396-a244-21a15c79c1d6"},"vehicle_type_id":"4","last_reported":1751019095,"current_range_meters":10000,"station_id":"ce4bgup2rcd13ifvqco0","pricing_plan_id":"cebpf4jnsgd1na2vs0mg"},{"bike_id":"d4e177ad-79e4-456e-933f-1e1248bff5f2","system_id":"levelo_inurba_marseille","lat":43.27075,"lon":5.4229,"is_reserved":false,"is_disabled":false,"rental_uris":{"android":"levelo://app?vid=d4e177ad-79e4-456e-933f-1e1248bff5f2","ios":"levelo://app?vid=d4e177ad-79e4-456e-933f-1e1248bff5f2"},"vehicle_type_id":"4","last_reported":1751019095,"current_range_meters":10000,"station_id":"ce4bhk92rcd13ifvqgb0","pricing_plan_id":"cebpf4jnsgd1na2vs0mg"},{"bike_id":"959a6144-1b8c-4394-b676-453ee52d4830","system_id":"levelo_inurba_marseille","lat":43.32476,"lon":5.36546,"is_reserved":false,"is_disabled":false,"rental_uris":{"android":"levelo://app?vid=959a6144-1b8c-4394-b676-453ee52d4830","ios":"levelo://app?vid=959a6144-1b8c-4394-b676-453ee52d4830"},"vehicle_type_id":"4","last_reported":1751019095,"current_range_meters":10000,"station_id":"ce4bhs12rcd13ifvqhvg","pricing_plan_id":"cebpf4jnsgd1na2vs0mg"},{"bike_id":"d2541864-294e-4fa8-8ed4-da3902bb58d5","system_id":"levelo_inurba_marseille","lat":43.22932,"lon":5.35377,"is_reserved":false,"is_disabled":false,"rental_uris":{"android":"levelo://app?vid=d2541864-294e-4fa8-8ed4-da3902bb58d5","ios":"levelo://app?vid=d2541864-294e-4fa8-8ed4-da3902bb58d5"},"vehicle_type_id":"4","last_reported":1751019095,"current_range_meters":10000,"station_id":"cpo3532slgdg3j2ikp40","pricing_plan_id":"cebpf4jnsgd1na2vs0mg"},{"bike_id":"6e333cad-8154-4d5d-9ce4-405ad8359f75","system_id":"levelo_inurba_marseille","lat":43.22937,"lon":5.35374,"is_reserved":false,"is_disabled":false,"rental_uris":{"android":"levelo://app?vid=6e333cad-8154-4d5d-9ce4-405ad8359f75","ios":"levelo://app?vid=6e333cad-8154-4d5d-9ce4-405ad8359f75"},"vehicle_type_id":"4","last_reported":1751019095,"current_range_meters":10000,"station_id":"cpo3532slgdg3j2ikp40","pricing_plan_id":"cebpf4jnsgd1na2vs0mg"},{"bike_id":"6bb25087-4929-40aa-a0d7-d130e48685f0","system_id":"levelo_inurba_marseille","lat":43.24171,"lon":5.36394,"is_reserved":false,"is_disabled":false,"rental_uris":{"android":"levelo://app?vid=6bb25087-4929-40aa-a0d7-d130e48685f0","ios":"levelo://app?vid=6bb25087-4929-40aa-a0d7-d130e48685f0"},"vehicle_type_id":"4","last_reported":1751019095,"current_range_meters":10000,"station_id":"cpo36qri1sfpv3e86is0","pricing_plan_id":"cebpf4jnsgd1na2vs0mg"},{"bike_id":"4d06c23d-5186-47c3-82a2-4c156c24f905","system_id":"levelo_inurba_marseille","lat":43.21766,"lon":5.34605,"is_reserved":false,"is_disabled":false,"rental_uris":{"android":"levelo://app?vid=4d06c23d-5186-47c3-82a2-4c156c24f905","ios":"levelo://app?vid=4d06c23d-5186-47c3-82a2-4c156c24f905"},"vehicle_type_id":"4","last_reported":1751019095,"current_range_meters":10000,"station_id":"st_cvj6r9ubvosntc0bgbag","pricing_plan_id":"cebpf4jnsgd1na2vs0mg"},{"bike_id":"c9d8f67c-b2c4-490c-a7c8-4a6bdfe706dc","system_id":"levelo_inurba_marseille","lat":43.30166,"lon":5.37374,"is_reserved":false,"is_disabled":false,"rental_uris":{"android":"levelo://app?vid=c9d8f67c-b2c4-490c-a7c8-4a6bdfe706dc","ios":"levelo://app?vid=c9d8f67c-b2c4-490c-a7c8-4a6bdfe706dc"},"vehicle_type_id":"4","last_reported":1751019095,"current_range_meters":10800,"station_id":"ce4bgs92rcd13ifvqcc0","pricing_plan_id":"cebpf4jnsgd1na2vs0mg"},{"bike_id":"38c70587-60d6-471b-acc3-9160693d7a66","system_id":"levelo_inurba_marseille","lat":43.27571,"lon":5.38415,"is_reserved":false,"is_disabled":false,"rental_uris":{"android":"levelo://app?vid=38c70587-60d6-471b-acc3-9160693d7a66","ios":"levelo://app?vid=38c70587-60d6-471b-acc3-9160693d7a66"},"vehicle_type_id":"4","last_reported":1751019095,"current_range_meters":10800,"station_id":"ce4bhh92rcd13ifvqfi0","pricing_plan_id":"cebpf4jnsgd1na2vs0mg"},{"bike_id":"38ee6c99-ed1c-4320-bb3c-b1d717388b30","system_id":"levelo_inurba_marseille","lat":43.22974,"lon":5.35387,"is_reserved":false,"is_disabled":false,"rental_uris":{"android":"levelo://app?vid=38ee6c99-ed1c-4320-bb3c-b1d717388b30","ios":"levelo://app?vid=38ee6c99-ed1c-4320-bb3c-b1d717388b30"},"vehicle_type_id":"4","last_reported":1751019095,"current_range_meters":10800,"station_id":"cpo3532slgdg3j2ikp40","pricing_plan_id":"cebpf4jnsgd1na2vs0mg"},{"bike_id":"768c0104-715f-4ae7-8bb0-ad9c0d98e622","system_id":"levelo_inurba_marseille","lat":43.31061,"lon":5.40095,"is_reserved":false,"is_disabled":false,"rental_uris":{"android":"levelo://app?vid=768c0104-715f-4ae7-8bb0-ad9c0d98e622","ios":"levelo://app?vid=768c0104-715f-4ae7-8bb0-ad9c0d98e622"},"vehicle_type_id":"4","last_reported":1751019095,"current_range_meters":11200,"station_id":"","pricing_plan_id":"cebpf4jnsgd1na2vs0mg"},{"bike_id":"08e40a95-5220-46f3-aef8-4bb428e0a4cc","system_id":"levelo_inurba_marseille","lat":43.30161,"lon":5.38076,"is_reserved":false,"is_disabled":false,"rental_uris":{"android":"levelo://app?vid=08e40a95-5220-46f3-aef8-4bb428e0a4cc","ios":"levelo://app?vid=08e40a95-5220-46f3-aef8-4bb428e0a4cc"},"vehicle_type_id":"4","last_reported":1751019095,"current_range_meters":11200,"station_id":"ce4bgjp2rcd13ifvqbh0","pricing_plan_id":"cebpf4jnsgd1na2vs0mg"},{"bike_id":"ce974c4d-c988-4d8d-ae5a-11eea42621cf","system_id":"levelo_inurba_marseille","lat":43.24686,"lon":5.38145,"is_reserved":false,"is_disabled":false,"rental_uris":{"android":"levelo://app?vid=ce974c4d-c988-4d8d-ae5a-11eea42621cf","ios":"levelo://app?vid=ce974c4d-c988-4d8d-ae5a-11eea42621cf"},"vehicle_type_id":"4","last_reported":1751019095,"current_range_meters":11200,"station_id":"ce4bhih2rcd13ifvqfr0","pricing_plan_id":"cebpf4jnsgd1na2vs0mg"},{"bike_id":"b7d0d8a1-c5dd-4278-8b3b-f5786872fe32","system_id":"levelo_inurba_marseille","lat":43.32107,"lon":5.367615,"is_reserved":false,"is_disabled":false,"rental_uris":{"android":"levelo://app?vid=b7d0d8a1-c5dd-4278-8b3b-f5786872fe32","ios":"levelo://app?vid=b7d0d8a1-c5dd-4278-8b3b-f5786872fe32"},"vehicle_type_id":"4","last_reported":1751019095,"current_range_meters":11200,"station_id":"ce4bhrh2rcd13ifvqhug","pricing_plan_id":"cebpf4jnsgd1na2vs0mg"},{"bike_id":"2315c627-494e-41a8-a12f-403d40de57ef","system_id":"levelo_inurba_marseille","lat":43.30318,"lon":5.403,"is_reserved":false,"is_disabled":false,"rental_uris":{"android":"levelo://app?vid=2315c627-494e-41a8-a12f-403d40de57ef","ios":"levelo://app?vid=2315c627-494e-41a8-a12f-403d40de57ef"},"vehicle_type_id":"4","last_reported":1751019095,"current_range_meters":11600,"station_id":"","pricing_plan_id":"cebpf4jnsgd1na2vs0mg"},{"bike_id":"bfb795a0-9115-496e-bc55-21db3298c66f","system_id":"levelo_inurba_marseille","lat":43.292557,"lon":5.376263,"is_reserved":false,"is_disabled":false,"rental_uris":{"android":"levelo://app?vid=bfb795a0-9115-496e-bc55-21db3298c66f","ios":"levelo://app?vid=bfb795a0-9115-496e-bc55-21db3298c66f"},"vehicle_type_id":"4","last_reported":1751019095,"current_range_meters":12000,"station_id":"ce4bgi12rcd13ifvqb80","pricing_plan_id":"cebpf4jnsgd1na2vs0mg"},{"bike_id":"83f8d2dd-c46e-4ffb-9c37-a73167a09c8e","system_id":"levelo_inurba_marseille","lat":43.29708,"lon":5.37686,"is_reserved":false,"is_disabled":false,"rental_uris":{"android":"levelo://app?vid=83f8d2dd-c46e-4ffb-9c37-a73167a09c8e","ios":"levelo://app?vid=83f8d2dd-c46e-4ffb-9c37-a73167a09c8e"},"vehicle_type_id":"4","last_reported":1751019095,"current_range_meters":12000,"station_id":"ce4bgkh2rcd13ifvqbl0","pricing_plan_id":"cebpf4jnsgd1na2vs0mg"},{"bike_id":"f3dd6763-e9b0-479f-96c9-67813510ce10","system_id":"levelo_inurba_marseille","lat":43.29895,"lon":5.36274,"is_reserved":false,"is_disabled":false,"rental_uris":{"android":"levelo://app?vid=f3dd6763-e9b0-479f-96c9-67813510ce10","ios":"levelo://app?vid=f3dd6763-e9b0-479f-96c9-67813510ce10"},"vehicle_type_id":"4","last_reported":1751019095,"current_range_meters":12000,"station_id":"ce4bgpp2rcd13ifvqc3g","pricing_plan_id":"cebpf4jnsgd1na2vs0mg"},{"bike_id":"a67a2114-575c-46b1-a1db-7e9356dfa97f","system_id":"levelo_inurba_marseille","lat":43.30272,"lon":5.37711,"is_reserved":false,"is_disabled":false,"rental_uris":{"android":"levelo://app?vid=a67a2114-575c-46b1-a1db-7e9356dfa97f","ios":"levelo://app?vid=a67a2114-575c-46b1-a1db-7e9356dfa97f"},"vehicle_type_id":"4","last_reported":1751019095,"current_range_meters":12000,"station_id":"ce4bguh2rcd13ifvqcj0","pricing_plan_id":"cebpf4jnsgd1na2vs0mg"},{"bike_id":"d93518a7-acea-49d1-8b1d-66917831e25a","system_id":"levelo_inurba_marseille","lat":43.28374,"lon":5.39543,"is_reserved":false,"is_disabled":false,"rental_uris":{"android":"levelo://app?vid=d93518a7-acea-49d1-8b1d-66917831e25a","ios":"levelo://app?vid=d93518a7-acea-49d1-8b1d-66917831e25a"},"vehicle_type_id":"4","last_reported":1751019095,"current_range_meters":12400,"station_id":"","pricing_plan_id":"cebpf4jnsgd1na2vs0mg"},{"bike_id":"ecfe3a46-7e86-44de-bac3-32c150ebbec9","system_id":"levelo_inurba_marseille","lat":43.29581,"lon":5.36742,"is_reserved":false,"is_disabled":false,"rental_uris":{"android":"levelo://app?vid=ecfe3a46-7e86-44de-bac3-32c150ebbec9","ios":"levelo://app?vid=ecfe3a46-7e86-44de-bac3-32c150ebbec9"},"vehicle_type_id":"4","last_reported":1751019095,"current_range_meters":12400,"station_id":"ce4bgph2rcd13ifvqc2g","pricing_plan_id":"cebpf4jnsgd1na2vs0mg"},{"bike_id":"3644b1d7-5e3f-44e5-bbda-dd1c98d459c8","system_id":"levelo_inurba_marseille","lat":43.30596,"lon":5.37206,"is_reserved":false,"is_disabled":false,"rental_uris":{"android":"levelo://app?vid=3644b1d7-5e3f-44e5-bbda-dd1c98d459c8","ios":"levelo://app?vid=3644b1d7-5e3f-44e5-bbda-dd1c98d459c8"},"vehicle_type_id":"4","last_reported":1751019095,"current_range_meters":12400,"station_id":"ce4bgqh2rcd13ifvqc4g","pricing_plan_id":"cebpf4jnsgd1na2vs0mg"},{"bike_id":"af8ba51e-84b2-4469-9c36-d8b6717f32a1","system_id":"levelo_inurba_marseille","lat":43.30949,"lon":5.39023,"is_reserved":false,"is_disabled":false,"rental_uris":{"android":"levelo://app?vid=af8ba51e-84b2-4469-9c36-d8b6717f32a1","ios":"levelo://app?vid=af8ba51e-84b2-4469-9c36-d8b6717f32a1"},"vehicle_type_id":"4","last_reported":1751019095,"current_range_meters":12400,"station_id":"ce4bgup2rcd13ifvqco0","pricing_plan_id":"cebpf4jnsgd1na2vs0mg"},{"bike_id":"a87d2e08-b948-4111-b2a3-ff37a8b262c3","system_id":"levelo_inurba_marseille","lat":43.26685,"lon":5.38267,"is_reserved":false,"is_disabled":false,"rental_uris":{"android":"levelo://app?vid=a87d2e08-b948-4111-b2a3-ff37a8b262c3","ios":"levelo://app?vid=a87d2e08-b948-4111-b2a3-ff37a8b262c3"},"vehicle_type_id":"4","last_reported":1751019095,"current_range_meters":12400,"station_id":"ce4bhg92rcd13ifvqf90","pricing_plan_id":"cebpf4jnsgd1na2vs0mg"},{"bike_id":"b8954a9f-7ce8-456c-a0b7-ca33c9473361","system_id":"levelo_inurba_marseille","lat":43.31995,"lon":5.38151,"is_reserved":false,"is_disabled":false,"rental_uris":{"android":"levelo://app?vid=b8954a9f-7ce8-456c-a0b7-ca33c9473361","ios":"levelo://app?vid=b8954a9f-7ce8-456c-a0b7-ca33c9473361"},"vehicle_type_id":"4","last_reported":1751019095,"current_range_meters":12400,"station_id":"ce4bhr12rcd13ifvqhpg","pricing_plan_id":"cebpf4jnsgd1na2vs0mg"},{"bike_id":"1c8ab180-05fd-405f-9922-b2b2c2d5142f","system_id":"levelo_inurba_marseille","lat":43.32123,"lon":5.36774,"is_reserved":false,"is_disabled":false,"rental_uris":{"android":"levelo://app?vid=1c8ab180-05fd-405f-9922-b2b2c2d5142f","ios":"levelo://app?vid=1c8ab180-05fd-405f-9922-b2b2c2d5142f"},"vehicle_type_id":"4","last_reported":1751019095,"current_range_meters":12400,"station_id":"ce4bhrh2rcd13ifvqhug","pricing_plan_id":"cebpf4jnsgd1na2vs0mg"},{"bike_id":"a440f2f6-8cf8-4348-9ba1-e21002a18a07","system_id":"levelo_inurba_marseille","lat":43.3211,"lon":5.36779,"is_reserved":false,"is_disabled":false,"rental_uris":{"android":"levelo://app?vid=a440f2f6-8cf8-4348-9ba1-e21002a18a07","ios":"levelo://app?vid=a440f2f6-8cf8-4348-9ba1-e21002a18a07"},"vehicle_type_id":"4","last_reported":1751019095,"current_range_meters":12400,"station_id":"ce4bhrh2rcd13ifvqhug","pricing_plan_id":"cebpf4jnsgd1na2vs0mg"},{"bike_id":"8c539e0f-7590-4b6a-9b23-c613b10812b5","system_id":"levelo_inurba_marseille","lat":43.293038,"lon":5.374632,"is_reserved":false,"is_disabled":false,"rental_uris":{"android":"levelo://app?vid=8c539e0f-7590-4b6a-9b23-c613b10812b5","ios":"levelo://app?vid=8c539e0f-7590-4b6a-9b23-c613b10812b5"},"vehicle_type_id":"4","last_reported":1751019095,"current_range_meters":12800,"station_id":"","pricing_plan_id":"cebpf4jnsgd1na2vs0mg"},{"bike_id":"a37d97ab-a8c6-40a8-9099-6c96b7edb7d4","system_id":"levelo_inurba_marseille","lat":43.30611,"lon":5.37229,"is_reserved":false,"is_disabled":false,"rental_uris":{"android":"levelo://app?vid=a37d97ab-a8c6-40a8-9099-6c96b7edb7d4","ios":"levelo://app?vid=a37d97ab-a8c6-40a8-9099-6c96b7edb7d4"},"vehicle_type_id":"4","last_reported":1751019095,"current_range_meters":12800,"station_id":"ce4bgqh2rcd13ifvqc4g","pricing_plan_id":"cebpf4jnsgd1na2vs0mg"},{"bike_id":"106f51a6-8d14-465d-b94f-be0112029c3d","system_id":"levelo_inurba_marseille","lat":43.30534,"lon":5.36538,"is_reserved":false,"is_disabled":false,"rental_uris":{"android":"levelo://app?vid=106f51a6-8d14-465d-b94f-be0112029c3d","ios":"levelo://app?vid=106f51a6-8d14-465d-b94f-be0112029c3d"},"vehicle_type_id":"4","last_reported":1751019095,"current_range_meters":12800,"station_id":"ce4bgs12rcd13ifvqcag","pricing_plan_id":"cebpf4jnsgd1na2vs0mg"},{"bike_id":"dbff0a2d-15ca-4d61-8134-cd37d810d54b","system_id":"levelo_inurba_marseille","lat":43.30942,"lon":5.39035,"is_reserved":false,"is_disabled":false,"rental_uris":{"android":"levelo://app?vid=dbff0a2d-15ca-4d61-8134-cd37d810d54b","ios":"levelo://app?vid=dbff0a2d-15ca-4d61-8134-cd37d810d54b"},"vehicle_type_id":"4","last_reported":1751019095,"current_range_meters":12800,"station_id":"ce4bgup2rcd13ifvqco0","pricing_plan_id":"cebpf4jnsgd1na2vs0mg"},{"bike_id":"3f2e5038-cd5f-466d-9578-2783163f088e","system_id":"levelo_inurba_marseille","lat":43.32111,"lon":5.36806,"is_reserved":false,"is_disabled":false,"rental_uris":{"android":"levelo://app?vid=3f2e5038-cd5f-466d-9578-2783163f088e","ios":"levelo://app?vid=3f2e5038-cd5f-466d-9578-2783163f088e"},"vehicle_type_id":"4","last_reported":1751019095,"current_range_meters":12800,"station_id":"ce4bhrh2rcd13ifvqhug","pricing_plan_id":"cebpf4jnsgd1na2vs0mg"},{"bike_id":"5bcf0533-8831-4913-bd8d-ff1c5a38eae0","system_id":"levelo_inurba_marseille","lat":43.24804,"lon":5.37451,"is_reserved":false,"is_disabled":false,"rental_uris":{"android":"levelo://app?vid=5bcf0533-8831-4913-bd8d-ff1c5a38eae0","ios":"levelo://app?vid=5bcf0533-8831-4913-bd8d-ff1c5a38eae0"},"vehicle_type_id":"4","last_reported":1751019095,"current_range_meters":13600,"station_id":"ce4bhgh2rcd13ifvqfb0","pricing_plan_id":"cebpf4jnsgd1na2vs0mg"},{"bike_id":"aca6d327-2825-46c2-879d-79a9b22599e6","system_id":"levelo_inurba_marseille","lat":43.25091,"lon":5.39521,"is_reserved":false,"is_disabled":false,"rental_uris":{"android":"levelo://app?vid=aca6d327-2825-46c2-879d-79a9b22599e6","ios":"levelo://app?vid=aca6d327-2825-46c2-879d-79a9b22599e6"},"vehicle_type_id":"4","last_reported":1751019095,"current_range_meters":13600,"station_id":"ce4bhm12rcd13ifvqgkg","pricing_plan_id":"cebpf4jnsgd1na2vs0mg"},{"bike_id":"e7c86b76-fec6-4d82-9589-044e8efa048a","system_id":"levelo_inurba_marseille","lat":43.32279,"lon":5.38284,"is_reserved":false,"is_disabled":false,"rental_uris":{"android":"levelo://app?vid=e7c86b76-fec6-4d82-9589-044e8efa048a","ios":"levelo://app?vid=e7c86b76-fec6-4d82-9589-044e8efa048a"},"vehicle_type_id":"4","last_reported":1751019095,"current_range_meters":13600,"station_id":"ce4bhr12rcd13ifvqhqg","pricing_plan_id":"cebpf4jnsgd1na2vs0mg"},{"bike_id":"a8cbac99-e5e2-4544-85a1-388f92a46007","system_id":"levelo_inurba_marseille","lat":43.30148,"lon":5.38078,"is_reserved":false,"is_disabled":false,"rental_uris":{"android":"levelo://app?vid=a8cbac99-e5e2-4544-85a1-388f92a46007","ios":"levelo://app?vid=a8cbac99-e5e2-4544-85a1-388f92a46007"},"vehicle_type_id":"4","last_reported":1751019095,"current_range_meters":14000,"station_id":"ce4bgjp2rcd13ifvqbh0","pricing_plan_id":"cebpf4jnsgd1na2vs0mg"},{"bike_id":"4680b3e2-9e9c-40d4-8e0d-f060fdcf1d41","system_id":"levelo_inurba_marseille","lat":43.30153,"lon":5.37385,"is_reserved":false,"is_disabled":false,"rental_uris":{"android":"levelo://app?vid=4680b3e2-9e9c-40d4-8e0d-f060fdcf1d41","ios":"levelo://app?vid=4680b3e2-9e9c-40d4-8e0d-f060fdcf1d41"},"vehicle_type_id":"4","last_reported":1751019095,"current_range_meters":14000,"station_id":"ce4bgs92rcd13ifvqcc0","pricing_plan_id":"cebpf4jnsgd1na2vs0mg"},{"bike_id":"8ec91896-196b-4e2c-8910-cd4df06d7a12","system_id":"levelo_inurba_marseille","lat":43.31116,"lon":5.37768,"is_reserved":false,"is_disabled":false,"rental_uris":{"android":"levelo://app?vid=8ec91896-196b-4e2c-8910-cd4df06d7a12","ios":"levelo://app?vid=8ec91896-196b-4e2c-8910-cd4df06d7a12"},"vehicle_type_id":"4","last_reported":1751019095,"current_range_meters":14000,"station_id":"ce4bgt92rcd13ifvqcg0","pricing_plan_id":"cebpf4jnsgd1na2vs0mg"},{"bike_id":"104d9a39-d4fe-4577-bd3e-dfa2a6c208e7","system_id":"levelo_inurba_marseille","lat":43.27188,"lon":5.40993,"is_reserved":false,"is_disabled":false,"rental_uris":{"android":"levelo://app?vid=104d9a39-d4fe-4577-bd3e-dfa2a6c208e7","ios":"levelo://app?vid=104d9a39-d4fe-4577-bd3e-dfa2a6c208e7"},"vehicle_type_id":"4","last_reported":1751019095,"current_range_meters":14000,"station_id":"ce4bhl12rcd13ifvqgf0","pricing_plan_id":"cebpf4jnsgd1na2vs0mg"},{"bike_id":"438fc898-61e9-46c5-b365-b7c31cd7831e","system_id":"levelo_inurba_marseille","lat":43.29792,"lon":5.39351,"is_reserved":false,"is_disabled":false,"rental_uris":{"android":"levelo://app?vid=438fc898-61e9-46c5-b365-b7c31cd7831e","ios":"levelo://app?vid=438fc898-61e9-46c5-b365-b7c31cd7831e"},"vehicle_type_id":"4","last_reported":1751019095,"current_range_meters":14000,"station_id":"chh1huq6cuj3fo74tm60","pricing_plan_id":"cebpf4jnsgd1na2vs0mg"},{"bike_id":"5a01ae6d-9064-484c-8d77-2d9e141e2313","system_id":"levelo_inurba_marseille","lat":43.24483,"lon":5.38981,"is_reserved":false,"is_disabled":false,"rental_uris":{"android":"levelo://app?vid=5a01ae6d-9064-484c-8d77-2d9e141e2313","ios":"levelo://app?vid=5a01ae6d-9064-484c-8d77-2d9e141e2313"},"vehicle_type_id":"4","last_reported":1751019095,"current_range_meters":14400,"station_id":"","pricing_plan_id":"cebpf4jnsgd1na2vs0mg"},{"bike_id":"b8094826-a7d8-439e-81ea-79ce926552e6","system_id":"levelo_inurba_marseille","lat":43.30908,"lon":5.36843,"is_reserved":false,"is_disabled":false,"rental_uris":{"android":"levelo://app?vid=b8094826-a7d8-439e-81ea-79ce926552e6","ios":"levelo://app?vid=b8094826-a7d8-439e-81ea-79ce926552e6"},"vehicle_type_id":"4","last_reported":1751019095,"current_range_meters":14400,"station_id":"ce4bgn92rcd13ifvqbvg","pricing_plan_id":"cebpf4jnsgd1na2vs0mg"},{"bike_id":"e5ae1fdd-ad1c-4e69-ac70-f715e6402e6b","system_id":"levelo_inurba_marseille","lat":43.277321,"lon":5.398719,"is_reserved":false,"is_disabled":false,"rental_uris":{"android":"levelo://app?vid=e5ae1fdd-ad1c-4e69-ac70-f715e6402e6b","ios":"levelo://app?vid=e5ae1fdd-ad1c-4e69-ac70-f715e6402e6b"},"vehicle_type_id":"4","last_reported":1751019095,"current_range_meters":14800,"station_id":"","pricing_plan_id":"cebpf4jnsgd1na2vs0mg"},{"bike_id":"9b2359b1-8fb4-4499-b772-c19390c8d6b0","system_id":"levelo_inurba_marseille","lat":43.296,"lon":5.38093,"is_reserved":false,"is_disabled":false,"rental_uris":{"android":"levelo://app?vid=9b2359b1-8fb4-4499-b772-c19390c8d6b0","ios":"levelo://app?vid=9b2359b1-8fb4-4499-b772-c19390c8d6b0"},"vehicle_type_id":"4","last_reported":1751019095,"current_range_meters":14800,"station_id":"ce4bgl12rcd13ifvqbo0","pricing_plan_id":"cebpf4jnsgd1na2vs0mg"},{"bike_id":"fe78de29-6f01-4c97-b1ea-fd1cbf40c3f5","system_id":"levelo_inurba_marseille","lat":43.30598,"lon":5.37234,"is_reserved":false,"is_disabled":false,"rental_uris":{"android":"levelo://app?vid=fe78de29-6f01-4c97-b1ea-fd1cbf40c3f5","ios":"levelo://app?vid=fe78de29-6f01-4c97-b1ea-fd1cbf40c3f5"},"vehicle_type_id":"4","last_reported":1751019095,"current_range_meters":14800,"station_id":"ce4bgqh2rcd13ifvqc4g","pricing_plan_id":"cebpf4jnsgd1na2vs0mg"},{"bike_id":"d2b6899a-4fd7-456e-a51f-91f254d564fe","system_id":"levelo_inurba_marseille","lat":43.30194,"lon":5.366,"is_reserved":false,"is_disabled":false,"rental_uris":{"android":"levelo://app?vid=d2b6899a-4fd7-456e-a51f-91f254d564fe","ios":"levelo://app?vid=d2b6899a-4fd7-456e-a51f-91f254d564fe"},"vehicle_type_id":"4","last_reported":1751019095,"current_range_meters":14800,"station_id":"ce4bgrh2rcd13ifvqc8g","pricing_plan_id":"cebpf4jnsgd1na2vs0mg"},{"bike_id":"abe7f275-bd6a-44a7-9444-93f4ceea78f8","system_id":"levelo_inurba_marseille","lat":43.30551,"lon":5.36538,"is_reserved":false,"is_disabled":false,"rental_uris":{"android":"levelo://app?vid=abe7f275-bd6a-44a7-9444-93f4ceea78f8","ios":"levelo://app?vid=abe7f275-bd6a-44a7-9444-93f4ceea78f8"},"vehicle_type_id":"4","last_reported":1751019095,"current_range_meters":14800,"station_id":"ce4bgs12rcd13ifvqcag","pricing_plan_id":"cebpf4jnsgd1na2vs0mg"},{"bike_id":"5d4164c2-df8c-4cfb-a850-2f8f984d4e42","system_id":"levelo_inurba_marseille","lat":43.3149,"lon":5.37292,"is_reserved":false,"is_disabled":false,"rental_uris":{"android":"levelo://app?vid=5d4164c2-df8c-4cfb-a850-2f8f984d4e42","ios":"levelo://app?vid=5d4164c2-df8c-4cfb-a850-2f8f984d4e42"},"vehicle_type_id":"4","last_reported":1751019095,"current_range_meters":14800,"station_id":"ce4bgt12rcd13ifvqcd0","pricing_plan_id":"cebpf4jnsgd1na2vs0mg"},{"bike_id":"59ea4d82-23d8-4659-8df9-40d1ed1b4885","system_id":"levelo_inurba_marseille","lat":43.2439,"lon":5.37051,"is_reserved":false,"is_disabled":false,"rental_uris":{"android":"levelo://app?vid=59ea4d82-23d8-4659-8df9-40d1ed1b4885","ios":"levelo://app?vid=59ea4d82-23d8-4659-8df9-40d1ed1b4885"},"vehicle_type_id":"4","last_reported":1751019095,"current_range_meters":14800,"station_id":"ce4bhhh2rcd13ifvqfk0","pricing_plan_id":"cebpf4jnsgd1na2vs0mg"},{"bike_id":"c61476dd-8adb-4613-b539-a7361fccf837","system_id":"levelo_inurba_marseille","lat":43.23961,"lon":5.36636,"is_reserved":false,"is_disabled":false,"rental_uris":{"android":"levelo://app?vid=c61476dd-8adb-4613-b539-a7361fccf837","ios":"levelo://app?vid=c61476dd-8adb-4613-b539-a7361fccf837"},"vehicle_type_id":"4","last_reported":1751019095,"current_range_meters":14800,"station_id":"ce4bhi12rcd13ifvqfp0","pricing_plan_id":"cebpf4jnsgd1na2vs0mg"},{"bike_id":"b54a6df0-ba54-4ea5-86b0-276d4d37ac3e","system_id":"levelo_inurba_marseille","lat":43.30138,"lon":5.38105,"is_reserved":false,"is_disabled":false,"rental_uris":{"android":"levelo://app?vid=b54a6df0-ba54-4ea5-86b0-276d4d37ac3e","ios":"levelo://app?vid=b54a6df0-ba54-4ea5-86b0-276d4d37ac3e"},"vehicle_type_id":"4","last_reported":1751019095,"current_range_meters":15200,"station_id":"","pricing_plan_id":"cebpf4jnsgd1na2vs0mg"},{"bike_id":"cefc4803-4bc8-49e1-b0ee-01e83e6bf58d","system_id":"levelo_inurba_marseille","lat":43.305322,"lon":5.384316,"is_reserved":false,"is_disabled":false,"rental_uris":{"android":"levelo://app?vid=cefc4803-4bc8-49e1-b0ee-01e83e6bf58d","ios":"levelo://app?vid=cefc4803-4bc8-49e1-b0ee-01e83e6bf58d"},"vehicle_type_id":"4","last_reported":1751019095,"current_range_meters":15200,"station_id":"ce4bgg92rcd13ifvqb30","pricing_plan_id":"cebpf4jnsgd1na2vs0mg"},{"bike_id":"9c1032ab-9c85-47a5-b52d-cca14ff69445","system_id":"levelo_inurba_marseille","lat":43.30563,"lon":5.36543,"is_reserved":false,"is_disabled":false,"rental_uris":{"android":"levelo://app?vid=9c1032ab-9c85-47a5-b52d-cca14ff69445","ios":"levelo://app?vid=9c1032ab-9c85-47a5-b52d-cca14ff69445"},"vehicle_type_id":"4","last_reported":1751019095,"current_range_meters":15200,"station_id":"ce4bgs12rcd13ifvqcag","pricing_plan_id":"cebpf4jnsgd1na2vs0mg"},{"bike_id":"d121aa6f-9adf-4b98-b0a9-5ee14759d27f","system_id":"levelo_inurba_marseille","lat":43.28615,"lon":5.35098,"is_reserved":false,"is_disabled":false,"rental_uris":{"android":"levelo://app?vid=d121aa6f-9adf-4b98-b0a9-5ee14759d27f","ios":"levelo://app?vid=d121aa6f-9adf-4b98-b0a9-5ee14759d27f"},"vehicle_type_id":"4","last_reported":1751019095,"current_range_meters":15200,"station_id":"ce4bhch2rcd13ifvqeug","pricing_plan_id":"cebpf4jnsgd1na2vs0mg"},{"bike_id":"bb69c1e1-7084-4be7-966a-57a7bcdfcb6c","system_id":"levelo_inurba_marseille","lat":43.246201,"lon":5.416116,"is_reserved":false,"is_disabled":false,"rental_uris":{"android":"levelo://app?vid=bb69c1e1-7084-4be7-966a-57a7bcdfcb6c","ios":"levelo://app?vid=bb69c1e1-7084-4be7-966a-57a7bcdfcb6c"},"vehicle_type_id":"4","last_reported":1751019095,"current_range_meters":16000,"station_id":"","pricing_plan_id":"cebpf4jnsgd1na2vs0mg"},{"bike_id":"7de1eed6-6d13-4525-bbed-9a9608325c3f","system_id":"levelo_inurba_marseille","lat":43.29515,"lon":5.37507,"is_reserved":false,"is_disabled":false,"rental_uris":{"android":"levelo://app?vid=7de1eed6-6d13-4525-bbed-9a9608325c3f","ios":"levelo://app?vid=7de1eed6-6d13-4525-bbed-9a9608325c3f"},"vehicle_type_id":"4","last_reported":1751019095,"current_range_meters":16000,"station_id":"ce4bgkp2rcd13ifvqbmg","pricing_plan_id":"cebpf4jnsgd1na2vs0mg"},{"bike_id":"7334ead0-7bb7-454b-b482-b91d5fe4b984","system_id":"levelo_inurba_marseille","lat":43.30534,"lon":5.36705,"is_reserved":false,"is_disabled":false,"rental_uris":{"android":"levelo://app?vid=7334ead0-7bb7-454b-b482-b91d5fe4b984","ios":"levelo://app?vid=7334ead0-7bb7-454b-b482-b91d5fe4b984"},"vehicle_type_id":"4","last_reported":1751019095,"current_range_meters":16000,"station_id":"ce4bgrp2rcd13ifvqc9g","pricing_plan_id":"cebpf4jnsgd1na2vs0mg"},{"bike_id":"7b685c5f-dfdd-49f6-b885-397fcfb6526d","system_id":"levelo_inurba_marseille","lat":43.30542,"lon":5.36525,"is_reserved":false,"is_disabled":false,"rental_uris":{"android":"levelo://app?vid=7b685c5f-dfdd-49f6-b885-397fcfb6526d","ios":"levelo://app?vid=7b685c5f-dfdd-49f6-b885-397fcfb6526d"},"vehicle_type_id":"4","last_reported":1751019095,"current_range_meters":16000,"station_id":"ce4bgs12rcd13ifvqcag","pricing_plan_id":"cebpf4jnsgd1na2vs0mg"},{"bike_id":"8f9a6e2d-dc17-40d2-aa9a-c5606c17b356","system_id":"levelo_inurba_marseille","lat":43.29006,"lon":5.35605,"is_reserved":false,"is_disabled":false,"rental_uris":{"android":"levelo://app?vid=8f9a6e2d-dc17-40d2-aa9a-c5606c17b356","ios":"levelo://app?vid=8f9a6e2d-dc17-40d2-aa9a-c5606c17b356"},"vehicle_type_id":"4","last_reported":1751019095,"current_range_meters":16000,"station_id":"ce4bhb92rcd13ifvqen0","pricing_plan_id":"cebpf4jnsgd1na2vs0mg"},{"bike_id":"9236e416-d43c-4917-bde2-5458c49e0d71","system_id":"levelo_inurba_marseille","lat":43.2587,"lon":5.39897,"is_reserved":false,"is_disabled":false,"rental_uris":{"android":"levelo://app?vid=9236e416-d43c-4917-bde2-5458c49e0d71","ios":"levelo://app?vid=9236e416-d43c-4917-bde2-5458c49e0d71"},"vehicle_type_id":"4","last_reported":1751019095,"current_range_meters":16000,"station_id":"ce4bhl92rcd13ifvqghg","pricing_plan_id":"cebpf4jnsgd1na2vs0mg"},{"bike_id":"63510074-d44a-40b9-9bfb-eb71dfd543d9","system_id":"levelo_inurba_marseille","lat":43.23148,"lon":5.437233,"is_reserved":false,"is_disabled":false,"rental_uris":{"android":"levelo://app?vid=63510074-d44a-40b9-9bfb-eb71dfd543d9","ios":"levelo://app?vid=63510074-d44a-40b9-9bfb-eb71dfd543d9"},"vehicle_type_id":"4","last_reported":1751019095,"current_range_meters":16000,"station_id":"ce4bhmp2rcd13ifvqgog","pricing_plan_id":"cebpf4jnsgd1na2vs0mg"},{"bike_id":"46fc1da8-b21e-49ec-9f51-bd3892d403d9","system_id":"levelo_inurba_marseille","lat":43.24169,"lon":5.36392,"is_reserved":false,"is_disabled":false,"rental_uris":{"android":"levelo://app?vid=46fc1da8-b21e-49ec-9f51-bd3892d403d9","ios":"levelo://app?vid=46fc1da8-b21e-49ec-9f51-bd3892d403d9"},"vehicle_type_id":"4","last_reported":1751019095,"current_range_meters":16000,"station_id":"cpo36qri1sfpv3e86is0","pricing_plan_id":"cebpf4jnsgd1na2vs0mg"},{"bike_id":"3e1232f5-8b67-4594-9354-d0c1a38e7cb6","system_id":"levelo_inurba_marseille","lat":43.23991,"lon":5.37758,"is_reserved":false,"is_disabled":false,"rental_uris":{"android":"levelo://app?vid=3e1232f5-8b67-4594-9354-d0c1a38e7cb6","ios":"levelo://app?vid=3e1232f5-8b67-4594-9354-d0c1a38e7cb6"},"vehicle_type_id":"4","last_reported":1751019095,"current_range_meters":16400,"station_id":"","pricing_plan_id":"cebpf4jnsgd1na2vs0mg"},{"bike_id":"687dca9f-d68f-47b7-b9a4-53dc68a8df0e","system_id":"levelo_inurba_marseille","lat":43.29718,"lon":5.37688,"is_reserved":false,"is_disabled":false,"rental_uris":{"android":"levelo://app?vid=687dca9f-d68f-47b7-b9a4-53dc68a8df0e","ios":"levelo://app?vid=687dca9f-d68f-47b7-b9a4-53dc68a8df0e"},"vehicle_type_id":"4","last_reported":1751019095,"current_range_meters":16400,"station_id":"ce4bgkh2rcd13ifvqbl0","pricing_plan_id":"cebpf4jnsgd1na2vs0mg"},{"bike_id":"ba5e5b9e-7c7e-4a79-9f6b-40979a220907","system_id":"levelo_inurba_marseille","lat":43.297088,"lon":5.376913,"is_reserved":false,"is_disabled":false,"rental_uris":{"android":"levelo://app?vid=ba5e5b9e-7c7e-4a79-9f6b-40979a220907","ios":"levelo://app?vid=ba5e5b9e-7c7e-4a79-9f6b-40979a220907"},"vehicle_type_id":"4","last_reported":1751019095,"current_range_meters":16400,"station_id":"ce4bgkh2rcd13ifvqbl0","pricing_plan_id":"cebpf4jnsgd1na2vs0mg"},{"bike_id":"ad31fae6-4da4-4b6b-8844-651d9203a873","system_id":"levelo_inurba_marseille","lat":43.29985,"lon":5.36537,"is_reserved":false,"is_disabled":false,"rental_uris":{"android":"levelo://app?vid=ad31fae6-4da4-4b6b-8844-651d9203a873","ios":"levelo://app?vid=ad31fae6-4da4-4b6b-8844-651d9203a873"},"vehicle_type_id":"4","last_reported":1751019095,"current_range_meters":16400,"station_id":"ce4bgm92rcd13ifvqbr0","pricing_plan_id":"cebpf4jnsgd1na2vs0mg"},{"bike_id":"32d87735-f4f6-4d38-9231-2815176a85e0","system_id":"levelo_inurba_marseille","lat":43.295826,"lon":5.367444,"is_reserved":false,"is_disabled":false,"rental_uris":{"android":"levelo://app?vid=32d87735-f4f6-4d38-9231-2815176a85e0","ios":"levelo://app?vid=32d87735-f4f6-4d38-9231-2815176a85e0"},"vehicle_type_id":"4","last_reported":1751019095,"current_range_meters":16400,"station_id":"ce4bgnh2rcd13ifvqc0g","pricing_plan_id":"cebpf4jnsgd1na2vs0mg"},{"bike_id":"28088631-91f6-4679-9cfa-4602908b7642","system_id":"levelo_inurba_marseille","lat":43.31355,"lon":5.36717,"is_reserved":false,"is_disabled":false,"rental_uris":{"android":"levelo://app?vid=28088631-91f6-4679-9cfa-4602908b7642","ios":"levelo://app?vid=28088631-91f6-4679-9cfa-4602908b7642"},"vehicle_type_id":"4","last_reported":1751019095,"current_range_meters":16400,"station_id":"ce4bgr92rcd13ifvqc6g","pricing_plan_id":"cebpf4jnsgd1na2vs0mg"},{"bike_id":"f9a2dc84-59a1-4dd0-83f4-1c8a4149038b","system_id":"levelo_inurba_marseille","lat":43.30558,"lon":5.36558,"is_reserved":false,"is_disabled":false,"rental_uris":{"android":"levelo://app?vid=f9a2dc84-59a1-4dd0-83f4-1c8a4149038b","ios":"levelo://app?vid=f9a2dc84-59a1-4dd0-83f4-1c8a4149038b"},"vehicle_type_id":"4","last_reported":1751019095,"current_range_meters":16400,"station_id":"ce4bgs12rcd13ifvqcag","pricing_plan_id":"cebpf4jnsgd1na2vs0mg"},{"bike_id":"7b9561a3-f7ea-4a59-9836-27499b8951c1","system_id":"levelo_inurba_marseille","lat":43.30941,"lon":5.39052,"is_reserved":false,"is_disabled":false,"rental_uris":{"android":"levelo://app?vid=7b9561a3-f7ea-4a59-9836-27499b8951c1","ios":"levelo://app?vid=7b9561a3-f7ea-4a59-9836-27499b8951c1"},"vehicle_type_id":"4","last_reported":1751019095,"current_range_meters":16400,"station_id":"ce4bgup2rcd13ifvqco0","pricing_plan_id":"cebpf4jnsgd1na2vs0mg"},{"bike_id":"071b13cb-6188-410a-9240-e5fb9a8a36af","system_id":"levelo_inurba_marseille","lat":43.28414,"lon":5.34993,"is_reserved":false,"is_disabled":false,"rental_uris":{"android":"levelo://app?vid=071b13cb-6188-410a-9240-e5fb9a8a36af","ios":"levelo://app?vid=071b13cb-6188-410a-9240-e5fb9a8a36af"},"vehicle_type_id":"4","last_reported":1751019095,"current_range_meters":16400,"station_id":"ce4bhbh2rcd13ifvqepg","pricing_plan_id":"cebpf4jnsgd1na2vs0mg"},{"bike_id":"15462c81-b561-4e17-8e18-4861348b7e12","system_id":"levelo_inurba_marseille","lat":43.25922,"lon":5.40842,"is_reserved":false,"is_disabled":false,"rental_uris":{"android":"levelo://app?vid=15462c81-b561-4e17-8e18-4861348b7e12","ios":"levelo://app?vid=15462c81-b561-4e17-8e18-4861348b7e12"},"vehicle_type_id":"4","last_reported":1751019095,"current_range_meters":16400,"station_id":"ce4bhm92rcd13ifvqglg","pricing_plan_id":"cebpf4jnsgd1na2vs0mg"},{"bike_id":"c21dbb0d-fea4-4599-a646-3e9d91ade8b9","system_id":"levelo_inurba_marseille","lat":43.27812,"lon":5.40709,"is_reserved":false,"is_disabled":false,"rental_uris":{"android":"levelo://app?vid=c21dbb0d-fea4-4599-a646-3e9d91ade8b9","ios":"levelo://app?vid=c21dbb0d-fea4-4599-a646-3e9d91ade8b9"},"vehicle_type_id":"4","last_reported":1751019095,"current_range_meters":16400,"station_id":"ce4bhnh2rcd13ifvqgtg","pricing_plan_id":"cebpf4jnsgd1na2vs0mg"},{"bike_id":"57d6eb9e-33e5-482e-9465-914c364d7397","system_id":"levelo_inurba_marseille","lat":43.32294,"lon":5.38275,"is_reserved":false,"is_disabled":false,"rental_uris":{"android":"levelo://app?vid=57d6eb9e-33e5-482e-9465-914c364d7397","ios":"levelo://app?vid=57d6eb9e-33e5-482e-9465-914c364d7397"},"vehicle_type_id":"4","last_reported":1751019095,"current_range_meters":16400,"station_id":"ce4bhr12rcd13ifvqhqg","pricing_plan_id":"cebpf4jnsgd1na2vs0mg"},{"bike_id":"834ea9c2-9ad0-4ddb-bd7d-21774b9745cd","system_id":"levelo_inurba_marseille","lat":43.22505,"lon":5.34779,"is_reserved":false,"is_disabled":false,"rental_uris":{"android":"levelo://app?vid=834ea9c2-9ad0-4ddb-bd7d-21774b9745cd","ios":"levelo://app?vid=834ea9c2-9ad0-4ddb-bd7d-21774b9745cd"},"vehicle_type_id":"4","last_reported":1751019095,"current_range_meters":16400,"station_id":"st_cvj5dfep6f1abm77gieg","pricing_plan_id":"cebpf4jnsgd1na2vs0mg"},{"bike_id":"e6ce70f7-9138-485c-a4db-2c9174614cff","system_id":"levelo_inurba_marseille","lat":43.317725,"lon":5.368521,"is_reserved":false,"is_disabled":false,"rental_uris":{"android":"levelo://app?vid=e6ce70f7-9138-485c-a4db-2c9174614cff","ios":"levelo://app?vid=e6ce70f7-9138-485c-a4db-2c9174614cff"},"vehicle_type_id":"4","last_reported":1751019095,"current_range_meters":16800,"station_id":"","pricing_plan_id":"cebpf4jnsgd1na2vs0mg"},{"bike_id":"bad20152-5d0c-479b-8656-e3b2e99e76b6","system_id":"levelo_inurba_marseille","lat":43.30502,"lon":5.36555,"is_reserved":false,"is_disabled":false,"rental_uris":{"android":"levelo://app?vid=bad20152-5d0c-479b-8656-e3b2e99e76b6","ios":"levelo://app?vid=bad20152-5d0c-479b-8656-e3b2e99e76b6"},"vehicle_type_id":"4","last_reported":1751019095,"current_range_meters":16800,"station_id":"","pricing_plan_id":"cebpf4jnsgd1na2vs0mg"},{"bike_id":"00577721-5398-4a53-8e79-cb06c01a0591","system_id":"levelo_inurba_marseille","lat":43.30302,"lon":5.36889,"is_reserved":false,"is_disabled":false,"rental_uris":{"android":"levelo://app?vid=00577721-5398-4a53-8e79-cb06c01a0591","ios":"levelo://app?vid=00577721-5398-4a53-8e79-cb06c01a0591"},"vehicle_type_id":"4","last_reported":1751019095,"current_range_meters":16800,"station_id":"ce4bgqh2rcd13ifvqc5g","pricing_plan_id":"cebpf4jnsgd1na2vs0mg"},{"bike_id":"95ff6c13-563f-40bb-a582-1104f2f81bde","system_id":"levelo_inurba_marseille","lat":43.286987,"lon":5.351915,"is_reserved":false,"is_disabled":false,"rental_uris":{"android":"levelo://app?vid=95ff6c13-563f-40bb-a582-1104f2f81bde","ios":"levelo://app?vid=95ff6c13-563f-40bb-a582-1104f2f81bde"},"vehicle_type_id":"4","last_reported":1751019095,"current_range_meters":16800,"station_id":"ce4bh9p2rcd13ifvqed0","pricing_plan_id":"cebpf4jnsgd1na2vs0mg"},{"bike_id":"1d514c16-0638-47f2-a148-6d034f888e31","system_id":"levelo_inurba_marseille","lat":43.2979,"lon":5.38229,"is_reserved":false,"is_disabled":false,"rental_uris":{"android":"levelo://app?vid=1d514c16-0638-47f2-a148-6d034f888e31","ios":"levelo://app?vid=1d514c16-0638-47f2-a148-6d034f888e31"},"vehicle_type_id":"4","last_reported":1751019095,"current_range_meters":16800,"station_id":"ce4bhb12rcd13ifvqel0","pricing_plan_id":"cebpf4jnsgd1na2vs0mg"},{"bike_id":"001b031d-09d7-4189-9caf-bdcd819378fa","system_id":"levelo_inurba_marseille","lat":43.28441,"lon":5.34979,"is_reserved":false,"is_disabled":false,"rental_uris":{"android":"levelo://app?vid=001b031d-09d7-4189-9caf-bdcd819378fa","ios":"levelo://app?vid=001b031d-09d7-4189-9caf-bdcd819378fa"},"vehicle_type_id":"4","last_reported":1751019095,"current_range_meters":16800,"station_id":"ce4bhbh2rcd13ifvqepg","pricing_plan_id":"cebpf4jnsgd1na2vs0mg"},{"bike_id":"f0057ca2-de2d-4464-8902-068dc3677e00","system_id":"levelo_inurba_marseille","lat":43.21178,"lon":5.35069,"is_reserved":false,"is_disabled":false,"rental_uris":{"android":"levelo://app?vid=f0057ca2-de2d-4464-8902-068dc3677e00","ios":"levelo://app?vid=f0057ca2-de2d-4464-8902-068dc3677e00"},"vehicle_type_id":"4","last_reported":1751019095,"current_range_meters":16800,"station_id":"st_cvj6sg6p6f1abm77japg","pricing_plan_id":"cebpf4jnsgd1na2vs0mg"},{"bike_id":"1b39abf9-3a3f-4d80-915b-22905554f4a6","system_id":"levelo_inurba_marseille","lat":43.30121,"lon":5.36399,"is_reserved":false,"is_disabled":false,"rental_uris":{"android":"levelo://app?vid=1b39abf9-3a3f-4d80-915b-22905554f4a6","ios":"levelo://app?vid=1b39abf9-3a3f-4d80-915b-22905554f4a6"},"vehicle_type_id":"4","last_reported":1751019095,"current_range_meters":17200,"station_id":"","pricing_plan_id":"cebpf4jnsgd1na2vs0mg"},{"bike_id":"c9a99b63-28d9-4f62-a78c-9f43741861bc","system_id":"levelo_inurba_marseille","lat":43.30527,"lon":5.38422,"is_reserved":false,"is_disabled":false,"rental_uris":{"android":"levelo://app?vid=c9a99b63-28d9-4f62-a78c-9f43741861bc","ios":"levelo://app?vid=c9a99b63-28d9-4f62-a78c-9f43741861bc"},"vehicle_type_id":"4","last_reported":1751019095,"current_range_meters":17200,"station_id":"ce4bgg92rcd13ifvqb30","pricing_plan_id":"cebpf4jnsgd1na2vs0mg"},{"bike_id":"130fd3b1-7e84-47c4-97a9-9edd92f6cd4b","system_id":"levelo_inurba_marseille","lat":43.30461,"lon":5.37897,"is_reserved":false,"is_disabled":false,"rental_uris":{"android":"levelo://app?vid=130fd3b1-7e84-47c4-97a9-9edd92f6cd4b","ios":"levelo://app?vid=130fd3b1-7e84-47c4-97a9-9edd92f6cd4b"},"vehicle_type_id":"4","last_reported":1751019095,"current_range_meters":17200,"station_id":"ce4bgup2rcd13ifvqcn0","pricing_plan_id":"cebpf4jnsgd1na2vs0mg"},{"bike_id":"935c8062-ae25-46e0-901d-4b81929b99b7","system_id":"levelo_inurba_marseille","lat":43.21752,"lon":5.34604,"is_reserved":false,"is_disabled":false,"rental_uris":{"android":"levelo://app?vid=935c8062-ae25-46e0-901d-4b81929b99b7","ios":"levelo://app?vid=935c8062-ae25-46e0-901d-4b81929b99b7"},"vehicle_type_id":"4","last_reported":1751019095,"current_range_meters":17200,"station_id":"st_cvj6r9ubvosntc0bgbag","pricing_plan_id":"cebpf4jnsgd1na2vs0mg"},{"bike_id":"e3aa9769-07bd-40fc-b1ee-9cc66211ab32","system_id":"levelo_inurba_marseille","lat":43.33759,"lon":5.37428,"is_reserved":false,"is_disabled":false,"rental_uris":{"android":"levelo://app?vid=e3aa9769-07bd-40fc-b1ee-9cc66211ab32","ios":"levelo://app?vid=e3aa9769-07bd-40fc-b1ee-9cc66211ab32"},"vehicle_type_id":"4","last_reported":1751019095,"current_range_meters":17600,"station_id":"","pricing_plan_id":"cebpf4jnsgd1na2vs0mg"},{"bike_id":"1a23948e-522f-4e95-8795-c2eaa1af670a","system_id":"levelo_inurba_marseille","lat":43.28115,"lon":5.39835,"is_reserved":false,"is_disabled":false,"rental_uris":{"android":"levelo://app?vid=1a23948e-522f-4e95-8795-c2eaa1af670a","ios":"levelo://app?vid=1a23948e-522f-4e95-8795-c2eaa1af670a"},"vehicle_type_id":"4","last_reported":1751019095,"current_range_meters":17600,"station_id":"","pricing_plan_id":"cebpf4jnsgd1na2vs0mg"},{"bike_id":"9fd15b51-c27a-4a76-996a-644caac9cee1","system_id":"levelo_inurba_marseille","lat":43.29914,"lon":5.40065,"is_reserved":false,"is_disabled":false,"rental_uris":{"android":"levelo://app?vid=9fd15b51-c27a-4a76-996a-644caac9cee1","ios":"levelo://app?vid=9fd15b51-c27a-4a76-996a-644caac9cee1"},"vehicle_type_id":"4","last_reported":1751019095,"current_range_meters":17600,"station_id":"","pricing_plan_id":"cebpf4jnsgd1na2vs0mg"},{"bike_id":"815201a7-dbbe-4827-ab77-bd49f80ea5ee","system_id":"levelo_inurba_marseille","lat":43.297564,"lon":5.459985,"is_reserved":false,"is_disabled":false,"rental_uris":{"android":"levelo://app?vid=815201a7-dbbe-4827-ab77-bd49f80ea5ee","ios":"levelo://app?vid=815201a7-dbbe-4827-ab77-bd49f80ea5ee"},"vehicle_type_id":"4","last_reported":1751019095,"current_range_meters":17600,"station_id":"","pricing_plan_id":"cebpf4jnsgd1na2vs0mg"},{"bike_id":"2a38f599-a5c6-4dd1-beaa-9dd25b63ecf7","system_id":"levelo_inurba_marseille","lat":43.29286,"lon":5.37434,"is_reserved":false,"is_disabled":false,"rental_uris":{"android":"levelo://app?vid=2a38f599-a5c6-4dd1-beaa-9dd25b63ecf7","ios":"levelo://app?vid=2a38f599-a5c6-4dd1-beaa-9dd25b63ecf7"},"vehicle_type_id":"4","last_reported":1751019095,"current_range_meters":17600,"station_id":"ce4bgi12rcd13ifvqb70","pricing_plan_id":"cebpf4jnsgd1na2vs0mg"},{"bike_id":"c2488c70-ec0d-4450-b5e6-75774967bb64","system_id":"levelo_inurba_marseille","lat":43.27492,"lon":5.42447,"is_reserved":false,"is_disabled":false,"rental_uris":{"android":"levelo://app?vid=c2488c70-ec0d-4450-b5e6-75774967bb64","ios":"levelo://app?vid=c2488c70-ec0d-4450-b5e6-75774967bb64"},"vehicle_type_id":"4","last_reported":1751019095,"current_range_meters":17600,"station_id":"ce4bhn92rcd13ifvqgrg","pricing_plan_id":"cebpf4jnsgd1na2vs0mg"},{"bike_id":"9c007d2b-99e0-4469-ba73-06c57adc38c5","system_id":"levelo_inurba_marseille","lat":43.26052,"lon":5.40963,"is_reserved":false,"is_disabled":false,"rental_uris":{"android":"levelo://app?vid=9c007d2b-99e0-4469-ba73-06c57adc38c5","ios":"levelo://app?vid=9c007d2b-99e0-4469-ba73-06c57adc38c5"},"vehicle_type_id":"4","last_reported":1751019095,"current_range_meters":18000,"station_id":"","pricing_plan_id":"cebpf4jnsgd1na2vs0mg"},{"bike_id":"ad7c4717-55a4-46c2-9f97-7e180e080972","system_id":"levelo_inurba_marseille","lat":43.30603,"lon":5.37209,"is_reserved":false,"is_disabled":false,"rental_uris":{"android":"levelo://app?vid=ad7c4717-55a4-46c2-9f97-7e180e080972","ios":"levelo://app?vid=ad7c4717-55a4-46c2-9f97-7e180e080972"},"vehicle_type_id":"4","last_reported":1751019095,"current_range_meters":18000,"station_id":"ce4bgqh2rcd13ifvqc4g","pricing_plan_id":"cebpf4jnsgd1na2vs0mg"},{"bike_id":"15d128bd-cfe4-4fde-84e3-861a91e21785","system_id":"levelo_inurba_marseille","lat":43.337,"lon":5.39194,"is_reserved":false,"is_disabled":false,"rental_uris":{"android":"levelo://app?vid=15d128bd-cfe4-4fde-84e3-861a91e21785","ios":"levelo://app?vid=15d128bd-cfe4-4fde-84e3-861a91e21785"},"vehicle_type_id":"4","last_reported":1751019095,"current_range_meters":18000,"station_id":"ce4bhr92rcd13ifvqhsg","pricing_plan_id":"cebpf4jnsgd1na2vs0mg"},{"bike_id":"721165c1-ef6f-40cc-8d33-af3a7999864b","system_id":"levelo_inurba_marseille","lat":43.32751,"lon":5.3795,"is_reserved":false,"is_disabled":false,"rental_uris":{"android":"levelo://app?vid=721165c1-ef6f-40cc-8d33-af3a7999864b","ios":"levelo://app?vid=721165c1-ef6f-40cc-8d33-af3a7999864b"},"vehicle_type_id":"4","last_reported":1751019095,"current_range_meters":18800,"station_id":"","pricing_plan_id":"cebpf4jnsgd1na2vs0mg"},{"bike_id":"3c3143db-eff2-43ab-93c6-7cc207b8a48b","system_id":"levelo_inurba_marseille","lat":43.33771,"lon":5.37426,"is_reserved":false,"is_disabled":false,"rental_uris":{"android":"levelo://app?vid=3c3143db-eff2-43ab-93c6-7cc207b8a48b","ios":"levelo://app?vid=3c3143db-eff2-43ab-93c6-7cc207b8a48b"},"vehicle_type_id":"4","last_reported":1751019095,"current_range_meters":18800,"station_id":"","pricing_plan_id":"cebpf4jnsgd1na2vs0mg"},{"bike_id":"b8a98bf5-a234-4f50-830a-ed76d3a19c1e","system_id":"levelo_inurba_marseille","lat":43.30309,"lon":5.39222,"is_reserved":false,"is_disabled":false,"rental_uris":{"android":"levelo://app?vid=b8a98bf5-a234-4f50-830a-ed76d3a19c1e","ios":"levelo://app?vid=b8a98bf5-a234-4f50-830a-ed76d3a19c1e"},"vehicle_type_id":"4","last_reported":1751019095,"current_range_meters":18800,"station_id":"ce4bgkh2rcd13ifvqbk0","pricing_plan_id":"cebpf4jnsgd1na2vs0mg"},{"bike_id":"9b8348d8-41f3-4558-a995-13030a92a6e6","system_id":"levelo_inurba_marseille","lat":43.306,"lon":5.37211,"is_reserved":false,"is_disabled":false,"rental_uris":{"android":"levelo://app?vid=9b8348d8-41f3-4558-a995-13030a92a6e6","ios":"levelo://app?vid=9b8348d8-41f3-4558-a995-13030a92a6e6"},"vehicle_type_id":"4","last_reported":1751019095,"current_range_meters":18800,"station_id":"ce4bgqh2rcd13ifvqc4g","pricing_plan_id":"cebpf4jnsgd1na2vs0mg"},{"bike_id":"92432358-7c04-41b7-951a-9478630f1c9f","system_id":"levelo_inurba_marseille","lat":43.30303,"lon":5.37733,"is_reserved":false,"is_disabled":false,"rental_uris":{"android":"levelo://app?vid=92432358-7c04-41b7-951a-9478630f1c9f","ios":"levelo://app?vid=92432358-7c04-41b7-951a-9478630f1c9f"},"vehicle_type_id":"4","last_reported":1751019095,"current_range_meters":18800,"station_id":"ce4bguh2rcd13ifvqcj0","pricing_plan_id":"cebpf4jnsgd1na2vs0mg"},{"bike_id":"f96d55ff-617b-4b2b-a82b-14787e65c285","system_id":"levelo_inurba_marseille","lat":43.30467,"lon":5.37899,"is_reserved":false,"is_disabled":false,"rental_uris":{"android":"levelo://app?vid=f96d55ff-617b-4b2b-a82b-14787e65c285","ios":"levelo://app?vid=f96d55ff-617b-4b2b-a82b-14787e65c285"},"vehicle_type_id":"4","last_reported":1751019095,"current_range_meters":18800,"station_id":"ce4bgup2rcd13ifvqcn0","pricing_plan_id":"cebpf4jnsgd1na2vs0mg"},{"bike_id":"81115363-d7ba-42ce-969b-a1d7ad97fa06","system_id":"levelo_inurba_marseille","lat":43.33723,"lon":5.39179,"is_reserved":false,"is_disabled":false,"rental_uris":{"android":"levelo://app?vid=81115363-d7ba-42ce-969b-a1d7ad97fa06","ios":"levelo://app?vid=81115363-d7ba-42ce-969b-a1d7ad97fa06"},"vehicle_type_id":"4","last_reported":1751019095,"current_range_meters":18800,"station_id":"ce4bhr92rcd13ifvqhsg","pricing_plan_id":"cebpf4jnsgd1na2vs0mg"},{"bike_id":"f933cf65-17d4-4099-abd7-eab8e6f03144","system_id":"levelo_inurba_marseille","lat":43.217505,"lon":5.34599,"is_reserved":false,"is_disabled":false,"rental_uris":{"android":"levelo://app?vid=f933cf65-17d4-4099-abd7-eab8e6f03144","ios":"levelo://app?vid=f933cf65-17d4-4099-abd7-eab8e6f03144"},"vehicle_type_id":"4","last_reported":1751019095,"current_range_meters":18800,"station_id":"st_cvj6r9ubvosntc0bgbag","pricing_plan_id":"cebpf4jnsgd1na2vs0mg"},{"bike_id":"f4ae8d9e-d656-4579-9b63-e016faab8d95","system_id":"levelo_inurba_marseille","lat":43.30416,"lon":5.38852,"is_reserved":false,"is_disabled":false,"rental_uris":{"android":"levelo://app?vid=f4ae8d9e-d656-4579-9b63-e016faab8d95","ios":"levelo://app?vid=f4ae8d9e-d656-4579-9b63-e016faab8d95"},"vehicle_type_id":"4","last_reported":1751019095,"current_range_meters":19200,"station_id":"","pricing_plan_id":"cebpf4jnsgd1na2vs0mg"},{"bike_id":"12c7fc9f-7c7b-4185-9b2f-badd0c17e36b","system_id":"levelo_inurba_marseille","lat":43.24749,"lon":5.37447,"is_reserved":false,"is_disabled":false,"rental_uris":{"android":"levelo://app?vid=12c7fc9f-7c7b-4185-9b2f-badd0c17e36b","ios":"levelo://app?vid=12c7fc9f-7c7b-4185-9b2f-badd0c17e36b"},"vehicle_type_id":"4","last_reported":1751019095,"current_range_meters":19200,"station_id":"ce4bhgh2rcd13ifvqfb0","pricing_plan_id":"cebpf4jnsgd1na2vs0mg"},{"bike_id":"4e9177cf-9716-430d-9d4e-0201b2985984","system_id":"levelo_inurba_marseille","lat":43.27812,"lon":5.40709,"is_reserved":false,"is_disabled":false,"rental_uris":{"android":"levelo://app?vid=4e9177cf-9716-430d-9d4e-0201b2985984","ios":"levelo://app?vid=4e9177cf-9716-430d-9d4e-0201b2985984"},"vehicle_type_id":"4","last_reported":1751019095,"current_range_meters":19200,"station_id":"ce4bhnh2rcd13ifvqgtg","pricing_plan_id":"cebpf4jnsgd1na2vs0mg"},{"bike_id":"0a5c1265-5d94-4a8a-83b8-ce81f46003c9","system_id":"levelo_inurba_marseille","lat":43.28443,"lon":5.392,"is_reserved":false,"is_disabled":false,"rental_uris":{"android":"levelo://app?vid=0a5c1265-5d94-4a8a-83b8-ce81f46003c9","ios":"levelo://app?vid=0a5c1265-5d94-4a8a-83b8-ce81f46003c9"},"vehicle_type_id":"4","last_reported":1751019095,"current_range_meters":19200,"station_id":"ce4bhoh2rcd13ifvqh5g","pricing_plan_id":"cebpf4jnsgd1na2vs0mg"},{"bike_id":"a7883090-0e10-4075-944b-a3cca54bc544","system_id":"levelo_inurba_marseille","lat":43.22501,"lon":5.3478,"is_reserved":false,"is_disabled":false,"rental_uris":{"android":"levelo://app?vid=a7883090-0e10-4075-944b-a3cca54bc544","ios":"levelo://app?vid=a7883090-0e10-4075-944b-a3cca54bc544"},"vehicle_type_id":"4","last_reported":1751019095,"current_range_meters":19200,"station_id":"st_cvj5dfep6f1abm77gieg","pricing_plan_id":"cebpf4jnsgd1na2vs0mg"},{"bike_id":"14e8ef37-e834-4d76-9946-e98f7a083a2f","system_id":"levelo_inurba_marseille","lat":43.21184,"lon":5.35064,"is_reserved":false,"is_disabled":false,"rental_uris":{"android":"levelo://app?vid=14e8ef37-e834-4d76-9946-e98f7a083a2f","ios":"levelo://app?vid=14e8ef37-e834-4d76-9946-e98f7a083a2f"},"vehicle_type_id":"4","last_reported":1751019095,"current_range_meters":19200,"station_id":"st_cvj6sg6p6f1abm77japg","pricing_plan_id":"cebpf4jnsgd1na2vs0mg"},{"bike_id":"b13877a6-4825-4d82-b46b-67fa8ad66c5d","system_id":"levelo_inurba_marseille","lat":43.21192,"lon":5.35071,"is_reserved":false,"is_disabled":false,"rental_uris":{"android":"levelo://app?vid=b13877a6-4825-4d82-b46b-67fa8ad66c5d","ios":"levelo://app?vid=b13877a6-4825-4d82-b46b-67fa8ad66c5d"},"vehicle_type_id":"4","last_reported":1751019095,"current_range_meters":19200,"station_id":"st_cvj6sg6p6f1abm77japg","pricing_plan_id":"cebpf4jnsgd1na2vs0mg"},{"bike_id":"68ba553f-21c6-4e54-95b0-38cf227ee3c9","system_id":"levelo_inurba_marseille","lat":43.26264,"lon":5.4031,"is_reserved":false,"is_disabled":false,"rental_uris":{"android":"levelo://app?vid=68ba553f-21c6-4e54-95b0-38cf227ee3c9","ios":"levelo://app?vid=68ba553f-21c6-4e54-95b0-38cf227ee3c9"},"vehicle_type_id":"4","last_reported":1751019095,"current_range_meters":19600,"station_id":"","pricing_plan_id":"cebpf4jnsgd1na2vs0mg"},{"bike_id":"3646647e-836e-4171-b9b1-15e8612f819c","system_id":"levelo_inurba_marseille","lat":43.29787,"lon":5.38092,"is_reserved":false,"is_disabled":false,"rental_uris":{"android":"levelo://app?vid=3646647e-836e-4171-b9b1-15e8612f819c","ios":"levelo://app?vid=3646647e-836e-4171-b9b1-15e8612f819c"},"vehicle_type_id":"4","last_reported":1751019095,"current_range_meters":19600,"station_id":"ce4bgip2rcd13ifvqbb0","pricing_plan_id":"cebpf4jnsgd1na2vs0mg"},{"bike_id":"043c761b-e520-4e3e-8ecc-be309699ee14","system_id":"levelo_inurba_marseille","lat":43.30558,"lon":5.36515,"is_reserved":false,"is_disabled":false,"rental_uris":{"android":"levelo://app?vid=043c761b-e520-4e3e-8ecc-be309699ee14","ios":"levelo://app?vid=043c761b-e520-4e3e-8ecc-be309699ee14"},"vehicle_type_id":"4","last_reported":1751019095,"current_range_meters":19600,"station_id":"ce4bgs12rcd13ifvqcag","pricing_plan_id":"cebpf4jnsgd1na2vs0mg"},{"bike_id":"4d9bc565-c51c-4b4e-91f9-9cab06b066a8","system_id":"levelo_inurba_marseille","lat":43.3065,"lon":5.40093,"is_reserved":false,"is_disabled":false,"rental_uris":{"android":"levelo://app?vid=4d9bc565-c51c-4b4e-91f9-9cab06b066a8","ios":"levelo://app?vid=4d9bc565-c51c-4b4e-91f9-9cab06b066a8"},"vehicle_type_id":"4","last_reported":1751019095,"current_range_meters":19600,"station_id":"ce4bh112rcd13ifvqda0","pricing_plan_id":"cebpf4jnsgd1na2vs0mg"},{"bike_id":"d0692d4d-a499-4c93-9a2d-41d5d8d19d0d","system_id":"levelo_inurba_marseille","lat":43.24795,"lon":5.37452,"is_reserved":false,"is_disabled":false,"rental_uris":{"android":"levelo://app?vid=d0692d4d-a499-4c93-9a2d-41d5d8d19d0d","ios":"levelo://app?vid=d0692d4d-a499-4c93-9a2d-41d5d8d19d0d"},"vehicle_type_id":"4","last_reported":1751019095,"current_range_meters":19600,"station_id":"ce4bhgh2rcd13ifvqfb0","pricing_plan_id":"cebpf4jnsgd1na2vs0mg"},{"bike_id":"d0447f10-2e0f-4303-a22d-913ac1ec8015","system_id":"levelo_inurba_marseille","lat":43.24679,"lon":5.38145,"is_reserved":false,"is_disabled":false,"rental_uris":{"android":"levelo://app?vid=d0447f10-2e0f-4303-a22d-913ac1ec8015","ios":"levelo://app?vid=d0447f10-2e0f-4303-a22d-913ac1ec8015"},"vehicle_type_id":"4","last_reported":1751019095,"current_range_meters":19600,"station_id":"ce4bhih2rcd13ifvqfr0","pricing_plan_id":"cebpf4jnsgd1na2vs0mg"},{"bike_id":"e9e3daab-137e-4430-ac89-5c3179ec07e8","system_id":"levelo_inurba_marseille","lat":43.303704,"lon":5.424851,"is_reserved":false,"is_disabled":false,"rental_uris":{"android":"levelo://app?vid=e9e3daab-137e-4430-ac89-5c3179ec07e8","ios":"levelo://app?vid=e9e3daab-137e-4430-ac89-5c3179ec07e8"},"vehicle_type_id":"4","last_reported":1751019095,"current_range_meters":19600,"station_id":"ce4bhoh2rcd13ifvqh6g","pricing_plan_id":"cebpf4jnsgd1na2vs0mg"},{"bike_id":"9fa7515b-502b-4ec3-bdbb-5301e040343f","system_id":"levelo_inurba_marseille","lat":43.319952,"lon":5.381513,"is_reserved":false,"is_disabled":false,"rental_uris":{"android":"levelo://app?vid=9fa7515b-502b-4ec3-bdbb-5301e040343f","ios":"levelo://app?vid=9fa7515b-502b-4ec3-bdbb-5301e040343f"},"vehicle_type_id":"4","last_reported":1751019095,"current_range_meters":19600,"station_id":"ce4bhr12rcd13ifvqhpg","pricing_plan_id":"cebpf4jnsgd1na2vs0mg"},{"bike_id":"0c803610-f6e9-41d4-936d-0b433fa62796","system_id":"levelo_inurba_marseille","lat":43.30224,"lon":5.37831,"is_reserved":false,"is_disabled":false,"rental_uris":{"android":"levelo://app?vid=0c803610-f6e9-41d4-936d-0b433fa62796","ios":"levelo://app?vid=0c803610-f6e9-41d4-936d-0b433fa62796"},"vehicle_type_id":"4","last_reported":1751019095,"current_range_meters":20000,"station_id":"","pricing_plan_id":"cebpf4jnsgd1na2vs0mg"},{"bike_id":"70b3187b-c5c8-4fe4-9c5f-a078b95b96cf","system_id":"levelo_inurba_marseille","lat":43.284119,"lon":5.349869,"is_reserved":false,"is_disabled":false,"rental_uris":{"android":"levelo://app?vid=70b3187b-c5c8-4fe4-9c5f-a078b95b96cf","ios":"levelo://app?vid=70b3187b-c5c8-4fe4-9c5f-a078b95b96cf"},"vehicle_type_id":"4","last_reported":1751019095,"current_range_meters":20000,"station_id":"ce4bhbh2rcd13ifvqepg","pricing_plan_id":"cebpf4jnsgd1na2vs0mg"},{"bike_id":"5a3dab73-c126-4de6-a97f-f9ca71f0b35f","system_id":"levelo_inurba_marseille","lat":43.2175,"lon":5.34599,"is_reserved":false,"is_disabled":false,"rental_uris":{"android":"levelo://app?vid=5a3dab73-c126-4de6-a97f-f9ca71f0b35f","ios":"levelo://app?vid=5a3dab73-c126-4de6-a97f-f9ca71f0b35f"},"vehicle_type_id":"4","last_reported":1751019095,"current_range_meters":20000,"station_id":"st_cvj6r9ubvosntc0bgbag","pricing_plan_id":"cebpf4jnsgd1na2vs0mg"},{"bike_id":"1b28e76f-5530-434d-91c4-8ddde483789e","system_id":"levelo_inurba_marseille","lat":43.29847,"lon":5.36273,"is_reserved":false,"is_disabled":false,"rental_uris":{"android":"levelo://app?vid=1b28e76f-5530-434d-91c4-8ddde483789e","ios":"levelo://app?vid=1b28e76f-5530-434d-91c4-8ddde483789e"},"vehicle_type_id":"4","last_reported":1751019095,"current_range_meters":20400,"station_id":"ce4bgpp2rcd13ifvqc3g","pricing_plan_id":"cebpf4jnsgd1na2vs0mg"},{"bike_id":"524b41c4-f937-4284-b34b-db413e8ab4eb","system_id":"levelo_inurba_marseille","lat":43.3077,"lon":5.3767,"is_reserved":false,"is_disabled":false,"rental_uris":{"android":"levelo://app?vid=524b41c4-f937-4284-b34b-db413e8ab4eb","ios":"levelo://app?vid=524b41c4-f937-4284-b34b-db413e8ab4eb"},"vehicle_type_id":"4","last_reported":1751019095,"current_range_meters":20400,"station_id":"ce4bgv92rcd13ifvqcq0","pricing_plan_id":"cebpf4jnsgd1na2vs0mg"},{"bike_id":"a67246ed-db1c-4f71-8851-c5cc77e0b0f9","system_id":"levelo_inurba_marseille","lat":43.28697,"lon":5.37403,"is_reserved":false,"is_disabled":false,"rental_uris":{"android":"levelo://app?vid=a67246ed-db1c-4f71-8851-c5cc77e0b0f9","ios":"levelo://app?vid=a67246ed-db1c-4f71-8851-c5cc77e0b0f9"},"vehicle_type_id":"4","last_reported":1751019095,"current_range_meters":20400,"station_id":"ce4bh3p2rcd13ifvqdq0","pricing_plan_id":"cebpf4jnsgd1na2vs0mg"},{"bike_id":"c35aa7a6-a20a-410d-9ec5-ee53979f91a0","system_id":"levelo_inurba_marseille","lat":43.26671,"lon":5.38262,"is_reserved":false,"is_disabled":false,"rental_uris":{"android":"levelo://app?vid=c35aa7a6-a20a-410d-9ec5-ee53979f91a0","ios":"levelo://app?vid=c35aa7a6-a20a-410d-9ec5-ee53979f91a0"},"vehicle_type_id":"4","last_reported":1751019095,"current_range_meters":20400,"station_id":"ce4bhg92rcd13ifvqf90","pricing_plan_id":"cebpf4jnsgd1na2vs0mg"},{"bike_id":"bbafd80d-4fae-46f2-baed-be3894598cf2","system_id":"levelo_inurba_marseille","lat":43.24388,"lon":5.37062,"is_reserved":false,"is_disabled":false,"rental_uris":{"android":"levelo://app?vid=bbafd80d-4fae-46f2-baed-be3894598cf2","ios":"levelo://app?vid=bbafd80d-4fae-46f2-baed-be3894598cf2"},"vehicle_type_id":"4","last_reported":1751019095,"current_range_meters":20400,"station_id":"ce4bhhh2rcd13ifvqfk0","pricing_plan_id":"cebpf4jnsgd1na2vs0mg"},{"bike_id":"4043f5ed-1c71-456d-9c90-de5b8866cdaf","system_id":"levelo_inurba_marseille","lat":43.22947,"lon":5.35387,"is_reserved":false,"is_disabled":false,"rental_uris":{"android":"levelo://app?vid=4043f5ed-1c71-456d-9c90-de5b8866cdaf","ios":"levelo://app?vid=4043f5ed-1c71-456d-9c90-de5b8866cdaf"},"vehicle_type_id":"4","last_reported":1751019095,"current_range_meters":20400,"station_id":"cpo3532slgdg3j2ikp40","pricing_plan_id":"cebpf4jnsgd1na2vs0mg"},{"bike_id":"4c011598-4b13-41a3-b985-3ad4266f5bea","system_id":"levelo_inurba_marseille","lat":43.301483,"lon":5.374025,"is_reserved":false,"is_disabled":false,"rental_uris":{"android":"levelo://app?vid=4c011598-4b13-41a3-b985-3ad4266f5bea","ios":"levelo://app?vid=4c011598-4b13-41a3-b985-3ad4266f5bea"},"vehicle_type_id":"4","last_reported":1751019095,"current_range_meters":20800,"station_id":"","pricing_plan_id":"cebpf4jnsgd1na2vs0mg"},{"bike_id":"69a9b7bf-69b2-47a2-8bc4-bb00821e8199","system_id":"levelo_inurba_marseille","lat":43.29033,"lon":5.35923,"is_reserved":false,"is_disabled":false,"rental_uris":{"android":"levelo://app?vid=69a9b7bf-69b2-47a2-8bc4-bb00821e8199","ios":"levelo://app?vid=69a9b7bf-69b2-47a2-8bc4-bb00821e8199"},"vehicle_type_id":"4","last_reported":1751019095,"current_range_meters":20800,"station_id":"","pricing_plan_id":"cebpf4jnsgd1na2vs0mg"},{"bike_id":"2bcb341b-0380-4122-8413-6d13e6d21b5f","system_id":"levelo_inurba_marseille","lat":43.27829,"lon":5.40702,"is_reserved":false,"is_disabled":false,"rental_uris":{"android":"levelo://app?vid=2bcb341b-0380-4122-8413-6d13e6d21b5f","ios":"levelo://app?vid=2bcb341b-0380-4122-8413-6d13e6d21b5f"},"vehicle_type_id":"4","last_reported":1751019095,"current_range_meters":20800,"station_id":"ce4bhnh2rcd13ifvqgtg","pricing_plan_id":"cebpf4jnsgd1na2vs0mg"},{"bike_id":"4e3b34c1-e3ab-4240-8b2b-83ddad7a88e8","system_id":"levelo_inurba_marseille","lat":43.27942,"lon":5.41047,"is_reserved":false,"is_disabled":false,"rental_uris":{"android":"levelo://app?vid=4e3b34c1-e3ab-4240-8b2b-83ddad7a88e8","ios":"levelo://app?vid=4e3b34c1-e3ab-4240-8b2b-83ddad7a88e8"},"vehicle_type_id":"4","last_reported":1751019095,"current_range_meters":20800,"station_id":"ce4bhnp2rcd13ifvqh0g","pricing_plan_id":"cebpf4jnsgd1na2vs0mg"},{"bike_id":"f810be2a-3c00-446f-9ba1-1f3840ce349d","system_id":"levelo_inurba_marseille","lat":43.32113,"lon":5.36763,"is_reserved":false,"is_disabled":false,"rental_uris":{"android":"levelo://app?vid=f810be2a-3c00-446f-9ba1-1f3840ce349d","ios":"levelo://app?vid=f810be2a-3c00-446f-9ba1-1f3840ce349d"},"vehicle_type_id":"4","last_reported":1751019095,"current_range_meters":20800,"station_id":"ce4bhrh2rcd13ifvqhug","pricing_plan_id":"cebpf4jnsgd1na2vs0mg"},{"bike_id":"73eae19d-5cc5-48fe-810c-85fc7175c6a0","system_id":"levelo_inurba_marseille","lat":43.230536,"lon":5.354905,"is_reserved":false,"is_disabled":false,"rental_uris":{"android":"levelo://app?vid=73eae19d-5cc5-48fe-810c-85fc7175c6a0","ios":"levelo://app?vid=73eae19d-5cc5-48fe-810c-85fc7175c6a0"},"vehicle_type_id":"4","last_reported":1751019095,"current_range_meters":20800,"station_id":"cpo3342slgdg3j2ifvpg","pricing_plan_id":"cebpf4jnsgd1na2vs0mg"},{"bike_id":"2b344a03-0ed4-4e11-a29d-e4213d45e09e","system_id":"levelo_inurba_marseille","lat":43.21765,"lon":5.34596,"is_reserved":false,"is_disabled":false,"rental_uris":{"android":"levelo://app?vid=2b344a03-0ed4-4e11-a29d-e4213d45e09e","ios":"levelo://app?vid=2b344a03-0ed4-4e11-a29d-e4213d45e09e"},"vehicle_type_id":"4","last_reported":1751019095,"current_range_meters":20800,"station_id":"st_cvj6r9ubvosntc0bgbag","pricing_plan_id":"cebpf4jnsgd1na2vs0mg"},{"bike_id":"a2284e0b-ba7c-41bb-89c4-458c7880fa4f","system_id":"levelo_inurba_marseille","lat":43.30323,"lon":5.40434,"is_reserved":false,"is_disabled":false,"rental_uris":{"android":"levelo://app?vid=a2284e0b-ba7c-41bb-89c4-458c7880fa4f","ios":"levelo://app?vid=a2284e0b-ba7c-41bb-89c4-458c7880fa4f"},"vehicle_type_id":"4","last_reported":1751019095,"current_range_meters":21600,"station_id":"ce4bh012rcd13ifvqd10","pricing_plan_id":"cebpf4jnsgd1na2vs0mg"},{"bike_id":"f98cc283-aabf-42ca-8deb-12bc0161598c","system_id":"levelo_inurba_marseille","lat":43.29635,"lon":5.40589,"is_reserved":false,"is_disabled":false,"rental_uris":{"android":"levelo://app?vid=f98cc283-aabf-42ca-8deb-12bc0161598c","ios":"levelo://app?vid=f98cc283-aabf-42ca-8deb-12bc0161598c"},"vehicle_type_id":"4","last_reported":1751019095,"current_range_meters":21600,"station_id":"ce4bh0h2rcd13ifvqd60","pricing_plan_id":"cebpf4jnsgd1na2vs0mg"},