{"last_updated":1734271679,"ttl":60,"version":"2.2","data":{"bikes":[{"bike_id":"659569a6-8e63-4932-8c44-00ce03cd2576","system_id":"levelo_inurba_marseille","lat":43.29002,"lon":5.35612,"is_reserved":false,"is_disabled":false,"rental_uris":{"android":"levelo://app?vid=659569a6-8e63-4932-8c44-00ce03cd2576","ios":"levelo://app?vid=659569a6-8e63-4932-8c44-00ce03cd2576"},"vehicle_type_id":"4","last_reported":1734271679,"current_range_meters":24000,"station_id":"ce4bhb92rcd13ifvqen0","pricing_plan_id":"cebpf4jnsgd1na2vs0mg"},{"bike_id":"0636e940-9fa8-44b8-a321-e8d7b4ee4d10","system_id":"levelo_inurba_marseille","lat":43.28611,"lon":5.35105,"is_reserved":false,"is_disabled":false,"rental_uris":{"android":"levelo://app?vid=0636e940-9fa8-44b8-a321-e8d7b4ee4d10","ios":"levelo://app?vid=0636e940-9fa8-44b8-a321-e8d7b4ee4d10"},"vehicle_type_id":"4","last_reported":1734271679,"current_range_meters":30000,"station_id":"ce4bhch2rcd13ifvqeug","pricing_plan_id":"cebpf4jnsgd1na2vs0mg"},{"bike_id":"bdafa396-b47b-462d-8e8e-bc13dc69703d","system_id":"levelo_inurba_marseille","lat":43.28417,"lon":5.34986,"is_reserved":false,"is_disabled":false,"rental_uris":{"android":"levelo://app?vid=bdafa396-b47b-462d-8e8e-bc13dc69703d","ios":"levelo://app?vid=bdafa396-b47b-462d-8e8e-bc13dc69703d"},"vehicle_type_id":"4","last_reported":1734271679,"current_range_meters":32400,"station_id":"ce4bhbh2rcd13ifvqepg","pricing_plan_id":"cebpf4jnsgd1na2vs0mg"},{"bike_id":"935e41d2-dd91-4e5c-8c6a-8b5781b91614","system_id":"levelo_inurba_marseille","lat":43.23195,"lon":5.35558,"is_reserved":false,"is_disabled":true,"rental_uris":{"android":"levelo://app?vid=935e41d2-dd91-4e5c-8c6a-8b5781b91614","ios":"levelo://app?vid=935e41d2-dd91-4e5c-8c6a-8b5781b91614"},"vehicle_type_id":"4","last_reported":1734271679,"current_range_meters":0,"station_id":"ce4bhu92rcd13ifvqi70","pricing_plan_id":"cebpf4jnsgd1na2vs0mg"},{"bike_id":"ed9edba7-d3f1-4e95-8555-1252dbf70dce","system_id":"levelo_inurba_marseille","lat":43.27551,"lon":5.38393,"is_reserved":false,"is_disabled":true,"rental_uris":{"android":"levelo://app?vid=ed9edba7-d3f1-4e95-8555-1252dbf70dce","ios":"levelo://app?vid=ed9edba7-d3f1-4e95-8555-1252dbf70dce"},"vehicle_type_id":"4","last_reported":1734271679,"current_range_meters":35600,"station_id":"ce4bhh92rcd13ifvqfi0","pricing_plan_id":"cebpf4jnsgd1na2vs0mg"},{"bike_id":"7f43aae1-ba8d-4578-bc1c-4f39634db3e2","system_id":"levelo_inurba_marseille","lat":43.31488,"lon":5.37311,"is_reserved":false,"is_disabled":false,"rental_uris":{"android":"levelo://app?vid=7f43aae1-ba8d-4578-bc1c-4f39634db3e2","ios":"levelo://app?vid=7f43aae1-ba8d-4578-bc1c-4f39634db3e2"},"vehicle_type_id":"4","last_reported":1734271679,"current_range_meters":26800,"station_id":"ce4bgt12rcd13ifvqcd0","pricing_plan_id":"cebpf4jnsgd1na2vs0mg"},{"bike_id":"b9909b1b-7dc0-43e0-9eac-af3c1c280ed0","system_id":"levelo_inurba_marseille","lat":43.29066,"lon":5.3578,"is_reserved":false,"is_disabled":false,"rental_uris":{"android":"levelo://app?vid=b9909b1b-7dc0-43e0-9eac-af3c1c280ed0","ios":"levelo://app?vid=b9909b1b-7dc0-43e0-9eac-af3c1c280ed0"},"vehicle_type_id":"4","last_reported":1734271679,"current_range_meters":8000,"station_id":"","pricing_plan_id":"cebpf4jnsgd1na2vs0mg"},{"bike_id":"0b5daf5b-9a4e-425e-b58a-f5119fc10926","system_id":"levelo_inurba_marseille","lat":43.30543,"lon":5.36537,"is_reserved":false,"is_disabled":false,"rental_uris":{"android":"levelo://app?vid=0b5daf5b-9a4e-425e-b58a-f5119fc10926","ios":"levelo://app?vid=0b5daf5b-9a4e-425e-b58a-f5119fc10926"},"vehicle_type_id":"4","last_reported":1734271679,"current_range_meters":38000,"station_id":"ce4bgs12rcd13ifvqcag","pricing_plan_id":"cebpf4jnsgd1na2vs0mg"},{"bike_id":"146be659-241b-4bb8-8d24-309aec79ec08","system_id":"levelo_inurba_marseille","lat":43.30519,"lon":5.36546,"is_reserved":false,"is_disabled":false,"rental_uris":{"android":"levelo://app?vid=146be659-241b-4bb8-8d24-309aec79ec08","ios":"levelo://app?vid=146be659-241b-4bb8-8d24-309aec79ec08"},"vehicle_type_id":"4","last_reported":1734271679,"current_range_meters":38800,"station_id":"ce4bgs12rcd13ifvqcag","pricing_plan_id":"cebpf4jnsgd1na2vs0mg"},{"bike_id":"68318da2-404d-4277-bcad-71c1cc0f38c8","system_id":"levelo_inurba_marseille","lat":43.27224,"lon":5.39184,"is_reserved":false,"is_disabled":true,"rental_uris":{"android":"levelo://app?vid=68318da2-404d-4277-bcad-71c1cc0f38c8","ios":"levelo://app?vid=68318da2-404d-4277-bcad-71c1cc0f38c8"},"vehicle_type_id":"4","last_reported":1734271679,"current_range_meters":22000,"station_id":"ce4bhhp2rcd13ifvqfm0","pricing_plan_id":"cebpf4jnsgd1na2vs0mg"},{"bike_id":"2aabb9e3-ae45-4b17-b10d-af50e235d80a","system_id":"levelo_inurba_marseille","lat":43.26787,"lon":5.39922,"is_reserved":false,"is_disabled":true,"rental_uris":{"android":"levelo://app?vid=2aabb9e3-ae45-4b17-b10d-af50e235d80a","ios":"levelo://app?vid=2aabb9e3-ae45-4b17-b10d-af50e235d80a"},"vehicle_type_id":"4","last_reported":1734271679,"current_range_meters":0,"station_id":"","pricing_plan_id":"cebpf4jnsgd1na2vs0mg"},{"bike_id":"9415801d-bb28-4e68-9ebc-eefff56b5360","system_id":"levelo_inurba_marseille","lat":43.34144,"lon":5.40891,"is_reserved":false,"is_disabled":false,"rental_uris":{"android":"levelo://app?vid=9415801d-bb28-4e68-9ebc-eefff56b5360","ios":"levelo://app?vid=9415801d-bb28-4e68-9ebc-eefff56b5360"},"vehicle_type_id":"4","last_reported":1734271679,"current_range_meters":27200,"station_id":"ce4bhqh2rcd13ifvqhlg","pricing_plan_id":"cebpf4jnsgd1na2vs0mg"},{"bike_id":"ba326135-7509-4870-969a-27a41a47ef62","system_id":"levelo_inurba_marseille","lat":43.28267,"lon":5.35073,"is_reserved":false,"is_disabled":false,"rental_uris":{"android":"levelo://app?vid=ba326135-7509-4870-969a-27a41a47ef62","ios":"levelo://app?vid=ba326135-7509-4870-969a-27a41a47ef62"},"vehicle_type_id":"4","last_reported":1734271679,"current_range_meters":16000,"station_id":"ce4bhbp2rcd13ifvqerg","pricing_plan_id":"cebpf4jnsgd1na2vs0mg"},{"bike_id":"3595e955-9243-4ebf-a4ff-5df2907e8d74","system_id":"levelo_inurba_marseille","lat":43.32288,"lon":5.38274,"is_reserved":false,"is_disabled":false,"rental_uris":{"android":"levelo://app?vid=3595e955-9243-4ebf-a4ff-5df2907e8d74","ios":"levelo://app?vid=3595e955-9243-4ebf-a4ff-5df2907e8d74"},"vehicle_type_id":"4","last_reported":1734271679,"current_range_meters":38800,"station_id":"ce4bhr12rcd13ifvqhqg","pricing_plan_id":"cebpf4jnsgd1na2vs0mg"},{"bike_id":"e4087d7e-c019-4a2f-99d6-c8ca06573eab","system_id":"levelo_inurba_marseille","lat":43.30529,"lon":5.36708,"is_reserved":false,"is_disabled":true,"rental_uris":{"android":"levelo://app?vid=e4087d7e-c019-4a2f-99d6-c8ca06573eab","ios":"levelo://app?vid=e4087d7e-c019-4a2f-99d6-c8ca06573eab"},"vehicle_type_id":"4","last_reported":1734271679,"current_range_meters":400,"station_id":"ce4bgrp2rcd13ifvqc9g","pricing_plan_id":"cebpf4jnsgd1na2vs0mg"},{"bike_id":"0a5659c6-a4bc-4d63-8b0a-53752523a6ad","system_id":"levelo_inurba_marseille","lat":43.26554,"lon":5.37286,"is_reserved":false,"is_disabled":true,"rental_uris":{"android":"levelo://app?vid=0a5659c6-a4bc-4d63-8b0a-53752523a6ad","ios":"levelo://app?vid=0a5659c6-a4bc-4d63-8b0a-53752523a6ad"},"vehicle_type_id":"4","last_reported":1734271679,"current_range_meters":0,"station_id":"ce4bhg12rcd13ifvqf70","pricing_plan_id":"cebpf4jnsgd1na2vs0mg"},{"bike_id":"d0294d5a-dbc0-48e9-b872-39812725ad5a","system_id":"levelo_inurba_marseille","lat":43.29534,"lon":5.3751,"is_reserved":false,"is_disabled":false,"rental_uris":{"android":"levelo://app?vid=d0294d5a-dbc0-48e9-b872-39812725ad5a","ios":"levelo://app?vid=d0294d5a-dbc0-48e9-b872-39812725ad5a"},"vehicle_type_id":"4","last_reported":1734271679,"current_range_meters":33600,"station_id":"ce4bgkp2rcd13ifvqbmg","pricing_plan_id":"cebpf4jnsgd1na2vs0mg"},{"bike_id":"089561b2-37a9-497d-a768-4313f9dd42c1","system_id":"levelo_inurba_marseille","lat":43.28146,"lon":5.42657,"is_reserved":false,"is_disabled":false,"rental_uris":{"android":"levelo://app?vid=089561b2-37a9-497d-a768-4313f9dd42c1","ios":"levelo://app?vid=089561b2-37a9-497d-a768-4313f9dd42c1"},"vehicle_type_id":"4","last_reported":1734271679,"current_range_meters":9200,"station_id":"ce4bhnh2rcd13ifvqgug","pricing_plan_id":"cebpf4jnsgd1na2vs0mg"},{"bike_id":"496b9119-850a-49b3-bf98-295bb079ca7c","system_id":"levelo_inurba_marseille","lat":43.28189,"lon":5.4457,"is_reserved":false,"is_disabled":false,"rental_uris":{"android":"levelo://app?vid=496b9119-850a-49b3-bf98-295bb079ca7c","ios":"levelo://app?vid=496b9119-850a-49b3-bf98-295bb079ca7c"},"vehicle_type_id":"4","last_reported":1734271679,"current_range_meters":4000,"station_id":"","pricing_plan_id":"cebpf4jnsgd1na2vs0mg"},{"bike_id":"756759df-30bb-4fc0-b7b8-d22004f554c8","system_id":"levelo_inurba_marseille","lat":43.32335,"lon":5.40619,"is_reserved":false,"is_disabled":false,"rental_uris":{"android":"levelo://app?vid=756759df-30bb-4fc0-b7b8-d22004f554c8","ios":"levelo://app?vid=756759df-30bb-4fc0-b7b8-d22004f554c8"},"vehicle_type_id":"4","last_reported":1734271679,"current_range_meters":8400,"station_id":"ce4bhq92rcd13ifvqhjg","pricing_plan_id":"cebpf4jnsgd1na2vs0mg"},{"bike_id":"63c34c25-bc30-47a7-940c-c8451b9d0774","system_id":"levelo_inurba_marseille","lat":43.30417,"lon":5.41273,"is_reserved":false,"is_disabled":false,"rental_uris":{"android":"levelo://app?vid=63c34c25-bc30-47a7-940c-c8451b9d0774","ios":"levelo://app?vid=63c34c25-bc30-47a7-940c-c8451b9d0774"},"vehicle_type_id":"4","last_reported":1734271679,"current_range_meters":19200,"station_id":"ce4bhop2rcd13ifvqh8g","pricing_plan_id":"cebpf4jnsgd1na2vs0mg"},{"bike_id":"09aa2f3c-9555-44b2-a34d-05acc5333b88","system_id":"levelo_inurba_marseille","lat":43.27943,"lon":5.41048,"is_reserved":false,"is_disabled":false,"rental_uris":{"android":"levelo://app?vid=09aa2f3c-9555-44b2-a34d-05acc5333b88","ios":"levelo://app?vid=09aa2f3c-9555-44b2-a34d-05acc5333b88"},"vehicle_type_id":"4","last_reported":1734271679,"current_range_meters":36400,"station_id":"ce4bhnp2rcd13ifvqh0g","pricing_plan_id":"cebpf4jnsgd1na2vs0mg"},{"bike_id":"810349c1-34d6-4f1c-a059-064760d7bb0c","system_id":"levelo_inurba_marseille","lat":43.30548,"lon":5.36534,"is_reserved":false,"is_disabled":false,"rental_uris":{"android":"levelo://app?vid=810349c1-34d6-4f1c-a059-064760d7bb0c","ios":"levelo://app?vid=810349c1-34d6-4f1c-a059-064760d7bb0c"},"vehicle_type_id":"4","last_reported":1734271679,"current_range_meters":8400,"station_id":"ce4bgs12rcd13ifvqcag","pricing_plan_id":"cebpf4jnsgd1na2vs0mg"},{"bike_id":"d5c89c1f-3bad-4af2-9449-e04c277a4696","system_id":"levelo_inurba_marseille","lat":43.29971,"lon":5.41325,"is_reserved":false,"is_disabled":true,"rental_uris":{"android":"levelo://app?vid=d5c89c1f-3bad-4af2-9449-e04c277a4696","ios":"levelo://app?vid=d5c89c1f-3bad-4af2-9449-e04c277a4696"},"vehicle_type_id":"4","last_reported":1734271679,"current_range_meters":38000,"station_id":"ce4bhp12rcd13ifvqh9g","pricing_plan_id":"cebpf4jnsgd1na2vs0mg"},{"bike_id":"904108c2-a794-4605-8543-818940a60ebf","system_id":"levelo_inurba_marseille","lat":43.2397,"lon":5.36617,"is_reserved":false,"is_disabled":false,"rental_uris":{"android":"levelo://app?vid=904108c2-a794-4605-8543-818940a60ebf","ios":"levelo://app?vid=904108c2-a794-4605-8543-818940a60ebf"},"vehicle_type_id":"4","last_reported":1734271679,"current_range_meters":16800,"station_id":"ce4bhi12rcd13ifvqfp0","pricing_plan_id":"cebpf4jnsgd1na2vs0mg"},{"bike_id":"97c890a5-acbf-4b4a-b129-56b240ac06ed","system_id":"levelo_inurba_marseille","lat":43.29066,"lon":5.37162,"is_reserved":false,"is_disabled":false,"rental_uris":{"android":"levelo://app?vid=97c890a5-acbf-4b4a-b129-56b240ac06ed","ios":"levelo://app?vid=97c890a5-acbf-4b4a-b129-56b240ac06ed"},"vehicle_type_id":"4","last_reported":1734271679,"current_range_meters":19200,"station_id":"ce4bh5p2rcd13ifvqe4g","pricing_plan_id":"cebpf4jnsgd1na2vs0mg"},{"bike_id":"00470025-0594-4fc8-bb13-03b023b393ad","system_id":"levelo_inurba_marseille","lat":43.23058,"lon":5.35494,"is_reserved":false,"is_disabled":false,"rental_uris":{"android":"levelo://app?vid=00470025-0594-4fc8-bb13-03b023b393ad","ios":"levelo://app?vid=00470025-0594-4fc8-bb13-03b023b393ad"},"vehicle_type_id":"4","last_reported":1734271679,"current_range_meters":32400,"station_id":"cpo3342slgdg3j2ifvpg","pricing_plan_id":"cebpf4jnsgd1na2vs0mg"},{"bike_id":"5c9775a7-02b2-44aa-a547-cc3c0986f91a","system_id":"levelo_inurba_marseille","lat":43.28268,"lon":5.35063,"is_reserved":false,"is_disabled":false,"rental_uris":{"android":"levelo://app?vid=5c9775a7-02b2-44aa-a547-cc3c0986f91a","ios":"levelo://app?vid=5c9775a7-02b2-44aa-a547-cc3c0986f91a"},"vehicle_type_id":"4","last_reported":1734271679,"current_range_meters":16800,"station_id":"ce4bhbp2rcd13ifvqerg","pricing_plan_id":"cebpf4jnsgd1na2vs0mg"},{"bike_id":"be15b9e1-574c-45f1-b914-fc0b9a33b109","system_id":"levelo_inurba_marseille","lat":43.25046,"lon":5.41687,"is_reserved":false,"is_disabled":false,"rental_uris":{"android":"levelo://app?vid=be15b9e1-574c-45f1-b914-fc0b9a33b109","ios":"levelo://app?vid=be15b9e1-574c-45f1-b914-fc0b9a33b109"},"vehicle_type_id":"4","last_reported":1734271679,"current_range_meters":12000,"station_id":"","pricing_plan_id":"cebpf4jnsgd1na2vs0mg"},{"bike_id":"faeeed3d-e1ea-42b2-8154-c03c65ca9361","system_id":"levelo_inurba_marseille","lat":43.26221,"lon":5.37222,"is_reserved":false,"is_disabled":true,"rental_uris":{"android":"levelo://app?vid=faeeed3d-e1ea-42b2-8154-c03c65ca9361","ios":"levelo://app?vid=faeeed3d-e1ea-42b2-8154-c03c65ca9361"},"vehicle_type_id":"4","last_reported":1734271679,"current_range_meters":0,"station_id":"","pricing_plan_id":"cebpf4jnsgd1na2vs0mg"},{"bike_id":"4b241c9d-5589-45b9-b6c0-48b4eab39e73","system_id":"levelo_inurba_marseille","lat":43.26853,"lon":5.40951,"is_reserved":false,"is_disabled":false,"rental_uris":{"android":"levelo://app?vid=4b241c9d-5589-45b9-b6c0-48b4eab39e73","ios":"levelo://app?vid=4b241c9d-5589-45b9-b6c0-48b4eab39e73"},"vehicle_type_id":"4","last_reported":1734271679,"current_range_meters":18800,"station_id":"","pricing_plan_id":"cebpf4jnsgd1na2vs0mg"},{"bike_id":"5efe5aba-da92-49f9-8b00-b94af32f7da6","system_id":"levelo_inurba_marseille","lat":43.23955,"lon":5.36631,"is_reserved":false,"is_disabled":true,"rental_uris":{"android":"levelo://app?vid=5efe5aba-da92-49f9-8b00-b94af32f7da6","ios":"levelo://app?vid=5efe5aba-da92-49f9-8b00-b94af32f7da6"},"vehicle_type_id":"4","last_reported":1734271679,"current_range_meters":0,"station_id":"ce4bhi12rcd13ifvqfp0","pricing_plan_id":"cebpf4jnsgd1na2vs0mg"},{"bike_id":"aabe7b30-6177-4b7b-bd17-6864750120a4","system_id":"levelo_inurba_marseille","lat":43.30549,"lon":5.36535,"is_reserved":false,"is_disabled":false,"rental_uris":{"android":"levelo://app?vid=aabe7b30-6177-4b7b-bd17-6864750120a4","ios":"levelo://app?vid=aabe7b30-6177-4b7b-bd17-6864750120a4"},"vehicle_type_id":"4","last_reported":1734271679,"current_range_meters":20000,"station_id":"ce4bgs12rcd13ifvqcag","pricing_plan_id":"cebpf4jnsgd1na2vs0mg"},{"bike_id":"299cdfa7-55ab-45de-8dbe-4f564308fa76","system_id":"levelo_inurba_marseille","lat":43.28468,"lon":5.35883,"is_reserved":false,"is_disabled":false,"rental_uris":{"android":"levelo://app?vid=299cdfa7-55ab-45de-8dbe-4f564308fa76","ios":"levelo://app?vid=299cdfa7-55ab-45de-8dbe-4f564308fa76"},"vehicle_type_id":"4","last_reported":1734271679,"current_range_meters":36800,"station_id":"ce4bhah2rcd13ifvqei0","pricing_plan_id":"cebpf4jnsgd1na2vs0mg"},{"bike_id":"e3ce1f04-3f88-431a-ab9f-947d6e2f270c","system_id":"levelo_inurba_marseille","lat":43.33724,"lon":5.39189,"is_reserved":false,"is_disabled":false,"rental_uris":{"android":"levelo://app?vid=e3ce1f04-3f88-431a-ab9f-947d6e2f270c","ios":"levelo://app?vid=e3ce1f04-3f88-431a-ab9f-947d6e2f270c"},"vehicle_type_id":"4","last_reported":1734271679,"current_range_meters":38800,"station_id":"ce4bhr92rcd13ifvqhsg","pricing_plan_id":"cebpf4jnsgd1na2vs0mg"},{"bike_id":"2ccd7ea1-8322-49f2-8906-fd0b96e57668","system_id":"levelo_inurba_marseille","lat":43.295679,"lon":5.375286,"is_reserved":false,"is_disabled":true,"rental_uris":{"android":"levelo://app?vid=2ccd7ea1-8322-49f2-8906-fd0b96e57668","ios":"levelo://app?vid=2ccd7ea1-8322-49f2-8906-fd0b96e57668"},"vehicle_type_id":"4","last_reported":1734271679,"current_range_meters":0,"station_id":"ce4bgh92rcd13ifvqb50","pricing_plan_id":"cebpf4jnsgd1na2vs0mg"},{"bike_id":"e1f14668-b3cd-4486-857f-047dd0525de8","system_id":"levelo_inurba_marseille","lat":43.28944,"lon":5.36638,"is_reserved":false,"is_disabled":true,"rental_uris":{"android":"levelo://app?vid=e1f14668-b3cd-4486-857f-047dd0525de8","ios":"levelo://app?vid=e1f14668-b3cd-4486-857f-047dd0525de8"},"vehicle_type_id":"4","last_reported":1734271679,"current_range_meters":26000,"station_id":"ce4bhap2rcd13ifvqek0","pricing_plan_id":"cebpf4jnsgd1na2vs0mg"},{"bike_id":"2256d0c9-fd6c-49ff-b42c-53026216c040","system_id":"levelo_inurba_marseille","lat":43.29876,"lon":5.38381,"is_reserved":false,"is_disabled":true,"rental_uris":{"android":"levelo://app?vid=2256d0c9-fd6c-49ff-b42c-53026216c040","ios":"levelo://app?vid=2256d0c9-fd6c-49ff-b42c-53026216c040"},"vehicle_type_id":"4","last_reported":1734271679,"current_range_meters":28000,"station_id":"","pricing_plan_id":"cebpf4jnsgd1na2vs0mg"},{"bike_id":"edaea664-24e0-4d6c-aa7a-497f5c5f88f6","system_id":"levelo_inurba_marseille","lat":43.270095,"lon":5.391295,"is_reserved":false,"is_disabled":true,"rental_uris":{"android":"levelo://app?vid=edaea664-24e0-4d6c-aa7a-497f5c5f88f6","ios":"levelo://app?vid=edaea664-24e0-4d6c-aa7a-497f5c5f88f6"},"vehicle_type_id":"4","last_reported":1734271679,"current_range_meters":0,"station_id":"","pricing_plan_id":"cebpf4jnsgd1na2vs0mg"},{"bike_id":"1e246c7e-2ba4-4b43-9b4f-3da373271ed2","system_id":"levelo_inurba_marseille","lat":43.29036,"lon":5.37155,"is_reserved":false,"is_disabled":false,"rental_uris":{"android":"levelo://app?vid=1e246c7e-2ba4-4b43-9b4f-3da373271ed2","ios":"levelo://app?vid=1e246c7e-2ba4-4b43-9b4f-3da373271ed2"},"vehicle_type_id":"4","last_reported":1734271679,"current_range_meters":39200,"station_id":"ce4bh5p2rcd13ifvqe4g","pricing_plan_id":"cebpf4jnsgd1na2vs0mg"},{"bike_id":"62852010-d794-4585-b046-38d701fb2b7c","system_id":"levelo_inurba_marseille","lat":43.26771,"lon":5.39414,"is_reserved":false,"is_disabled":false,"rental_uris":{"android":"levelo://app?vid=62852010-d794-4585-b046-38d701fb2b7c","ios":"levelo://app?vid=62852010-d794-4585-b046-38d701fb2b7c"},"vehicle_type_id":"4","last_reported":1734271679,"current_range_meters":38800,"station_id":"ce4bhh12rcd13ifvqfg0","pricing_plan_id":"cebpf4jnsgd1na2vs0mg"},{"bike_id":"5d983560-16d4-42f7-bac5-b9446176c435","system_id":"levelo_inurba_marseille","lat":43.23198,"lon":5.35556,"is_reserved":false,"is_disabled":false,"rental_uris":{"android":"levelo://app?vid=5d983560-16d4-42f7-bac5-b9446176c435","ios":"levelo://app?vid=5d983560-16d4-42f7-bac5-b9446176c435"},"vehicle_type_id":"4","last_reported":1734271679,"current_range_meters":36800,"station_id":"ce4bhu92rcd13ifvqi70","pricing_plan_id":"cebpf4jnsgd1na2vs0mg"},{"bike_id":"003e2502-37d2-40d7-904d-0df91700782c","system_id":"levelo_inurba_marseille","lat":43.31215,"lon":5.3687,"is_reserved":false,"is_disabled":false,"rental_uris":{"android":"levelo://app?vid=003e2502-37d2-40d7-904d-0df91700782c","ios":"levelo://app?vid=003e2502-37d2-40d7-904d-0df91700782c"},"vehicle_type_id":"4","last_reported":1734271679,"current_range_meters":38800,"station_id":"ce4bgl92rcd13ifvqbq0","pricing_plan_id":"cebpf4jnsgd1na2vs0mg"},{"bike_id":"50eb77ea-fe6d-4257-a6c7-9b7af911689e","system_id":"levelo_inurba_marseille","lat":43.27368,"lon":5.36265,"is_reserved":false,"is_disabled":false,"rental_uris":{"android":"levelo://app?vid=50eb77ea-fe6d-4257-a6c7-9b7af911689e","ios":"levelo://app?vid=50eb77ea-fe6d-4257-a6c7-9b7af911689e"},"vehicle_type_id":"4","last_reported":1734271679,"current_range_meters":12000,"station_id":"ce4bhbh2rcd13ifvqeo0","pricing_plan_id":"cebpf4jnsgd1na2vs0mg"},{"bike_id":"699ad19d-1780-4c00-9754-eb0737b27b7c","system_id":"levelo_inurba_marseille","lat":43.29552,"lon":5.42289,"is_reserved":false,"is_disabled":false,"rental_uris":{"android":"levelo://app?vid=699ad19d-1780-4c00-9754-eb0737b27b7c","ios":"levelo://app?vid=699ad19d-1780-4c00-9754-eb0737b27b7c"},"vehicle_type_id":"4","last_reported":1734271679,"current_range_meters":30400,"station_id":"ce4bhph2rcd13ifvqhdg","pricing_plan_id":"cebpf4jnsgd1na2vs0mg"},{"bike_id":"ba6abc17-2a1f-45c6-8711-b118d10bc680","system_id":"levelo_inurba_marseille","lat":43.2895,"lon":5.36395,"is_reserved":false,"is_disabled":false,"rental_uris":{"android":"levelo://app?vid=ba6abc17-2a1f-45c6-8711-b118d10bc680","ios":"levelo://app?vid=ba6abc17-2a1f-45c6-8711-b118d10bc680"},"vehicle_type_id":"4","last_reported":1734271679,"current_range_meters":31200,"station_id":"ce4bhc92rcd13ifvqetg","pricing_plan_id":"cebpf4jnsgd1na2vs0mg"},{"bike_id":"5424b849-efe9-41ca-a5bb-60034b566fc7","system_id":"levelo_inurba_marseille","lat":43.24679,"lon":5.38161,"is_reserved":false,"is_disabled":false,"rental_uris":{"android":"levelo://app?vid=5424b849-efe9-41ca-a5bb-60034b566fc7","ios":"levelo://app?vid=5424b849-efe9-41ca-a5bb-60034b566fc7"},"vehicle_type_id":"4","last_reported":1734271679,"current_range_meters":38800,"station_id":"ce4bhih2rcd13ifvqfr0","pricing_plan_id":"cebpf4jnsgd1na2vs0mg"},{"bike_id":"a248f6cc-82f3-4e75-a343-5582d9b4c2e1","system_id":"levelo_inurba_marseille","lat":43.31538,"lon":5.38033,"is_reserved":false,"is_disabled":false,"rental_uris":{"android":"levelo://app?vid=a248f6cc-82f3-4e75-a343-5582d9b4c2e1","ios":"levelo://app?vid=a248f6cc-82f3-4e75-a343-5582d9b4c2e1"},"vehicle_type_id":"4","last_reported":1734271679,"current_range_meters":26000,"station_id":"ce4bhsp2rcd13ifvqi50","pricing_plan_id":"cebpf4jnsgd1na2vs0mg"},{"bike_id":"5be78cc2-d386-42ea-a601-8ec47460ad21","system_id":"levelo_inurba_marseille","lat":43.2408,"lon":5.37733,"is_reserved":false,"is_disabled":false,"rental_uris":{"android":"levelo://app?vid=5be78cc2-d386-42ea-a601-8ec47460ad21","ios":"levelo://app?vid=5be78cc2-d386-42ea-a601-8ec47460ad21"},"vehicle_type_id":"4","last_reported":1734271679,"current_range_meters":37600,"station_id":"ce4bhnp2rcd13ifvqgvg","pricing_plan_id":"cebpf4jnsgd1na2vs0mg"},{"bike_id":"c5058238-5aba-4663-bea8-d083085b068b","system_id":"levelo_inurba_marseille","lat":43.27068,"lon":5.42279,"is_reserved":false,"is_disabled":false,"rental_uris":{"android":"levelo://app?vid=c5058238-5aba-4663-bea8-d083085b068b","ios":"levelo://app?vid=c5058238-5aba-4663-bea8-d083085b068b"},"vehicle_type_id":"4","last_reported":1734271679,"current_range_meters":24000,"station_id":"ce4bhk92rcd13ifvqgb0","pricing_plan_id":"cebpf4jnsgd1na2vs0mg"},{"bike_id":"acbcde12-a713-467d-b7cd-6fb02320f61f","system_id":"levelo_inurba_marseille","lat":43.28477,"lon":5.38435,"is_reserved":false,"is_disabled":true,"rental_uris":{"android":"levelo://app?vid=acbcde12-a713-467d-b7cd-6fb02320f61f","ios":"levelo://app?vid=acbcde12-a713-467d-b7cd-6fb02320f61f"},"vehicle_type_id":"4","last_reported":1734271679,"current_range_meters":38800,"station_id":"ce4bh512rcd13ifvqe3g","pricing_plan_id":"cebpf4jnsgd1na2vs0mg"},{"bike_id":"6d8fccea-6a81-46a5-9710-130776032170","system_id":"levelo_inurba_marseille","lat":43.25821,"lon":5.39434,"is_reserved":false,"is_disabled":false,"rental_uris":{"android":"levelo://app?vid=6d8fccea-6a81-46a5-9710-130776032170","ios":"levelo://app?vid=6d8fccea-6a81-46a5-9710-130776032170"},"vehicle_type_id":"4","last_reported":1734271679,"current_range_meters":32800,"station_id":"ce4bhip2rcd13ifvqft0","pricing_plan_id":"cebpf4jnsgd1na2vs0mg"},{"bike_id":"99f7b208-ec64-4ab1-a477-8d501f7f7ec8","system_id":"levelo_inurba_marseille","lat":43.28615,"lon":5.35109,"is_reserved":false,"is_disabled":false,"rental_uris":{"android":"levelo://app?vid=99f7b208-ec64-4ab1-a477-8d501f7f7ec8","ios":"levelo://app?vid=99f7b208-ec64-4ab1-a477-8d501f7f7ec8"},"vehicle_type_id":"4","last_reported":1734271679,"current_range_meters":12000,"station_id":"ce4bhch2rcd13ifvqeug","pricing_plan_id":"cebpf4jnsgd1na2vs0mg"},{"bike_id":"83d159f2-2074-4b49-a64e-139cb67cce6f","system_id":"levelo_inurba_marseille","lat":43.30161,"lon":5.38078,"is_reserved":false,"is_disabled":false,"rental_uris":{"android":"levelo://app?vid=83d159f2-2074-4b49-a64e-139cb67cce6f","ios":"levelo://app?vid=83d159f2-2074-4b49-a64e-139cb67cce6f"},"vehicle_type_id":"4","last_reported":1734271679,"current_range_meters":17600,"station_id":"ce4bgjp2rcd13ifvqbh0","pricing_plan_id":"cebpf4jnsgd1na2vs0mg"},{"bike_id":"7482f887-7952-4f02-a5dc-546e954acfc6","system_id":"levelo_inurba_marseille","lat":43.29417,"lon":5.38638,"is_reserved":false,"is_disabled":true,"rental_uris":{"android":"levelo://app?vid=7482f887-7952-4f02-a5dc-546e954acfc6","ios":"levelo://app?vid=7482f887-7952-4f02-a5dc-546e954acfc6"},"vehicle_type_id":"4","last_reported":1734271679,"current_range_meters":4400,"station_id":"ce4bh2h2rcd13ifvqdh0","pricing_plan_id":"cebpf4jnsgd1na2vs0mg"},{"bike_id":"63ef92dc-cb60-47c8-8a60-7997ff213a0a","system_id":"levelo_inurba_marseille","lat":43.28621,"lon":5.35067,"is_reserved":false,"is_disabled":false,"rental_uris":{"android":"levelo://app?vid=63ef92dc-cb60-47c8-8a60-7997ff213a0a","ios":"levelo://app?vid=63ef92dc-cb60-47c8-8a60-7997ff213a0a"},"vehicle_type_id":"4","last_reported":1734271679,"current_range_meters":17200,"station_id":"ce4bhch2rcd13ifvqeug","pricing_plan_id":"cebpf4jnsgd1na2vs0mg"},{"bike_id":"e819ae6a-d2ca-4fed-a607-5b91827a0819","system_id":"levelo_inurba_marseille","lat":43.23198,"lon":5.35545,"is_reserved":false,"is_disabled":false,"rental_uris":{"android":"levelo://app?vid=e819ae6a-d2ca-4fed-a607-5b91827a0819","ios":"levelo://app?vid=e819ae6a-d2ca-4fed-a607-5b91827a0819"},"vehicle_type_id":"4","last_reported":1734271679,"current_range_meters":30400,"station_id":"ce4bhu92rcd13ifvqi70","pricing_plan_id":"cebpf4jnsgd1na2vs0mg"},{"bike_id":"4b9409bd-0f48-46a9-bf2b-dc853a5f5941","system_id":"levelo_inurba_marseille","lat":43.29963,"lon":5.37181,"is_reserved":false,"is_disabled":false,"rental_uris":{"android":"levelo://app?vid=4b9409bd-0f48-46a9-bf2b-dc853a5f5941","ios":"levelo://app?vid=4b9409bd-0f48-46a9-bf2b-dc853a5f5941"},"vehicle_type_id":"4","last_reported":1734271679,"current_range_meters":27600,"station_id":"ce4bgr92rcd13ifvqc7g","pricing_plan_id":"cebpf4jnsgd1na2vs0mg"},{"bike_id":"c3bfecdf-9615-4d7f-833b-6813e072b57c","system_id":"levelo_inurba_marseille","lat":43.26203,"lon":5.37932,"is_reserved":false,"is_disabled":false,"rental_uris":{"android":"levelo://app?vid=c3bfecdf-9615-4d7f-833b-6813e072b57c","ios":"levelo://app?vid=c3bfecdf-9615-4d7f-833b-6813e072b57c"},"vehicle_type_id":"4","last_reported":1734271679,"current_range_meters":27600,"station_id":"ce4bhjp2rcd13ifvqg90","pricing_plan_id":"cebpf4jnsgd1na2vs0mg"},{"bike_id":"cdbce20f-eced-416e-a18b-42ad180475bb","system_id":"levelo_inurba_marseille","lat":43.32657,"lon":5.41003,"is_reserved":false,"is_disabled":false,"rental_uris":{"android":"levelo://app?vid=cdbce20f-eced-416e-a18b-42ad180475bb","ios":"levelo://app?vid=cdbce20f-eced-416e-a18b-42ad180475bb"},"vehicle_type_id":"4","last_reported":1734271679,"current_range_meters":36800,"station_id":"ce4bhpp2rcd13ifvqhgg","pricing_plan_id":"cebpf4jnsgd1na2vs0mg"},{"bike_id":"2fde2325-c422-42fb-bd6a-b015a704ab42","system_id":"levelo_inurba_marseille","lat":43.25107,"lon":5.40329,"is_reserved":false,"is_disabled":false,"rental_uris":{"android":"levelo://app?vid=2fde2325-c422-42fb-bd6a-b015a704ab42","ios":"levelo://app?vid=2fde2325-c422-42fb-bd6a-b015a704ab42"},"vehicle_type_id":"4","last_reported":1734271679,"current_range_meters":38800,"station_id":"ce4bhlh2rcd13ifvqgig","pricing_plan_id":"cebpf4jnsgd1na2vs0mg"},{"bike_id":"68f31b3b-2a4d-4ab9-8cb8-25cb27fcc6e6","system_id":"levelo_inurba_marseille","lat":43.269508,"lon":5.386582,"is_reserved":false,"is_disabled":false,"rental_uris":{"android":"levelo://app?vid=68f31b3b-2a4d-4ab9-8cb8-25cb27fcc6e6","ios":"levelo://app?vid=68f31b3b-2a4d-4ab9-8cb8-25cb27fcc6e6"},"vehicle_type_id":"4","last_reported":1734271679,"current_range_meters":25200,"station_id":"ce4bhh92rcd13ifvqfh0","pricing_plan_id":"cebpf4jnsgd1na2vs0mg"},{"bike_id":"0144e6b1-a889-4178-bc07-b5563fb24a96","system_id":"levelo_inurba_marseille","lat":43.27327,"lon":5.39088,"is_reserved":false,"is_disabled":false,"rental_uris":{"android":"levelo://app?vid=0144e6b1-a889-4178-bc07-b5563fb24a96","ios":"levelo://app?vid=0144e6b1-a889-4178-bc07-b5563fb24a96"},"vehicle_type_id":"4","last_reported":1734271679,"current_range_meters":10800,"station_id":"ce4bhgp2rcd13ifvqfe0","pricing_plan_id":"cebpf4jnsgd1na2vs0mg"},{"bike_id":"c1bb0178-ee97-4941-a31d-6ed3fdcdf1d3","system_id":"levelo_inurba_marseille","lat":43.30466,"lon":5.37899,"is_reserved":false,"is_disabled":false,"rental_uris":{"android":"levelo://app?vid=c1bb0178-ee97-4941-a31d-6ed3fdcdf1d3","ios":"levelo://app?vid=c1bb0178-ee97-4941-a31d-6ed3fdcdf1d3"},"vehicle_type_id":"4","last_reported":1734271679,"current_range_meters":38800,"station_id":"ce4bgup2rcd13ifvqcn0","pricing_plan_id":"cebpf4jnsgd1na2vs0mg"},{"bike_id":"994bbbdd-28a3-4783-933e-04628d6b9262","system_id":"levelo_inurba_marseille","lat":43.28856,"lon":5.39326,"is_reserved":false,"is_disabled":true,"rental_uris":{"android":"levelo://app?vid=994bbbdd-28a3-4783-933e-04628d6b9262","ios":"levelo://app?vid=994bbbdd-28a3-4783-933e-04628d6b9262"},"vehicle_type_id":"4","last_reported":1734271679,"current_range_meters":36400,"station_id":"ce4bh2p2rcd13ifvqdi0","pricing_plan_id":"cebpf4jnsgd1na2vs0mg"},{"bike_id":"ae0bdd7b-187c-409c-b2b3-37aac32d4db3","system_id":"levelo_inurba_marseille","lat":43.32359,"lon":5.36758,"is_reserved":false,"is_disabled":false,"rental_uris":{"android":"levelo://app?vid=ae0bdd7b-187c-409c-b2b3-37aac32d4db3","ios":"levelo://app?vid=ae0bdd7b-187c-409c-b2b3-37aac32d4db3"},"vehicle_type_id":"4","last_reported":1734271679,"current_range_meters":36000,"station_id":"ce4bhsh2rcd13ifvqi2g","pricing_plan_id":"cebpf4jnsgd1na2vs0mg"},{"bike_id":"59b259af-328b-4a37-b1cb-eeec53772a2b","system_id":"levelo_inurba_marseille","lat":43.3053,"lon":5.36696,"is_reserved":false,"is_disabled":false,"rental_uris":{"android":"levelo://app?vid=59b259af-328b-4a37-b1cb-eeec53772a2b","ios":"levelo://app?vid=59b259af-328b-4a37-b1cb-eeec53772a2b"},"vehicle_type_id":"4","last_reported":1734271679,"current_range_meters":38800,"station_id":"ce4bgrp2rcd13ifvqc9g","pricing_plan_id":"cebpf4jnsgd1na2vs0mg"},{"bike_id":"7b971eaf-fcce-4584-919d-1ac236af429d","system_id":"levelo_inurba_marseille","lat":43.29852,"lon":5.36283,"is_reserved":false,"is_disabled":false,"rental_uris":{"android":"levelo://app?vid=7b971eaf-fcce-4584-919d-1ac236af429d","ios":"levelo://app?vid=7b971eaf-fcce-4584-919d-1ac236af429d"},"vehicle_type_id":"4","last_reported":1734271679,"current_range_meters":33200,"station_id":"ce4bgpp2rcd13ifvqc3g","pricing_plan_id":"cebpf4jnsgd1na2vs0mg"},{"bike_id":"9ad311dd-c450-4f09-933a-ef53d4559dc3","system_id":"levelo_inurba_marseille","lat":43.26986,"lon":5.39873,"is_reserved":false,"is_disabled":false,"rental_uris":{"android":"levelo://app?vid=9ad311dd-c450-4f09-933a-ef53d4559dc3","ios":"levelo://app?vid=9ad311dd-c450-4f09-933a-ef53d4559dc3"},"vehicle_type_id":"4","last_reported":1734271679,"current_range_meters":22800,"station_id":"","pricing_plan_id":"cebpf4jnsgd1na2vs0mg"},{"bike_id":"37456efc-92e9-4863-91c7-bd4d94a41119","system_id":"levelo_inurba_marseille","lat":43.28501,"lon":5.40181,"is_reserved":false,"is_disabled":false,"rental_uris":{"android":"levelo://app?vid=37456efc-92e9-4863-91c7-bd4d94a41119","ios":"levelo://app?vid=37456efc-92e9-4863-91c7-bd4d94a41119"},"vehicle_type_id":"4","last_reported":1734271679,"current_range_meters":8400,"station_id":"","pricing_plan_id":"cebpf4jnsgd1na2vs0mg"},{"bike_id":"3b25d107-763f-452c-bff7-9c41a7a92142","system_id":"levelo_inurba_marseille","lat":43.29893,"lon":5.43678,"is_reserved":false,"is_disabled":false,"rental_uris":{"android":"levelo://app?vid=3b25d107-763f-452c-bff7-9c41a7a92142","ios":"levelo://app?vid=3b25d107-763f-452c-bff7-9c41a7a92142"},"vehicle_type_id":"4","last_reported":1734271679,"current_range_meters":15200,"station_id":"ce4bhpp2rcd13ifvqhfg","pricing_plan_id":"cebpf4jnsgd1na2vs0mg"},{"bike_id":"f41160e5-8f75-4f86-b0c5-f13ebfa4849a","system_id":"levelo_inurba_marseille","lat":43.30554,"lon":5.36542,"is_reserved":false,"is_disabled":false,"rental_uris":{"android":"levelo://app?vid=f41160e5-8f75-4f86-b0c5-f13ebfa4849a","ios":"levelo://app?vid=f41160e5-8f75-4f86-b0c5-f13ebfa4849a"},"vehicle_type_id":"4","last_reported":1734271679,"current_range_meters":20000,"station_id":"ce4bgs12rcd13ifvqcag","pricing_plan_id":"cebpf4jnsgd1na2vs0mg"},{"bike_id":"4e65a034-df43-445b-b411-96d0c9702f35","system_id":"levelo_inurba_marseille","lat":43.25584,"lon":5.3826,"is_reserved":false,"is_disabled":false,"rental_uris":{"android":"levelo://app?vid=4e65a034-df43-445b-b411-96d0c9702f35","ios":"levelo://app?vid=4e65a034-df43-445b-b411-96d0c9702f35"},"vehicle_type_id":"4","last_reported":1734271679,"current_range_meters":10800,"station_id":"ce4bhih2rcd13ifvqfs0","pricing_plan_id":"cebpf4jnsgd1na2vs0mg"},{"bike_id":"af67ac53-ba21-4ff0-8334-95679e9ff2cc","system_id":"levelo_inurba_marseille","lat":43.278805,"lon":5.388003,"is_reserved":false,"is_disabled":true,"rental_uris":{"android":"levelo://app?vid=af67ac53-ba21-4ff0-8334-95679e9ff2cc","ios":"levelo://app?vid=af67ac53-ba21-4ff0-8334-95679e9ff2cc"},"vehicle_type_id":"4","last_reported":1734271679,"current_range_meters":0,"station_id":"","pricing_plan_id":"cebpf4jnsgd1na2vs0mg"},{"bike_id":"b06ba60e-8ae5-4afa-9596-3b4b008791ef","system_id":"levelo_inurba_marseille","lat":43.26501,"lon":5.39543,"is_reserved":false,"is_disabled":false,"rental_uris":{"android":"levelo://app?vid=b06ba60e-8ae5-4afa-9596-3b4b008791ef","ios":"levelo://app?vid=b06ba60e-8ae5-4afa-9596-3b4b008791ef"},"vehicle_type_id":"4","last_reported":1734271679,"current_range_meters":38800,"station_id":"ce4bhi12rcd13ifvqfq0","pricing_plan_id":"cebpf4jnsgd1na2vs0mg"},{"bike_id":"a1646859-c01a-4acf-9da8-f1ee179a778f","system_id":"levelo_inurba_marseille","lat":43.30092,"lon":5.39086,"is_reserved":false,"is_disabled":true,"rental_uris":{"android":"levelo://app?vid=a1646859-c01a-4acf-9da8-f1ee179a778f","ios":"levelo://app?vid=a1646859-c01a-4acf-9da8-f1ee179a778f"},"vehicle_type_id":"4","last_reported":1734271679,"current_range_meters":16800,"station_id":"ce4bh192rcd13ifvqdb0","pricing_plan_id":"cebpf4jnsgd1na2vs0mg"},{"bike_id":"3fac2257-e204-4b80-991a-e14243ef9f57","system_id":"levelo_inurba_marseille","lat":43.27371,"lon":5.3624,"is_reserved":false,"is_disabled":false,"rental_uris":{"android":"levelo://app?vid=3fac2257-e204-4b80-991a-e14243ef9f57","ios":"levelo://app?vid=3fac2257-e204-4b80-991a-e14243ef9f57"},"vehicle_type_id":"4","last_reported":1734271679,"current_range_meters":39200,"station_id":"ce4bhbh2rcd13ifvqeo0","pricing_plan_id":"cebpf4jnsgd1na2vs0mg"},{"bike_id":"7677704a-55e0-41b1-8fbb-2a6514bbb9ae","system_id":"levelo_inurba_marseille","lat":43.27367,"lon":5.3626,"is_reserved":false,"is_disabled":false,"rental_uris":{"android":"levelo://app?vid=7677704a-55e0-41b1-8fbb-2a6514bbb9ae","ios":"levelo://app?vid=7677704a-55e0-41b1-8fbb-2a6514bbb9ae"},"vehicle_type_id":"4","last_reported":1734271679,"current_range_meters":38400,"station_id":"ce4bhbh2rcd13ifvqeo0","pricing_plan_id":"cebpf4jnsgd1na2vs0mg"},{"bike_id":"fc43bfe3-9f6d-4964-8d03-4526a28744ff","system_id":"levelo_inurba_marseille","lat":43.23963,"lon":5.36627,"is_reserved":false,"is_disabled":false,"rental_uris":{"android":"levelo://app?vid=fc43bfe3-9f6d-4964-8d03-4526a28744ff","ios":"levelo://app?vid=fc43bfe3-9f6d-4964-8d03-4526a28744ff"},"vehicle_type_id":"4","last_reported":1734271679,"current_range_meters":38800,"station_id":"ce4bhi12rcd13ifvqfp0","pricing_plan_id":"cebpf4jnsgd1na2vs0mg"},{"bike_id":"cb7a8afa-07d0-4673-aecd-79851ac2b871","system_id":"levelo_inurba_marseille","lat":43.28149,"lon":5.4264,"is_reserved":false,"is_disabled":false,"rental_uris":{"android":"levelo://app?vid=cb7a8afa-07d0-4673-aecd-79851ac2b871","ios":"levelo://app?vid=cb7a8afa-07d0-4673-aecd-79851ac2b871"},"vehicle_type_id":"4","last_reported":1734271679,"current_range_meters":33200,"station_id":"ce4bhnh2rcd13ifvqgug","pricing_plan_id":"cebpf4jnsgd1na2vs0mg"},{"bike_id":"ad9e0e56-b232-4761-8766-3140462fc53b","system_id":"levelo_inurba_marseille","lat":43.26556,"lon":5.37287,"is_reserved":false,"is_disabled":true,"rental_uris":{"android":"levelo://app?vid=ad9e0e56-b232-4761-8766-3140462fc53b","ios":"levelo://app?vid=ad9e0e56-b232-4761-8766-3140462fc53b"},"vehicle_type_id":"4","last_reported":1734271679,"current_range_meters":26800,"station_id":"ce4bhg12rcd13ifvqf70","pricing_plan_id":"cebpf4jnsgd1na2vs0mg"},{"bike_id":"d65fcea9-51ba-41f0-86fd-e798dfdd6f09","system_id":"levelo_inurba_marseille","lat":43.28726,"lon":5.38285,"is_reserved":false,"is_disabled":true,"rental_uris":{"android":"levelo://app?vid=d65fcea9-51ba-41f0-86fd-e798dfdd6f09","ios":"levelo://app?vid=d65fcea9-51ba-41f0-86fd-e798dfdd6f09"},"vehicle_type_id":"4","last_reported":1734271679,"current_range_meters":0,"station_id":"","pricing_plan_id":"cebpf4jnsgd1na2vs0mg"},{"bike_id":"656d8740-9b85-4a93-86ce-9d32a0e761f7","system_id":"levelo_inurba_marseille","lat":43.31072,"lon":5.38353,"is_reserved":false,"is_disabled":true,"rental_uris":{"android":"levelo://app?vid=656d8740-9b85-4a93-86ce-9d32a0e761f7","ios":"levelo://app?vid=656d8740-9b85-4a93-86ce-9d32a0e761f7"},"vehicle_type_id":"4","last_reported":1734271679,"current_range_meters":25600,"station_id":"ce4bgv92rcd13ifvqcr0","pricing_plan_id":"cebpf4jnsgd1na2vs0mg"},{"bike_id":"30b09c14-5db6-4bdd-8ec0-8d8fd355bef3","system_id":"levelo_inurba_marseille","lat":43.29894,"lon":5.39732,"is_reserved":false,"is_disabled":true,"rental_uris":{"android":"levelo://app?vid=30b09c14-5db6-4bdd-8ec0-8d8fd355bef3","ios":"levelo://app?vid=30b09c14-5db6-4bdd-8ec0-8d8fd355bef3"},"vehicle_type_id":"4","last_reported":1734271679,"current_range_meters":2000,"station_id":"ce4bh0h2rcd13ifvqd50","pricing_plan_id":"cebpf4jnsgd1na2vs0mg"},{"bike_id":"f08c808c-af08-40b8-81c3-97739c995b77","system_id":"levelo_inurba_marseille","lat":43.30126,"lon":5.39895,"is_reserved":false,"is_disabled":true,"rental_uris":{"android":"levelo://app?vid=f08c808c-af08-40b8-81c3-97739c995b77","ios":"levelo://app?vid=f08c808c-af08-40b8-81c3-97739c995b77"},"vehicle_type_id":"4","last_reported":1734271679,"current_range_meters":28400,"station_id":"ce4bh0h2rcd13ifvqd40","pricing_plan_id":"cebpf4jnsgd1na2vs0mg"},{"bike_id":"86970bbe-b814-43c9-89a2-85f507f309fa","system_id":"levelo_inurba_marseille","lat":43.30548,"lon":5.38449,"is_reserved":false,"is_disabled":true,"rental_uris":{"android":"levelo://app?vid=86970bbe-b814-43c9-89a2-85f507f309fa","ios":"levelo://app?vid=86970bbe-b814-43c9-89a2-85f507f309fa"},"vehicle_type_id":"4","last_reported":1734271679,"current_range_meters":4000,"station_id":"ce4bgg92rcd13ifvqb30","pricing_plan_id":"cebpf4jnsgd1na2vs0mg"},{"bike_id":"bc691a20-b8bd-49d0-b5c8-4ea29879eb07","system_id":"levelo_inurba_marseille","lat":43.29954,"lon":5.40068,"is_reserved":false,"is_disabled":false,"rental_uris":{"android":"levelo://app?vid=bc691a20-b8bd-49d0-b5c8-4ea29879eb07","ios":"levelo://app?vid=bc691a20-b8bd-49d0-b5c8-4ea29879eb07"},"vehicle_type_id":"4","last_reported":1734271679,"current_range_meters":24400,"station_id":"ce4bh512rcd13ifvqe3g","pricing_plan_id":"cebpf4jnsgd1na2vs0mg"},{"bike_id":"96969163-05be-4d1c-a728-67794615bdfc","system_id":"levelo_inurba_marseille","lat":43.28994,"lon":5.39008,"is_reserved":false,"is_disabled":false,"rental_uris":{"android":"levelo://app?vid=96969163-05be-4d1c-a728-67794615bdfc","ios":"levelo://app?vid=96969163-05be-4d1c-a728-67794615bdfc"},"vehicle_type_id":"4","last_reported":1734271679,"current_range_meters":16000,"station_id":"","pricing_plan_id":"cebpf4jnsgd1na2vs0mg"},{"bike_id":"64203de9-e72b-4d66-9a84-7a315c7ed37f","system_id":"levelo_inurba_marseille","lat":43.29403,"lon":5.37462,"is_reserved":false,"is_disabled":true,"rental_uris":{"android":"levelo://app?vid=64203de9-e72b-4d66-9a84-7a315c7ed37f","ios":"levelo://app?vid=64203de9-e72b-4d66-9a84-7a315c7ed37f"},"vehicle_type_id":"4","last_reported":1734271679,"current_range_meters":0,"station_id":"","pricing_plan_id":"cebpf4jnsgd1na2vs0mg"},{"bike_id":"43a2fa1d-314c-4a4d-b7c9-aa2f198eb73b","system_id":"levelo_inurba_marseille","lat":43.30127,"lon":5.38791,"is_reserved":false,"is_disabled":true,"rental_uris":{"android":"levelo://app?vid=43a2fa1d-314c-4a4d-b7c9-aa2f198eb73b","ios":"levelo://app?vid=43a2fa1d-314c-4a4d-b7c9-aa2f198eb73b"},"vehicle_type_id":"4","last_reported":1734271679,"current_range_meters":30000,"station_id":"ce4bghh2rcd13ifvqb60","pricing_plan_id":"cebpf4jnsgd1na2vs0mg"},{"bike_id":"f40a8800-0282-4e19-ba2d-6a4b73090705","system_id":"levelo_inurba_marseille","lat":43.28676,"lon":5.38664,"is_reserved":false,"is_disabled":true,"rental_uris":{"android":"levelo://app?vid=f40a8800-0282-4e19-ba2d-6a4b73090705","ios":"levelo://app?vid=f40a8800-0282-4e19-ba2d-6a4b73090705"},"vehicle_type_id":"4","last_reported":1734271679,"current_range_meters":38800,"station_id":"ce4bh492rcd13ifvqdug","pricing_plan_id":"cebpf4jnsgd1na2vs0mg"},{"bike_id":"87ba82eb-975a-468d-bd22-fb9252256bb3","system_id":"levelo_inurba_marseille","lat":43.30145,"lon":5.3742,"is_reserved":false,"is_disabled":false,"rental_uris":{"android":"levelo://app?vid=87ba82eb-975a-468d-bd22-fb9252256bb3","ios":"levelo://app?vid=87ba82eb-975a-468d-bd22-fb9252256bb3"},"vehicle_type_id":"4","last_reported":1734271679,"current_range_meters":20000,"station_id":"ce4bgs92rcd13ifvqcc0","pricing_plan_id":"cebpf4jnsgd1na2vs0mg"},{"bike_id":"a386390f-3974-4cf8-a525-cb453b8735bc","system_id":"levelo_inurba_marseille","lat":43.27339,"lon":5.39117,"is_reserved":false,"is_disabled":true,"rental_uris":{"android":"levelo://app?vid=a386390f-3974-4cf8-a525-cb453b8735bc","ios":"levelo://app?vid=a386390f-3974-4cf8-a525-cb453b8735bc"},"vehicle_type_id":"4","last_reported":1734271679,"current_range_meters":2000,"station_id":"ce4bhgp2rcd13ifvqfe0","pricing_plan_id":"cebpf4jnsgd1na2vs0mg"},{"bike_id":"e9c2da41-0cf3-4790-b1bd-5a8d9ecb7255","system_id":"levelo_inurba_marseille","lat":43.261892,"lon":5.379253,"is_reserved":false,"is_disabled":false,"rental_uris":{"android":"levelo://app?vid=e9c2da41-0cf3-4790-b1bd-5a8d9ecb7255","ios":"levelo://app?vid=e9c2da41-0cf3-4790-b1bd-5a8d9ecb7255"},"vehicle_type_id":"4","last_reported":1734271679,"current_range_meters":24800,"station_id":"ce4bhjp2rcd13ifvqg90","pricing_plan_id":"cebpf4jnsgd1na2vs0mg"},{"bike_id":"41a7a588-44a9-4b1c-8163-ee6ddb5bfea1","system_id":"levelo_inurba_marseille","lat":43.286195,"lon":5.351085,"is_reserved":false,"is_disabled":false,"rental_uris":{"android":"levelo://app?vid=41a7a588-44a9-4b1c-8163-ee6ddb5bfea1","ios":"levelo://app?vid=41a7a588-44a9-4b1c-8163-ee6ddb5bfea1"},"vehicle_type_id":"4","last_reported":1734271679,"current_range_meters":18800,"station_id":"ce4bhch2rcd13ifvqeug","pricing_plan_id":"cebpf4jnsgd1na2vs0mg"},{"bike_id":"690bf646-2f21-495e-8958-388ad0bab0bc","system_id":"levelo_inurba_marseille","lat":43.30679,"lon":5.3755,"is_reserved":false,"is_disabled":false,"rental_uris":{"android":"levelo://app?vid=690bf646-2f21-495e-8958-388ad0bab0bc","ios":"levelo://app?vid=690bf646-2f21-495e-8958-388ad0bab0bc"},"vehicle_type_id":"4","last_reported":1734271679,"current_range_meters":20400,"station_id":"ce4bgs92rcd13ifvqcc0","pricing_plan_id":"cebpf4jnsgd1na2vs0mg"},{"bike_id":"70c673d5-6066-4faf-b215-c0e7165e8d28","system_id":"levelo_inurba_marseille","lat":43.26024,"lon":5.394,"is_reserved":false,"is_disabled":false,"rental_uris":{"android":"levelo://app?vid=70c673d5-6066-4faf-b215-c0e7165e8d28","ios":"levelo://app?vid=70c673d5-6066-4faf-b215-c0e7165e8d28"},"vehicle_type_id":"4","last_reported":1734271679,"current_range_meters":38800,"station_id":"","pricing_plan_id":"cebpf4jnsgd1na2vs0mg"},{"bike_id":"62f547f2-9db6-4920-88a7-271ba03ba5df","system_id":"levelo_inurba_marseille","lat":43.3054,"lon":5.3654,"is_reserved":false,"is_disabled":false,"rental_uris":{"android":"levelo://app?vid=62f547f2-9db6-4920-88a7-271ba03ba5df","ios":"levelo://app?vid=62f547f2-9db6-4920-88a7-271ba03ba5df"},"vehicle_type_id":"4","last_reported":1734271679,"current_range_meters":39200,"station_id":"ce4bgs12rcd13ifvqcag","pricing_plan_id":"cebpf4jnsgd1na2vs0mg"},{"bike_id":"0810675e-0ec1-421a-b95a-82de5ccce9b2","system_id":"levelo_inurba_marseille","lat":43.24174,"lon":5.39724,"is_reserved":false,"is_disabled":true,"rental_uris":{"android":"levelo://app?vid=0810675e-0ec1-421a-b95a-82de5ccce9b2","ios":"levelo://app?vid=0810675e-0ec1-421a-b95a-82de5ccce9b2"},"vehicle_type_id":"4","last_reported":1734271679,"current_range_meters":23200,"station_id":"ce4bhn12rcd13ifvqgpg","pricing_plan_id":"cebpf4jnsgd1na2vs0mg"},{"bike_id":"b4534862-eded-4700-bc54-2259d64ef2a6","system_id":"levelo_inurba_marseille","lat":43.3031,"lon":5.36897,"is_reserved":false,"is_disabled":false,"rental_uris":{"android":"levelo://app?vid=b4534862-eded-4700-bc54-2259d64ef2a6","ios":"levelo://app?vid=b4534862-eded-4700-bc54-2259d64ef2a6"},"vehicle_type_id":"4","last_reported":1734271679,"current_range_meters":4800,"station_id":"ce4bgqh2rcd13ifvqc5g","pricing_plan_id":"cebpf4jnsgd1na2vs0mg"},{"bike_id":"6bc36b2e-0c9c-431e-95dc-c243c814c35f","system_id":"levelo_inurba_marseille","lat":43.28421,"lon":5.34989,"is_reserved":false,"is_disabled":false,"rental_uris":{"android":"levelo://app?vid=6bc36b2e-0c9c-431e-95dc-c243c814c35f","ios":"levelo://app?vid=6bc36b2e-0c9c-431e-95dc-c243c814c35f"},"vehicle_type_id":"4","last_reported":1734271679,"current_range_meters":38800,"station_id":"ce4bhbh2rcd13ifvqepg","pricing_plan_id":"cebpf4jnsgd1na2vs0mg"},{"bike_id":"f6bdbccf-40a6-4710-b7f2-6599fdcf7406","system_id":"levelo_inurba_marseille","lat":43.25004,"lon":5.38926,"is_reserved":false,"is_disabled":false,"rental_uris":{"android":"levelo://app?vid=f6bdbccf-40a6-4710-b7f2-6599fdcf7406","ios":"levelo://app?vid=f6bdbccf-40a6-4710-b7f2-6599fdcf7406"},"vehicle_type_id":"4","last_reported":1734271679,"current_range_meters":7200,"station_id":"ce4bhgp2rcd13ifvqfd0","pricing_plan_id":"cebpf4jnsgd1na2vs0mg"},{"bike_id":"c9169d90-4952-4442-b216-225cffd88fbb","system_id":"levelo_inurba_marseille","lat":43.28717,"lon":5.4,"is_reserved":false,"is_disabled":true,"rental_uris":{"android":"levelo://app?vid=c9169d90-4952-4442-b216-225cffd88fbb","ios":"levelo://app?vid=c9169d90-4952-4442-b216-225cffd88fbb"},"vehicle_type_id":"4","last_reported":1734271679,"current_range_meters":0,"station_id":"ce4bho92rcd13ifvqh3g","pricing_plan_id":"cebpf4jnsgd1na2vs0mg"},{"bike_id":"7adae987-bf10-4cef-95cf-748e38d9087d","system_id":"levelo_inurba_marseille","lat":43.30888,"lon":5.37187,"is_reserved":false,"is_disabled":false,"rental_uris":{"android":"levelo://app?vid=7adae987-bf10-4cef-95cf-748e38d9087d","ios":"levelo://app?vid=7adae987-bf10-4cef-95cf-748e38d9087d"},"vehicle_type_id":"4","last_reported":1734271679,"current_range_meters":32000,"station_id":"ce4bguh2rcd13ifvqckg","pricing_plan_id":"cebpf4jnsgd1na2vs0mg"},{"bike_id":"b163a8ef-7fed-43e6-ae10-580a73a48b07","system_id":"levelo_inurba_marseille","lat":43.31996,"lon":5.38148,"is_reserved":false,"is_disabled":false,"rental_uris":{"android":"levelo://app?vid=b163a8ef-7fed-43e6-ae10-580a73a48b07","ios":"levelo://app?vid=b163a8ef-7fed-43e6-ae10-580a73a48b07"},"vehicle_type_id":"4","last_reported":1734271679,"current_range_meters":38000,"station_id":"ce4bhr12rcd13ifvqhpg","pricing_plan_id":"cebpf4jnsgd1na2vs0mg"},{"bike_id":"ffeec115-fa20-43a8-a8f5-ec439dc1de83","system_id":"levelo_inurba_marseille","lat":43.29356,"lon":5.3785,"is_reserved":false,"is_disabled":false,"rental_uris":{"android":"levelo://app?vid=ffeec115-fa20-43a8-a8f5-ec439dc1de83","ios":"levelo://app?vid=ffeec115-fa20-43a8-a8f5-ec439dc1de83"},"vehicle_type_id":"4","last_reported":1734271679,"current_range_meters":38800,"station_id":"ce4bgjh2rcd13ifvqbf0","pricing_plan_id":"cebpf4jnsgd1na2vs0mg"},{"bike_id":"bf37b10a-3bcb-4794-8e7c-da1499eb1701","system_id":"levelo_inurba_marseille","lat":43.26531,"lon":5.42335,"is_reserved":false,"is_disabled":false,"rental_uris":{"android":"levelo://app?vid=bf37b10a-3bcb-4794-8e7c-da1499eb1701","ios":"levelo://app?vid=bf37b10a-3bcb-4794-8e7c-da1499eb1701"},"vehicle_type_id":"4","last_reported":1734271679,"current_range_meters":6000,"station_id":"","pricing_plan_id":"cebpf4jnsgd1na2vs0mg"},{"bike_id":"ce9e007b-fe96-4d9e-89e3-d0d2a7658587","system_id":"levelo_inurba_marseille","lat":43.30902,"lon":5.3685,"is_reserved":false,"is_disabled":false,"rental_uris":{"android":"levelo://app?vid=ce9e007b-fe96-4d9e-89e3-d0d2a7658587","ios":"levelo://app?vid=ce9e007b-fe96-4d9e-89e3-d0d2a7658587"},"vehicle_type_id":"4","last_reported":1734271679,"current_range_meters":7200,"station_id":"ce4bgn92rcd13ifvqbvg","pricing_plan_id":"cebpf4jnsgd1na2vs0mg"},{"bike_id":"ff58609e-dd62-4cb4-b79b-31ea2eb9a72f","system_id":"levelo_inurba_marseille","lat":43.25492,"lon":5.37651,"is_reserved":false,"is_disabled":true,"rental_uris":{"android":"levelo://app?vid=ff58609e-dd62-4cb4-b79b-31ea2eb9a72f","ios":"levelo://app?vid=ff58609e-dd62-4cb4-b79b-31ea2eb9a72f"},"vehicle_type_id":"4","last_reported":1734271679,"current_range_meters":0,"station_id":"ce4bhh12rcd13ifvqff0","pricing_plan_id":"cebpf4jnsgd1na2vs0mg"},{"bike_id":"92676c9b-b9d3-47dc-b554-520b4e0b8a37","system_id":"levelo_inurba_marseille","lat":43.30529,"lon":5.36693,"is_reserved":false,"is_disabled":false,"rental_uris":{"android":"levelo://app?vid=92676c9b-b9d3-47dc-b554-520b4e0b8a37","ios":"levelo://app?vid=92676c9b-b9d3-47dc-b554-520b4e0b8a37"},"vehicle_type_id":"4","last_reported":1734271679,"current_range_meters":28400,"station_id":"ce4bgrp2rcd13ifvqc9g","pricing_plan_id":"cebpf4jnsgd1na2vs0mg"},{"bike_id":"4db51694-d680-4154-afcc-4acaa4f73f93","system_id":"levelo_inurba_marseille","lat":43.28462,"lon":5.35891,"is_reserved":false,"is_disabled":false,"rental_uris":{"android":"levelo://app?vid=4db51694-d680-4154-afcc-4acaa4f73f93","ios":"levelo://app?vid=4db51694-d680-4154-afcc-4acaa4f73f93"},"vehicle_type_id":"4","last_reported":1734271679,"current_range_meters":25200,"station_id":"ce4bhah2rcd13ifvqei0","pricing_plan_id":"cebpf4jnsgd1na2vs0mg"},{"bike_id":"83e5b1f9-e512-4755-8dfd-f85222a054ac","system_id":"levelo_inurba_marseille","lat":43.26835,"lon":5.39643,"is_reserved":false,"is_disabled":false,"rental_uris":{"android":"levelo://app?vid=83e5b1f9-e512-4755-8dfd-f85222a054ac","ios":"levelo://app?vid=83e5b1f9-e512-4755-8dfd-f85222a054ac"},"vehicle_type_id":"4","last_reported":1734271679,"current_range_meters":16800,"station_id":"","pricing_plan_id":"cebpf4jnsgd1na2vs0mg"},{"bike_id":"483537f0-0a97-4bc9-b6b9-3700316f5817","system_id":"levelo_inurba_marseille","lat":43.29553,"lon":5.38558,"is_reserved":false,"is_disabled":true,"rental_uris":{"android":"levelo://app?vid=483537f0-0a97-4bc9-b6b9-3700316f5817","ios":"levelo://app?vid=483537f0-0a97-4bc9-b6b9-3700316f5817"},"vehicle_type_id":"4","last_reported":1734271679,"current_range_meters":34000,"station_id":"ce4bgih2rcd13ifvqba0","pricing_plan_id":"cebpf4jnsgd1na2vs0mg"},{"bike_id":"9703c418-561c-4947-909b-5280aa1605c3","system_id":"levelo_inurba_marseille","lat":43.24181,"lon":5.39725,"is_reserved":false,"is_disabled":false,"rental_uris":{"android":"levelo://app?vid=9703c418-561c-4947-909b-5280aa1605c3","ios":"levelo://app?vid=9703c418-561c-4947-909b-5280aa1605c3"},"vehicle_type_id":"4","last_reported":1734271679,"current_range_meters":36800,"station_id":"ce4bhn12rcd13ifvqgpg","pricing_plan_id":"cebpf4jnsgd1na2vs0mg"},{"bike_id":"5c099828-addc-43b1-8570-7b89f4daa849","system_id":"levelo_inurba_marseille","lat":43.2923,"lon":5.36075,"is_reserved":false,"is_disabled":false,"rental_uris":{"android":"levelo://app?vid=5c099828-addc-43b1-8570-7b89f4daa849","ios":"levelo://app?vid=5c099828-addc-43b1-8570-7b89f4daa849"},"vehicle_type_id":"4","last_reported":1734271679,"current_range_meters":34800,"station_id":"ce4bhbh2rcd13ifvqeqg","pricing_plan_id":"cebpf4jnsgd1na2vs0mg"},{"bike_id":"a1e87f39-a169-437c-996c-14d84743b37e","system_id":"levelo_inurba_marseille","lat":43.23068,"lon":5.35508,"is_reserved":false,"is_disabled":false,"rental_uris":{"android":"levelo://app?vid=a1e87f39-a169-437c-996c-14d84743b37e","ios":"levelo://app?vid=a1e87f39-a169-437c-996c-14d84743b37e"},"vehicle_type_id":"4","last_reported":1734271679,"current_range_meters":10000,"station_id":"cpo3342slgdg3j2ifvpg","pricing_plan_id":"cebpf4jnsgd1na2vs0mg"},{"bike_id":"6449539e-a8dd-420a-978c-c2d76e7c3716","system_id":"levelo_inurba_marseille","lat":43.2898,"lon":5.3784,"is_reserved":false,"is_disabled":false,"rental_uris":{"android":"levelo://app?vid=6449539e-a8dd-420a-978c-c2d76e7c3716","ios":"levelo://app?vid=6449539e-a8dd-420a-978c-c2d76e7c3716"},"vehicle_type_id":"4","last_reported":1734271679,"current_range_meters":38800,"station_id":"ce4bh9p2rcd13ifvqed0","pricing_plan_id":"cebpf4jnsgd1na2vs0mg"},{"bike_id":"238c60b4-6d3c-4ccd-a873-3927cc10c433","system_id":"levelo_inurba_marseille","lat":43.28266,"lon":5.35068,"is_reserved":false,"is_disabled":false,"rental_uris":{"android":"levelo://app?vid=238c60b4-6d3c-4ccd-a873-3927cc10c433","ios":"levelo://app?vid=238c60b4-6d3c-4ccd-a873-3927cc10c433"},"vehicle_type_id":"4","last_reported":1734271679,"current_range_meters":19600,"station_id":"ce4bhbp2rcd13ifvqerg","pricing_plan_id":"cebpf4jnsgd1na2vs0mg"},{"bike_id":"c976cc60-0ee0-42e8-9f75-425d602f30ed","system_id":"levelo_inurba_marseille","lat":43.29739,"lon":5.39386,"is_reserved":false,"is_disabled":false,"rental_uris":{"android":"levelo://app?vid=c976cc60-0ee0-42e8-9f75-425d602f30ed","ios":"levelo://app?vid=c976cc60-0ee0-42e8-9f75-425d602f30ed"},"vehicle_type_id":"4","last_reported":1734271679,"current_range_meters":32000,"station_id":"","pricing_plan_id":"cebpf4jnsgd1na2vs0mg"},{"bike_id":"a34223f5-c6be-48ba-acdb-c689c88a699e","system_id":"levelo_inurba_marseille","lat":43.26208,"lon":5.37452,"is_reserved":false,"is_disabled":true,"rental_uris":{"android":"levelo://app?vid=a34223f5-c6be-48ba-acdb-c689c88a699e","ios":"levelo://app?vid=a34223f5-c6be-48ba-acdb-c689c88a699e"},"vehicle_type_id":"4","last_reported":1734271679,"current_range_meters":13600,"station_id":"ce4bhgp2rcd13ifvqfc0","pricing_plan_id":"cebpf4jnsgd1na2vs0mg"},{"bike_id":"e890a470-ecbd-458e-adb6-fdb1c767948f","system_id":"levelo_inurba_marseille","lat":43.2861,"lon":5.37064,"is_reserved":false,"is_disabled":false,"rental_uris":{"android":"levelo://app?vid=e890a470-ecbd-458e-adb6-fdb1c767948f","ios":"levelo://app?vid=e890a470-ecbd-458e-adb6-fdb1c767948f"},"vehicle_type_id":"4","last_reported":1734271679,"current_range_meters":33600,"station_id":"ce4bht12rcd13ifvqi60","pricing_plan_id":"cebpf4jnsgd1na2vs0mg"},{"bike_id":"fb75c4ba-469f-42b4-9241-bb8348b4b4dd","system_id":"levelo_inurba_marseille","lat":43.26201,"lon":5.37935,"is_reserved":false,"is_disabled":false,"rental_uris":{"android":"levelo://app?vid=fb75c4ba-469f-42b4-9241-bb8348b4b4dd","ios":"levelo://app?vid=fb75c4ba-469f-42b4-9241-bb8348b4b4dd"},"vehicle_type_id":"4","last_reported":1734271679,"current_range_meters":16800,"station_id":"ce4bhjp2rcd13ifvqg90","pricing_plan_id":"cebpf4jnsgd1na2vs0mg"},{"bike_id":"418176fc-9612-4956-8ca9-9916bd2da767","system_id":"levelo_inurba_marseille","lat":43.33013,"lon":5.39036,"is_reserved":false,"is_disabled":false,"rental_uris":{"android":"levelo://app?vid=418176fc-9612-4956-8ca9-9916bd2da767","ios":"levelo://app?vid=418176fc-9612-4956-8ca9-9916bd2da767"},"vehicle_type_id":"4","last_reported":1734271679,"current_range_meters":20000,"station_id":"ce4bhr92rcd13ifvqhrg","pricing_plan_id":"cebpf4jnsgd1na2vs0mg"},{"bike_id":"b4f28572-e9c3-4d89-a9c6-b22627fb6aff","system_id":"levelo_inurba_marseille","lat":43.32549,"lon":5.41452,"is_reserved":false,"is_disabled":false,"rental_uris":{"android":"levelo://app?vid=b4f28572-e9c3-4d89-a9c6-b22627fb6aff","ios":"levelo://app?vid=b4f28572-e9c3-4d89-a9c6-b22627fb6aff"},"vehicle_type_id":"4","last_reported":1734271679,"current_range_meters":18800,"station_id":"ce4bhq12rcd13ifvqhhg","pricing_plan_id":"cebpf4jnsgd1na2vs0mg"},{"bike_id":"1163fe21-74e4-40ab-a103-f1c29f2ea8b1","system_id":"levelo_inurba_marseille","lat":43.25872,"lon":5.3992,"is_reserved":false,"is_disabled":false,"rental_uris":{"android":"levelo://app?vid=1163fe21-74e4-40ab-a103-f1c29f2ea8b1","ios":"levelo://app?vid=1163fe21-74e4-40ab-a103-f1c29f2ea8b1"},"vehicle_type_id":"4","last_reported":1734271679,"current_range_meters":38400,"station_id":"ce4bhl92rcd13ifvqghg","pricing_plan_id":"cebpf4jnsgd1na2vs0mg"},{"bike_id":"55ce578e-dec3-47c6-bc2a-3369d6d751b1","system_id":"levelo_inurba_marseille","lat":43.23186,"lon":5.39989,"is_reserved":false,"is_disabled":true,"rental_uris":{"android":"levelo://app?vid=55ce578e-dec3-47c6-bc2a-3369d6d751b1","ios":"levelo://app?vid=55ce578e-dec3-47c6-bc2a-3369d6d751b1"},"vehicle_type_id":"4","last_reported":1734271679,"current_range_meters":0,"station_id":"ce4bhn12rcd13ifvqgqg","pricing_plan_id":"cebpf4jnsgd1na2vs0mg"},{"bike_id":"3ceb8620-8a84-4dff-8047-301dc3087867","system_id":"levelo_inurba_marseille","lat":43.27676,"lon":5.38893,"is_reserved":false,"is_disabled":true,"rental_uris":{"android":"levelo://app?vid=3ceb8620-8a84-4dff-8047-301dc3087867","ios":"levelo://app?vid=3ceb8620-8a84-4dff-8047-301dc3087867"},"vehicle_type_id":"4","last_reported":1734271679,"current_range_meters":38400,"station_id":"ce4bhi12rcd13ifvqfo0","pricing_plan_id":"cebpf4jnsgd1na2vs0mg"},{"bike_id":"e89eef15-44c4-4f21-894d-47da38a7ea25","system_id":"levelo_inurba_marseille","lat":43.30143,"lon":5.37416,"is_reserved":false,"is_disabled":true,"rental_uris":{"android":"levelo://app?vid=e89eef15-44c4-4f21-894d-47da38a7ea25","ios":"levelo://app?vid=e89eef15-44c4-4f21-894d-47da38a7ea25"},"vehicle_type_id":"4","last_reported":1734271679,"current_range_meters":800,"station_id":"ce4bgs92rcd13ifvqcc0","pricing_plan_id":"cebpf4jnsgd1na2vs0mg"},{"bike_id":"4e3eebec-f009-4887-809b-5f30495d5092","system_id":"levelo_inurba_marseille","lat":43.28698,"lon":5.37394,"is_reserved":false,"is_disabled":true,"rental_uris":{"android":"levelo://app?vid=4e3eebec-f009-4887-809b-5f30495d5092","ios":"levelo://app?vid=4e3eebec-f009-4887-809b-5f30495d5092"},"vehicle_type_id":"4","last_reported":1734271679,"current_range_meters":19200,"station_id":"ce4bh3p2rcd13ifvqdq0","pricing_plan_id":"cebpf4jnsgd1na2vs0mg"},{"bike_id":"eb1496f4-67ed-47fd-8660-60023378367f","system_id":"levelo_inurba_marseille","lat":43.294212,"lon":5.374322,"is_reserved":false,"is_disabled":true,"rental_uris":{"android":"levelo://app?vid=eb1496f4-67ed-47fd-8660-60023378367f","ios":"levelo://app?vid=eb1496f4-67ed-47fd-8660-60023378367f"},"vehicle_type_id":"4","last_reported":1734271679,"current_range_meters":0,"station_id":"","pricing_plan_id":"cebpf4jnsgd1na2vs0mg"},{"bike_id":"71adf873-8534-4b4c-88ad-a35b28cb9554","system_id":"levelo_inurba_marseille","lat":43.24818,"lon":5.41185,"is_reserved":false,"is_disabled":false,"rental_uris":{"android":"levelo://app?vid=71adf873-8534-4b4c-88ad-a35b28cb9554","ios":"levelo://app?vid=71adf873-8534-4b4c-88ad-a35b28cb9554"},"vehicle_type_id":"4","last_reported":1734271679,"current_range_meters":22000,"station_id":"","pricing_plan_id":"cebpf4jnsgd1na2vs0mg"},{"bike_id":"c0c3fc51-3be3-4932-a397-78224f09cbb8","system_id":"levelo_inurba_marseille","lat":43.31299,"lon":5.36868,"is_reserved":false,"is_disabled":false,"rental_uris":{"android":"levelo://app?vid=c0c3fc51-3be3-4932-a397-78224f09cbb8","ios":"levelo://app?vid=c0c3fc51-3be3-4932-a397-78224f09cbb8"},"vehicle_type_id":"4","last_reported":1734271679,"current_range_meters":28000,"station_id":"","pricing_plan_id":"cebpf4jnsgd1na2vs0mg"},{"bike_id":"0da53d92-f0a4-4f23-ba64-66fcd462aa26","system_id":"levelo_inurba_marseille","lat":43.3247,"lon":5.36557,"is_reserved":false,"is_disabled":false,"rental_uris":{"android":"levelo://app?vid=0da53d92-f0a4-4f23-ba64-66fcd462aa26","ios":"levelo://app?vid=0da53d92-f0a4-4f23-ba64-66fcd462aa26"},"vehicle_type_id":"4","last_reported":1734271679,"current_range_meters":35200,"station_id":"ce4bhs12rcd13ifvqhvg","pricing_plan_id":"cebpf4jnsgd1na2vs0mg"},{"bike_id":"071eec5c-8b96-4b3c-89aa-dad49fa44c6b","system_id":"levelo_inurba_marseille","lat":43.25007,"lon":5.38928,"is_reserved":false,"is_disabled":false,"rental_uris":{"android":"levelo://app?vid=071eec5c-8b96-4b3c-89aa-dad49fa44c6b","ios":"levelo://app?vid=071eec5c-8b96-4b3c-89aa-dad49fa44c6b"},"vehicle_type_id":"4","last_reported":1734271679,"current_range_meters":38800,"station_id":"ce4bhgp2rcd13ifvqfd0","pricing_plan_id":"cebpf4jnsgd1na2vs0mg"},{"bike_id":"e417af0d-29ea-459e-9bdd-15daa8ff17e0","system_id":"levelo_inurba_marseille","lat":43.29523,"lon":5.38551,"is_reserved":false,"is_disabled":true,"rental_uris":{"android":"levelo://app?vid=e417af0d-29ea-459e-9bdd-15daa8ff17e0","ios":"levelo://app?vid=e417af0d-29ea-459e-9bdd-15daa8ff17e0"},"vehicle_type_id":"4","last_reported":1734271679,"current_range_meters":37600,"station_id":"ce4bgih2rcd13ifvqba0","pricing_plan_id":"cebpf4jnsgd1na2vs0mg"},{"bike_id":"0df249be-7d40-48ad-8915-752593b717dd","system_id":"levelo_inurba_marseille","lat":43.23198,"lon":5.3557,"is_reserved":false,"is_disabled":false,"rental_uris":{"android":"levelo://app?vid=0df249be-7d40-48ad-8915-752593b717dd","ios":"levelo://app?vid=0df249be-7d40-48ad-8915-752593b717dd"},"vehicle_type_id":"4","last_reported":1734271679,"current_range_meters":29600,"station_id":"ce4bhu92rcd13ifvqi70","pricing_plan_id":"cebpf4jnsgd1na2vs0mg"},{"bike_id":"b99d6888-c39e-4637-8fac-1dc1b9a9e1de","system_id":"levelo_inurba_marseille","lat":43.25494,"lon":5.37651,"is_reserved":false,"is_disabled":false,"rental_uris":{"android":"levelo://app?vid=b99d6888-c39e-4637-8fac-1dc1b9a9e1de","ios":"levelo://app?vid=b99d6888-c39e-4637-8fac-1dc1b9a9e1de"},"vehicle_type_id":"4","last_reported":1734271679,"current_range_meters":8800,"station_id":"ce4bhh12rcd13ifvqff0","pricing_plan_id":"cebpf4jnsgd1na2vs0mg"},{"bike_id":"abdf81ec-e98d-4dee-9e25-ca8f28442f23","system_id":"levelo_inurba_marseille","lat":43.29737,"lon":5.40716,"is_reserved":false,"is_disabled":true,"rental_uris":{"android":"levelo://app?vid=abdf81ec-e98d-4dee-9e25-ca8f28442f23","ios":"levelo://app?vid=abdf81ec-e98d-4dee-9e25-ca8f28442f23"},"vehicle_type_id":"4","last_reported":1734271679,"current_range_meters":0,"station_id":"","pricing_plan_id":"cebpf4jnsgd1na2vs0mg"},{"bike_id":"c68db57d-783a-4064-a144-068182cc62b5","system_id":"levelo_inurba_marseille","lat":43.30274,"lon":5.37698,"is_reserved":false,"is_disabled":false,"rental_uris":{"android":"levelo://app?vid=c68db57d-783a-4064-a144-068182cc62b5","ios":"levelo://app?vid=c68db57d-783a-4064-a144-068182cc62b5"},"vehicle_type_id":"4","last_reported":1734271679,"current_range_meters":12000,"station_id":"ce4bguh2rcd13ifvqcj0","pricing_plan_id":"cebpf4jnsgd1na2vs0mg"},{"bike_id":"4a1bc0db-6a2c-4623-8864-d2d18510681f","system_id":"levelo_inurba_marseille","lat":43.23198,"lon":5.35559,"is_reserved":false,"is_disabled":false,"rental_uris":{"android":"levelo://app?vid=4a1bc0db-6a2c-4623-8864-d2d18510681f","ios":"levelo://app?vid=4a1bc0db-6a2c-4623-8864-d2d18510681f"},"vehicle_type_id":"4","last_reported":1734271679,"current_range_meters":16800,"station_id":"ce4bhu92rcd13ifvqi70","pricing_plan_id":"cebpf4jnsgd1na2vs0mg"},{"bike_id":"fda5d38c-ad67-40b0-8d80-b72fffc85b07","system_id":"levelo_inurba_marseille","lat":43.24811,"lon":5.3746,"is_reserved":false,"is_disabled":false,"rental_uris":{"android":"levelo://app?vid=fda5d38c-ad67-40b0-8d80-b72fffc85b07","ios":"levelo://app?vid=fda5d38c-ad67-40b0-8d80-b72fffc85b07"},"vehicle_type_id":"4","last_reported":1734271679,"current_range_meters":33600,"station_id":"ce4bhgh2rcd13ifvqfb0","pricing_plan_id":"cebpf4jnsgd1na2vs0mg"},{"bike_id":"d69bc675-7801-4e9e-986c-743536dec09d","system_id":"levelo_inurba_marseille","lat":43.27625,"lon":5.3612,"is_reserved":false,"is_disabled":false,"rental_uris":{"android":"levelo://app?vid=d69bc675-7801-4e9e-986c-743536dec09d","ios":"levelo://app?vid=d69bc675-7801-4e9e-986c-743536dec09d"},"vehicle_type_id":"4","last_reported":1734271679,"current_range_meters":14800,"station_id":"ce4bgj92rcd13ifvqbe0","pricing_plan_id":"cebpf4jnsgd1na2vs0mg"},{"bike_id":"ecbfcd56-e2e9-411a-916b-327a5fa7e43b","system_id":"levelo_inurba_marseille","lat":43.30007,"lon":5.37359,"is_reserved":false,"is_disabled":false,"rental_uris":{"android":"levelo://app?vid=ecbfcd56-e2e9-411a-916b-327a5fa7e43b","ios":"levelo://app?vid=ecbfcd56-e2e9-411a-916b-327a5fa7e43b"},"vehicle_type_id":"4","last_reported":1734271679,"current_range_meters":24800,"station_id":"","pricing_plan_id":"cebpf4jnsgd1na2vs0mg"},{"bike_id":"f9058d8c-0917-4d9f-a0ce-f51dfd2def06","system_id":"levelo_inurba_marseille","lat":43.26608,"lon":5.4049,"is_reserved":false,"is_disabled":false,"rental_uris":{"android":"levelo://app?vid=f9058d8c-0917-4d9f-a0ce-f51dfd2def06","ios":"levelo://app?vid=f9058d8c-0917-4d9f-a0ce-f51dfd2def06"},"vehicle_type_id":"4","last_reported":1734271679,"current_range_meters":38400,"station_id":"ce501612rcd8frsf0b60","pricing_plan_id":"cebpf4jnsgd1na2vs0mg"},{"bike_id":"182ded38-f59a-4d9e-9467-0cfa584f0876","system_id":"levelo_inurba_marseille","lat":43.28129,"lon":5.37865,"is_reserved":false,"is_disabled":true,"rental_uris":{"android":"levelo://app?vid=182ded38-f59a-4d9e-9467-0cfa584f0876","ios":"levelo://app?vid=182ded38-f59a-4d9e-9467-0cfa584f0876"},"vehicle_type_id":"4","last_reported":1734271679,"current_range_meters":0,"station_id":"","pricing_plan_id":"cebpf4jnsgd1na2vs0mg"},{"bike_id":"a170ba40-17b7-4bf6-90f8-c07a5cf55709","system_id":"levelo_inurba_marseille","lat":43.24645,"lon":5.3888,"is_reserved":false,"is_disabled":true,"rental_uris":{"android":"levelo://app?vid=a170ba40-17b7-4bf6-90f8-c07a5cf55709","ios":"levelo://app?vid=a170ba40-17b7-4bf6-90f8-c07a5cf55709"},"vehicle_type_id":"4","last_reported":1734271679,"current_range_meters":38000,"station_id":"ce4bhg12rcd13ifvqf60","pricing_plan_id":"cebpf4jnsgd1na2vs0mg"},{"bike_id":"b89cd02a-44c8-4fbb-83be-fee20ca926ec","system_id":"levelo_inurba_marseille","lat":43.25121,"lon":5.40322,"is_reserved":false,"is_disabled":false,"rental_uris":{"android":"levelo://app?vid=b89cd02a-44c8-4fbb-83be-fee20ca926ec","ios":"levelo://app?vid=b89cd02a-44c8-4fbb-83be-fee20ca926ec"},"vehicle_type_id":"4","last_reported":1734271679,"current_range_meters":38400,"station_id":"ce4bhlh2rcd13ifvqgig","pricing_plan_id":"cebpf4jnsgd1na2vs0mg"},{"bike_id":"27b317b7-ef3e-4fab-a731-0cb4771be0aa","system_id":"levelo_inurba_marseille","lat":43.23192,"lon":5.35557,"is_reserved":false,"is_disabled":false,"rental_uris":{"android":"levelo://app?vid=27b317b7-ef3e-4fab-a731-0cb4771be0aa","ios":"levelo://app?vid=27b317b7-ef3e-4fab-a731-0cb4771be0aa"},"vehicle_type_id":"4","last_reported":1734271679,"current_range_meters":28800,"station_id":"ce4bhu92rcd13ifvqi70","pricing_plan_id":"cebpf4jnsgd1na2vs0mg"},{"bike_id":"7d976dc2-0804-4d5f-93f2-5bc558fd568a","system_id":"levelo_inurba_marseille","lat":43.26063,"lon":5.39398,"is_reserved":false,"is_disabled":false,"rental_uris":{"android":"levelo://app?vid=7d976dc2-0804-4d5f-93f2-5bc558fd568a","ios":"levelo://app?vid=7d976dc2-0804-4d5f-93f2-5bc558fd568a"},"vehicle_type_id":"4","last_reported":1734271679,"current_range_meters":8000,"station_id":"ce4bhh92rcd13ifvqfj0","pricing_plan_id":"cebpf4jnsgd1na2vs0mg"},{"bike_id":"9462b2a7-07e4-4988-a09e-5847dafa59c1","system_id":"levelo_inurba_marseille","lat":43.23968,"lon":5.36632,"is_reserved":false,"is_disabled":false,"rental_uris":{"android":"levelo://app?vid=9462b2a7-07e4-4988-a09e-5847dafa59c1","ios":"levelo://app?vid=9462b2a7-07e4-4988-a09e-5847dafa59c1"},"vehicle_type_id":"4","last_reported":1734271679,"current_range_meters":37600,"station_id":"ce4bhi12rcd13ifvqfp0","pricing_plan_id":"cebpf4jnsgd1na2vs0mg"},{"bike_id":"43f3ccf0-f0b3-490b-9870-5b71dc6d0bde","system_id":"levelo_inurba_marseille","lat":43.31897,"lon":5.40732,"is_reserved":false,"is_disabled":false,"rental_uris":{"android":"levelo://app?vid=43f3ccf0-f0b3-490b-9870-5b71dc6d0bde","ios":"levelo://app?vid=43f3ccf0-f0b3-490b-9870-5b71dc6d0bde"},"vehicle_type_id":"4","last_reported":1734271679,"current_range_meters":38000,"station_id":"ce4bhq12rcd13ifvqhig","pricing_plan_id":"cebpf4jnsgd1na2vs0mg"},{"bike_id":"ce8ecf1c-78d5-4ae5-869b-e9cc23564bda","system_id":"levelo_inurba_marseille","lat":43.32367,"lon":5.38888,"is_reserved":false,"is_disabled":false,"rental_uris":{"android":"levelo://app?vid=ce8ecf1c-78d5-4ae5-869b-e9cc23564bda","ios":"levelo://app?vid=ce8ecf1c-78d5-4ae5-869b-e9cc23564bda"},"vehicle_type_id":"4","last_reported":1734271679,"current_range_meters":38400,"station_id":"ce4bhqp2rcd13ifvqhog","pricing_plan_id":"cebpf4jnsgd1na2vs0mg"},{"bike_id":"266f7fca-62d8-462d-83ba-67663ab9bbef","system_id":"levelo_inurba_marseille","lat":43.25119,"lon":5.40339,"is_reserved":false,"is_disabled":false,"rental_uris":{"android":"levelo://app?vid=266f7fca-62d8-462d-83ba-67663ab9bbef","ios":"levelo://app?vid=266f7fca-62d8-462d-83ba-67663ab9bbef"},"vehicle_type_id":"4","last_reported":1734271679,"current_range_meters":35600,"station_id":"ce4bhlh2rcd13ifvqgig","pricing_plan_id":"cebpf4jnsgd1na2vs0mg"},{"bike_id":"2add9805-6fe1-496b-95ec-c3450a7c4a57","system_id":"levelo_inurba_marseille","lat":43.30047,"lon":5.37429,"is_reserved":false,"is_disabled":true,"rental_uris":{"android":"levelo://app?vid=2add9805-6fe1-496b-95ec-c3450a7c4a57","ios":"levelo://app?vid=2add9805-6fe1-496b-95ec-c3450a7c4a57"},"vehicle_type_id":"4","last_reported":1734271679,"current_range_meters":0,"station_id":"","pricing_plan_id":"cebpf4jnsgd1na2vs0mg"},{"bike_id":"463de2c6-a372-4926-abb0-0c0a1c8b8662","system_id":"levelo_inurba_marseille","lat":43.28263,"lon":5.35077,"is_reserved":false,"is_disabled":false,"rental_uris":{"android":"levelo://app?vid=463de2c6-a372-4926-abb0-0c0a1c8b8662","ios":"levelo://app?vid=463de2c6-a372-4926-abb0-0c0a1c8b8662"},"vehicle_type_id":"4","last_reported":1734271679,"current_range_meters":35200,"station_id":"ce4bhbp2rcd13ifvqerg","pricing_plan_id":"cebpf4jnsgd1na2vs0mg"},{"bike_id":"57c15e22-00e1-4272-a435-63f16a8351e6","system_id":"levelo_inurba_marseille","lat":43.33022,"lon":5.39047,"is_reserved":false,"is_disabled":false,"rental_uris":{"android":"levelo://app?vid=57c15e22-00e1-4272-a435-63f16a8351e6","ios":"levelo://app?vid=57c15e22-00e1-4272-a435-63f16a8351e6"},"vehicle_type_id":"4","last_reported":1734271679,"current_range_meters":28400,"station_id":"ce4bhr92rcd13ifvqhrg","pricing_plan_id":"cebpf4jnsgd1na2vs0mg"},{"bike_id":"e6daa3b0-d355-4eb9-8e91-304a7094997b","system_id":"levelo_inurba_marseille","lat":43.29896,"lon":5.43668,"is_reserved":false,"is_disabled":false,"rental_uris":{"android":"levelo://app?vid=e6daa3b0-d355-4eb9-8e91-304a7094997b","ios":"levelo://app?vid=e6daa3b0-d355-4eb9-8e91-304a7094997b"},"vehicle_type_id":"4","last_reported":1734271679,"current_range_meters":14400,"station_id":"ce4bhpp2rcd13ifvqhfg","pricing_plan_id":"cebpf4jnsgd1na2vs0mg"},{"bike_id":"3a2bca48-ab31-4622-9a2f-8e025bdb8919","system_id":"levelo_inurba_marseille","lat":43.29531,"lon":5.37503,"is_reserved":false,"is_disabled":false,"rental_uris":{"android":"levelo://app?vid=3a2bca48-ab31-4622-9a2f-8e025bdb8919","ios":"levelo://app?vid=3a2bca48-ab31-4622-9a2f-8e025bdb8919"},"vehicle_type_id":"4","last_reported":1734271679,"current_range_meters":38800,"station_id":"ce4bgkp2rcd13ifvqbmg","pricing_plan_id":"cebpf4jnsgd1na2vs0mg"},{"bike_id":"2e45e779-d778-4c04-a092-c33bb230c07d","system_id":"levelo_inurba_marseille","lat":43.25109,"lon":5.40327,"is_reserved":false,"is_disabled":false,"rental_uris":{"android":"levelo://app?vid=2e45e779-d778-4c04-a092-c33bb230c07d","ios":"levelo://app?vid=2e45e779-d778-4c04-a092-c33bb230c07d"},"vehicle_type_id":"4","last_reported":1734271679,"current_range_meters":36800,"station_id":"ce4bhlh2rcd13ifvqgig","pricing_plan_id":"cebpf4jnsgd1na2vs0mg"},{"bike_id":"fc7ad732-af0f-474d-a239-2cbe71f71ca9","system_id":"levelo_inurba_marseille","lat":43.29231,"lon":5.36069,"is_reserved":false,"is_disabled":true,"rental_uris":{"android":"levelo://app?vid=fc7ad732-af0f-474d-a239-2cbe71f71ca9","ios":"levelo://app?vid=fc7ad732-af0f-474d-a239-2cbe71f71ca9"},"vehicle_type_id":"4","last_reported":1734271679,"current_range_meters":1200,"station_id":"ce4bhbh2rcd13ifvqeqg","pricing_plan_id":"cebpf4jnsgd1na2vs0mg"},{"bike_id":"00288807-d36b-4d65-99e1-1f12f5155d07","system_id":"levelo_inurba_marseille","lat":43.28471,"lon":5.38418,"is_reserved":false,"is_disabled":false,"rental_uris":{"android":"levelo://app?vid=00288807-d36b-4d65-99e1-1f12f5155d07","ios":"levelo://app?vid=00288807-d36b-4d65-99e1-1f12f5155d07"},"vehicle_type_id":"4","last_reported":1734271679,"current_range_meters":38800,"station_id":"ce4bh512rcd13ifvqe3g","pricing_plan_id":"cebpf4jnsgd1na2vs0mg"},{"bike_id":"884cd0c4-31c3-4d0a-8ee6-7fc84f28964e","system_id":"levelo_inurba_marseille","lat":43.28266,"lon":5.35061,"is_reserved":false,"is_disabled":false,"rental_uris":{"android":"levelo://app?vid=884cd0c4-31c3-4d0a-8ee6-7fc84f28964e","ios":"levelo://app?vid=884cd0c4-31c3-4d0a-8ee6-7fc84f28964e"},"vehicle_type_id":"4","last_reported":1734271679,"current_range_meters":27200,"station_id":"ce4bhbp2rcd13ifvqerg","pricing_plan_id":"cebpf4jnsgd1na2vs0mg"},{"bike_id":"63eaffe0-9361-4ff6-ab19-8007100ee7ae","system_id":"levelo_inurba_marseille","lat":43.24191,"lon":5.3972,"is_reserved":false,"is_disabled":false,"rental_uris":{"android":"levelo://app?vid=63eaffe0-9361-4ff6-ab19-8007100ee7ae","ios":"levelo://app?vid=63eaffe0-9361-4ff6-ab19-8007100ee7ae"},"vehicle_type_id":"4","last_reported":1734271679,"current_range_meters":36800,"station_id":"ce4bhn12rcd13ifvqgpg","pricing_plan_id":"cebpf4jnsgd1na2vs0mg"},{"bike_id":"72bdc4f6-9d1d-42c9-ac9e-f6bf19c7da8a","system_id":"levelo_inurba_marseille","lat":43.24082,"lon":5.37752,"is_reserved":false,"is_disabled":false,"rental_uris":{"android":"levelo://app?vid=72bdc4f6-9d1d-42c9-ac9e-f6bf19c7da8a","ios":"levelo://app?vid=72bdc4f6-9d1d-42c9-ac9e-f6bf19c7da8a"},"vehicle_type_id":"4","last_reported":1734271679,"current_range_meters":36800,"station_id":"ce4bhnp2rcd13ifvqgvg","pricing_plan_id":"cebpf4jnsgd1na2vs0mg"},{"bike_id":"42a9fc7b-2157-484b-af45-9c4cfe567a80","system_id":"levelo_inurba_marseille","lat":43.25575,"lon":5.38247,"is_reserved":false,"is_disabled":false,"rental_uris":{"android":"levelo://app?vid=42a9fc7b-2157-484b-af45-9c4cfe567a80","ios":"levelo://app?vid=42a9fc7b-2157-484b-af45-9c4cfe567a80"},"vehicle_type_id":"4","last_reported":1734271679,"current_range_meters":38800,"station_id":"ce4bhih2rcd13ifvqfs0","pricing_plan_id":"cebpf4jnsgd1na2vs0mg"},{"bike_id":"77adf69f-e0bf-4efa-aeea-a23aa0a36a60","system_id":"levelo_inurba_marseille","lat":43.28986,"lon":5.37826,"is_reserved":false,"is_disabled":false,"rental_uris":{"android":"levelo://app?vid=77adf69f-e0bf-4efa-aeea-a23aa0a36a60","ios":"levelo://app?vid=77adf69f-e0bf-4efa-aeea-a23aa0a36a60"},"vehicle_type_id":"4","last_reported":1734271679,"current_range_meters":24000,"station_id":"ce4bh9p2rcd13ifvqed0","pricing_plan_id":"cebpf4jnsgd1na2vs0mg"},{"bike_id":"c200ae5a-1bfc-41c1-b6e0-48b629950315","system_id":"levelo_inurba_marseille","lat":43.255,"lon":5.37652,"is_reserved":false,"is_disabled":false,"rental_uris":{"android":"levelo://app?vid=c200ae5a-1bfc-41c1-b6e0-48b629950315","ios":"levelo://app?vid=c200ae5a-1bfc-41c1-b6e0-48b629950315"},"vehicle_type_id":"4","last_reported":1734271679,"current_range_meters":39200,"station_id":"ce4bhh12rcd13ifvqff0","pricing_plan_id":"cebpf4jnsgd1na2vs0mg"},{"bike_id":"af5005fc-d058-4152-a2f0-a599ec2fe143","system_id":"levelo_inurba_marseille","lat":43.32289,"lon":5.38278,"is_reserved":false,"is_disabled":false,"rental_uris":{"android":"levelo://app?vid=af5005fc-d058-4152-a2f0-a599ec2fe143","ios":"levelo://app?vid=af5005fc-d058-4152-a2f0-a599ec2fe143"},"vehicle_type_id":"4","last_reported":1734271679,"current_range_meters":38800,"station_id":"ce4bhr12rcd13ifvqhqg","pricing_plan_id":"cebpf4jnsgd1na2vs0mg"},{"bike_id":"3650d84c-d2fd-4728-abeb-b9accdfa7210","system_id":"levelo_inurba_marseille","lat":43.3024,"lon":5.4006,"is_reserved":false,"is_disabled":true,"rental_uris":{"android":"levelo://app?vid=3650d84c-d2fd-4728-abeb-b9accdfa7210","ios":"levelo://app?vid=3650d84c-d2fd-4728-abeb-b9accdfa7210"},"vehicle_type_id":"4","last_reported":1734271679,"current_range_meters":22000,"station_id":"ce4bgvh2rcd13ifvqcs0","pricing_plan_id":"cebpf4jnsgd1na2vs0mg"},{"bike_id":"bfd65704-e67e-4a70-8396-93d37f430a3e","system_id":"levelo_inurba_marseille","lat":43.30809,"lon":5.38159,"is_reserved":false,"is_disabled":true,"rental_uris":{"android":"levelo://app?vid=bfd65704-e67e-4a70-8396-93d37f430a3e","ios":"levelo://app?vid=bfd65704-e67e-4a70-8396-93d37f430a3e"},"vehicle_type_id":"4","last_reported":1734271679,"current_range_meters":0,"station_id":"ce4bgt12rcd13ifvqce0","pricing_plan_id":"cebpf4jnsgd1na2vs0mg"},{"bike_id":"b78abdd0-5f07-43ee-acb2-0dd6a958058f","system_id":"levelo_inurba_marseille","lat":43.29944,"lon":5.37146,"is_reserved":false,"is_disabled":false,"rental_uris":{"android":"levelo://app?vid=b78abdd0-5f07-43ee-acb2-0dd6a958058f","ios":"levelo://app?vid=b78abdd0-5f07-43ee-acb2-0dd6a958058f"},"vehicle_type_id":"4","last_reported":1734271679,"current_range_meters":38800,"station_id":"ce4bgr92rcd13ifvqc7g","pricing_plan_id":"cebpf4jnsgd1na2vs0mg"},{"bike_id":"fd3cd50f-6bf4-41ac-821b-d14c90f4be7b","system_id":"levelo_inurba_marseille","lat":43.25115,"lon":5.40363,"is_reserved":false,"is_disabled":false,"rental_uris":{"android":"levelo://app?vid=fd3cd50f-6bf4-41ac-821b-d14c90f4be7b","ios":"levelo://app?vid=fd3cd50f-6bf4-41ac-821b-d14c90f4be7b"},"vehicle_type_id":"4","last_reported":1734271679,"current_range_meters":38000,"station_id":"ce4bhlh2rcd13ifvqgig","pricing_plan_id":"cebpf4jnsgd1na2vs0mg"},{"bike_id":"f70382ee-4405-4408-8ab7-61c5f783674d","system_id":"levelo_inurba_marseille","lat":43.29605,"lon":5.38122,"is_reserved":false,"is_disabled":false,"rental_uris":{"android":"levelo://app?vid=f70382ee-4405-4408-8ab7-61c5f783674d","ios":"levelo://app?vid=f70382ee-4405-4408-8ab7-61c5f783674d"},"vehicle_type_id":"4","last_reported":1734271679,"current_range_meters":25200,"station_id":"ce4bgl12rcd13ifvqbo0","pricing_plan_id":"cebpf4jnsgd1na2vs0mg"},{"bike_id":"76805181-b86b-42c5-9eb1-0613fe81a89e","system_id":"levelo_inurba_marseille","lat":43.23195,"lon":5.35545,"is_reserved":false,"is_disabled":false,"rental_uris":{"android":"levelo://app?vid=76805181-b86b-42c5-9eb1-0613fe81a89e","ios":"levelo://app?vid=76805181-b86b-42c5-9eb1-0613fe81a89e"},"vehicle_type_id":"4","last_reported":1734271679,"current_range_meters":38800,"station_id":"ce4bhu92rcd13ifvqi70","pricing_plan_id":"cebpf4jnsgd1na2vs0mg"},{"bike_id":"9bf84596-16a1-4c5f-a66a-089d123a8630","system_id":"levelo_inurba_marseille","lat":43.28285,"lon":5.35077,"is_reserved":false,"is_disabled":false,"rental_uris":{"android":"levelo://app?vid=9bf84596-16a1-4c5f-a66a-089d123a8630","ios":"levelo://app?vid=9bf84596-16a1-4c5f-a66a-089d123a8630"},"vehicle_type_id":"4","last_reported":1734271679,"current_range_meters":39200,"station_id":"ce4bhbp2rcd13ifvqerg","pricing_plan_id":"cebpf4jnsgd1na2vs0mg"},{"bike_id":"6069fe6f-3d12-436c-ba1a-a6e9607abbd3","system_id":"levelo_inurba_marseille","lat":43.32542,"lon":5.41403,"is_reserved":false,"is_disabled":false,"rental_uris":{"android":"levelo://app?vid=6069fe6f-3d12-436c-ba1a-a6e9607abbd3","ios":"levelo://app?vid=6069fe6f-3d12-436c-ba1a-a6e9607abbd3"},"vehicle_type_id":"4","last_reported":1734271679,"current_range_meters":27600,"station_id":"ce4bhq12rcd13ifvqhhg","pricing_plan_id":"cebpf4jnsgd1na2vs0mg"},{"bike_id":"4d72d9bb-fe00-4be4-8f2a-52a2f5b7f0f1","system_id":"levelo_inurba_marseille","lat":43.28038,"lon":5.36947,"is_reserved":false,"is_disabled":false,"rental_uris":{"android":"levelo://app?vid=4d72d9bb-fe00-4be4-8f2a-52a2f5b7f0f1","ios":"levelo://app?vid=4d72d9bb-fe00-4be4-8f2a-52a2f5b7f0f1"},"vehicle_type_id":"4","last_reported":1734271679,"current_range_meters":38000,"station_id":"ce4bha12rcd13ifvqef0","pricing_plan_id":"cebpf4jnsgd1na2vs0mg"},{"bike_id":"6cb5f94f-eade-4b7c-b995-84c805be74f9","system_id":"levelo_inurba_marseille","lat":43.33779,"lon":5.37414,"is_reserved":false,"is_disabled":false,"rental_uris":{"android":"levelo://app?vid=6cb5f94f-eade-4b7c-b995-84c805be74f9","ios":"levelo://app?vid=6cb5f94f-eade-4b7c-b995-84c805be74f9"},"vehicle_type_id":"4","last_reported":1734271679,"current_range_meters":34800,"station_id":"","pricing_plan_id":"cebpf4jnsgd1na2vs0mg"},{"bike_id":"5cded315-570b-4c0b-b015-bac53bb71581","system_id":"levelo_inurba_marseille","lat":43.28537,"lon":5.38984,"is_reserved":false,"is_disabled":true,"rental_uris":{"android":"levelo://app?vid=5cded315-570b-4c0b-b015-bac53bb71581","ios":"levelo://app?vid=5cded315-570b-4c0b-b015-bac53bb71581"},"vehicle_type_id":"4","last_reported":1734271679,"current_range_meters":0,"station_id":"","pricing_plan_id":"cebpf4jnsgd1na2vs0mg"},{"bike_id":"b17f4cdc-2e8e-4a88-bad2-7a4132e4e77e","system_id":"levelo_inurba_marseille","lat":43.23963,"lon":5.36626,"is_reserved":false,"is_disabled":false,"rental_uris":{"android":"levelo://app?vid=b17f4cdc-2e8e-4a88-bad2-7a4132e4e77e","ios":"levelo://app?vid=b17f4cdc-2e8e-4a88-bad2-7a4132e4e77e"},"vehicle_type_id":"4","last_reported":1734271679,"current_range_meters":38800,"station_id":"ce4bhi12rcd13ifvqfp0","pricing_plan_id":"cebpf4jnsgd1na2vs0mg"},{"bike_id":"5698604e-aaa5-42b6-9f56-06778c2d2e5a","system_id":"levelo_inurba_marseille","lat":43.25116,"lon":5.40322,"is_reserved":false,"is_disabled":false,"rental_uris":{"android":"levelo://app?vid=5698604e-aaa5-42b6-9f56-06778c2d2e5a","ios":"levelo://app?vid=5698604e-aaa5-42b6-9f56-06778c2d2e5a"},"vehicle_type_id":"4","last_reported":1734271679,"current_range_meters":38800,"station_id":"ce4bhlh2rcd13ifvqgig","pricing_plan_id":"cebpf4jnsgd1na2vs0mg"},{"bike_id":"61059a51-39d7-4f0a-a098-bfd36e6d1bf2","system_id":"levelo_inurba_marseille","lat":43.31759,"lon":5.39017,"is_reserved":false,"is_disabled":false,"rental_uris":{"android":"levelo://app?vid=61059a51-39d7-4f0a-a098-bfd36e6d1bf2","ios":"levelo://app?vid=61059a51-39d7-4f0a-a098-bfd36e6d1bf2"},"vehicle_type_id":"4","last_reported":1734271679,"current_range_meters":38000,"station_id":"ce4bhqp2rcd13ifvqhng","pricing_plan_id":"cebpf4jnsgd1na2vs0mg"},{"bike_id":"a7330745-afce-4199-b514-14e9d1ac1107","system_id":"levelo_inurba_marseille","lat":43.2694,"lon":5.40258,"is_reserved":false,"is_disabled":false,"rental_uris":{"android":"levelo://app?vid=a7330745-afce-4199-b514-14e9d1ac1107","ios":"levelo://app?vid=a7330745-afce-4199-b514-14e9d1ac1107"},"vehicle_type_id":"4","last_reported":1734271679,"current_range_meters":13600,"station_id":"cjm6bp8fraef2m0cb0m0","pricing_plan_id":"cebpf4jnsgd1na2vs0mg"},{"bike_id":"62be7227-74b7-4792-b3e9-793f45ae0003","system_id":"levelo_inurba_marseille","lat":43.24529,"lon":5.39514,"is_reserved":false,"is_disabled":false,"rental_uris":{"android":"levelo://app?vid=62be7227-74b7-4792-b3e9-793f45ae0003","ios":"levelo://app?vid=62be7227-74b7-4792-b3e9-793f45ae0003"},"vehicle_type_id":"4","last_reported":1734271679,"current_range_meters":29600,"station_id":"ce4bhlp2rcd13ifvqgjg","pricing_plan_id":"cebpf4jnsgd1na2vs0mg"},{"bike_id":"4a0ac162-8ef0-476e-844b-35b992cda30c","system_id":"levelo_inurba_marseille","lat":43.298515,"lon":5.362758,"is_reserved":false,"is_disabled":false,"rental_uris":{"android":"levelo://app?vid=4a0ac162-8ef0-476e-844b-35b992cda30c","ios":"levelo://app?vid=4a0ac162-8ef0-476e-844b-35b992cda30c"},"vehicle_type_id":"4","last_reported":1734271679,"current_range_meters":38800,"station_id":"ce4bgpp2rcd13ifvqc3g","pricing_plan_id":"cebpf4jnsgd1na2vs0mg"},{"bike_id":"ca59d865-1951-4846-a717-a349b9e50e7c","system_id":"levelo_inurba_marseille","lat":43.27621,"lon":5.36045,"is_reserved":false,"is_disabled":true,"rental_uris":{"android":"levelo://app?vid=ca59d865-1951-4846-a717-a349b9e50e7c","ios":"levelo://app?vid=ca59d865-1951-4846-a717-a349b9e50e7c"},"vehicle_type_id":"4","last_reported":1734271679,"current_range_meters":31200,"station_id":"ce4bgj92rcd13ifvqbe0","pricing_plan_id":"cebpf4jnsgd1na2vs0mg"},{"bike_id":"5295c8df-2428-4c41-90b6-7595d6a56f38","system_id":"levelo_inurba_marseille","lat":43.27372,"lon":5.3627,"is_reserved":false,"is_disabled":true,"rental_uris":{"android":"levelo://app?vid=5295c8df-2428-4c41-90b6-7595d6a56f38","ios":"levelo://app?vid=5295c8df-2428-4c41-90b6-7595d6a56f38"},"vehicle_type_id":"4","last_reported":1734271679,"current_range_meters":0,"station_id":"ce4bhbh2rcd13ifvqeo0","pricing_plan_id":"cebpf4jnsgd1na2vs0mg"},{"bike_id":"639b4190-f89d-4271-a038-9a8b1b3547ff","system_id":"levelo_inurba_marseille","lat":43.29587,"lon":5.36734,"is_reserved":false,"is_disabled":false,"rental_uris":{"android":"levelo://app?vid=639b4190-f89d-4271-a038-9a8b1b3547ff","ios":"levelo://app?vid=639b4190-f89d-4271-a038-9a8b1b3547ff"},"vehicle_type_id":"4","last_reported":1734271679,"current_range_meters":6400,"station_id":"ce4bgph2rcd13ifvqc2g","pricing_plan_id":"cebpf4jnsgd1na2vs0mg"},{"bike_id":"283ec910-2b59-4ffd-bbff-9867d116f826","system_id":"levelo_inurba_marseille","lat":43.337444,"lon":5.374475,"is_reserved":false,"is_disabled":true,"rental_uris":{"android":"levelo://app?vid=283ec910-2b59-4ffd-bbff-9867d116f826","ios":"levelo://app?vid=283ec910-2b59-4ffd-bbff-9867d116f826"},"vehicle_type_id":"4","last_reported":1734271679,"current_range_meters":0,"station_id":"","pricing_plan_id":"cebpf4jnsgd1na2vs0mg"},{"bike_id":"44bb1ee1-6608-426b-ad9e-5efdc1a7eac0","system_id":"levelo_inurba_marseille","lat":43.33763,"lon":5.37443,"is_reserved":false,"is_disabled":false,"rental_uris":{"android":"levelo://app?vid=44bb1ee1-6608-426b-ad9e-5efdc1a7eac0","ios":"levelo://app?vid=44bb1ee1-6608-426b-ad9e-5efdc1a7eac0"},"vehicle_type_id":"4","last_reported":1734271679,"current_range_meters":20800,"station_id":"","pricing_plan_id":"cebpf4jnsgd1na2vs0mg"},{"bike_id":"65f70778-49bc-4ed7-817e-05d21e846b99","system_id":"levelo_inurba_marseille","lat":43.28417,"lon":5.34985,"is_reserved":false,"is_disabled":false,"rental_uris":{"android":"levelo://app?vid=65f70778-49bc-4ed7-817e-05d21e846b99","ios":"levelo://app?vid=65f70778-49bc-4ed7-817e-05d21e846b99"},"vehicle_type_id":"4","last_reported":1734271679,"current_range_meters":25200,"station_id":"ce4bhbh2rcd13ifvqepg","pricing_plan_id":"cebpf4jnsgd1na2vs0mg"},{"bike_id":"bbffd889-750b-4762-ae94-78458d50ea91","system_id":"levelo_inurba_marseille","lat":43.33728,"lon":5.39186,"is_reserved":false,"is_disabled":false,"rental_uris":{"android":"levelo://app?vid=bbffd889-750b-4762-ae94-78458d50ea91","ios":"levelo://app?vid=bbffd889-750b-4762-ae94-78458d50ea91"},"vehicle_type_id":"4","last_reported":1734271679,"current_range_meters":39200,"station_id":"ce4bhr92rcd13ifvqhsg","pricing_plan_id":"cebpf4jnsgd1na2vs0mg"},{"bike_id":"7a355704-9e2d-475c-b9fc-45a5d7a3f942","system_id":"levelo_inurba_marseille","lat":43.30543,"lon":5.36528,"is_reserved":false,"is_disabled":false,"rental_uris":{"android":"levelo://app?vid=7a355704-9e2d-475c-b9fc-45a5d7a3f942","ios":"levelo://app?vid=7a355704-9e2d-475c-b9fc-45a5d7a3f942"},"vehicle_type_id":"4","last_reported":1734271679,"current_range_meters":38800,"station_id":"ce4bgs12rcd13ifvqcag","pricing_plan_id":"cebpf4jnsgd1na2vs0mg"},{"bike_id":"6af93c5c-2369-4249-9874-540f27f0edd3","system_id":"levelo_inurba_marseille","lat":43.33721,"lon":5.39176,"is_reserved":false,"is_disabled":false,"rental_uris":{"android":"levelo://app?vid=6af93c5c-2369-4249-9874-540f27f0edd3","ios":"levelo://app?vid=6af93c5c-2369-4249-9874-540f27f0edd3"},"vehicle_type_id":"4","last_reported":1734271679,"current_range_meters":8800,"station_id":"ce4bhr92rcd13ifvqhsg","pricing_plan_id":"cebpf4jnsgd1na2vs0mg"},{"bike_id":"4e99bf0b-18b5-4848-80f1-0b0419a2900d","system_id":"levelo_inurba_marseille","lat":43.24177,"lon":5.39728,"is_reserved":false,"is_disabled":false,"rental_uris":{"android":"levelo://app?vid=4e99bf0b-18b5-4848-80f1-0b0419a2900d","ios":"levelo://app?vid=4e99bf0b-18b5-4848-80f1-0b0419a2900d"},"vehicle_type_id":"4","last_reported":1734271679,"current_range_meters":19600,"station_id":"ce4bhn12rcd13ifvqgpg","pricing_plan_id":"cebpf4jnsgd1na2vs0mg"},{"bike_id":"7a6fbafa-c405-41ec-babd-da89473cb281","system_id":"levelo_inurba_marseille","lat":43.27494,"lon":5.42456,"is_reserved":false,"is_disabled":false,"rental_uris":{"android":"levelo://app?vid=7a6fbafa-c405-41ec-babd-da89473cb281","ios":"levelo://app?vid=7a6fbafa-c405-41ec-babd-da89473cb281"},"vehicle_type_id":"4","last_reported":1734271679,"current_range_meters":39200,"station_id":"ce4bhn92rcd13ifvqgrg","pricing_plan_id":"cebpf4jnsgd1na2vs0mg"},{"bike_id":"6e6a004b-462d-4b03-aeaa-2611256f0d89","system_id":"levelo_inurba_marseille","lat":43.28123,"lon":5.38934,"is_reserved":false,"is_disabled":true,"rental_uris":{"android":"levelo://app?vid=6e6a004b-462d-4b03-aeaa-2611256f0d89","ios":"levelo://app?vid=6e6a004b-462d-4b03-aeaa-2611256f0d89"},"vehicle_type_id":"4","last_reported":1734271679,"current_range_meters":0,"station_id":"","pricing_plan_id":"cebpf4jnsgd1na2vs0mg"},{"bike_id":"0b6fff2d-4538-4a2f-85a5-c0e9ae5054d9","system_id":"levelo_inurba_marseille","lat":43.28932,"lon":5.36635,"is_reserved":false,"is_disabled":false,"rental_uris":{"android":"levelo://app?vid=0b6fff2d-4538-4a2f-85a5-c0e9ae5054d9","ios":"levelo://app?vid=0b6fff2d-4538-4a2f-85a5-c0e9ae5054d9"},"vehicle_type_id":"4","last_reported":1734271679,"current_range_meters":38400,"station_id":"ce4bhap2rcd13ifvqek0","pricing_plan_id":"cebpf4jnsgd1na2vs0mg"},{"bike_id":"1e367aab-110c-4f5b-b680-97cabad2367f","system_id":"levelo_inurba_marseille","lat":43.284,"lon":5.37521,"is_reserved":false,"is_disabled":false,"rental_uris":{"android":"levelo://app?vid=1e367aab-110c-4f5b-b680-97cabad2367f","ios":"levelo://app?vid=1e367aab-110c-4f5b-b680-97cabad2367f"},"vehicle_type_id":"4","last_reported":1734271679,"current_range_meters":22800,"station_id":"ce4bh412rcd13ifvqds0","pricing_plan_id":"cebpf4jnsgd1na2vs0mg"},{"bike_id":"0519d039-9ac8-41e5-b419-e73b4ede24f9","system_id":"levelo_inurba_marseille","lat":43.3372,"lon":5.39198,"is_reserved":false,"is_disabled":true,"rental_uris":{"android":"levelo://app?vid=0519d039-9ac8-41e5-b419-e73b4ede24f9","ios":"levelo://app?vid=0519d039-9ac8-41e5-b419-e73b4ede24f9"},"vehicle_type_id":"4","last_reported":1734271679,"current_range_meters":0,"station_id":"ce4bhr92rcd13ifvqhsg","pricing_plan_id":"cebpf4jnsgd1na2vs0mg"},{"bike_id":"8fa27199-c6ac-4024-96cf-b08f739ca067","system_id":"levelo_inurba_marseille","lat":43.26803,"lon":5.40278,"is_reserved":false,"is_disabled":false,"rental_uris":{"android":"levelo://app?vid=8fa27199-c6ac-4024-96cf-b08f739ca067","ios":"levelo://app?vid=8fa27199-c6ac-4024-96cf-b08f739ca067"},"vehicle_type_id":"4","last_reported":1734271679,"current_range_meters":38800,"station_id":"ce501612rcd8frsf0b60","pricing_plan_id":"cebpf4jnsgd1na2vs0mg"},{"bike_id":"7f72d27c-3063-4427-96c5-867ebf891e94","system_id":"levelo_inurba_marseille","lat":43.32338,"lon":5.40621,"is_reserved":false,"is_disabled":false,"rental_uris":{"android":"levelo://app?vid=7f72d27c-3063-4427-96c5-867ebf891e94","ios":"levelo://app?vid=7f72d27c-3063-4427-96c5-867ebf891e94"},"vehicle_type_id":"4","last_reported":1734271679,"current_range_meters":23200,"station_id":"ce4bhq92rcd13ifvqhjg","pricing_plan_id":"cebpf4jnsgd1na2vs0mg"},{"bike_id":"1f2f9a54-365c-4ad0-b397-d988fb7d7f86","system_id":"levelo_inurba_marseille","lat":43.24666,"lon":5.3817,"is_reserved":false,"is_disabled":false,"rental_uris":{"android":"levelo://app?vid=1f2f9a54-365c-4ad0-b397-d988fb7d7f86","ios":"levelo://app?vid=1f2f9a54-365c-4ad0-b397-d988fb7d7f86"},"vehicle_type_id":"4","last_reported":1734271679,"current_range_meters":18800,"station_id":"ce4bhih2rcd13ifvqfr0","pricing_plan_id":"cebpf4jnsgd1na2vs0mg"},{"bike_id":"4346c290-73bf-46b2-bf56-e7a627641c72","system_id":"levelo_inurba_marseille","lat":43.29519,"lon":5.39046,"is_reserved":false,"is_disabled":false,"rental_uris":{"android":"levelo://app?vid=4346c290-73bf-46b2-bf56-e7a627641c72","ios":"levelo://app?vid=4346c290-73bf-46b2-bf56-e7a627641c72"},"vehicle_type_id":"4","last_reported":1734271679,"current_range_meters":27200,"station_id":"ce4bh3p2rcd13ifvqdp0","pricing_plan_id":"cebpf4jnsgd1na2vs0mg"},{"bike_id":"07aaffff-6c5a-4390-a6e5-b91a437396ec","system_id":"levelo_inurba_marseille","lat":43.241663,"lon":5.363898,"is_reserved":false,"is_disabled":false,"rental_uris":{"android":"levelo://app?vid=07aaffff-6c5a-4390-a6e5-b91a437396ec","ios":"levelo://app?vid=07aaffff-6c5a-4390-a6e5-b91a437396ec"},"vehicle_type_id":"4","last_reported":1734271679,"current_range_meters":38400,"station_id":"cpo36qri1sfpv3e86is0","pricing_plan_id":"cebpf4jnsgd1na2vs0mg"},{"bike_id":"b1b540ca-acd2-4526-b318-dc755109f68f","system_id":"levelo_inurba_marseille","lat":43.24174,"lon":5.39736,"is_reserved":false,"is_disabled":false,"rental_uris":{"android":"levelo://app?vid=b1b540ca-acd2-4526-b318-dc755109f68f","ios":"levelo://app?vid=b1b540ca-acd2-4526-b318-dc755109f68f"},"vehicle_type_id":"4","last_reported":1734271679,"current_range_meters":25600,"station_id":"ce4bhn12rcd13ifvqgpg","pricing_plan_id":"cebpf4jnsgd1na2vs0mg"},{"bike_id":"4507da4b-8712-426b-9148-203f23611f91","system_id":"levelo_inurba_marseille","lat":43.30536,"lon":5.36552,"is_reserved":false,"is_disabled":false,"rental_uris":{"android":"levelo://app?vid=4507da4b-8712-426b-9148-203f23611f91","ios":"levelo://app?vid=4507da4b-8712-426b-9148-203f23611f91"},"vehicle_type_id":"4","last_reported":1734271679,"current_range_meters":36000,"station_id":"ce4bgs12rcd13ifvqcag","pricing_plan_id":"cebpf4jnsgd1na2vs0mg"},{"bike_id":"191861ab-d1bf-437c-9b29-c60057a7eda0","system_id":"levelo_inurba_marseille","lat":43.2511,"lon":5.40324,"is_reserved":false,"is_disabled":false,"rental_uris":{"android":"levelo://app?vid=191861ab-d1bf-437c-9b29-c60057a7eda0","ios":"levelo://app?vid=191861ab-d1bf-437c-9b29-c60057a7eda0"},"vehicle_type_id":"4","last_reported":1734271679,"current_range_meters":32400,"station_id":"ce4bhlh2rcd13ifvqgig","pricing_plan_id":"cebpf4jnsgd1na2vs0mg"},{"bike_id":"4f129f9d-2607-47e1-b910-61fea28be44c","system_id":"levelo_inurba_marseille","lat":43.25583,"lon":5.3823,"is_reserved":false,"is_disabled":false,"rental_uris":{"android":"levelo://app?vid=4f129f9d-2607-47e1-b910-61fea28be44c","ios":"levelo://app?vid=4f129f9d-2607-47e1-b910-61fea28be44c"},"vehicle_type_id":"4","last_reported":1734271679,"current_range_meters":24800,"station_id":"ce4bhih2rcd13ifvqfs0","pricing_plan_id":"cebpf4jnsgd1na2vs0mg"},{"bike_id":"a0a37e9d-818e-46d0-b6c8-325bc4b9a366","system_id":"levelo_inurba_marseille","lat":43.31365,"lon":5.38487,"is_reserved":false,"is_disabled":false,"rental_uris":{"android":"levelo://app?vid=a0a37e9d-818e-46d0-b6c8-325bc4b9a366","ios":"levelo://app?vid=a0a37e9d-818e-46d0-b6c8-325bc4b9a366"},"vehicle_type_id":"4","last_reported":1734271679,"current_range_meters":37600,"station_id":"ce4bgt92rcd13ifvqcf0","pricing_plan_id":"cebpf4jnsgd1na2vs0mg"},{"bike_id":"74cf5e46-18b1-4b7f-a920-8c0d142117d9","system_id":"levelo_inurba_marseille","lat":43.30145,"lon":5.37419,"is_reserved":false,"is_disabled":false,"rental_uris":{"android":"levelo://app?vid=74cf5e46-18b1-4b7f-a920-8c0d142117d9","ios":"levelo://app?vid=74cf5e46-18b1-4b7f-a920-8c0d142117d9"},"vehicle_type_id":"4","last_reported":1734271679,"current_range_meters":4800,"station_id":"ce4bgs92rcd13ifvqcc0","pricing_plan_id":"cebpf4jnsgd1na2vs0mg"},{"bike_id":"411710a6-cdca-4349-a81c-760f6f97c2dc","system_id":"levelo_inurba_marseille","lat":43.26196,"lon":5.37446,"is_reserved":false,"is_disabled":true,"rental_uris":{"android":"levelo://app?vid=411710a6-cdca-4349-a81c-760f6f97c2dc","ios":"levelo://app?vid=411710a6-cdca-4349-a81c-760f6f97c2dc"},"vehicle_type_id":"4","last_reported":1734271679,"current_range_meters":1200,"station_id":"ce4bhgp2rcd13ifvqfc0","pricing_plan_id":"cebpf4jnsgd1na2vs0mg"},{"bike_id":"dbebb16f-18df-4d7c-a90a-95eb83612863","system_id":"levelo_inurba_marseille","lat":43.31704,"lon":5.37755,"is_reserved":false,"is_disabled":false,"rental_uris":{"android":"levelo://app?vid=dbebb16f-18df-4d7c-a90a-95eb83612863","ios":"levelo://app?vid=dbebb16f-18df-4d7c-a90a-95eb83612863"},"vehicle_type_id":"4","last_reported":1734271679,"current_range_meters":38000,"station_id":"ce4bgth2rcd13ifvqch0","pricing_plan_id":"cebpf4jnsgd1na2vs0mg"},{"bike_id":"716f231e-c7d2-457c-a3e6-18cf8fb97c8e","system_id":"levelo_inurba_marseille","lat":43.28937,"lon":5.36635,"is_reserved":false,"is_disabled":false,"rental_uris":{"android":"levelo://app?vid=716f231e-c7d2-457c-a3e6-18cf8fb97c8e","ios":"levelo://app?vid=716f231e-c7d2-457c-a3e6-18cf8fb97c8e"},"vehicle_type_id":"4","last_reported":1734271679,"current_range_meters":38000,"station_id":"ce4bhap2rcd13ifvqek0","pricing_plan_id":"cebpf4jnsgd1na2vs0mg"},{"bike_id":"a0ea0680-6150-4b7b-a4a9-16a51637ff4e","system_id":"levelo_inurba_marseille","lat":43.28028,"lon":5.36944,"is_reserved":false,"is_disabled":false,"rental_uris":{"android":"levelo://app?vid=a0ea0680-6150-4b7b-a4a9-16a51637ff4e","ios":"levelo://app?vid=a0ea0680-6150-4b7b-a4a9-16a51637ff4e"},"vehicle_type_id":"4","last_reported":1734271679,"current_range_meters":38800,"station_id":"ce4bha12rcd13ifvqef0","pricing_plan_id":"cebpf4jnsgd1na2vs0mg"},{"bike_id":"2c66e731-c044-4057-ba99-38aa63e029be","system_id":"levelo_inurba_marseille","lat":43.27969,"lon":5.396,"is_reserved":false,"is_disabled":false,"rental_uris":{"android":"levelo://app?vid=2c66e731-c044-4057-ba99-38aa63e029be","ios":"levelo://app?vid=2c66e731-c044-4057-ba99-38aa63e029be"},"vehicle_type_id":"4","last_reported":1734271679,"current_range_meters":14400,"station_id":"","pricing_plan_id":"cebpf4jnsgd1na2vs0mg"},{"bike_id":"ee6bed7b-abb8-41ef-9e85-1ac0d33b07c6","system_id":"levelo_inurba_marseille","lat":43.30573,"lon":5.36532,"is_reserved":false,"is_disabled":true,"rental_uris":{"android":"levelo://app?vid=ee6bed7b-abb8-41ef-9e85-1ac0d33b07c6","ios":"levelo://app?vid=ee6bed7b-abb8-41ef-9e85-1ac0d33b07c6"},"vehicle_type_id":"4","last_reported":1734271679,"current_range_meters":1600,"station_id":"ce4bgs12rcd13ifvqcag","pricing_plan_id":"cebpf4jnsgd1na2vs0mg"},{"bike_id":"9ab8fbf6-8e5d-44de-8021-3a081306763a","system_id":"levelo_inurba_marseille","lat":43.29937,"lon":5.36542,"is_reserved":false,"is_disabled":false,"rental_uris":{"android":"levelo://app?vid=9ab8fbf6-8e5d-44de-8021-3a081306763a","ios":"levelo://app?vid=9ab8fbf6-8e5d-44de-8021-3a081306763a"},"vehicle_type_id":"4","last_reported":1734271679,"current_range_meters":18800,"station_id":"ce4bgm92rcd13ifvqbr0","pricing_plan_id":"cebpf4jnsgd1na2vs0mg"},{"bike_id":"8123ac4e-7193-443d-b1d2-f5886503c1d8","system_id":"levelo_inurba_marseille","lat":43.29898,"lon":5.43672,"is_reserved":false,"is_disabled":false,"rental_uris":{"android":"levelo://app?vid=8123ac4e-7193-443d-b1d2-f5886503c1d8","ios":"levelo://app?vid=8123ac4e-7193-443d-b1d2-f5886503c1d8"},"vehicle_type_id":"4","last_reported":1734271679,"current_range_meters":30400,"station_id":"ce4bhpp2rcd13ifvqhfg","pricing_plan_id":"cebpf4jnsgd1na2vs0mg"},{"bike_id":"ca3bf6a0-806c-4046-b219-bbea4c2ba646","system_id":"levelo_inurba_marseille","lat":43.232,"lon":5.3555,"is_reserved":false,"is_disabled":false,"rental_uris":{"android":"levelo://app?vid=ca3bf6a0-806c-4046-b219-bbea4c2ba646","ios":"levelo://app?vid=ca3bf6a0-806c-4046-b219-bbea4c2ba646"},"vehicle_type_id":"4","last_reported":1734271679,"current_range_meters":39200,"station_id":"ce4bhu92rcd13ifvqi70","pricing_plan_id":"cebpf4jnsgd1na2vs0mg"},