{"last_updated":1721509625,"ttl":30,"version":"2.2","data":{"bikes":[{"bike_id":"f20239d1-cd43-4a6a-858b-9d7f92f8b790","system_id":"levelo_inurba_marseille","lat":43.31341,"lon":5.367098,"is_reserved":false,"is_disabled":false,"rental_uris":{"android":"levelo://app?vid=f20239d1-cd43-4a6a-858b-9d7f92f8b790","ios":"levelo://app?vid=f20239d1-cd43-4a6a-858b-9d7f92f8b790"},"vehicle_type_id":"4","last_reported":1721509625,"current_range_meters":19200,"station_id":"ce4bgr92rcd13ifvqc6g","pricing_plan_id":"cebpf4jnsgd1na2vs0mg"},{"bike_id":"8eae9b24-2987-44e2-a145-a6213b6781fe","system_id":"levelo_inurba_marseille","lat":43.312239,"lon":5.368562,"is_reserved":false,"is_disabled":false,"rental_uris":{"android":"levelo://app?vid=8eae9b24-2987-44e2-a145-a6213b6781fe","ios":"levelo://app?vid=8eae9b24-2987-44e2-a145-a6213b6781fe"},"vehicle_type_id":"4","last_reported":1721509625,"current_range_meters":15600,"station_id":"ce4bgl92rcd13ifvqbq0","pricing_plan_id":"cebpf4jnsgd1na2vs0mg"},{"bike_id":"edc703c3-8682-43b0-9faa-f8390ba06701","system_id":"levelo_inurba_marseille","lat":43.312239,"lon":5.368562,"is_reserved":false,"is_disabled":false,"rental_uris":{"android":"levelo://app?vid=edc703c3-8682-43b0-9faa-f8390ba06701","ios":"levelo://app?vid=edc703c3-8682-43b0-9faa-f8390ba06701"},"vehicle_type_id":"4","last_reported":1721509625,"current_range_meters":0,"station_id":"ce4bgl92rcd13ifvqbq0","pricing_plan_id":"cebpf4jnsgd1na2vs0mg"},{"bike_id":"15c822db-ce59-4357-b756-618765c18773","system_id":"levelo_inurba_marseille","lat":43.31224,"lon":5.3687,"is_reserved":false,"is_disabled":false,"rental_uris":{"android":"levelo://app?vid=15c822db-ce59-4357-b756-618765c18773","ios":"levelo://app?vid=15c822db-ce59-4357-b756-618765c18773"},"vehicle_type_id":"4","last_reported":1721509625,"current_range_meters":26000,"station_id":"ce4bgl92rcd13ifvqbq0","pricing_plan_id":"cebpf4jnsgd1na2vs0mg"},{"bike_id":"5e4b8910-efc7-42ea-8f4c-8ea016f6bde2","system_id":"levelo_inurba_marseille","lat":43.309076,"lon":5.368465,"is_reserved":false,"is_disabled":false,"rental_uris":{"android":"levelo://app?vid=5e4b8910-efc7-42ea-8f4c-8ea016f6bde2","ios":"levelo://app?vid=5e4b8910-efc7-42ea-8f4c-8ea016f6bde2"},"vehicle_type_id":"4","last_reported":1721509625,"current_range_meters":6800,"station_id":"ce4bgn92rcd13ifvqbvg","pricing_plan_id":"cebpf4jnsgd1na2vs0mg"},{"bike_id":"e79914fa-5605-4be9-806f-6ce73368eaa7","system_id":"levelo_inurba_marseille","lat":43.309076,"lon":5.368465,"is_reserved":false,"is_disabled":false,"rental_uris":{"android":"levelo://app?vid=e79914fa-5605-4be9-806f-6ce73368eaa7","ios":"levelo://app?vid=e79914fa-5605-4be9-806f-6ce73368eaa7"},"vehicle_type_id":"4","last_reported":1721509625,"current_range_meters":3200,"station_id":"ce4bgn92rcd13ifvqbvg","pricing_plan_id":"cebpf4jnsgd1na2vs0mg"},{"bike_id":"545374ff-a9e7-4717-a92f-fb3575203ef0","system_id":"levelo_inurba_marseille","lat":43.314811,"lon":5.373104,"is_reserved":false,"is_disabled":false,"rental_uris":{"android":"levelo://app?vid=545374ff-a9e7-4717-a92f-fb3575203ef0","ios":"levelo://app?vid=545374ff-a9e7-4717-a92f-fb3575203ef0"},"vehicle_type_id":"4","last_reported":1721509625,"current_range_meters":0,"station_id":"ce4bgt12rcd13ifvqcd0","pricing_plan_id":"cebpf4jnsgd1na2vs0mg"},{"bike_id":"1d88392c-62ba-4126-b539-842260bddc8b","system_id":"levelo_inurba_marseille","lat":43.314811,"lon":5.373104,"is_reserved":false,"is_disabled":false,"rental_uris":{"android":"levelo://app?vid=1d88392c-62ba-4126-b539-842260bddc8b","ios":"levelo://app?vid=1d88392c-62ba-4126-b539-842260bddc8b"},"vehicle_type_id":"4","last_reported":1721509625,"current_range_meters":4000,"station_id":"ce4bgt12rcd13ifvqcd0","pricing_plan_id":"cebpf4jnsgd1na2vs0mg"},{"bike_id":"f7cfcbf0-111d-479b-81e5-b36493993836","system_id":"levelo_inurba_marseille","lat":43.309034,"lon":5.371783,"is_reserved":false,"is_disabled":false,"rental_uris":{"android":"levelo://app?vid=f7cfcbf0-111d-479b-81e5-b36493993836","ios":"levelo://app?vid=f7cfcbf0-111d-479b-81e5-b36493993836"},"vehicle_type_id":"4","last_reported":1721509625,"current_range_meters":14800,"station_id":"ce4bguh2rcd13ifvqckg","pricing_plan_id":"cebpf4jnsgd1na2vs0mg"},{"bike_id":"451bb653-5016-4328-bc8f-4f6c4684d544","system_id":"levelo_inurba_marseille","lat":43.308923,"lon":5.371857,"is_reserved":false,"is_disabled":false,"rental_uris":{"android":"levelo://app?vid=451bb653-5016-4328-bc8f-4f6c4684d544","ios":"levelo://app?vid=451bb653-5016-4328-bc8f-4f6c4684d544"},"vehicle_type_id":"4","last_reported":1721509625,"current_range_meters":0,"station_id":"ce4bguh2rcd13ifvqckg","pricing_plan_id":"cebpf4jnsgd1na2vs0mg"},{"bike_id":"0aca0436-70d0-4adb-8e59-e700bb6b3375","system_id":"levelo_inurba_marseille","lat":43.309039,"lon":5.371797,"is_reserved":false,"is_disabled":false,"rental_uris":{"android":"levelo://app?vid=0aca0436-70d0-4adb-8e59-e700bb6b3375","ios":"levelo://app?vid=0aca0436-70d0-4adb-8e59-e700bb6b3375"},"vehicle_type_id":"4","last_reported":1721509625,"current_range_meters":4800,"station_id":"ce4bguh2rcd13ifvqckg","pricing_plan_id":"cebpf4jnsgd1na2vs0mg"},{"bike_id":"f66c6f41-f7f5-4d59-9679-1513f802e1b2","system_id":"levelo_inurba_marseille","lat":43.309034,"lon":5.371783,"is_reserved":false,"is_disabled":false,"rental_uris":{"android":"levelo://app?vid=f66c6f41-f7f5-4d59-9679-1513f802e1b2","ios":"levelo://app?vid=f66c6f41-f7f5-4d59-9679-1513f802e1b2"},"vehicle_type_id":"4","last_reported":1721509625,"current_range_meters":25600,"station_id":"ce4bguh2rcd13ifvqckg","pricing_plan_id":"cebpf4jnsgd1na2vs0mg"},{"bike_id":"32bf86fb-39c7-4520-b12e-60e8f91c25e9","system_id":"levelo_inurba_marseille","lat":43.30643,"lon":5.36802,"is_reserved":false,"is_disabled":false,"rental_uris":{"android":"levelo://app?vid=32bf86fb-39c7-4520-b12e-60e8f91c25e9","ios":"levelo://app?vid=32bf86fb-39c7-4520-b12e-60e8f91c25e9"},"vehicle_type_id":"4","last_reported":1721509625,"current_range_meters":30000,"station_id":"","pricing_plan_id":"cebpf4jnsgd1na2vs0mg"},{"bike_id":"6909921e-49ac-4fce-aef7-df5f2bb3df1e","system_id":"levelo_inurba_marseille","lat":43.298433,"lon":5.362774,"is_reserved":false,"is_disabled":false,"rental_uris":{"android":"levelo://app?vid=6909921e-49ac-4fce-aef7-df5f2bb3df1e","ios":"levelo://app?vid=6909921e-49ac-4fce-aef7-df5f2bb3df1e"},"vehicle_type_id":"4","last_reported":1721509625,"current_range_meters":4400,"station_id":"ce4bgpp2rcd13ifvqc3g","pricing_plan_id":"cebpf4jnsgd1na2vs0mg"},{"bike_id":"e8ef35b9-cc80-44be-9fff-bb30f6cfc632","system_id":"levelo_inurba_marseille","lat":43.305706,"lon":5.365654,"is_reserved":false,"is_disabled":false,"rental_uris":{"android":"levelo://app?vid=e8ef35b9-cc80-44be-9fff-bb30f6cfc632","ios":"levelo://app?vid=e8ef35b9-cc80-44be-9fff-bb30f6cfc632"},"vehicle_type_id":"4","last_reported":1721509625,"current_range_meters":28400,"station_id":"ce4bgs12rcd13ifvqcag","pricing_plan_id":"cebpf4jnsgd1na2vs0mg"},{"bike_id":"e6597036-722e-450f-8d15-84cc69ec3825","system_id":"levelo_inurba_marseille","lat":43.305989,"lon":5.37225,"is_reserved":false,"is_disabled":false,"rental_uris":{"android":"levelo://app?vid=e6597036-722e-450f-8d15-84cc69ec3825","ios":"levelo://app?vid=e6597036-722e-450f-8d15-84cc69ec3825"},"vehicle_type_id":"4","last_reported":1721509625,"current_range_meters":30400,"station_id":"ce4bgqh2rcd13ifvqc4g","pricing_plan_id":"cebpf4jnsgd1na2vs0mg"},{"bike_id":"a5647cad-9a9f-406a-b4b3-7a7a47e15ff6","system_id":"levelo_inurba_marseille","lat":43.311125,"lon":5.377624,"is_reserved":false,"is_disabled":false,"rental_uris":{"android":"levelo://app?vid=a5647cad-9a9f-406a-b4b3-7a7a47e15ff6","ios":"levelo://app?vid=a5647cad-9a9f-406a-b4b3-7a7a47e15ff6"},"vehicle_type_id":"4","last_reported":1721509625,"current_range_meters":0,"station_id":"ce4bgt92rcd13ifvqcg0","pricing_plan_id":"cebpf4jnsgd1na2vs0mg"},{"bike_id":"1350128e-2459-4df0-9dbe-e4ae548cddb8","system_id":"levelo_inurba_marseille","lat":43.307945,"lon":5.376487,"is_reserved":false,"is_disabled":false,"rental_uris":{"android":"levelo://app?vid=1350128e-2459-4df0-9dbe-e4ae548cddb8","ios":"levelo://app?vid=1350128e-2459-4df0-9dbe-e4ae548cddb8"},"vehicle_type_id":"4","last_reported":1721509625,"current_range_meters":17200,"station_id":"ce4bgv92rcd13ifvqcq0","pricing_plan_id":"cebpf4jnsgd1na2vs0mg"},{"bike_id":"2648ebdd-026d-4c45-a4aa-dbc3d461fbf4","system_id":"levelo_inurba_marseille","lat":43.307945,"lon":5.376487,"is_reserved":false,"is_disabled":false,"rental_uris":{"android":"levelo://app?vid=2648ebdd-026d-4c45-a4aa-dbc3d461fbf4","ios":"levelo://app?vid=2648ebdd-026d-4c45-a4aa-dbc3d461fbf4"},"vehicle_type_id":"4","last_reported":1721509625,"current_range_meters":14400,"station_id":"ce4bgv92rcd13ifvqcq0","pricing_plan_id":"cebpf4jnsgd1na2vs0mg"},{"bike_id":"2dc476e9-1746-43ec-96a1-0b410f2dbcea","system_id":"levelo_inurba_marseille","lat":43.307945,"lon":5.376487,"is_reserved":false,"is_disabled":false,"rental_uris":{"android":"levelo://app?vid=2dc476e9-1746-43ec-96a1-0b410f2dbcea","ios":"levelo://app?vid=2dc476e9-1746-43ec-96a1-0b410f2dbcea"},"vehicle_type_id":"4","last_reported":1721509625,"current_range_meters":2400,"station_id":"ce4bgv92rcd13ifvqcq0","pricing_plan_id":"cebpf4jnsgd1na2vs0mg"},{"bike_id":"8b1cbc41-e62e-4a03-9404-dea779b8f9f3","system_id":"levelo_inurba_marseille","lat":43.307945,"lon":5.376487,"is_reserved":false,"is_disabled":false,"rental_uris":{"android":"levelo://app?vid=8b1cbc41-e62e-4a03-9404-dea779b8f9f3","ios":"levelo://app?vid=8b1cbc41-e62e-4a03-9404-dea779b8f9f3"},"vehicle_type_id":"4","last_reported":1721509625,"current_range_meters":25600,"station_id":"ce4bgv92rcd13ifvqcq0","pricing_plan_id":"cebpf4jnsgd1na2vs0mg"},{"bike_id":"cfea4236-612e-439f-b3d2-e6e0ad9317d1","system_id":"levelo_inurba_marseille","lat":43.307945,"lon":5.376487,"is_reserved":false,"is_disabled":false,"rental_uris":{"android":"levelo://app?vid=cfea4236-612e-439f-b3d2-e6e0ad9317d1","ios":"levelo://app?vid=cfea4236-612e-439f-b3d2-e6e0ad9317d1"},"vehicle_type_id":"4","last_reported":1721509625,"current_range_meters":18400,"station_id":"ce4bgv92rcd13ifvqcq0","pricing_plan_id":"cebpf4jnsgd1na2vs0mg"},{"bike_id":"e9033f08-602c-48c9-9d76-4f87ac1b23fe","system_id":"levelo_inurba_marseille","lat":43.307945,"lon":5.376487,"is_reserved":false,"is_disabled":false,"rental_uris":{"android":"levelo://app?vid=e9033f08-602c-48c9-9d76-4f87ac1b23fe","ios":"levelo://app?vid=e9033f08-602c-48c9-9d76-4f87ac1b23fe"},"vehicle_type_id":"4","last_reported":1721509625,"current_range_meters":10400,"station_id":"ce4bgv92rcd13ifvqcq0","pricing_plan_id":"cebpf4jnsgd1na2vs0mg"},{"bike_id":"9a431f80-fdac-4dba-80ea-97acbec0d604","system_id":"levelo_inurba_marseille","lat":43.31971,"lon":5.37433,"is_reserved":false,"is_disabled":false,"rental_uris":{"android":"levelo://app?vid=9a431f80-fdac-4dba-80ea-97acbec0d604","ios":"levelo://app?vid=9a431f80-fdac-4dba-80ea-97acbec0d604"},"vehicle_type_id":"4","last_reported":1721509625,"current_range_meters":2400,"station_id":"","pricing_plan_id":"cebpf4jnsgd1na2vs0mg"},{"bike_id":"b757b859-36f7-4897-833e-ad183dc61e0f","system_id":"levelo_inurba_marseille","lat":43.303046,"lon":5.368981,"is_reserved":false,"is_disabled":false,"rental_uris":{"android":"levelo://app?vid=b757b859-36f7-4897-833e-ad183dc61e0f","ios":"levelo://app?vid=b757b859-36f7-4897-833e-ad183dc61e0f"},"vehicle_type_id":"4","last_reported":1721509625,"current_range_meters":10400,"station_id":"ce4bgqh2rcd13ifvqc5g","pricing_plan_id":"cebpf4jnsgd1na2vs0mg"},{"bike_id":"2c1eedc3-678b-4039-8a1f-c03b17431646","system_id":"levelo_inurba_marseille","lat":43.301939,"lon":5.366286,"is_reserved":false,"is_disabled":false,"rental_uris":{"android":"levelo://app?vid=2c1eedc3-678b-4039-8a1f-c03b17431646","ios":"levelo://app?vid=2c1eedc3-678b-4039-8a1f-c03b17431646"},"vehicle_type_id":"4","last_reported":1721509625,"current_range_meters":11200,"station_id":"ce4bgrh2rcd13ifvqc8g","pricing_plan_id":"cebpf4jnsgd1na2vs0mg"},{"bike_id":"0ab56dda-b3bd-4aa8-81a2-fab0691516ae","system_id":"levelo_inurba_marseille","lat":43.301939,"lon":5.366286,"is_reserved":false,"is_disabled":false,"rental_uris":{"android":"levelo://app?vid=0ab56dda-b3bd-4aa8-81a2-fab0691516ae","ios":"levelo://app?vid=0ab56dda-b3bd-4aa8-81a2-fab0691516ae"},"vehicle_type_id":"4","last_reported":1721509625,"current_range_meters":0,"station_id":"ce4bgrh2rcd13ifvqc8g","pricing_plan_id":"cebpf4jnsgd1na2vs0mg"},{"bike_id":"faaa8cc6-2c61-480d-a716-0f8f9bde1421","system_id":"levelo_inurba_marseille","lat":43.308012,"lon":5.381511,"is_reserved":false,"is_disabled":false,"rental_uris":{"android":"levelo://app?vid=faaa8cc6-2c61-480d-a716-0f8f9bde1421","ios":"levelo://app?vid=faaa8cc6-2c61-480d-a716-0f8f9bde1421"},"vehicle_type_id":"4","last_reported":1721509625,"current_range_meters":10000,"station_id":"ce4bgt12rcd13ifvqce0","pricing_plan_id":"cebpf4jnsgd1na2vs0mg"},{"bike_id":"5caf36fa-952d-4c2d-93e3-ea6fe3c7de6c","system_id":"levelo_inurba_marseille","lat":43.30412,"lon":5.37779,"is_reserved":false,"is_disabled":false,"rental_uris":{"android":"levelo://app?vid=5caf36fa-952d-4c2d-93e3-ea6fe3c7de6c","ios":"levelo://app?vid=5caf36fa-952d-4c2d-93e3-ea6fe3c7de6c"},"vehicle_type_id":"4","last_reported":1721509625,"current_range_meters":16800,"station_id":"","pricing_plan_id":"cebpf4jnsgd1na2vs0mg"},{"bike_id":"26f26b91-2e7b-486d-8ff4-5a2aa0d1f71d","system_id":"levelo_inurba_marseille","lat":43.324771,"lon":5.36557,"is_reserved":false,"is_disabled":false,"rental_uris":{"android":"levelo://app?vid=26f26b91-2e7b-486d-8ff4-5a2aa0d1f71d","ios":"levelo://app?vid=26f26b91-2e7b-486d-8ff4-5a2aa0d1f71d"},"vehicle_type_id":"4","last_reported":1721509625,"current_range_meters":30000,"station_id":"ce4bhs12rcd13ifvqhvg","pricing_plan_id":"cebpf4jnsgd1na2vs0mg"},{"bike_id":"96190691-5c79-4f2a-af95-3f66f23d1b5b","system_id":"levelo_inurba_marseille","lat":43.324761,"lon":5.365838,"is_reserved":false,"is_disabled":false,"rental_uris":{"android":"levelo://app?vid=96190691-5c79-4f2a-af95-3f66f23d1b5b","ios":"levelo://app?vid=96190691-5c79-4f2a-af95-3f66f23d1b5b"},"vehicle_type_id":"4","last_reported":1721509625,"current_range_meters":0,"station_id":"ce4bhs12rcd13ifvqhvg","pricing_plan_id":"cebpf4jnsgd1na2vs0mg"},{"bike_id":"751b495a-ded5-440d-924d-2bf060460f69","system_id":"levelo_inurba_marseille","lat":43.324763,"lon":5.365748,"is_reserved":false,"is_disabled":false,"rental_uris":{"android":"levelo://app?vid=751b495a-ded5-440d-924d-2bf060460f69","ios":"levelo://app?vid=751b495a-ded5-440d-924d-2bf060460f69"},"vehicle_type_id":"4","last_reported":1721509625,"current_range_meters":16800,"station_id":"ce4bhs12rcd13ifvqhvg","pricing_plan_id":"cebpf4jnsgd1na2vs0mg"},{"bike_id":"b32653a6-eced-4061-82a4-11bf0d00e36c","system_id":"levelo_inurba_marseille","lat":43.32477,"lon":5.36565,"is_reserved":false,"is_disabled":false,"rental_uris":{"android":"levelo://app?vid=b32653a6-eced-4061-82a4-11bf0d00e36c","ios":"levelo://app?vid=b32653a6-eced-4061-82a4-11bf0d00e36c"},"vehicle_type_id":"4","last_reported":1721509625,"current_range_meters":6000,"station_id":"ce4bhs12rcd13ifvqhvg","pricing_plan_id":"cebpf4jnsgd1na2vs0mg"},{"bike_id":"2baca4ef-0d69-4564-91f0-6aa88a9ace5b","system_id":"levelo_inurba_marseille","lat":43.324845,"lon":5.365762,"is_reserved":false,"is_disabled":false,"rental_uris":{"android":"levelo://app?vid=2baca4ef-0d69-4564-91f0-6aa88a9ace5b","ios":"levelo://app?vid=2baca4ef-0d69-4564-91f0-6aa88a9ace5b"},"vehicle_type_id":"4","last_reported":1721509625,"current_range_meters":10400,"station_id":"ce4bhs12rcd13ifvqhvg","pricing_plan_id":"cebpf4jnsgd1na2vs0mg"},{"bike_id":"98f87b84-052f-4f4f-ae24-2a9aaa6f71dc","system_id":"levelo_inurba_marseille","lat":43.311722,"lon":5.387247,"is_reserved":false,"is_disabled":false,"rental_uris":{"android":"levelo://app?vid=98f87b84-052f-4f4f-ae24-2a9aaa6f71dc","ios":"levelo://app?vid=98f87b84-052f-4f4f-ae24-2a9aaa6f71dc"},"vehicle_type_id":"4","last_reported":1721509625,"current_range_meters":7200,"station_id":"ce4bgv12rcd13ifvqcp0","pricing_plan_id":"cebpf4jnsgd1na2vs0mg"},{"bike_id":"59db8d7f-30f7-4991-9cc5-5cefd798028c","system_id":"levelo_inurba_marseille","lat":43.31075,"lon":5.3835,"is_reserved":false,"is_disabled":false,"rental_uris":{"android":"levelo://app?vid=59db8d7f-30f7-4991-9cc5-5cefd798028c","ios":"levelo://app?vid=59db8d7f-30f7-4991-9cc5-5cefd798028c"},"vehicle_type_id":"4","last_reported":1721509625,"current_range_meters":12400,"station_id":"ce4bgv92rcd13ifvqcr0","pricing_plan_id":"cebpf4jnsgd1na2vs0mg"},{"bike_id":"e83fe11f-7208-4209-b04e-952ec3339e73","system_id":"levelo_inurba_marseille","lat":43.310804,"lon":5.38359,"is_reserved":false,"is_disabled":false,"rental_uris":{"android":"levelo://app?vid=e83fe11f-7208-4209-b04e-952ec3339e73","ios":"levelo://app?vid=e83fe11f-7208-4209-b04e-952ec3339e73"},"vehicle_type_id":"4","last_reported":1721509625,"current_range_meters":22000,"station_id":"ce4bgv92rcd13ifvqcr0","pricing_plan_id":"cebpf4jnsgd1na2vs0mg"},{"bike_id":"762f435b-b776-41e1-ab0f-bfd921798e78","system_id":"levelo_inurba_marseille","lat":43.31075,"lon":5.38358,"is_reserved":false,"is_disabled":false,"rental_uris":{"android":"levelo://app?vid=762f435b-b776-41e1-ab0f-bfd921798e78","ios":"levelo://app?vid=762f435b-b776-41e1-ab0f-bfd921798e78"},"vehicle_type_id":"4","last_reported":1721509625,"current_range_meters":12000,"station_id":"ce4bgv92rcd13ifvqcr0","pricing_plan_id":"cebpf4jnsgd1na2vs0mg"},{"bike_id":"47f7fe10-2d1a-4d22-bb52-aed9a8bfbdd8","system_id":"levelo_inurba_marseille","lat":43.313571,"lon":5.384829,"is_reserved":false,"is_disabled":false,"rental_uris":{"android":"levelo://app?vid=47f7fe10-2d1a-4d22-bb52-aed9a8bfbdd8","ios":"levelo://app?vid=47f7fe10-2d1a-4d22-bb52-aed9a8bfbdd8"},"vehicle_type_id":"4","last_reported":1721509625,"current_range_meters":6000,"station_id":"ce4bgt92rcd13ifvqcf0","pricing_plan_id":"cebpf4jnsgd1na2vs0mg"},{"bike_id":"639350f5-70e6-48f5-b44c-1bfab11aeb95","system_id":"levelo_inurba_marseille","lat":43.31364,"lon":5.38489,"is_reserved":false,"is_disabled":false,"rental_uris":{"android":"levelo://app?vid=639350f5-70e6-48f5-b44c-1bfab11aeb95","ios":"levelo://app?vid=639350f5-70e6-48f5-b44c-1bfab11aeb95"},"vehicle_type_id":"4","last_reported":1721509625,"current_range_meters":0,"station_id":"ce4bgt92rcd13ifvqcf0","pricing_plan_id":"cebpf4jnsgd1na2vs0mg"},{"bike_id":"abf05532-e93f-4fe0-9914-8e51691f197a","system_id":"levelo_inurba_marseille","lat":43.313571,"lon":5.384829,"is_reserved":false,"is_disabled":false,"rental_uris":{"android":"levelo://app?vid=abf05532-e93f-4fe0-9914-8e51691f197a","ios":"levelo://app?vid=abf05532-e93f-4fe0-9914-8e51691f197a"},"vehicle_type_id":"4","last_reported":1721509625,"current_range_meters":18800,"station_id":"ce4bgt92rcd13ifvqcf0","pricing_plan_id":"cebpf4jnsgd1na2vs0mg"},{"bike_id":"df35b2e9-d92f-470d-bfac-4a8cd0f2c083","system_id":"levelo_inurba_marseille","lat":43.313571,"lon":5.384829,"is_reserved":false,"is_disabled":false,"rental_uris":{"android":"levelo://app?vid=df35b2e9-d92f-470d-bfac-4a8cd0f2c083","ios":"levelo://app?vid=df35b2e9-d92f-470d-bfac-4a8cd0f2c083"},"vehicle_type_id":"4","last_reported":1721509625,"current_range_meters":5200,"station_id":"ce4bgt92rcd13ifvqcf0","pricing_plan_id":"cebpf4jnsgd1na2vs0mg"},{"bike_id":"016b2c0c-79ed-494a-9332-326140c7ea0f","system_id":"levelo_inurba_marseille","lat":43.313571,"lon":5.384829,"is_reserved":false,"is_disabled":false,"rental_uris":{"android":"levelo://app?vid=016b2c0c-79ed-494a-9332-326140c7ea0f","ios":"levelo://app?vid=016b2c0c-79ed-494a-9332-326140c7ea0f"},"vehicle_type_id":"4","last_reported":1721509625,"current_range_meters":28800,"station_id":"ce4bgt92rcd13ifvqcf0","pricing_plan_id":"cebpf4jnsgd1na2vs0mg"},{"bike_id":"60382999-651e-40a8-822a-e9cfcd0ac3a9","system_id":"levelo_inurba_marseille","lat":43.313571,"lon":5.384829,"is_reserved":false,"is_disabled":false,"rental_uris":{"android":"levelo://app?vid=60382999-651e-40a8-822a-e9cfcd0ac3a9","ios":"levelo://app?vid=60382999-651e-40a8-822a-e9cfcd0ac3a9"},"vehicle_type_id":"4","last_reported":1721509625,"current_range_meters":0,"station_id":"ce4bgt92rcd13ifvqcf0","pricing_plan_id":"cebpf4jnsgd1na2vs0mg"},{"bike_id":"f3776b3f-7690-47be-bea8-2784f9ce88e5","system_id":"levelo_inurba_marseille","lat":43.299724,"lon":5.371829,"is_reserved":false,"is_disabled":false,"rental_uris":{"android":"levelo://app?vid=f3776b3f-7690-47be-bea8-2784f9ce88e5","ios":"levelo://app?vid=f3776b3f-7690-47be-bea8-2784f9ce88e5"},"vehicle_type_id":"4","last_reported":1721509625,"current_range_meters":7200,"station_id":"ce4bgr92rcd13ifvqc7g","pricing_plan_id":"cebpf4jnsgd1na2vs0mg"},{"bike_id":"f0990082-e150-41f0-ae46-26fbec36064a","system_id":"levelo_inurba_marseille","lat":43.299222,"lon":5.365554,"is_reserved":false,"is_disabled":false,"rental_uris":{"android":"levelo://app?vid=f0990082-e150-41f0-ae46-26fbec36064a","ios":"levelo://app?vid=f0990082-e150-41f0-ae46-26fbec36064a"},"vehicle_type_id":"4","last_reported":1721509625,"current_range_meters":6800,"station_id":"ce4bgm92rcd13ifvqbr0","pricing_plan_id":"cebpf4jnsgd1na2vs0mg"},{"bike_id":"1894e475-d1cf-4a89-8452-8830f45c3373","system_id":"levelo_inurba_marseille","lat":43.299724,"lon":5.371829,"is_reserved":false,"is_disabled":false,"rental_uris":{"android":"levelo://app?vid=1894e475-d1cf-4a89-8452-8830f45c3373","ios":"levelo://app?vid=1894e475-d1cf-4a89-8452-8830f45c3373"},"vehicle_type_id":"4","last_reported":1721509625,"current_range_meters":4400,"station_id":"ce4bgr92rcd13ifvqc7g","pricing_plan_id":"cebpf4jnsgd1na2vs0mg"},{"bike_id":"a32bf663-2888-47e5-b5df-a116d528c279","system_id":"levelo_inurba_marseille","lat":43.311722,"lon":5.387247,"is_reserved":false,"is_disabled":false,"rental_uris":{"android":"levelo://app?vid=a32bf663-2888-47e5-b5df-a116d528c279","ios":"levelo://app?vid=a32bf663-2888-47e5-b5df-a116d528c279"},"vehicle_type_id":"4","last_reported":1721509625,"current_range_meters":25600,"station_id":"ce4bgv12rcd13ifvqcp0","pricing_plan_id":"cebpf4jnsgd1na2vs0mg"},{"bike_id":"ffcb037a-b942-45aa-b816-e4ea73db0463","system_id":"levelo_inurba_marseille","lat":43.298433,"lon":5.362774,"is_reserved":false,"is_disabled":false,"rental_uris":{"android":"levelo://app?vid=ffcb037a-b942-45aa-b816-e4ea73db0463","ios":"levelo://app?vid=ffcb037a-b942-45aa-b816-e4ea73db0463"},"vehicle_type_id":"4","last_reported":1721509625,"current_range_meters":0,"station_id":"ce4bgpp2rcd13ifvqc3g","pricing_plan_id":"cebpf4jnsgd1na2vs0mg"},{"bike_id":"3d135db7-ab84-40aa-b54b-5d7462eca15b","system_id":"levelo_inurba_marseille","lat":43.298433,"lon":5.362774,"is_reserved":false,"is_disabled":false,"rental_uris":{"android":"levelo://app?vid=3d135db7-ab84-40aa-b54b-5d7462eca15b","ios":"levelo://app?vid=3d135db7-ab84-40aa-b54b-5d7462eca15b"},"vehicle_type_id":"4","last_reported":1721509625,"current_range_meters":1600,"station_id":"ce4bgpp2rcd13ifvqc3g","pricing_plan_id":"cebpf4jnsgd1na2vs0mg"},{"bike_id":"88ce3003-5557-48e8-9134-bdb66c8ed1fe","system_id":"levelo_inurba_marseille","lat":43.311722,"lon":5.387247,"is_reserved":false,"is_disabled":false,"rental_uris":{"android":"levelo://app?vid=88ce3003-5557-48e8-9134-bdb66c8ed1fe","ios":"levelo://app?vid=88ce3003-5557-48e8-9134-bdb66c8ed1fe"},"vehicle_type_id":"4","last_reported":1721509625,"current_range_meters":1200,"station_id":"ce4bgv12rcd13ifvqcp0","pricing_plan_id":"cebpf4jnsgd1na2vs0mg"},{"bike_id":"004c3503-2a48-47c7-9aba-6102f985c588","system_id":"levelo_inurba_marseille","lat":43.292642,"lon":5.384254,"is_reserved":false,"is_disabled":false,"rental_uris":{"android":"levelo://app?vid=004c3503-2a48-47c7-9aba-6102f985c588","ios":"levelo://app?vid=004c3503-2a48-47c7-9aba-6102f985c588"},"vehicle_type_id":"4","last_reported":1721509625,"current_range_meters":0,"station_id":"ce4bh692rcd13ifvqea0","pricing_plan_id":"cebpf4jnsgd1na2vs0mg"},{"bike_id":"0ffe8fa2-a52a-4a82-a1b7-da56fc90b1dd","system_id":"levelo_inurba_marseille","lat":43.29797,"lon":5.36294,"is_reserved":false,"is_disabled":false,"rental_uris":{"android":"levelo://app?vid=0ffe8fa2-a52a-4a82-a1b7-da56fc90b1dd","ios":"levelo://app?vid=0ffe8fa2-a52a-4a82-a1b7-da56fc90b1dd"},"vehicle_type_id":"4","last_reported":1721509625,"current_range_meters":0,"station_id":"","pricing_plan_id":"cebpf4jnsgd1na2vs0mg"},{"bike_id":"0ba43d7c-2195-46fc-9d61-aa342603c047","system_id":"levelo_inurba_marseille","lat":43.297163,"lon":5.365866,"is_reserved":false,"is_disabled":false,"rental_uris":{"android":"levelo://app?vid=0ba43d7c-2195-46fc-9d61-aa342603c047","ios":"levelo://app?vid=0ba43d7c-2195-46fc-9d61-aa342603c047"},"vehicle_type_id":"4","last_reported":1721509625,"current_range_meters":3600,"station_id":"ce4bgn12rcd13ifvqbt0","pricing_plan_id":"cebpf4jnsgd1na2vs0mg"},{"bike_id":"de4a830d-aac8-4662-a8fe-2c7bc1ab3be6","system_id":"levelo_inurba_marseille","lat":43.297163,"lon":5.365866,"is_reserved":false,"is_disabled":false,"rental_uris":{"android":"levelo://app?vid=de4a830d-aac8-4662-a8fe-2c7bc1ab3be6","ios":"levelo://app?vid=de4a830d-aac8-4662-a8fe-2c7bc1ab3be6"},"vehicle_type_id":"4","last_reported":1721509625,"current_range_meters":21600,"station_id":"ce4bgn12rcd13ifvqbt0","pricing_plan_id":"cebpf4jnsgd1na2vs0mg"},{"bike_id":"8685c198-af2d-428e-9013-e4de515249d2","system_id":"levelo_inurba_marseille","lat":43.29704,"lon":5.36616,"is_reserved":false,"is_disabled":false,"rental_uris":{"android":"levelo://app?vid=8685c198-af2d-428e-9013-e4de515249d2","ios":"levelo://app?vid=8685c198-af2d-428e-9013-e4de515249d2"},"vehicle_type_id":"4","last_reported":1721509625,"current_range_meters":31200,"station_id":"ce4bgn12rcd13ifvqbt0","pricing_plan_id":"cebpf4jnsgd1na2vs0mg"},{"bike_id":"05bdae84-1067-465f-ae1f-1f8e13b8e143","system_id":"levelo_inurba_marseille","lat":43.32905,"lon":5.36705,"is_reserved":false,"is_disabled":false,"rental_uris":{"android":"levelo://app?vid=05bdae84-1067-465f-ae1f-1f8e13b8e143","ios":"levelo://app?vid=05bdae84-1067-465f-ae1f-1f8e13b8e143"},"vehicle_type_id":"4","last_reported":1721509625,"current_range_meters":2000,"station_id":"","pricing_plan_id":"cebpf4jnsgd1na2vs0mg"},{"bike_id":"c5f6c94c-6955-446d-ab18-66dde3a00ac3","system_id":"levelo_inurba_marseille","lat":43.29622,"lon":5.36249,"is_reserved":false,"is_disabled":false,"rental_uris":{"android":"levelo://app?vid=c5f6c94c-6955-446d-ab18-66dde3a00ac3","ios":"levelo://app?vid=c5f6c94c-6955-446d-ab18-66dde3a00ac3"},"vehicle_type_id":"4","last_reported":1721509625,"current_range_meters":27600,"station_id":"","pricing_plan_id":"cebpf4jnsgd1na2vs0mg"},{"bike_id":"d17142ce-bc0f-4a0f-9c27-98b10b8e49b1","system_id":"levelo_inurba_marseille","lat":43.29621,"lon":5.36247,"is_reserved":false,"is_disabled":false,"rental_uris":{"android":"levelo://app?vid=d17142ce-bc0f-4a0f-9c27-98b10b8e49b1","ios":"levelo://app?vid=d17142ce-bc0f-4a0f-9c27-98b10b8e49b1"},"vehicle_type_id":"4","last_reported":1721509625,"current_range_meters":1200,"station_id":"","pricing_plan_id":"cebpf4jnsgd1na2vs0mg"},{"bike_id":"3b7cf108-a554-4375-9e62-355eca028ea0","system_id":"levelo_inurba_marseille","lat":43.29573,"lon":5.367355,"is_reserved":false,"is_disabled":false,"rental_uris":{"android":"levelo://app?vid=3b7cf108-a554-4375-9e62-355eca028ea0","ios":"levelo://app?vid=3b7cf108-a554-4375-9e62-355eca028ea0"},"vehicle_type_id":"4","last_reported":1721509625,"current_range_meters":28400,"station_id":"ce4bgph2rcd13ifvqc2g","pricing_plan_id":"cebpf4jnsgd1na2vs0mg"},{"bike_id":"fe568ad2-43d4-425f-ad93-579aa97075d7","system_id":"levelo_inurba_marseille","lat":43.295783,"lon":5.367482,"is_reserved":false,"is_disabled":false,"rental_uris":{"android":"levelo://app?vid=fe568ad2-43d4-425f-ad93-579aa97075d7","ios":"levelo://app?vid=fe568ad2-43d4-425f-ad93-579aa97075d7"},"vehicle_type_id":"4","last_reported":1721509625,"current_range_meters":30400,"station_id":"ce4bgph2rcd13ifvqc2g","pricing_plan_id":"cebpf4jnsgd1na2vs0mg"},{"bike_id":"7cd29fef-075d-460c-a917-58923e849833","system_id":"levelo_inurba_marseille","lat":43.29913,"lon":5.38135,"is_reserved":false,"is_disabled":false,"rental_uris":{"android":"levelo://app?vid=7cd29fef-075d-460c-a917-58923e849833","ios":"levelo://app?vid=7cd29fef-075d-460c-a917-58923e849833"},"vehicle_type_id":"4","last_reported":1721509625,"current_range_meters":0,"station_id":"ce4bgj12rcd13ifvqbc0","pricing_plan_id":"cebpf4jnsgd1na2vs0mg"},{"bike_id":"e76ee844-607d-46b0-ae79-9133e249f079","system_id":"levelo_inurba_marseille","lat":43.30956,"lon":5.39018,"is_reserved":false,"is_disabled":false,"rental_uris":{"android":"levelo://app?vid=e76ee844-607d-46b0-ae79-9133e249f079","ios":"levelo://app?vid=e76ee844-607d-46b0-ae79-9133e249f079"},"vehicle_type_id":"4","last_reported":1721509625,"current_range_meters":22800,"station_id":"ce4bgup2rcd13ifvqco0","pricing_plan_id":"cebpf4jnsgd1na2vs0mg"},{"bike_id":"db4895ef-50b0-4d6c-ad52-9eee051a605b","system_id":"levelo_inurba_marseille","lat":43.30954,"lon":5.39019,"is_reserved":false,"is_disabled":false,"rental_uris":{"android":"levelo://app?vid=db4895ef-50b0-4d6c-ad52-9eee051a605b","ios":"levelo://app?vid=db4895ef-50b0-4d6c-ad52-9eee051a605b"},"vehicle_type_id":"4","last_reported":1721509625,"current_range_meters":30800,"station_id":"ce4bgup2rcd13ifvqco0","pricing_plan_id":"cebpf4jnsgd1na2vs0mg"},{"bike_id":"56ec5c69-8417-4f9c-b5a5-a00e7d74144c","system_id":"levelo_inurba_marseille","lat":43.296921,"lon":5.376579,"is_reserved":false,"is_disabled":false,"rental_uris":{"android":"levelo://app?vid=56ec5c69-8417-4f9c-b5a5-a00e7d74144c","ios":"levelo://app?vid=56ec5c69-8417-4f9c-b5a5-a00e7d74144c"},"vehicle_type_id":"4","last_reported":1721509625,"current_range_meters":14000,"station_id":"ce4bgkh2rcd13ifvqbl0","pricing_plan_id":"cebpf4jnsgd1na2vs0mg"},{"bike_id":"7ba3d2a2-d73d-4a44-9cb0-ac899e3df628","system_id":"levelo_inurba_marseille","lat":43.30943,"lon":5.39018,"is_reserved":false,"is_disabled":false,"rental_uris":{"android":"levelo://app?vid=7ba3d2a2-d73d-4a44-9cb0-ac899e3df628","ios":"levelo://app?vid=7ba3d2a2-d73d-4a44-9cb0-ac899e3df628"},"vehicle_type_id":"4","last_reported":1721509625,"current_range_meters":31200,"station_id":"ce4bgup2rcd13ifvqco0","pricing_plan_id":"cebpf4jnsgd1na2vs0mg"},{"bike_id":"091af877-a5ce-43de-960d-bba79d79a625","system_id":"levelo_inurba_marseille","lat":43.30961,"lon":5.39026,"is_reserved":false,"is_disabled":false,"rental_uris":{"android":"levelo://app?vid=091af877-a5ce-43de-960d-bba79d79a625","ios":"levelo://app?vid=091af877-a5ce-43de-960d-bba79d79a625"},"vehicle_type_id":"4","last_reported":1721509625,"current_range_meters":31200,"station_id":"ce4bgup2rcd13ifvqco0","pricing_plan_id":"cebpf4jnsgd1na2vs0mg"},{"bike_id":"f610f0ac-f89a-4358-bde1-8a8359331b18","system_id":"levelo_inurba_marseille","lat":43.30949,"lon":5.39025,"is_reserved":false,"is_disabled":false,"rental_uris":{"android":"levelo://app?vid=f610f0ac-f89a-4358-bde1-8a8359331b18","ios":"levelo://app?vid=f610f0ac-f89a-4358-bde1-8a8359331b18"},"vehicle_type_id":"4","last_reported":1721509625,"current_range_meters":4400,"station_id":"ce4bgup2rcd13ifvqco0","pricing_plan_id":"cebpf4jnsgd1na2vs0mg"},{"bike_id":"55229fe6-5c67-4283-8b86-be963dd46776","system_id":"levelo_inurba_marseille","lat":43.30954,"lon":5.39028,"is_reserved":false,"is_disabled":false,"rental_uris":{"android":"levelo://app?vid=55229fe6-5c67-4283-8b86-be963dd46776","ios":"levelo://app?vid=55229fe6-5c67-4283-8b86-be963dd46776"},"vehicle_type_id":"4","last_reported":1721509625,"current_range_meters":17600,"station_id":"ce4bgup2rcd13ifvqco0","pricing_plan_id":"cebpf4jnsgd1na2vs0mg"},{"bike_id":"32ea673f-5aad-45bc-a7fe-b60ddf8c9101","system_id":"levelo_inurba_marseille","lat":43.30952,"lon":5.39029,"is_reserved":false,"is_disabled":false,"rental_uris":{"android":"levelo://app?vid=32ea673f-5aad-45bc-a7fe-b60ddf8c9101","ios":"levelo://app?vid=32ea673f-5aad-45bc-a7fe-b60ddf8c9101"},"vehicle_type_id":"4","last_reported":1721509625,"current_range_meters":31200,"station_id":"ce4bgup2rcd13ifvqco0","pricing_plan_id":"cebpf4jnsgd1na2vs0mg"},{"bike_id":"64c83d4a-b449-4397-b3e7-b3b6831f5742","system_id":"levelo_inurba_marseille","lat":43.309589,"lon":5.390258,"is_reserved":false,"is_disabled":false,"rental_uris":{"android":"levelo://app?vid=64c83d4a-b449-4397-b3e7-b3b6831f5742","ios":"levelo://app?vid=64c83d4a-b449-4397-b3e7-b3b6831f5742"},"vehicle_type_id":"4","last_reported":1721509625,"current_range_meters":10400,"station_id":"ce4bgup2rcd13ifvqco0","pricing_plan_id":"cebpf4jnsgd1na2vs0mg"},{"bike_id":"dcb96913-0816-4124-bc77-5105e1cc772e","system_id":"levelo_inurba_marseille","lat":43.30951,"lon":5.39031,"is_reserved":false,"is_disabled":false,"rental_uris":{"android":"levelo://app?vid=dcb96913-0816-4124-bc77-5105e1cc772e","ios":"levelo://app?vid=dcb96913-0816-4124-bc77-5105e1cc772e"},"vehicle_type_id":"4","last_reported":1721509625,"current_range_meters":31200,"station_id":"ce4bgup2rcd13ifvqco0","pricing_plan_id":"cebpf4jnsgd1na2vs0mg"},{"bike_id":"e9c4027a-4743-4825-a93a-b7e8487edc14","system_id":"levelo_inurba_marseille","lat":43.309589,"lon":5.390258,"is_reserved":false,"is_disabled":false,"rental_uris":{"android":"levelo://app?vid=e9c4027a-4743-4825-a93a-b7e8487edc14","ios":"levelo://app?vid=e9c4027a-4743-4825-a93a-b7e8487edc14"},"vehicle_type_id":"4","last_reported":1721509625,"current_range_meters":14000,"station_id":"ce4bgup2rcd13ifvqco0","pricing_plan_id":"cebpf4jnsgd1na2vs0mg"},{"bike_id":"1f20121b-89b3-46b2-8e0a-8701127beeaf","system_id":"levelo_inurba_marseille","lat":43.30947,"lon":5.39032,"is_reserved":false,"is_disabled":false,"rental_uris":{"android":"levelo://app?vid=1f20121b-89b3-46b2-8e0a-8701127beeaf","ios":"levelo://app?vid=1f20121b-89b3-46b2-8e0a-8701127beeaf"},"vehicle_type_id":"4","last_reported":1721509625,"current_range_meters":31200,"station_id":"ce4bgup2rcd13ifvqco0","pricing_plan_id":"cebpf4jnsgd1na2vs0mg"},{"bike_id":"cf358a63-5b8c-4bba-8023-26a50d5db6ba","system_id":"levelo_inurba_marseille","lat":43.309589,"lon":5.390258,"is_reserved":false,"is_disabled":false,"rental_uris":{"android":"levelo://app?vid=cf358a63-5b8c-4bba-8023-26a50d5db6ba","ios":"levelo://app?vid=cf358a63-5b8c-4bba-8023-26a50d5db6ba"},"vehicle_type_id":"4","last_reported":1721509625,"current_range_meters":31200,"station_id":"ce4bgup2rcd13ifvqco0","pricing_plan_id":"cebpf4jnsgd1na2vs0mg"},{"bike_id":"06de800e-6c64-450b-9ac9-fe17a6e7e1e7","system_id":"levelo_inurba_marseille","lat":43.309589,"lon":5.390258,"is_reserved":false,"is_disabled":false,"rental_uris":{"android":"levelo://app?vid=06de800e-6c64-450b-9ac9-fe17a6e7e1e7","ios":"levelo://app?vid=06de800e-6c64-450b-9ac9-fe17a6e7e1e7"},"vehicle_type_id":"4","last_reported":1721509625,"current_range_meters":10800,"station_id":"ce4bgup2rcd13ifvqco0","pricing_plan_id":"cebpf4jnsgd1na2vs0mg"},{"bike_id":"724d32ec-4e8e-4b16-ad90-6513912d1d70","system_id":"levelo_inurba_marseille","lat":43.309589,"lon":5.390258,"is_reserved":false,"is_disabled":false,"rental_uris":{"android":"levelo://app?vid=724d32ec-4e8e-4b16-ad90-6513912d1d70","ios":"levelo://app?vid=724d32ec-4e8e-4b16-ad90-6513912d1d70"},"vehicle_type_id":"4","last_reported":1721509625,"current_range_meters":18400,"station_id":"ce4bgup2rcd13ifvqco0","pricing_plan_id":"cebpf4jnsgd1na2vs0mg"},{"bike_id":"58770c48-df64-4702-8df8-55b10ce92e56","system_id":"levelo_inurba_marseille","lat":43.309589,"lon":5.390258,"is_reserved":false,"is_disabled":false,"rental_uris":{"android":"levelo://app?vid=58770c48-df64-4702-8df8-55b10ce92e56","ios":"levelo://app?vid=58770c48-df64-4702-8df8-55b10ce92e56"},"vehicle_type_id":"4","last_reported":1721509625,"current_range_meters":31200,"station_id":"ce4bgup2rcd13ifvqco0","pricing_plan_id":"cebpf4jnsgd1na2vs0mg"},{"bike_id":"14b8da56-a0c8-450f-8e32-caa28ffae636","system_id":"levelo_inurba_marseille","lat":43.309589,"lon":5.390258,"is_reserved":false,"is_disabled":false,"rental_uris":{"android":"levelo://app?vid=14b8da56-a0c8-450f-8e32-caa28ffae636","ios":"levelo://app?vid=14b8da56-a0c8-450f-8e32-caa28ffae636"},"vehicle_type_id":"4","last_reported":1721509625,"current_range_meters":20400,"station_id":"ce4bgup2rcd13ifvqco0","pricing_plan_id":"cebpf4jnsgd1na2vs0mg"},{"bike_id":"9a37879f-e582-4cb9-84c6-4d9567440609","system_id":"levelo_inurba_marseille","lat":43.30951,"lon":5.39044,"is_reserved":false,"is_disabled":false,"rental_uris":{"android":"levelo://app?vid=9a37879f-e582-4cb9-84c6-4d9567440609","ios":"levelo://app?vid=9a37879f-e582-4cb9-84c6-4d9567440609"},"vehicle_type_id":"4","last_reported":1721509625,"current_range_meters":19600,"station_id":"ce4bgup2rcd13ifvqco0","pricing_plan_id":"cebpf4jnsgd1na2vs0mg"},{"bike_id":"f9add01e-b56b-4289-b17b-217415a0ab34","system_id":"levelo_inurba_marseille","lat":43.309589,"lon":5.390258,"is_reserved":false,"is_disabled":false,"rental_uris":{"android":"levelo://app?vid=f9add01e-b56b-4289-b17b-217415a0ab34","ios":"levelo://app?vid=f9add01e-b56b-4289-b17b-217415a0ab34"},"vehicle_type_id":"4","last_reported":1721509625,"current_range_meters":18800,"station_id":"ce4bgup2rcd13ifvqco0","pricing_plan_id":"cebpf4jnsgd1na2vs0mg"},{"bike_id":"543d704d-9a29-4658-89e4-69a888907317","system_id":"levelo_inurba_marseille","lat":43.309589,"lon":5.390258,"is_reserved":false,"is_disabled":false,"rental_uris":{"android":"levelo://app?vid=543d704d-9a29-4658-89e4-69a888907317","ios":"levelo://app?vid=543d704d-9a29-4658-89e4-69a888907317"},"vehicle_type_id":"4","last_reported":1721509625,"current_range_meters":11600,"station_id":"ce4bgup2rcd13ifvqco0","pricing_plan_id":"cebpf4jnsgd1na2vs0mg"},{"bike_id":"3da75c95-f3e9-48b0-a8cb-648aa9cc0b3b","system_id":"levelo_inurba_marseille","lat":43.309589,"lon":5.390258,"is_reserved":false,"is_disabled":false,"rental_uris":{"android":"levelo://app?vid=3da75c95-f3e9-48b0-a8cb-648aa9cc0b3b","ios":"levelo://app?vid=3da75c95-f3e9-48b0-a8cb-648aa9cc0b3b"},"vehicle_type_id":"4","last_reported":1721509625,"current_range_meters":6400,"station_id":"ce4bgup2rcd13ifvqco0","pricing_plan_id":"cebpf4jnsgd1na2vs0mg"},{"bike_id":"bdede3ea-ef07-41d2-a0ec-0fd52a3b9d0e","system_id":"levelo_inurba_marseille","lat":43.317557,"lon":5.390173,"is_reserved":false,"is_disabled":false,"rental_uris":{"android":"levelo://app?vid=bdede3ea-ef07-41d2-a0ec-0fd52a3b9d0e","ios":"levelo://app?vid=bdede3ea-ef07-41d2-a0ec-0fd52a3b9d0e"},"vehicle_type_id":"4","last_reported":1721509625,"current_range_meters":0,"station_id":"ce4bhqp2rcd13ifvqhng","pricing_plan_id":"cebpf4jnsgd1na2vs0mg"},{"bike_id":"183d913a-5725-4ad9-97f8-fa939119866d","system_id":"levelo_inurba_marseille","lat":43.317557,"lon":5.390173,"is_reserved":false,"is_disabled":false,"rental_uris":{"android":"levelo://app?vid=183d913a-5725-4ad9-97f8-fa939119866d","ios":"levelo://app?vid=183d913a-5725-4ad9-97f8-fa939119866d"},"vehicle_type_id":"4","last_reported":1721509625,"current_range_meters":13200,"station_id":"ce4bhqp2rcd13ifvqhng","pricing_plan_id":"cebpf4jnsgd1na2vs0mg"},{"bike_id":"b8fa19f3-b682-41cb-a662-56e43c97e7f0","system_id":"levelo_inurba_marseille","lat":43.317557,"lon":5.390173,"is_reserved":false,"is_disabled":false,"rental_uris":{"android":"levelo://app?vid=b8fa19f3-b682-41cb-a662-56e43c97e7f0","ios":"levelo://app?vid=b8fa19f3-b682-41cb-a662-56e43c97e7f0"},"vehicle_type_id":"4","last_reported":1721509625,"current_range_meters":6800,"station_id":"ce4bhqp2rcd13ifvqhng","pricing_plan_id":"cebpf4jnsgd1na2vs0mg"},{"bike_id":"f42f421b-da3b-4990-bf98-b5fc1f60892f","system_id":"levelo_inurba_marseille","lat":43.295748,"lon":5.37522,"is_reserved":false,"is_disabled":false,"rental_uris":{"android":"levelo://app?vid=f42f421b-da3b-4990-bf98-b5fc1f60892f","ios":"levelo://app?vid=f42f421b-da3b-4990-bf98-b5fc1f60892f"},"vehicle_type_id":"4","last_reported":1721509625,"current_range_meters":0,"station_id":"ce4bgh92rcd13ifvqb50","pricing_plan_id":"cebpf4jnsgd1na2vs0mg"},{"bike_id":"0518a42d-55d9-4c73-b0da-1cf043e031dd","system_id":"levelo_inurba_marseille","lat":43.304274,"lon":5.388873,"is_reserved":false,"is_disabled":false,"rental_uris":{"android":"levelo://app?vid=0518a42d-55d9-4c73-b0da-1cf043e031dd","ios":"levelo://app?vid=0518a42d-55d9-4c73-b0da-1cf043e031dd"},"vehicle_type_id":"4","last_reported":1721509625,"current_range_meters":0,"station_id":"ce4bgk12rcd13ifvqbi0","pricing_plan_id":"cebpf4jnsgd1na2vs0mg"},{"bike_id":"11442b28-266c-4416-a7a3-81af108e842e","system_id":"levelo_inurba_marseille","lat":43.295748,"lon":5.37522,"is_reserved":false,"is_disabled":false,"rental_uris":{"android":"levelo://app?vid=11442b28-266c-4416-a7a3-81af108e842e","ios":"levelo://app?vid=11442b28-266c-4416-a7a3-81af108e842e"},"vehicle_type_id":"4","last_reported":1721509625,"current_range_meters":16400,"station_id":"ce4bgh92rcd13ifvqb50","pricing_plan_id":"cebpf4jnsgd1na2vs0mg"},{"bike_id":"7d2113a6-5e2b-425b-b393-18d55f66de1b","system_id":"levelo_inurba_marseille","lat":43.309589,"lon":5.390258,"is_reserved":false,"is_disabled":false,"rental_uris":{"android":"levelo://app?vid=7d2113a6-5e2b-425b-b393-18d55f66de1b","ios":"levelo://app?vid=7d2113a6-5e2b-425b-b393-18d55f66de1b"},"vehicle_type_id":"4","last_reported":1721509625,"current_range_meters":18800,"station_id":"ce4bgup2rcd13ifvqco0","pricing_plan_id":"cebpf4jnsgd1na2vs0mg"},{"bike_id":"0df1629d-9981-40b1-ac14-cf51697a1945","system_id":"levelo_inurba_marseille","lat":43.299707,"lon":5.384859,"is_reserved":false,"is_disabled":false,"rental_uris":{"android":"levelo://app?vid=0df1629d-9981-40b1-ac14-cf51697a1945","ios":"levelo://app?vid=0df1629d-9981-40b1-ac14-cf51697a1945"},"vehicle_type_id":"4","last_reported":1721509625,"current_range_meters":18000,"station_id":"ce4bgj92rcd13ifvqbd0","pricing_plan_id":"cebpf4jnsgd1na2vs0mg"},{"bike_id":"d01cea74-85bb-452d-9b80-d16c2669d3a6","system_id":"levelo_inurba_marseille","lat":43.286595,"lon":5.386795,"is_reserved":false,"is_disabled":false,"rental_uris":{"android":"levelo://app?vid=d01cea74-85bb-452d-9b80-d16c2669d3a6","ios":"levelo://app?vid=d01cea74-85bb-452d-9b80-d16c2669d3a6"},"vehicle_type_id":"4","last_reported":1721509625,"current_range_meters":14000,"station_id":"ce4bh492rcd13ifvqdug","pricing_plan_id":"cebpf4jnsgd1na2vs0mg"},{"bike_id":"b9a8e30c-15d5-46fa-9a24-baaa2603d226","system_id":"levelo_inurba_marseille","lat":43.295279,"lon":5.375048,"is_reserved":false,"is_disabled":false,"rental_uris":{"android":"levelo://app?vid=b9a8e30c-15d5-46fa-9a24-baaa2603d226","ios":"levelo://app?vid=b9a8e30c-15d5-46fa-9a24-baaa2603d226"},"vehicle_type_id":"4","last_reported":1721509625,"current_range_meters":0,"station_id":"ce4bgkp2rcd13ifvqbmg","pricing_plan_id":"cebpf4jnsgd1na2vs0mg"},{"bike_id":"18491e9b-089a-423d-92a6-2224fb4ac1cb","system_id":"levelo_inurba_marseille","lat":43.30473,"lon":5.39011,"is_reserved":false,"is_disabled":false,"rental_uris":{"android":"levelo://app?vid=18491e9b-089a-423d-92a6-2224fb4ac1cb","ios":"levelo://app?vid=18491e9b-089a-423d-92a6-2224fb4ac1cb"},"vehicle_type_id":"4","last_reported":1721509625,"current_range_meters":2400,"station_id":"","pricing_plan_id":"cebpf4jnsgd1na2vs0mg"},{"bike_id":"b0e86925-2587-4289-9efb-325479c6f615","system_id":"levelo_inurba_marseille","lat":43.32367,"lon":5.388836,"is_reserved":false,"is_disabled":false,"rental_uris":{"android":"levelo://app?vid=b0e86925-2587-4289-9efb-325479c6f615","ios":"levelo://app?vid=b0e86925-2587-4289-9efb-325479c6f615"},"vehicle_type_id":"4","last_reported":1721509625,"current_range_meters":1600,"station_id":"ce4bhqp2rcd13ifvqhog","pricing_plan_id":"cebpf4jnsgd1na2vs0mg"},{"bike_id":"5b46c555-81a4-4d11-bec8-11588f937b4c","system_id":"levelo_inurba_marseille","lat":43.32367,"lon":5.388836,"is_reserved":false,"is_disabled":false,"rental_uris":{"android":"levelo://app?vid=5b46c555-81a4-4d11-bec8-11588f937b4c","ios":"levelo://app?vid=5b46c555-81a4-4d11-bec8-11588f937b4c"},"vehicle_type_id":"4","last_reported":1721509625,"current_range_meters":22000,"station_id":"ce4bhqp2rcd13ifvqhog","pricing_plan_id":"cebpf4jnsgd1na2vs0mg"},{"bike_id":"97a2763b-e4a7-4cd3-bedd-f90862bac823","system_id":"levelo_inurba_marseille","lat":43.29602,"lon":5.381084,"is_reserved":false,"is_disabled":false,"rental_uris":{"android":"levelo://app?vid=97a2763b-e4a7-4cd3-bedd-f90862bac823","ios":"levelo://app?vid=97a2763b-e4a7-4cd3-bedd-f90862bac823"},"vehicle_type_id":"4","last_reported":1721509625,"current_range_meters":12400,"station_id":"ce4bgl12rcd13ifvqbo0","pricing_plan_id":"cebpf4jnsgd1na2vs0mg"},{"bike_id":"a714632d-44c0-4d33-8aa9-55a02a942e0d","system_id":"levelo_inurba_marseille","lat":43.325375,"lon":5.38774,"is_reserved":false,"is_disabled":false,"rental_uris":{"android":"levelo://app?vid=a714632d-44c0-4d33-8aa9-55a02a942e0d","ios":"levelo://app?vid=a714632d-44c0-4d33-8aa9-55a02a942e0d"},"vehicle_type_id":"4","last_reported":1721509625,"current_range_meters":11600,"station_id":"","pricing_plan_id":"cebpf4jnsgd1na2vs0mg"},{"bike_id":"2dffea84-66f0-4cb1-a4f7-85c5db3a037a","system_id":"levelo_inurba_marseille","lat":43.293259,"lon":5.371586,"is_reserved":false,"is_disabled":false,"rental_uris":{"android":"levelo://app?vid=2dffea84-66f0-4cb1-a4f7-85c5db3a037a","ios":"levelo://app?vid=2dffea84-66f0-4cb1-a4f7-85c5db3a037a"},"vehicle_type_id":"4","last_reported":1721509625,"current_range_meters":0,"station_id":"ce4bgh92rcd13ifvqb40","pricing_plan_id":"cebpf4jnsgd1na2vs0mg"},{"bike_id":"b378a696-440c-4eeb-ad51-fd8a2e2f412a","system_id":"levelo_inurba_marseille","lat":43.292749,"lon":5.368402,"is_reserved":false,"is_disabled":false,"rental_uris":{"android":"levelo://app?vid=b378a696-440c-4eeb-ad51-fd8a2e2f412a","ios":"levelo://app?vid=b378a696-440c-4eeb-ad51-fd8a2e2f412a"},"vehicle_type_id":"4","last_reported":1721509625,"current_range_meters":9600,"station_id":"ce4bhbp2rcd13ifvqesg","pricing_plan_id":"cebpf4jnsgd1na2vs0mg"},{"bike_id":"8b1ca2f5-6fbd-4cd9-9aac-c01e59ec7cfc","system_id":"levelo_inurba_marseille","lat":43.292749,"lon":5.368398,"is_reserved":false,"is_disabled":false,"rental_uris":{"android":"levelo://app?vid=8b1ca2f5-6fbd-4cd9-9aac-c01e59ec7cfc","ios":"levelo://app?vid=8b1ca2f5-6fbd-4cd9-9aac-c01e59ec7cfc"},"vehicle_type_id":"4","last_reported":1721509625,"current_range_meters":5200,"station_id":"ce4bhbp2rcd13ifvqesg","pricing_plan_id":"cebpf4jnsgd1na2vs0mg"},{"bike_id":"2bb6f90a-bf1e-486b-8751-7df49e5f89de","system_id":"levelo_inurba_marseille","lat":43.332764,"lon":5.362602,"is_reserved":false,"is_disabled":false,"rental_uris":{"android":"levelo://app?vid=2bb6f90a-bf1e-486b-8751-7df49e5f89de","ios":"levelo://app?vid=2bb6f90a-bf1e-486b-8751-7df49e5f89de"},"vehicle_type_id":"4","last_reported":1721509625,"current_range_meters":6800,"station_id":"","pricing_plan_id":"cebpf4jnsgd1na2vs0mg"},{"bike_id":"094a34a4-eff7-4a32-8bd8-88342bd3fd02","system_id":"levelo_inurba_marseille","lat":43.273609,"lon":5.362708,"is_reserved":false,"is_disabled":false,"rental_uris":{"android":"levelo://app?vid=094a34a4-eff7-4a32-8bd8-88342bd3fd02","ios":"levelo://app?vid=094a34a4-eff7-4a32-8bd8-88342bd3fd02"},"vehicle_type_id":"4","last_reported":1721509625,"current_range_meters":31600,"station_id":"ce4bhbh2rcd13ifvqeo0","pricing_plan_id":"cebpf4jnsgd1na2vs0mg"},{"bike_id":"949b4b5f-2842-41bd-91e7-1967a3c5ce3c","system_id":"levelo_inurba_marseille","lat":43.305994,"lon":5.393687,"is_reserved":false,"is_disabled":false,"rental_uris":{"android":"levelo://app?vid=949b4b5f-2842-41bd-91e7-1967a3c5ce3c","ios":"levelo://app?vid=949b4b5f-2842-41bd-91e7-1967a3c5ce3c"},"vehicle_type_id":"4","last_reported":1721509625,"current_range_meters":4000,"station_id":"ce4bh0p2rcd13ifvqd80","pricing_plan_id":"cebpf4jnsgd1na2vs0mg"},{"bike_id":"9feca6be-13e8-4146-91b9-15c210fd411b","system_id":"levelo_inurba_marseille","lat":43.303002,"lon":5.392142,"is_reserved":false,"is_disabled":false,"rental_uris":{"android":"levelo://app?vid=9feca6be-13e8-4146-91b9-15c210fd411b","ios":"levelo://app?vid=9feca6be-13e8-4146-91b9-15c210fd411b"},"vehicle_type_id":"4","last_reported":1721509625,"current_range_meters":9200,"station_id":"ce4bgkh2rcd13ifvqbk0","pricing_plan_id":"cebpf4jnsgd1na2vs0mg"},{"bike_id":"c33ca63d-cadd-4d0b-82db-76b0c377babc","system_id":"levelo_inurba_marseille","lat":43.29368,"lon":5.37831,"is_reserved":false,"is_disabled":false,"rental_uris":{"android":"levelo://app?vid=c33ca63d-cadd-4d0b-82db-76b0c377babc","ios":"levelo://app?vid=c33ca63d-cadd-4d0b-82db-76b0c377babc"},"vehicle_type_id":"4","last_reported":1721509625,"current_range_meters":0,"station_id":"ce4bgjh2rcd13ifvqbf0","pricing_plan_id":"cebpf4jnsgd1na2vs0mg"},{"bike_id":"8c449df3-8faf-4ed9-a503-6c1ba764be0e","system_id":"levelo_inurba_marseille","lat":43.293735,"lon":5.378595,"is_reserved":false,"is_disabled":false,"rental_uris":{"android":"levelo://app?vid=8c449df3-8faf-4ed9-a503-6c1ba764be0e","ios":"levelo://app?vid=8c449df3-8faf-4ed9-a503-6c1ba764be0e"},"vehicle_type_id":"4","last_reported":1721509625,"current_range_meters":0,"station_id":"ce4bgjh2rcd13ifvqbf0","pricing_plan_id":"cebpf4jnsgd1na2vs0mg"},{"bike_id":"ba5805ae-30b2-43b6-9fa6-e9861f217d82","system_id":"levelo_inurba_marseille","lat":43.293652,"lon":5.37836,"is_reserved":false,"is_disabled":false,"rental_uris":{"android":"levelo://app?vid=ba5805ae-30b2-43b6-9fa6-e9861f217d82","ios":"levelo://app?vid=ba5805ae-30b2-43b6-9fa6-e9861f217d82"},"vehicle_type_id":"4","last_reported":1721509625,"current_range_meters":0,"station_id":"ce4bgjh2rcd13ifvqbf0","pricing_plan_id":"cebpf4jnsgd1na2vs0mg"},{"bike_id":"52d7d83f-90e2-4c39-9d7f-db13b4321355","system_id":"levelo_inurba_marseille","lat":43.300852,"lon":5.390859,"is_reserved":false,"is_disabled":false,"rental_uris":{"android":"levelo://app?vid=52d7d83f-90e2-4c39-9d7f-db13b4321355","ios":"levelo://app?vid=52d7d83f-90e2-4c39-9d7f-db13b4321355"},"vehicle_type_id":"4","last_reported":1721509625,"current_range_meters":24000,"station_id":"ce4bh192rcd13ifvqdb0","pricing_plan_id":"cebpf4jnsgd1na2vs0mg"},{"bike_id":"21017709-169c-4551-bf90-4bbb37ac4abf","system_id":"levelo_inurba_marseille","lat":43.300852,"lon":5.390859,"is_reserved":false,"is_disabled":false,"rental_uris":{"android":"levelo://app?vid=21017709-169c-4551-bf90-4bbb37ac4abf","ios":"levelo://app?vid=21017709-169c-4551-bf90-4bbb37ac4abf"},"vehicle_type_id":"4","last_reported":1721509625,"current_range_meters":3600,"station_id":"ce4bh192rcd13ifvqdb0","pricing_plan_id":"cebpf4jnsgd1na2vs0mg"},{"bike_id":"218d37ed-028a-43c6-8519-3e08117c8dbe","system_id":"levelo_inurba_marseille","lat":43.291671,"lon":5.371575,"is_reserved":false,"is_disabled":false,"rental_uris":{"android":"levelo://app?vid=218d37ed-028a-43c6-8519-3e08117c8dbe","ios":"levelo://app?vid=218d37ed-028a-43c6-8519-3e08117c8dbe"},"vehicle_type_id":"4","last_reported":1721509625,"current_range_meters":0,"station_id":"ce4bha92rcd13ifvqeh0","pricing_plan_id":"cebpf4jnsgd1na2vs0mg"},{"bike_id":"33771627-e105-4129-aa44-5af9aa26f38a","system_id":"levelo_inurba_marseille","lat":43.309038,"lon":5.396546,"is_reserved":false,"is_disabled":false,"rental_uris":{"android":"levelo://app?vid=33771627-e105-4129-aa44-5af9aa26f38a","ios":"levelo://app?vid=33771627-e105-4129-aa44-5af9aa26f38a"},"vehicle_type_id":"4","last_reported":1721509625,"current_range_meters":15600,"station_id":"ce4bh012rcd13ifvqcv0","pricing_plan_id":"cebpf4jnsgd1na2vs0mg"},{"bike_id":"80a8b65e-b279-4bf4-a97d-51c09bedc6de","system_id":"levelo_inurba_marseille","lat":43.29199,"lon":5.3581,"is_reserved":false,"is_disabled":false,"rental_uris":{"android":"levelo://app?vid=80a8b65e-b279-4bf4-a97d-51c09bedc6de","ios":"levelo://app?vid=80a8b65e-b279-4bf4-a97d-51c09bedc6de"},"vehicle_type_id":"4","last_reported":1721509625,"current_range_meters":3200,"station_id":"ce4bhb12rcd13ifvqel0","pricing_plan_id":"cebpf4jnsgd1na2vs0mg"},{"bike_id":"caa5bb42-2f13-4fa5-9f24-c09b830d5041","system_id":"levelo_inurba_marseille","lat":43.292005,"lon":5.357875,"is_reserved":false,"is_disabled":false,"rental_uris":{"android":"levelo://app?vid=caa5bb42-2f13-4fa5-9f24-c09b830d5041","ios":"levelo://app?vid=caa5bb42-2f13-4fa5-9f24-c09b830d5041"},"vehicle_type_id":"4","last_reported":1721509625,"current_range_meters":10800,"station_id":"ce4bhb12rcd13ifvqel0","pricing_plan_id":"cebpf4jnsgd1na2vs0mg"},{"bike_id":"411a8b4f-6dc1-497d-9a00-f755e7343cc0","system_id":"levelo_inurba_marseille","lat":43.309038,"lon":5.396546,"is_reserved":false,"is_disabled":false,"rental_uris":{"android":"levelo://app?vid=411a8b4f-6dc1-497d-9a00-f755e7343cc0","ios":"levelo://app?vid=411a8b4f-6dc1-497d-9a00-f755e7343cc0"},"vehicle_type_id":"4","last_reported":1721509625,"current_range_meters":10000,"station_id":"ce4bh012rcd13ifvqcv0","pricing_plan_id":"cebpf4jnsgd1na2vs0mg"},{"bike_id":"52558ca6-e30c-44f5-a845-60501bc926b7","system_id":"levelo_inurba_marseille","lat":43.31324,"lon":5.39686,"is_reserved":false,"is_disabled":false,"rental_uris":{"android":"levelo://app?vid=52558ca6-e30c-44f5-a845-60501bc926b7","ios":"levelo://app?vid=52558ca6-e30c-44f5-a845-60501bc926b7"},"vehicle_type_id":"4","last_reported":1721509625,"current_range_meters":28000,"station_id":"ce4bgvp2rcd13ifvqcu0","pricing_plan_id":"cebpf4jnsgd1na2vs0mg"},{"bike_id":"920caefd-62a6-47dd-b538-1d86025d0922","system_id":"levelo_inurba_marseille","lat":43.309038,"lon":5.396546,"is_reserved":false,"is_disabled":false,"rental_uris":{"android":"levelo://app?vid=920caefd-62a6-47dd-b538-1d86025d0922","ios":"levelo://app?vid=920caefd-62a6-47dd-b538-1d86025d0922"},"vehicle_type_id":"4","last_reported":1721509625,"current_range_meters":26800,"station_id":"ce4bh012rcd13ifvqcv0","pricing_plan_id":"cebpf4jnsgd1na2vs0mg"},{"bike_id":"df8aec4d-0a74-4e5d-8a69-34de9d291cae","system_id":"levelo_inurba_marseille","lat":43.3133,"lon":5.39687,"is_reserved":false,"is_disabled":false,"rental_uris":{"android":"levelo://app?vid=df8aec4d-0a74-4e5d-8a69-34de9d291cae","ios":"levelo://app?vid=df8aec4d-0a74-4e5d-8a69-34de9d291cae"},"vehicle_type_id":"4","last_reported":1721509625,"current_range_meters":6800,"station_id":"ce4bgvp2rcd13ifvqcu0","pricing_plan_id":"cebpf4jnsgd1na2vs0mg"},{"bike_id":"940b5027-55e6-465b-810b-d398b04da51d","system_id":"levelo_inurba_marseille","lat":43.29194,"lon":5.3579,"is_reserved":false,"is_disabled":false,"rental_uris":{"android":"levelo://app?vid=940b5027-55e6-465b-810b-d398b04da51d","ios":"levelo://app?vid=940b5027-55e6-465b-810b-d398b04da51d"},"vehicle_type_id":"4","last_reported":1721509625,"current_range_meters":0,"station_id":"ce4bhb12rcd13ifvqel0","pricing_plan_id":"cebpf4jnsgd1na2vs0mg"},{"bike_id":"14b292e0-df09-4726-8366-cf77a19171a9","system_id":"levelo_inurba_marseille","lat":43.313291,"lon":5.396838,"is_reserved":false,"is_disabled":false,"rental_uris":{"android":"levelo://app?vid=14b292e0-df09-4726-8366-cf77a19171a9","ios":"levelo://app?vid=14b292e0-df09-4726-8366-cf77a19171a9"},"vehicle_type_id":"4","last_reported":1721509625,"current_range_meters":13600,"station_id":"ce4bgvp2rcd13ifvqcu0","pricing_plan_id":"cebpf4jnsgd1na2vs0mg"},{"bike_id":"a1f5becb-c21a-45b9-9296-dc381aba2eb3","system_id":"levelo_inurba_marseille","lat":43.309047,"lon":5.396551,"is_reserved":false,"is_disabled":false,"rental_uris":{"android":"levelo://app?vid=a1f5becb-c21a-45b9-9296-dc381aba2eb3","ios":"levelo://app?vid=a1f5becb-c21a-45b9-9296-dc381aba2eb3"},"vehicle_type_id":"4","last_reported":1721509625,"current_range_meters":6800,"station_id":"ce4bh012rcd13ifvqcv0","pricing_plan_id":"cebpf4jnsgd1na2vs0mg"},{"bike_id":"4cdd5f22-46ef-46d6-bb53-c8f8b7ed6db0","system_id":"levelo_inurba_marseille","lat":43.313343,"lon":5.397013,"is_reserved":false,"is_disabled":false,"rental_uris":{"android":"levelo://app?vid=4cdd5f22-46ef-46d6-bb53-c8f8b7ed6db0","ios":"levelo://app?vid=4cdd5f22-46ef-46d6-bb53-c8f8b7ed6db0"},"vehicle_type_id":"4","last_reported":1721509625,"current_range_meters":10400,"station_id":"ce4bgvp2rcd13ifvqcu0","pricing_plan_id":"cebpf4jnsgd1na2vs0mg"},{"bike_id":"b9138ac3-7a6c-4a81-b2bd-5be0492cd9c1","system_id":"levelo_inurba_marseille","lat":43.309047,"lon":5.396551,"is_reserved":false,"is_disabled":false,"rental_uris":{"android":"levelo://app?vid=b9138ac3-7a6c-4a81-b2bd-5be0492cd9c1","ios":"levelo://app?vid=b9138ac3-7a6c-4a81-b2bd-5be0492cd9c1"},"vehicle_type_id":"4","last_reported":1721509625,"current_range_meters":10800,"station_id":"ce4bh012rcd13ifvqcv0","pricing_plan_id":"cebpf4jnsgd1na2vs0mg"},{"bike_id":"1e1b59b5-f070-4e8a-89b9-4c3ca1556e2a","system_id":"levelo_inurba_marseille","lat":43.309038,"lon":5.396546,"is_reserved":false,"is_disabled":false,"rental_uris":{"android":"levelo://app?vid=1e1b59b5-f070-4e8a-89b9-4c3ca1556e2a","ios":"levelo://app?vid=1e1b59b5-f070-4e8a-89b9-4c3ca1556e2a"},"vehicle_type_id":"4","last_reported":1721509625,"current_range_meters":22800,"station_id":"ce4bh012rcd13ifvqcv0","pricing_plan_id":"cebpf4jnsgd1na2vs0mg"},{"bike_id":"aba14b7b-93be-42b1-943c-2688606edbe9","system_id":"levelo_inurba_marseille","lat":43.2953,"lon":5.38537,"is_reserved":false,"is_disabled":false,"rental_uris":{"android":"levelo://app?vid=aba14b7b-93be-42b1-943c-2688606edbe9","ios":"levelo://app?vid=aba14b7b-93be-42b1-943c-2688606edbe9"},"vehicle_type_id":"4","last_reported":1721509625,"current_range_meters":26400,"station_id":"ce4bgih2rcd13ifvqba0","pricing_plan_id":"cebpf4jnsgd1na2vs0mg"},{"bike_id":"dbce3027-f1b1-46a4-a3d3-fd7e93c1d4ba","system_id":"levelo_inurba_marseille","lat":43.332406,"lon":5.380534,"is_reserved":false,"is_disabled":false,"rental_uris":{"android":"levelo://app?vid=dbce3027-f1b1-46a4-a3d3-fd7e93c1d4ba","ios":"levelo://app?vid=dbce3027-f1b1-46a4-a3d3-fd7e93c1d4ba"},"vehicle_type_id":"4","last_reported":1721509625,"current_range_meters":0,"station_id":"","pricing_plan_id":"cebpf4jnsgd1na2vs0mg"},{"bike_id":"15039af0-cb07-465a-932d-de66d0dcccd9","system_id":"levelo_inurba_marseille","lat":43.29529,"lon":5.385581,"is_reserved":false,"is_disabled":false,"rental_uris":{"android":"levelo://app?vid=15039af0-cb07-465a-932d-de66d0dcccd9","ios":"levelo://app?vid=15039af0-cb07-465a-932d-de66d0dcccd9"},"vehicle_type_id":"4","last_reported":1721509625,"current_range_meters":25200,"station_id":"ce4bgih2rcd13ifvqba0","pricing_plan_id":"cebpf4jnsgd1na2vs0mg"},{"bike_id":"24af8c01-1f71-4974-bd51-b444c18d82ff","system_id":"levelo_inurba_marseille","lat":43.29529,"lon":5.385581,"is_reserved":false,"is_disabled":false,"rental_uris":{"android":"levelo://app?vid=24af8c01-1f71-4974-bd51-b444c18d82ff","ios":"levelo://app?vid=24af8c01-1f71-4974-bd51-b444c18d82ff"},"vehicle_type_id":"4","last_reported":1721509625,"current_range_meters":3600,"station_id":"ce4bgih2rcd13ifvqba0","pricing_plan_id":"cebpf4jnsgd1na2vs0mg"},{"bike_id":"b3049ffc-a888-4a20-a948-e646f2a08fb5","system_id":"levelo_inurba_marseille","lat":43.290805,"lon":5.371617,"is_reserved":false,"is_disabled":false,"rental_uris":{"android":"levelo://app?vid=b3049ffc-a888-4a20-a948-e646f2a08fb5","ios":"levelo://app?vid=b3049ffc-a888-4a20-a948-e646f2a08fb5"},"vehicle_type_id":"4","last_reported":1721509625,"current_range_meters":4800,"station_id":"ce4bh5p2rcd13ifvqe4g","pricing_plan_id":"cebpf4jnsgd1na2vs0mg"},{"bike_id":"5067ffd2-415e-4ad7-ba88-187f23be4225","system_id":"levelo_inurba_marseille","lat":43.290779,"lon":5.371482,"is_reserved":false,"is_disabled":false,"rental_uris":{"android":"levelo://app?vid=5067ffd2-415e-4ad7-ba88-187f23be4225","ios":"levelo://app?vid=5067ffd2-415e-4ad7-ba88-187f23be4225"},"vehicle_type_id":"4","last_reported":1721509625,"current_range_meters":5600,"station_id":"ce4bh5p2rcd13ifvqe4g","pricing_plan_id":"cebpf4jnsgd1na2vs0mg"},{"bike_id":"4e22a2b1-7b92-4bf1-854c-fc45aa80b921","system_id":"levelo_inurba_marseille","lat":43.290779,"lon":5.371482,"is_reserved":false,"is_disabled":false,"rental_uris":{"android":"levelo://app?vid=4e22a2b1-7b92-4bf1-854c-fc45aa80b921","ios":"levelo://app?vid=4e22a2b1-7b92-4bf1-854c-fc45aa80b921"},"vehicle_type_id":"4","last_reported":1721509625,"current_range_meters":400,"station_id":"ce4bh5p2rcd13ifvqe4g","pricing_plan_id":"cebpf4jnsgd1na2vs0mg"},{"bike_id":"86f6d1de-26f0-4ec9-a29d-bb317ff31753","system_id":"levelo_inurba_marseille","lat":43.29072,"lon":5.371594,"is_reserved":false,"is_disabled":false,"rental_uris":{"android":"levelo://app?vid=86f6d1de-26f0-4ec9-a29d-bb317ff31753","ios":"levelo://app?vid=86f6d1de-26f0-4ec9-a29d-bb317ff31753"},"vehicle_type_id":"4","last_reported":1721509625,"current_range_meters":400,"station_id":"ce4bh5p2rcd13ifvqe4g","pricing_plan_id":"cebpf4jnsgd1na2vs0mg"},{"bike_id":"2eec220c-7dc3-463b-b601-24bdbcfb9509","system_id":"levelo_inurba_marseille","lat":43.29066,"lon":5.37152,"is_reserved":false,"is_disabled":false,"rental_uris":{"android":"levelo://app?vid=2eec220c-7dc3-463b-b601-24bdbcfb9509","ios":"levelo://app?vid=2eec220c-7dc3-463b-b601-24bdbcfb9509"},"vehicle_type_id":"4","last_reported":1721509625,"current_range_meters":28800,"station_id":"ce4bh5p2rcd13ifvqe4g","pricing_plan_id":"cebpf4jnsgd1na2vs0mg"},{"bike_id":"d1c25de8-826d-4b7c-898e-201fb6a89f6e","system_id":"levelo_inurba_marseille","lat":43.290624,"lon":5.359245,"is_reserved":false,"is_disabled":false,"rental_uris":{"android":"levelo://app?vid=d1c25de8-826d-4b7c-898e-201fb6a89f6e","ios":"levelo://app?vid=d1c25de8-826d-4b7c-898e-201fb6a89f6e"},"vehicle_type_id":"4","last_reported":1721509625,"current_range_meters":3200,"station_id":"ce4bha92rcd13ifvqeg0","pricing_plan_id":"cebpf4jnsgd1na2vs0mg"},{"bike_id":"4d8eac3c-8a13-457e-bb05-912549e26d95","system_id":"levelo_inurba_marseille","lat":43.290386,"lon":5.375014,"is_reserved":false,"is_disabled":false,"rental_uris":{"android":"levelo://app?vid=4d8eac3c-8a13-457e-bb05-912549e26d95","ios":"levelo://app?vid=4d8eac3c-8a13-457e-bb05-912549e26d95"},"vehicle_type_id":"4","last_reported":1721509625,"current_range_meters":4400,"station_id":"","pricing_plan_id":"cebpf4jnsgd1na2vs0mg"},{"bike_id":"8eac3f96-0178-49d8-9ab2-9426862a4a5f","system_id":"levelo_inurba_marseille","lat":43.29042,"lon":5.37559,"is_reserved":false,"is_disabled":false,"rental_uris":{"android":"levelo://app?vid=8eac3f96-0178-49d8-9ab2-9426862a4a5f","ios":"levelo://app?vid=8eac3f96-0178-49d8-9ab2-9426862a4a5f"},"vehicle_type_id":"4","last_reported":1721509625,"current_range_meters":18000,"station_id":"ce4bh692rcd13ifvqe90","pricing_plan_id":"cebpf4jnsgd1na2vs0mg"},{"bike_id":"bada7196-eb2c-4a5d-a5b3-6afaf892d9dc","system_id":"levelo_inurba_marseille","lat":43.294162,"lon":5.386292,"is_reserved":false,"is_disabled":false,"rental_uris":{"android":"levelo://app?vid=bada7196-eb2c-4a5d-a5b3-6afaf892d9dc","ios":"levelo://app?vid=bada7196-eb2c-4a5d-a5b3-6afaf892d9dc"},"vehicle_type_id":"4","last_reported":1721509625,"current_range_meters":30000,"station_id":"ce4bh2h2rcd13ifvqdh0","pricing_plan_id":"cebpf4jnsgd1na2vs0mg"},{"bike_id":"e7c30797-bc14-4f20-a8b2-0d18fb1c6785","system_id":"levelo_inurba_marseille","lat":43.29418,"lon":5.38614,"is_reserved":false,"is_disabled":false,"rental_uris":{"android":"levelo://app?vid=e7c30797-bc14-4f20-a8b2-0d18fb1c6785","ios":"levelo://app?vid=e7c30797-bc14-4f20-a8b2-0d18fb1c6785"},"vehicle_type_id":"4","last_reported":1721509625,"current_range_meters":0,"station_id":"ce4bh2h2rcd13ifvqdh0","pricing_plan_id":"cebpf4jnsgd1na2vs0mg"},{"bike_id":"1e47186f-9eaf-4177-a416-6cbb2be2712c","system_id":"levelo_inurba_marseille","lat":43.289184,"lon":5.366408,"is_reserved":false,"is_disabled":false,"rental_uris":{"android":"levelo://app?vid=1e47186f-9eaf-4177-a416-6cbb2be2712c","ios":"levelo://app?vid=1e47186f-9eaf-4177-a416-6cbb2be2712c"},"vehicle_type_id":"4","last_reported":1721509625,"current_range_meters":12400,"station_id":"ce4bhap2rcd13ifvqek0","pricing_plan_id":"cebpf4jnsgd1na2vs0mg"},{"bike_id":"9f3a11dd-9996-4952-97a8-5e46db3d7517","system_id":"levelo_inurba_marseille","lat":43.294153,"lon":5.386305,"is_reserved":false,"is_disabled":false,"rental_uris":{"android":"levelo://app?vid=9f3a11dd-9996-4952-97a8-5e46db3d7517","ios":"levelo://app?vid=9f3a11dd-9996-4952-97a8-5e46db3d7517"},"vehicle_type_id":"4","last_reported":1721509625,"current_range_meters":23200,"station_id":"ce4bh2h2rcd13ifvqdh0","pricing_plan_id":"cebpf4jnsgd1na2vs0mg"},{"bike_id":"cdf58e68-369f-4aec-b383-94e2978ca491","system_id":"levelo_inurba_marseille","lat":43.29035,"lon":5.37554,"is_reserved":false,"is_disabled":false,"rental_uris":{"android":"levelo://app?vid=cdf58e68-369f-4aec-b383-94e2978ca491","ios":"levelo://app?vid=cdf58e68-369f-4aec-b383-94e2978ca491"},"vehicle_type_id":"4","last_reported":1721509625,"current_range_meters":11200,"station_id":"ce4bh692rcd13ifvqe90","pricing_plan_id":"cebpf4jnsgd1na2vs0mg"},{"bike_id":"11a8a77b-e1ef-467d-8bee-b4f326db0770","system_id":"levelo_inurba_marseille","lat":43.294153,"lon":5.386305,"is_reserved":false,"is_disabled":false,"rental_uris":{"android":"levelo://app?vid=11a8a77b-e1ef-467d-8bee-b4f326db0770","ios":"levelo://app?vid=11a8a77b-e1ef-467d-8bee-b4f326db0770"},"vehicle_type_id":"4","last_reported":1721509625,"current_range_meters":1600,"station_id":"ce4bh2h2rcd13ifvqdh0","pricing_plan_id":"cebpf4jnsgd1na2vs0mg"},{"bike_id":"202550f1-9436-47b0-9ffa-e5c5c3a3a4a8","system_id":"levelo_inurba_marseille","lat":43.2942,"lon":5.38622,"is_reserved":false,"is_disabled":false,"rental_uris":{"android":"levelo://app?vid=202550f1-9436-47b0-9ffa-e5c5c3a3a4a8","ios":"levelo://app?vid=202550f1-9436-47b0-9ffa-e5c5c3a3a4a8"},"vehicle_type_id":"4","last_reported":1721509625,"current_range_meters":0,"station_id":"ce4bh2h2rcd13ifvqdh0","pricing_plan_id":"cebpf4jnsgd1na2vs0mg"},{"bike_id":"eeaa6f04-099f-4041-aa1a-083178b9a808","system_id":"levelo_inurba_marseille","lat":43.294153,"lon":5.386305,"is_reserved":false,"is_disabled":false,"rental_uris":{"android":"levelo://app?vid=eeaa6f04-099f-4041-aa1a-083178b9a808","ios":"levelo://app?vid=eeaa6f04-099f-4041-aa1a-083178b9a808"},"vehicle_type_id":"4","last_reported":1721509625,"current_range_meters":0,"station_id":"ce4bh2h2rcd13ifvqdh0","pricing_plan_id":"cebpf4jnsgd1na2vs0mg"},{"bike_id":"512cb0b9-20ff-4097-92be-e5895d70da3c","system_id":"levelo_inurba_marseille","lat":43.290331,"lon":5.375561,"is_reserved":false,"is_disabled":false,"rental_uris":{"android":"levelo://app?vid=512cb0b9-20ff-4097-92be-e5895d70da3c","ios":"levelo://app?vid=512cb0b9-20ff-4097-92be-e5895d70da3c"},"vehicle_type_id":"4","last_reported":1721509625,"current_range_meters":15200,"station_id":"ce4bh692rcd13ifvqe90","pricing_plan_id":"cebpf4jnsgd1na2vs0mg"},{"bike_id":"6341ae36-111f-46cc-a13a-fc1b2ac8f359","system_id":"levelo_inurba_marseille","lat":43.289184,"lon":5.366408,"is_reserved":false,"is_disabled":false,"rental_uris":{"android":"levelo://app?vid=6341ae36-111f-46cc-a13a-fc1b2ac8f359","ios":"levelo://app?vid=6341ae36-111f-46cc-a13a-fc1b2ac8f359"},"vehicle_type_id":"4","last_reported":1721509625,"current_range_meters":400,"station_id":"ce4bhap2rcd13ifvqek0","pricing_plan_id":"cebpf4jnsgd1na2vs0mg"},{"bike_id":"b3a42b9d-13db-42d9-a916-72b68a16cad2","system_id":"levelo_inurba_marseille","lat":43.29416,"lon":5.38622,"is_reserved":false,"is_disabled":false,"rental_uris":{"android":"levelo://app?vid=b3a42b9d-13db-42d9-a916-72b68a16cad2","ios":"levelo://app?vid=b3a42b9d-13db-42d9-a916-72b68a16cad2"},"vehicle_type_id":"4","last_reported":1721509625,"current_range_meters":0,"station_id":"ce4bh2h2rcd13ifvqdh0","pricing_plan_id":"cebpf4jnsgd1na2vs0mg"},{"bike_id":"98d87c28-5a16-4f98-900d-e8660d9e846e","system_id":"levelo_inurba_marseille","lat":43.29417,"lon":5.38624,"is_reserved":false,"is_disabled":false,"rental_uris":{"android":"levelo://app?vid=98d87c28-5a16-4f98-900d-e8660d9e846e","ios":"levelo://app?vid=98d87c28-5a16-4f98-900d-e8660d9e846e"},"vehicle_type_id":"4","last_reported":1721509625,"current_range_meters":0,"station_id":"ce4bh2h2rcd13ifvqdh0","pricing_plan_id":"cebpf4jnsgd1na2vs0mg"},{"bike_id":"8ec71bc4-4031-488c-b446-2f47f5a9cd01","system_id":"levelo_inurba_marseille","lat":43.29417,"lon":5.38627,"is_reserved":false,"is_disabled":false,"rental_uris":{"android":"levelo://app?vid=8ec71bc4-4031-488c-b446-2f47f5a9cd01","ios":"levelo://app?vid=8ec71bc4-4031-488c-b446-2f47f5a9cd01"},"vehicle_type_id":"4","last_reported":1721509625,"current_range_meters":0,"station_id":"ce4bh2h2rcd13ifvqdh0","pricing_plan_id":"cebpf4jnsgd1na2vs0mg"},{"bike_id":"7058e40b-3450-442b-b6ac-bff4e82742d8","system_id":"levelo_inurba_marseille","lat":43.289468,"lon":5.363719,"is_reserved":false,"is_disabled":false,"rental_uris":{"android":"levelo://app?vid=7058e40b-3450-442b-b6ac-bff4e82742d8","ios":"levelo://app?vid=7058e40b-3450-442b-b6ac-bff4e82742d8"},"vehicle_type_id":"4","last_reported":1721509625,"current_range_meters":22400,"station_id":"ce4bhc92rcd13ifvqetg","pricing_plan_id":"cebpf4jnsgd1na2vs0mg"},{"bike_id":"765ce260-32a5-4de2-82f7-a7e01594fbb0","system_id":"levelo_inurba_marseille","lat":43.2927,"lon":5.38436,"is_reserved":false,"is_disabled":false,"rental_uris":{"android":"levelo://app?vid=765ce260-32a5-4de2-82f7-a7e01594fbb0","ios":"levelo://app?vid=765ce260-32a5-4de2-82f7-a7e01594fbb0"},"vehicle_type_id":"4","last_reported":1721509625,"current_range_meters":0,"station_id":"ce4bh692rcd13ifvqea0","pricing_plan_id":"cebpf4jnsgd1na2vs0mg"},{"bike_id":"64e68a88-2f1a-4ef4-b4be-25619a0338ef","system_id":"levelo_inurba_marseille","lat":43.292642,"lon":5.384254,"is_reserved":false,"is_disabled":false,"rental_uris":{"android":"levelo://app?vid=64e68a88-2f1a-4ef4-b4be-25619a0338ef","ios":"levelo://app?vid=64e68a88-2f1a-4ef4-b4be-25619a0338ef"},"vehicle_type_id":"4","last_reported":1721509625,"current_range_meters":27600,"station_id":"ce4bh692rcd13ifvqea0","pricing_plan_id":"cebpf4jnsgd1na2vs0mg"},{"bike_id":"264505bf-cb6a-47df-a43c-aeaa0193a2cd","system_id":"levelo_inurba_marseille","lat":43.29271,"lon":5.38443,"is_reserved":false,"is_disabled":false,"rental_uris":{"android":"levelo://app?vid=264505bf-cb6a-47df-a43c-aeaa0193a2cd","ios":"levelo://app?vid=264505bf-cb6a-47df-a43c-aeaa0193a2cd"},"vehicle_type_id":"4","last_reported":1721509625,"current_range_meters":23200,"station_id":"ce4bh692rcd13ifvqea0","pricing_plan_id":"cebpf4jnsgd1na2vs0mg"},{"bike_id":"bde77d5a-fa35-44e7-80ba-d0fcd4f8e3fb","system_id":"levelo_inurba_marseille","lat":43.292642,"lon":5.384254,"is_reserved":false,"is_disabled":false,"rental_uris":{"android":"levelo://app?vid=bde77d5a-fa35-44e7-80ba-d0fcd4f8e3fb","ios":"levelo://app?vid=bde77d5a-fa35-44e7-80ba-d0fcd4f8e3fb"},"vehicle_type_id":"4","last_reported":1721509625,"current_range_meters":17600,"station_id":"ce4bh692rcd13ifvqea0","pricing_plan_id":"cebpf4jnsgd1na2vs0mg"},{"bike_id":"930120a9-a464-49e2-ae9f-3c7c10129c35","system_id":"levelo_inurba_marseille","lat":43.292642,"lon":5.384254,"is_reserved":false,"is_disabled":false,"rental_uris":{"android":"levelo://app?vid=930120a9-a464-49e2-ae9f-3c7c10129c35","ios":"levelo://app?vid=930120a9-a464-49e2-ae9f-3c7c10129c35"},"vehicle_type_id":"4","last_reported":1721509625,"current_range_meters":400,"station_id":"ce4bh692rcd13ifvqea0","pricing_plan_id":"cebpf4jnsgd1na2vs0mg"},{"bike_id":"bcf5fb86-875e-43ec-9327-126bd00d1f71","system_id":"levelo_inurba_marseille","lat":43.292642,"lon":5.384254,"is_reserved":false,"is_disabled":false,"rental_uris":{"android":"levelo://app?vid=bcf5fb86-875e-43ec-9327-126bd00d1f71","ios":"levelo://app?vid=bcf5fb86-875e-43ec-9327-126bd00d1f71"},"vehicle_type_id":"4","last_reported":1721509625,"current_range_meters":4000,"station_id":"ce4bh692rcd13ifvqea0","pricing_plan_id":"cebpf4jnsgd1na2vs0mg"},{"bike_id":"4ab543c1-99c0-4eba-9129-a73341f193fa","system_id":"levelo_inurba_marseille","lat":43.292642,"lon":5.384254,"is_reserved":false,"is_disabled":false,"rental_uris":{"android":"levelo://app?vid=4ab543c1-99c0-4eba-9129-a73341f193fa","ios":"levelo://app?vid=4ab543c1-99c0-4eba-9129-a73341f193fa"},"vehicle_type_id":"4","last_reported":1721509625,"current_range_meters":19600,"station_id":"ce4bh692rcd13ifvqea0","pricing_plan_id":"cebpf4jnsgd1na2vs0mg"},{"bike_id":"17b88c1e-4ce8-4312-973b-9d7ba48ceedf","system_id":"levelo_inurba_marseille","lat":43.292647,"lon":5.38443,"is_reserved":false,"is_disabled":false,"rental_uris":{"android":"levelo://app?vid=17b88c1e-4ce8-4312-973b-9d7ba48ceedf","ios":"levelo://app?vid=17b88c1e-4ce8-4312-973b-9d7ba48ceedf"},"vehicle_type_id":"4","last_reported":1721509625,"current_range_meters":0,"station_id":"ce4bh692rcd13ifvqea0","pricing_plan_id":"cebpf4jnsgd1na2vs0mg"},{"bike_id":"6f2706e1-991e-4ba6-8fa9-18340ab6ea6f","system_id":"levelo_inurba_marseille","lat":43.29259,"lon":5.38432,"is_reserved":false,"is_disabled":false,"rental_uris":{"android":"levelo://app?vid=6f2706e1-991e-4ba6-8fa9-18340ab6ea6f","ios":"levelo://app?vid=6f2706e1-991e-4ba6-8fa9-18340ab6ea6f"},"vehicle_type_id":"4","last_reported":1721509625,"current_range_meters":11200,"station_id":"ce4bh692rcd13ifvqea0","pricing_plan_id":"cebpf4jnsgd1na2vs0mg"},{"bike_id":"b9e6db44-9a76-41ee-8c03-385950b4b347","system_id":"levelo_inurba_marseille","lat":43.292642,"lon":5.384254,"is_reserved":false,"is_disabled":false,"rental_uris":{"android":"levelo://app?vid=b9e6db44-9a76-41ee-8c03-385950b4b347","ios":"levelo://app?vid=b9e6db44-9a76-41ee-8c03-385950b4b347"},"vehicle_type_id":"4","last_reported":1721509625,"current_range_meters":24800,"station_id":"ce4bh692rcd13ifvqea0","pricing_plan_id":"cebpf4jnsgd1na2vs0mg"},{"bike_id":"56e8fef7-3f95-42bb-8555-174d076a08ab","system_id":"levelo_inurba_marseille","lat":43.292642,"lon":5.384254,"is_reserved":false,"is_disabled":false,"rental_uris":{"android":"levelo://app?vid=56e8fef7-3f95-42bb-8555-174d076a08ab","ios":"levelo://app?vid=56e8fef7-3f95-42bb-8555-174d076a08ab"},"vehicle_type_id":"4","last_reported":1721509625,"current_range_meters":0,"station_id":"ce4bh692rcd13ifvqea0","pricing_plan_id":"cebpf4jnsgd1na2vs0mg"},{"bike_id":"77cf18d0-2a79-46d0-97c3-34e1c8073d7d","system_id":"levelo_inurba_marseille","lat":43.291065,"lon":5.381363,"is_reserved":false,"is_disabled":false,"rental_uris":{"android":"levelo://app?vid=77cf18d0-2a79-46d0-97c3-34e1c8073d7d","ios":"levelo://app?vid=77cf18d0-2a79-46d0-97c3-34e1c8073d7d"},"vehicle_type_id":"4","last_reported":1721509625,"current_range_meters":0,"station_id":"ce4bh512rcd13ifvqe2g","pricing_plan_id":"cebpf4jnsgd1na2vs0mg"},{"bike_id":"acf74293-8494-4687-a3c6-1500b2ae890e","system_id":"levelo_inurba_marseille","lat":43.290995,"lon":5.381361,"is_reserved":false,"is_disabled":false,"rental_uris":{"android":"levelo://app?vid=acf74293-8494-4687-a3c6-1500b2ae890e","ios":"levelo://app?vid=acf74293-8494-4687-a3c6-1500b2ae890e"},"vehicle_type_id":"4","last_reported":1721509625,"current_range_meters":4000,"station_id":"ce4bh512rcd13ifvqe2g","pricing_plan_id":"cebpf4jnsgd1na2vs0mg"},{"bike_id":"3aeac4d2-3a00-41b7-97ef-006d9dd15bbe","system_id":"levelo_inurba_marseille","lat":43.290995,"lon":5.381361,"is_reserved":false,"is_disabled":false,"rental_uris":{"android":"levelo://app?vid=3aeac4d2-3a00-41b7-97ef-006d9dd15bbe","ios":"levelo://app?vid=3aeac4d2-3a00-41b7-97ef-006d9dd15bbe"},"vehicle_type_id":"4","last_reported":1721509625,"current_range_meters":0,"station_id":"ce4bh512rcd13ifvqe2g","pricing_plan_id":"cebpf4jnsgd1na2vs0mg"},{"bike_id":"c17898fd-a4fe-401f-9101-a4e7f5e8ec71","system_id":"levelo_inurba_marseille","lat":43.297807,"lon":5.393533,"is_reserved":false,"is_disabled":false,"rental_uris":{"android":"levelo://app?vid=c17898fd-a4fe-401f-9101-a4e7f5e8ec71","ios":"levelo://app?vid=c17898fd-a4fe-401f-9101-a4e7f5e8ec71"},"vehicle_type_id":"4","last_reported":1721509625,"current_range_meters":27600,"station_id":"chh1huq6cuj3fo74tm60","pricing_plan_id":"cebpf4jnsgd1na2vs0mg"},{"bike_id":"e9175177-cdd8-49d2-b31c-883f492f1a3d","system_id":"levelo_inurba_marseille","lat":43.33019,"lon":5.39038,"is_reserved":false,"is_disabled":false,"rental_uris":{"android":"levelo://app?vid=e9175177-cdd8-49d2-b31c-883f492f1a3d","ios":"levelo://app?vid=e9175177-cdd8-49d2-b31c-883f492f1a3d"},"vehicle_type_id":"4","last_reported":1721509625,"current_range_meters":6000,"station_id":"ce4bhr92rcd13ifvqhrg","pricing_plan_id":"cebpf4jnsgd1na2vs0mg"},{"bike_id":"c1a6a751-03bb-4abe-aac8-0f7435ea6cd0","system_id":"levelo_inurba_marseille","lat":43.33024,"lon":5.39035,"is_reserved":false,"is_disabled":false,"rental_uris":{"android":"levelo://app?vid=c1a6a751-03bb-4abe-aac8-0f7435ea6cd0","ios":"levelo://app?vid=c1a6a751-03bb-4abe-aac8-0f7435ea6cd0"},"vehicle_type_id":"4","last_reported":1721509625,"current_range_meters":24800,"station_id":"ce4bhr92rcd13ifvqhrg","pricing_plan_id":"cebpf4jnsgd1na2vs0mg"},{"bike_id":"873bd8e6-81c9-4ac9-bcd8-7efc0d23213e","system_id":"levelo_inurba_marseille","lat":43.33024,"lon":5.39037,"is_reserved":false,"is_disabled":false,"rental_uris":{"android":"levelo://app?vid=873bd8e6-81c9-4ac9-bcd8-7efc0d23213e","ios":"levelo://app?vid=873bd8e6-81c9-4ac9-bcd8-7efc0d23213e"},"vehicle_type_id":"4","last_reported":1721509625,"current_range_meters":2000,"station_id":"ce4bhr92rcd13ifvqhrg","pricing_plan_id":"cebpf4jnsgd1na2vs0mg"},{"bike_id":"efb0ea9f-017d-4684-81ba-971536d6527c","system_id":"levelo_inurba_marseille","lat":43.33024,"lon":5.3904,"is_reserved":false,"is_disabled":false,"rental_uris":{"android":"levelo://app?vid=efb0ea9f-017d-4684-81ba-971536d6527c","ios":"levelo://app?vid=efb0ea9f-017d-4684-81ba-971536d6527c"},"vehicle_type_id":"4","last_reported":1721509625,"current_range_meters":3200,"station_id":"ce4bhr92rcd13ifvqhrg","pricing_plan_id":"cebpf4jnsgd1na2vs0mg"},{"bike_id":"21a14fcb-829f-430d-a309-3af1f4cce790","system_id":"levelo_inurba_marseille","lat":43.330442,"lon":5.389148,"is_reserved":false,"is_disabled":false,"rental_uris":{"android":"levelo://app?vid=21a14fcb-829f-430d-a309-3af1f4cce790","ios":"levelo://app?vid=21a14fcb-829f-430d-a309-3af1f4cce790"},"vehicle_type_id":"4","last_reported":1721509625,"current_range_meters":22400,"station_id":"ce4bhr92rcd13ifvqhrg","pricing_plan_id":"cebpf4jnsgd1na2vs0mg"},{"bike_id":"db9ac6ea-0606-4282-9282-729a1b21dcb0","system_id":"levelo_inurba_marseille","lat":43.330442,"lon":5.389148,"is_reserved":false,"is_disabled":false,"rental_uris":{"android":"levelo://app?vid=db9ac6ea-0606-4282-9282-729a1b21dcb0","ios":"levelo://app?vid=db9ac6ea-0606-4282-9282-729a1b21dcb0"},"vehicle_type_id":"4","last_reported":1721509625,"current_range_meters":12400,"station_id":"ce4bhr92rcd13ifvqhrg","pricing_plan_id":"cebpf4jnsgd1na2vs0mg"},{"bike_id":"0f73cc82-d6a9-4169-84d9-234798d4b67d","system_id":"levelo_inurba_marseille","lat":43.33023,"lon":5.390453,"is_reserved":false,"is_disabled":false,"rental_uris":{"android":"levelo://app?vid=0f73cc82-d6a9-4169-84d9-234798d4b67d","ios":"levelo://app?vid=0f73cc82-d6a9-4169-84d9-234798d4b67d"},"vehicle_type_id":"4","last_reported":1721509625,"current_range_meters":1200,"station_id":"ce4bhr92rcd13ifvqhrg","pricing_plan_id":"cebpf4jnsgd1na2vs0mg"},{"bike_id":"7aa25998-f318-486d-a0d5-65eacf05afe0","system_id":"levelo_inurba_marseille","lat":43.290094,"lon":5.381264,"is_reserved":false,"is_disabled":false,"rental_uris":{"android":"levelo://app?vid=7aa25998-f318-486d-a0d5-65eacf05afe0","ios":"levelo://app?vid=7aa25998-f318-486d-a0d5-65eacf05afe0"},"vehicle_type_id":"4","last_reported":1721509625,"current_range_meters":14000,"station_id":"ce4bh4p2rcd13ifvqe1g","pricing_plan_id":"cebpf4jnsgd1na2vs0mg"},{"bike_id":"e5c315a7-48cf-4162-99a2-546e8cf55047","system_id":"levelo_inurba_marseille","lat":43.2901,"lon":5.381269,"is_reserved":false,"is_disabled":false,"rental_uris":{"android":"levelo://app?vid=e5c315a7-48cf-4162-99a2-546e8cf55047","ios":"levelo://app?vid=e5c315a7-48cf-4162-99a2-546e8cf55047"},"vehicle_type_id":"4","last_reported":1721509625,"current_range_meters":8800,"station_id":"ce4bh4p2rcd13ifvqe1g","pricing_plan_id":"cebpf4jnsgd1na2vs0mg"},{"bike_id":"bbe64d27-c0b3-42c0-9f4f-63e38ba8ccff","system_id":"levelo_inurba_marseille","lat":43.290094,"lon":5.381264,"is_reserved":false,"is_disabled":false,"rental_uris":{"android":"levelo://app?vid=bbe64d27-c0b3-42c0-9f4f-63e38ba8ccff","ios":"levelo://app?vid=bbe64d27-c0b3-42c0-9f4f-63e38ba8ccff"},"vehicle_type_id":"4","last_reported":1721509625,"current_range_meters":0,"station_id":"ce4bh4p2rcd13ifvqe1g","pricing_plan_id":"cebpf4jnsgd1na2vs0mg"},{"bike_id":"d1b3d308-6ac5-4cea-b2bb-436919614bfc","system_id":"levelo_inurba_marseille","lat":43.290094,"lon":5.381264,"is_reserved":false,"is_disabled":false,"rental_uris":{"android":"levelo://app?vid=d1b3d308-6ac5-4cea-b2bb-436919614bfc","ios":"levelo://app?vid=d1b3d308-6ac5-4cea-b2bb-436919614bfc"},"vehicle_type_id":"4","last_reported":1721509625,"current_range_meters":18800,"station_id":"ce4bh4p2rcd13ifvqe1g","pricing_plan_id":"cebpf4jnsgd1na2vs0mg"},{"bike_id":"66ee0b69-459d-4b2b-9794-3fc6732e08f6","system_id":"levelo_inurba_marseille","lat":43.2901,"lon":5.381269,"is_reserved":false,"is_disabled":false,"rental_uris":{"android":"levelo://app?vid=66ee0b69-459d-4b2b-9794-3fc6732e08f6","ios":"levelo://app?vid=66ee0b69-459d-4b2b-9794-3fc6732e08f6"},"vehicle_type_id":"4","last_reported":1721509625,"current_range_meters":22400,"station_id":"ce4bh4p2rcd13ifvqe1g","pricing_plan_id":"cebpf4jnsgd1na2vs0mg"},{"bike_id":"0b7456e2-5562-4dfd-a7a3-c756237822ee","system_id":"levelo_inurba_marseille","lat":43.290094,"lon":5.381264,"is_reserved":false,"is_disabled":false,"rental_uris":{"android":"levelo://app?vid=0b7456e2-5562-4dfd-a7a3-c756237822ee","ios":"levelo://app?vid=0b7456e2-5562-4dfd-a7a3-c756237822ee"},"vehicle_type_id":"4","last_reported":1721509625,"current_range_meters":5600,"station_id":"ce4bh4p2rcd13ifvqe1g","pricing_plan_id":"cebpf4jnsgd1na2vs0mg"},{"bike_id":"a38e5ebe-5f35-42c0-8e3f-d936e6af3c68","system_id":"levelo_inurba_marseille","lat":43.312609,"lon":5.401662,"is_reserved":false,"is_disabled":false,"rental_uris":{"android":"levelo://app?vid=a38e5ebe-5f35-42c0-8e3f-d936e6af3c68","ios":"levelo://app?vid=a38e5ebe-5f35-42c0-8e3f-d936e6af3c68"},"vehicle_type_id":"4","last_reported":1721509625,"current_range_meters":12400,"station_id":"ce4bh092rcd13ifvqd30","pricing_plan_id":"cebpf4jnsgd1na2vs0mg"},{"bike_id":"9458a255-a47a-41f1-849e-755dc4612ffe","system_id":"levelo_inurba_marseille","lat":43.337459,"lon":5.374522,"is_reserved":false,"is_disabled":false,"rental_uris":{"android":"levelo://app?vid=9458a255-a47a-41f1-849e-755dc4612ffe","ios":"levelo://app?vid=9458a255-a47a-41f1-849e-755dc4612ffe"},"vehicle_type_id":"4","last_reported":1721509625,"current_range_meters":20400,"station_id":"","pricing_plan_id":"cebpf4jnsgd1na2vs0mg"},{"bike_id":"8c4ed729-f159-4178-9c24-ecf948d2b598","system_id":"levelo_inurba_marseille","lat":43.30937,"lon":5.40146,"is_reserved":false,"is_disabled":false,"rental_uris":{"android":"levelo://app?vid=8c4ed729-f159-4178-9c24-ecf948d2b598","ios":"levelo://app?vid=8c4ed729-f159-4178-9c24-ecf948d2b598"},"vehicle_type_id":"4","last_reported":1721509625,"current_range_meters":0,"station_id":"ce4bgvp2rcd13ifvqct0","pricing_plan_id":"cebpf4jnsgd1na2vs0mg"},{"bike_id":"da1ef795-4411-4787-a704-e9710fe27f7e","system_id":"levelo_inurba_marseille","lat":43.337472,"lon":5.374599,"is_reserved":false,"is_disabled":false,"rental_uris":{"android":"levelo://app?vid=da1ef795-4411-4787-a704-e9710fe27f7e","ios":"levelo://app?vid=da1ef795-4411-4787-a704-e9710fe27f7e"},"vehicle_type_id":"4","last_reported":1721509625,"current_range_meters":21600,"station_id":"","pricing_plan_id":"cebpf4jnsgd1na2vs0mg"},{"bike_id":"0ad3db73-21e8-41b5-aad3-7f410c37748d","system_id":"levelo_inurba_marseille","lat":43.33754,"lon":5.37454,"is_reserved":false,"is_disabled":false,"rental_uris":{"android":"levelo://app?vid=0ad3db73-21e8-41b5-aad3-7f410c37748d","ios":"levelo://app?vid=0ad3db73-21e8-41b5-aad3-7f410c37748d"},"vehicle_type_id":"4","last_reported":1721509625,"current_range_meters":12800,"station_id":"","pricing_plan_id":"cebpf4jnsgd1na2vs0mg"},{"bike_id":"9fd23b8b-c7c3-4b5a-b11d-8284b8e4dfa2","system_id":"levelo_inurba_marseille","lat":43.337578,"lon":5.374428,"is_reserved":false,"is_disabled":false,"rental_uris":{"android":"levelo://app?vid=9fd23b8b-c7c3-4b5a-b11d-8284b8e4dfa2","ios":"levelo://app?vid=9fd23b8b-c7c3-4b5a-b11d-8284b8e4dfa2"},"vehicle_type_id":"4","last_reported":1721509625,"current_range_meters":25200,"station_id":"","pricing_plan_id":"cebpf4jnsgd1na2vs0mg"},{"bike_id":"072629c3-6d0f-4a59-a5af-80ebe0873b7d","system_id":"levelo_inurba_marseille","lat":43.309371,"lon":5.401449,"is_reserved":false,"is_disabled":false,"rental_uris":{"android":"levelo://app?vid=072629c3-6d0f-4a59-a5af-80ebe0873b7d","ios":"levelo://app?vid=072629c3-6d0f-4a59-a5af-80ebe0873b7d"},"vehicle_type_id":"4","last_reported":1721509625,"current_range_meters":31200,"station_id":"ce4bgvp2rcd13ifvqct0","pricing_plan_id":"cebpf4jnsgd1na2vs0mg"},{"bike_id":"d0723523-f35a-472e-b198-a5153fc33bb6","system_id":"levelo_inurba_marseille","lat":43.337587,"lon":5.37479,"is_reserved":false,"is_disabled":false,"rental_uris":{"android":"levelo://app?vid=d0723523-f35a-472e-b198-a5153fc33bb6","ios":"levelo://app?vid=d0723523-f35a-472e-b198-a5153fc33bb6"},"vehicle_type_id":"4","last_reported":1721509625,"current_range_meters":20800,"station_id":"","pricing_plan_id":"cebpf4jnsgd1na2vs0mg"},{"bike_id":"ac377a63-6a02-42fa-8a70-d5bb9b7546c9","system_id":"levelo_inurba_marseille","lat":43.337678,"lon":5.374375,"is_reserved":false,"is_disabled":false,"rental_uris":{"android":"levelo://app?vid=ac377a63-6a02-42fa-8a70-d5bb9b7546c9","ios":"levelo://app?vid=ac377a63-6a02-42fa-8a70-d5bb9b7546c9"},"vehicle_type_id":"4","last_reported":1721509625,"current_range_meters":19600,"station_id":"","pricing_plan_id":"cebpf4jnsgd1na2vs0mg"},{"bike_id":"60cbad40-7d1d-4ced-8939-fd0adaa7074b","system_id":"levelo_inurba_marseille","lat":43.301456,"lon":5.398714,"is_reserved":false,"is_disabled":false,"rental_uris":{"android":"levelo://app?vid=60cbad40-7d1d-4ced-8939-fd0adaa7074b","ios":"levelo://app?vid=60cbad40-7d1d-4ced-8939-fd0adaa7074b"},"vehicle_type_id":"4","last_reported":1721509625,"current_range_meters":0,"station_id":"ce4bh0h2rcd13ifvqd40","pricing_plan_id":"cebpf4jnsgd1na2vs0mg"},{"bike_id":"98eba859-a08e-4d0b-be2f-d00f21e1f962","system_id":"levelo_inurba_marseille","lat":43.286961,"lon":5.373785,"is_reserved":false,"is_disabled":false,"rental_uris":{"android":"levelo://app?vid=98eba859-a08e-4d0b-be2f-d00f21e1f962","ios":"levelo://app?vid=98eba859-a08e-4d0b-be2f-d00f21e1f962"},"vehicle_type_id":"4","last_reported":1721509625,"current_range_meters":12400,"station_id":"ce4bh3p2rcd13ifvqdq0","pricing_plan_id":"cebpf4jnsgd1na2vs0mg"},{"bike_id":"903bc8c7-dc43-4105-b44d-ef7478d885dd","system_id":"levelo_inurba_marseille","lat":43.286593,"lon":5.363346,"is_reserved":false,"is_disabled":false,"rental_uris":{"android":"levelo://app?vid=903bc8c7-dc43-4105-b44d-ef7478d885dd","ios":"levelo://app?vid=903bc8c7-dc43-4105-b44d-ef7478d885dd"},"vehicle_type_id":"4","last_reported":1721509625,"current_range_meters":28400,"station_id":"ce4bhah2rcd13ifvqej0","pricing_plan_id":"cebpf4jnsgd1na2vs0mg"},{"bike_id":"39aeca70-c8fa-46d1-b592-41dfc98adf8c","system_id":"levelo_inurba_marseille","lat":43.298681,"lon":5.397225,"is_reserved":false,"is_disabled":false,"rental_uris":{"android":"levelo://app?vid=39aeca70-c8fa-46d1-b592-41dfc98adf8c","ios":"levelo://app?vid=39aeca70-c8fa-46d1-b592-41dfc98adf8c"},"vehicle_type_id":"4","last_reported":1721509625,"current_range_meters":3200,"station_id":"ce4bh0h2rcd13ifvqd50","pricing_plan_id":"cebpf4jnsgd1na2vs0mg"},{"bike_id":"058a3c4a-a8b1-4863-ba8c-3d12bf097eee","system_id":"levelo_inurba_marseille","lat":43.30254,"lon":5.40053,"is_reserved":false,"is_disabled":false,"rental_uris":{"android":"levelo://app?vid=058a3c4a-a8b1-4863-ba8c-3d12bf097eee","ios":"levelo://app?vid=058a3c4a-a8b1-4863-ba8c-3d12bf097eee"},"vehicle_type_id":"4","last_reported":1721509625,"current_range_meters":6400,"station_id":"ce4bgvh2rcd13ifvqcs0","pricing_plan_id":"cebpf4jnsgd1na2vs0mg"},{"bike_id":"a8cb3bc8-804e-4f72-8d96-3c83c46cb078","system_id":"levelo_inurba_marseille","lat":43.32608,"lon":5.3984,"is_reserved":false,"is_disabled":false,"rental_uris":{"android":"levelo://app?vid=a8cb3bc8-804e-4f72-8d96-3c83c46cb078","ios":"levelo://app?vid=a8cb3bc8-804e-4f72-8d96-3c83c46cb078"},"vehicle_type_id":"4","last_reported":1721509625,"current_range_meters":28000,"station_id":"","pricing_plan_id":"cebpf4jnsgd1na2vs0mg"},{"bike_id":"58f3d8da-9137-44f6-bb7e-a1b787f37c51","system_id":"levelo_inurba_marseille","lat":43.302759,"lon":5.400793,"is_reserved":false,"is_disabled":false,"rental_uris":{"android":"levelo://app?vid=58f3d8da-9137-44f6-bb7e-a1b787f37c51","ios":"levelo://app?vid=58f3d8da-9137-44f6-bb7e-a1b787f37c51"},"vehicle_type_id":"4","last_reported":1721509625,"current_range_meters":2400,"station_id":"ce4bgvh2rcd13ifvqcs0","pricing_plan_id":"cebpf4jnsgd1na2vs0mg"},{"bike_id":"d5af378e-ecc6-454d-9b5e-7a65ce714650","system_id":"levelo_inurba_marseille","lat":43.302759,"lon":5.400793,"is_reserved":false,"is_disabled":false,"rental_uris":{"android":"levelo://app?vid=d5af378e-ecc6-454d-9b5e-7a65ce714650","ios":"levelo://app?vid=d5af378e-ecc6-454d-9b5e-7a65ce714650"},"vehicle_type_id":"4","last_reported":1721509625,"current_range_meters":27200,"station_id":"ce4bgvh2rcd13ifvqcs0","pricing_plan_id":"cebpf4jnsgd1na2vs0mg"},{"bike_id":"c962f2fb-de24-4eb9-a335-a6d6135aee80","system_id":"levelo_inurba_marseille","lat":43.290288,"lon":5.386435,"is_reserved":false,"is_disabled":false,"rental_uris":{"android":"levelo://app?vid=c962f2fb-de24-4eb9-a335-a6d6135aee80","ios":"levelo://app?vid=c962f2fb-de24-4eb9-a335-a6d6135aee80"},"vehicle_type_id":"4","last_reported":1721509625,"current_range_meters":0,"station_id":"ce4bh4p2rcd13ifvqe0g","pricing_plan_id":"cebpf4jnsgd1na2vs0mg"},{"bike_id":"9b4d3593-ac77-4213-b7a2-2023264cfd31","system_id":"levelo_inurba_marseille","lat":43.29028,"lon":5.38642,"is_reserved":false,"is_disabled":false,"rental_uris":{"android":"levelo://app?vid=9b4d3593-ac77-4213-b7a2-2023264cfd31","ios":"levelo://app?vid=9b4d3593-ac77-4213-b7a2-2023264cfd31"},"vehicle_type_id":"4","last_reported":1721509625,"current_range_meters":0,"station_id":"ce4bh4p2rcd13ifvqe0g","pricing_plan_id":"cebpf4jnsgd1na2vs0mg"},{"bike_id":"acbb1547-031d-4a3f-adcb-cb147ab46a0f","system_id":"levelo_inurba_marseille","lat":43.30255,"lon":5.40065,"is_reserved":false,"is_disabled":false,"rental_uris":{"android":"levelo://app?vid=acbb1547-031d-4a3f-adcb-cb147ab46a0f","ios":"levelo://app?vid=acbb1547-031d-4a3f-adcb-cb147ab46a0f"},"vehicle_type_id":"4","last_reported":1721509625,"current_range_meters":4800,"station_id":"ce4bgvh2rcd13ifvqcs0","pricing_plan_id":"cebpf4jnsgd1na2vs0mg"},{"bike_id":"4c6483d3-9ec9-4565-b114-6132c39416ed","system_id":"levelo_inurba_marseille","lat":43.302759,"lon":5.400793,"is_reserved":false,"is_disabled":false,"rental_uris":{"android":"levelo://app?vid=4c6483d3-9ec9-4565-b114-6132c39416ed","ios":"levelo://app?vid=4c6483d3-9ec9-4565-b114-6132c39416ed"},"vehicle_type_id":"4","last_reported":1721509625,"current_range_meters":0,"station_id":"ce4bgvh2rcd13ifvqcs0","pricing_plan_id":"cebpf4jnsgd1na2vs0mg"},{"bike_id":"831b4299-3f9b-439e-8c6a-32efaf7e2517","system_id":"levelo_inurba_marseille","lat":43.30254,"lon":5.40068,"is_reserved":false,"is_disabled":false,"rental_uris":{"android":"levelo://app?vid=831b4299-3f9b-439e-8c6a-32efaf7e2517","ios":"levelo://app?vid=831b4299-3f9b-439e-8c6a-32efaf7e2517"},"vehicle_type_id":"4","last_reported":1721509625,"current_range_meters":0,"station_id":"ce4bgvh2rcd13ifvqcs0","pricing_plan_id":"cebpf4jnsgd1na2vs0mg"},{"bike_id":"1e6edadf-b4d5-4eeb-87b0-d4c663b6a684","system_id":"levelo_inurba_marseille","lat":43.302759,"lon":5.400793,"is_reserved":false,"is_disabled":false,"rental_uris":{"android":"levelo://app?vid=1e6edadf-b4d5-4eeb-87b0-d4c663b6a684","ios":"levelo://app?vid=1e6edadf-b4d5-4eeb-87b0-d4c663b6a684"},"vehicle_type_id":"4","last_reported":1721509625,"current_range_meters":30400,"station_id":"ce4bgvh2rcd13ifvqcs0","pricing_plan_id":"cebpf4jnsgd1na2vs0mg"},{"bike_id":"49c24465-9548-4d09-81fc-17ad1253d86a","system_id":"levelo_inurba_marseille","lat":43.302759,"lon":5.400793,"is_reserved":false,"is_disabled":false,"rental_uris":{"android":"levelo://app?vid=49c24465-9548-4d09-81fc-17ad1253d86a","ios":"levelo://app?vid=49c24465-9548-4d09-81fc-17ad1253d86a"},"vehicle_type_id":"4","last_reported":1721509625,"current_range_meters":30800,"station_id":"ce4bgvh2rcd13ifvqcs0","pricing_plan_id":"cebpf4jnsgd1na2vs0mg"},{"bike_id":"030d957d-5f00-4680-a647-9a10c7582e38","system_id":"levelo_inurba_marseille","lat":43.290336,"lon":5.386425,"is_reserved":false,"is_disabled":false,"rental_uris":{"android":"levelo://app?vid=030d957d-5f00-4680-a647-9a10c7582e38","ios":"levelo://app?vid=030d957d-5f00-4680-a647-9a10c7582e38"},"vehicle_type_id":"4","last_reported":1721509625,"current_range_meters":2800,"station_id":"ce4bh4p2rcd13ifvqe0g","pricing_plan_id":"cebpf4jnsgd1na2vs0mg"},{"bike_id":"a35fc465-5ef0-44d8-b669-b77d12a807c7","system_id":"levelo_inurba_marseille","lat":43.290336,"lon":5.386425,"is_reserved":false,"is_disabled":false,"rental_uris":{"android":"levelo://app?vid=a35fc465-5ef0-44d8-b669-b77d12a807c7","ios":"levelo://app?vid=a35fc465-5ef0-44d8-b669-b77d12a807c7"},"vehicle_type_id":"4","last_reported":1721509625,"current_range_meters":28400,"station_id":"ce4bh4p2rcd13ifvqe0g","pricing_plan_id":"cebpf4jnsgd1na2vs0mg"},{"bike_id":"bf5fc113-ce5e-4238-8f17-02baa235d6c0","system_id":"levelo_inurba_marseille","lat":43.302759,"lon":5.400793,"is_reserved":false,"is_disabled":false,"rental_uris":{"android":"levelo://app?vid=bf5fc113-ce5e-4238-8f17-02baa235d6c0","ios":"levelo://app?vid=bf5fc113-ce5e-4238-8f17-02baa235d6c0"},"vehicle_type_id":"4","last_reported":1721509625,"current_range_meters":21600,"station_id":"ce4bgvh2rcd13ifvqcs0","pricing_plan_id":"cebpf4jnsgd1na2vs0mg"},{"bike_id":"48b40437-9176-4062-b60a-a7c5de3c2e17","system_id":"levelo_inurba_marseille","lat":43.290336,"lon":5.386425,"is_reserved":false,"is_disabled":false,"rental_uris":{"android":"levelo://app?vid=48b40437-9176-4062-b60a-a7c5de3c2e17","ios":"levelo://app?vid=48b40437-9176-4062-b60a-a7c5de3c2e17"},"vehicle_type_id":"4","last_reported":1721509625,"current_range_meters":24000,"station_id":"ce4bh4p2rcd13ifvqe0g","pricing_plan_id":"cebpf4jnsgd1na2vs0mg"},{"bike_id":"6175abc4-c269-4367-af2a-3aa1a130634e","system_id":"levelo_inurba_marseille","lat":43.28608,"lon":5.37063,"is_reserved":false,"is_disabled":false,"rental_uris":{"android":"levelo://app?vid=6175abc4-c269-4367-af2a-3aa1a130634e","ios":"levelo://app?vid=6175abc4-c269-4367-af2a-3aa1a130634e"},"vehicle_type_id":"4","last_reported":1721509625,"current_range_meters":0,"station_id":"ce4bht12rcd13ifvqi60","pricing_plan_id":"cebpf4jnsgd1na2vs0mg"},{"bike_id":"302b7b43-b5d2-4e27-b668-cdd4575e2d9c","system_id":"levelo_inurba_marseille","lat":43.287184,"lon":5.37937,"is_reserved":false,"is_disabled":false,"rental_uris":{"android":"levelo://app?vid=302b7b43-b5d2-4e27-b668-cdd4575e2d9c","ios":"levelo://app?vid=302b7b43-b5d2-4e27-b668-cdd4575e2d9c"},"vehicle_type_id":"4","last_reported":1721509625,"current_range_meters":20400,"station_id":"ce4bh9p2rcd13ifvqec0","pricing_plan_id":"cebpf4jnsgd1na2vs0mg"},{"bike_id":"16514b08-e23a-4583-95c2-995ba1a620f0","system_id":"levelo_inurba_marseille","lat":43.288497,"lon":5.393089,"is_reserved":false,"is_disabled":false,"rental_uris":{"android":"levelo://app?vid=16514b08-e23a-4583-95c2-995ba1a620f0","ios":"levelo://app?vid=16514b08-e23a-4583-95c2-995ba1a620f0"},"vehicle_type_id":"4","last_reported":1721509625,"current_range_meters":5200,"station_id":"ce4bh2p2rcd13ifvqdi0","pricing_plan_id":"cebpf4jnsgd1na2vs0mg"},{"bike_id":"38d2ebcd-4c91-4e17-8c0c-f729e90bd5c9","system_id":"levelo_inurba_marseille","lat":43.316828,"lon":5.404723,"is_reserved":false,"is_disabled":false,"rental_uris":{"android":"levelo://app?vid=38d2ebcd-4c91-4e17-8c0c-f729e90bd5c9","ios":"levelo://app?vid=38d2ebcd-4c91-4e17-8c0c-f729e90bd5c9"},"vehicle_type_id":"4","last_reported":1721509625,"current_range_meters":17600,"station_id":"ce4bh012rcd13ifvqd00","pricing_plan_id":"cebpf4jnsgd1na2vs0mg"},{"bike_id":"e12cfbc4-b118-4b2e-9ee6-c73a056023b6","system_id":"levelo_inurba_marseille","lat":43.316821,"lon":5.404737,"is_reserved":false,"is_disabled":false,"rental_uris":{"android":"levelo://app?vid=e12cfbc4-b118-4b2e-9ee6-c73a056023b6","ios":"levelo://app?vid=e12cfbc4-b118-4b2e-9ee6-c73a056023b6"},"vehicle_type_id":"4","last_reported":1721509625,"current_range_meters":15600,"station_id":"ce4bh012rcd13ifvqd00","pricing_plan_id":"cebpf4jnsgd1na2vs0mg"},{"bike_id":"1c915f9d-aced-41e5-b907-e89469c0b4c3","system_id":"levelo_inurba_marseille","lat":43.291994,"lon":5.392907,"is_reserved":false,"is_disabled":false,"rental_uris":{"android":"levelo://app?vid=1c915f9d-aced-41e5-b907-e89469c0b4c3","ios":"levelo://app?vid=1c915f9d-aced-41e5-b907-e89469c0b4c3"},"vehicle_type_id":"4","last_reported":1721509625,"current_range_meters":4400,"station_id":"ce4bh192rcd13ifvqdd0","pricing_plan_id":"cebpf4jnsgd1na2vs0mg"},{"bike_id":"3ad47dd2-fed4-48c7-8c1d-bac8ab24bc44","system_id":"levelo_inurba_marseille","lat":43.291994,"lon":5.392907,"is_reserved":false,"is_disabled":false,"rental_uris":{"android":"levelo://app?vid=3ad47dd2-fed4-48c7-8c1d-bac8ab24bc44","ios":"levelo://app?vid=3ad47dd2-fed4-48c7-8c1d-bac8ab24bc44"},"vehicle_type_id":"4","last_reported":1721509625,"current_range_meters":3600,"station_id":"ce4bh192rcd13ifvqdd0","pricing_plan_id":"cebpf4jnsgd1na2vs0mg"},{"bike_id":"22366666-50ea-421e-8bcf-640f8946436a","system_id":"levelo_inurba_marseille","lat":43.291994,"lon":5.392907,"is_reserved":false,"is_disabled":false,"rental_uris":{"android":"levelo://app?vid=22366666-50ea-421e-8bcf-640f8946436a","ios":"levelo://app?vid=22366666-50ea-421e-8bcf-640f8946436a"},"vehicle_type_id":"4","last_reported":1721509625,"current_range_meters":6000,"station_id":"ce4bh192rcd13ifvqdd0","pricing_plan_id":"cebpf4jnsgd1na2vs0mg"},{"bike_id":"7f20d148-79b3-452e-9520-a6849bd092fb","system_id":"levelo_inurba_marseille","lat":43.291994,"lon":5.392907,"is_reserved":false,"is_disabled":false,"rental_uris":{"android":"levelo://app?vid=7f20d148-79b3-452e-9520-a6849bd092fb","ios":"levelo://app?vid=7f20d148-79b3-452e-9520-a6849bd092fb"},"vehicle_type_id":"4","last_reported":1721509625,"current_range_meters":4400,"station_id":"ce4bh192rcd13ifvqdd0","pricing_plan_id":"cebpf4jnsgd1na2vs0mg"},{"bike_id":"2b09f276-1e06-4228-ae93-7b289ca8870c","system_id":"levelo_inurba_marseille","lat":43.284538,"lon":5.358657,"is_reserved":false,"is_disabled":false,"rental_uris":{"android":"levelo://app?vid=2b09f276-1e06-4228-ae93-7b289ca8870c","ios":"levelo://app?vid=2b09f276-1e06-4228-ae93-7b289ca8870c"},"vehicle_type_id":"4","last_reported":1721509625,"current_range_meters":800,"station_id":"ce4bhah2rcd13ifvqei0","pricing_plan_id":"cebpf4jnsgd1na2vs0mg"},{"bike_id":"dd7e2d3a-2a8d-43c1-ad4b-1aa31d11ef9e","system_id":"levelo_inurba_marseille","lat":43.294314,"lon":5.397498,"is_reserved":false,"is_disabled":false,"rental_uris":{"android":"levelo://app?vid=dd7e2d3a-2a8d-43c1-ad4b-1aa31d11ef9e","ios":"levelo://app?vid=dd7e2d3a-2a8d-43c1-ad4b-1aa31d11ef9e"},"vehicle_type_id":"4","last_reported":1721509625,"current_range_meters":10800,"station_id":"ce4bh3h2rcd13ifvqdo0","pricing_plan_id":"cebpf4jnsgd1na2vs0mg"},{"bike_id":"fd744ff0-ef43-4221-9370-0e841929b549","system_id":"levelo_inurba_marseille","lat":43.294314,"lon":5.397498,"is_reserved":false,"is_disabled":false,"rental_uris":{"android":"levelo://app?vid=fd744ff0-ef43-4221-9370-0e841929b549","ios":"levelo://app?vid=fd744ff0-ef43-4221-9370-0e841929b549"},"vehicle_type_id":"4","last_reported":1721509625,"current_range_meters":27200,"station_id":"ce4bh3h2rcd13ifvqdo0","pricing_plan_id":"cebpf4jnsgd1na2vs0mg"},{"bike_id":"982705c8-434b-4984-840a-d1e0da4b6124","system_id":"levelo_inurba_marseille","lat":43.300023,"lon":5.402668,"is_reserved":false,"is_disabled":false,"rental_uris":{"android":"levelo://app?vid=982705c8-434b-4984-840a-d1e0da4b6124","ios":"levelo://app?vid=982705c8-434b-4984-840a-d1e0da4b6124"},"vehicle_type_id":"4","last_reported":1721509625,"current_range_meters":14800,"station_id":"","pricing_plan_id":"cebpf4jnsgd1na2vs0mg"},