{"last_updated":1732352900,"ttl":60,"version":"2.2","data":{"bikes":[{"bike_id":"1ac50ca9-5dc0-4399-ab45-e7d2260cba9c","system_id":"levelo_inurba_marseille","lat":43.29792,"lon":5.38132,"is_reserved":false,"is_disabled":false,"rental_uris":{"android":"levelo://app?vid=1ac50ca9-5dc0-4399-ab45-e7d2260cba9c","ios":"levelo://app?vid=1ac50ca9-5dc0-4399-ab45-e7d2260cba9c"},"vehicle_type_id":"4","last_reported":1732352900,"current_range_meters":33200,"station_id":"ce4bgip2rcd13ifvqbb0","pricing_plan_id":"cebpf4jnsgd1na2vs0mg"},{"bike_id":"e23b6c4c-d27e-407e-a72b-e3ea9129fcf8","system_id":"levelo_inurba_marseille","lat":43.32363,"lon":5.38877,"is_reserved":false,"is_disabled":false,"rental_uris":{"android":"levelo://app?vid=e23b6c4c-d27e-407e-a72b-e3ea9129fcf8","ios":"levelo://app?vid=e23b6c4c-d27e-407e-a72b-e3ea9129fcf8"},"vehicle_type_id":"4","last_reported":1732352900,"current_range_meters":27200,"station_id":"ce4bhqp2rcd13ifvqhog","pricing_plan_id":"cebpf4jnsgd1na2vs0mg"},{"bike_id":"7149e19c-0e51-4fb3-be72-219430288b9a","system_id":"levelo_inurba_marseille","lat":43.24385,"lon":5.37055,"is_reserved":false,"is_disabled":false,"rental_uris":{"android":"levelo://app?vid=7149e19c-0e51-4fb3-be72-219430288b9a","ios":"levelo://app?vid=7149e19c-0e51-4fb3-be72-219430288b9a"},"vehicle_type_id":"4","last_reported":1732352900,"current_range_meters":15200,"station_id":"ce4bhhh2rcd13ifvqfk0","pricing_plan_id":"cebpf4jnsgd1na2vs0mg"},{"bike_id":"216bffcf-1b87-4e7e-9ea8-7ffd8995fe38","system_id":"levelo_inurba_marseille","lat":43.28927,"lon":5.3841,"is_reserved":false,"is_disabled":true,"rental_uris":{"android":"levelo://app?vid=216bffcf-1b87-4e7e-9ea8-7ffd8995fe38","ios":"levelo://app?vid=216bffcf-1b87-4e7e-9ea8-7ffd8995fe38"},"vehicle_type_id":"4","last_reported":1732352900,"current_range_meters":13600,"station_id":"ce4bh612rcd13ifvqe6g","pricing_plan_id":"cebpf4jnsgd1na2vs0mg"},{"bike_id":"e888f574-cbea-4e1a-9b7a-78a72589740f","system_id":"levelo_inurba_marseille","lat":43.28943,"lon":5.39626,"is_reserved":false,"is_disabled":false,"rental_uris":{"android":"levelo://app?vid=e888f574-cbea-4e1a-9b7a-78a72589740f","ios":"levelo://app?vid=e888f574-cbea-4e1a-9b7a-78a72589740f"},"vehicle_type_id":"4","last_reported":1732352900,"current_range_meters":39200,"station_id":"ce4bh3h2rcd13ifvqdn0","pricing_plan_id":"cebpf4jnsgd1na2vs0mg"},{"bike_id":"08f392b7-fb0b-40fb-b32a-822f164ec237","system_id":"levelo_inurba_marseille","lat":43.26937,"lon":5.40243,"is_reserved":false,"is_disabled":false,"rental_uris":{"android":"levelo://app?vid=08f392b7-fb0b-40fb-b32a-822f164ec237","ios":"levelo://app?vid=08f392b7-fb0b-40fb-b32a-822f164ec237"},"vehicle_type_id":"4","last_reported":1732352900,"current_range_meters":8000,"station_id":"cjm6bp8fraef2m0cb0m0","pricing_plan_id":"cebpf4jnsgd1na2vs0mg"},{"bike_id":"762ba9bc-af5d-4321-8074-5cd729794780","system_id":"levelo_inurba_marseille","lat":43.31082,"lon":5.42429,"is_reserved":false,"is_disabled":false,"rental_uris":{"android":"levelo://app?vid=762ba9bc-af5d-4321-8074-5cd729794780","ios":"levelo://app?vid=762ba9bc-af5d-4321-8074-5cd729794780"},"vehicle_type_id":"4","last_reported":1732352900,"current_range_meters":18000,"station_id":"ce4bhp92rcd13ifvqhag","pricing_plan_id":"cebpf4jnsgd1na2vs0mg"},{"bike_id":"81cbecd7-365c-4a9c-9de6-a98cb001a78f","system_id":"levelo_inurba_marseille","lat":43.31077,"lon":5.38354,"is_reserved":false,"is_disabled":false,"rental_uris":{"android":"levelo://app?vid=81cbecd7-365c-4a9c-9de6-a98cb001a78f","ios":"levelo://app?vid=81cbecd7-365c-4a9c-9de6-a98cb001a78f"},"vehicle_type_id":"4","last_reported":1732352900,"current_range_meters":36400,"station_id":"ce4bgv92rcd13ifvqcr0","pricing_plan_id":"cebpf4jnsgd1na2vs0mg"},{"bike_id":"f161b73c-800a-452d-afd1-5f6db18abd34","system_id":"levelo_inurba_marseille","lat":43.27616,"lon":5.36115,"is_reserved":false,"is_disabled":false,"rental_uris":{"android":"levelo://app?vid=f161b73c-800a-452d-afd1-5f6db18abd34","ios":"levelo://app?vid=f161b73c-800a-452d-afd1-5f6db18abd34"},"vehicle_type_id":"4","last_reported":1732352900,"current_range_meters":12400,"station_id":"ce4bgj92rcd13ifvqbe0","pricing_plan_id":"cebpf4jnsgd1na2vs0mg"},{"bike_id":"8a121b48-1f5b-4c33-b9ca-47a97d05b778","system_id":"levelo_inurba_marseille","lat":43.324835,"lon":5.365589,"is_reserved":false,"is_disabled":false,"rental_uris":{"android":"levelo://app?vid=8a121b48-1f5b-4c33-b9ca-47a97d05b778","ios":"levelo://app?vid=8a121b48-1f5b-4c33-b9ca-47a97d05b778"},"vehicle_type_id":"4","last_reported":1732352900,"current_range_meters":10800,"station_id":"ce4bhs12rcd13ifvqhvg","pricing_plan_id":"cebpf4jnsgd1na2vs0mg"},{"bike_id":"726def48-b4d2-40c1-a18c-2ee5385fe287","system_id":"levelo_inurba_marseille","lat":43.29687,"lon":5.37301,"is_reserved":false,"is_disabled":false,"rental_uris":{"android":"levelo://app?vid=726def48-b4d2-40c1-a18c-2ee5385fe287","ios":"levelo://app?vid=726def48-b4d2-40c1-a18c-2ee5385fe287"},"vehicle_type_id":"4","last_reported":1732352900,"current_range_meters":38800,"station_id":"ce4bgk12rcd13ifvqbj0","pricing_plan_id":"cebpf4jnsgd1na2vs0mg"},{"bike_id":"11114092-3108-4d5a-be35-06e9090d2527","system_id":"levelo_inurba_marseille","lat":43.27055,"lon":5.40261,"is_reserved":false,"is_disabled":false,"rental_uris":{"android":"levelo://app?vid=11114092-3108-4d5a-be35-06e9090d2527","ios":"levelo://app?vid=11114092-3108-4d5a-be35-06e9090d2527"},"vehicle_type_id":"4","last_reported":1732352900,"current_range_meters":24400,"station_id":"ce4bhk92rcd13ifvqgc0","pricing_plan_id":"cebpf4jnsgd1na2vs0mg"},{"bike_id":"5247f402-6312-4ef7-9fa1-11a1830f043f","system_id":"levelo_inurba_marseille","lat":43.30598,"lon":5.39359,"is_reserved":false,"is_disabled":false,"rental_uris":{"android":"levelo://app?vid=5247f402-6312-4ef7-9fa1-11a1830f043f","ios":"levelo://app?vid=5247f402-6312-4ef7-9fa1-11a1830f043f"},"vehicle_type_id":"4","last_reported":1732352900,"current_range_meters":36800,"station_id":"ce4bh0p2rcd13ifvqd80","pricing_plan_id":"cebpf4jnsgd1na2vs0mg"},{"bike_id":"cc45001e-86ba-42cc-9993-ed5261abbfe0","system_id":"levelo_inurba_marseille","lat":43.32364,"lon":5.38882,"is_reserved":false,"is_disabled":false,"rental_uris":{"android":"levelo://app?vid=cc45001e-86ba-42cc-9993-ed5261abbfe0","ios":"levelo://app?vid=cc45001e-86ba-42cc-9993-ed5261abbfe0"},"vehicle_type_id":"4","last_reported":1732352900,"current_range_meters":9200,"station_id":"ce4bhqp2rcd13ifvqhog","pricing_plan_id":"cebpf4jnsgd1na2vs0mg"},{"bike_id":"169158e7-da63-45c5-8680-6e7f3f182c72","system_id":"levelo_inurba_marseille","lat":43.30097,"lon":5.3907,"is_reserved":false,"is_disabled":false,"rental_uris":{"android":"levelo://app?vid=169158e7-da63-45c5-8680-6e7f3f182c72","ios":"levelo://app?vid=169158e7-da63-45c5-8680-6e7f3f182c72"},"vehicle_type_id":"4","last_reported":1732352900,"current_range_meters":38000,"station_id":"ce4bh192rcd13ifvqdb0","pricing_plan_id":"cebpf4jnsgd1na2vs0mg"},{"bike_id":"5d39d563-1de5-4b84-8127-7326954dce5a","system_id":"levelo_inurba_marseille","lat":43.27372,"lon":5.36263,"is_reserved":false,"is_disabled":false,"rental_uris":{"android":"levelo://app?vid=5d39d563-1de5-4b84-8127-7326954dce5a","ios":"levelo://app?vid=5d39d563-1de5-4b84-8127-7326954dce5a"},"vehicle_type_id":"4","last_reported":1732352900,"current_range_meters":39200,"station_id":"ce4bhbh2rcd13ifvqeo0","pricing_plan_id":"cebpf4jnsgd1na2vs0mg"},{"bike_id":"c0755ad7-8353-40d1-98a4-bba43ca0e3ab","system_id":"levelo_inurba_marseille","lat":43.3372,"lon":5.39176,"is_reserved":false,"is_disabled":false,"rental_uris":{"android":"levelo://app?vid=c0755ad7-8353-40d1-98a4-bba43ca0e3ab","ios":"levelo://app?vid=c0755ad7-8353-40d1-98a4-bba43ca0e3ab"},"vehicle_type_id":"4","last_reported":1732352900,"current_range_meters":8000,"station_id":"ce4bhr92rcd13ifvqhsg","pricing_plan_id":"cebpf4jnsgd1na2vs0mg"},{"bike_id":"edaabcbb-a319-46a6-b7fa-afd8b9ab0018","system_id":"levelo_inurba_marseille","lat":43.29844,"lon":5.36267,"is_reserved":false,"is_disabled":false,"rental_uris":{"android":"levelo://app?vid=edaabcbb-a319-46a6-b7fa-afd8b9ab0018","ios":"levelo://app?vid=edaabcbb-a319-46a6-b7fa-afd8b9ab0018"},"vehicle_type_id":"4","last_reported":1732352900,"current_range_meters":27200,"station_id":"ce4bgpp2rcd13ifvqc3g","pricing_plan_id":"cebpf4jnsgd1na2vs0mg"},{"bike_id":"d3a939c1-c073-43b5-a24f-f191fd9ab4ab","system_id":"levelo_inurba_marseille","lat":43.26188,"lon":5.37447,"is_reserved":false,"is_disabled":false,"rental_uris":{"android":"levelo://app?vid=d3a939c1-c073-43b5-a24f-f191fd9ab4ab","ios":"levelo://app?vid=d3a939c1-c073-43b5-a24f-f191fd9ab4ab"},"vehicle_type_id":"4","last_reported":1732352900,"current_range_meters":38400,"station_id":"ce4bhgp2rcd13ifvqfc0","pricing_plan_id":"cebpf4jnsgd1na2vs0mg"},{"bike_id":"92aca063-e395-402a-a362-69eb5641c33c","system_id":"levelo_inurba_marseille","lat":43.28619,"lon":5.35105,"is_reserved":false,"is_disabled":false,"rental_uris":{"android":"levelo://app?vid=92aca063-e395-402a-a362-69eb5641c33c","ios":"levelo://app?vid=92aca063-e395-402a-a362-69eb5641c33c"},"vehicle_type_id":"4","last_reported":1732352900,"current_range_meters":6400,"station_id":"ce4bhch2rcd13ifvqeug","pricing_plan_id":"cebpf4jnsgd1na2vs0mg"},{"bike_id":"9b280c9c-fd49-45c4-951e-8b6e17f414f5","system_id":"levelo_inurba_marseille","lat":43.25867,"lon":5.39898,"is_reserved":false,"is_disabled":false,"rental_uris":{"android":"levelo://app?vid=9b280c9c-fd49-45c4-951e-8b6e17f414f5","ios":"levelo://app?vid=9b280c9c-fd49-45c4-951e-8b6e17f414f5"},"vehicle_type_id":"4","last_reported":1732352900,"current_range_meters":38800,"station_id":"ce4bhl92rcd13ifvqghg","pricing_plan_id":"cebpf4jnsgd1na2vs0mg"},{"bike_id":"561692a1-369c-4ac8-a04a-5193554f2e90","system_id":"levelo_inurba_marseille","lat":43.32112,"lon":5.36774,"is_reserved":false,"is_disabled":false,"rental_uris":{"android":"levelo://app?vid=561692a1-369c-4ac8-a04a-5193554f2e90","ios":"levelo://app?vid=561692a1-369c-4ac8-a04a-5193554f2e90"},"vehicle_type_id":"4","last_reported":1732352900,"current_range_meters":26800,"station_id":"ce4bhrh2rcd13ifvqhug","pricing_plan_id":"cebpf4jnsgd1na2vs0mg"},{"bike_id":"a3dfa29f-d880-4cbe-b909-b4e217158e03","system_id":"levelo_inurba_marseille","lat":43.27166,"lon":5.40998,"is_reserved":false,"is_disabled":false,"rental_uris":{"android":"levelo://app?vid=a3dfa29f-d880-4cbe-b909-b4e217158e03","ios":"levelo://app?vid=a3dfa29f-d880-4cbe-b909-b4e217158e03"},"vehicle_type_id":"4","last_reported":1732352900,"current_range_meters":35600,"station_id":"ce4bhl12rcd13ifvqgf0","pricing_plan_id":"cebpf4jnsgd1na2vs0mg"},{"bike_id":"d2321b4c-ae3a-4b43-8bcd-12cb7984481d","system_id":"levelo_inurba_marseille","lat":43.30743,"lon":5.3703,"is_reserved":false,"is_disabled":true,"rental_uris":{"android":"levelo://app?vid=d2321b4c-ae3a-4b43-8bcd-12cb7984481d","ios":"levelo://app?vid=d2321b4c-ae3a-4b43-8bcd-12cb7984481d"},"vehicle_type_id":"4","last_reported":1732352900,"current_range_meters":11600,"station_id":"","pricing_plan_id":"cebpf4jnsgd1na2vs0mg"},{"bike_id":"27d8d3ee-c64d-40a8-8b39-f1a8f00306c8","system_id":"levelo_inurba_marseille","lat":43.26197,"lon":5.37931,"is_reserved":false,"is_disabled":false,"rental_uris":{"android":"levelo://app?vid=27d8d3ee-c64d-40a8-8b39-f1a8f00306c8","ios":"levelo://app?vid=27d8d3ee-c64d-40a8-8b39-f1a8f00306c8"},"vehicle_type_id":"4","last_reported":1732352900,"current_range_meters":26800,"station_id":"ce4bhjp2rcd13ifvqg90","pricing_plan_id":"cebpf4jnsgd1na2vs0mg"},{"bike_id":"c4816f35-2aa7-454c-adc5-a6af754e6767","system_id":"levelo_inurba_marseille","lat":43.28943,"lon":5.39628,"is_reserved":false,"is_disabled":false,"rental_uris":{"android":"levelo://app?vid=c4816f35-2aa7-454c-adc5-a6af754e6767","ios":"levelo://app?vid=c4816f35-2aa7-454c-adc5-a6af754e6767"},"vehicle_type_id":"4","last_reported":1732352900,"current_range_meters":36000,"station_id":"ce4bh3h2rcd13ifvqdn0","pricing_plan_id":"cebpf4jnsgd1na2vs0mg"},{"bike_id":"c6c7bbf3-8b84-4684-bfed-6d8fdbcd89dc","system_id":"levelo_inurba_marseille","lat":43.30352,"lon":5.41881,"is_reserved":false,"is_disabled":false,"rental_uris":{"android":"levelo://app?vid=c6c7bbf3-8b84-4684-bfed-6d8fdbcd89dc","ios":"levelo://app?vid=c6c7bbf3-8b84-4684-bfed-6d8fdbcd89dc"},"vehicle_type_id":"4","last_reported":1732352900,"current_range_meters":39200,"station_id":"ce4bhop2rcd13ifvqh7g","pricing_plan_id":"cebpf4jnsgd1na2vs0mg"},{"bike_id":"48b71b88-52ac-4070-a8e2-91183b7afa48","system_id":"levelo_inurba_marseille","lat":43.24651,"lon":5.38896,"is_reserved":false,"is_disabled":false,"rental_uris":{"android":"levelo://app?vid=48b71b88-52ac-4070-a8e2-91183b7afa48","ios":"levelo://app?vid=48b71b88-52ac-4070-a8e2-91183b7afa48"},"vehicle_type_id":"4","last_reported":1732352900,"current_range_meters":36400,"station_id":"ce4bhg12rcd13ifvqf60","pricing_plan_id":"cebpf4jnsgd1na2vs0mg"},{"bike_id":"5c3000a0-a190-4007-a723-aa2707fd1ce3","system_id":"levelo_inurba_marseille","lat":43.22937,"lon":5.35372,"is_reserved":false,"is_disabled":false,"rental_uris":{"android":"levelo://app?vid=5c3000a0-a190-4007-a723-aa2707fd1ce3","ios":"levelo://app?vid=5c3000a0-a190-4007-a723-aa2707fd1ce3"},"vehicle_type_id":"4","last_reported":1732352900,"current_range_meters":38800,"station_id":"cpo3532slgdg3j2ikp40","pricing_plan_id":"cebpf4jnsgd1na2vs0mg"},{"bike_id":"1c5fdcc2-ba84-4c46-bf38-3d224d434b52","system_id":"levelo_inurba_marseille","lat":43.32335,"lon":5.40626,"is_reserved":false,"is_disabled":false,"rental_uris":{"android":"levelo://app?vid=1c5fdcc2-ba84-4c46-bf38-3d224d434b52","ios":"levelo://app?vid=1c5fdcc2-ba84-4c46-bf38-3d224d434b52"},"vehicle_type_id":"4","last_reported":1732352900,"current_range_meters":36800,"station_id":"ce4bhq92rcd13ifvqhjg","pricing_plan_id":"cebpf4jnsgd1na2vs0mg"},{"bike_id":"bcaedae9-3b5b-4a9e-ac08-2a0b27b9aed3","system_id":"levelo_inurba_marseille","lat":43.29457,"lon":5.39739,"is_reserved":false,"is_disabled":false,"rental_uris":{"android":"levelo://app?vid=bcaedae9-3b5b-4a9e-ac08-2a0b27b9aed3","ios":"levelo://app?vid=bcaedae9-3b5b-4a9e-ac08-2a0b27b9aed3"},"vehicle_type_id":"4","last_reported":1732352900,"current_range_meters":18800,"station_id":"ce4bh3h2rcd13ifvqdo0","pricing_plan_id":"cebpf4jnsgd1na2vs0mg"},{"bike_id":"288259d5-4fc7-4571-ae2c-4d7b3615ac3d","system_id":"levelo_inurba_marseille","lat":43.27942,"lon":5.41036,"is_reserved":false,"is_disabled":false,"rental_uris":{"android":"levelo://app?vid=288259d5-4fc7-4571-ae2c-4d7b3615ac3d","ios":"levelo://app?vid=288259d5-4fc7-4571-ae2c-4d7b3615ac3d"},"vehicle_type_id":"4","last_reported":1732352900,"current_range_meters":3200,"station_id":"ce4bhnp2rcd13ifvqh0g","pricing_plan_id":"cebpf4jnsgd1na2vs0mg"},{"bike_id":"5b1e2268-6898-4762-b21b-90916d0b09cc","system_id":"levelo_inurba_marseille","lat":43.31064,"lon":5.3835,"is_reserved":false,"is_disabled":false,"rental_uris":{"android":"levelo://app?vid=5b1e2268-6898-4762-b21b-90916d0b09cc","ios":"levelo://app?vid=5b1e2268-6898-4762-b21b-90916d0b09cc"},"vehicle_type_id":"4","last_reported":1732352900,"current_range_meters":18000,"station_id":"ce4bgv92rcd13ifvqcr0","pricing_plan_id":"cebpf4jnsgd1na2vs0mg"},{"bike_id":"3f4b586a-f19b-437c-a62a-b21b76562db2","system_id":"levelo_inurba_marseille","lat":43.23181,"lon":5.39979,"is_reserved":false,"is_disabled":false,"rental_uris":{"android":"levelo://app?vid=3f4b586a-f19b-437c-a62a-b21b76562db2","ios":"levelo://app?vid=3f4b586a-f19b-437c-a62a-b21b76562db2"},"vehicle_type_id":"4","last_reported":1732352900,"current_range_meters":36800,"station_id":"ce4bhn12rcd13ifvqgqg","pricing_plan_id":"cebpf4jnsgd1na2vs0mg"},{"bike_id":"7c9c6c4e-4e7f-441c-9857-1db4a8d60fa3","system_id":"levelo_inurba_marseille","lat":43.27939,"lon":5.38009,"is_reserved":false,"is_disabled":false,"rental_uris":{"android":"levelo://app?vid=7c9c6c4e-4e7f-441c-9857-1db4a8d60fa3","ios":"levelo://app?vid=7c9c6c4e-4e7f-441c-9857-1db4a8d60fa3"},"vehicle_type_id":"4","last_reported":1732352900,"current_range_meters":39200,"station_id":"ce4bhf92rcd13ifvqf50","pricing_plan_id":"cebpf4jnsgd1na2vs0mg"},{"bike_id":"a70a93ff-1ced-4e9b-963c-8900c1d589f1","system_id":"levelo_inurba_marseille","lat":43.30536,"lon":5.36543,"is_reserved":false,"is_disabled":false,"rental_uris":{"android":"levelo://app?vid=a70a93ff-1ced-4e9b-963c-8900c1d589f1","ios":"levelo://app?vid=a70a93ff-1ced-4e9b-963c-8900c1d589f1"},"vehicle_type_id":"4","last_reported":1732352900,"current_range_meters":32400,"station_id":"ce4bgs12rcd13ifvqcag","pricing_plan_id":"cebpf4jnsgd1na2vs0mg"},{"bike_id":"ff3594ee-f948-4832-9680-599cfdacc368","system_id":"levelo_inurba_marseille","lat":43.27182,"lon":5.40989,"is_reserved":false,"is_disabled":false,"rental_uris":{"android":"levelo://app?vid=ff3594ee-f948-4832-9680-599cfdacc368","ios":"levelo://app?vid=ff3594ee-f948-4832-9680-599cfdacc368"},"vehicle_type_id":"4","last_reported":1732352900,"current_range_meters":38000,"station_id":"ce4bhl12rcd13ifvqgf0","pricing_plan_id":"cebpf4jnsgd1na2vs0mg"},{"bike_id":"e3a9b75d-349f-4334-a7dc-f6901e913324","system_id":"levelo_inurba_marseille","lat":43.30949,"lon":5.3902,"is_reserved":false,"is_disabled":false,"rental_uris":{"android":"levelo://app?vid=e3a9b75d-349f-4334-a7dc-f6901e913324","ios":"levelo://app?vid=e3a9b75d-349f-4334-a7dc-f6901e913324"},"vehicle_type_id":"4","last_reported":1732352900,"current_range_meters":3600,"station_id":"ce4bgup2rcd13ifvqco0","pricing_plan_id":"cebpf4jnsgd1na2vs0mg"},{"bike_id":"b4d16515-3c99-43bc-bea8-ba25a95ad5a3","system_id":"levelo_inurba_marseille","lat":43.29791,"lon":5.38103,"is_reserved":false,"is_disabled":false,"rental_uris":{"android":"levelo://app?vid=b4d16515-3c99-43bc-bea8-ba25a95ad5a3","ios":"levelo://app?vid=b4d16515-3c99-43bc-bea8-ba25a95ad5a3"},"vehicle_type_id":"4","last_reported":1732352900,"current_range_meters":11200,"station_id":"ce4bgip2rcd13ifvqbb0","pricing_plan_id":"cebpf4jnsgd1na2vs0mg"},{"bike_id":"db096ee3-a548-4661-a18a-686fcedc57f8","system_id":"levelo_inurba_marseille","lat":43.32619,"lon":5.41019,"is_reserved":false,"is_disabled":false,"rental_uris":{"android":"levelo://app?vid=db096ee3-a548-4661-a18a-686fcedc57f8","ios":"levelo://app?vid=db096ee3-a548-4661-a18a-686fcedc57f8"},"vehicle_type_id":"4","last_reported":1732352900,"current_range_meters":6800,"station_id":"","pricing_plan_id":"cebpf4jnsgd1na2vs0mg"},{"bike_id":"1cd0daee-d68a-4e66-9883-fbe67fd8260f","system_id":"levelo_inurba_marseille","lat":43.305794,"lon":5.370686,"is_reserved":false,"is_disabled":true,"rental_uris":{"android":"levelo://app?vid=1cd0daee-d68a-4e66-9883-fbe67fd8260f","ios":"levelo://app?vid=1cd0daee-d68a-4e66-9883-fbe67fd8260f"},"vehicle_type_id":"4","last_reported":1732352900,"current_range_meters":0,"station_id":"","pricing_plan_id":"cebpf4jnsgd1na2vs0mg"},{"bike_id":"9ac5001d-98e8-46c3-b7df-85a5944d15a1","system_id":"levelo_inurba_marseille","lat":43.29032,"lon":5.37555,"is_reserved":false,"is_disabled":false,"rental_uris":{"android":"levelo://app?vid=9ac5001d-98e8-46c3-b7df-85a5944d15a1","ios":"levelo://app?vid=9ac5001d-98e8-46c3-b7df-85a5944d15a1"},"vehicle_type_id":"4","last_reported":1732352900,"current_range_meters":22000,"station_id":"ce4bh692rcd13ifvqe90","pricing_plan_id":"cebpf4jnsgd1na2vs0mg"},{"bike_id":"13ad8f6f-5ea8-43d5-9643-e38394fa7fe9","system_id":"levelo_inurba_marseille","lat":43.25581,"lon":5.38228,"is_reserved":false,"is_disabled":false,"rental_uris":{"android":"levelo://app?vid=13ad8f6f-5ea8-43d5-9643-e38394fa7fe9","ios":"levelo://app?vid=13ad8f6f-5ea8-43d5-9643-e38394fa7fe9"},"vehicle_type_id":"4","last_reported":1732352900,"current_range_meters":9600,"station_id":"ce4bhih2rcd13ifvqfs0","pricing_plan_id":"cebpf4jnsgd1na2vs0mg"},{"bike_id":"0ddfa46a-4055-4654-8da1-794fa513a354","system_id":"levelo_inurba_marseille","lat":43.262,"lon":5.37926,"is_reserved":false,"is_disabled":false,"rental_uris":{"android":"levelo://app?vid=0ddfa46a-4055-4654-8da1-794fa513a354","ios":"levelo://app?vid=0ddfa46a-4055-4654-8da1-794fa513a354"},"vehicle_type_id":"4","last_reported":1732352900,"current_range_meters":7200,"station_id":"ce4bhjp2rcd13ifvqg90","pricing_plan_id":"cebpf4jnsgd1na2vs0mg"},{"bike_id":"959366bf-e695-42f7-9f61-1b1ed7ef4dfe","system_id":"levelo_inurba_marseille","lat":43.28617,"lon":5.35106,"is_reserved":false,"is_disabled":false,"rental_uris":{"android":"levelo://app?vid=959366bf-e695-42f7-9f61-1b1ed7ef4dfe","ios":"levelo://app?vid=959366bf-e695-42f7-9f61-1b1ed7ef4dfe"},"vehicle_type_id":"4","last_reported":1732352900,"current_range_meters":8000,"station_id":"ce4bhch2rcd13ifvqeug","pricing_plan_id":"cebpf4jnsgd1na2vs0mg"},{"bike_id":"64cf2dd0-7bad-478d-9670-2000011f3c21","system_id":"levelo_inurba_marseille","lat":43.29606,"lon":5.38105,"is_reserved":false,"is_disabled":false,"rental_uris":{"android":"levelo://app?vid=64cf2dd0-7bad-478d-9670-2000011f3c21","ios":"levelo://app?vid=64cf2dd0-7bad-478d-9670-2000011f3c21"},"vehicle_type_id":"4","last_reported":1732352900,"current_range_meters":37600,"station_id":"ce4bgl12rcd13ifvqbo0","pricing_plan_id":"cebpf4jnsgd1na2vs0mg"},{"bike_id":"e9d021a9-f81b-4245-b46b-e03c063c72d8","system_id":"levelo_inurba_marseille","lat":43.26202,"lon":5.37923,"is_reserved":false,"is_disabled":false,"rental_uris":{"android":"levelo://app?vid=e9d021a9-f81b-4245-b46b-e03c063c72d8","ios":"levelo://app?vid=e9d021a9-f81b-4245-b46b-e03c063c72d8"},"vehicle_type_id":"4","last_reported":1732352900,"current_range_meters":23200,"station_id":"ce4bhjp2rcd13ifvqg90","pricing_plan_id":"cebpf4jnsgd1na2vs0mg"},{"bike_id":"ac1b3788-b03a-4376-bf72-320fd033ea51","system_id":"levelo_inurba_marseille","lat":43.27683,"lon":5.38899,"is_reserved":false,"is_disabled":true,"rental_uris":{"android":"levelo://app?vid=ac1b3788-b03a-4376-bf72-320fd033ea51","ios":"levelo://app?vid=ac1b3788-b03a-4376-bf72-320fd033ea51"},"vehicle_type_id":"4","last_reported":1732352900,"current_range_meters":4800,"station_id":"ce4bhi12rcd13ifvqfo0","pricing_plan_id":"cebpf4jnsgd1na2vs0mg"},{"bike_id":"e2425c49-1452-4b29-a2c5-ea850be27ca6","system_id":"levelo_inurba_marseille","lat":43.29876,"lon":5.3974,"is_reserved":false,"is_disabled":false,"rental_uris":{"android":"levelo://app?vid=e2425c49-1452-4b29-a2c5-ea850be27ca6","ios":"levelo://app?vid=e2425c49-1452-4b29-a2c5-ea850be27ca6"},"vehicle_type_id":"4","last_reported":1732352900,"current_range_meters":32000,"station_id":"ce4bh0h2rcd13ifvqd50","pricing_plan_id":"cebpf4jnsgd1na2vs0mg"},{"bike_id":"c42cf5b3-1ac4-4085-8875-d04df261aee4","system_id":"levelo_inurba_marseille","lat":43.30156,"lon":5.38086,"is_reserved":false,"is_disabled":false,"rental_uris":{"android":"levelo://app?vid=c42cf5b3-1ac4-4085-8875-d04df261aee4","ios":"levelo://app?vid=c42cf5b3-1ac4-4085-8875-d04df261aee4"},"vehicle_type_id":"4","last_reported":1732352900,"current_range_meters":36400,"station_id":"ce4bgjp2rcd13ifvqbh0","pricing_plan_id":"cebpf4jnsgd1na2vs0mg"},{"bike_id":"dc0369b9-1030-481f-925d-d987608a990c","system_id":"levelo_inurba_marseille","lat":43.29846,"lon":5.36274,"is_reserved":false,"is_disabled":false,"rental_uris":{"android":"levelo://app?vid=dc0369b9-1030-481f-925d-d987608a990c","ios":"levelo://app?vid=dc0369b9-1030-481f-925d-d987608a990c"},"vehicle_type_id":"4","last_reported":1732352900,"current_range_meters":32000,"station_id":"ce4bgpp2rcd13ifvqc3g","pricing_plan_id":"cebpf4jnsgd1na2vs0mg"},{"bike_id":"ebe2b43b-e5bb-4158-835b-e46b2ce0d167","system_id":"levelo_inurba_marseille","lat":43.22928,"lon":5.35374,"is_reserved":false,"is_disabled":false,"rental_uris":{"android":"levelo://app?vid=ebe2b43b-e5bb-4158-835b-e46b2ce0d167","ios":"levelo://app?vid=ebe2b43b-e5bb-4158-835b-e46b2ce0d167"},"vehicle_type_id":"4","last_reported":1732352900,"current_range_meters":30400,"station_id":"cpo3532slgdg3j2ikp40","pricing_plan_id":"cebpf4jnsgd1na2vs0mg"},{"bike_id":"f4c54dd0-a013-4d39-8669-766de3dd4167","system_id":"levelo_inurba_marseille","lat":43.32368,"lon":5.38879,"is_reserved":false,"is_disabled":false,"rental_uris":{"android":"levelo://app?vid=f4c54dd0-a013-4d39-8669-766de3dd4167","ios":"levelo://app?vid=f4c54dd0-a013-4d39-8669-766de3dd4167"},"vehicle_type_id":"4","last_reported":1732352900,"current_range_meters":36800,"station_id":"ce4bhqp2rcd13ifvqhog","pricing_plan_id":"cebpf4jnsgd1na2vs0mg"},{"bike_id":"c78dbe97-11ce-479b-8720-9939eb2a42a5","system_id":"levelo_inurba_marseille","lat":43.29436,"lon":5.39749,"is_reserved":false,"is_disabled":false,"rental_uris":{"android":"levelo://app?vid=c78dbe97-11ce-479b-8720-9939eb2a42a5","ios":"levelo://app?vid=c78dbe97-11ce-479b-8720-9939eb2a42a5"},"vehicle_type_id":"4","last_reported":1732352900,"current_range_meters":39200,"station_id":"ce4bh3h2rcd13ifvqdo0","pricing_plan_id":"cebpf4jnsgd1na2vs0mg"},{"bike_id":"fa8314ae-1864-43c4-8fa1-c6e47ea1e55c","system_id":"levelo_inurba_marseille","lat":43.32105,"lon":5.36769,"is_reserved":false,"is_disabled":false,"rental_uris":{"android":"levelo://app?vid=fa8314ae-1864-43c4-8fa1-c6e47ea1e55c","ios":"levelo://app?vid=fa8314ae-1864-43c4-8fa1-c6e47ea1e55c"},"vehicle_type_id":"4","last_reported":1732352900,"current_range_meters":28400,"station_id":"ce4bhrh2rcd13ifvqhug","pricing_plan_id":"cebpf4jnsgd1na2vs0mg"},{"bike_id":"4dbda78b-8ea9-4175-9532-9ae620f0e65d","system_id":"levelo_inurba_marseille","lat":43.23186,"lon":5.39986,"is_reserved":false,"is_disabled":false,"rental_uris":{"android":"levelo://app?vid=4dbda78b-8ea9-4175-9532-9ae620f0e65d","ios":"levelo://app?vid=4dbda78b-8ea9-4175-9532-9ae620f0e65d"},"vehicle_type_id":"4","last_reported":1732352900,"current_range_meters":39200,"station_id":"ce4bhn12rcd13ifvqgqg","pricing_plan_id":"cebpf4jnsgd1na2vs0mg"},{"bike_id":"2839b2c8-1a2b-4a2a-97da-974264f94700","system_id":"levelo_inurba_marseille","lat":43.28715,"lon":5.39986,"is_reserved":false,"is_disabled":true,"rental_uris":{"android":"levelo://app?vid=2839b2c8-1a2b-4a2a-97da-974264f94700","ios":"levelo://app?vid=2839b2c8-1a2b-4a2a-97da-974264f94700"},"vehicle_type_id":"4","last_reported":1732352900,"current_range_meters":25600,"station_id":"ce4bho92rcd13ifvqh3g","pricing_plan_id":"cebpf4jnsgd1na2vs0mg"},{"bike_id":"cd738d02-ea17-49dd-aea1-4c03bf711b4d","system_id":"levelo_inurba_marseille","lat":43.27619,"lon":5.36105,"is_reserved":false,"is_disabled":false,"rental_uris":{"android":"levelo://app?vid=cd738d02-ea17-49dd-aea1-4c03bf711b4d","ios":"levelo://app?vid=cd738d02-ea17-49dd-aea1-4c03bf711b4d"},"vehicle_type_id":"4","last_reported":1732352900,"current_range_meters":38800,"station_id":"ce4bgj92rcd13ifvqbe0","pricing_plan_id":"cebpf4jnsgd1na2vs0mg"},{"bike_id":"93e22be2-ce4d-4082-96d3-753b4a20df2d","system_id":"levelo_inurba_marseille","lat":43.24075,"lon":5.37758,"is_reserved":false,"is_disabled":false,"rental_uris":{"android":"levelo://app?vid=93e22be2-ce4d-4082-96d3-753b4a20df2d","ios":"levelo://app?vid=93e22be2-ce4d-4082-96d3-753b4a20df2d"},"vehicle_type_id":"4","last_reported":1732352900,"current_range_meters":36400,"station_id":"ce4bhnp2rcd13ifvqgvg","pricing_plan_id":"cebpf4jnsgd1na2vs0mg"},{"bike_id":"4614c3ce-fa32-4b49-800d-cf02516d6ab9","system_id":"levelo_inurba_marseille","lat":43.32368,"lon":5.38887,"is_reserved":false,"is_disabled":false,"rental_uris":{"android":"levelo://app?vid=4614c3ce-fa32-4b49-800d-cf02516d6ab9","ios":"levelo://app?vid=4614c3ce-fa32-4b49-800d-cf02516d6ab9"},"vehicle_type_id":"4","last_reported":1732352900,"current_range_meters":24800,"station_id":"ce4bhqp2rcd13ifvqhog","pricing_plan_id":"cebpf4jnsgd1na2vs0mg"},{"bike_id":"c3379793-7e7e-4e75-892b-627682a03205","system_id":"levelo_inurba_marseille","lat":43.30143,"lon":5.38084,"is_reserved":false,"is_disabled":false,"rental_uris":{"android":"levelo://app?vid=c3379793-7e7e-4e75-892b-627682a03205","ios":"levelo://app?vid=c3379793-7e7e-4e75-892b-627682a03205"},"vehicle_type_id":"4","last_reported":1732352900,"current_range_meters":11600,"station_id":"ce4bgjp2rcd13ifvqbh0","pricing_plan_id":"cebpf4jnsgd1na2vs0mg"},{"bike_id":"1f3eee30-4019-4618-ba5a-fdfcc855040d","system_id":"levelo_inurba_marseille","lat":43.28941,"lon":5.39631,"is_reserved":false,"is_disabled":false,"rental_uris":{"android":"levelo://app?vid=1f3eee30-4019-4618-ba5a-fdfcc855040d","ios":"levelo://app?vid=1f3eee30-4019-4618-ba5a-fdfcc855040d"},"vehicle_type_id":"4","last_reported":1732352900,"current_range_meters":36800,"station_id":"ce4bh3h2rcd13ifvqdn0","pricing_plan_id":"cebpf4jnsgd1na2vs0mg"},{"bike_id":"091cc9eb-8580-435f-ab25-55aa0962542e","system_id":"levelo_inurba_marseille","lat":43.2603,"lon":5.37546,"is_reserved":false,"is_disabled":false,"rental_uris":{"android":"levelo://app?vid=091cc9eb-8580-435f-ab25-55aa0962542e","ios":"levelo://app?vid=091cc9eb-8580-435f-ab25-55aa0962542e"},"vehicle_type_id":"4","last_reported":1732352900,"current_range_meters":28400,"station_id":"ce4bhgh2rcd13ifvqfa0","pricing_plan_id":"cebpf4jnsgd1na2vs0mg"},{"bike_id":"f8a8a492-aaea-4018-90af-bfa3e05e159b","system_id":"levelo_inurba_marseille","lat":43.32662,"lon":5.40991,"is_reserved":false,"is_disabled":false,"rental_uris":{"android":"levelo://app?vid=f8a8a492-aaea-4018-90af-bfa3e05e159b","ios":"levelo://app?vid=f8a8a492-aaea-4018-90af-bfa3e05e159b"},"vehicle_type_id":"4","last_reported":1732352900,"current_range_meters":24400,"station_id":"ce4bhpp2rcd13ifvqhgg","pricing_plan_id":"cebpf4jnsgd1na2vs0mg"},{"bike_id":"bef6d52c-9135-4320-af9b-47093ee6b2a8","system_id":"levelo_inurba_marseille","lat":43.26935,"lon":5.38917,"is_reserved":false,"is_disabled":false,"rental_uris":{"android":"levelo://app?vid=bef6d52c-9135-4320-af9b-47093ee6b2a8","ios":"levelo://app?vid=bef6d52c-9135-4320-af9b-47093ee6b2a8"},"vehicle_type_id":"4","last_reported":1732352900,"current_range_meters":27200,"station_id":"ce4bhhh2rcd13ifvqfl0","pricing_plan_id":"cebpf4jnsgd1na2vs0mg"},{"bike_id":"ab98a49c-144b-468d-871d-e8e8492470bf","system_id":"levelo_inurba_marseille","lat":43.31274,"lon":5.40167,"is_reserved":false,"is_disabled":false,"rental_uris":{"android":"levelo://app?vid=ab98a49c-144b-468d-871d-e8e8492470bf","ios":"levelo://app?vid=ab98a49c-144b-468d-871d-e8e8492470bf"},"vehicle_type_id":"4","last_reported":1732352900,"current_range_meters":11200,"station_id":"ce4bh092rcd13ifvqd30","pricing_plan_id":"cebpf4jnsgd1na2vs0mg"},{"bike_id":"c691c780-7d72-4f4b-9e99-2cb348017806","system_id":"levelo_inurba_marseille","lat":43.28157,"lon":5.42644,"is_reserved":false,"is_disabled":false,"rental_uris":{"android":"levelo://app?vid=c691c780-7d72-4f4b-9e99-2cb348017806","ios":"levelo://app?vid=c691c780-7d72-4f4b-9e99-2cb348017806"},"vehicle_type_id":"4","last_reported":1732352900,"current_range_meters":27600,"station_id":"ce4bhnh2rcd13ifvqgug","pricing_plan_id":"cebpf4jnsgd1na2vs0mg"},{"bike_id":"f9e35db8-2f7a-4f43-8c70-83778761d42d","system_id":"levelo_inurba_marseille","lat":43.23196,"lon":5.3555,"is_reserved":false,"is_disabled":true,"rental_uris":{"android":"levelo://app?vid=f9e35db8-2f7a-4f43-8c70-83778761d42d","ios":"levelo://app?vid=f9e35db8-2f7a-4f43-8c70-83778761d42d"},"vehicle_type_id":"4","last_reported":1732352900,"current_range_meters":32400,"station_id":"ce4bhu92rcd13ifvqi70","pricing_plan_id":"cebpf4jnsgd1na2vs0mg"},{"bike_id":"f3d71bf5-431d-42e7-aa32-d2331fc6eec4","system_id":"levelo_inurba_marseille","lat":43.29546,"lon":5.42267,"is_reserved":false,"is_disabled":false,"rental_uris":{"android":"levelo://app?vid=f3d71bf5-431d-42e7-aa32-d2331fc6eec4","ios":"levelo://app?vid=f3d71bf5-431d-42e7-aa32-d2331fc6eec4"},"vehicle_type_id":"4","last_reported":1732352900,"current_range_meters":38000,"station_id":"ce4bhph2rcd13ifvqhdg","pricing_plan_id":"cebpf4jnsgd1na2vs0mg"},{"bike_id":"4923c322-eb4a-4095-bc0c-aa6b225ff01a","system_id":"levelo_inurba_marseille","lat":43.31379,"lon":5.38489,"is_reserved":false,"is_disabled":false,"rental_uris":{"android":"levelo://app?vid=4923c322-eb4a-4095-bc0c-aa6b225ff01a","ios":"levelo://app?vid=4923c322-eb4a-4095-bc0c-aa6b225ff01a"},"vehicle_type_id":"4","last_reported":1732352900,"current_range_meters":37600,"station_id":"ce4bgt92rcd13ifvqcf0","pricing_plan_id":"cebpf4jnsgd1na2vs0mg"},{"bike_id":"fb690bd2-ecd8-46b8-b07b-61c0873fd2dd","system_id":"levelo_inurba_marseille","lat":43.29043,"lon":5.39956,"is_reserved":false,"is_disabled":true,"rental_uris":{"android":"levelo://app?vid=fb690bd2-ecd8-46b8-b07b-61c0873fd2dd","ios":"levelo://app?vid=fb690bd2-ecd8-46b8-b07b-61c0873fd2dd"},"vehicle_type_id":"4","last_reported":1732352900,"current_range_meters":39200,"station_id":"ce4bh392rcd13ifvqdm0","pricing_plan_id":"cebpf4jnsgd1na2vs0mg"},{"bike_id":"1108659d-c798-48fb-a758-9ac015354e35","system_id":"levelo_inurba_marseille","lat":43.26209,"lon":5.37926,"is_reserved":false,"is_disabled":false,"rental_uris":{"android":"levelo://app?vid=1108659d-c798-48fb-a758-9ac015354e35","ios":"levelo://app?vid=1108659d-c798-48fb-a758-9ac015354e35"},"vehicle_type_id":"4","last_reported":1732352900,"current_range_meters":24800,"station_id":"ce4bhjp2rcd13ifvqg90","pricing_plan_id":"cebpf4jnsgd1na2vs0mg"},{"bike_id":"1f5a72a0-3240-401f-8965-8959c734d798","system_id":"levelo_inurba_marseille","lat":43.23967,"lon":5.36622,"is_reserved":false,"is_disabled":false,"rental_uris":{"android":"levelo://app?vid=1f5a72a0-3240-401f-8965-8959c734d798","ios":"levelo://app?vid=1f5a72a0-3240-401f-8965-8959c734d798"},"vehicle_type_id":"4","last_reported":1732352900,"current_range_meters":39200,"station_id":"ce4bhi12rcd13ifvqfp0","pricing_plan_id":"cebpf4jnsgd1na2vs0mg"},{"bike_id":"a4bf7a25-6668-4904-8b02-9fc015406405","system_id":"levelo_inurba_marseille","lat":43.29796,"lon":5.38112,"is_reserved":false,"is_disabled":false,"rental_uris":{"android":"levelo://app?vid=a4bf7a25-6668-4904-8b02-9fc015406405","ios":"levelo://app?vid=a4bf7a25-6668-4904-8b02-9fc015406405"},"vehicle_type_id":"4","last_reported":1732352900,"current_range_meters":39200,"station_id":"ce4bgip2rcd13ifvqbb0","pricing_plan_id":"cebpf4jnsgd1na2vs0mg"},{"bike_id":"423a9818-7bff-4486-a519-c2edd613d48b","system_id":"levelo_inurba_marseille","lat":43.29957,"lon":5.41319,"is_reserved":false,"is_disabled":false,"rental_uris":{"android":"levelo://app?vid=423a9818-7bff-4486-a519-c2edd613d48b","ios":"levelo://app?vid=423a9818-7bff-4486-a519-c2edd613d48b"},"vehicle_type_id":"4","last_reported":1732352900,"current_range_meters":28400,"station_id":"ce4bhp12rcd13ifvqh9g","pricing_plan_id":"cebpf4jnsgd1na2vs0mg"},{"bike_id":"06017421-e72d-4fde-9b6f-832698f511a5","system_id":"levelo_inurba_marseille","lat":43.29582,"lon":5.36742,"is_reserved":false,"is_disabled":false,"rental_uris":{"android":"levelo://app?vid=06017421-e72d-4fde-9b6f-832698f511a5","ios":"levelo://app?vid=06017421-e72d-4fde-9b6f-832698f511a5"},"vehicle_type_id":"4","last_reported":1732352900,"current_range_meters":38400,"station_id":"ce4bgph2rcd13ifvqc2g","pricing_plan_id":"cebpf4jnsgd1na2vs0mg"},{"bike_id":"e672334d-d5a9-45e4-8d8e-90a5c5811018","system_id":"levelo_inurba_marseille","lat":43.28109,"lon":5.37833,"is_reserved":false,"is_disabled":false,"rental_uris":{"android":"levelo://app?vid=e672334d-d5a9-45e4-8d8e-90a5c5811018","ios":"levelo://app?vid=e672334d-d5a9-45e4-8d8e-90a5c5811018"},"vehicle_type_id":"4","last_reported":1732352900,"current_range_meters":39200,"station_id":"ce4bha12rcd13ifvqee0","pricing_plan_id":"cebpf4jnsgd1na2vs0mg"},{"bike_id":"3d3e1c02-e434-42cd-a71e-c228de53e864","system_id":"levelo_inurba_marseille","lat":43.24392,"lon":5.37061,"is_reserved":false,"is_disabled":false,"rental_uris":{"android":"levelo://app?vid=3d3e1c02-e434-42cd-a71e-c228de53e864","ios":"levelo://app?vid=3d3e1c02-e434-42cd-a71e-c228de53e864"},"vehicle_type_id":"4","last_reported":1732352900,"current_range_meters":14000,"station_id":"ce4bhhh2rcd13ifvqfk0","pricing_plan_id":"cebpf4jnsgd1na2vs0mg"},{"bike_id":"5d89816e-0afd-4910-9a3d-37d05296c402","system_id":"levelo_inurba_marseille","lat":43.32481,"lon":5.36555,"is_reserved":false,"is_disabled":false,"rental_uris":{"android":"levelo://app?vid=5d89816e-0afd-4910-9a3d-37d05296c402","ios":"levelo://app?vid=5d89816e-0afd-4910-9a3d-37d05296c402"},"vehicle_type_id":"4","last_reported":1732352900,"current_range_meters":36400,"station_id":"ce4bhs12rcd13ifvqhvg","pricing_plan_id":"cebpf4jnsgd1na2vs0mg"},{"bike_id":"d3e3e973-f89c-4419-9e76-db3faf490d9b","system_id":"levelo_inurba_marseille","lat":43.30151,"lon":5.38079,"is_reserved":false,"is_disabled":false,"rental_uris":{"android":"levelo://app?vid=d3e3e973-f89c-4419-9e76-db3faf490d9b","ios":"levelo://app?vid=d3e3e973-f89c-4419-9e76-db3faf490d9b"},"vehicle_type_id":"4","last_reported":1732352900,"current_range_meters":33600,"station_id":"ce4bgjp2rcd13ifvqbh0","pricing_plan_id":"cebpf4jnsgd1na2vs0mg"},{"bike_id":"c64b573f-7a4d-4300-ae42-f380caa3d1ee","system_id":"levelo_inurba_marseille","lat":43.30142,"lon":5.38078,"is_reserved":false,"is_disabled":false,"rental_uris":{"android":"levelo://app?vid=c64b573f-7a4d-4300-ae42-f380caa3d1ee","ios":"levelo://app?vid=c64b573f-7a4d-4300-ae42-f380caa3d1ee"},"vehicle_type_id":"4","last_reported":1732352900,"current_range_meters":38800,"station_id":"ce4bgjp2rcd13ifvqbh0","pricing_plan_id":"cebpf4jnsgd1na2vs0mg"},{"bike_id":"4cb716de-3f19-43d4-b34b-8b9ce425eaf2","system_id":"levelo_inurba_marseille","lat":43.25864,"lon":5.39898,"is_reserved":false,"is_disabled":false,"rental_uris":{"android":"levelo://app?vid=4cb716de-3f19-43d4-b34b-8b9ce425eaf2","ios":"levelo://app?vid=4cb716de-3f19-43d4-b34b-8b9ce425eaf2"},"vehicle_type_id":"4","last_reported":1732352900,"current_range_meters":24800,"station_id":"ce4bhl92rcd13ifvqghg","pricing_plan_id":"cebpf4jnsgd1na2vs0mg"},{"bike_id":"fa223770-c7b5-4176-b2a9-f62d86c16ea2","system_id":"levelo_inurba_marseille","lat":43.336669,"lon":5.39812,"is_reserved":false,"is_disabled":true,"rental_uris":{"android":"levelo://app?vid=fa223770-c7b5-4176-b2a9-f62d86c16ea2","ios":"levelo://app?vid=fa223770-c7b5-4176-b2a9-f62d86c16ea2"},"vehicle_type_id":"4","last_reported":1732352900,"current_range_meters":29600,"station_id":"","pricing_plan_id":"cebpf4jnsgd1na2vs0mg"},{"bike_id":"ead63ed4-4cdf-4b9b-80c9-70dbf7f90e9f","system_id":"levelo_inurba_marseille","lat":43.29725,"lon":5.3769,"is_reserved":false,"is_disabled":false,"rental_uris":{"android":"levelo://app?vid=ead63ed4-4cdf-4b9b-80c9-70dbf7f90e9f","ios":"levelo://app?vid=ead63ed4-4cdf-4b9b-80c9-70dbf7f90e9f"},"vehicle_type_id":"4","last_reported":1732352900,"current_range_meters":22800,"station_id":"ce4bgkh2rcd13ifvqbl0","pricing_plan_id":"cebpf4jnsgd1na2vs0mg"},{"bike_id":"99d5eeb3-6513-46db-81bf-de6e43866527","system_id":"levelo_inurba_marseille","lat":43.32365,"lon":5.38884,"is_reserved":false,"is_disabled":false,"rental_uris":{"android":"levelo://app?vid=99d5eeb3-6513-46db-81bf-de6e43866527","ios":"levelo://app?vid=99d5eeb3-6513-46db-81bf-de6e43866527"},"vehicle_type_id":"4","last_reported":1732352900,"current_range_meters":35200,"station_id":"ce4bhqp2rcd13ifvqhog","pricing_plan_id":"cebpf4jnsgd1na2vs0mg"},{"bike_id":"87e97393-6ddb-4da2-8038-9eebd1cd8522","system_id":"levelo_inurba_marseille","lat":43.270936,"lon":5.422982,"is_reserved":false,"is_disabled":false,"rental_uris":{"android":"levelo://app?vid=87e97393-6ddb-4da2-8038-9eebd1cd8522","ios":"levelo://app?vid=87e97393-6ddb-4da2-8038-9eebd1cd8522"},"vehicle_type_id":"4","last_reported":1732352900,"current_range_meters":7200,"station_id":"ce4bhk92rcd13ifvqgb0","pricing_plan_id":"cebpf4jnsgd1na2vs0mg"},{"bike_id":"b3b90db4-8177-4292-a113-756484f74839","system_id":"levelo_inurba_marseille","lat":43.26198,"lon":5.3793,"is_reserved":false,"is_disabled":false,"rental_uris":{"android":"levelo://app?vid=b3b90db4-8177-4292-a113-756484f74839","ios":"levelo://app?vid=b3b90db4-8177-4292-a113-756484f74839"},"vehicle_type_id":"4","last_reported":1732352900,"current_range_meters":30000,"station_id":"ce4bhjp2rcd13ifvqg90","pricing_plan_id":"cebpf4jnsgd1na2vs0mg"},{"bike_id":"294eeb79-af1b-495a-909f-216801ae6b41","system_id":"levelo_inurba_marseille","lat":43.337444,"lon":5.374475,"is_reserved":false,"is_disabled":true,"rental_uris":{"android":"levelo://app?vid=294eeb79-af1b-495a-909f-216801ae6b41","ios":"levelo://app?vid=294eeb79-af1b-495a-909f-216801ae6b41"},"vehicle_type_id":"4","last_reported":1732352900,"current_range_meters":0,"station_id":"","pricing_plan_id":"cebpf4jnsgd1na2vs0mg"},{"bike_id":"e5d63661-ea2d-4e9d-bdce-dbbf19d65c3c","system_id":"levelo_inurba_marseille","lat":43.32365,"lon":5.36764,"is_reserved":false,"is_disabled":true,"rental_uris":{"android":"levelo://app?vid=e5d63661-ea2d-4e9d-bdce-dbbf19d65c3c","ios":"levelo://app?vid=e5d63661-ea2d-4e9d-bdce-dbbf19d65c3c"},"vehicle_type_id":"4","last_reported":1732352900,"current_range_meters":0,"station_id":"ce4bhsh2rcd13ifvqi2g","pricing_plan_id":"cebpf4jnsgd1na2vs0mg"},{"bike_id":"9bd81088-0083-41fe-bb10-323bc946e5a6","system_id":"levelo_inurba_marseille","lat":43.29008,"lon":5.3561,"is_reserved":false,"is_disabled":false,"rental_uris":{"android":"levelo://app?vid=9bd81088-0083-41fe-bb10-323bc946e5a6","ios":"levelo://app?vid=9bd81088-0083-41fe-bb10-323bc946e5a6"},"vehicle_type_id":"4","last_reported":1732352900,"current_range_meters":28800,"station_id":"ce4bhb92rcd13ifvqen0","pricing_plan_id":"cebpf4jnsgd1na2vs0mg"},{"bike_id":"bf651b70-19d2-45ca-8b5f-8cd4fab5a41c","system_id":"levelo_inurba_marseille","lat":43.3064,"lon":5.40073,"is_reserved":false,"is_disabled":false,"rental_uris":{"android":"levelo://app?vid=bf651b70-19d2-45ca-8b5f-8cd4fab5a41c","ios":"levelo://app?vid=bf651b70-19d2-45ca-8b5f-8cd4fab5a41c"},"vehicle_type_id":"4","last_reported":1732352900,"current_range_meters":23200,"station_id":"ce4bh112rcd13ifvqda0","pricing_plan_id":"cebpf4jnsgd1na2vs0mg"},{"bike_id":"90cc99af-54e0-4698-bffa-7f2f1beb1a95","system_id":"levelo_inurba_marseille","lat":43.27996,"lon":5.41654,"is_reserved":false,"is_disabled":false,"rental_uris":{"android":"levelo://app?vid=90cc99af-54e0-4698-bffa-7f2f1beb1a95","ios":"levelo://app?vid=90cc99af-54e0-4698-bffa-7f2f1beb1a95"},"vehicle_type_id":"4","last_reported":1732352900,"current_range_meters":39200,"station_id":"ce4bho12rcd13ifvqh1g","pricing_plan_id":"cebpf4jnsgd1na2vs0mg"},{"bike_id":"81640bf4-dd0f-4830-8546-4d4867cc58a5","system_id":"levelo_inurba_marseille","lat":43.23102,"lon":5.40479,"is_reserved":false,"is_disabled":false,"rental_uris":{"android":"levelo://app?vid=81640bf4-dd0f-4830-8546-4d4867cc58a5","ios":"levelo://app?vid=81640bf4-dd0f-4830-8546-4d4867cc58a5"},"vehicle_type_id":"4","last_reported":1732352900,"current_range_meters":8400,"station_id":"","pricing_plan_id":"cebpf4jnsgd1na2vs0mg"},{"bike_id":"c9d20d7e-94a0-4c8b-b70d-f64cda2d5d16","system_id":"levelo_inurba_marseille","lat":43.29216,"lon":5.40001,"is_reserved":false,"is_disabled":false,"rental_uris":{"android":"levelo://app?vid=c9d20d7e-94a0-4c8b-b70d-f64cda2d5d16","ios":"levelo://app?vid=c9d20d7e-94a0-4c8b-b70d-f64cda2d5d16"},"vehicle_type_id":"4","last_reported":1732352900,"current_range_meters":13600,"station_id":"","pricing_plan_id":"cebpf4jnsgd1na2vs0mg"},{"bike_id":"cd78312a-142a-42d0-92e1-dbc654bf8bb4","system_id":"levelo_inurba_marseille","lat":43.24175,"lon":5.39717,"is_reserved":false,"is_disabled":true,"rental_uris":{"android":"levelo://app?vid=cd78312a-142a-42d0-92e1-dbc654bf8bb4","ios":"levelo://app?vid=cd78312a-142a-42d0-92e1-dbc654bf8bb4"},"vehicle_type_id":"4","last_reported":1732352900,"current_range_meters":16000,"station_id":"ce4bhn12rcd13ifvqgpg","pricing_plan_id":"cebpf4jnsgd1na2vs0mg"},{"bike_id":"f28c82ad-6f3c-4c01-88a7-477b9b26f762","system_id":"levelo_inurba_marseille","lat":43.23964,"lon":5.36622,"is_reserved":false,"is_disabled":false,"rental_uris":{"android":"levelo://app?vid=f28c82ad-6f3c-4c01-88a7-477b9b26f762","ios":"levelo://app?vid=f28c82ad-6f3c-4c01-88a7-477b9b26f762"},"vehicle_type_id":"4","last_reported":1732352900,"current_range_meters":27600,"station_id":"ce4bhi12rcd13ifvqfp0","pricing_plan_id":"cebpf4jnsgd1na2vs0mg"},{"bike_id":"11c5ed7c-dad2-4605-8db8-4918d0818190","system_id":"levelo_inurba_marseille","lat":43.31731,"lon":5.42395,"is_reserved":false,"is_disabled":false,"rental_uris":{"android":"levelo://app?vid=11c5ed7c-dad2-4605-8db8-4918d0818190","ios":"levelo://app?vid=11c5ed7c-dad2-4605-8db8-4918d0818190"},"vehicle_type_id":"4","last_reported":1732352900,"current_range_meters":38800,"station_id":"ce4bhp92rcd13ifvqhbg","pricing_plan_id":"cebpf4jnsgd1na2vs0mg"},{"bike_id":"3dedd3a3-3784-47e0-bd52-94265bd44a24","system_id":"levelo_inurba_marseille","lat":43.24551,"lon":5.37326,"is_reserved":false,"is_disabled":true,"rental_uris":{"android":"levelo://app?vid=3dedd3a3-3784-47e0-bd52-94265bd44a24","ios":"levelo://app?vid=3dedd3a3-3784-47e0-bd52-94265bd44a24"},"vehicle_type_id":"4","last_reported":1732352900,"current_range_meters":0,"station_id":"","pricing_plan_id":"cebpf4jnsgd1na2vs0mg"},{"bike_id":"0f73c7e1-9f37-4805-b324-faa77a592d73","system_id":"levelo_inurba_marseille","lat":43.2406,"lon":5.37753,"is_reserved":false,"is_disabled":false,"rental_uris":{"android":"levelo://app?vid=0f73c7e1-9f37-4805-b324-faa77a592d73","ios":"levelo://app?vid=0f73c7e1-9f37-4805-b324-faa77a592d73"},"vehicle_type_id":"4","last_reported":1732352900,"current_range_meters":19200,"station_id":"ce4bhnp2rcd13ifvqgvg","pricing_plan_id":"cebpf4jnsgd1na2vs0mg"},{"bike_id":"ffc9f6b9-b53b-4f90-bd63-f80bb43fd08f","system_id":"levelo_inurba_marseille","lat":43.28347,"lon":5.38106,"is_reserved":false,"is_disabled":false,"rental_uris":{"android":"levelo://app?vid=ffc9f6b9-b53b-4f90-bd63-f80bb43fd08f","ios":"levelo://app?vid=ffc9f6b9-b53b-4f90-bd63-f80bb43fd08f"},"vehicle_type_id":"4","last_reported":1732352900,"current_range_meters":9600,"station_id":"ce4bh412rcd13ifvqdr0","pricing_plan_id":"cebpf4jnsgd1na2vs0mg"},{"bike_id":"508e64fb-b601-4256-a33d-1741da3fb5eb","system_id":"levelo_inurba_marseille","lat":43.2408,"lon":5.3775,"is_reserved":false,"is_disabled":false,"rental_uris":{"android":"levelo://app?vid=508e64fb-b601-4256-a33d-1741da3fb5eb","ios":"levelo://app?vid=508e64fb-b601-4256-a33d-1741da3fb5eb"},"vehicle_type_id":"4","last_reported":1732352900,"current_range_meters":5600,"station_id":"ce4bhnp2rcd13ifvqgvg","pricing_plan_id":"cebpf4jnsgd1na2vs0mg"},{"bike_id":"bcf5a7ef-45e7-40a2-a25a-d01db7f9684d","system_id":"levelo_inurba_marseille","lat":43.25383,"lon":5.4017,"is_reserved":false,"is_disabled":true,"rental_uris":{"android":"levelo://app?vid=bcf5a7ef-45e7-40a2-a25a-d01db7f9684d","ios":"levelo://app?vid=bcf5a7ef-45e7-40a2-a25a-d01db7f9684d"},"vehicle_type_id":"4","last_reported":1732352900,"current_range_meters":0,"station_id":"","pricing_plan_id":"cebpf4jnsgd1na2vs0mg"},{"bike_id":"3193222d-584b-4642-a1d8-0c04b2309736","system_id":"levelo_inurba_marseille","lat":43.33729,"lon":5.39185,"is_reserved":false,"is_disabled":false,"rental_uris":{"android":"levelo://app?vid=3193222d-584b-4642-a1d8-0c04b2309736","ios":"levelo://app?vid=3193222d-584b-4642-a1d8-0c04b2309736"},"vehicle_type_id":"4","last_reported":1732352900,"current_range_meters":33200,"station_id":"ce4bhr92rcd13ifvqhsg","pricing_plan_id":"cebpf4jnsgd1na2vs0mg"},{"bike_id":"7c2f19f3-5373-4c2a-87bb-e1fd3ef39822","system_id":"levelo_inurba_marseille","lat":43.26563,"lon":5.38997,"is_reserved":false,"is_disabled":true,"rental_uris":{"android":"levelo://app?vid=7c2f19f3-5373-4c2a-87bb-e1fd3ef39822","ios":"levelo://app?vid=7c2f19f3-5373-4c2a-87bb-e1fd3ef39822"},"vehicle_type_id":"4","last_reported":1732352900,"current_range_meters":26000,"station_id":"ce4bhe12rcd13ifvqf30","pricing_plan_id":"cebpf4jnsgd1na2vs0mg"},{"bike_id":"36ef9a42-f4d8-45f5-adc2-b51fb9b962d0","system_id":"levelo_inurba_marseille","lat":43.3415,"lon":5.40896,"is_reserved":false,"is_disabled":false,"rental_uris":{"android":"levelo://app?vid=36ef9a42-f4d8-45f5-adc2-b51fb9b962d0","ios":"levelo://app?vid=36ef9a42-f4d8-45f5-adc2-b51fb9b962d0"},"vehicle_type_id":"4","last_reported":1732352900,"current_range_meters":39200,"station_id":"ce4bhqh2rcd13ifvqhlg","pricing_plan_id":"cebpf4jnsgd1na2vs0mg"},{"bike_id":"6ce6086b-6084-46f4-ba4b-69f8aaaa51b2","system_id":"levelo_inurba_marseille","lat":43.30529,"lon":5.38437,"is_reserved":false,"is_disabled":true,"rental_uris":{"android":"levelo://app?vid=6ce6086b-6084-46f4-ba4b-69f8aaaa51b2","ios":"levelo://app?vid=6ce6086b-6084-46f4-ba4b-69f8aaaa51b2"},"vehicle_type_id":"4","last_reported":1732352900,"current_range_meters":29600,"station_id":"ce4bgg92rcd13ifvqb30","pricing_plan_id":"cebpf4jnsgd1na2vs0mg"},{"bike_id":"1fe36207-a189-42b7-a2ae-a1bed57e3dd0","system_id":"levelo_inurba_marseille","lat":43.2603,"lon":5.37555,"is_reserved":false,"is_disabled":false,"rental_uris":{"android":"levelo://app?vid=1fe36207-a189-42b7-a2ae-a1bed57e3dd0","ios":"levelo://app?vid=1fe36207-a189-42b7-a2ae-a1bed57e3dd0"},"vehicle_type_id":"4","last_reported":1732352900,"current_range_meters":14800,"station_id":"ce4bhgh2rcd13ifvqfa0","pricing_plan_id":"cebpf4jnsgd1na2vs0mg"},{"bike_id":"4ecdaf55-87e7-42ea-ac0e-a41de2a6b49d","system_id":"levelo_inurba_marseille","lat":43.31999,"lon":5.38158,"is_reserved":false,"is_disabled":false,"rental_uris":{"android":"levelo://app?vid=4ecdaf55-87e7-42ea-ac0e-a41de2a6b49d","ios":"levelo://app?vid=4ecdaf55-87e7-42ea-ac0e-a41de2a6b49d"},"vehicle_type_id":"4","last_reported":1732352900,"current_range_meters":24000,"station_id":"ce4bhr12rcd13ifvqhpg","pricing_plan_id":"cebpf4jnsgd1na2vs0mg"},{"bike_id":"51ce6112-ca51-4a26-8335-063dea88ee84","system_id":"levelo_inurba_marseille","lat":43.26681,"lon":5.38976,"is_reserved":false,"is_disabled":false,"rental_uris":{"android":"levelo://app?vid=51ce6112-ca51-4a26-8335-063dea88ee84","ios":"levelo://app?vid=51ce6112-ca51-4a26-8335-063dea88ee84"},"vehicle_type_id":"4","last_reported":1732352900,"current_range_meters":8000,"station_id":"","pricing_plan_id":"cebpf4jnsgd1na2vs0mg"},{"bike_id":"a02eb68f-c704-45bf-b3f6-d9816f90b1b3","system_id":"levelo_inurba_marseille","lat":43.26952,"lon":5.38631,"is_reserved":false,"is_disabled":false,"rental_uris":{"android":"levelo://app?vid=a02eb68f-c704-45bf-b3f6-d9816f90b1b3","ios":"levelo://app?vid=a02eb68f-c704-45bf-b3f6-d9816f90b1b3"},"vehicle_type_id":"4","last_reported":1732352900,"current_range_meters":35600,"station_id":"ce4bhh92rcd13ifvqfh0","pricing_plan_id":"cebpf4jnsgd1na2vs0mg"},{"bike_id":"dc40093c-1a1f-419a-9052-3d264e01de4a","system_id":"levelo_inurba_marseille","lat":43.30348,"lon":5.41875,"is_reserved":false,"is_disabled":false,"rental_uris":{"android":"levelo://app?vid=dc40093c-1a1f-419a-9052-3d264e01de4a","ios":"levelo://app?vid=dc40093c-1a1f-419a-9052-3d264e01de4a"},"vehicle_type_id":"4","last_reported":1732352900,"current_range_meters":38400,"station_id":"ce4bhop2rcd13ifvqh7g","pricing_plan_id":"cebpf4jnsgd1na2vs0mg"},{"bike_id":"fc0b1b0c-9a21-495d-be52-0d91f5503bfa","system_id":"levelo_inurba_marseille","lat":43.2293,"lon":5.35371,"is_reserved":false,"is_disabled":false,"rental_uris":{"android":"levelo://app?vid=fc0b1b0c-9a21-495d-be52-0d91f5503bfa","ios":"levelo://app?vid=fc0b1b0c-9a21-495d-be52-0d91f5503bfa"},"vehicle_type_id":"4","last_reported":1732352900,"current_range_meters":23200,"station_id":"cpo3532slgdg3j2ikp40","pricing_plan_id":"cebpf4jnsgd1na2vs0mg"},{"bike_id":"fb8722dd-7f32-4ddd-b094-d27e50ec04ba","system_id":"levelo_inurba_marseille","lat":43.24076,"lon":5.37765,"is_reserved":false,"is_disabled":false,"rental_uris":{"android":"levelo://app?vid=fb8722dd-7f32-4ddd-b094-d27e50ec04ba","ios":"levelo://app?vid=fb8722dd-7f32-4ddd-b094-d27e50ec04ba"},"vehicle_type_id":"4","last_reported":1732352900,"current_range_meters":39200,"station_id":"ce4bhnp2rcd13ifvqgvg","pricing_plan_id":"cebpf4jnsgd1na2vs0mg"},{"bike_id":"2ac5acc9-e834-45c9-92b6-375bbcca6244","system_id":"levelo_inurba_marseille","lat":43.25496,"lon":5.37651,"is_reserved":false,"is_disabled":false,"rental_uris":{"android":"levelo://app?vid=2ac5acc9-e834-45c9-92b6-375bbcca6244","ios":"levelo://app?vid=2ac5acc9-e834-45c9-92b6-375bbcca6244"},"vehicle_type_id":"4","last_reported":1732352900,"current_range_meters":24800,"station_id":"ce4bhh12rcd13ifvqff0","pricing_plan_id":"cebpf4jnsgd1na2vs0mg"},{"bike_id":"508c2e73-c2d9-43c0-8457-070658e18109","system_id":"levelo_inurba_marseille","lat":43.25932,"lon":5.3986,"is_reserved":false,"is_disabled":false,"rental_uris":{"android":"levelo://app?vid=508c2e73-c2d9-43c0-8457-070658e18109","ios":"levelo://app?vid=508c2e73-c2d9-43c0-8457-070658e18109"},"vehicle_type_id":"4","last_reported":1732352900,"current_range_meters":26800,"station_id":"","pricing_plan_id":"cebpf4jnsgd1na2vs0mg"},{"bike_id":"94101e33-ee43-4b1f-9078-47da1f716263","system_id":"levelo_inurba_marseille","lat":43.26945,"lon":5.38637,"is_reserved":false,"is_disabled":false,"rental_uris":{"android":"levelo://app?vid=94101e33-ee43-4b1f-9078-47da1f716263","ios":"levelo://app?vid=94101e33-ee43-4b1f-9078-47da1f716263"},"vehicle_type_id":"4","last_reported":1732352900,"current_range_meters":40000,"station_id":"ce4bhh92rcd13ifvqfh0","pricing_plan_id":"cebpf4jnsgd1na2vs0mg"},{"bike_id":"97437fd5-e381-403b-962e-cf899defef24","system_id":"levelo_inurba_marseille","lat":43.32485,"lon":5.36566,"is_reserved":false,"is_disabled":false,"rental_uris":{"android":"levelo://app?vid=97437fd5-e381-403b-962e-cf899defef24","ios":"levelo://app?vid=97437fd5-e381-403b-962e-cf899defef24"},"vehicle_type_id":"4","last_reported":1732352900,"current_range_meters":26000,"station_id":"ce4bhs12rcd13ifvqhvg","pricing_plan_id":"cebpf4jnsgd1na2vs0mg"},{"bike_id":"68f9bc67-7a46-4c54-8555-1eed96ca8ef0","system_id":"levelo_inurba_marseille","lat":43.32107,"lon":5.36778,"is_reserved":false,"is_disabled":false,"rental_uris":{"android":"levelo://app?vid=68f9bc67-7a46-4c54-8555-1eed96ca8ef0","ios":"levelo://app?vid=68f9bc67-7a46-4c54-8555-1eed96ca8ef0"},"vehicle_type_id":"4","last_reported":1732352900,"current_range_meters":36800,"station_id":"ce4bhrh2rcd13ifvqhug","pricing_plan_id":"cebpf4jnsgd1na2vs0mg"},{"bike_id":"9f2d87b3-b732-4f0b-a482-72509ea4f76c","system_id":"levelo_inurba_marseille","lat":43.30151,"lon":5.38087,"is_reserved":false,"is_disabled":false,"rental_uris":{"android":"levelo://app?vid=9f2d87b3-b732-4f0b-a482-72509ea4f76c","ios":"levelo://app?vid=9f2d87b3-b732-4f0b-a482-72509ea4f76c"},"vehicle_type_id":"4","last_reported":1732352900,"current_range_meters":29600,"station_id":"ce4bgjp2rcd13ifvqbh0","pricing_plan_id":"cebpf4jnsgd1na2vs0mg"},{"bike_id":"97a04174-283e-44d5-a1f8-6cb559e9aeb2","system_id":"levelo_inurba_marseille","lat":43.2732,"lon":5.39078,"is_reserved":false,"is_disabled":false,"rental_uris":{"android":"levelo://app?vid=97a04174-283e-44d5-a1f8-6cb559e9aeb2","ios":"levelo://app?vid=97a04174-283e-44d5-a1f8-6cb559e9aeb2"},"vehicle_type_id":"4","last_reported":1732352900,"current_range_meters":11600,"station_id":"ce4bhgp2rcd13ifvqfe0","pricing_plan_id":"cebpf4jnsgd1na2vs0mg"},{"bike_id":"31a3efa5-23ff-4d63-a675-e8128f858976","system_id":"levelo_inurba_marseille","lat":43.29844,"lon":5.36264,"is_reserved":false,"is_disabled":false,"rental_uris":{"android":"levelo://app?vid=31a3efa5-23ff-4d63-a675-e8128f858976","ios":"levelo://app?vid=31a3efa5-23ff-4d63-a675-e8128f858976"},"vehicle_type_id":"4","last_reported":1732352900,"current_range_meters":39200,"station_id":"ce4bgpp2rcd13ifvqc3g","pricing_plan_id":"cebpf4jnsgd1na2vs0mg"},{"bike_id":"bc253db0-f00b-4bb0-84b9-1f8f01714743","system_id":"levelo_inurba_marseille","lat":43.239637,"lon":5.366308,"is_reserved":false,"is_disabled":false,"rental_uris":{"android":"levelo://app?vid=bc253db0-f00b-4bb0-84b9-1f8f01714743","ios":"levelo://app?vid=bc253db0-f00b-4bb0-84b9-1f8f01714743"},"vehicle_type_id":"4","last_reported":1732352900,"current_range_meters":16400,"station_id":"ce4bhi12rcd13ifvqfp0","pricing_plan_id":"cebpf4jnsgd1na2vs0mg"},{"bike_id":"d60edd73-4923-4330-b16d-caf6d1490a7d","system_id":"levelo_inurba_marseille","lat":43.315365,"lon":5.380356,"is_reserved":false,"is_disabled":false,"rental_uris":{"android":"levelo://app?vid=d60edd73-4923-4330-b16d-caf6d1490a7d","ios":"levelo://app?vid=d60edd73-4923-4330-b16d-caf6d1490a7d"},"vehicle_type_id":"4","last_reported":1732352900,"current_range_meters":10800,"station_id":"ce4bhsp2rcd13ifvqi50","pricing_plan_id":"cebpf4jnsgd1na2vs0mg"},{"bike_id":"589e73fc-b369-4a28-b69f-0a0000220651","system_id":"levelo_inurba_marseille","lat":43.29584,"lon":5.36733,"is_reserved":false,"is_disabled":false,"rental_uris":{"android":"levelo://app?vid=589e73fc-b369-4a28-b69f-0a0000220651","ios":"levelo://app?vid=589e73fc-b369-4a28-b69f-0a0000220651"},"vehicle_type_id":"4","last_reported":1732352900,"current_range_meters":39200,"station_id":"ce4bgph2rcd13ifvqc2g","pricing_plan_id":"cebpf4jnsgd1na2vs0mg"},{"bike_id":"d46b4c0c-a6e6-442f-8a4e-a4767bf9e00c","system_id":"levelo_inurba_marseille","lat":43.30259,"lon":5.40079,"is_reserved":false,"is_disabled":false,"rental_uris":{"android":"levelo://app?vid=d46b4c0c-a6e6-442f-8a4e-a4767bf9e00c","ios":"levelo://app?vid=d46b4c0c-a6e6-442f-8a4e-a4767bf9e00c"},"vehicle_type_id":"4","last_reported":1732352900,"current_range_meters":22400,"station_id":"ce4bgvh2rcd13ifvqcs0","pricing_plan_id":"cebpf4jnsgd1na2vs0mg"},{"bike_id":"2ce56eac-607f-4aee-97f1-1efe9a148076","system_id":"levelo_inurba_marseille","lat":43.22927,"lon":5.35377,"is_reserved":false,"is_disabled":false,"rental_uris":{"android":"levelo://app?vid=2ce56eac-607f-4aee-97f1-1efe9a148076","ios":"levelo://app?vid=2ce56eac-607f-4aee-97f1-1efe9a148076"},"vehicle_type_id":"4","last_reported":1732352900,"current_range_meters":10800,"station_id":"cpo3532slgdg3j2ikp40","pricing_plan_id":"cebpf4jnsgd1na2vs0mg"},{"bike_id":"3c5d0254-2542-44e0-aa08-1a8753e937a8","system_id":"levelo_inurba_marseille","lat":43.26688,"lon":5.3827,"is_reserved":false,"is_disabled":false,"rental_uris":{"android":"levelo://app?vid=3c5d0254-2542-44e0-aa08-1a8753e937a8","ios":"levelo://app?vid=3c5d0254-2542-44e0-aa08-1a8753e937a8"},"vehicle_type_id":"4","last_reported":1732352900,"current_range_meters":36800,"station_id":"ce4bhg92rcd13ifvqf90","pricing_plan_id":"cebpf4jnsgd1na2vs0mg"},{"bike_id":"e65fb125-5dbf-435a-9d78-c0fbeff7ea4b","system_id":"levelo_inurba_marseille","lat":43.24387,"lon":5.37055,"is_reserved":false,"is_disabled":false,"rental_uris":{"android":"levelo://app?vid=e65fb125-5dbf-435a-9d78-c0fbeff7ea4b","ios":"levelo://app?vid=e65fb125-5dbf-435a-9d78-c0fbeff7ea4b"},"vehicle_type_id":"4","last_reported":1732352900,"current_range_meters":22800,"station_id":"ce4bhhh2rcd13ifvqfk0","pricing_plan_id":"cebpf4jnsgd1na2vs0mg"},{"bike_id":"c74abcec-f83d-46ae-b5a9-0a57cc1c1c41","system_id":"levelo_inurba_marseille","lat":43.23194,"lon":5.35551,"is_reserved":false,"is_disabled":false,"rental_uris":{"android":"levelo://app?vid=c74abcec-f83d-46ae-b5a9-0a57cc1c1c41","ios":"levelo://app?vid=c74abcec-f83d-46ae-b5a9-0a57cc1c1c41"},"vehicle_type_id":"4","last_reported":1732352900,"current_range_meters":34800,"station_id":"ce4bhu92rcd13ifvqi70","pricing_plan_id":"cebpf4jnsgd1na2vs0mg"},{"bike_id":"72199e4f-4616-4328-bcb5-d0d184b8428c","system_id":"levelo_inurba_marseille","lat":43.25121,"lon":5.40318,"is_reserved":false,"is_disabled":false,"rental_uris":{"android":"levelo://app?vid=72199e4f-4616-4328-bcb5-d0d184b8428c","ios":"levelo://app?vid=72199e4f-4616-4328-bcb5-d0d184b8428c"},"vehicle_type_id":"4","last_reported":1732352900,"current_range_meters":39200,"station_id":"ce4bhlh2rcd13ifvqgig","pricing_plan_id":"cebpf4jnsgd1na2vs0mg"},{"bike_id":"6bc5e554-d491-43d8-af78-57fbd87f8a20","system_id":"levelo_inurba_marseille","lat":43.29847,"lon":5.36285,"is_reserved":false,"is_disabled":false,"rental_uris":{"android":"levelo://app?vid=6bc5e554-d491-43d8-af78-57fbd87f8a20","ios":"levelo://app?vid=6bc5e554-d491-43d8-af78-57fbd87f8a20"},"vehicle_type_id":"4","last_reported":1732352900,"current_range_meters":39200,"station_id":"ce4bgpp2rcd13ifvqc3g","pricing_plan_id":"cebpf4jnsgd1na2vs0mg"},{"bike_id":"5e19399f-6bf1-4cba-b8dc-fb1dc7b20449","system_id":"levelo_inurba_marseille","lat":43.28466,"lon":5.38412,"is_reserved":false,"is_disabled":false,"rental_uris":{"android":"levelo://app?vid=5e19399f-6bf1-4cba-b8dc-fb1dc7b20449","ios":"levelo://app?vid=5e19399f-6bf1-4cba-b8dc-fb1dc7b20449"},"vehicle_type_id":"4","last_reported":1732352900,"current_range_meters":25600,"station_id":"ce4bh512rcd13ifvqe3g","pricing_plan_id":"cebpf4jnsgd1na2vs0mg"},{"bike_id":"c3a9fd83-5a98-42b2-a8f7-5104c351d62e","system_id":"levelo_inurba_marseille","lat":43.30456,"lon":5.37902,"is_reserved":false,"is_disabled":false,"rental_uris":{"android":"levelo://app?vid=c3a9fd83-5a98-42b2-a8f7-5104c351d62e","ios":"levelo://app?vid=c3a9fd83-5a98-42b2-a8f7-5104c351d62e"},"vehicle_type_id":"4","last_reported":1732352900,"current_range_meters":38800,"station_id":"ce4bgup2rcd13ifvqcn0","pricing_plan_id":"cebpf4jnsgd1na2vs0mg"},{"bike_id":"dda371ed-f57e-4a13-b59e-715c3af9050e","system_id":"levelo_inurba_marseille","lat":43.24166,"lon":5.36392,"is_reserved":false,"is_disabled":false,"rental_uris":{"android":"levelo://app?vid=dda371ed-f57e-4a13-b59e-715c3af9050e","ios":"levelo://app?vid=dda371ed-f57e-4a13-b59e-715c3af9050e"},"vehicle_type_id":"4","last_reported":1732352900,"current_range_meters":18800,"station_id":"cpo36qri1sfpv3e86is0","pricing_plan_id":"cebpf4jnsgd1na2vs0mg"},{"bike_id":"1eff5ce5-2d56-4465-a12c-60db9ec2175a","system_id":"levelo_inurba_marseille","lat":43.22925,"lon":5.35376,"is_reserved":false,"is_disabled":false,"rental_uris":{"android":"levelo://app?vid=1eff5ce5-2d56-4465-a12c-60db9ec2175a","ios":"levelo://app?vid=1eff5ce5-2d56-4465-a12c-60db9ec2175a"},"vehicle_type_id":"4","last_reported":1732352900,"current_range_meters":37600,"station_id":"cpo3532slgdg3j2ikp40","pricing_plan_id":"cebpf4jnsgd1na2vs0mg"},{"bike_id":"dc815649-e3e3-48aa-b0fd-022cdb8ac58a","system_id":"levelo_inurba_marseille","lat":43.32371,"lon":5.38878,"is_reserved":false,"is_disabled":false,"rental_uris":{"android":"levelo://app?vid=dc815649-e3e3-48aa-b0fd-022cdb8ac58a","ios":"levelo://app?vid=dc815649-e3e3-48aa-b0fd-022cdb8ac58a"},"vehicle_type_id":"4","last_reported":1732352900,"current_range_meters":32000,"station_id":"ce4bhqp2rcd13ifvqhog","pricing_plan_id":"cebpf4jnsgd1na2vs0mg"},{"bike_id":"a6c947ec-d484-4556-983a-d984f3f0d64e","system_id":"levelo_inurba_marseille","lat":43.24999,"lon":5.38924,"is_reserved":false,"is_disabled":false,"rental_uris":{"android":"levelo://app?vid=a6c947ec-d484-4556-983a-d984f3f0d64e","ios":"levelo://app?vid=a6c947ec-d484-4556-983a-d984f3f0d64e"},"vehicle_type_id":"4","last_reported":1732352900,"current_range_meters":17200,"station_id":"ce4bhgp2rcd13ifvqfd0","pricing_plan_id":"cebpf4jnsgd1na2vs0mg"},{"bike_id":"c9ac1ef6-9ad3-4bc7-b0a2-8ffc1ae0acff","system_id":"levelo_inurba_marseille","lat":43.2781,"lon":5.40708,"is_reserved":false,"is_disabled":false,"rental_uris":{"android":"levelo://app?vid=c9ac1ef6-9ad3-4bc7-b0a2-8ffc1ae0acff","ios":"levelo://app?vid=c9ac1ef6-9ad3-4bc7-b0a2-8ffc1ae0acff"},"vehicle_type_id":"4","last_reported":1732352900,"current_range_meters":28800,"station_id":"ce4bhnh2rcd13ifvqgtg","pricing_plan_id":"cebpf4jnsgd1na2vs0mg"},{"bike_id":"a0fc717f-3f7c-40e4-95d9-620a9b366eae","system_id":"levelo_inurba_marseille","lat":43.28845,"lon":5.35841,"is_reserved":false,"is_disabled":false,"rental_uris":{"android":"levelo://app?vid=a0fc717f-3f7c-40e4-95d9-620a9b366eae","ios":"levelo://app?vid=a0fc717f-3f7c-40e4-95d9-620a9b366eae"},"vehicle_type_id":"4","last_reported":1732352900,"current_range_meters":32000,"station_id":"ce4bhb12rcd13ifvqem0","pricing_plan_id":"cebpf4jnsgd1na2vs0mg"},{"bike_id":"c490aaac-88b6-407b-8070-d1f7c2874d9b","system_id":"levelo_inurba_marseille","lat":43.26499,"lon":5.3954,"is_reserved":false,"is_disabled":false,"rental_uris":{"android":"levelo://app?vid=c490aaac-88b6-407b-8070-d1f7c2874d9b","ios":"levelo://app?vid=c490aaac-88b6-407b-8070-d1f7c2874d9b"},"vehicle_type_id":"4","last_reported":1732352900,"current_range_meters":38800,"station_id":"ce4bhi12rcd13ifvqfq0","pricing_plan_id":"cebpf4jnsgd1na2vs0mg"},{"bike_id":"b591530d-38c7-4ac0-9ebb-398fb1409b71","system_id":"levelo_inurba_marseille","lat":43.29362,"lon":5.37824,"is_reserved":false,"is_disabled":false,"rental_uris":{"android":"levelo://app?vid=b591530d-38c7-4ac0-9ebb-398fb1409b71","ios":"levelo://app?vid=b591530d-38c7-4ac0-9ebb-398fb1409b71"},"vehicle_type_id":"4","last_reported":1732352900,"current_range_meters":18800,"station_id":"ce4bgjh2rcd13ifvqbf0","pricing_plan_id":"cebpf4jnsgd1na2vs0mg"},{"bike_id":"5f401a72-6ce7-4d38-9fb6-ee5260b34669","system_id":"levelo_inurba_marseille","lat":43.24083,"lon":5.37751,"is_reserved":false,"is_disabled":false,"rental_uris":{"android":"levelo://app?vid=5f401a72-6ce7-4d38-9fb6-ee5260b34669","ios":"levelo://app?vid=5f401a72-6ce7-4d38-9fb6-ee5260b34669"},"vehicle_type_id":"4","last_reported":1732352900,"current_range_meters":38000,"station_id":"ce4bhnp2rcd13ifvqgvg","pricing_plan_id":"cebpf4jnsgd1na2vs0mg"},{"bike_id":"f796b412-9140-415f-9f98-4b489dc2b14e","system_id":"levelo_inurba_marseille","lat":43.26936,"lon":5.40246,"is_reserved":false,"is_disabled":false,"rental_uris":{"android":"levelo://app?vid=f796b412-9140-415f-9f98-4b489dc2b14e","ios":"levelo://app?vid=f796b412-9140-415f-9f98-4b489dc2b14e"},"vehicle_type_id":"4","last_reported":1732352900,"current_range_meters":36800,"station_id":"cjm6bp8fraef2m0cb0m0","pricing_plan_id":"cebpf4jnsgd1na2vs0mg"},{"bike_id":"f3db8695-64da-47ec-8340-c4c8a6858e41","system_id":"levelo_inurba_marseille","lat":43.32288,"lon":5.38268,"is_reserved":false,"is_disabled":false,"rental_uris":{"android":"levelo://app?vid=f3db8695-64da-47ec-8340-c4c8a6858e41","ios":"levelo://app?vid=f3db8695-64da-47ec-8340-c4c8a6858e41"},"vehicle_type_id":"4","last_reported":1732352900,"current_range_meters":18000,"station_id":"ce4bhr12rcd13ifvqhqg","pricing_plan_id":"cebpf4jnsgd1na2vs0mg"},{"bike_id":"2671fb8a-3452-46fd-bec4-bd169133378c","system_id":"levelo_inurba_marseille","lat":43.26689,"lon":5.38275,"is_reserved":false,"is_disabled":true,"rental_uris":{"android":"levelo://app?vid=2671fb8a-3452-46fd-bec4-bd169133378c","ios":"levelo://app?vid=2671fb8a-3452-46fd-bec4-bd169133378c"},"vehicle_type_id":"4","last_reported":1732352900,"current_range_meters":0,"station_id":"ce4bhg92rcd13ifvqf90","pricing_plan_id":"cebpf4jnsgd1na2vs0mg"},{"bike_id":"0002c982-3dcd-4105-b4f8-7e0a03270684","system_id":"levelo_inurba_marseille","lat":43.24079,"lon":5.37754,"is_reserved":false,"is_disabled":false,"rental_uris":{"android":"levelo://app?vid=0002c982-3dcd-4105-b4f8-7e0a03270684","ios":"levelo://app?vid=0002c982-3dcd-4105-b4f8-7e0a03270684"},"vehicle_type_id":"4","last_reported":1732352900,"current_range_meters":5600,"station_id":"ce4bhnp2rcd13ifvqgvg","pricing_plan_id":"cebpf4jnsgd1na2vs0mg"},{"bike_id":"8f965d98-ed0b-4d4e-889d-7e115e8d38c5","system_id":"levelo_inurba_marseille","lat":43.31719,"lon":5.424,"is_reserved":false,"is_disabled":false,"rental_uris":{"android":"levelo://app?vid=8f965d98-ed0b-4d4e-889d-7e115e8d38c5","ios":"levelo://app?vid=8f965d98-ed0b-4d4e-889d-7e115e8d38c5"},"vehicle_type_id":"4","last_reported":1732352900,"current_range_meters":9200,"station_id":"ce4bhp92rcd13ifvqhbg","pricing_plan_id":"cebpf4jnsgd1na2vs0mg"},{"bike_id":"57280779-aa4b-42aa-b70f-28d025254a69","system_id":"levelo_inurba_marseille","lat":43.28806,"lon":5.40009,"is_reserved":false,"is_disabled":false,"rental_uris":{"android":"levelo://app?vid=57280779-aa4b-42aa-b70f-28d025254a69","ios":"levelo://app?vid=57280779-aa4b-42aa-b70f-28d025254a69"},"vehicle_type_id":"4","last_reported":1732352900,"current_range_meters":9200,"station_id":"","pricing_plan_id":"cebpf4jnsgd1na2vs0mg"},{"bike_id":"1752c724-2da7-45b5-8b48-74d9be0dc05d","system_id":"levelo_inurba_marseille","lat":43.27992,"lon":5.40015,"is_reserved":false,"is_disabled":true,"rental_uris":{"android":"levelo://app?vid=1752c724-2da7-45b5-8b48-74d9be0dc05d","ios":"levelo://app?vid=1752c724-2da7-45b5-8b48-74d9be0dc05d"},"vehicle_type_id":"4","last_reported":1732352900,"current_range_meters":0,"station_id":"ce4bho92rcd13ifvqh4g","pricing_plan_id":"cebpf4jnsgd1na2vs0mg"},{"bike_id":"41d5293c-d310-475c-8514-ad6ad524ece8","system_id":"levelo_inurba_marseille","lat":43.29528,"lon":5.37496,"is_reserved":false,"is_disabled":false,"rental_uris":{"android":"levelo://app?vid=41d5293c-d310-475c-8514-ad6ad524ece8","ios":"levelo://app?vid=41d5293c-d310-475c-8514-ad6ad524ece8"},"vehicle_type_id":"4","last_reported":1732352900,"current_range_meters":36400,"station_id":"ce4bgkp2rcd13ifvqbmg","pricing_plan_id":"cebpf4jnsgd1na2vs0mg"},{"bike_id":"20d3901f-9a74-4eff-aa6e-47aa6d7571f1","system_id":"levelo_inurba_marseille","lat":43.29284,"lon":5.37448,"is_reserved":false,"is_disabled":false,"rental_uris":{"android":"levelo://app?vid=20d3901f-9a74-4eff-aa6e-47aa6d7571f1","ios":"levelo://app?vid=20d3901f-9a74-4eff-aa6e-47aa6d7571f1"},"vehicle_type_id":"4","last_reported":1732352900,"current_range_meters":19600,"station_id":"ce4bgi12rcd13ifvqb70","pricing_plan_id":"cebpf4jnsgd1na2vs0mg"},{"bike_id":"f099390a-c100-4560-9274-ff7be92824ac","system_id":"levelo_inurba_marseille","lat":43.30287,"lon":5.37694,"is_reserved":false,"is_disabled":false,"rental_uris":{"android":"levelo://app?vid=f099390a-c100-4560-9274-ff7be92824ac","ios":"levelo://app?vid=f099390a-c100-4560-9274-ff7be92824ac"},"vehicle_type_id":"4","last_reported":1732352900,"current_range_meters":38000,"station_id":"ce4bguh2rcd13ifvqcj0","pricing_plan_id":"cebpf4jnsgd1na2vs0mg"},{"bike_id":"dd4544df-eb9d-4c40-8b48-01c6ba03ca19","system_id":"levelo_inurba_marseille","lat":43.32035,"lon":5.38167,"is_reserved":false,"is_disabled":false,"rental_uris":{"android":"levelo://app?vid=dd4544df-eb9d-4c40-8b48-01c6ba03ca19","ios":"levelo://app?vid=dd4544df-eb9d-4c40-8b48-01c6ba03ca19"},"vehicle_type_id":"4","last_reported":1732352900,"current_range_meters":39200,"station_id":"ce4bhr12rcd13ifvqhpg","pricing_plan_id":"cebpf4jnsgd1na2vs0mg"},{"bike_id":"6f917eb1-620a-4a10-9dee-e6130505a742","system_id":"levelo_inurba_marseille","lat":43.29845,"lon":5.36273,"is_reserved":false,"is_disabled":false,"rental_uris":{"android":"levelo://app?vid=6f917eb1-620a-4a10-9dee-e6130505a742","ios":"levelo://app?vid=6f917eb1-620a-4a10-9dee-e6130505a742"},"vehicle_type_id":"4","last_reported":1732352900,"current_range_meters":36400,"station_id":"ce4bgpp2rcd13ifvqc3g","pricing_plan_id":"cebpf4jnsgd1na2vs0mg"},{"bike_id":"7b3c1754-0f5c-4003-abbb-41136549a06e","system_id":"levelo_inurba_marseille","lat":43.29557,"lon":5.42293,"is_reserved":false,"is_disabled":false,"rental_uris":{"android":"levelo://app?vid=7b3c1754-0f5c-4003-abbb-41136549a06e","ios":"levelo://app?vid=7b3c1754-0f5c-4003-abbb-41136549a06e"},"vehicle_type_id":"4","last_reported":1732352900,"current_range_meters":37600,"station_id":"ce4bhph2rcd13ifvqhdg","pricing_plan_id":"cebpf4jnsgd1na2vs0mg"},{"bike_id":"dffeccd3-600e-418b-9fc1-99c6dfe6c759","system_id":"levelo_inurba_marseille","lat":43.30135,"lon":5.37418,"is_reserved":false,"is_disabled":false,"rental_uris":{"android":"levelo://app?vid=dffeccd3-600e-418b-9fc1-99c6dfe6c759","ios":"levelo://app?vid=dffeccd3-600e-418b-9fc1-99c6dfe6c759"},"vehicle_type_id":"4","last_reported":1732352900,"current_range_meters":23200,"station_id":"ce4bgs92rcd13ifvqcc0","pricing_plan_id":"cebpf4jnsgd1na2vs0mg"},{"bike_id":"d99d745a-edcb-4d3d-bf9d-7fa79bc2aaf5","system_id":"levelo_inurba_marseille","lat":43.31996,"lon":5.38147,"is_reserved":false,"is_disabled":false,"rental_uris":{"android":"levelo://app?vid=d99d745a-edcb-4d3d-bf9d-7fa79bc2aaf5","ios":"levelo://app?vid=d99d745a-edcb-4d3d-bf9d-7fa79bc2aaf5"},"vehicle_type_id":"4","last_reported":1732352900,"current_range_meters":12000,"station_id":"ce4bhr12rcd13ifvqhpg","pricing_plan_id":"cebpf4jnsgd1na2vs0mg"},{"bike_id":"86d00368-3e57-4588-a9e5-fcb3b1ec0c32","system_id":"levelo_inurba_marseille","lat":43.27692,"lon":5.3889,"is_reserved":false,"is_disabled":false,"rental_uris":{"android":"levelo://app?vid=86d00368-3e57-4588-a9e5-fcb3b1ec0c32","ios":"levelo://app?vid=86d00368-3e57-4588-a9e5-fcb3b1ec0c32"},"vehicle_type_id":"4","last_reported":1732352900,"current_range_meters":37600,"station_id":"ce4bhi12rcd13ifvqfo0","pricing_plan_id":"cebpf4jnsgd1na2vs0mg"},{"bike_id":"ad6e6b29-7df9-499b-bd36-89daa71fbff2","system_id":"levelo_inurba_marseille","lat":43.29272,"lon":5.40117,"is_reserved":false,"is_disabled":false,"rental_uris":{"android":"levelo://app?vid=ad6e6b29-7df9-499b-bd36-89daa71fbff2","ios":"levelo://app?vid=ad6e6b29-7df9-499b-bd36-89daa71fbff2"},"vehicle_type_id":"4","last_reported":1732352900,"current_range_meters":36800,"station_id":"ce4bh312rcd13ifvqdk0","pricing_plan_id":"cebpf4jnsgd1na2vs0mg"},{"bike_id":"bc26b1d5-44bc-4162-8b72-2310cf3d9b1c","system_id":"levelo_inurba_marseille","lat":43.29368,"lon":5.37851,"is_reserved":false,"is_disabled":false,"rental_uris":{"android":"levelo://app?vid=bc26b1d5-44bc-4162-8b72-2310cf3d9b1c","ios":"levelo://app?vid=bc26b1d5-44bc-4162-8b72-2310cf3d9b1c"},"vehicle_type_id":"4","last_reported":1732352900,"current_range_meters":25200,"station_id":"ce4bgjh2rcd13ifvqbf0","pricing_plan_id":"cebpf4jnsgd1na2vs0mg"},{"bike_id":"552ae1f9-34eb-4d70-a19b-3616d3661778","system_id":"levelo_inurba_marseille","lat":43.33727,"lon":5.39176,"is_reserved":false,"is_disabled":false,"rental_uris":{"android":"levelo://app?vid=552ae1f9-34eb-4d70-a19b-3616d3661778","ios":"levelo://app?vid=552ae1f9-34eb-4d70-a19b-3616d3661778"},"vehicle_type_id":"4","last_reported":1732352900,"current_range_meters":22000,"station_id":"ce4bhr92rcd13ifvqhsg","pricing_plan_id":"cebpf4jnsgd1na2vs0mg"},{"bike_id":"fed0e774-21f9-4eb7-8495-0f2046103edd","system_id":"levelo_inurba_marseille","lat":43.26164,"lon":5.40507,"is_reserved":false,"is_disabled":false,"rental_uris":{"android":"levelo://app?vid=fed0e774-21f9-4eb7-8495-0f2046103edd","ios":"levelo://app?vid=fed0e774-21f9-4eb7-8495-0f2046103edd"},"vehicle_type_id":"4","last_reported":1732352900,"current_range_meters":24400,"station_id":"","pricing_plan_id":"cebpf4jnsgd1na2vs0mg"},{"bike_id":"f7f3756c-1ec7-4782-9c87-6273f87b6774","system_id":"levelo_inurba_marseille","lat":43.337444,"lon":5.374475,"is_reserved":false,"is_disabled":true,"rental_uris":{"android":"levelo://app?vid=f7f3756c-1ec7-4782-9c87-6273f87b6774","ios":"levelo://app?vid=f7f3756c-1ec7-4782-9c87-6273f87b6774"},"vehicle_type_id":"4","last_reported":1732352900,"current_range_meters":33600,"station_id":"","pricing_plan_id":"cebpf4jnsgd1na2vs0mg"},{"bike_id":"bdca9a5b-dace-4172-b957-73aa4aa4eeb4","system_id":"levelo_inurba_marseille","lat":43.26565,"lon":5.39002,"is_reserved":false,"is_disabled":true,"rental_uris":{"android":"levelo://app?vid=bdca9a5b-dace-4172-b957-73aa4aa4eeb4","ios":"levelo://app?vid=bdca9a5b-dace-4172-b957-73aa4aa4eeb4"},"vehicle_type_id":"4","last_reported":1732352900,"current_range_meters":37600,"station_id":"ce4bhe12rcd13ifvqf30","pricing_plan_id":"cebpf4jnsgd1na2vs0mg"},{"bike_id":"9b282b50-9a43-45b7-aca2-3e9b82ac4210","system_id":"levelo_inurba_marseille","lat":43.29035,"lon":5.39956,"is_reserved":false,"is_disabled":false,"rental_uris":{"android":"levelo://app?vid=9b282b50-9a43-45b7-aca2-3e9b82ac4210","ios":"levelo://app?vid=9b282b50-9a43-45b7-aca2-3e9b82ac4210"},"vehicle_type_id":"4","last_reported":1732352900,"current_range_meters":36000,"station_id":"ce4bh392rcd13ifvqdm0","pricing_plan_id":"cebpf4jnsgd1na2vs0mg"},{"bike_id":"e8f826ec-cf1d-427e-a65b-cf83f280be00","system_id":"levelo_inurba_marseille","lat":43.27066,"lon":5.40252,"is_reserved":false,"is_disabled":true,"rental_uris":{"android":"levelo://app?vid=e8f826ec-cf1d-427e-a65b-cf83f280be00","ios":"levelo://app?vid=e8f826ec-cf1d-427e-a65b-cf83f280be00"},"vehicle_type_id":"4","last_reported":1732352900,"current_range_meters":1200,"station_id":"ce4bhk92rcd13ifvqgc0","pricing_plan_id":"cebpf4jnsgd1na2vs0mg"},{"bike_id":"99280cf8-c049-4d28-b9ac-acaa05e32f0f","system_id":"levelo_inurba_marseille","lat":43.29549,"lon":5.42282,"is_reserved":false,"is_disabled":false,"rental_uris":{"android":"levelo://app?vid=99280cf8-c049-4d28-b9ac-acaa05e32f0f","ios":"levelo://app?vid=99280cf8-c049-4d28-b9ac-acaa05e32f0f"},"vehicle_type_id":"4","last_reported":1732352900,"current_range_meters":39200,"station_id":"ce4bhph2rcd13ifvqhdg","pricing_plan_id":"cebpf4jnsgd1na2vs0mg"},{"bike_id":"7321aabf-b088-45e0-9d91-8e497e6d692a","system_id":"levelo_inurba_marseille","lat":43.31762,"lon":5.39011,"is_reserved":false,"is_disabled":false,"rental_uris":{"android":"levelo://app?vid=7321aabf-b088-45e0-9d91-8e497e6d692a","ios":"levelo://app?vid=7321aabf-b088-45e0-9d91-8e497e6d692a"},"vehicle_type_id":"4","last_reported":1732352900,"current_range_meters":27600,"station_id":"ce4bhqp2rcd13ifvqhng","pricing_plan_id":"cebpf4jnsgd1na2vs0mg"},{"bike_id":"0eb61bb6-3d03-4d33-be57-99d7b15d85b5","system_id":"levelo_inurba_marseille","lat":43.22932,"lon":5.35381,"is_reserved":false,"is_disabled":false,"rental_uris":{"android":"levelo://app?vid=0eb61bb6-3d03-4d33-be57-99d7b15d85b5","ios":"levelo://app?vid=0eb61bb6-3d03-4d33-be57-99d7b15d85b5"},"vehicle_type_id":"4","last_reported":1732352900,"current_range_meters":24000,"station_id":"cpo3532slgdg3j2ikp40","pricing_plan_id":"cebpf4jnsgd1na2vs0mg"},{"bike_id":"e74125a9-74c4-4830-af92-47ce6562e6bd","system_id":"levelo_inurba_marseille","lat":43.24653,"lon":5.38892,"is_reserved":false,"is_disabled":false,"rental_uris":{"android":"levelo://app?vid=e74125a9-74c4-4830-af92-47ce6562e6bd","ios":"levelo://app?vid=e74125a9-74c4-4830-af92-47ce6562e6bd"},"vehicle_type_id":"4","last_reported":1732352900,"current_range_meters":38800,"station_id":"ce4bhg12rcd13ifvqf60","pricing_plan_id":"cebpf4jnsgd1na2vs0mg"},{"bike_id":"004b1cb8-188f-4e0a-83af-382dd195ad54","system_id":"levelo_inurba_marseille","lat":43.23192,"lon":5.35549,"is_reserved":false,"is_disabled":false,"rental_uris":{"android":"levelo://app?vid=004b1cb8-188f-4e0a-83af-382dd195ad54","ios":"levelo://app?vid=004b1cb8-188f-4e0a-83af-382dd195ad54"},"vehicle_type_id":"4","last_reported":1732352900,"current_range_meters":30400,"station_id":"ce4bhu92rcd13ifvqi70","pricing_plan_id":"cebpf4jnsgd1na2vs0mg"},{"bike_id":"cbe88c6b-9761-4817-9904-65c7c430946e","system_id":"levelo_inurba_marseille","lat":43.30464,"lon":5.37913,"is_reserved":false,"is_disabled":false,"rental_uris":{"android":"levelo://app?vid=cbe88c6b-9761-4817-9904-65c7c430946e","ios":"levelo://app?vid=cbe88c6b-9761-4817-9904-65c7c430946e"},"vehicle_type_id":"4","last_reported":1732352900,"current_range_meters":26000,"station_id":"ce4bgup2rcd13ifvqcn0","pricing_plan_id":"cebpf4jnsgd1na2vs0mg"},{"bike_id":"c2a59ab3-d6b8-4918-82c9-bfcce921601e","system_id":"levelo_inurba_marseille","lat":43.32485,"lon":5.3657,"is_reserved":false,"is_disabled":false,"rental_uris":{"android":"levelo://app?vid=c2a59ab3-d6b8-4918-82c9-bfcce921601e","ios":"levelo://app?vid=c2a59ab3-d6b8-4918-82c9-bfcce921601e"},"vehicle_type_id":"4","last_reported":1732352900,"current_range_meters":12000,"station_id":"ce4bhs12rcd13ifvqhvg","pricing_plan_id":"cebpf4jnsgd1na2vs0mg"},{"bike_id":"ab2bd6ac-9de3-4608-99ab-3ed37d56966d","system_id":"levelo_inurba_marseille","lat":43.3137,"lon":5.38492,"is_reserved":false,"is_disabled":false,"rental_uris":{"android":"levelo://app?vid=ab2bd6ac-9de3-4608-99ab-3ed37d56966d","ios":"levelo://app?vid=ab2bd6ac-9de3-4608-99ab-3ed37d56966d"},"vehicle_type_id":"4","last_reported":1732352900,"current_range_meters":35200,"station_id":"ce4bgt92rcd13ifvqcf0","pricing_plan_id":"cebpf4jnsgd1na2vs0mg"},{"bike_id":"58c180dc-c06a-46fe-9701-0fd5163c8626","system_id":"levelo_inurba_marseille","lat":43.29578,"lon":5.42304,"is_reserved":false,"is_disabled":false,"rental_uris":{"android":"levelo://app?vid=58c180dc-c06a-46fe-9701-0fd5163c8626","ios":"levelo://app?vid=58c180dc-c06a-46fe-9701-0fd5163c8626"},"vehicle_type_id":"4","last_reported":1732352900,"current_range_meters":37600,"station_id":"ce4bhph2rcd13ifvqhdg","pricing_plan_id":"cebpf4jnsgd1na2vs0mg"},{"bike_id":"da06c975-96d8-401b-b71d-d72a67530ce9","system_id":"levelo_inurba_marseille","lat":43.29715,"lon":5.37688,"is_reserved":false,"is_disabled":false,"rental_uris":{"android":"levelo://app?vid=da06c975-96d8-401b-b71d-d72a67530ce9","ios":"levelo://app?vid=da06c975-96d8-401b-b71d-d72a67530ce9"},"vehicle_type_id":"4","last_reported":1732352900,"current_range_meters":20400,"station_id":"ce4bgkh2rcd13ifvqbl0","pricing_plan_id":"cebpf4jnsgd1na2vs0mg"},{"bike_id":"41a2b897-b7fa-43cb-93d2-17b62d1ee220","system_id":"levelo_inurba_marseille","lat":43.26204,"lon":5.37443,"is_reserved":false,"is_disabled":false,"rental_uris":{"android":"levelo://app?vid=41a2b897-b7fa-43cb-93d2-17b62d1ee220","ios":"levelo://app?vid=41a2b897-b7fa-43cb-93d2-17b62d1ee220"},"vehicle_type_id":"4","last_reported":1732352900,"current_range_meters":37600,"station_id":"ce4bhgp2rcd13ifvqfc0","pricing_plan_id":"cebpf4jnsgd1na2vs0mg"},{"bike_id":"252c8262-fde7-42db-851f-9022b4276b02","system_id":"levelo_inurba_marseille","lat":43.26961,"lon":5.38612,"is_reserved":false,"is_disabled":false,"rental_uris":{"android":"levelo://app?vid=252c8262-fde7-42db-851f-9022b4276b02","ios":"levelo://app?vid=252c8262-fde7-42db-851f-9022b4276b02"},"vehicle_type_id":"4","last_reported":1732352900,"current_range_meters":14000,"station_id":"ce4bhh92rcd13ifvqfh0","pricing_plan_id":"cebpf4jnsgd1na2vs0mg"},{"bike_id":"b60466ef-8514-4f53-ab0a-ebf1071dc205","system_id":"levelo_inurba_marseille","lat":43.32362,"lon":5.38881,"is_reserved":false,"is_disabled":false,"rental_uris":{"android":"levelo://app?vid=b60466ef-8514-4f53-ab0a-ebf1071dc205","ios":"levelo://app?vid=b60466ef-8514-4f53-ab0a-ebf1071dc205"},"vehicle_type_id":"4","last_reported":1732352900,"current_range_meters":30400,"station_id":"ce4bhqp2rcd13ifvqhog","pricing_plan_id":"cebpf4jnsgd1na2vs0mg"},{"bike_id":"b140ddac-d239-4e7f-b232-cb74c4412e3c","system_id":"levelo_inurba_marseille","lat":43.2989,"lon":5.39735,"is_reserved":false,"is_disabled":false,"rental_uris":{"android":"levelo://app?vid=b140ddac-d239-4e7f-b232-cb74c4412e3c","ios":"levelo://app?vid=b140ddac-d239-4e7f-b232-cb74c4412e3c"},"vehicle_type_id":"4","last_reported":1732352900,"current_range_meters":38800,"station_id":"ce4bh0h2rcd13ifvqd50","pricing_plan_id":"cebpf4jnsgd1na2vs0mg"},{"bike_id":"20db0e6b-7fc1-4f13-aeb2-811ab390dd13","system_id":"levelo_inurba_marseille","lat":43.32481,"lon":5.36563,"is_reserved":false,"is_disabled":false,"rental_uris":{"android":"levelo://app?vid=20db0e6b-7fc1-4f13-aeb2-811ab390dd13","ios":"levelo://app?vid=20db0e6b-7fc1-4f13-aeb2-811ab390dd13"},"vehicle_type_id":"4","last_reported":1732352900,"current_range_meters":36800,"station_id":"ce4bhs12rcd13ifvqhvg","pricing_plan_id":"cebpf4jnsgd1na2vs0mg"},{"bike_id":"0b0796e8-4aa1-47ec-bf36-a7060666faa4","system_id":"levelo_inurba_marseille","lat":43.29224,"lon":5.36066,"is_reserved":false,"is_disabled":false,"rental_uris":{"android":"levelo://app?vid=0b0796e8-4aa1-47ec-bf36-a7060666faa4","ios":"levelo://app?vid=0b0796e8-4aa1-47ec-bf36-a7060666faa4"},"vehicle_type_id":"4","last_reported":1732352900,"current_range_meters":36800,"station_id":"ce4bhbh2rcd13ifvqeqg","pricing_plan_id":"cebpf4jnsgd1na2vs0mg"},{"bike_id":"13b751d7-077d-4f29-8350-fc32ddaecb6a","system_id":"levelo_inurba_marseille","lat":43.26557,"lon":5.37281,"is_reserved":false,"is_disabled":false,"rental_uris":{"android":"levelo://app?vid=13b751d7-077d-4f29-8350-fc32ddaecb6a","ios":"levelo://app?vid=13b751d7-077d-4f29-8350-fc32ddaecb6a"},"vehicle_type_id":"4","last_reported":1732352900,"current_range_meters":36000,"station_id":"ce4bhg12rcd13ifvqf70","pricing_plan_id":"cebpf4jnsgd1na2vs0mg"},{"bike_id":"e5951ee3-4a5a-4ebb-b469-096c5188dfa3","system_id":"levelo_inurba_marseille","lat":43.23187,"lon":5.35551,"is_reserved":false,"is_disabled":false,"rental_uris":{"android":"levelo://app?vid=e5951ee3-4a5a-4ebb-b469-096c5188dfa3","ios":"levelo://app?vid=e5951ee3-4a5a-4ebb-b469-096c5188dfa3"},"vehicle_type_id":"4","last_reported":1732352900,"current_range_meters":24800,"station_id":"ce4bhu92rcd13ifvqi70","pricing_plan_id":"cebpf4jnsgd1na2vs0mg"},{"bike_id":"31753f3e-d401-4c50-b90a-b53a739d594a","system_id":"levelo_inurba_marseille","lat":43.28296,"lon":5.43225,"is_reserved":false,"is_disabled":false,"rental_uris":{"android":"levelo://app?vid=31753f3e-d401-4c50-b90a-b53a739d594a","ios":"levelo://app?vid=31753f3e-d401-4c50-b90a-b53a739d594a"},"vehicle_type_id":"4","last_reported":1732352900,"current_range_meters":25200,"station_id":"","pricing_plan_id":"cebpf4jnsgd1na2vs0mg"},{"bike_id":"bf9491c2-211c-40b6-a87f-b167fabb26bf","system_id":"levelo_inurba_marseille","lat":43.26809,"lon":5.40255,"is_reserved":false,"is_disabled":false,"rental_uris":{"android":"levelo://app?vid=bf9491c2-211c-40b6-a87f-b167fabb26bf","ios":"levelo://app?vid=bf9491c2-211c-40b6-a87f-b167fabb26bf"},"vehicle_type_id":"4","last_reported":1732352900,"current_range_meters":26800,"station_id":"ce501612rcd8frsf0b60","pricing_plan_id":"cebpf4jnsgd1na2vs0mg"},{"bike_id":"598543c3-4504-4ea3-976e-b45e767de5ed","system_id":"levelo_inurba_marseille","lat":43.32367,"lon":5.38874,"is_reserved":false,"is_disabled":false,"rental_uris":{"android":"levelo://app?vid=598543c3-4504-4ea3-976e-b45e767de5ed","ios":"levelo://app?vid=598543c3-4504-4ea3-976e-b45e767de5ed"},"vehicle_type_id":"4","last_reported":1732352900,"current_range_meters":32000,"station_id":"ce4bhqp2rcd13ifvqhog","pricing_plan_id":"cebpf4jnsgd1na2vs0mg"},{"bike_id":"15f65515-f417-4121-aca3-911be223bfc9","system_id":"levelo_inurba_marseille","lat":43.25004,"lon":5.38935,"is_reserved":false,"is_disabled":false,"rental_uris":{"android":"levelo://app?vid=15f65515-f417-4121-aca3-911be223bfc9","ios":"levelo://app?vid=15f65515-f417-4121-aca3-911be223bfc9"},"vehicle_type_id":"4","last_reported":1732352900,"current_range_meters":36000,"station_id":"ce4bhgp2rcd13ifvqfd0","pricing_plan_id":"cebpf4jnsgd1na2vs0mg"},{"bike_id":"44abef4f-7bb3-417f-9f17-632a234b6e5d","system_id":"levelo_inurba_marseille","lat":43.32107,"lon":5.36773,"is_reserved":false,"is_disabled":false,"rental_uris":{"android":"levelo://app?vid=44abef4f-7bb3-417f-9f17-632a234b6e5d","ios":"levelo://app?vid=44abef4f-7bb3-417f-9f17-632a234b6e5d"},"vehicle_type_id":"4","last_reported":1732352900,"current_range_meters":17600,"station_id":"ce4bhrh2rcd13ifvqhug","pricing_plan_id":"cebpf4jnsgd1na2vs0mg"},{"bike_id":"830ab6f1-9f97-4b81-a374-96032fba99d2","system_id":"levelo_inurba_marseille","lat":43.24469,"lon":5.36926,"is_reserved":false,"is_disabled":true,"rental_uris":{"android":"levelo://app?vid=830ab6f1-9f97-4b81-a374-96032fba99d2","ios":"levelo://app?vid=830ab6f1-9f97-4b81-a374-96032fba99d2"},"vehicle_type_id":"4","last_reported":1732352900,"current_range_meters":23200,"station_id":"","pricing_plan_id":"cebpf4jnsgd1na2vs0mg"},{"bike_id":"6c948e9c-d5b3-4fe5-a918-1bd2f7c83b02","system_id":"levelo_inurba_marseille","lat":43.32112,"lon":5.3677,"is_reserved":false,"is_disabled":false,"rental_uris":{"android":"levelo://app?vid=6c948e9c-d5b3-4fe5-a918-1bd2f7c83b02","ios":"levelo://app?vid=6c948e9c-d5b3-4fe5-a918-1bd2f7c83b02"},"vehicle_type_id":"4","last_reported":1732352900,"current_range_meters":34000,"station_id":"ce4bhrh2rcd13ifvqhug","pricing_plan_id":"cebpf4jnsgd1na2vs0mg"},{"bike_id":"9e620abf-d324-4f99-84fc-d67e71109f2a","system_id":"levelo_inurba_marseille","lat":43.31079,"lon":5.42425,"is_reserved":false,"is_disabled":true,"rental_uris":{"android":"levelo://app?vid=9e620abf-d324-4f99-84fc-d67e71109f2a","ios":"levelo://app?vid=9e620abf-d324-4f99-84fc-d67e71109f2a"},"vehicle_type_id":"4","last_reported":1732352900,"current_range_meters":0,"station_id":"ce4bhp92rcd13ifvqhag","pricing_plan_id":"cebpf4jnsgd1na2vs0mg"},{"bike_id":"9388a7ff-9c5c-4c26-9899-39b2408cf7e3","system_id":"levelo_inurba_marseille","lat":43.31025,"lon":5.38342,"is_reserved":false,"is_disabled":true,"rental_uris":{"android":"levelo://app?vid=9388a7ff-9c5c-4c26-9899-39b2408cf7e3","ios":"levelo://app?vid=9388a7ff-9c5c-4c26-9899-39b2408cf7e3"},"vehicle_type_id":"4","last_reported":1732352900,"current_range_meters":0,"station_id":"","pricing_plan_id":"cebpf4jnsgd1na2vs0mg"},{"bike_id":"510e9f28-21eb-4f2f-8550-9e4424ec416c","system_id":"levelo_inurba_marseille","lat":43.23956,"lon":5.36629,"is_reserved":false,"is_disabled":false,"rental_uris":{"android":"levelo://app?vid=510e9f28-21eb-4f2f-8550-9e4424ec416c","ios":"levelo://app?vid=510e9f28-21eb-4f2f-8550-9e4424ec416c"},"vehicle_type_id":"4","last_reported":1732352900,"current_range_meters":39200,"station_id":"ce4bhi12rcd13ifvqfp0","pricing_plan_id":"cebpf4jnsgd1na2vs0mg"},{"bike_id":"66ee35b6-2e86-4380-a3c4-e228b6d3b9e8","system_id":"levelo_inurba_marseille","lat":43.24076,"lon":5.37756,"is_reserved":false,"is_disabled":false,"rental_uris":{"android":"levelo://app?vid=66ee35b6-2e86-4380-a3c4-e228b6d3b9e8","ios":"levelo://app?vid=66ee35b6-2e86-4380-a3c4-e228b6d3b9e8"},"vehicle_type_id":"4","last_reported":1732352900,"current_range_meters":19200,"station_id":"ce4bhnp2rcd13ifvqgvg","pricing_plan_id":"cebpf4jnsgd1na2vs0mg"},{"bike_id":"b655e67f-3daa-4d19-94e5-9c754246564d","system_id":"levelo_inurba_marseille","lat":43.32365,"lon":5.3888,"is_reserved":false,"is_disabled":false,"rental_uris":{"android":"levelo://app?vid=b655e67f-3daa-4d19-94e5-9c754246564d","ios":"levelo://app?vid=b655e67f-3daa-4d19-94e5-9c754246564d"},"vehicle_type_id":"4","last_reported":1732352900,"current_range_meters":15200,"station_id":"ce4bhqp2rcd13ifvqhog","pricing_plan_id":"cebpf4jnsgd1na2vs0mg"},{"bike_id":"36aa1a88-374c-4e55-9639-7ab1f510fc14","system_id":"levelo_inurba_marseille","lat":43.30462,"lon":5.37906,"is_reserved":false,"is_disabled":false,"rental_uris":{"android":"levelo://app?vid=36aa1a88-374c-4e55-9639-7ab1f510fc14","ios":"levelo://app?vid=36aa1a88-374c-4e55-9639-7ab1f510fc14"},"vehicle_type_id":"4","last_reported":1732352900,"current_range_meters":28800,"station_id":"ce4bgup2rcd13ifvqcn0","pricing_plan_id":"cebpf4jnsgd1na2vs0mg"},{"bike_id":"d7741e62-27c5-44e6-b344-0df08ce2f28d","system_id":"levelo_inurba_marseille","lat":43.296,"lon":5.38088,"is_reserved":false,"is_disabled":false,"rental_uris":{"android":"levelo://app?vid=d7741e62-27c5-44e6-b344-0df08ce2f28d","ios":"levelo://app?vid=d7741e62-27c5-44e6-b344-0df08ce2f28d"},"vehicle_type_id":"4","last_reported":1732352900,"current_range_meters":22800,"station_id":"ce4bgl12rcd13ifvqbo0","pricing_plan_id":"cebpf4jnsgd1na2vs0mg"},{"bike_id":"5c53cfbd-2547-413a-b79a-f8cc3b1ca992","system_id":"levelo_inurba_marseille","lat":43.32112,"lon":5.36769,"is_reserved":false,"is_disabled":false,"rental_uris":{"android":"levelo://app?vid=5c53cfbd-2547-413a-b79a-f8cc3b1ca992","ios":"levelo://app?vid=5c53cfbd-2547-413a-b79a-f8cc3b1ca992"},"vehicle_type_id":"4","last_reported":1732352900,"current_range_meters":10800,"station_id":"ce4bhrh2rcd13ifvqhug","pricing_plan_id":"cebpf4jnsgd1na2vs0mg"},{"bike_id":"472aaff9-49bb-4dc0-8a82-a8a43bea5abb","system_id":"levelo_inurba_marseille","lat":43.29028,"lon":5.38131,"is_reserved":false,"is_disabled":false,"rental_uris":{"android":"levelo://app?vid=472aaff9-49bb-4dc0-8a82-a8a43bea5abb","ios":"levelo://app?vid=472aaff9-49bb-4dc0-8a82-a8a43bea5abb"},"vehicle_type_id":"4","last_reported":1732352900,"current_range_meters":36000,"station_id":"ce4bh4p2rcd13ifvqe1g","pricing_plan_id":"cebpf4jnsgd1na2vs0mg"},{"bike_id":"d113aa55-f788-4c39-97ea-0b46f5e07e60","system_id":"levelo_inurba_marseille","lat":43.29273,"lon":5.40129,"is_reserved":false,"is_disabled":false,"rental_uris":{"android":"levelo://app?vid=d113aa55-f788-4c39-97ea-0b46f5e07e60","ios":"levelo://app?vid=d113aa55-f788-4c39-97ea-0b46f5e07e60"},"vehicle_type_id":"4","last_reported":1732352900,"current_range_meters":38800,"station_id":"ce4bh312rcd13ifvqdk0","pricing_plan_id":"cebpf4jnsgd1na2vs0mg"},{"bike_id":"85c01c0b-dd5c-4809-bf61-68287b12d903","system_id":"levelo_inurba_marseille","lat":43.32366,"lon":5.38897,"is_reserved":false,"is_disabled":false,"rental_uris":{"android":"levelo://app?vid=85c01c0b-dd5c-4809-bf61-68287b12d903","ios":"levelo://app?vid=85c01c0b-dd5c-4809-bf61-68287b12d903"},"vehicle_type_id":"4","last_reported":1732352900,"current_range_meters":32000,"station_id":"ce4bhqp2rcd13ifvqhog","pricing_plan_id":"cebpf4jnsgd1na2vs0mg"},{"bike_id":"a15108ae-54d2-4b2f-970a-15e75a3b6fcf","system_id":"levelo_inurba_marseille","lat":43.29573,"lon":5.37503,"is_reserved":false,"is_disabled":false,"rental_uris":{"android":"levelo://app?vid=a15108ae-54d2-4b2f-970a-15e75a3b6fcf","ios":"levelo://app?vid=a15108ae-54d2-4b2f-970a-15e75a3b6fcf"},"vehicle_type_id":"4","last_reported":1732352900,"current_range_meters":27600,"station_id":"ce4bgh92rcd13ifvqb50","pricing_plan_id":"cebpf4jnsgd1na2vs0mg"},{"bike_id":"7d22169d-907d-479c-8664-ebd6dadb86ca","system_id":"levelo_inurba_marseille","lat":43.24391,"lon":5.37047,"is_reserved":false,"is_disabled":false,"rental_uris":{"android":"levelo://app?vid=7d22169d-907d-479c-8664-ebd6dadb86ca","ios":"levelo://app?vid=7d22169d-907d-479c-8664-ebd6dadb86ca"},"vehicle_type_id":"4","last_reported":1732352900,"current_range_meters":32000,"station_id":"ce4bhhh2rcd13ifvqfk0","pricing_plan_id":"cebpf4jnsgd1na2vs0mg"},{"bike_id":"5739a3b5-f327-4b24-8d9c-0078f71aa84a","system_id":"levelo_inurba_marseille","lat":43.25584,"lon":5.38233,"is_reserved":false,"is_disabled":false,"rental_uris":{"android":"levelo://app?vid=5739a3b5-f327-4b24-8d9c-0078f71aa84a","ios":"levelo://app?vid=5739a3b5-f327-4b24-8d9c-0078f71aa84a"},"vehicle_type_id":"4","last_reported":1732352900,"current_range_meters":34000,"station_id":"ce4bhih2rcd13ifvqfs0","pricing_plan_id":"cebpf4jnsgd1na2vs0mg"},{"bike_id":"37ef7934-0a76-4b57-806b-40587504b279","system_id":"levelo_inurba_marseille","lat":43.287057,"lon":5.399926,"is_reserved":false,"is_disabled":true,"rental_uris":{"android":"levelo://app?vid=37ef7934-0a76-4b57-806b-40587504b279","ios":"levelo://app?vid=37ef7934-0a76-4b57-806b-40587504b279"},"vehicle_type_id":"4","last_reported":1732352900,"current_range_meters":9600,"station_id":"ce4bho92rcd13ifvqh3g","pricing_plan_id":"cebpf4jnsgd1na2vs0mg"},{"bike_id":"56ca6b93-ca3d-4dfc-8e20-e35c24d8bd07","system_id":"levelo_inurba_marseille","lat":43.337444,"lon":5.374475,"is_reserved":false,"is_disabled":true,"rental_uris":{"android":"levelo://app?vid=56ca6b93-ca3d-4dfc-8e20-e35c24d8bd07","ios":"levelo://app?vid=56ca6b93-ca3d-4dfc-8e20-e35c24d8bd07"},"vehicle_type_id":"4","last_reported":1732352900,"current_range_meters":1600,"station_id":"","pricing_plan_id":"cebpf4jnsgd1na2vs0mg"},{"bike_id":"62100017-c228-4778-8fb1-55628752a109","system_id":"levelo_inurba_marseille","lat":43.295912,"lon":5.380976,"is_reserved":false,"is_disabled":false,"rental_uris":{"android":"levelo://app?vid=62100017-c228-4778-8fb1-55628752a109","ios":"levelo://app?vid=62100017-c228-4778-8fb1-55628752a109"},"vehicle_type_id":"4","last_reported":1732352900,"current_range_meters":36400,"station_id":"ce4bgl12rcd13ifvqbo0","pricing_plan_id":"cebpf4jnsgd1na2vs0mg"},{"bike_id":"8b913213-c82c-4e11-967e-7d3c72942d7d","system_id":"levelo_inurba_marseille","lat":43.27989,"lon":5.39998,"is_reserved":false,"is_disabled":true,"rental_uris":{"android":"levelo://app?vid=8b913213-c82c-4e11-967e-7d3c72942d7d","ios":"levelo://app?vid=8b913213-c82c-4e11-967e-7d3c72942d7d"},"vehicle_type_id":"4","last_reported":1732352900,"current_range_meters":30400,"station_id":"ce4bho92rcd13ifvqh4g","pricing_plan_id":"cebpf4jnsgd1na2vs0mg"},{"bike_id":"9efab7bb-b9af-4dfb-bd79-748c30966d28","system_id":"levelo_inurba_marseille","lat":43.31762,"lon":5.3901,"is_reserved":false,"is_disabled":true,"rental_uris":{"android":"levelo://app?vid=9efab7bb-b9af-4dfb-bd79-748c30966d28","ios":"levelo://app?vid=9efab7bb-b9af-4dfb-bd79-748c30966d28"},"vehicle_type_id":"4","last_reported":1732352900,"current_range_meters":38000,"station_id":"ce4bhqp2rcd13ifvqhng","pricing_plan_id":"cebpf4jnsgd1na2vs0mg"},{"bike_id":"b9241f7d-d489-42c0-871a-6631f3408ea8","system_id":"levelo_inurba_marseille","lat":43.283756,"lon":5.375309,"is_reserved":false,"is_disabled":false,"rental_uris":{"android":"levelo://app?vid=b9241f7d-d489-42c0-871a-6631f3408ea8","ios":"levelo://app?vid=b9241f7d-d489-42c0-871a-6631f3408ea8"},"vehicle_type_id":"4","last_reported":1732352900,"current_range_meters":18800,"station_id":"ce4bh412rcd13ifvqds0","pricing_plan_id":"cebpf4jnsgd1na2vs0mg"},{"bike_id":"24c152c5-f9cc-47c4-8695-6d2febf60713","system_id":"levelo_inurba_marseille","lat":43.24071,"lon":5.37759,"is_reserved":false,"is_disabled":false,"rental_uris":{"android":"levelo://app?vid=24c152c5-f9cc-47c4-8695-6d2febf60713","ios":"levelo://app?vid=24c152c5-f9cc-47c4-8695-6d2febf60713"},"vehicle_type_id":"4","last_reported":1732352900,"current_range_meters":21600,"station_id":"ce4bhnp2rcd13ifvqgvg","pricing_plan_id":"cebpf4jnsgd1na2vs0mg"},{"bike_id":"83337326-f5c3-42c2-859d-557e46247110","system_id":"levelo_inurba_marseille","lat":43.32369,"lon":5.38872,"is_reserved":false,"is_disabled":false,"rental_uris":{"android":"levelo://app?vid=83337326-f5c3-42c2-859d-557e46247110","ios":"levelo://app?vid=83337326-f5c3-42c2-859d-557e46247110"},"vehicle_type_id":"4","last_reported":1732352900,"current_range_meters":4800,"station_id":"ce4bhqp2rcd13ifvqhog","pricing_plan_id":"cebpf4jnsgd1na2vs0mg"},{"bike_id":"e9fc18e1-4686-452d-b29b-bde3e9705fd0","system_id":"levelo_inurba_marseille","lat":43.24073,"lon":5.37755,"is_reserved":false,"is_disabled":false,"rental_uris":{"android":"levelo://app?vid=e9fc18e1-4686-452d-b29b-bde3e9705fd0","ios":"levelo://app?vid=e9fc18e1-4686-452d-b29b-bde3e9705fd0"},"vehicle_type_id":"4","last_reported":1732352900,"current_range_meters":11600,"station_id":"ce4bhnp2rcd13ifvqgvg","pricing_plan_id":"cebpf4jnsgd1na2vs0mg"},{"bike_id":"5dd0614d-8509-4a17-9246-efc4f3a3f829","system_id":"levelo_inurba_marseille","lat":43.30154,"lon":5.38074,"is_reserved":false,"is_disabled":false,"rental_uris":{"android":"levelo://app?vid=5dd0614d-8509-4a17-9246-efc4f3a3f829","ios":"levelo://app?vid=5dd0614d-8509-4a17-9246-efc4f3a3f829"},"vehicle_type_id":"4","last_reported":1732352900,"current_range_meters":33600,"station_id":"ce4bgjp2rcd13ifvqbh0","pricing_plan_id":"cebpf4jnsgd1na2vs0mg"},{"bike_id":"cf3fe99c-3cdb-4501-9817-3ac821119cc4","system_id":"levelo_inurba_marseille","lat":43.29277,"lon":5.36843,"is_reserved":false,"is_disabled":false,"rental_uris":{"android":"levelo://app?vid=cf3fe99c-3cdb-4501-9817-3ac821119cc4","ios":"levelo://app?vid=cf3fe99c-3cdb-4501-9817-3ac821119cc4"},"vehicle_type_id":"4","last_reported":1732352900,"current_range_meters":25200,"station_id":"","pricing_plan_id":"cebpf4jnsgd1na2vs0mg"},{"bike_id":"89429ed2-f839-4749-bcb9-3e5230fe3bfb","system_id":"levelo_inurba_marseille","lat":43.33721,"lon":5.39169,"is_reserved":false,"is_disabled":false,"rental_uris":{"android":"levelo://app?vid=89429ed2-f839-4749-bcb9-3e5230fe3bfb","ios":"levelo://app?vid=89429ed2-f839-4749-bcb9-3e5230fe3bfb"},"vehicle_type_id":"4","last_reported":1732352900,"current_range_meters":34000,"station_id":"ce4bhr92rcd13ifvqhsg","pricing_plan_id":"cebpf4jnsgd1na2vs0mg"},{"bike_id":"bfc7139d-eec2-41d1-a232-c742f4e3d9f8","system_id":"levelo_inurba_marseille","lat":43.29933,"lon":5.36539,"is_reserved":false,"is_disabled":false,"rental_uris":{"android":"levelo://app?vid=bfc7139d-eec2-41d1-a232-c742f4e3d9f8","ios":"levelo://app?vid=bfc7139d-eec2-41d1-a232-c742f4e3d9f8"},"vehicle_type_id":"4","last_reported":1732352900,"current_range_meters":35200,"station_id":"ce4bgm92rcd13ifvqbr0","pricing_plan_id":"cebpf4jnsgd1na2vs0mg"},{"bike_id":"3dd78b4b-4521-4012-bd7b-0cca73dc3f91","system_id":"levelo_inurba_marseille","lat":43.24165,"lon":5.3639,"is_reserved":false,"is_disabled":false,"rental_uris":{"android":"levelo://app?vid=3dd78b4b-4521-4012-bd7b-0cca73dc3f91","ios":"levelo://app?vid=3dd78b4b-4521-4012-bd7b-0cca73dc3f91"},"vehicle_type_id":"4","last_reported":1732352900,"current_range_meters":29600,"station_id":"cpo36qri1sfpv3e86is0","pricing_plan_id":"cebpf4jnsgd1na2vs0mg"},{"bike_id":"03b5108e-4ca7-4365-af2b-6f62dff48e67","system_id":"levelo_inurba_marseille","lat":43.32363,"lon":5.38871,"is_reserved":false,"is_disabled":false,"rental_uris":{"android":"levelo://app?vid=03b5108e-4ca7-4365-af2b-6f62dff48e67","ios":"levelo://app?vid=03b5108e-4ca7-4365-af2b-6f62dff48e67"},