{"last_updated":1746382373,"ttl":60,"version":"2.2","data":{"bikes":[{"bike_id":"ccd5790a-ee27-4b55-8880-7cee5aeb7cdf","system_id":"levelo_inurba_marseille","lat":43.21745,"lon":5.34591,"is_reserved":false,"is_disabled":true,"rental_uris":{"android":"levelo://app?vid=ccd5790a-ee27-4b55-8880-7cee5aeb7cdf","ios":"levelo://app?vid=ccd5790a-ee27-4b55-8880-7cee5aeb7cdf"},"vehicle_type_id":"4","last_reported":1746382373,"current_range_meters":0,"station_id":"","pricing_plan_id":"cebpf4jnsgd1na2vs0mg"},{"bike_id":"2d87f24b-bb92-4f5a-9c64-611905425c8d","system_id":"levelo_inurba_marseille","lat":43.23667,"lon":5.39143,"is_reserved":false,"is_disabled":true,"rental_uris":{"android":"levelo://app?vid=2d87f24b-bb92-4f5a-9c64-611905425c8d","ios":"levelo://app?vid=2d87f24b-bb92-4f5a-9c64-611905425c8d"},"vehicle_type_id":"4","last_reported":1746382373,"current_range_meters":0,"station_id":"","pricing_plan_id":"cebpf4jnsgd1na2vs0mg"},{"bike_id":"f73daf93-45c7-48c0-a61a-2d28ac89db8d","system_id":"levelo_inurba_marseille","lat":43.33922,"lon":5.42055,"is_reserved":false,"is_disabled":true,"rental_uris":{"android":"levelo://app?vid=f73daf93-45c7-48c0-a61a-2d28ac89db8d","ios":"levelo://app?vid=f73daf93-45c7-48c0-a61a-2d28ac89db8d"},"vehicle_type_id":"4","last_reported":1746382373,"current_range_meters":0,"station_id":"","pricing_plan_id":"cebpf4jnsgd1na2vs0mg"},{"bike_id":"e93b949e-1738-47f2-ad13-8f512df2ffaf","system_id":"levelo_inurba_marseille","lat":43.28162,"lon":5.44358,"is_reserved":false,"is_disabled":true,"rental_uris":{"android":"levelo://app?vid=e93b949e-1738-47f2-ad13-8f512df2ffaf","ios":"levelo://app?vid=e93b949e-1738-47f2-ad13-8f512df2ffaf"},"vehicle_type_id":"4","last_reported":1746382373,"current_range_meters":0,"station_id":"","pricing_plan_id":"cebpf4jnsgd1na2vs0mg"},{"bike_id":"a8b017c0-60a6-44c8-a124-bec1f5528d2d","system_id":"levelo_inurba_marseille","lat":43.24389,"lon":5.37064,"is_reserved":false,"is_disabled":true,"rental_uris":{"android":"levelo://app?vid=a8b017c0-60a6-44c8-a124-bec1f5528d2d","ios":"levelo://app?vid=a8b017c0-60a6-44c8-a124-bec1f5528d2d"},"vehicle_type_id":"4","last_reported":1746382373,"current_range_meters":0,"station_id":"ce4bhhh2rcd13ifvqfk0","pricing_plan_id":"cebpf4jnsgd1na2vs0mg"},{"bike_id":"90456ab5-e196-4648-b6c0-a69248731c68","system_id":"levelo_inurba_marseille","lat":43.27946,"lon":5.41052,"is_reserved":false,"is_disabled":true,"rental_uris":{"android":"levelo://app?vid=90456ab5-e196-4648-b6c0-a69248731c68","ios":"levelo://app?vid=90456ab5-e196-4648-b6c0-a69248731c68"},"vehicle_type_id":"4","last_reported":1746382373,"current_range_meters":0,"station_id":"ce4bhnp2rcd13ifvqh0g","pricing_plan_id":"cebpf4jnsgd1na2vs0mg"},{"bike_id":"f0d9958c-fef5-4f95-873c-52f048f53a76","system_id":"levelo_inurba_marseille","lat":43.27712,"lon":5.41982,"is_reserved":false,"is_disabled":true,"rental_uris":{"android":"levelo://app?vid=f0d9958c-fef5-4f95-873c-52f048f53a76","ios":"levelo://app?vid=f0d9958c-fef5-4f95-873c-52f048f53a76"},"vehicle_type_id":"4","last_reported":1746382373,"current_range_meters":400,"station_id":"","pricing_plan_id":"cebpf4jnsgd1na2vs0mg"},{"bike_id":"28792d45-e1df-4fbd-a0e0-e431eb9bf5c6","system_id":"levelo_inurba_marseille","lat":43.27971,"lon":5.38747,"is_reserved":false,"is_disabled":true,"rental_uris":{"android":"levelo://app?vid=28792d45-e1df-4fbd-a0e0-e431eb9bf5c6","ios":"levelo://app?vid=28792d45-e1df-4fbd-a0e0-e431eb9bf5c6"},"vehicle_type_id":"4","last_reported":1746382373,"current_range_meters":400,"station_id":"ce4bhg12rcd13ifvqf80","pricing_plan_id":"cebpf4jnsgd1na2vs0mg"},{"bike_id":"eb66c062-8c86-4d67-b2b0-88bb4ff1dc33","system_id":"levelo_inurba_marseille","lat":43.24668,"lon":5.38163,"is_reserved":false,"is_disabled":true,"rental_uris":{"android":"levelo://app?vid=eb66c062-8c86-4d67-b2b0-88bb4ff1dc33","ios":"levelo://app?vid=eb66c062-8c86-4d67-b2b0-88bb4ff1dc33"},"vehicle_type_id":"4","last_reported":1746382373,"current_range_meters":400,"station_id":"ce4bhih2rcd13ifvqfr0","pricing_plan_id":"cebpf4jnsgd1na2vs0mg"},{"bike_id":"ce7eaa2a-3d8b-45c5-8379-cd758fb93612","system_id":"levelo_inurba_marseille","lat":43.21758,"lon":5.34602,"is_reserved":false,"is_disabled":true,"rental_uris":{"android":"levelo://app?vid=ce7eaa2a-3d8b-45c5-8379-cd758fb93612","ios":"levelo://app?vid=ce7eaa2a-3d8b-45c5-8379-cd758fb93612"},"vehicle_type_id":"4","last_reported":1746382373,"current_range_meters":400,"station_id":"st_cvj6r9ubvosntc0bgbag","pricing_plan_id":"cebpf4jnsgd1na2vs0mg"},{"bike_id":"925555a7-f042-4a10-bb8b-29d889900df6","system_id":"levelo_inurba_marseille","lat":43.29842,"lon":5.36269,"is_reserved":false,"is_disabled":true,"rental_uris":{"android":"levelo://app?vid=925555a7-f042-4a10-bb8b-29d889900df6","ios":"levelo://app?vid=925555a7-f042-4a10-bb8b-29d889900df6"},"vehicle_type_id":"4","last_reported":1746382373,"current_range_meters":800,"station_id":"ce4bgpp2rcd13ifvqc3g","pricing_plan_id":"cebpf4jnsgd1na2vs0mg"},{"bike_id":"00b0d796-6110-4eea-95c9-9f71ccf8a7f7","system_id":"levelo_inurba_marseille","lat":43.29774,"lon":5.37113,"is_reserved":false,"is_disabled":true,"rental_uris":{"android":"levelo://app?vid=00b0d796-6110-4eea-95c9-9f71ccf8a7f7","ios":"levelo://app?vid=00b0d796-6110-4eea-95c9-9f71ccf8a7f7"},"vehicle_type_id":"4","last_reported":1746382373,"current_range_meters":1600,"station_id":"ce4bgop2rcd13ifvqc1g","pricing_plan_id":"cebpf4jnsgd1na2vs0mg"},{"bike_id":"287c1408-960b-420e-9196-a8452b54f7d6","system_id":"levelo_inurba_marseille","lat":43.30196,"lon":5.36633,"is_reserved":false,"is_disabled":false,"rental_uris":{"android":"levelo://app?vid=287c1408-960b-420e-9196-a8452b54f7d6","ios":"levelo://app?vid=287c1408-960b-420e-9196-a8452b54f7d6"},"vehicle_type_id":"4","last_reported":1746382373,"current_range_meters":1600,"station_id":"ce4bgrh2rcd13ifvqc8g","pricing_plan_id":"cebpf4jnsgd1na2vs0mg"},{"bike_id":"488fbaec-377c-4e4c-b038-26af7519d5cb","system_id":"levelo_inurba_marseille","lat":43.32286,"lon":5.38277,"is_reserved":false,"is_disabled":true,"rental_uris":{"android":"levelo://app?vid=488fbaec-377c-4e4c-b038-26af7519d5cb","ios":"levelo://app?vid=488fbaec-377c-4e4c-b038-26af7519d5cb"},"vehicle_type_id":"4","last_reported":1746382373,"current_range_meters":1600,"station_id":"ce4bhr12rcd13ifvqhqg","pricing_plan_id":"cebpf4jnsgd1na2vs0mg"},{"bike_id":"e9e1572f-0374-4bcf-914f-8f2eeda7905b","system_id":"levelo_inurba_marseille","lat":43.2121,"lon":5.35058,"is_reserved":false,"is_disabled":true,"rental_uris":{"android":"levelo://app?vid=e9e1572f-0374-4bcf-914f-8f2eeda7905b","ios":"levelo://app?vid=e9e1572f-0374-4bcf-914f-8f2eeda7905b"},"vehicle_type_id":"4","last_reported":1746382373,"current_range_meters":1600,"station_id":"st_cvj6sg6p6f1abm77japg","pricing_plan_id":"cebpf4jnsgd1na2vs0mg"},{"bike_id":"cc57df12-7e26-4db1-b6a2-2628fd43a3af","system_id":"levelo_inurba_marseille","lat":43.24659,"lon":5.38162,"is_reserved":false,"is_disabled":true,"rental_uris":{"android":"levelo://app?vid=cc57df12-7e26-4db1-b6a2-2628fd43a3af","ios":"levelo://app?vid=cc57df12-7e26-4db1-b6a2-2628fd43a3af"},"vehicle_type_id":"4","last_reported":1746382373,"current_range_meters":2000,"station_id":"ce4bhih2rcd13ifvqfr0","pricing_plan_id":"cebpf4jnsgd1na2vs0mg"},{"bike_id":"fefd08ec-5881-4aed-9781-2a8173dd5fb9","system_id":"levelo_inurba_marseille","lat":43.29438,"lon":5.38245,"is_reserved":false,"is_disabled":false,"rental_uris":{"android":"levelo://app?vid=fefd08ec-5881-4aed-9781-2a8173dd5fb9","ios":"levelo://app?vid=fefd08ec-5881-4aed-9781-2a8173dd5fb9"},"vehicle_type_id":"4","last_reported":1746382373,"current_range_meters":2800,"station_id":"","pricing_plan_id":"cebpf4jnsgd1na2vs0mg"},{"bike_id":"570b486c-50df-4f1f-97df-caa86c0d419e","system_id":"levelo_inurba_marseille","lat":43.33707,"lon":5.35579,"is_reserved":false,"is_disabled":false,"rental_uris":{"android":"levelo://app?vid=570b486c-50df-4f1f-97df-caa86c0d419e","ios":"levelo://app?vid=570b486c-50df-4f1f-97df-caa86c0d419e"},"vehicle_type_id":"4","last_reported":1746382373,"current_range_meters":3200,"station_id":"","pricing_plan_id":"cebpf4jnsgd1na2vs0mg"},{"bike_id":"441771cd-0001-4237-b26e-f2e1502d0768","system_id":"levelo_inurba_marseille","lat":43.23651,"lon":5.366,"is_reserved":false,"is_disabled":false,"rental_uris":{"android":"levelo://app?vid=441771cd-0001-4237-b26e-f2e1502d0768","ios":"levelo://app?vid=441771cd-0001-4237-b26e-f2e1502d0768"},"vehicle_type_id":"4","last_reported":1746382373,"current_range_meters":3200,"station_id":"","pricing_plan_id":"cebpf4jnsgd1na2vs0mg"},{"bike_id":"af932fb0-40c1-423a-9178-18dfd1fa2275","system_id":"levelo_inurba_marseille","lat":43.308925,"lon":5.372002,"is_reserved":false,"is_disabled":false,"rental_uris":{"android":"levelo://app?vid=af932fb0-40c1-423a-9178-18dfd1fa2275","ios":"levelo://app?vid=af932fb0-40c1-423a-9178-18dfd1fa2275"},"vehicle_type_id":"4","last_reported":1746382373,"current_range_meters":3200,"station_id":"ce4bguh2rcd13ifvqckg","pricing_plan_id":"cebpf4jnsgd1na2vs0mg"},{"bike_id":"484e30fa-005c-450e-898d-f32682d7f1bf","system_id":"levelo_inurba_marseille","lat":43.275,"lon":5.42453,"is_reserved":false,"is_disabled":false,"rental_uris":{"android":"levelo://app?vid=484e30fa-005c-450e-898d-f32682d7f1bf","ios":"levelo://app?vid=484e30fa-005c-450e-898d-f32682d7f1bf"},"vehicle_type_id":"4","last_reported":1746382373,"current_range_meters":3200,"station_id":"ce4bhn92rcd13ifvqgrg","pricing_plan_id":"cebpf4jnsgd1na2vs0mg"},{"bike_id":"a62c4081-0a00-4338-a99f-b605c981f909","system_id":"levelo_inurba_marseille","lat":43.21194,"lon":5.35066,"is_reserved":false,"is_disabled":false,"rental_uris":{"android":"levelo://app?vid=a62c4081-0a00-4338-a99f-b605c981f909","ios":"levelo://app?vid=a62c4081-0a00-4338-a99f-b605c981f909"},"vehicle_type_id":"4","last_reported":1746382373,"current_range_meters":3200,"station_id":"st_cvj6sg6p6f1abm77japg","pricing_plan_id":"cebpf4jnsgd1na2vs0mg"},{"bike_id":"5df7f362-8b6b-407b-8675-b05cf9ab7faf","system_id":"levelo_inurba_marseille","lat":43.297676,"lon":5.387617,"is_reserved":false,"is_disabled":false,"rental_uris":{"android":"levelo://app?vid=5df7f362-8b6b-407b-8675-b05cf9ab7faf","ios":"levelo://app?vid=5df7f362-8b6b-407b-8675-b05cf9ab7faf"},"vehicle_type_id":"4","last_reported":1746382373,"current_range_meters":3600,"station_id":"ce4bh392rcd13ifvqdl0","pricing_plan_id":"cebpf4jnsgd1na2vs0mg"},{"bike_id":"35145cef-b32c-4327-8f54-2c039278b0f6","system_id":"levelo_inurba_marseille","lat":43.21752,"lon":5.34593,"is_reserved":false,"is_disabled":false,"rental_uris":{"android":"levelo://app?vid=35145cef-b32c-4327-8f54-2c039278b0f6","ios":"levelo://app?vid=35145cef-b32c-4327-8f54-2c039278b0f6"},"vehicle_type_id":"4","last_reported":1746382373,"current_range_meters":3600,"station_id":"st_cvj6r9ubvosntc0bgbag","pricing_plan_id":"cebpf4jnsgd1na2vs0mg"},{"bike_id":"306385e0-73f8-4da6-a9ec-884a9e32c0b2","system_id":"levelo_inurba_marseille","lat":43.25494,"lon":5.37652,"is_reserved":false,"is_disabled":false,"rental_uris":{"android":"levelo://app?vid=306385e0-73f8-4da6-a9ec-884a9e32c0b2","ios":"levelo://app?vid=306385e0-73f8-4da6-a9ec-884a9e32c0b2"},"vehicle_type_id":"4","last_reported":1746382373,"current_range_meters":4000,"station_id":"ce4bhh12rcd13ifvqff0","pricing_plan_id":"cebpf4jnsgd1na2vs0mg"},{"bike_id":"dfb3396e-96f5-457c-af11-f6f27dad33e9","system_id":"levelo_inurba_marseille","lat":43.27192,"lon":5.36474,"is_reserved":false,"is_disabled":false,"rental_uris":{"android":"levelo://app?vid=dfb3396e-96f5-457c-af11-f6f27dad33e9","ios":"levelo://app?vid=dfb3396e-96f5-457c-af11-f6f27dad33e9"},"vehicle_type_id":"4","last_reported":1746382373,"current_range_meters":5600,"station_id":"","pricing_plan_id":"cebpf4jnsgd1na2vs0mg"},{"bike_id":"95c6ae4d-37b5-4539-8cc1-5c70ce622832","system_id":"levelo_inurba_marseille","lat":43.27212,"lon":5.39179,"is_reserved":false,"is_disabled":false,"rental_uris":{"android":"levelo://app?vid=95c6ae4d-37b5-4539-8cc1-5c70ce622832","ios":"levelo://app?vid=95c6ae4d-37b5-4539-8cc1-5c70ce622832"},"vehicle_type_id":"4","last_reported":1746382373,"current_range_meters":5600,"station_id":"ce4bhhp2rcd13ifvqfm0","pricing_plan_id":"cebpf4jnsgd1na2vs0mg"},{"bike_id":"8df37787-a611-4ce6-9e65-032cb168f59b","system_id":"levelo_inurba_marseille","lat":43.21196,"lon":5.350728,"is_reserved":false,"is_disabled":false,"rental_uris":{"android":"levelo://app?vid=8df37787-a611-4ce6-9e65-032cb168f59b","ios":"levelo://app?vid=8df37787-a611-4ce6-9e65-032cb168f59b"},"vehicle_type_id":"4","last_reported":1746382373,"current_range_meters":5600,"station_id":"st_cvj6sg6p6f1abm77japg","pricing_plan_id":"cebpf4jnsgd1na2vs0mg"},{"bike_id":"8df6e310-0880-40a9-a691-cd475dfa3928","system_id":"levelo_inurba_marseille","lat":43.28571,"lon":5.44251,"is_reserved":false,"is_disabled":false,"rental_uris":{"android":"levelo://app?vid=8df6e310-0880-40a9-a691-cd475dfa3928","ios":"levelo://app?vid=8df6e310-0880-40a9-a691-cd475dfa3928"},"vehicle_type_id":"4","last_reported":1746382373,"current_range_meters":6000,"station_id":"","pricing_plan_id":"cebpf4jnsgd1na2vs0mg"},{"bike_id":"4009a77b-fe27-4d0e-82d7-e7e29be4a9e9","system_id":"levelo_inurba_marseille","lat":43.242191,"lon":5.367354,"is_reserved":false,"is_disabled":false,"rental_uris":{"android":"levelo://app?vid=4009a77b-fe27-4d0e-82d7-e7e29be4a9e9","ios":"levelo://app?vid=4009a77b-fe27-4d0e-82d7-e7e29be4a9e9"},"vehicle_type_id":"4","last_reported":1746382373,"current_range_meters":6400,"station_id":"","pricing_plan_id":"cebpf4jnsgd1na2vs0mg"},{"bike_id":"2a6795fc-682f-471c-834a-9f0464403cb3","system_id":"levelo_inurba_marseille","lat":43.26957,"lon":5.38629,"is_reserved":false,"is_disabled":false,"rental_uris":{"android":"levelo://app?vid=2a6795fc-682f-471c-834a-9f0464403cb3","ios":"levelo://app?vid=2a6795fc-682f-471c-834a-9f0464403cb3"},"vehicle_type_id":"4","last_reported":1746382373,"current_range_meters":6400,"station_id":"ce4bhh92rcd13ifvqfh0","pricing_plan_id":"cebpf4jnsgd1na2vs0mg"},{"bike_id":"6ae9068b-8534-47e2-832a-cb0e5255371d","system_id":"levelo_inurba_marseille","lat":43.337444,"lon":5.374475,"is_reserved":false,"is_disabled":false,"rental_uris":{"android":"levelo://app?vid=6ae9068b-8534-47e2-832a-cb0e5255371d","ios":"levelo://app?vid=6ae9068b-8534-47e2-832a-cb0e5255371d"},"vehicle_type_id":"4","last_reported":1746382373,"current_range_meters":6800,"station_id":"ce4bgvp2rcd13ifvqct0","pricing_plan_id":"cebpf4jnsgd1na2vs0mg"},{"bike_id":"aa00716a-7bab-4747-9061-afa3d7d01320","system_id":"levelo_inurba_marseille","lat":43.31353,"lon":5.38512,"is_reserved":false,"is_disabled":false,"rental_uris":{"android":"levelo://app?vid=aa00716a-7bab-4747-9061-afa3d7d01320","ios":"levelo://app?vid=aa00716a-7bab-4747-9061-afa3d7d01320"},"vehicle_type_id":"4","last_reported":1746382373,"current_range_meters":7200,"station_id":"ce4bgt92rcd13ifvqcf0","pricing_plan_id":"cebpf4jnsgd1na2vs0mg"},{"bike_id":"23026c86-4f9e-4274-8c2e-a207770428d0","system_id":"levelo_inurba_marseille","lat":43.31328,"lon":5.39708,"is_reserved":false,"is_disabled":false,"rental_uris":{"android":"levelo://app?vid=23026c86-4f9e-4274-8c2e-a207770428d0","ios":"levelo://app?vid=23026c86-4f9e-4274-8c2e-a207770428d0"},"vehicle_type_id":"4","last_reported":1746382373,"current_range_meters":7200,"station_id":"ce4bgvp2rcd13ifvqcu0","pricing_plan_id":"cebpf4jnsgd1na2vs0mg"},{"bike_id":"a9e81389-04bf-4a2a-ad52-b64e50e776c4","system_id":"levelo_inurba_marseille","lat":43.2513,"lon":5.40319,"is_reserved":false,"is_disabled":false,"rental_uris":{"android":"levelo://app?vid=a9e81389-04bf-4a2a-ad52-b64e50e776c4","ios":"levelo://app?vid=a9e81389-04bf-4a2a-ad52-b64e50e776c4"},"vehicle_type_id":"4","last_reported":1746382373,"current_range_meters":7200,"station_id":"ce4bhlh2rcd13ifvqgig","pricing_plan_id":"cebpf4jnsgd1na2vs0mg"},{"bike_id":"e0f477fa-43e0-437f-aa44-25c8d96e5853","system_id":"levelo_inurba_marseille","lat":43.31087,"lon":5.42428,"is_reserved":false,"is_disabled":false,"rental_uris":{"android":"levelo://app?vid=e0f477fa-43e0-437f-aa44-25c8d96e5853","ios":"levelo://app?vid=e0f477fa-43e0-437f-aa44-25c8d96e5853"},"vehicle_type_id":"4","last_reported":1746382373,"current_range_meters":7200,"station_id":"ce4bhp92rcd13ifvqhag","pricing_plan_id":"cebpf4jnsgd1na2vs0mg"},{"bike_id":"f0259f55-382d-4317-a5a3-c63365a0d76b","system_id":"levelo_inurba_marseille","lat":43.25525,"lon":5.41808,"is_reserved":false,"is_disabled":false,"rental_uris":{"android":"levelo://app?vid=f0259f55-382d-4317-a5a3-c63365a0d76b","ios":"levelo://app?vid=f0259f55-382d-4317-a5a3-c63365a0d76b"},"vehicle_type_id":"4","last_reported":1746382373,"current_range_meters":8000,"station_id":"","pricing_plan_id":"cebpf4jnsgd1na2vs0mg"},{"bike_id":"4d9c785a-6a14-4f60-8bcb-eb74d56c9262","system_id":"levelo_inurba_marseille","lat":43.2718,"lon":5.42229,"is_reserved":false,"is_disabled":false,"rental_uris":{"android":"levelo://app?vid=4d9c785a-6a14-4f60-8bcb-eb74d56c9262","ios":"levelo://app?vid=4d9c785a-6a14-4f60-8bcb-eb74d56c9262"},"vehicle_type_id":"4","last_reported":1746382373,"current_range_meters":8000,"station_id":"","pricing_plan_id":"cebpf4jnsgd1na2vs0mg"},{"bike_id":"4a93eb55-7216-47f7-831b-049b35413d07","system_id":"levelo_inurba_marseille","lat":43.30766,"lon":5.37658,"is_reserved":false,"is_disabled":false,"rental_uris":{"android":"levelo://app?vid=4a93eb55-7216-47f7-831b-049b35413d07","ios":"levelo://app?vid=4a93eb55-7216-47f7-831b-049b35413d07"},"vehicle_type_id":"4","last_reported":1746382373,"current_range_meters":8000,"station_id":"ce4bgv92rcd13ifvqcq0","pricing_plan_id":"cebpf4jnsgd1na2vs0mg"},{"bike_id":"c910a401-7cbd-47b3-90cb-e8cde2826b2d","system_id":"levelo_inurba_marseille","lat":43.28346,"lon":5.38111,"is_reserved":false,"is_disabled":false,"rental_uris":{"android":"levelo://app?vid=c910a401-7cbd-47b3-90cb-e8cde2826b2d","ios":"levelo://app?vid=c910a401-7cbd-47b3-90cb-e8cde2826b2d"},"vehicle_type_id":"4","last_reported":1746382373,"current_range_meters":8000,"station_id":"ce4bh412rcd13ifvqdr0","pricing_plan_id":"cebpf4jnsgd1na2vs0mg"},{"bike_id":"38632472-f39b-470f-8910-27dede0537b5","system_id":"levelo_inurba_marseille","lat":43.26567,"lon":5.39011,"is_reserved":false,"is_disabled":false,"rental_uris":{"android":"levelo://app?vid=38632472-f39b-470f-8910-27dede0537b5","ios":"levelo://app?vid=38632472-f39b-470f-8910-27dede0537b5"},"vehicle_type_id":"4","last_reported":1746382373,"current_range_meters":8000,"station_id":"ce4bhe12rcd13ifvqf30","pricing_plan_id":"cebpf4jnsgd1na2vs0mg"},{"bike_id":"3a3b5ccf-db25-43cb-b3b0-1b438725671a","system_id":"levelo_inurba_marseille","lat":43.24594,"lon":5.39338,"is_reserved":false,"is_disabled":false,"rental_uris":{"android":"levelo://app?vid=3a3b5ccf-db25-43cb-b3b0-1b438725671a","ios":"levelo://app?vid=3a3b5ccf-db25-43cb-b3b0-1b438725671a"},"vehicle_type_id":"4","last_reported":1746382373,"current_range_meters":8000,"station_id":"ce4bhlp2rcd13ifvqgjg","pricing_plan_id":"cebpf4jnsgd1na2vs0mg"},{"bike_id":"d01043b7-6986-4c69-9f50-e390961f3c88","system_id":"levelo_inurba_marseille","lat":43.23063,"lon":5.3548,"is_reserved":false,"is_disabled":false,"rental_uris":{"android":"levelo://app?vid=d01043b7-6986-4c69-9f50-e390961f3c88","ios":"levelo://app?vid=d01043b7-6986-4c69-9f50-e390961f3c88"},"vehicle_type_id":"4","last_reported":1746382373,"current_range_meters":8000,"station_id":"cpo3342slgdg3j2ifvpg","pricing_plan_id":"cebpf4jnsgd1na2vs0mg"},{"bike_id":"b7a87710-b95f-44ed-b915-6436bdc7e294","system_id":"levelo_inurba_marseille","lat":43.30089,"lon":5.39066,"is_reserved":false,"is_disabled":false,"rental_uris":{"android":"levelo://app?vid=b7a87710-b95f-44ed-b915-6436bdc7e294","ios":"levelo://app?vid=b7a87710-b95f-44ed-b915-6436bdc7e294"},"vehicle_type_id":"4","last_reported":1746382373,"current_range_meters":8400,"station_id":"ce4bh192rcd13ifvqdb0","pricing_plan_id":"cebpf4jnsgd1na2vs0mg"},{"bike_id":"3e73d4cb-dd4f-459b-ba6e-8b991af3a5c7","system_id":"levelo_inurba_marseille","lat":43.29263,"lon":5.409,"is_reserved":false,"is_disabled":false,"rental_uris":{"android":"levelo://app?vid=3e73d4cb-dd4f-459b-ba6e-8b991af3a5c7","ios":"levelo://app?vid=3e73d4cb-dd4f-459b-ba6e-8b991af3a5c7"},"vehicle_type_id":"4","last_reported":1746382373,"current_range_meters":8400,"station_id":"ce4bh192rcd13ifvqdc0","pricing_plan_id":"cebpf4jnsgd1na2vs0mg"},{"bike_id":"89b188d4-1b63-4786-98fb-81639a995811","system_id":"levelo_inurba_marseille","lat":43.28675,"lon":5.38661,"is_reserved":false,"is_disabled":false,"rental_uris":{"android":"levelo://app?vid=89b188d4-1b63-4786-98fb-81639a995811","ios":"levelo://app?vid=89b188d4-1b63-4786-98fb-81639a995811"},"vehicle_type_id":"4","last_reported":1746382373,"current_range_meters":8400,"station_id":"ce4bh492rcd13ifvqdug","pricing_plan_id":"cebpf4jnsgd1na2vs0mg"},{"bike_id":"a29ed5f0-69ff-4ac8-b8dc-96463720646a","system_id":"levelo_inurba_marseille","lat":43.29265,"lon":5.38421,"is_reserved":false,"is_disabled":false,"rental_uris":{"android":"levelo://app?vid=a29ed5f0-69ff-4ac8-b8dc-96463720646a","ios":"levelo://app?vid=a29ed5f0-69ff-4ac8-b8dc-96463720646a"},"vehicle_type_id":"4","last_reported":1746382373,"current_range_meters":8400,"station_id":"ce4bh692rcd13ifvqea0","pricing_plan_id":"cebpf4jnsgd1na2vs0mg"},{"bike_id":"4d03ffee-88a6-4494-9fe7-af348467cde0","system_id":"levelo_inurba_marseille","lat":43.25083,"lon":5.39525,"is_reserved":false,"is_disabled":false,"rental_uris":{"android":"levelo://app?vid=4d03ffee-88a6-4494-9fe7-af348467cde0","ios":"levelo://app?vid=4d03ffee-88a6-4494-9fe7-af348467cde0"},"vehicle_type_id":"4","last_reported":1746382373,"current_range_meters":8400,"station_id":"ce4bhm12rcd13ifvqgkg","pricing_plan_id":"cebpf4jnsgd1na2vs0mg"},{"bike_id":"029d1da9-ddaa-4b16-929e-555a1ebde3de","system_id":"levelo_inurba_marseille","lat":43.31083,"lon":5.42428,"is_reserved":false,"is_disabled":false,"rental_uris":{"android":"levelo://app?vid=029d1da9-ddaa-4b16-929e-555a1ebde3de","ios":"levelo://app?vid=029d1da9-ddaa-4b16-929e-555a1ebde3de"},"vehicle_type_id":"4","last_reported":1746382373,"current_range_meters":8400,"station_id":"ce4bhp92rcd13ifvqhag","pricing_plan_id":"cebpf4jnsgd1na2vs0mg"},{"bike_id":"fd2c3c67-23a6-4380-b7ca-8f23c8f78921","system_id":"levelo_inurba_marseille","lat":43.323711,"lon":5.367574,"is_reserved":false,"is_disabled":false,"rental_uris":{"android":"levelo://app?vid=fd2c3c67-23a6-4380-b7ca-8f23c8f78921","ios":"levelo://app?vid=fd2c3c67-23a6-4380-b7ca-8f23c8f78921"},"vehicle_type_id":"4","last_reported":1746382373,"current_range_meters":8400,"station_id":"ce4bhsh2rcd13ifvqi2g","pricing_plan_id":"cebpf4jnsgd1na2vs0mg"},{"bike_id":"7c9f302f-84ec-4062-ae0c-5788a6786ad9","system_id":"levelo_inurba_marseille","lat":43.217516,"lon":5.346003,"is_reserved":false,"is_disabled":false,"rental_uris":{"android":"levelo://app?vid=7c9f302f-84ec-4062-ae0c-5788a6786ad9","ios":"levelo://app?vid=7c9f302f-84ec-4062-ae0c-5788a6786ad9"},"vehicle_type_id":"4","last_reported":1746382373,"current_range_meters":8400,"station_id":"st_cvj6r9ubvosntc0bgbag","pricing_plan_id":"cebpf4jnsgd1na2vs0mg"},{"bike_id":"e4856e11-0139-477e-a022-4b979369719b","system_id":"levelo_inurba_marseille","lat":43.23968,"lon":5.3662,"is_reserved":false,"is_disabled":false,"rental_uris":{"android":"levelo://app?vid=e4856e11-0139-477e-a022-4b979369719b","ios":"levelo://app?vid=e4856e11-0139-477e-a022-4b979369719b"},"vehicle_type_id":"4","last_reported":1746382373,"current_range_meters":8800,"station_id":"ce4bhi12rcd13ifvqfp0","pricing_plan_id":"cebpf4jnsgd1na2vs0mg"},{"bike_id":"a7cd7cac-5a32-4d14-92f2-2738618b7e69","system_id":"levelo_inurba_marseille","lat":43.25922,"lon":5.40876,"is_reserved":false,"is_disabled":false,"rental_uris":{"android":"levelo://app?vid=a7cd7cac-5a32-4d14-92f2-2738618b7e69","ios":"levelo://app?vid=a7cd7cac-5a32-4d14-92f2-2738618b7e69"},"vehicle_type_id":"4","last_reported":1746382373,"current_range_meters":8800,"station_id":"ce4bhm92rcd13ifvqglg","pricing_plan_id":"cebpf4jnsgd1na2vs0mg"},{"bike_id":"51e137dc-06d4-4721-8a2f-24e002c6d5d0","system_id":"levelo_inurba_marseille","lat":43.24072,"lon":5.37764,"is_reserved":false,"is_disabled":false,"rental_uris":{"android":"levelo://app?vid=51e137dc-06d4-4721-8a2f-24e002c6d5d0","ios":"levelo://app?vid=51e137dc-06d4-4721-8a2f-24e002c6d5d0"},"vehicle_type_id":"4","last_reported":1746382373,"current_range_meters":8800,"station_id":"ce4bhnp2rcd13ifvqgvg","pricing_plan_id":"cebpf4jnsgd1na2vs0mg"},{"bike_id":"9beac68f-273a-467c-b0b9-b0b3672d3b4e","system_id":"levelo_inurba_marseille","lat":43.29789,"lon":5.39336,"is_reserved":false,"is_disabled":false,"rental_uris":{"android":"levelo://app?vid=9beac68f-273a-467c-b0b9-b0b3672d3b4e","ios":"levelo://app?vid=9beac68f-273a-467c-b0b9-b0b3672d3b4e"},"vehicle_type_id":"4","last_reported":1746382373,"current_range_meters":8800,"station_id":"chh1huq6cuj3fo74tm60","pricing_plan_id":"cebpf4jnsgd1na2vs0mg"},{"bike_id":"759239b9-fc85-422f-bc1b-a3a2385cfc98","system_id":"levelo_inurba_marseille","lat":43.2902,"lon":5.38642,"is_reserved":false,"is_disabled":false,"rental_uris":{"android":"levelo://app?vid=759239b9-fc85-422f-bc1b-a3a2385cfc98","ios":"levelo://app?vid=759239b9-fc85-422f-bc1b-a3a2385cfc98"},"vehicle_type_id":"4","last_reported":1746382373,"current_range_meters":9200,"station_id":"ce4bh4p2rcd13ifvqe0g","pricing_plan_id":"cebpf4jnsgd1na2vs0mg"},{"bike_id":"a3a149ce-62d6-4eed-8e59-9e82fdb6aad7","system_id":"levelo_inurba_marseille","lat":43.2513,"lon":5.40315,"is_reserved":false,"is_disabled":false,"rental_uris":{"android":"levelo://app?vid=a3a149ce-62d6-4eed-8e59-9e82fdb6aad7","ios":"levelo://app?vid=a3a149ce-62d6-4eed-8e59-9e82fdb6aad7"},"vehicle_type_id":"4","last_reported":1746382373,"current_range_meters":9200,"station_id":"ce4bhlh2rcd13ifvqgig","pricing_plan_id":"cebpf4jnsgd1na2vs0mg"},{"bike_id":"d55c8237-2304-4efd-993e-dc727f0f1b6a","system_id":"levelo_inurba_marseille","lat":43.22536,"lon":5.34763,"is_reserved":false,"is_disabled":false,"rental_uris":{"android":"levelo://app?vid=d55c8237-2304-4efd-993e-dc727f0f1b6a","ios":"levelo://app?vid=d55c8237-2304-4efd-993e-dc727f0f1b6a"},"vehicle_type_id":"4","last_reported":1746382373,"current_range_meters":9200,"station_id":"st_cvj5dfep6f1abm77gieg","pricing_plan_id":"cebpf4jnsgd1na2vs0mg"},{"bike_id":"aedf206f-89f3-4f30-9da6-56fb7ff8915b","system_id":"levelo_inurba_marseille","lat":43.281117,"lon":5.404004,"is_reserved":false,"is_disabled":false,"rental_uris":{"android":"levelo://app?vid=aedf206f-89f3-4f30-9da6-56fb7ff8915b","ios":"levelo://app?vid=aedf206f-89f3-4f30-9da6-56fb7ff8915b"},"vehicle_type_id":"4","last_reported":1746382373,"current_range_meters":9600,"station_id":"","pricing_plan_id":"cebpf4jnsgd1na2vs0mg"},{"bike_id":"85eb32c2-e153-49d1-89b4-0a326529a9dd","system_id":"levelo_inurba_marseille","lat":43.27567,"lon":5.38437,"is_reserved":false,"is_disabled":false,"rental_uris":{"android":"levelo://app?vid=85eb32c2-e153-49d1-89b4-0a326529a9dd","ios":"levelo://app?vid=85eb32c2-e153-49d1-89b4-0a326529a9dd"},"vehicle_type_id":"4","last_reported":1746382373,"current_range_meters":9600,"station_id":"ce4bhh92rcd13ifvqfi0","pricing_plan_id":"cebpf4jnsgd1na2vs0mg"},{"bike_id":"f2f259d1-36b8-4370-b79f-1e8086cc6d08","system_id":"levelo_inurba_marseille","lat":43.27066,"lon":5.42279,"is_reserved":false,"is_disabled":false,"rental_uris":{"android":"levelo://app?vid=f2f259d1-36b8-4370-b79f-1e8086cc6d08","ios":"levelo://app?vid=f2f259d1-36b8-4370-b79f-1e8086cc6d08"},"vehicle_type_id":"4","last_reported":1746382373,"current_range_meters":9600,"station_id":"ce4bhk92rcd13ifvqgb0","pricing_plan_id":"cebpf4jnsgd1na2vs0mg"},{"bike_id":"b18ea672-ee33-41b8-8a68-e02fbf2692e9","system_id":"levelo_inurba_marseille","lat":43.29555,"lon":5.4229,"is_reserved":false,"is_disabled":false,"rental_uris":{"android":"levelo://app?vid=b18ea672-ee33-41b8-8a68-e02fbf2692e9","ios":"levelo://app?vid=b18ea672-ee33-41b8-8a68-e02fbf2692e9"},"vehicle_type_id":"4","last_reported":1746382373,"current_range_meters":9600,"station_id":"ce4bhph2rcd13ifvqhdg","pricing_plan_id":"cebpf4jnsgd1na2vs0mg"},{"bike_id":"c59dd5c1-a195-4870-b3d7-afb523598e23","system_id":"levelo_inurba_marseille","lat":43.30819,"lon":5.4356,"is_reserved":false,"is_disabled":false,"rental_uris":{"android":"levelo://app?vid=c59dd5c1-a195-4870-b3d7-afb523598e23","ios":"levelo://app?vid=c59dd5c1-a195-4870-b3d7-afb523598e23"},"vehicle_type_id":"4","last_reported":1746382373,"current_range_meters":9600,"station_id":"ce4bhph2rcd13ifvqheg","pricing_plan_id":"cebpf4jnsgd1na2vs0mg"},{"bike_id":"77e5fc0c-8247-4eae-976e-b65c5c479c47","system_id":"levelo_inurba_marseille","lat":43.24389,"lon":5.3703,"is_reserved":false,"is_disabled":false,"rental_uris":{"android":"levelo://app?vid=77e5fc0c-8247-4eae-976e-b65c5c479c47","ios":"levelo://app?vid=77e5fc0c-8247-4eae-976e-b65c5c479c47"},"vehicle_type_id":"4","last_reported":1746382373,"current_range_meters":10000,"station_id":"ce4bhhh2rcd13ifvqfk0","pricing_plan_id":"cebpf4jnsgd1na2vs0mg"},{"bike_id":"2cb1c594-8918-44f2-bb4f-ca92e4ca805e","system_id":"levelo_inurba_marseille","lat":43.28079,"lon":5.39664,"is_reserved":false,"is_disabled":false,"rental_uris":{"android":"levelo://app?vid=2cb1c594-8918-44f2-bb4f-ca92e4ca805e","ios":"levelo://app?vid=2cb1c594-8918-44f2-bb4f-ca92e4ca805e"},"vehicle_type_id":"4","last_reported":1746382373,"current_range_meters":10000,"station_id":"ce4bho12rcd13ifvqh2g","pricing_plan_id":"cebpf4jnsgd1na2vs0mg"},{"bike_id":"11e449b2-acad-4b2b-b811-47bd1346b7a8","system_id":"levelo_inurba_marseille","lat":43.24387,"lon":5.3706,"is_reserved":false,"is_disabled":false,"rental_uris":{"android":"levelo://app?vid=11e449b2-acad-4b2b-b811-47bd1346b7a8","ios":"levelo://app?vid=11e449b2-acad-4b2b-b811-47bd1346b7a8"},"vehicle_type_id":"4","last_reported":1746382373,"current_range_meters":10800,"station_id":"ce4bhhh2rcd13ifvqfk0","pricing_plan_id":"cebpf4jnsgd1na2vs0mg"},{"bike_id":"1289b118-18ac-49c9-9878-4479fd6a84e6","system_id":"levelo_inurba_marseille","lat":43.29255,"lon":5.37627,"is_reserved":false,"is_disabled":false,"rental_uris":{"android":"levelo://app?vid=1289b118-18ac-49c9-9878-4479fd6a84e6","ios":"levelo://app?vid=1289b118-18ac-49c9-9878-4479fd6a84e6"},"vehicle_type_id":"4","last_reported":1746382373,"current_range_meters":11200,"station_id":"ce4bgi12rcd13ifvqb80","pricing_plan_id":"cebpf4jnsgd1na2vs0mg"},{"bike_id":"4d4b6c1c-0bf9-41e9-a94a-8d185d7d37f3","system_id":"levelo_inurba_marseille","lat":43.3026,"lon":5.40079,"is_reserved":false,"is_disabled":false,"rental_uris":{"android":"levelo://app?vid=4d4b6c1c-0bf9-41e9-a94a-8d185d7d37f3","ios":"levelo://app?vid=4d4b6c1c-0bf9-41e9-a94a-8d185d7d37f3"},"vehicle_type_id":"4","last_reported":1746382373,"current_range_meters":11200,"station_id":"ce4bgvh2rcd13ifvqcs0","pricing_plan_id":"cebpf4jnsgd1na2vs0mg"},{"bike_id":"c041e647-a532-4271-ab4c-b8d07e0d410f","system_id":"levelo_inurba_marseille","lat":43.24559,"lon":5.39506,"is_reserved":false,"is_disabled":false,"rental_uris":{"android":"levelo://app?vid=c041e647-a532-4271-ab4c-b8d07e0d410f","ios":"levelo://app?vid=c041e647-a532-4271-ab4c-b8d07e0d410f"},"vehicle_type_id":"4","last_reported":1746382373,"current_range_meters":11200,"station_id":"ce4bhlp2rcd13ifvqgjg","pricing_plan_id":"cebpf4jnsgd1na2vs0mg"},{"bike_id":"c5ecbfa9-c916-4377-9a5e-521a15cc4841","system_id":"levelo_inurba_marseille","lat":43.30276,"lon":5.37719,"is_reserved":false,"is_disabled":false,"rental_uris":{"android":"levelo://app?vid=c5ecbfa9-c916-4377-9a5e-521a15cc4841","ios":"levelo://app?vid=c5ecbfa9-c916-4377-9a5e-521a15cc4841"},"vehicle_type_id":"4","last_reported":1746382373,"current_range_meters":11600,"station_id":"ce4bguh2rcd13ifvqcj0","pricing_plan_id":"cebpf4jnsgd1na2vs0mg"},{"bike_id":"d1de7d29-dcd1-4450-99e0-1297aaaacb02","system_id":"levelo_inurba_marseille","lat":43.28354,"lon":5.38106,"is_reserved":false,"is_disabled":false,"rental_uris":{"android":"levelo://app?vid=d1de7d29-dcd1-4450-99e0-1297aaaacb02","ios":"levelo://app?vid=d1de7d29-dcd1-4450-99e0-1297aaaacb02"},"vehicle_type_id":"4","last_reported":1746382373,"current_range_meters":11600,"station_id":"ce4bh412rcd13ifvqdr0","pricing_plan_id":"cebpf4jnsgd1na2vs0mg"},{"bike_id":"4b521072-a449-41c7-b214-27a4c7b43215","system_id":"levelo_inurba_marseille","lat":43.33151,"lon":5.38175,"is_reserved":false,"is_disabled":false,"rental_uris":{"android":"levelo://app?vid=4b521072-a449-41c7-b214-27a4c7b43215","ios":"levelo://app?vid=4b521072-a449-41c7-b214-27a4c7b43215"},"vehicle_type_id":"4","last_reported":1746382373,"current_range_meters":12000,"station_id":"","pricing_plan_id":"cebpf4jnsgd1na2vs0mg"},{"bike_id":"e234c9c4-65cf-42bc-b2d9-38acc77199c3","system_id":"levelo_inurba_marseille","lat":43.37402,"lon":5.43791,"is_reserved":false,"is_disabled":false,"rental_uris":{"android":"levelo://app?vid=e234c9c4-65cf-42bc-b2d9-38acc77199c3","ios":"levelo://app?vid=e234c9c4-65cf-42bc-b2d9-38acc77199c3"},"vehicle_type_id":"4","last_reported":1746382373,"current_range_meters":12400,"station_id":"","pricing_plan_id":"cebpf4jnsgd1na2vs0mg"},{"bike_id":"2a9e440d-d573-4f53-9267-c1ffd53cbdfd","system_id":"levelo_inurba_marseille","lat":43.284485,"lon":5.358869,"is_reserved":false,"is_disabled":false,"rental_uris":{"android":"levelo://app?vid=2a9e440d-d573-4f53-9267-c1ffd53cbdfd","ios":"levelo://app?vid=2a9e440d-d573-4f53-9267-c1ffd53cbdfd"},"vehicle_type_id":"4","last_reported":1746382373,"current_range_meters":12400,"station_id":"ce4bhah2rcd13ifvqei0","pricing_plan_id":"cebpf4jnsgd1na2vs0mg"},{"bike_id":"6fa37660-dd23-4a8f-8ac3-f6c97ec4896d","system_id":"levelo_inurba_marseille","lat":43.26799,"lon":5.40265,"is_reserved":false,"is_disabled":false,"rental_uris":{"android":"levelo://app?vid=6fa37660-dd23-4a8f-8ac3-f6c97ec4896d","ios":"levelo://app?vid=6fa37660-dd23-4a8f-8ac3-f6c97ec4896d"},"vehicle_type_id":"4","last_reported":1746382373,"current_range_meters":12400,"station_id":"ce501612rcd8frsf0b60","pricing_plan_id":"cebpf4jnsgd1na2vs0mg"},{"bike_id":"b1e94ec2-c124-4b45-af28-71d37328dcf1","system_id":"levelo_inurba_marseille","lat":43.21745,"lon":5.3461,"is_reserved":false,"is_disabled":false,"rental_uris":{"android":"levelo://app?vid=b1e94ec2-c124-4b45-af28-71d37328dcf1","ios":"levelo://app?vid=b1e94ec2-c124-4b45-af28-71d37328dcf1"},"vehicle_type_id":"4","last_reported":1746382373,"current_range_meters":12800,"station_id":"","pricing_plan_id":"cebpf4jnsgd1na2vs0mg"},{"bike_id":"bc06e0b5-a061-4fa6-a04e-28d85d7c983d","system_id":"levelo_inurba_marseille","lat":43.29421,"lon":5.38627,"is_reserved":false,"is_disabled":false,"rental_uris":{"android":"levelo://app?vid=bc06e0b5-a061-4fa6-a04e-28d85d7c983d","ios":"levelo://app?vid=bc06e0b5-a061-4fa6-a04e-28d85d7c983d"},"vehicle_type_id":"4","last_reported":1746382373,"current_range_meters":12800,"station_id":"ce4bh2h2rcd13ifvqdh0","pricing_plan_id":"cebpf4jnsgd1na2vs0mg"},{"bike_id":"e84eee43-7ebe-4b56-a08b-27d6e58561fd","system_id":"levelo_inurba_marseille","lat":43.241774,"lon":5.397399,"is_reserved":false,"is_disabled":false,"rental_uris":{"android":"levelo://app?vid=e84eee43-7ebe-4b56-a08b-27d6e58561fd","ios":"levelo://app?vid=e84eee43-7ebe-4b56-a08b-27d6e58561fd"},"vehicle_type_id":"4","last_reported":1746382373,"current_range_meters":12800,"station_id":"ce4bhn12rcd13ifvqgpg","pricing_plan_id":"cebpf4jnsgd1na2vs0mg"},{"bike_id":"610f5703-5c7a-4e92-bb0e-da46bb15c29e","system_id":"levelo_inurba_marseille","lat":43.307287,"lon":5.42444,"is_reserved":false,"is_disabled":false,"rental_uris":{"android":"levelo://app?vid=610f5703-5c7a-4e92-bb0e-da46bb15c29e","ios":"levelo://app?vid=610f5703-5c7a-4e92-bb0e-da46bb15c29e"},"vehicle_type_id":"4","last_reported":1746382373,"current_range_meters":12800,"station_id":"st_cvj6ca6bvosntc0bfgr0","pricing_plan_id":"cebpf4jnsgd1na2vs0mg"},{"bike_id":"fdef9e55-be0f-41e0-8526-8e8fa7260880","system_id":"levelo_inurba_marseille","lat":43.31279,"lon":5.3738,"is_reserved":false,"is_disabled":false,"rental_uris":{"android":"levelo://app?vid=fdef9e55-be0f-41e0-8526-8e8fa7260880","ios":"levelo://app?vid=fdef9e55-be0f-41e0-8526-8e8fa7260880"},"vehicle_type_id":"4","last_reported":1746382373,"current_range_meters":13600,"station_id":"","pricing_plan_id":"cebpf4jnsgd1na2vs0mg"},{"bike_id":"2794f42e-23ad-4e58-9e56-65d69a8dc23d","system_id":"levelo_inurba_marseille","lat":43.29029,"lon":5.38644,"is_reserved":false,"is_disabled":false,"rental_uris":{"android":"levelo://app?vid=2794f42e-23ad-4e58-9e56-65d69a8dc23d","ios":"levelo://app?vid=2794f42e-23ad-4e58-9e56-65d69a8dc23d"},"vehicle_type_id":"4","last_reported":1746382373,"current_range_meters":13600,"station_id":"ce4bh4p2rcd13ifvqe0g","pricing_plan_id":"cebpf4jnsgd1na2vs0mg"},{"bike_id":"43f220ab-0408-46b3-abe5-60437ce3bc1e","system_id":"levelo_inurba_marseille","lat":43.23204,"lon":5.35545,"is_reserved":false,"is_disabled":false,"rental_uris":{"android":"levelo://app?vid=43f220ab-0408-46b3-abe5-60437ce3bc1e","ios":"levelo://app?vid=43f220ab-0408-46b3-abe5-60437ce3bc1e"},"vehicle_type_id":"4","last_reported":1746382373,"current_range_meters":14000,"station_id":"ce4bhu92rcd13ifvqi70","pricing_plan_id":"cebpf4jnsgd1na2vs0mg"},{"bike_id":"fe0fbf1d-a51d-4337-87db-fbf2388be96f","system_id":"levelo_inurba_marseille","lat":43.28947,"lon":5.3639,"is_reserved":false,"is_disabled":false,"rental_uris":{"android":"levelo://app?vid=fe0fbf1d-a51d-4337-87db-fbf2388be96f","ios":"levelo://app?vid=fe0fbf1d-a51d-4337-87db-fbf2388be96f"},"vehicle_type_id":"4","last_reported":1746382373,"current_range_meters":14800,"station_id":"ce4bhc92rcd13ifvqetg","pricing_plan_id":"cebpf4jnsgd1na2vs0mg"},{"bike_id":"742ca9a8-2512-4a83-a243-c4ac96b485e5","system_id":"levelo_inurba_marseille","lat":43.26058,"lon":5.39397,"is_reserved":false,"is_disabled":false,"rental_uris":{"android":"levelo://app?vid=742ca9a8-2512-4a83-a243-c4ac96b485e5","ios":"levelo://app?vid=742ca9a8-2512-4a83-a243-c4ac96b485e5"},"vehicle_type_id":"4","last_reported":1746382373,"current_range_meters":14800,"station_id":"ce4bhh92rcd13ifvqfj0","pricing_plan_id":"cebpf4jnsgd1na2vs0mg"},{"bike_id":"37c6684c-8b36-4fd4-9901-e8ae133092d9","system_id":"levelo_inurba_marseille","lat":43.28036,"lon":5.36943,"is_reserved":false,"is_disabled":false,"rental_uris":{"android":"levelo://app?vid=37c6684c-8b36-4fd4-9901-e8ae133092d9","ios":"levelo://app?vid=37c6684c-8b36-4fd4-9901-e8ae133092d9"},"vehicle_type_id":"4","last_reported":1746382373,"current_range_meters":15200,"station_id":"","pricing_plan_id":"cebpf4jnsgd1na2vs0mg"},{"bike_id":"3eaa6b2d-12cd-4c3d-8da6-dc045aeada39","system_id":"levelo_inurba_marseille","lat":43.3033,"lon":5.40427,"is_reserved":false,"is_disabled":false,"rental_uris":{"android":"levelo://app?vid=3eaa6b2d-12cd-4c3d-8da6-dc045aeada39","ios":"levelo://app?vid=3eaa6b2d-12cd-4c3d-8da6-dc045aeada39"},"vehicle_type_id":"4","last_reported":1746382373,"current_range_meters":15200,"station_id":"ce4bh012rcd13ifvqd10","pricing_plan_id":"cebpf4jnsgd1na2vs0mg"},{"bike_id":"8ab46f99-9644-474c-9745-b78357bd9ec9","system_id":"levelo_inurba_marseille","lat":43.37409,"lon":5.43809,"is_reserved":false,"is_disabled":false,"rental_uris":{"android":"levelo://app?vid=8ab46f99-9644-474c-9745-b78357bd9ec9","ios":"levelo://app?vid=8ab46f99-9644-474c-9745-b78357bd9ec9"},"vehicle_type_id":"4","last_reported":1746382373,"current_range_meters":16000,"station_id":"","pricing_plan_id":"cebpf4jnsgd1na2vs0mg"},{"bike_id":"f5ad6d27-7403-4b3f-946a-994b9a2ef25b","system_id":"levelo_inurba_marseille","lat":43.262138,"lon":5.374456,"is_reserved":false,"is_disabled":false,"rental_uris":{"android":"levelo://app?vid=f5ad6d27-7403-4b3f-946a-994b9a2ef25b","ios":"levelo://app?vid=f5ad6d27-7403-4b3f-946a-994b9a2ef25b"},"vehicle_type_id":"4","last_reported":1746382373,"current_range_meters":16000,"station_id":"ce4bhgp2rcd13ifvqfc0","pricing_plan_id":"cebpf4jnsgd1na2vs0mg"},{"bike_id":"6541fd63-6c6b-4f6b-b5ad-83b6829727f2","system_id":"levelo_inurba_marseille","lat":43.27498,"lon":5.42437,"is_reserved":false,"is_disabled":false,"rental_uris":{"android":"levelo://app?vid=6541fd63-6c6b-4f6b-b5ad-83b6829727f2","ios":"levelo://app?vid=6541fd63-6c6b-4f6b-b5ad-83b6829727f2"},"vehicle_type_id":"4","last_reported":1746382373,"current_range_meters":16000,"station_id":"ce4bhn92rcd13ifvqgrg","pricing_plan_id":"cebpf4jnsgd1na2vs0mg"},{"bike_id":"0a0ece37-539d-4aa3-b235-deb8a4daf593","system_id":"levelo_inurba_marseille","lat":43.33079,"lon":5.4082,"is_reserved":false,"is_disabled":false,"rental_uris":{"android":"levelo://app?vid=0a0ece37-539d-4aa3-b235-deb8a4daf593","ios":"levelo://app?vid=0a0ece37-539d-4aa3-b235-deb8a4daf593"},"vehicle_type_id":"4","last_reported":1746382373,"current_range_meters":16400,"station_id":"","pricing_plan_id":"cebpf4jnsgd1na2vs0mg"},{"bike_id":"624ea369-7b1e-4336-b715-9bedae0d3b6e","system_id":"levelo_inurba_marseille","lat":43.29463,"lon":5.38587,"is_reserved":false,"is_disabled":false,"rental_uris":{"android":"levelo://app?vid=624ea369-7b1e-4336-b715-9bedae0d3b6e","ios":"levelo://app?vid=624ea369-7b1e-4336-b715-9bedae0d3b6e"},"vehicle_type_id":"4","last_reported":1746382373,"current_range_meters":16800,"station_id":"","pricing_plan_id":"cebpf4jnsgd1na2vs0mg"},{"bike_id":"db87035f-2a4e-45d5-846c-2dfa457a5388","system_id":"levelo_inurba_marseille","lat":43.30594,"lon":5.39359,"is_reserved":false,"is_disabled":false,"rental_uris":{"android":"levelo://app?vid=db87035f-2a4e-45d5-846c-2dfa457a5388","ios":"levelo://app?vid=db87035f-2a4e-45d5-846c-2dfa457a5388"},"vehicle_type_id":"4","last_reported":1746382373,"current_range_meters":16800,"station_id":"ce4bh0p2rcd13ifvqd80","pricing_plan_id":"cebpf4jnsgd1na2vs0mg"},{"bike_id":"0b17fc45-74f3-442d-b787-145058bc69f1","system_id":"levelo_inurba_marseille","lat":43.30087,"lon":5.39075,"is_reserved":false,"is_disabled":false,"rental_uris":{"android":"levelo://app?vid=0b17fc45-74f3-442d-b787-145058bc69f1","ios":"levelo://app?vid=0b17fc45-74f3-442d-b787-145058bc69f1"},"vehicle_type_id":"4","last_reported":1746382373,"current_range_meters":16800,"station_id":"ce4bh192rcd13ifvqdb0","pricing_plan_id":"cebpf4jnsgd1na2vs0mg"},{"bike_id":"1885e4e4-787e-4399-a182-13afb5671e8f","system_id":"levelo_inurba_marseille","lat":43.31755,"lon":5.39013,"is_reserved":false,"is_disabled":false,"rental_uris":{"android":"levelo://app?vid=1885e4e4-787e-4399-a182-13afb5671e8f","ios":"levelo://app?vid=1885e4e4-787e-4399-a182-13afb5671e8f"},"vehicle_type_id":"4","last_reported":1746382373,"current_range_meters":16800,"station_id":"ce4bhqp2rcd13ifvqhng","pricing_plan_id":"cebpf4jnsgd1na2vs0mg"},{"bike_id":"086126b2-412a-4875-9dbb-85dc061d4895","system_id":"levelo_inurba_marseille","lat":43.31254,"lon":5.36813,"is_reserved":false,"is_disabled":false,"rental_uris":{"android":"levelo://app?vid=086126b2-412a-4875-9dbb-85dc061d4895","ios":"levelo://app?vid=086126b2-412a-4875-9dbb-85dc061d4895"},"vehicle_type_id":"4","last_reported":1746382373,"current_range_meters":17200,"station_id":"ce4bgl92rcd13ifvqbq0","pricing_plan_id":"cebpf4jnsgd1na2vs0mg"},{"bike_id":"4776c91a-c20c-4592-8281-e6e0eadb34af","system_id":"levelo_inurba_marseille","lat":43.2587,"lon":5.39899,"is_reserved":false,"is_disabled":false,"rental_uris":{"android":"levelo://app?vid=4776c91a-c20c-4592-8281-e6e0eadb34af","ios":"levelo://app?vid=4776c91a-c20c-4592-8281-e6e0eadb34af"},"vehicle_type_id":"4","last_reported":1746382373,"current_range_meters":17200,"station_id":"ce4bhl92rcd13ifvqghg","pricing_plan_id":"cebpf4jnsgd1na2vs0mg"},{"bike_id":"7ad04c1b-fc26-4c94-a72f-89c6e3ca5c32","system_id":"levelo_inurba_marseille","lat":43.311913,"lon":5.407609,"is_reserved":false,"is_disabled":false,"rental_uris":{"android":"levelo://app?vid=7ad04c1b-fc26-4c94-a72f-89c6e3ca5c32","ios":"levelo://app?vid=7ad04c1b-fc26-4c94-a72f-89c6e3ca5c32"},"vehicle_type_id":"4","last_reported":1746382373,"current_range_meters":17600,"station_id":"","pricing_plan_id":"cebpf4jnsgd1na2vs0mg"},{"bike_id":"d04aa922-d57b-4030-ab29-4013673ca5b8","system_id":"levelo_inurba_marseille","lat":43.29306,"lon":5.3718,"is_reserved":false,"is_disabled":false,"rental_uris":{"android":"levelo://app?vid=d04aa922-d57b-4030-ab29-4013673ca5b8","ios":"levelo://app?vid=d04aa922-d57b-4030-ab29-4013673ca5b8"},"vehicle_type_id":"4","last_reported":1746382373,"current_range_meters":17600,"station_id":"ce4bgh92rcd13ifvqb40","pricing_plan_id":"cebpf4jnsgd1na2vs0mg"},{"bike_id":"ec2c7b25-0e30-48e1-b928-969b75e21fd2","system_id":"levelo_inurba_marseille","lat":43.30886,"lon":5.39661,"is_reserved":false,"is_disabled":false,"rental_uris":{"android":"levelo://app?vid=ec2c7b25-0e30-48e1-b928-969b75e21fd2","ios":"levelo://app?vid=ec2c7b25-0e30-48e1-b928-969b75e21fd2"},"vehicle_type_id":"4","last_reported":1746382373,"current_range_meters":17600,"station_id":"ce4bh012rcd13ifvqcv0","pricing_plan_id":"cebpf4jnsgd1na2vs0mg"},{"bike_id":"89c1c22e-4deb-4a12-b25d-9d0f09a1f79b","system_id":"levelo_inurba_marseille","lat":43.21753,"lon":5.34596,"is_reserved":false,"is_disabled":false,"rental_uris":{"android":"levelo://app?vid=89c1c22e-4deb-4a12-b25d-9d0f09a1f79b","ios":"levelo://app?vid=89c1c22e-4deb-4a12-b25d-9d0f09a1f79b"},"vehicle_type_id":"4","last_reported":1746382373,"current_range_meters":17600,"station_id":"st_cvj6r9ubvosntc0bgbag","pricing_plan_id":"cebpf4jnsgd1na2vs0mg"},{"bike_id":"d252a272-7b85-44ee-b117-a17b072d1a91","system_id":"levelo_inurba_marseille","lat":43.21753,"lon":5.34604,"is_reserved":false,"is_disabled":false,"rental_uris":{"android":"levelo://app?vid=d252a272-7b85-44ee-b117-a17b072d1a91","ios":"levelo://app?vid=d252a272-7b85-44ee-b117-a17b072d1a91"},"vehicle_type_id":"4","last_reported":1746382373,"current_range_meters":17600,"station_id":"st_cvj6r9ubvosntc0bgbag","pricing_plan_id":"cebpf4jnsgd1na2vs0mg"},{"bike_id":"a7393548-1ca4-426f-bec8-e094325f844e","system_id":"levelo_inurba_marseille","lat":43.26303,"lon":5.37445,"is_reserved":false,"is_disabled":false,"rental_uris":{"android":"levelo://app?vid=a7393548-1ca4-426f-bec8-e094325f844e","ios":"levelo://app?vid=a7393548-1ca4-426f-bec8-e094325f844e"},"vehicle_type_id":"4","last_reported":1746382373,"current_range_meters":18000,"station_id":"","pricing_plan_id":"cebpf4jnsgd1na2vs0mg"},{"bike_id":"f662e7cd-b4d2-4ab5-9419-ae14f3c0e84b","system_id":"levelo_inurba_marseille","lat":43.29263,"lon":5.3761,"is_reserved":false,"is_disabled":false,"rental_uris":{"android":"levelo://app?vid=f662e7cd-b4d2-4ab5-9419-ae14f3c0e84b","ios":"levelo://app?vid=f662e7cd-b4d2-4ab5-9419-ae14f3c0e84b"},"vehicle_type_id":"4","last_reported":1746382373,"current_range_meters":18000,"station_id":"ce4bgi12rcd13ifvqb80","pricing_plan_id":"cebpf4jnsgd1na2vs0mg"},{"bike_id":"775c47fa-379b-4784-9f12-2f136a0ccc2d","system_id":"levelo_inurba_marseille","lat":43.29208,"lon":5.3607,"is_reserved":false,"is_disabled":false,"rental_uris":{"android":"levelo://app?vid=775c47fa-379b-4784-9f12-2f136a0ccc2d","ios":"levelo://app?vid=775c47fa-379b-4784-9f12-2f136a0ccc2d"},"vehicle_type_id":"4","last_reported":1746382373,"current_range_meters":18000,"station_id":"ce4bhbh2rcd13ifvqeqg","pricing_plan_id":"cebpf4jnsgd1na2vs0mg"},{"bike_id":"10a0b3d5-826c-41a4-ac03-6fc86e07b8f8","system_id":"levelo_inurba_marseille","lat":43.27839,"lon":5.39203,"is_reserved":false,"is_disabled":false,"rental_uris":{"android":"levelo://app?vid=10a0b3d5-826c-41a4-ac03-6fc86e07b8f8","ios":"levelo://app?vid=10a0b3d5-826c-41a4-ac03-6fc86e07b8f8"},"vehicle_type_id":"4","last_reported":1746382373,"current_range_meters":18000,"station_id":"ce4bhjp2rcd13ifvqga0","pricing_plan_id":"cebpf4jnsgd1na2vs0mg"},{"bike_id":"1c7ef0b9-7d44-4c77-a2a8-8376b2fe009d","system_id":"levelo_inurba_marseille","lat":43.286689,"lon":5.386747,"is_reserved":false,"is_disabled":false,"rental_uris":{"android":"levelo://app?vid=1c7ef0b9-7d44-4c77-a2a8-8376b2fe009d","ios":"levelo://app?vid=1c7ef0b9-7d44-4c77-a2a8-8376b2fe009d"},"vehicle_type_id":"4","last_reported":1746382373,"current_range_meters":18800,"station_id":"ce4bh492rcd13ifvqdug","pricing_plan_id":"cebpf4jnsgd1na2vs0mg"},{"bike_id":"785aca27-00be-4217-8490-e907479653fe","system_id":"levelo_inurba_marseille","lat":43.2511,"lon":5.4033,"is_reserved":false,"is_disabled":false,"rental_uris":{"android":"levelo://app?vid=785aca27-00be-4217-8490-e907479653fe","ios":"levelo://app?vid=785aca27-00be-4217-8490-e907479653fe"},"vehicle_type_id":"4","last_reported":1746382373,"current_range_meters":18800,"station_id":"ce4bhlh2rcd13ifvqgig","pricing_plan_id":"cebpf4jnsgd1na2vs0mg"},{"bike_id":"2c10f141-60d0-49e5-8b26-2783a380b45e","system_id":"levelo_inurba_marseille","lat":43.27497,"lon":5.4245,"is_reserved":false,"is_disabled":false,"rental_uris":{"android":"levelo://app?vid=2c10f141-60d0-49e5-8b26-2783a380b45e","ios":"levelo://app?vid=2c10f141-60d0-49e5-8b26-2783a380b45e"},"vehicle_type_id":"4","last_reported":1746382373,"current_range_meters":18800,"station_id":"ce4bhn92rcd13ifvqgrg","pricing_plan_id":"cebpf4jnsgd1na2vs0mg"},{"bike_id":"581588d1-c651-4978-8ecb-7249d7378795","system_id":"levelo_inurba_marseille","lat":43.3013,"lon":5.37411,"is_reserved":false,"is_disabled":false,"rental_uris":{"android":"levelo://app?vid=581588d1-c651-4978-8ecb-7249d7378795","ios":"levelo://app?vid=581588d1-c651-4978-8ecb-7249d7378795"},"vehicle_type_id":"4","last_reported":1746382373,"current_range_meters":19200,"station_id":"ce4bgs92rcd13ifvqcc0","pricing_plan_id":"cebpf4jnsgd1na2vs0mg"},{"bike_id":"c7daaae1-39ed-4368-8a0d-3321527224b3","system_id":"levelo_inurba_marseille","lat":43.29007,"lon":5.35615,"is_reserved":false,"is_disabled":false,"rental_uris":{"android":"levelo://app?vid=c7daaae1-39ed-4368-8a0d-3321527224b3","ios":"levelo://app?vid=c7daaae1-39ed-4368-8a0d-3321527224b3"},"vehicle_type_id":"4","last_reported":1746382373,"current_range_meters":19200,"station_id":"ce4bhb92rcd13ifvqen0","pricing_plan_id":"cebpf4jnsgd1na2vs0mg"},{"bike_id":"1bc89dec-24f6-4cf3-9a07-0634e2bc1366","system_id":"levelo_inurba_marseille","lat":43.23185,"lon":5.39988,"is_reserved":false,"is_disabled":false,"rental_uris":{"android":"levelo://app?vid=1bc89dec-24f6-4cf3-9a07-0634e2bc1366","ios":"levelo://app?vid=1bc89dec-24f6-4cf3-9a07-0634e2bc1366"},"vehicle_type_id":"4","last_reported":1746382373,"current_range_meters":19200,"station_id":"ce4bhn12rcd13ifvqgqg","pricing_plan_id":"cebpf4jnsgd1na2vs0mg"},{"bike_id":"bbba4a42-41f1-4d4c-a0ec-15062e1d6496","system_id":"levelo_inurba_marseille","lat":43.30824,"lon":5.43529,"is_reserved":false,"is_disabled":false,"rental_uris":{"android":"levelo://app?vid=bbba4a42-41f1-4d4c-a0ec-15062e1d6496","ios":"levelo://app?vid=bbba4a42-41f1-4d4c-a0ec-15062e1d6496"},"vehicle_type_id":"4","last_reported":1746382373,"current_range_meters":19200,"station_id":"ce4bhph2rcd13ifvqheg","pricing_plan_id":"cebpf4jnsgd1na2vs0mg"},{"bike_id":"2989b068-2042-487d-a2c6-e257a063a874","system_id":"levelo_inurba_marseille","lat":43.32485,"lon":5.36551,"is_reserved":false,"is_disabled":false,"rental_uris":{"android":"levelo://app?vid=2989b068-2042-487d-a2c6-e257a063a874","ios":"levelo://app?vid=2989b068-2042-487d-a2c6-e257a063a874"},"vehicle_type_id":"4","last_reported":1746382373,"current_range_meters":19200,"station_id":"ce4bhs12rcd13ifvqhvg","pricing_plan_id":"cebpf4jnsgd1na2vs0mg"},{"bike_id":"f6990bbf-7200-4595-9d3c-805bae17a99e","system_id":"levelo_inurba_marseille","lat":43.22495,"lon":5.34776,"is_reserved":false,"is_disabled":false,"rental_uris":{"android":"levelo://app?vid=f6990bbf-7200-4595-9d3c-805bae17a99e","ios":"levelo://app?vid=f6990bbf-7200-4595-9d3c-805bae17a99e"},"vehicle_type_id":"4","last_reported":1746382373,"current_range_meters":19600,"station_id":"","pricing_plan_id":"cebpf4jnsgd1na2vs0mg"},{"bike_id":"4f7ef045-258d-47ce-ab0a-b4fb4ed0bdf3","system_id":"levelo_inurba_marseille","lat":43.2743,"lon":5.39414,"is_reserved":false,"is_disabled":false,"rental_uris":{"android":"levelo://app?vid=4f7ef045-258d-47ce-ab0a-b4fb4ed0bdf3","ios":"levelo://app?vid=4f7ef045-258d-47ce-ab0a-b4fb4ed0bdf3"},"vehicle_type_id":"4","last_reported":1746382373,"current_range_meters":19600,"station_id":"ce4bhdp2rcd13ifvqf20","pricing_plan_id":"cebpf4jnsgd1na2vs0mg"},{"bike_id":"6ee73770-cf70-4300-aef2-b9359860c9c9","system_id":"levelo_inurba_marseille","lat":43.28718,"lon":5.39977,"is_reserved":false,"is_disabled":false,"rental_uris":{"android":"levelo://app?vid=6ee73770-cf70-4300-aef2-b9359860c9c9","ios":"levelo://app?vid=6ee73770-cf70-4300-aef2-b9359860c9c9"},"vehicle_type_id":"4","last_reported":1746382373,"current_range_meters":19600,"station_id":"ce4bho92rcd13ifvqh3g","pricing_plan_id":"cebpf4jnsgd1na2vs0mg"},{"bike_id":"2dce38cf-a8d4-49cd-9fcf-ef494d90a125","system_id":"levelo_inurba_marseille","lat":43.27132,"lon":5.36373,"is_reserved":false,"is_disabled":false,"rental_uris":{"android":"levelo://app?vid=2dce38cf-a8d4-49cd-9fcf-ef494d90a125","ios":"levelo://app?vid=2dce38cf-a8d4-49cd-9fcf-ef494d90a125"},"vehicle_type_id":"4","last_reported":1746382373,"current_range_meters":20000,"station_id":"","pricing_plan_id":"cebpf4jnsgd1na2vs0mg"},{"bike_id":"c9351ee2-75d0-447a-ba21-6c298b6600ed","system_id":"levelo_inurba_marseille","lat":43.23147,"lon":5.43719,"is_reserved":false,"is_disabled":false,"rental_uris":{"android":"levelo://app?vid=c9351ee2-75d0-447a-ba21-6c298b6600ed","ios":"levelo://app?vid=c9351ee2-75d0-447a-ba21-6c298b6600ed"},"vehicle_type_id":"4","last_reported":1746382373,"current_range_meters":20000,"station_id":"ce4bhmp2rcd13ifvqgog","pricing_plan_id":"cebpf4jnsgd1na2vs0mg"},{"bike_id":"bc32a0f1-ea8a-49e5-9fa4-f9d1eea3c4c8","system_id":"levelo_inurba_marseille","lat":43.28475,"lon":5.39187,"is_reserved":false,"is_disabled":false,"rental_uris":{"android":"levelo://app?vid=bc32a0f1-ea8a-49e5-9fa4-f9d1eea3c4c8","ios":"levelo://app?vid=bc32a0f1-ea8a-49e5-9fa4-f9d1eea3c4c8"},"vehicle_type_id":"4","last_reported":1746382373,"current_range_meters":20000,"station_id":"ce4bhoh2rcd13ifvqh5g","pricing_plan_id":"cebpf4jnsgd1na2vs0mg"},{"bike_id":"55e2365c-b270-4dfe-a830-699a54b79cdb","system_id":"levelo_inurba_marseille","lat":43.2558,"lon":5.420999,"is_reserved":false,"is_disabled":false,"rental_uris":{"android":"levelo://app?vid=55e2365c-b270-4dfe-a830-699a54b79cdb","ios":"levelo://app?vid=55e2365c-b270-4dfe-a830-699a54b79cdb"},"vehicle_type_id":"4","last_reported":1746382373,"current_range_meters":20400,"station_id":"","pricing_plan_id":"cebpf4jnsgd1na2vs0mg"},{"bike_id":"ce7dbab7-9310-4b7e-bf0c-465a151ac403","system_id":"levelo_inurba_marseille","lat":43.35233,"lon":5.43785,"is_reserved":false,"is_disabled":false,"rental_uris":{"android":"levelo://app?vid=ce7dbab7-9310-4b7e-bf0c-465a151ac403","ios":"levelo://app?vid=ce7dbab7-9310-4b7e-bf0c-465a151ac403"},"vehicle_type_id":"4","last_reported":1746382373,"current_range_meters":20400,"station_id":"","pricing_plan_id":"cebpf4jnsgd1na2vs0mg"},{"bike_id":"c8bf039d-e3c1-4dda-9cfd-582d7787ee00","system_id":"levelo_inurba_marseille","lat":43.2837,"lon":5.38649,"is_reserved":false,"is_disabled":false,"rental_uris":{"android":"levelo://app?vid=c8bf039d-e3c1-4dda-9cfd-582d7787ee00","ios":"levelo://app?vid=c8bf039d-e3c1-4dda-9cfd-582d7787ee00"},"vehicle_type_id":"4","last_reported":1746382373,"current_range_meters":20400,"station_id":"ce4bh492rcd13ifvqdvg","pricing_plan_id":"cebpf4jnsgd1na2vs0mg"},{"bike_id":"fe9dd916-194e-45d5-988a-cedb56aedf29","system_id":"levelo_inurba_marseille","lat":43.29543,"lon":5.42294,"is_reserved":false,"is_disabled":false,"rental_uris":{"android":"levelo://app?vid=fe9dd916-194e-45d5-988a-cedb56aedf29","ios":"levelo://app?vid=fe9dd916-194e-45d5-988a-cedb56aedf29"},"vehicle_type_id":"4","last_reported":1746382373,"current_range_meters":20400,"station_id":"ce4bhph2rcd13ifvqhdg","pricing_plan_id":"cebpf4jnsgd1na2vs0mg"},{"bike_id":"fedc619d-d7cc-4df1-a967-c5d0953b5b95","system_id":"levelo_inurba_marseille","lat":43.246023,"lon":5.408353,"is_reserved":false,"is_disabled":false,"rental_uris":{"android":"levelo://app?vid=fedc619d-d7cc-4df1-a967-c5d0953b5b95","ios":"levelo://app?vid=fedc619d-d7cc-4df1-a967-c5d0953b5b95"},"vehicle_type_id":"4","last_reported":1746382373,"current_range_meters":20800,"station_id":"","pricing_plan_id":"cebpf4jnsgd1na2vs0mg"},{"bike_id":"536cf2a1-c766-4b7d-805b-24f0b86455af","system_id":"levelo_inurba_marseille","lat":43.312229,"lon":5.368509,"is_reserved":false,"is_disabled":false,"rental_uris":{"android":"levelo://app?vid=536cf2a1-c766-4b7d-805b-24f0b86455af","ios":"levelo://app?vid=536cf2a1-c766-4b7d-805b-24f0b86455af"},"vehicle_type_id":"4","last_reported":1746382373,"current_range_meters":20800,"station_id":"ce4bgl92rcd13ifvqbq0","pricing_plan_id":"cebpf4jnsgd1na2vs0mg"},{"bike_id":"4d27ce56-4be4-4559-94d1-ff1e6b54eb45","system_id":"levelo_inurba_marseille","lat":43.30459,"lon":5.37903,"is_reserved":false,"is_disabled":false,"rental_uris":{"android":"levelo://app?vid=4d27ce56-4be4-4559-94d1-ff1e6b54eb45","ios":"levelo://app?vid=4d27ce56-4be4-4559-94d1-ff1e6b54eb45"},"vehicle_type_id":"4","last_reported":1746382373,"current_range_meters":20800,"station_id":"ce4bgup2rcd13ifvqcn0","pricing_plan_id":"cebpf4jnsgd1na2vs0mg"},{"bike_id":"0cdf18f7-acd7-4c32-bd78-96ff79b6a3da","system_id":"levelo_inurba_marseille","lat":43.24089,"lon":5.37749,"is_reserved":false,"is_disabled":false,"rental_uris":{"android":"levelo://app?vid=0cdf18f7-acd7-4c32-bd78-96ff79b6a3da","ios":"levelo://app?vid=0cdf18f7-acd7-4c32-bd78-96ff79b6a3da"},"vehicle_type_id":"4","last_reported":1746382373,"current_range_meters":20800,"station_id":"ce4bhnp2rcd13ifvqgvg","pricing_plan_id":"cebpf4jnsgd1na2vs0mg"},{"bike_id":"99caa5c9-73c6-4674-850e-ae7cd663deab","system_id":"levelo_inurba_marseille","lat":43.21183,"lon":5.35095,"is_reserved":false,"is_disabled":false,"rental_uris":{"android":"levelo://app?vid=99caa5c9-73c6-4674-850e-ae7cd663deab","ios":"levelo://app?vid=99caa5c9-73c6-4674-850e-ae7cd663deab"},"vehicle_type_id":"4","last_reported":1746382373,"current_range_meters":20800,"station_id":"st_cvj6sg6p6f1abm77japg","pricing_plan_id":"cebpf4jnsgd1na2vs0mg"},{"bike_id":"21da3716-d02b-4d69-9a2b-f572b7475b58","system_id":"levelo_inurba_marseille","lat":43.31079,"lon":5.38357,"is_reserved":false,"is_disabled":false,"rental_uris":{"android":"levelo://app?vid=21da3716-d02b-4d69-9a2b-f572b7475b58","ios":"levelo://app?vid=21da3716-d02b-4d69-9a2b-f572b7475b58"},"vehicle_type_id":"4","last_reported":1746382373,"current_range_meters":21600,"station_id":"","pricing_plan_id":"cebpf4jnsgd1na2vs0mg"},{"bike_id":"2ca21372-f5e4-41b2-a642-69a343b7d63f","system_id":"levelo_inurba_marseille","lat":43.298676,"lon":5.397316,"is_reserved":false,"is_disabled":false,"rental_uris":{"android":"levelo://app?vid=2ca21372-f5e4-41b2-a642-69a343b7d63f","ios":"levelo://app?vid=2ca21372-f5e4-41b2-a642-69a343b7d63f"},"vehicle_type_id":"4","last_reported":1746382373,"current_range_meters":21600,"station_id":"ce4bh0h2rcd13ifvqd50","pricing_plan_id":"cebpf4jnsgd1na2vs0mg"},{"bike_id":"7ee972d4-c40d-41dc-b0f1-fbef164bf57e","system_id":"levelo_inurba_marseille","lat":43.28685,"lon":5.37401,"is_reserved":false,"is_disabled":false,"rental_uris":{"android":"levelo://app?vid=7ee972d4-c40d-41dc-b0f1-fbef164bf57e","ios":"levelo://app?vid=7ee972d4-c40d-41dc-b0f1-fbef164bf57e"},"vehicle_type_id":"4","last_reported":1746382373,"current_range_meters":21600,"station_id":"ce4bh3p2rcd13ifvqdq0","pricing_plan_id":"cebpf4jnsgd1na2vs0mg"},{"bike_id":"5f5e803d-3880-4e34-b71a-fa307587b580","system_id":"levelo_inurba_marseille","lat":43.26198,"lon":5.37937,"is_reserved":false,"is_disabled":false,"rental_uris":{"android":"levelo://app?vid=5f5e803d-3880-4e34-b71a-fa307587b580","ios":"levelo://app?vid=5f5e803d-3880-4e34-b71a-fa307587b580"},"vehicle_type_id":"4","last_reported":1746382373,"current_range_meters":21600,"station_id":"ce4bhjp2rcd13ifvqg90","pricing_plan_id":"cebpf4jnsgd1na2vs0mg"},{"bike_id":"01517e60-8ebc-43cf-aa10-e17283ad2e06","system_id":"levelo_inurba_marseille","lat":43.30127,"lon":5.398637,"is_reserved":false,"is_disabled":false,"rental_uris":{"android":"levelo://app?vid=01517e60-8ebc-43cf-aa10-e17283ad2e06","ios":"levelo://app?vid=01517e60-8ebc-43cf-aa10-e17283ad2e06"},"vehicle_type_id":"4","last_reported":1746382373,"current_range_meters":22000,"station_id":"ce4bh0h2rcd13ifvqd40","pricing_plan_id":"cebpf4jnsgd1na2vs0mg"},{"bike_id":"c2d2aa38-474d-4d2a-98bf-15b44f906a93","system_id":"levelo_inurba_marseille","lat":43.2408,"lon":5.37756,"is_reserved":false,"is_disabled":false,"rental_uris":{"android":"levelo://app?vid=c2d2aa38-474d-4d2a-98bf-15b44f906a93","ios":"levelo://app?vid=c2d2aa38-474d-4d2a-98bf-15b44f906a93"},"vehicle_type_id":"4","last_reported":1746382373,"current_range_meters":22000,"station_id":"ce4bhnp2rcd13ifvqgvg","pricing_plan_id":"cebpf4jnsgd1na2vs0mg"},{"bike_id":"7c933b51-b775-4c15-88aa-650395798b3b","system_id":"levelo_inurba_marseille","lat":43.29601,"lon":5.38099,"is_reserved":false,"is_disabled":false,"rental_uris":{"android":"levelo://app?vid=7c933b51-b775-4c15-88aa-650395798b3b","ios":"levelo://app?vid=7c933b51-b775-4c15-88aa-650395798b3b"},"vehicle_type_id":"4","last_reported":1746382373,"current_range_meters":22400,"station_id":"ce4bgl12rcd13ifvqbo0","pricing_plan_id":"cebpf4jnsgd1na2vs0mg"},{"bike_id":"29d03aa6-cfe4-4d48-a249-8bf35c2be982","system_id":"levelo_inurba_marseille","lat":43.30327,"lon":5.40428,"is_reserved":false,"is_disabled":false,"rental_uris":{"android":"levelo://app?vid=29d03aa6-cfe4-4d48-a249-8bf35c2be982","ios":"levelo://app?vid=29d03aa6-cfe4-4d48-a249-8bf35c2be982"},"vehicle_type_id":"4","last_reported":1746382373,"current_range_meters":22400,"station_id":"ce4bh012rcd13ifvqd10","pricing_plan_id":"cebpf4jnsgd1na2vs0mg"},{"bike_id":"d0bcf1fb-cbba-4142-876b-db3b580f0e4d","system_id":"levelo_inurba_marseille","lat":43.29558,"lon":5.42291,"is_reserved":false,"is_disabled":false,"rental_uris":{"android":"levelo://app?vid=d0bcf1fb-cbba-4142-876b-db3b580f0e4d","ios":"levelo://app?vid=d0bcf1fb-cbba-4142-876b-db3b580f0e4d"},"vehicle_type_id":"4","last_reported":1746382373,"current_range_meters":22400,"station_id":"ce4bhph2rcd13ifvqhdg","pricing_plan_id":"cebpf4jnsgd1na2vs0mg"},{"bike_id":"2a81d2e9-f75a-484e-8550-454d81955c7b","system_id":"levelo_inurba_marseille","lat":43.29558,"lon":5.42282,"is_reserved":false,"is_disabled":false,"rental_uris":{"android":"levelo://app?vid=2a81d2e9-f75a-484e-8550-454d81955c7b","ios":"levelo://app?vid=2a81d2e9-f75a-484e-8550-454d81955c7b"},"vehicle_type_id":"4","last_reported":1746382373,"current_range_meters":22400,"station_id":"ce4bhph2rcd13ifvqhdg","pricing_plan_id":"cebpf4jnsgd1na2vs0mg"},{"bike_id":"3f72b7ea-5944-4b5c-833d-de535a116f71","system_id":"levelo_inurba_marseille","lat":43.31181,"lon":5.38626,"is_reserved":false,"is_disabled":false,"rental_uris":{"android":"levelo://app?vid=3f72b7ea-5944-4b5c-833d-de535a116f71","ios":"levelo://app?vid=3f72b7ea-5944-4b5c-833d-de535a116f71"},"vehicle_type_id":"4","last_reported":1746382373,"current_range_meters":22800,"station_id":"","pricing_plan_id":"cebpf4jnsgd1na2vs0mg"},{"bike_id":"f82ebac1-fbcd-4246-9a5b-831c6415f192","system_id":"levelo_inurba_marseille","lat":43.28104,"lon":5.37845,"is_reserved":false,"is_disabled":false,"rental_uris":{"android":"levelo://app?vid=f82ebac1-fbcd-4246-9a5b-831c6415f192","ios":"levelo://app?vid=f82ebac1-fbcd-4246-9a5b-831c6415f192"},"vehicle_type_id":"4","last_reported":1746382373,"current_range_meters":22800,"station_id":"ce4bha12rcd13ifvqee0","pricing_plan_id":"cebpf4jnsgd1na2vs0mg"},{"bike_id":"61fecd4f-7391-4946-a1bc-4f0d03dd771f","system_id":"levelo_inurba_marseille","lat":43.26194,"lon":5.37448,"is_reserved":false,"is_disabled":false,"rental_uris":{"android":"levelo://app?vid=61fecd4f-7391-4946-a1bc-4f0d03dd771f","ios":"levelo://app?vid=61fecd4f-7391-4946-a1bc-4f0d03dd771f"},"vehicle_type_id":"4","last_reported":1746382373,"current_range_meters":22800,"station_id":"ce4bhgp2rcd13ifvqfc0","pricing_plan_id":"cebpf4jnsgd1na2vs0mg"},{"bike_id":"792764e4-70b0-485c-981a-2e7c66495775","system_id":"levelo_inurba_marseille","lat":43.28004,"lon":5.40007,"is_reserved":false,"is_disabled":false,"rental_uris":{"android":"levelo://app?vid=792764e4-70b0-485c-981a-2e7c66495775","ios":"levelo://app?vid=792764e4-70b0-485c-981a-2e7c66495775"},"vehicle_type_id":"4","last_reported":1746382373,"current_range_meters":22800,"station_id":"ce4bho92rcd13ifvqh4g","pricing_plan_id":"cebpf4jnsgd1na2vs0mg"},{"bike_id":"e4c0e2c1-3ec1-400b-b207-609f3d8889aa","system_id":"levelo_inurba_marseille","lat":43.23637,"lon":5.36604,"is_reserved":false,"is_disabled":false,"rental_uris":{"android":"levelo://app?vid=e4c0e2c1-3ec1-400b-b207-609f3d8889aa","ios":"levelo://app?vid=e4c0e2c1-3ec1-400b-b207-609f3d8889aa"},"vehicle_type_id":"4","last_reported":1746382373,"current_range_meters":23200,"station_id":"","pricing_plan_id":"cebpf4jnsgd1na2vs0mg"},{"bike_id":"ee7808cd-e5d8-4c0f-84da-a246b52087ee","system_id":"levelo_inurba_marseille","lat":43.28084,"lon":5.396582,"is_reserved":false,"is_disabled":false,"rental_uris":{"android":"levelo://app?vid=ee7808cd-e5d8-4c0f-84da-a246b52087ee","ios":"levelo://app?vid=ee7808cd-e5d8-4c0f-84da-a246b52087ee"},"vehicle_type_id":"4","last_reported":1746382373,"current_range_meters":23200,"station_id":"ce4bho12rcd13ifvqh2g","pricing_plan_id":"cebpf4jnsgd1na2vs0mg"},{"bike_id":"af0cde5c-56dc-4409-8fac-e524a21e4db9","system_id":"levelo_inurba_marseille","lat":43.287,"lon":5.39982,"is_reserved":false,"is_disabled":false,"rental_uris":{"android":"levelo://app?vid=af0cde5c-56dc-4409-8fac-e524a21e4db9","ios":"levelo://app?vid=af0cde5c-56dc-4409-8fac-e524a21e4db9"},"vehicle_type_id":"4","last_reported":1746382373,"current_range_meters":23200,"station_id":"ce4bho92rcd13ifvqh3g","pricing_plan_id":"cebpf4jnsgd1na2vs0mg"},{"bike_id":"48406110-a345-43b2-b145-b3298828c686","system_id":"levelo_inurba_marseille","lat":43.295369,"lon":5.422829,"is_reserved":false,"is_disabled":false,"rental_uris":{"android":"levelo://app?vid=48406110-a345-43b2-b145-b3298828c686","ios":"levelo://app?vid=48406110-a345-43b2-b145-b3298828c686"},"vehicle_type_id":"4","last_reported":1746382373,"current_range_meters":23200,"station_id":"ce4bhph2rcd13ifvqhdg","pricing_plan_id":"cebpf4jnsgd1na2vs0mg"},{"bike_id":"243b49a7-8924-4b7d-8d65-fa1ee8c16a75","system_id":"levelo_inurba_marseille","lat":43.29054,"lon":5.40524,"is_reserved":false,"is_disabled":false,"rental_uris":{"android":"levelo://app?vid=243b49a7-8924-4b7d-8d65-fa1ee8c16a75","ios":"levelo://app?vid=243b49a7-8924-4b7d-8d65-fa1ee8c16a75"},"vehicle_type_id":"4","last_reported":1746382373,"current_range_meters":24000,"station_id":"","pricing_plan_id":"cebpf4jnsgd1na2vs0mg"},{"bike_id":"4866809e-6692-4bb1-8cc5-75481e30a24b","system_id":"levelo_inurba_marseille","lat":43.315708,"lon":5.409418,"is_reserved":false,"is_disabled":false,"rental_uris":{"android":"levelo://app?vid=4866809e-6692-4bb1-8cc5-75481e30a24b","ios":"levelo://app?vid=4866809e-6692-4bb1-8cc5-75481e30a24b"},"vehicle_type_id":"4","last_reported":1746382373,"current_range_meters":24000,"station_id":"","pricing_plan_id":"cebpf4jnsgd1na2vs0mg"},{"bike_id":"56bd7351-b019-44ba-8e45-6b060f8c042f","system_id":"levelo_inurba_marseille","lat":43.29532,"lon":5.38537,"is_reserved":false,"is_disabled":false,"rental_uris":{"android":"levelo://app?vid=56bd7351-b019-44ba-8e45-6b060f8c042f","ios":"levelo://app?vid=56bd7351-b019-44ba-8e45-6b060f8c042f"},"vehicle_type_id":"4","last_reported":1746382373,"current_range_meters":24000,"station_id":"ce4bgih2rcd13ifvqba0","pricing_plan_id":"cebpf4jnsgd1na2vs0mg"},{"bike_id":"ba1d6a57-0f9c-47eb-acc4-6b555c032f82","system_id":"levelo_inurba_marseille","lat":43.30639,"lon":5.40098,"is_reserved":false,"is_disabled":false,"rental_uris":{"android":"levelo://app?vid=ba1d6a57-0f9c-47eb-acc4-6b555c032f82","ios":"levelo://app?vid=ba1d6a57-0f9c-47eb-acc4-6b555c032f82"},"vehicle_type_id":"4","last_reported":1746382373,"current_range_meters":24400,"station_id":"ce4bh112rcd13ifvqda0","pricing_plan_id":"cebpf4jnsgd1na2vs0mg"},{"bike_id":"df974eef-7d81-4de3-b9af-5a661efdad58","system_id":"levelo_inurba_marseille","lat":43.28672,"lon":5.38673,"is_reserved":false,"is_disabled":false,"rental_uris":{"android":"levelo://app?vid=df974eef-7d81-4de3-b9af-5a661efdad58","ios":"levelo://app?vid=df974eef-7d81-4de3-b9af-5a661efdad58"},"vehicle_type_id":"4","last_reported":1746382373,"current_range_meters":24400,"station_id":"ce4bh492rcd13ifvqdug","pricing_plan_id":"cebpf4jnsgd1na2vs0mg"},{"bike_id":"a89366d2-7046-4afc-9478-9afd2d48511c","system_id":"levelo_inurba_marseille","lat":43.26786,"lon":5.39414,"is_reserved":false,"is_disabled":false,"rental_uris":{"android":"levelo://app?vid=a89366d2-7046-4afc-9478-9afd2d48511c","ios":"levelo://app?vid=a89366d2-7046-4afc-9478-9afd2d48511c"},"vehicle_type_id":"4","last_reported":1746382373,"current_range_meters":24400,"station_id":"ce4bhh12rcd13ifvqfg0","pricing_plan_id":"cebpf4jnsgd1na2vs0mg"},{"bike_id":"d81a05d5-5084-4696-ba60-390fdac5ecbd","system_id":"levelo_inurba_marseille","lat":43.281548,"lon":5.426487,"is_reserved":false,"is_disabled":false,"rental_uris":{"android":"levelo://app?vid=d81a05d5-5084-4696-ba60-390fdac5ecbd","ios":"levelo://app?vid=d81a05d5-5084-4696-ba60-390fdac5ecbd"},"vehicle_type_id":"4","last_reported":1746382373,"current_range_meters":24400,"station_id":"ce4bhnh2rcd13ifvqgug","pricing_plan_id":"cebpf4jnsgd1na2vs0mg"},{"bike_id":"8357fca7-5345-4406-8db8-1199560006a5","system_id":"levelo_inurba_marseille","lat":43.2996,"lon":5.41318,"is_reserved":false,"is_disabled":false,"rental_uris":{"android":"levelo://app?vid=8357fca7-5345-4406-8db8-1199560006a5","ios":"levelo://app?vid=8357fca7-5345-4406-8db8-1199560006a5"},"vehicle_type_id":"4","last_reported":1746382373,"current_range_meters":24400,"station_id":"ce4bhp12rcd13ifvqh9g","pricing_plan_id":"cebpf4jnsgd1na2vs0mg"},{"bike_id":"788046ab-4020-4c6e-a0e2-de3aee25f874","system_id":"levelo_inurba_marseille","lat":43.2121,"lon":5.35078,"is_reserved":false,"is_disabled":false,"rental_uris":{"android":"levelo://app?vid=788046ab-4020-4c6e-a0e2-de3aee25f874","ios":"levelo://app?vid=788046ab-4020-4c6e-a0e2-de3aee25f874"},"vehicle_type_id":"4","last_reported":1746382373,"current_range_meters":24400,"station_id":"st_cvj6sg6p6f1abm77japg","pricing_plan_id":"cebpf4jnsgd1na2vs0mg"},{"bike_id":"b92243f4-c85b-49e6-94c6-e8d2563e6104","system_id":"levelo_inurba_marseille","lat":43.29857,"lon":5.39742,"is_reserved":false,"is_disabled":false,"rental_uris":{"android":"levelo://app?vid=b92243f4-c85b-49e6-94c6-e8d2563e6104","ios":"levelo://app?vid=b92243f4-c85b-49e6-94c6-e8d2563e6104"},"vehicle_type_id":"4","last_reported":1746382373,"current_range_meters":24800,"station_id":"ce4bh0h2rcd13ifvqd50","pricing_plan_id":"cebpf4jnsgd1na2vs0mg"},{"bike_id":"8bcc6079-f9a5-4a43-b5fe-9b5ee9cfedd3","system_id":"levelo_inurba_marseille","lat":43.30383,"lon":5.42485,"is_reserved":false,"is_disabled":false,"rental_uris":{"android":"levelo://app?vid=8bcc6079-f9a5-4a43-b5fe-9b5ee9cfedd3","ios":"levelo://app?vid=8bcc6079-f9a5-4a43-b5fe-9b5ee9cfedd3"},"vehicle_type_id":"4","last_reported":1746382373,"current_range_meters":24800,"station_id":"ce4bhoh2rcd13ifvqh6g","pricing_plan_id":"cebpf4jnsgd1na2vs0mg"},{"bike_id":"cde0fa0e-c4c6-4bc4-a852-f4c917846b32","system_id":"levelo_inurba_marseille","lat":43.23065,"lon":5.3548,"is_reserved":false,"is_disabled":false,"rental_uris":{"android":"levelo://app?vid=cde0fa0e-c4c6-4bc4-a852-f4c917846b32","ios":"levelo://app?vid=cde0fa0e-c4c6-4bc4-a852-f4c917846b32"},"vehicle_type_id":"4","last_reported":1746382373,"current_range_meters":24800,"station_id":"cpo3342slgdg3j2ifvpg","pricing_plan_id":"cebpf4jnsgd1na2vs0mg"},{"bike_id":"10e77ad5-27c3-478f-bc96-af8935274b21","system_id":"levelo_inurba_marseille","lat":43.29878,"lon":5.39735,"is_reserved":false,"is_disabled":false,"rental_uris":{"android":"levelo://app?vid=10e77ad5-27c3-478f-bc96-af8935274b21","ios":"levelo://app?vid=10e77ad5-27c3-478f-bc96-af8935274b21"},"vehicle_type_id":"4","last_reported":1746382373,"current_range_meters":25200,"station_id":"ce4bh0h2rcd13ifvqd50","pricing_plan_id":"cebpf4jnsgd1na2vs0mg"},{"bike_id":"da0a472d-1d8b-4349-b9e6-02fca98f8a30","system_id":"levelo_inurba_marseille","lat":43.26557,"lon":5.37283,"is_reserved":false,"is_disabled":false,"rental_uris":{"android":"levelo://app?vid=da0a472d-1d8b-4349-b9e6-02fca98f8a30","ios":"levelo://app?vid=da0a472d-1d8b-4349-b9e6-02fca98f8a30"},"vehicle_type_id":"4","last_reported":1746382373,"current_range_meters":25200,"station_id":"ce4bhg12rcd13ifvqf70","pricing_plan_id":"cebpf4jnsgd1na2vs0mg"},{"bike_id":"075470e6-3a21-4a7d-bca7-a9c9189057cf","system_id":"levelo_inurba_marseille","lat":43.3042,"lon":5.41277,"is_reserved":false,"is_disabled":false,"rental_uris":{"android":"levelo://app?vid=075470e6-3a21-4a7d-bca7-a9c9189057cf","ios":"levelo://app?vid=075470e6-3a21-4a7d-bca7-a9c9189057cf"},"vehicle_type_id":"4","last_reported":1746382373,"current_range_meters":25200,"station_id":"ce4bhop2rcd13ifvqh8g","pricing_plan_id":"cebpf4jnsgd1na2vs0mg"},{"bike_id":"4eb8ab62-149c-480f-b879-d825051dcb18","system_id":"levelo_inurba_marseille","lat":43.33718,"lon":5.39187,"is_reserved":false,"is_disabled":false,"rental_uris":{"android":"levelo://app?vid=4eb8ab62-149c-480f-b879-d825051dcb18","ios":"levelo://app?vid=4eb8ab62-149c-480f-b879-d825051dcb18"},"vehicle_type_id":"4","last_reported":1746382373,"current_range_meters":25200,"station_id":"ce4bhr92rcd13ifvqhsg","pricing_plan_id":"cebpf4jnsgd1na2vs0mg"},{"bike_id":"ee9adb4e-d552-43cc-b171-ac9c65356f68","system_id":"levelo_inurba_marseille","lat":43.30891,"lon":5.39661,"is_reserved":false,"is_disabled":false,"rental_uris":{"android":"levelo://app?vid=ee9adb4e-d552-43cc-b171-ac9c65356f68","ios":"levelo://app?vid=ee9adb4e-d552-43cc-b171-ac9c65356f68"},"vehicle_type_id":"4","last_reported":1746382373,"current_range_meters":25600,"station_id":"ce4bh012rcd13ifvqcv0","pricing_plan_id":"cebpf4jnsgd1na2vs0mg"},{"bike_id":"04c435a2-e233-4c84-bb78-093a9ef57710","system_id":"levelo_inurba_marseille","lat":43.29423,"lon":5.38617,"is_reserved":false,"is_disabled":false,"rental_uris":{"android":"levelo://app?vid=04c435a2-e233-4c84-bb78-093a9ef57710","ios":"levelo://app?vid=04c435a2-e233-4c84-bb78-093a9ef57710"},"vehicle_type_id":"4","last_reported":1746382373,"current_range_meters":25600,"station_id":"ce4bh2h2rcd13ifvqdh0","pricing_plan_id":"cebpf4jnsgd1na2vs0mg"},{"bike_id":"f74dcaf3-d60c-4207-b68b-53c4a2ed4ee4","system_id":"levelo_inurba_marseille","lat":43.29282,"lon":5.40115,"is_reserved":false,"is_disabled":false,"rental_uris":{"android":"levelo://app?vid=f74dcaf3-d60c-4207-b68b-53c4a2ed4ee4","ios":"levelo://app?vid=f74dcaf3-d60c-4207-b68b-53c4a2ed4ee4"},"vehicle_type_id":"4","last_reported":1746382373,"current_range_meters":25600,"station_id":"ce4bh312rcd13ifvqdk0","pricing_plan_id":"cebpf4jnsgd1na2vs0mg"},{"bike_id":"ac1a6f5d-2d62-4fd8-a2df-7d175f93a67d","system_id":"levelo_inurba_marseille","lat":43.24075,"lon":5.37776,"is_reserved":false,"is_disabled":false,"rental_uris":{"android":"levelo://app?vid=ac1a6f5d-2d62-4fd8-a2df-7d175f93a67d","ios":"levelo://app?vid=ac1a6f5d-2d62-4fd8-a2df-7d175f93a67d"},"vehicle_type_id":"4","last_reported":1746382373,"current_range_meters":25600,"station_id":"ce4bhnp2rcd13ifvqgvg","pricing_plan_id":"cebpf4jnsgd1na2vs0mg"},{"bike_id":"5588629f-7703-431b-ade7-a4411a5542fd","system_id":"levelo_inurba_marseille","lat":43.2572,"lon":5.41111,"is_reserved":false,"is_disabled":false,"rental_uris":{"android":"levelo://app?vid=5588629f-7703-431b-ade7-a4411a5542fd","ios":"levelo://app?vid=5588629f-7703-431b-ade7-a4411a5542fd"},"vehicle_type_id":"4","last_reported":1746382373,"current_range_meters":26000,"station_id":"ce4bhkp2rcd13ifvqgd0","pricing_plan_id":"cebpf4jnsgd1na2vs0mg"},{"bike_id":"000b4104-fb7e-4cd3-b7b0-e557c2e778e0","system_id":"levelo_inurba_marseille","lat":43.2928,"lon":5.40113,"is_reserved":false,"is_disabled":false,"rental_uris":{"android":"levelo://app?vid=000b4104-fb7e-4cd3-b7b0-e557c2e778e0","ios":"levelo://app?vid=000b4104-fb7e-4cd3-b7b0-e557c2e778e0"},"vehicle_type_id":"4","last_reported":1746382373,"current_range_meters":26800,"station_id":"ce4bh312rcd13ifvqdk0","pricing_plan_id":"cebpf4jnsgd1na2vs0mg"},{"bike_id":"638d16bc-c6e8-422e-8907-cb54e849c916","system_id":"levelo_inurba_marseille","lat":43.22917,"lon":5.35389,"is_reserved":false,"is_disabled":false,"rental_uris":{"android":"levelo://app?vid=638d16bc-c6e8-422e-8907-cb54e849c916","ios":"levelo://app?vid=638d16bc-c6e8-422e-8907-cb54e849c916"},"vehicle_type_id":"4","last_reported":1746382373,"current_range_meters":26800,"station_id":"cpo3532slgdg3j2ikp40","pricing_plan_id":"cebpf4jnsgd1na2vs0mg"},{"bike_id":"4816de97-e264-468b-b3c3-74f635f7af5b","system_id":"levelo_inurba_marseille","lat":43.322064,"lon":5.383037,"is_reserved":false,"is_disabled":false,"rental_uris":{"android":"levelo://app?vid=4816de97-e264-468b-b3c3-74f635f7af5b","ios":"levelo://app?vid=4816de97-e264-468b-b3c3-74f635f7af5b"},"vehicle_type_id":"4","last_reported":1746382373,"current_range_meters":27200,"station_id":"","pricing_plan_id":"cebpf4jnsgd1na2vs0mg"},{"bike_id":"06a1e6eb-b9a8-42c0-8946-77f028d786fd","system_id":"levelo_inurba_marseille","lat":43.31436,"lon":5.37085,"is_reserved":false,"is_disabled":false,"rental_uris":{"android":"levelo://app?vid=06a1e6eb-b9a8-42c0-8946-77f028d786fd","ios":"levelo://app?vid=06a1e6eb-b9a8-42c0-8946-77f028d786fd"},"vehicle_type_id":"4","last_reported":1746382373,"current_range_meters":27200,"station_id":"","pricing_plan_id":"cebpf4jnsgd1na2vs0mg"},{"bike_id":"ea795bad-b5af-4e7a-b1c5-1235898fd248","system_id":"levelo_inurba_marseille","lat":43.30201,"lon":5.36633,"is_reserved":false,"is_disabled":false,"rental_uris":{"android":"levelo://app?vid=ea795bad-b5af-4e7a-b1c5-1235898fd248","ios":"levelo://app?vid=ea795bad-b5af-4e7a-b1c5-1235898fd248"},"vehicle_type_id":"4","last_reported":1746382373,"current_range_meters":27200,"station_id":"ce4bgrh2rcd13ifvqc8g","pricing_plan_id":"cebpf4jnsgd1na2vs0mg"},{"bike_id":"a1a27a3e-d0fc-4b6d-b20b-cfa7901cab9e","system_id":"levelo_inurba_marseille","lat":43.2894,"lon":5.36637,"is_reserved":false,"is_disabled":false,"rental_uris":{"android":"levelo://app?vid=a1a27a3e-d0fc-4b6d-b20b-cfa7901cab9e","ios":"levelo://app?vid=a1a27a3e-d0fc-4b6d-b20b-cfa7901cab9e"},"vehicle_type_id":"4","last_reported":1746382373,"current_range_meters":27200,"station_id":"ce4bhap2rcd13ifvqek0","pricing_plan_id":"cebpf4jnsgd1na2vs0mg"},{"bike_id":"d96d24a4-6090-410a-a2a6-b5457f332556","system_id":"levelo_inurba_marseille","lat":43.25731,"lon":5.41115,"is_reserved":false,"is_disabled":false,"rental_uris":{"android":"levelo://app?vid=d96d24a4-6090-410a-a2a6-b5457f332556","ios":"levelo://app?vid=d96d24a4-6090-410a-a2a6-b5457f332556"},"vehicle_type_id":"4","last_reported":1746382373,"current_range_meters":27200,"station_id":"ce4bhkp2rcd13ifvqgd0","pricing_plan_id":"cebpf4jnsgd1na2vs0mg"},{"bike_id":"e1002111-d06a-4682-8f1b-1e26c1fc54fc","system_id":"levelo_inurba_marseille","lat":43.281367,"lon":5.426507,"is_reserved":false,"is_disabled":false,"rental_uris":{"android":"levelo://app?vid=e1002111-d06a-4682-8f1b-1e26c1fc54fc","ios":"levelo://app?vid=e1002111-d06a-4682-8f1b-1e26c1fc54fc"},"vehicle_type_id":"4","last_reported":1746382373,"current_range_meters":27200,"station_id":"ce4bhnh2rcd13ifvqgug","pricing_plan_id":"cebpf4jnsgd1na2vs0mg"},{"bike_id":"3a63acc5-b352-4e5e-8ce6-37badecb6507","system_id":"levelo_inurba_marseille","lat":43.29484,"lon":5.41827,"is_reserved":false,"is_disabled":false,"rental_uris":{"android":"levelo://app?vid=3a63acc5-b352-4e5e-8ce6-37badecb6507","ios":"levelo://app?vid=3a63acc5-b352-4e5e-8ce6-37badecb6507"},"vehicle_type_id":"4","last_reported":1746382373,"current_range_meters":27600,"station_id":"","pricing_plan_id":"cebpf4jnsgd1na2vs0mg"},{"bike_id":"4bffa162-9bb3-49a8-89a2-9e8240182988","system_id":"levelo_inurba_marseille","lat":43.29261,"lon":5.38211,"is_reserved":false,"is_disabled":false,"rental_uris":{"android":"levelo://app?vid=4bffa162-9bb3-49a8-89a2-9e8240182988","ios":"levelo://app?vid=4bffa162-9bb3-49a8-89a2-9e8240182988"},"vehicle_type_id":"4","last_reported":1746382373,"current_range_meters":27600,"station_id":"","pricing_plan_id":"cebpf4jnsgd1na2vs0mg"},{"bike_id":"76f0455f-c54c-418d-98bc-420036ce910d","system_id":"levelo_inurba_marseille","lat":43.30908,"lon":5.36845,"is_reserved":false,"is_disabled":false,"rental_uris":{"android":"levelo://app?vid=76f0455f-c54c-418d-98bc-420036ce910d","ios":"levelo://app?vid=76f0455f-c54c-418d-98bc-420036ce910d"},"vehicle_type_id":"4","last_reported":1746382373,"current_range_meters":27600,"station_id":"ce4bgn92rcd13ifvqbvg","pricing_plan_id":"cebpf4jnsgd1na2vs0mg"},{"bike_id":"0d3ba053-9c7a-4c0a-9ab6-975c98bb3ba4","system_id":"levelo_inurba_marseille","lat":43.25086,"lon":5.39525,"is_reserved":false,"is_disabled":false,"rental_uris":{"android":"levelo://app?vid=0d3ba053-9c7a-4c0a-9ab6-975c98bb3ba4","ios":"levelo://app?vid=0d3ba053-9c7a-4c0a-9ab6-975c98bb3ba4"},"vehicle_type_id":"4","last_reported":1746382373,"current_range_meters":27600,"station_id":"ce4bhm12rcd13ifvqgkg","pricing_plan_id":"cebpf4jnsgd1na2vs0mg"},{"bike_id":"92f78ba2-c8d8-488a-9053-425f4217a9a3","system_id":"levelo_inurba_marseille","lat":43.29558,"lon":5.42282,"is_reserved":false,"is_disabled":false,"rental_uris":{"android":"levelo://app?vid=92f78ba2-c8d8-488a-9053-425f4217a9a3","ios":"levelo://app?vid=92f78ba2-c8d8-488a-9053-425f4217a9a3"},"vehicle_type_id":"4","last_reported":1746382373,"current_range_meters":27600,"station_id":"ce4bhph2rcd13ifvqhdg","pricing_plan_id":"cebpf4jnsgd1na2vs0mg"},{"bike_id":"82b48ae8-6591-44c0-b17f-2e42a828b2ab","system_id":"levelo_inurba_marseille","lat":43.27073,"lon":5.42278,"is_reserved":false,"is_disabled":false,"rental_uris":{"android":"levelo://app?vid=82b48ae8-6591-44c0-b17f-2e42a828b2ab","ios":"levelo://app?vid=82b48ae8-6591-44c0-b17f-2e42a828b2ab"},"vehicle_type_id":"4","last_reported":1746382373,"current_range_meters":28000,"station_id":"ce4bhk92rcd13ifvqgb0","pricing_plan_id":"cebpf4jnsgd1na2vs0mg"},{"bike_id":"f8b0b83e-3275-4842-8279-54953a201dd7","system_id":"levelo_inurba_marseille","lat":43.26204,"lon":5.40441,"is_reserved":false,"is_disabled":false,"rental_uris":{"android":"levelo://app?vid=f8b0b83e-3275-4842-8279-54953a201dd7","ios":"levelo://app?vid=f8b0b83e-3275-4842-8279-54953a201dd7"},"vehicle_type_id":"4","last_reported":1746382373,"current_range_meters":28000,"station_id":"ce4bhmh2rcd13ifvqgmg","pricing_plan_id":"cebpf4jnsgd1na2vs0mg"},{"bike_id":"8c86ecf0-27d5-455e-9422-5b7916758bd0","system_id":"levelo_inurba_marseille","lat":43.27941,"lon":5.4105,"is_reserved":false,"is_disabled":false,"rental_uris":{"android":"levelo://app?vid=8c86ecf0-27d5-455e-9422-5b7916758bd0","ios":"levelo://app?vid=8c86ecf0-27d5-455e-9422-5b7916758bd0"},"vehicle_type_id":"4","last_reported":1746382373,"current_range_meters":28000,"station_id":"ce4bhnp2rcd13ifvqh0g","pricing_plan_id":"cebpf4jnsgd1na2vs0mg"},{"bike_id":"13472e21-d104-40fc-ab57-18a07393bfeb","system_id":"levelo_inurba_marseille","lat":43.29572,"lon":5.42288,"is_reserved":false,"is_disabled":false,"rental_uris":{"android":"levelo://app?vid=13472e21-d104-40fc-ab57-18a07393bfeb","ios":"levelo://app?vid=13472e21-d104-40fc-ab57-18a07393bfeb"},"vehicle_type_id":"4","last_reported":1746382373,"current_range_meters":28000,"station_id":"ce4bhph2rcd13ifvqhdg","pricing_plan_id":"cebpf4jnsgd1na2vs0mg"},{"bike_id":"38214a63-ce33-4893-9845-0c7338a97e1e","system_id":"levelo_inurba_marseille","lat":43.32291,"lon":5.38299,"is_reserved":false,"is_disabled":false,"rental_uris":{"android":"levelo://app?vid=38214a63-ce33-4893-9845-0c7338a97e1e","ios":"levelo://app?vid=38214a63-ce33-4893-9845-0c7338a97e1e"},"vehicle_type_id":"4","last_reported":1746382373,"current_range_meters":28000,"station_id":"ce4bhr12rcd13ifvqhqg","pricing_plan_id":"cebpf4jnsgd1na2vs0mg"},{"bike_id":"414eb5b8-2d79-435f-a7d0-0bf004f42911","system_id":"levelo_inurba_marseille","lat":43.315237,"lon":5.380393,"is_reserved":false,"is_disabled":false,"rental_uris":{"android":"levelo://app?vid=414eb5b8-2d79-435f-a7d0-0bf004f42911","ios":"levelo://app?vid=414eb5b8-2d79-435f-a7d0-0bf004f42911"},"vehicle_type_id":"4","last_reported":1746382373,"current_range_meters":28000,"station_id":"ce4bhsp2rcd13ifvqi50","pricing_plan_id":"cebpf4jnsgd1na2vs0mg"},{"bike_id":"ded42051-0039-4cc2-a841-aeed54376989","system_id":"levelo_inurba_marseille","lat":43.265117,"lon":5.424473,"is_reserved":false,"is_disabled":false,"rental_uris":{"android":"levelo://app?vid=ded42051-0039-4cc2-a841-aeed54376989","ios":"levelo://app?vid=ded42051-0039-4cc2-a841-aeed54376989"},"vehicle_type_id":"4","last_reported":1746382373,"current_range_meters":28400,"station_id":"","pricing_plan_id":"cebpf4jnsgd1na2vs0mg"},{"bike_id":"0aa5b90f-550a-4efd-9bbc-22b1b2133141","system_id":"levelo_inurba_marseille","lat":43.27123,"lon":5.42242,"is_reserved":false,"is_disabled":false,"rental_uris":{"android":"levelo://app?vid=0aa5b90f-550a-4efd-9bbc-22b1b2133141","ios":"levelo://app?vid=0aa5b90f-550a-4efd-9bbc-22b1b2133141"},"vehicle_type_id":"4","last_reported":1746382373,"current_range_meters":28400,"station_id":"","pricing_plan_id":"cebpf4jnsgd1na2vs0mg"},{"bike_id":"1bcedd05-90fb-4c2c-b71e-896ea9a48d5f","system_id":"levelo_inurba_marseille","lat":43.29333,"lon":5.43427,"is_reserved":false,"is_disabled":false,"rental_uris":{"android":"levelo://app?vid=1bcedd05-90fb-4c2c-b71e-896ea9a48d5f","ios":"levelo://app?vid=1bcedd05-90fb-4c2c-b71e-896ea9a48d5f"},"vehicle_type_id":"4","last_reported":1746382373,"current_range_meters":28400,"station_id":"","pricing_plan_id":"cebpf4jnsgd1na2vs0mg"},{"bike_id":"38a7f04a-3061-49bd-b08d-5b85182b56f1","system_id":"levelo_inurba_marseille","lat":43.29852,"lon":5.36283,"is_reserved":false,"is_disabled":false,"rental_uris":{"android":"levelo://app?vid=38a7f04a-3061-49bd-b08d-5b85182b56f1","ios":"levelo://app?vid=38a7f04a-3061-49bd-b08d-5b85182b56f1"},"vehicle_type_id":"4","last_reported":1746382373,"current_range_meters":28400,"station_id":"ce4bgpp2rcd13ifvqc3g","pricing_plan_id":"cebpf4jnsgd1na2vs0mg"},{"bike_id":"79258b72-0f26-4a8c-bfc2-dd84a2c9e797","system_id":"levelo_inurba_marseille","lat":43.30606,"lon":5.372319,"is_reserved":false,"is_disabled":false,"rental_uris":{"android":"levelo://app?vid=79258b72-0f26-4a8c-bfc2-dd84a2c9e797","ios":"levelo://app?vid=79258b72-0f26-4a8c-bfc2-dd84a2c9e797"},"vehicle_type_id":"4","last_reported":1746382373,"current_range_meters":28400,"station_id":"ce4bgqh2rcd13ifvqc4g","pricing_plan_id":"cebpf4jnsgd1na2vs0mg"},{"bike_id":"6f4655dc-dc7c-4d57-b26f-821853c175fb","system_id":"levelo_inurba_marseille","lat":43.29029,"lon":5.38651,"is_reserved":false,"is_disabled":false,"rental_uris":{"android":"levelo://app?vid=6f4655dc-dc7c-4d57-b26f-821853c175fb","ios":"levelo://app?vid=6f4655dc-dc7c-4d57-b26f-821853c175fb"},"vehicle_type_id":"4","last_reported":1746382373,"current_range_meters":28400,"station_id":"ce4bh4p2rcd13ifvqe0g","pricing_plan_id":"cebpf4jnsgd1na2vs0mg"},{"bike_id":"717fcd59-0df1-4193-a4b5-9705f295b0ea","system_id":"levelo_inurba_marseille","lat":43.27566,"lon":5.3843,"is_reserved":false,"is_disabled":false,"rental_uris":{"android":"levelo://app?vid=717fcd59-0df1-4193-a4b5-9705f295b0ea","ios":"levelo://app?vid=717fcd59-0df1-4193-a4b5-9705f295b0ea"},"vehicle_type_id":"4","last_reported":1746382373,"current_range_meters":28400,"station_id":"ce4bhh92rcd13ifvqfi0","pricing_plan_id":"cebpf4jnsgd1na2vs0mg"},{"bike_id":"977f4bb4-3d44-493d-b5a1-22093907125a","system_id":"levelo_inurba_marseille","lat":43.27094,"lon":5.42301,"is_reserved":false,"is_disabled":false,"rental_uris":{"android":"levelo://app?vid=977f4bb4-3d44-493d-b5a1-22093907125a","ios":"levelo://app?vid=977f4bb4-3d44-493d-b5a1-22093907125a"},"vehicle_type_id":"4","last_reported":1746382373,"current_range_meters":28400,"station_id":"ce4bhk92rcd13ifvqgb0","pricing_plan_id":"cebpf4jnsgd1na2vs0mg"},{"bike_id":"5d1a4f3f-76ed-4777-9241-6e090d10cda6","system_id":"levelo_inurba_marseille","lat":43.25115,"lon":5.40326,"is_reserved":false,"is_disabled":false,"rental_uris":{"android":"levelo://app?vid=5d1a4f3f-76ed-4777-9241-6e090d10cda6","ios":"levelo://app?vid=5d1a4f3f-76ed-4777-9241-6e090d10cda6"},"vehicle_type_id":"4","last_reported":1746382373,"current_range_meters":28400,"station_id":"ce4bhlh2rcd13ifvqgig","pricing_plan_id":"cebpf4jnsgd1na2vs0mg"},{"bike_id":"f9bfae8a-1012-46dd-9b76-5e8a3e687dde","system_id":"levelo_inurba_marseille","lat":43.24545,"lon":5.39521,"is_reserved":false,"is_disabled":false,"rental_uris":{"android":"levelo://app?vid=f9bfae8a-1012-46dd-9b76-5e8a3e687dde","ios":"levelo://app?vid=f9bfae8a-1012-46dd-9b76-5e8a3e687dde"},"vehicle_type_id":"4","last_reported":1746382373,"current_range_meters":28400,"station_id":"ce4bhlp2rcd13ifvqgjg","pricing_plan_id":"cebpf4jnsgd1na2vs0mg"},{"bike_id":"505c6cb0-9945-457b-8566-a850f9d80017","system_id":"levelo_inurba_marseille","lat":43.21779,"lon":5.34573,"is_reserved":false,"is_disabled":false,"rental_uris":{"android":"levelo://app?vid=505c6cb0-9945-457b-8566-a850f9d80017","ios":"levelo://app?vid=505c6cb0-9945-457b-8566-a850f9d80017"},"vehicle_type_id":"4","last_reported":1746382373,"current_range_meters":28800,"station_id":"st_cvj6r9ubvosntc0bgbag","pricing_plan_id":"cebpf4jnsgd1na2vs0mg"},{"bike_id":"3cf90fdc-4134-4300-840d-06fac8bdb9d9","system_id":"levelo_inurba_marseille","lat":43.2771,"lon":5.388246,"is_reserved":false,"is_disabled":false,"rental_uris":{"android":"levelo://app?vid=3cf90fdc-4134-4300-840d-06fac8bdb9d9","ios":"levelo://app?vid=3cf90fdc-4134-4300-840d-06fac8bdb9d9"},"vehicle_type_id":"4","last_reported":1746382373,"current_range_meters":29600,"station_id":"","pricing_plan_id":"cebpf4jnsgd1na2vs0mg"},{"bike_id":"d1ca2924-f679-43cd-ba48-8362f34ab2eb","system_id":"levelo_inurba_marseille","lat":43.2921,"lon":5.39333,"is_reserved":false,"is_disabled":false,"rental_uris":{"android":"levelo://app?vid=d1ca2924-f679-43cd-ba48-8362f34ab2eb","ios":"levelo://app?vid=d1ca2924-f679-43cd-ba48-8362f34ab2eb"},"vehicle_type_id":"4","last_reported":1746382373,"current_range_meters":29600,"station_id":"ce4bh192rcd13ifvqdd0","pricing_plan_id":"cebpf4jnsgd1na2vs0mg"},{"bike_id":"419a6708-6578-444f-b7e7-169f6016afa6","system_id":"levelo_inurba_marseille","lat":43.28572,"lon":5.3949,"is_reserved":false,"is_disabled":false,"rental_uris":{"android":"levelo://app?vid=419a6708-6578-444f-b7e7-169f6016afa6","ios":"levelo://app?vid=419a6708-6578-444f-b7e7-169f6016afa6"},"vehicle_type_id":"4","last_reported":1746382373,"current_range_meters":29600,"station_id":"ce4bh292rcd13ifvqdg0","pricing_plan_id":"cebpf4jnsgd1na2vs0mg"},{"bike_id":"1312b699-7a92-4835-8cfd-e556280f08a3","system_id":"levelo_inurba_marseille","lat":43.26208,"lon":5.3746,"is_reserved":false,"is_disabled":false,"rental_uris":{"android":"levelo://app?vid=1312b699-7a92-4835-8cfd-e556280f08a3","ios":"levelo://app?vid=1312b699-7a92-4835-8cfd-e556280f08a3"},"vehicle_type_id":"4","last_reported":1746382373,"current_range_meters":29600,"station_id":"ce4bhgp2rcd13ifvqfc0","pricing_plan_id":"cebpf4jnsgd1na2vs0mg"},{"bike_id":"fb7e13e0-8784-46e3-ab60-8b505cf7cbb3","system_id":"levelo_inurba_marseille","lat":43.27175,"lon":5.41001,"is_reserved":false,"is_disabled":false,"rental_uris":{"android":"levelo://app?vid=fb7e13e0-8784-46e3-ab60-8b505cf7cbb3","ios":"levelo://app?vid=fb7e13e0-8784-46e3-ab60-8b505cf7cbb3"},"vehicle_type_id":"4","last_reported":1746382373,"current_range_meters":29600,"station_id":"ce4bhl12rcd13ifvqgf0","pricing_plan_id":"cebpf4jnsgd1na2vs0mg"},{"bike_id":"0ad0e8f4-0f2b-4f2c-8b93-19629e8646f6","system_id":"levelo_inurba_marseille","lat":43.27997,"lon":5.41667,"is_reserved":false,"is_disabled":false,"rental_uris":{"android":"levelo://app?vid=0ad0e8f4-0f2b-4f2c-8b93-19629e8646f6","ios":"levelo://app?vid=0ad0e8f4-0f2b-4f2c-8b93-19629e8646f6"},"vehicle_type_id":"4","last_reported":1746382373,"current_range_meters":29600,"station_id":"ce4bho12rcd13ifvqh1g","pricing_plan_id":"cebpf4jnsgd1na2vs0mg"},{"bike_id":"79b06513-1be3-43fd-a1aa-b7c7c6c1c8db","system_id":"levelo_inurba_marseille","lat":43.30821,"lon":5.43516,"is_reserved":false,"is_disabled":false,"rental_uris":{"android":"levelo://app?vid=79b06513-1be3-43fd-a1aa-b7c7c6c1c8db","ios":"levelo://app?vid=79b06513-1be3-43fd-a1aa-b7c7c6c1c8db"},"vehicle_type_id":"4","last_reported":1746382373,"current_range_meters":30000,"station_id":"ce4bhph2rcd13ifvqheg","pricing_plan_id":"cebpf4jnsgd1na2vs0mg"},{"bike_id":"6f10c397-2fb9-4802-915f-b2f2dce9e14a","system_id":"levelo_inurba_marseille","lat":43.23071,"lon":5.35486,"is_reserved":false,"is_disabled":false,"rental_uris":{"android":"levelo://app?vid=6f10c397-2fb9-4802-915f-b2f2dce9e14a","ios":"levelo://app?vid=6f10c397-2fb9-4802-915f-b2f2dce9e14a"},"vehicle_type_id":"4","last_reported":1746382373,"current_range_meters":30000,"station_id":"cpo3342slgdg3j2ifvpg","pricing_plan_id":"cebpf4jnsgd1na2vs0mg"},{"bike_id":"aad36daf-6ec9-48c8-b7ba-994360b37d09","system_id":"levelo_inurba_marseille","lat":43.31895,"lon":5.37945,"is_reserved":false,"is_disabled":false,"rental_uris":{"android":"levelo://app?vid=aad36daf-6ec9-48c8-b7ba-994360b37d09","ios":"levelo://app?vid=aad36daf-6ec9-48c8-b7ba-994360b37d09"},"vehicle_type_id":"4","last_reported":1746382373,"current_range_meters":30400,"station_id":"","pricing_plan_id":"cebpf4jnsgd1na2vs0mg"},{"bike_id":"069d0522-177d-44b1-9df4-049e3a8e720e","system_id":"levelo_inurba_marseille","lat":43.29845,"lon":5.36285,"is_reserved":false,"is_disabled":false,"rental_uris":{"android":"levelo://app?vid=069d0522-177d-44b1-9df4-049e3a8e720e","ios":"levelo://app?vid=069d0522-177d-44b1-9df4-049e3a8e720e"},"vehicle_type_id":"4","last_reported":1746382373,"current_range_meters":30400,"station_id":"ce4bgpp2rcd13ifvqc3g","pricing_plan_id":"cebpf4jnsgd1na2vs0mg"},{"bike_id":"a4f2f9bd-802c-4896-b633-257975217f35","system_id":"levelo_inurba_marseille","lat":43.29348,"lon":5.382299,"is_reserved":false,"is_disabled":false,"rental_uris":{"android":"levelo://app?vid=a4f2f9bd-802c-4896-b633-257975217f35","ios":"levelo://app?vid=a4f2f9bd-802c-4896-b633-257975217f35"},"vehicle_type_id":"4","last_reported":1746382373,"current_range_meters":30400,"station_id":"ce4bh612rcd13ifvqe6g","pricing_plan_id":"cebpf4jnsgd1na2vs0mg"},{"bike_id":"be2a4e25-449d-4234-bdb8-347c275b0fde","system_id":"levelo_inurba_marseille","lat":43.295531,"lon":5.42289,"is_reserved":false,"is_disabled":false,"rental_uris":{"android":"levelo://app?vid=be2a4e25-449d-4234-bdb8-347c275b0fde","ios":"levelo://app?vid=be2a4e25-449d-4234-bdb8-347c275b0fde"},"vehicle_type_id":"4","last_reported":1746382373,"current_range_meters":30400,"station_id":"ce4bhph2rcd13ifvqhdg","pricing_plan_id":"cebpf4jnsgd1na2vs0mg"},{"bike_id":"4fde46cf-490e-4803-b5a3-edbd193e6b8a","system_id":"levelo_inurba_marseille","lat":43.2857,"lon":5.39479,"is_reserved":false,"is_disabled":false,"rental_uris":{"android":"levelo://app?vid=4fde46cf-490e-4803-b5a3-edbd193e6b8a","ios":"levelo://app?vid=4fde46cf-490e-4803-b5a3-edbd193e6b8a"},"vehicle_type_id":"4","last_reported":1746382373,"current_range_meters":30800,"station_id":"ce4bh292rcd13ifvqdg0","pricing_plan_id":"cebpf4jnsgd1na2vs0mg"},{"bike_id":"9d6fdd6d-90fd-48fe-bc89-cc7568e67652","system_id":"levelo_inurba_marseille","lat":43.2781,"lon":5.40719,"is_reserved":false,"is_disabled":false,"rental_uris":{"android":"levelo://app?vid=9d6fdd6d-90fd-48fe-bc89-cc7568e67652","ios":"levelo://app?vid=9d6fdd6d-90fd-48fe-bc89-cc7568e67652"},"vehicle_type_id":"4","last_reported":1746382373,"current_range_meters":30800,"station_id":"ce4bhnh2rcd13ifvqgtg","pricing_plan_id":"cebpf4jnsgd1na2vs0mg"},{"bike_id":"a7126544-ffd0-4c14-ac55-bce939e7c1ea","system_id":"levelo_inurba_marseille","lat":43.27809,"lon":5.40715,"is_reserved":false,"is_disabled":false,"rental_uris":{"android":"levelo://app?vid=a7126544-ffd0-4c14-ac55-bce939e7c1ea","ios":"levelo://app?vid=a7126544-ffd0-4c14-ac55-bce939e7c1ea"},"vehicle_type_id":"4","last_reported":1746382373,"current_range_meters":30800,"station_id":"ce4bhnh2rcd13ifvqgtg","pricing_plan_id":"cebpf4jnsgd1na2vs0mg"},{"bike_id":"607f5a81-5db3-4d32-88be-8c0d80a3fa8a","system_id":"levelo_inurba_marseille","lat":43.29551,"lon":5.422793,"is_reserved":false,"is_disabled":false,"rental_uris":{"android":"levelo://app?vid=607f5a81-5db3-4d32-88be-8c0d80a3fa8a","ios":"levelo://app?vid=607f5a81-5db3-4d32-88be-8c0d80a3fa8a"},"vehicle_type_id":"4","last_reported":1746382373,"current_range_meters":30800,"station_id":"ce4bhph2rcd13ifvqhdg","pricing_plan_id":"cebpf4jnsgd1na2vs0mg"},{"bike_id":"dd2b968c-69a3-4930-a55c-61d4d42604cf","system_id":"levelo_inurba_marseille","lat":43.32465,"lon":5.36623,"is_reserved":false,"is_disabled":false,"rental_uris":{"android":"levelo://app?vid=dd2b968c-69a3-4930-a55c-61d4d42604cf","ios":"levelo://app?vid=dd2b968c-69a3-4930-a55c-61d4d42604cf"},"vehicle_type_id":"4","last_reported":1746382373,"current_range_meters":31200,"station_id":"","pricing_plan_id":"cebpf4jnsgd1na2vs0mg"},{"bike_id":"31421842-c77e-43eb-9857-12e3e221a142","system_id":"levelo_inurba_marseille","lat":43.280265,"lon":5.387243,"is_reserved":false,"is_disabled":false,"rental_uris":{"android":"levelo://app?vid=31421842-c77e-43eb-9857-12e3e221a142","ios":"levelo://app?vid=31421842-c77e-43eb-9857-12e3e221a142"},"vehicle_type_id":"4","last_reported":1746382373,"current_range_meters":31200,"station_id":"","pricing_plan_id":"cebpf4jnsgd1na2vs0mg"},{"bike_id":"4d70885f-ab3f-4ff7-a6ea-b316ceba20be","system_id":"levelo_inurba_marseille","lat":43.2942,"lon":5.38611,"is_reserved":false,"is_disabled":false,"rental_uris":{"android":"levelo://app?vid=4d70885f-ab3f-4ff7-a6ea-b316ceba20be","ios":"levelo://app?vid=4d70885f-ab3f-4ff7-a6ea-b316ceba20be"},"vehicle_type_id":"4","last_reported":1746382373,"current_range_meters":31200,"station_id":"ce4bh2h2rcd13ifvqdh0","pricing_plan_id":"cebpf4jnsgd1na2vs0mg"},{"bike_id":"af930bdf-d2ef-4589-8566-9054690beabf","system_id":"levelo_inurba_marseille","lat":43.30223,"lon":5.4377,"is_reserved":false,"is_disabled":false,"rental_uris":{"android":"levelo://app?vid=af930bdf-d2ef-4589-8566-9054690beabf","ios":"levelo://app?vid=af930bdf-d2ef-4589-8566-9054690beabf"},"vehicle_type_id":"4","last_reported":1746382373,"current_range_meters":32000,"station_id":"","pricing_plan_id":"cebpf4jnsgd1na2vs0mg"},{"bike_id":"a6ef1a95-4d7b-4fa1-aca4-666b791716c9","system_id":"levelo_inurba_marseille","lat":43.33605,"lon":5.4284,"is_reserved":false,"is_disabled":false,"rental_uris":{"android":"levelo://app?vid=a6ef1a95-4d7b-4fa1-aca4-666b791716c9","ios":"levelo://app?vid=a6ef1a95-4d7b-4fa1-aca4-666b791716c9"},"vehicle_type_id":"4","last_reported":1746382373,"current_range_meters":32000,"station_id":"","pricing_plan_id":"cebpf4jnsgd1na2vs0mg"},{"bike_id":"adde27cd-9859-4870-b3a9-2b90ca15bfd0","system_id":"levelo_inurba_marseille","lat":43.27915,"lon":5.39591,"is_reserved":false,"is_disabled":false,"rental_uris":{"android":"levelo://app?vid=adde27cd-9859-4870-b3a9-2b90ca15bfd0","ios":"levelo://app?vid=adde27cd-9859-4870-b3a9-2b90ca15bfd0"},"vehicle_type_id":"4","last_reported":1746382373,"current_range_meters":32000,"station_id":"ce4bhf92rcd13ifvqf40","pricing_plan_id":"cebpf4jnsgd1na2vs0mg"},{"bike_id":"bc45d86a-a349-4a05-9057-e364a34803a0","system_id":"levelo_inurba_marseille","lat":43.25,"lon":5.38926,"is_reserved":false,"is_disabled":false,"rental_uris":{"android":"levelo://app?vid=bc45d86a-a349-4a05-9057-e364a34803a0","ios":"levelo://app?vid=bc45d86a-a349-4a05-9057-e364a34803a0"},"vehicle_type_id":"4","last_reported":1746382373,"current_range_meters":32000,"station_id":"ce4bhgp2rcd13ifvqfd0","pricing_plan_id":"cebpf4jnsgd1na2vs0mg"},{"bike_id":"fcd17cdb-d178-4e42-9452-a130c4fd4794","system_id":"levelo_inurba_marseille","lat":43.26501,"lon":5.39531,"is_reserved":false,"is_disabled":false,"rental_uris":{"android":"levelo://app?vid=fcd17cdb-d178-4e42-9452-a130c4fd4794","ios":"levelo://app?vid=fcd17cdb-d178-4e42-9452-a130c4fd4794"},