{"last_updated":1739621688,"ttl":60,"version":"2.2","data":{"bikes":[{"bike_id":"ac807688-4835-49fb-a71d-b04961f2920f","system_id":"levelo_inurba_marseille","lat":43.28418,"lon":5.34973,"is_reserved":false,"is_disabled":false,"rental_uris":{"android":"levelo://app?vid=ac807688-4835-49fb-a71d-b04961f2920f","ios":"levelo://app?vid=ac807688-4835-49fb-a71d-b04961f2920f"},"vehicle_type_id":"4","last_reported":1739621688,"current_range_meters":20800,"station_id":"ce4bhbh2rcd13ifvqepg","pricing_plan_id":"cebpf4jnsgd1na2vs0mg"},{"bike_id":"6a2d576f-4ebc-4a3a-bce5-3002618cd9cf","system_id":"levelo_inurba_marseille","lat":43.29842,"lon":5.36266,"is_reserved":false,"is_disabled":false,"rental_uris":{"android":"levelo://app?vid=6a2d576f-4ebc-4a3a-bce5-3002618cd9cf","ios":"levelo://app?vid=6a2d576f-4ebc-4a3a-bce5-3002618cd9cf"},"vehicle_type_id":"4","last_reported":1739621688,"current_range_meters":30800,"station_id":"ce4bgpp2rcd13ifvqc3g","pricing_plan_id":"cebpf4jnsgd1na2vs0mg"},{"bike_id":"bb2e68c2-c04a-4a31-9ee5-efbb295ad5f2","system_id":"levelo_inurba_marseille","lat":43.30226,"lon":5.40013,"is_reserved":false,"is_disabled":false,"rental_uris":{"android":"levelo://app?vid=bb2e68c2-c04a-4a31-9ee5-efbb295ad5f2","ios":"levelo://app?vid=bb2e68c2-c04a-4a31-9ee5-efbb295ad5f2"},"vehicle_type_id":"4","last_reported":1739621688,"current_range_meters":16800,"station_id":"","pricing_plan_id":"cebpf4jnsgd1na2vs0mg"},{"bike_id":"f13d0d1e-5699-41ac-ae2f-a22220107e44","system_id":"levelo_inurba_marseille","lat":43.28845,"lon":5.39271,"is_reserved":false,"is_disabled":false,"rental_uris":{"android":"levelo://app?vid=f13d0d1e-5699-41ac-ae2f-a22220107e44","ios":"levelo://app?vid=f13d0d1e-5699-41ac-ae2f-a22220107e44"},"vehicle_type_id":"4","last_reported":1739621688,"current_range_meters":4000,"station_id":"ce4bh3h2rcd13ifvqdn0","pricing_plan_id":"cebpf4jnsgd1na2vs0mg"},{"bike_id":"fb8a6337-1866-4237-9fd6-1bf63d54ae5c","system_id":"levelo_inurba_marseille","lat":43.30141,"lon":5.38782,"is_reserved":false,"is_disabled":true,"rental_uris":{"android":"levelo://app?vid=fb8a6337-1866-4237-9fd6-1bf63d54ae5c","ios":"levelo://app?vid=fb8a6337-1866-4237-9fd6-1bf63d54ae5c"},"vehicle_type_id":"4","last_reported":1739621688,"current_range_meters":37600,"station_id":"ce4bghh2rcd13ifvqb60","pricing_plan_id":"cebpf4jnsgd1na2vs0mg"},{"bike_id":"0d798fe6-a78c-4e7c-9f5c-031ea29f972c","system_id":"levelo_inurba_marseille","lat":43.26202,"lon":5.37933,"is_reserved":false,"is_disabled":false,"rental_uris":{"android":"levelo://app?vid=0d798fe6-a78c-4e7c-9f5c-031ea29f972c","ios":"levelo://app?vid=0d798fe6-a78c-4e7c-9f5c-031ea29f972c"},"vehicle_type_id":"4","last_reported":1739621688,"current_range_meters":39200,"station_id":"ce4bhjp2rcd13ifvqg90","pricing_plan_id":"cebpf4jnsgd1na2vs0mg"},{"bike_id":"aeeb603c-9e21-471f-a3b4-471a46d5c228","system_id":"levelo_inurba_marseille","lat":43.24167,"lon":5.36411,"is_reserved":false,"is_disabled":false,"rental_uris":{"android":"levelo://app?vid=aeeb603c-9e21-471f-a3b4-471a46d5c228","ios":"levelo://app?vid=aeeb603c-9e21-471f-a3b4-471a46d5c228"},"vehicle_type_id":"4","last_reported":1739621688,"current_range_meters":17200,"station_id":"cpo36qri1sfpv3e86is0","pricing_plan_id":"cebpf4jnsgd1na2vs0mg"},{"bike_id":"1d4165b9-e8af-42e7-8e88-54a0f84b4f26","system_id":"levelo_inurba_marseille","lat":43.23189,"lon":5.39988,"is_reserved":false,"is_disabled":false,"rental_uris":{"android":"levelo://app?vid=1d4165b9-e8af-42e7-8e88-54a0f84b4f26","ios":"levelo://app?vid=1d4165b9-e8af-42e7-8e88-54a0f84b4f26"},"vehicle_type_id":"4","last_reported":1739621688,"current_range_meters":25600,"station_id":"ce4bhn12rcd13ifvqgqg","pricing_plan_id":"cebpf4jnsgd1na2vs0mg"},{"bike_id":"c1e76274-801b-4893-b793-e635178d8b86","system_id":"levelo_inurba_marseille","lat":43.2396,"lon":5.36635,"is_reserved":false,"is_disabled":false,"rental_uris":{"android":"levelo://app?vid=c1e76274-801b-4893-b793-e635178d8b86","ios":"levelo://app?vid=c1e76274-801b-4893-b793-e635178d8b86"},"vehicle_type_id":"4","last_reported":1739621688,"current_range_meters":38000,"station_id":"ce4bhi12rcd13ifvqfp0","pricing_plan_id":"cebpf4jnsgd1na2vs0mg"},{"bike_id":"af1c93b6-01b9-4955-8ba8-945dcd85101e","system_id":"levelo_inurba_marseille","lat":43.30292,"lon":5.37698,"is_reserved":false,"is_disabled":false,"rental_uris":{"android":"levelo://app?vid=af1c93b6-01b9-4955-8ba8-945dcd85101e","ios":"levelo://app?vid=af1c93b6-01b9-4955-8ba8-945dcd85101e"},"vehicle_type_id":"4","last_reported":1739621688,"current_range_meters":39200,"station_id":"ce4bguh2rcd13ifvqcj0","pricing_plan_id":"cebpf4jnsgd1na2vs0mg"},{"bike_id":"27a6901f-c571-4183-a230-5d080776dec8","system_id":"levelo_inurba_marseille","lat":43.2972,"lon":5.37689,"is_reserved":false,"is_disabled":false,"rental_uris":{"android":"levelo://app?vid=27a6901f-c571-4183-a230-5d080776dec8","ios":"levelo://app?vid=27a6901f-c571-4183-a230-5d080776dec8"},"vehicle_type_id":"4","last_reported":1739621688,"current_range_meters":24000,"station_id":"ce4bgkh2rcd13ifvqbl0","pricing_plan_id":"cebpf4jnsgd1na2vs0mg"},{"bike_id":"cefb3533-cae4-4c4e-88f0-3fef707463aa","system_id":"levelo_inurba_marseille","lat":43.30526,"lon":5.36511,"is_reserved":false,"is_disabled":false,"rental_uris":{"android":"levelo://app?vid=cefb3533-cae4-4c4e-88f0-3fef707463aa","ios":"levelo://app?vid=cefb3533-cae4-4c4e-88f0-3fef707463aa"},"vehicle_type_id":"4","last_reported":1739621688,"current_range_meters":20800,"station_id":"","pricing_plan_id":"cebpf4jnsgd1na2vs0mg"},{"bike_id":"484527d8-0820-40f5-8186-1686fa6584d4","system_id":"levelo_inurba_marseille","lat":43.28269,"lon":5.35058,"is_reserved":false,"is_disabled":false,"rental_uris":{"android":"levelo://app?vid=484527d8-0820-40f5-8186-1686fa6584d4","ios":"levelo://app?vid=484527d8-0820-40f5-8186-1686fa6584d4"},"vehicle_type_id":"4","last_reported":1739621688,"current_range_meters":39200,"station_id":"ce4bhbp2rcd13ifvqerg","pricing_plan_id":"cebpf4jnsgd1na2vs0mg"},{"bike_id":"c74f8124-73dc-4bd8-a98e-9fa42c510bc4","system_id":"levelo_inurba_marseille","lat":43.23192,"lon":5.39981,"is_reserved":false,"is_disabled":false,"rental_uris":{"android":"levelo://app?vid=c74f8124-73dc-4bd8-a98e-9fa42c510bc4","ios":"levelo://app?vid=c74f8124-73dc-4bd8-a98e-9fa42c510bc4"},"vehicle_type_id":"4","last_reported":1739621688,"current_range_meters":25200,"station_id":"ce4bhn12rcd13ifvqgqg","pricing_plan_id":"cebpf4jnsgd1na2vs0mg"},{"bike_id":"7d9b28ba-5209-44cc-a9cf-049dfabdb593","system_id":"levelo_inurba_marseille","lat":43.29919,"lon":5.37462,"is_reserved":false,"is_disabled":false,"rental_uris":{"android":"levelo://app?vid=7d9b28ba-5209-44cc-a9cf-049dfabdb593","ios":"levelo://app?vid=7d9b28ba-5209-44cc-a9cf-049dfabdb593"},"vehicle_type_id":"4","last_reported":1739621688,"current_range_meters":38000,"station_id":"ce4bgjh2rcd13ifvqbg0","pricing_plan_id":"cebpf4jnsgd1na2vs0mg"},{"bike_id":"eace11fc-366d-49db-ab9f-2f957d528477","system_id":"levelo_inurba_marseille","lat":43.25498,"lon":5.37656,"is_reserved":false,"is_disabled":false,"rental_uris":{"android":"levelo://app?vid=eace11fc-366d-49db-ab9f-2f957d528477","ios":"levelo://app?vid=eace11fc-366d-49db-ab9f-2f957d528477"},"vehicle_type_id":"4","last_reported":1739621688,"current_range_meters":39200,"station_id":"ce4bhh12rcd13ifvqff0","pricing_plan_id":"cebpf4jnsgd1na2vs0mg"},{"bike_id":"c7322498-81a4-46c8-b4c9-ec796bfac1e6","system_id":"levelo_inurba_marseille","lat":43.24157,"lon":5.36412,"is_reserved":false,"is_disabled":false,"rental_uris":{"android":"levelo://app?vid=c7322498-81a4-46c8-b4c9-ec796bfac1e6","ios":"levelo://app?vid=c7322498-81a4-46c8-b4c9-ec796bfac1e6"},"vehicle_type_id":"4","last_reported":1739621688,"current_range_meters":38800,"station_id":"cpo36qri1sfpv3e86is0","pricing_plan_id":"cebpf4jnsgd1na2vs0mg"},{"bike_id":"5d2484e8-d08f-4bba-ae77-36cb31e97e9b","system_id":"levelo_inurba_marseille","lat":43.29549,"lon":5.42267,"is_reserved":false,"is_disabled":false,"rental_uris":{"android":"levelo://app?vid=5d2484e8-d08f-4bba-ae77-36cb31e97e9b","ios":"levelo://app?vid=5d2484e8-d08f-4bba-ae77-36cb31e97e9b"},"vehicle_type_id":"4","last_reported":1739621688,"current_range_meters":39200,"station_id":"ce4bhph2rcd13ifvqhdg","pricing_plan_id":"cebpf4jnsgd1na2vs0mg"},{"bike_id":"6b42f4f1-2360-420a-81a5-fa8f868ac30d","system_id":"levelo_inurba_marseille","lat":43.27165,"lon":5.39018,"is_reserved":false,"is_disabled":false,"rental_uris":{"android":"levelo://app?vid=6b42f4f1-2360-420a-81a5-fa8f868ac30d","ios":"levelo://app?vid=6b42f4f1-2360-420a-81a5-fa8f868ac30d"},"vehicle_type_id":"4","last_reported":1739621688,"current_range_meters":33200,"station_id":"","pricing_plan_id":"cebpf4jnsgd1na2vs0mg"},{"bike_id":"782b87f5-4195-46ee-9455-084f74af58f0","system_id":"levelo_inurba_marseille","lat":43.27326,"lon":5.39119,"is_reserved":false,"is_disabled":false,"rental_uris":{"android":"levelo://app?vid=782b87f5-4195-46ee-9455-084f74af58f0","ios":"levelo://app?vid=782b87f5-4195-46ee-9455-084f74af58f0"},"vehicle_type_id":"4","last_reported":1739621688,"current_range_meters":39200,"station_id":"ce4bhgp2rcd13ifvqfe0","pricing_plan_id":"cebpf4jnsgd1na2vs0mg"},{"bike_id":"3c65401e-b701-4310-9227-bb4163f16dd4","system_id":"levelo_inurba_marseille","lat":43.29575,"lon":5.37483,"is_reserved":false,"is_disabled":false,"rental_uris":{"android":"levelo://app?vid=3c65401e-b701-4310-9227-bb4163f16dd4","ios":"levelo://app?vid=3c65401e-b701-4310-9227-bb4163f16dd4"},"vehicle_type_id":"4","last_reported":1739621688,"current_range_meters":38800,"station_id":"ce4bgh92rcd13ifvqb50","pricing_plan_id":"cebpf4jnsgd1na2vs0mg"},{"bike_id":"8e8d2fa1-629d-454a-8b3e-3ec8f6e6702b","system_id":"levelo_inurba_marseille","lat":43.30538,"lon":5.36543,"is_reserved":false,"is_disabled":false,"rental_uris":{"android":"levelo://app?vid=8e8d2fa1-629d-454a-8b3e-3ec8f6e6702b","ios":"levelo://app?vid=8e8d2fa1-629d-454a-8b3e-3ec8f6e6702b"},"vehicle_type_id":"4","last_reported":1739621688,"current_range_meters":32400,"station_id":"ce4bgs12rcd13ifvqcag","pricing_plan_id":"cebpf4jnsgd1na2vs0mg"},{"bike_id":"b34c6303-752a-46a1-93ad-ddbc991e20b6","system_id":"levelo_inurba_marseille","lat":43.2306,"lon":5.35495,"is_reserved":false,"is_disabled":false,"rental_uris":{"android":"levelo://app?vid=b34c6303-752a-46a1-93ad-ddbc991e20b6","ios":"levelo://app?vid=b34c6303-752a-46a1-93ad-ddbc991e20b6"},"vehicle_type_id":"4","last_reported":1739621688,"current_range_meters":37600,"station_id":"cpo3342slgdg3j2ifvpg","pricing_plan_id":"cebpf4jnsgd1na2vs0mg"},{"bike_id":"d814ee26-050b-424e-b737-d3f6d8a14099","system_id":"levelo_inurba_marseille","lat":43.292519,"lon":5.384373,"is_reserved":false,"is_disabled":true,"rental_uris":{"android":"levelo://app?vid=d814ee26-050b-424e-b737-d3f6d8a14099","ios":"levelo://app?vid=d814ee26-050b-424e-b737-d3f6d8a14099"},"vehicle_type_id":"4","last_reported":1739621688,"current_range_meters":27200,"station_id":"ce4bh692rcd13ifvqea0","pricing_plan_id":"cebpf4jnsgd1na2vs0mg"},{"bike_id":"78d173ae-b715-496b-84c7-0dad149a44f3","system_id":"levelo_inurba_marseille","lat":43.29249,"lon":5.40917,"is_reserved":false,"is_disabled":false,"rental_uris":{"android":"levelo://app?vid=78d173ae-b715-496b-84c7-0dad149a44f3","ios":"levelo://app?vid=78d173ae-b715-496b-84c7-0dad149a44f3"},"vehicle_type_id":"4","last_reported":1739621688,"current_range_meters":38800,"station_id":"ce4bh192rcd13ifvqdc0","pricing_plan_id":"cebpf4jnsgd1na2vs0mg"},{"bike_id":"7fb57a20-9ded-4ac0-a023-add70f4c6d00","system_id":"levelo_inurba_marseille","lat":43.29589,"lon":5.39969,"is_reserved":false,"is_disabled":false,"rental_uris":{"android":"levelo://app?vid=7fb57a20-9ded-4ac0-a023-add70f4c6d00","ios":"levelo://app?vid=7fb57a20-9ded-4ac0-a023-add70f4c6d00"},"vehicle_type_id":"4","last_reported":1739621688,"current_range_meters":36800,"station_id":"ce4bh312rcd13ifvqdj0","pricing_plan_id":"cebpf4jnsgd1na2vs0mg"},{"bike_id":"1300f95a-15ad-4299-a221-177495e93e42","system_id":"levelo_inurba_marseille","lat":43.32634,"lon":5.40912,"is_reserved":false,"is_disabled":false,"rental_uris":{"android":"levelo://app?vid=1300f95a-15ad-4299-a221-177495e93e42","ios":"levelo://app?vid=1300f95a-15ad-4299-a221-177495e93e42"},"vehicle_type_id":"4","last_reported":1739621688,"current_range_meters":22800,"station_id":"","pricing_plan_id":"cebpf4jnsgd1na2vs0mg"},{"bike_id":"255fd5c2-9340-4c1b-b742-6c450e9fc85b","system_id":"levelo_inurba_marseille","lat":43.29942,"lon":5.36563,"is_reserved":false,"is_disabled":false,"rental_uris":{"android":"levelo://app?vid=255fd5c2-9340-4c1b-b742-6c450e9fc85b","ios":"levelo://app?vid=255fd5c2-9340-4c1b-b742-6c450e9fc85b"},"vehicle_type_id":"4","last_reported":1739621688,"current_range_meters":36000,"station_id":"ce4bgm92rcd13ifvqbr0","pricing_plan_id":"cebpf4jnsgd1na2vs0mg"},{"bike_id":"9c307a21-e3c3-49d6-9207-fb7a858dd48d","system_id":"levelo_inurba_marseille","lat":43.30538,"lon":5.3842,"is_reserved":false,"is_disabled":false,"rental_uris":{"android":"levelo://app?vid=9c307a21-e3c3-49d6-9207-fb7a858dd48d","ios":"levelo://app?vid=9c307a21-e3c3-49d6-9207-fb7a858dd48d"},"vehicle_type_id":"4","last_reported":1739621688,"current_range_meters":9200,"station_id":"ce4bgg92rcd13ifvqb30","pricing_plan_id":"cebpf4jnsgd1na2vs0mg"},{"bike_id":"63d1a1a6-4ec1-406e-9020-1477db8b9d26","system_id":"levelo_inurba_marseille","lat":43.26062,"lon":5.39399,"is_reserved":false,"is_disabled":false,"rental_uris":{"android":"levelo://app?vid=63d1a1a6-4ec1-406e-9020-1477db8b9d26","ios":"levelo://app?vid=63d1a1a6-4ec1-406e-9020-1477db8b9d26"},"vehicle_type_id":"4","last_reported":1739621688,"current_range_meters":8000,"station_id":"ce4bhh92rcd13ifvqfj0","pricing_plan_id":"cebpf4jnsgd1na2vs0mg"},{"bike_id":"9fb89869-9066-4291-960a-a8d803492e61","system_id":"levelo_inurba_marseille","lat":43.28837,"lon":5.35877,"is_reserved":false,"is_disabled":false,"rental_uris":{"android":"levelo://app?vid=9fb89869-9066-4291-960a-a8d803492e61","ios":"levelo://app?vid=9fb89869-9066-4291-960a-a8d803492e61"},"vehicle_type_id":"4","last_reported":1739621688,"current_range_meters":3200,"station_id":"ce4bhb12rcd13ifvqem0","pricing_plan_id":"cebpf4jnsgd1na2vs0mg"},{"bike_id":"27feb435-c99b-4f80-867b-2866d50d7db7","system_id":"levelo_inurba_marseille","lat":43.23054,"lon":5.35437,"is_reserved":false,"is_disabled":false,"rental_uris":{"android":"levelo://app?vid=27feb435-c99b-4f80-867b-2866d50d7db7","ios":"levelo://app?vid=27feb435-c99b-4f80-867b-2866d50d7db7"},"vehicle_type_id":"4","last_reported":1739621688,"current_range_meters":20400,"station_id":"cpo3342slgdg3j2ifvpg","pricing_plan_id":"cebpf4jnsgd1na2vs0mg"},{"bike_id":"c77cdcc9-051f-4fe4-9a43-8a97947b4e7f","system_id":"levelo_inurba_marseille","lat":43.23195,"lon":5.35553,"is_reserved":false,"is_disabled":false,"rental_uris":{"android":"levelo://app?vid=c77cdcc9-051f-4fe4-9a43-8a97947b4e7f","ios":"levelo://app?vid=c77cdcc9-051f-4fe4-9a43-8a97947b4e7f"},"vehicle_type_id":"4","last_reported":1739621688,"current_range_meters":32400,"station_id":"ce4bhu92rcd13ifvqi70","pricing_plan_id":"cebpf4jnsgd1na2vs0mg"},{"bike_id":"4d67b37f-320c-4db3-adde-9b8ba8246e45","system_id":"levelo_inurba_marseille","lat":43.29439,"lon":5.39761,"is_reserved":false,"is_disabled":false,"rental_uris":{"android":"levelo://app?vid=4d67b37f-320c-4db3-adde-9b8ba8246e45","ios":"levelo://app?vid=4d67b37f-320c-4db3-adde-9b8ba8246e45"},"vehicle_type_id":"4","last_reported":1739621688,"current_range_meters":26000,"station_id":"ce4bh3h2rcd13ifvqdo0","pricing_plan_id":"cebpf4jnsgd1na2vs0mg"},{"bike_id":"5ac1b3e9-6624-4bab-a598-45ab544a1b2f","system_id":"levelo_inurba_marseille","lat":43.26687,"lon":5.38327,"is_reserved":false,"is_disabled":false,"rental_uris":{"android":"levelo://app?vid=5ac1b3e9-6624-4bab-a598-45ab544a1b2f","ios":"levelo://app?vid=5ac1b3e9-6624-4bab-a598-45ab544a1b2f"},"vehicle_type_id":"4","last_reported":1739621688,"current_range_meters":8400,"station_id":"ce4bhg92rcd13ifvqf90","pricing_plan_id":"cebpf4jnsgd1na2vs0mg"},{"bike_id":"929dec46-a283-4540-a646-36398c5ae9d9","system_id":"levelo_inurba_marseille","lat":43.28608,"lon":5.37066,"is_reserved":false,"is_disabled":false,"rental_uris":{"android":"levelo://app?vid=929dec46-a283-4540-a646-36398c5ae9d9","ios":"levelo://app?vid=929dec46-a283-4540-a646-36398c5ae9d9"},"vehicle_type_id":"4","last_reported":1739621688,"current_range_meters":30400,"station_id":"ce4bht12rcd13ifvqi60","pricing_plan_id":"cebpf4jnsgd1na2vs0mg"},{"bike_id":"76564f9c-b768-43c9-9d19-35975b91936d","system_id":"levelo_inurba_marseille","lat":43.32044,"lon":5.37705,"is_reserved":false,"is_disabled":false,"rental_uris":{"android":"levelo://app?vid=76564f9c-b768-43c9-9d19-35975b91936d","ios":"levelo://app?vid=76564f9c-b768-43c9-9d19-35975b91936d"},"vehicle_type_id":"4","last_reported":1739621688,"current_range_meters":30000,"station_id":"","pricing_plan_id":"cebpf4jnsgd1na2vs0mg"},{"bike_id":"1f0657bb-7196-41de-84fc-c834bbf90b28","system_id":"levelo_inurba_marseille","lat":43.28072,"lon":5.396608,"is_reserved":false,"is_disabled":true,"rental_uris":{"android":"levelo://app?vid=1f0657bb-7196-41de-84fc-c834bbf90b28","ios":"levelo://app?vid=1f0657bb-7196-41de-84fc-c834bbf90b28"},"vehicle_type_id":"4","last_reported":1739621688,"current_range_meters":36400,"station_id":"ce4bho12rcd13ifvqh2g","pricing_plan_id":"cebpf4jnsgd1na2vs0mg"},{"bike_id":"4085957e-a34f-48ec-8023-d0e7a9e56b71","system_id":"levelo_inurba_marseille","lat":43.2306,"lon":5.35497,"is_reserved":false,"is_disabled":false,"rental_uris":{"android":"levelo://app?vid=4085957e-a34f-48ec-8023-d0e7a9e56b71","ios":"levelo://app?vid=4085957e-a34f-48ec-8023-d0e7a9e56b71"},"vehicle_type_id":"4","last_reported":1739621688,"current_range_meters":38800,"station_id":"cpo3342slgdg3j2ifvpg","pricing_plan_id":"cebpf4jnsgd1na2vs0mg"},{"bike_id":"1eaaa93a-5c29-40ae-a6a7-dc10bd39dcd0","system_id":"levelo_inurba_marseille","lat":43.27562,"lon":5.3843,"is_reserved":false,"is_disabled":false,"rental_uris":{"android":"levelo://app?vid=1eaaa93a-5c29-40ae-a6a7-dc10bd39dcd0","ios":"levelo://app?vid=1eaaa93a-5c29-40ae-a6a7-dc10bd39dcd0"},"vehicle_type_id":"4","last_reported":1739621688,"current_range_meters":38800,"station_id":"ce4bhh92rcd13ifvqfi0","pricing_plan_id":"cebpf4jnsgd1na2vs0mg"},{"bike_id":"2bbacb00-a4a6-4d2b-8e30-019e86ef352e","system_id":"levelo_inurba_marseille","lat":43.27946,"lon":5.41048,"is_reserved":false,"is_disabled":false,"rental_uris":{"android":"levelo://app?vid=2bbacb00-a4a6-4d2b-8e30-019e86ef352e","ios":"levelo://app?vid=2bbacb00-a4a6-4d2b-8e30-019e86ef352e"},"vehicle_type_id":"4","last_reported":1739621688,"current_range_meters":14400,"station_id":"ce4bhnp2rcd13ifvqh0g","pricing_plan_id":"cebpf4jnsgd1na2vs0mg"},{"bike_id":"62f74766-31bc-4de9-affc-de7ef7c2d2d2","system_id":"levelo_inurba_marseille","lat":43.30216,"lon":5.39479,"is_reserved":false,"is_disabled":false,"rental_uris":{"android":"levelo://app?vid=62f74766-31bc-4de9-affc-de7ef7c2d2d2","ios":"levelo://app?vid=62f74766-31bc-4de9-affc-de7ef7c2d2d2"},"vehicle_type_id":"4","last_reported":1739621688,"current_range_meters":12000,"station_id":"ce4bh0p2rcd13ifvqd70","pricing_plan_id":"cebpf4jnsgd1na2vs0mg"},{"bike_id":"2e4b5732-e038-4613-a767-0f7b20df89d5","system_id":"levelo_inurba_marseille","lat":43.27208,"lon":5.39193,"is_reserved":false,"is_disabled":false,"rental_uris":{"android":"levelo://app?vid=2e4b5732-e038-4613-a767-0f7b20df89d5","ios":"levelo://app?vid=2e4b5732-e038-4613-a767-0f7b20df89d5"},"vehicle_type_id":"4","last_reported":1739621688,"current_range_meters":38400,"station_id":"ce4bhhp2rcd13ifvqfm0","pricing_plan_id":"cebpf4jnsgd1na2vs0mg"},{"bike_id":"e0ac3828-c26c-4b02-8a79-aff116cdccd8","system_id":"levelo_inurba_marseille","lat":43.29523,"lon":5.37502,"is_reserved":false,"is_disabled":false,"rental_uris":{"android":"levelo://app?vid=e0ac3828-c26c-4b02-8a79-aff116cdccd8","ios":"levelo://app?vid=e0ac3828-c26c-4b02-8a79-aff116cdccd8"},"vehicle_type_id":"4","last_reported":1739621688,"current_range_meters":30800,"station_id":"ce4bgkp2rcd13ifvqbmg","pricing_plan_id":"cebpf4jnsgd1na2vs0mg"},{"bike_id":"f92e748a-9f9b-4e54-8084-07e33515f3d5","system_id":"levelo_inurba_marseille","lat":43.27072,"lon":5.39325,"is_reserved":false,"is_disabled":true,"rental_uris":{"android":"levelo://app?vid=f92e748a-9f9b-4e54-8084-07e33515f3d5","ios":"levelo://app?vid=f92e748a-9f9b-4e54-8084-07e33515f3d5"},"vehicle_type_id":"4","last_reported":1739621688,"current_range_meters":0,"station_id":"","pricing_plan_id":"cebpf4jnsgd1na2vs0mg"},{"bike_id":"4c48ccd1-074f-46e4-8343-a0ffa2d945cf","system_id":"levelo_inurba_marseille","lat":43.28704,"lon":5.3738,"is_reserved":false,"is_disabled":false,"rental_uris":{"android":"levelo://app?vid=4c48ccd1-074f-46e4-8343-a0ffa2d945cf","ios":"levelo://app?vid=4c48ccd1-074f-46e4-8343-a0ffa2d945cf"},"vehicle_type_id":"4","last_reported":1739621688,"current_range_meters":19200,"station_id":"ce4bh3p2rcd13ifvqdq0","pricing_plan_id":"cebpf4jnsgd1na2vs0mg"},{"bike_id":"e37cd727-54ed-4ebd-b616-8e4019f8eb2c","system_id":"levelo_inurba_marseille","lat":43.25107,"lon":5.40318,"is_reserved":false,"is_disabled":false,"rental_uris":{"android":"levelo://app?vid=e37cd727-54ed-4ebd-b616-8e4019f8eb2c","ios":"levelo://app?vid=e37cd727-54ed-4ebd-b616-8e4019f8eb2c"},"vehicle_type_id":"4","last_reported":1739621688,"current_range_meters":38800,"station_id":"ce4bhlh2rcd13ifvqgig","pricing_plan_id":"cebpf4jnsgd1na2vs0mg"},{"bike_id":"5983c051-1c5e-4217-9dd2-c65801e2f37a","system_id":"levelo_inurba_marseille","lat":43.27061,"lon":5.40264,"is_reserved":false,"is_disabled":false,"rental_uris":{"android":"levelo://app?vid=5983c051-1c5e-4217-9dd2-c65801e2f37a","ios":"levelo://app?vid=5983c051-1c5e-4217-9dd2-c65801e2f37a"},"vehicle_type_id":"4","last_reported":1739621688,"current_range_meters":17600,"station_id":"ce4bhk92rcd13ifvqgc0","pricing_plan_id":"cebpf4jnsgd1na2vs0mg"},{"bike_id":"d00a1a71-e96d-4a7d-b52c-f49623be2966","system_id":"levelo_inurba_marseille","lat":43.29904,"lon":5.38143,"is_reserved":false,"is_disabled":false,"rental_uris":{"android":"levelo://app?vid=d00a1a71-e96d-4a7d-b52c-f49623be2966","ios":"levelo://app?vid=d00a1a71-e96d-4a7d-b52c-f49623be2966"},"vehicle_type_id":"4","last_reported":1739621688,"current_range_meters":32800,"station_id":"ce4bgj12rcd13ifvqbc0","pricing_plan_id":"cebpf4jnsgd1na2vs0mg"},{"bike_id":"cd73739e-6850-4923-81be-52053efe4bcd","system_id":"levelo_inurba_marseille","lat":43.28611,"lon":5.35111,"is_reserved":false,"is_disabled":false,"rental_uris":{"android":"levelo://app?vid=cd73739e-6850-4923-81be-52053efe4bcd","ios":"levelo://app?vid=cd73739e-6850-4923-81be-52053efe4bcd"},"vehicle_type_id":"4","last_reported":1739621688,"current_range_meters":26800,"station_id":"ce4bhch2rcd13ifvqeug","pricing_plan_id":"cebpf4jnsgd1na2vs0mg"},{"bike_id":"9cf8e6d9-67b8-441b-8ab4-08ef8560d2b0","system_id":"levelo_inurba_marseille","lat":43.33514,"lon":5.35585,"is_reserved":false,"is_disabled":true,"rental_uris":{"android":"levelo://app?vid=9cf8e6d9-67b8-441b-8ab4-08ef8560d2b0","ios":"levelo://app?vid=9cf8e6d9-67b8-441b-8ab4-08ef8560d2b0"},"vehicle_type_id":"4","last_reported":1739621688,"current_range_meters":0,"station_id":"","pricing_plan_id":"cebpf4jnsgd1na2vs0mg"},{"bike_id":"3fac2f38-ac1e-4a5e-8b40-986ce6476d40","system_id":"levelo_inurba_marseille","lat":43.29787,"lon":5.37102,"is_reserved":false,"is_disabled":false,"rental_uris":{"android":"levelo://app?vid=3fac2f38-ac1e-4a5e-8b40-986ce6476d40","ios":"levelo://app?vid=3fac2f38-ac1e-4a5e-8b40-986ce6476d40"},"vehicle_type_id":"4","last_reported":1739621688,"current_range_meters":36000,"station_id":"ce4bgop2rcd13ifvqc1g","pricing_plan_id":"cebpf4jnsgd1na2vs0mg"},{"bike_id":"8faf12d7-d491-4b7a-966e-134b7a0502a5","system_id":"levelo_inurba_marseille","lat":43.24389,"lon":5.37064,"is_reserved":false,"is_disabled":false,"rental_uris":{"android":"levelo://app?vid=8faf12d7-d491-4b7a-966e-134b7a0502a5","ios":"levelo://app?vid=8faf12d7-d491-4b7a-966e-134b7a0502a5"},"vehicle_type_id":"4","last_reported":1739621688,"current_range_meters":11600,"station_id":"ce4bhhh2rcd13ifvqfk0","pricing_plan_id":"cebpf4jnsgd1na2vs0mg"},{"bike_id":"811b63d6-9c3c-4b06-849e-3b400f65e795","system_id":"levelo_inurba_marseille","lat":43.24632,"lon":5.38911,"is_reserved":false,"is_disabled":false,"rental_uris":{"android":"levelo://app?vid=811b63d6-9c3c-4b06-849e-3b400f65e795","ios":"levelo://app?vid=811b63d6-9c3c-4b06-849e-3b400f65e795"},"vehicle_type_id":"4","last_reported":1739621688,"current_range_meters":10000,"station_id":"ce4bhg12rcd13ifvqf60","pricing_plan_id":"cebpf4jnsgd1na2vs0mg"},{"bike_id":"198ec281-0915-4012-89b5-c3e8318a1a5a","system_id":"levelo_inurba_marseille","lat":43.295752,"lon":5.375262,"is_reserved":false,"is_disabled":false,"rental_uris":{"android":"levelo://app?vid=198ec281-0915-4012-89b5-c3e8318a1a5a","ios":"levelo://app?vid=198ec281-0915-4012-89b5-c3e8318a1a5a"},"vehicle_type_id":"4","last_reported":1739621688,"current_range_meters":28400,"station_id":"ce4bgh92rcd13ifvqb50","pricing_plan_id":"cebpf4jnsgd1na2vs0mg"},{"bike_id":"be9f3d93-6f26-425f-8b47-54b5e242f5cd","system_id":"levelo_inurba_marseille","lat":43.30432,"lon":5.39738,"is_reserved":false,"is_disabled":false,"rental_uris":{"android":"levelo://app?vid=be9f3d93-6f26-425f-8b47-54b5e242f5cd","ios":"levelo://app?vid=be9f3d93-6f26-425f-8b47-54b5e242f5cd"},"vehicle_type_id":"4","last_reported":1739621688,"current_range_meters":38800,"station_id":"ce4bh092rcd13ifvqd20","pricing_plan_id":"cebpf4jnsgd1na2vs0mg"},{"bike_id":"4474ca2c-c6a7-405a-8287-9569b438a909","system_id":"levelo_inurba_marseille","lat":43.27824,"lon":5.40725,"is_reserved":false,"is_disabled":false,"rental_uris":{"android":"levelo://app?vid=4474ca2c-c6a7-405a-8287-9569b438a909","ios":"levelo://app?vid=4474ca2c-c6a7-405a-8287-9569b438a909"},"vehicle_type_id":"4","last_reported":1739621688,"current_range_meters":24800,"station_id":"ce4bhnh2rcd13ifvqgtg","pricing_plan_id":"cebpf4jnsgd1na2vs0mg"},{"bike_id":"51ab7186-5043-4bed-baca-73708608a302","system_id":"levelo_inurba_marseille","lat":43.29584,"lon":5.37026,"is_reserved":false,"is_disabled":true,"rental_uris":{"android":"levelo://app?vid=51ab7186-5043-4bed-baca-73708608a302","ios":"levelo://app?vid=51ab7186-5043-4bed-baca-73708608a302"},"vehicle_type_id":"4","last_reported":1739621688,"current_range_meters":0,"station_id":"","pricing_plan_id":"cebpf4jnsgd1na2vs0mg"},{"bike_id":"f5711f88-ce1b-4dc3-8afb-b4980d137121","system_id":"levelo_inurba_marseille","lat":43.29503,"lon":5.37492,"is_reserved":false,"is_disabled":false,"rental_uris":{"android":"levelo://app?vid=f5711f88-ce1b-4dc3-8afb-b4980d137121","ios":"levelo://app?vid=f5711f88-ce1b-4dc3-8afb-b4980d137121"},"vehicle_type_id":"4","last_reported":1739621688,"current_range_meters":26800,"station_id":"ce4bgkp2rcd13ifvqbmg","pricing_plan_id":"cebpf4jnsgd1na2vs0mg"},{"bike_id":"a36708b8-75f7-4958-b0f7-b6b6c34a7395","system_id":"levelo_inurba_marseille","lat":43.23961,"lon":5.3663,"is_reserved":false,"is_disabled":false,"rental_uris":{"android":"levelo://app?vid=a36708b8-75f7-4958-b0f7-b6b6c34a7395","ios":"levelo://app?vid=a36708b8-75f7-4958-b0f7-b6b6c34a7395"},"vehicle_type_id":"4","last_reported":1739621688,"current_range_meters":14400,"station_id":"ce4bhi12rcd13ifvqfp0","pricing_plan_id":"cebpf4jnsgd1na2vs0mg"},{"bike_id":"7917314d-8c06-4629-b9de-b3e419a0622a","system_id":"levelo_inurba_marseille","lat":43.23065,"lon":5.355,"is_reserved":false,"is_disabled":false,"rental_uris":{"android":"levelo://app?vid=7917314d-8c06-4629-b9de-b3e419a0622a","ios":"levelo://app?vid=7917314d-8c06-4629-b9de-b3e419a0622a"},"vehicle_type_id":"4","last_reported":1739621688,"current_range_meters":15200,"station_id":"cpo3342slgdg3j2ifvpg","pricing_plan_id":"cebpf4jnsgd1na2vs0mg"},{"bike_id":"82b3f6af-dbb5-4e2d-ace1-fcfd91c4f9b5","system_id":"levelo_inurba_marseille","lat":43.23178,"lon":5.39991,"is_reserved":false,"is_disabled":false,"rental_uris":{"android":"levelo://app?vid=82b3f6af-dbb5-4e2d-ace1-fcfd91c4f9b5","ios":"levelo://app?vid=82b3f6af-dbb5-4e2d-ace1-fcfd91c4f9b5"},"vehicle_type_id":"4","last_reported":1739621688,"current_range_meters":32800,"station_id":"ce4bhn12rcd13ifvqgqg","pricing_plan_id":"cebpf4jnsgd1na2vs0mg"},{"bike_id":"78948909-7dfc-4a5a-a38d-28bdd6cb794c","system_id":"levelo_inurba_marseille","lat":43.31694,"lon":5.40473,"is_reserved":false,"is_disabled":false,"rental_uris":{"android":"levelo://app?vid=78948909-7dfc-4a5a-a38d-28bdd6cb794c","ios":"levelo://app?vid=78948909-7dfc-4a5a-a38d-28bdd6cb794c"},"vehicle_type_id":"4","last_reported":1739621688,"current_range_meters":38400,"station_id":"ce4bh012rcd13ifvqd00","pricing_plan_id":"cebpf4jnsgd1na2vs0mg"},{"bike_id":"5fbe50a8-885b-4657-b77c-df4181249707","system_id":"levelo_inurba_marseille","lat":43.30106,"lon":5.40499,"is_reserved":false,"is_disabled":false,"rental_uris":{"android":"levelo://app?vid=5fbe50a8-885b-4657-b77c-df4181249707","ios":"levelo://app?vid=5fbe50a8-885b-4657-b77c-df4181249707"},"vehicle_type_id":"4","last_reported":1739621688,"current_range_meters":34000,"station_id":"","pricing_plan_id":"cebpf4jnsgd1na2vs0mg"},{"bike_id":"c40e2cb9-b89c-4dbd-956b-535ef79f1d37","system_id":"levelo_inurba_marseille","lat":43.24813,"lon":5.37468,"is_reserved":false,"is_disabled":false,"rental_uris":{"android":"levelo://app?vid=c40e2cb9-b89c-4dbd-956b-535ef79f1d37","ios":"levelo://app?vid=c40e2cb9-b89c-4dbd-956b-535ef79f1d37"},"vehicle_type_id":"4","last_reported":1739621688,"current_range_meters":24400,"station_id":"ce4bhgh2rcd13ifvqfb0","pricing_plan_id":"cebpf4jnsgd1na2vs0mg"},{"bike_id":"1bd31d39-639d-4151-b08a-dc61c6c95f38","system_id":"levelo_inurba_marseille","lat":43.24669,"lon":5.38896,"is_reserved":false,"is_disabled":false,"rental_uris":{"android":"levelo://app?vid=1bd31d39-639d-4151-b08a-dc61c6c95f38","ios":"levelo://app?vid=1bd31d39-639d-4151-b08a-dc61c6c95f38"},"vehicle_type_id":"4","last_reported":1739621688,"current_range_meters":25600,"station_id":"ce4bhg12rcd13ifvqf60","pricing_plan_id":"cebpf4jnsgd1na2vs0mg"},{"bike_id":"6d14ffd0-8cb0-40f3-8b6f-5b79b4098bae","system_id":"levelo_inurba_marseille","lat":43.28092,"lon":5.37865,"is_reserved":false,"is_disabled":false,"rental_uris":{"android":"levelo://app?vid=6d14ffd0-8cb0-40f3-8b6f-5b79b4098bae","ios":"levelo://app?vid=6d14ffd0-8cb0-40f3-8b6f-5b79b4098bae"},"vehicle_type_id":"4","last_reported":1739621688,"current_range_meters":32000,"station_id":"ce4bha12rcd13ifvqee0","pricing_plan_id":"cebpf4jnsgd1na2vs0mg"},{"bike_id":"acb44724-4345-4854-85c0-ea9f022059bb","system_id":"levelo_inurba_marseille","lat":43.24808,"lon":5.37459,"is_reserved":false,"is_disabled":false,"rental_uris":{"android":"levelo://app?vid=acb44724-4345-4854-85c0-ea9f022059bb","ios":"levelo://app?vid=acb44724-4345-4854-85c0-ea9f022059bb"},"vehicle_type_id":"4","last_reported":1739621688,"current_range_meters":36000,"station_id":"ce4bhgh2rcd13ifvqfb0","pricing_plan_id":"cebpf4jnsgd1na2vs0mg"},{"bike_id":"4afd05b5-41e1-4012-b907-304d88773920","system_id":"levelo_inurba_marseille","lat":43.23966,"lon":5.36645,"is_reserved":false,"is_disabled":false,"rental_uris":{"android":"levelo://app?vid=4afd05b5-41e1-4012-b907-304d88773920","ios":"levelo://app?vid=4afd05b5-41e1-4012-b907-304d88773920"},"vehicle_type_id":"4","last_reported":1739621688,"current_range_meters":38800,"station_id":"ce4bhi12rcd13ifvqfp0","pricing_plan_id":"cebpf4jnsgd1na2vs0mg"},{"bike_id":"d60cef5c-bf2d-4320-a993-52eaa1a27945","system_id":"levelo_inurba_marseille","lat":43.30623,"lon":5.39338,"is_reserved":false,"is_disabled":true,"rental_uris":{"android":"levelo://app?vid=d60cef5c-bf2d-4320-a993-52eaa1a27945","ios":"levelo://app?vid=d60cef5c-bf2d-4320-a993-52eaa1a27945"},"vehicle_type_id":"4","last_reported":1739621688,"current_range_meters":26000,"station_id":"ce4bh0p2rcd13ifvqd80","pricing_plan_id":"cebpf4jnsgd1na2vs0mg"},{"bike_id":"899e44e7-60b0-44a7-9ff3-d0219b681de2","system_id":"levelo_inurba_marseille","lat":43.28155,"lon":5.42656,"is_reserved":false,"is_disabled":false,"rental_uris":{"android":"levelo://app?vid=899e44e7-60b0-44a7-9ff3-d0219b681de2","ios":"levelo://app?vid=899e44e7-60b0-44a7-9ff3-d0219b681de2"},"vehicle_type_id":"4","last_reported":1739621688,"current_range_meters":35200,"station_id":"ce4bhnh2rcd13ifvqgug","pricing_plan_id":"cebpf4jnsgd1na2vs0mg"},{"bike_id":"c8c0516c-62b0-4cbf-88f8-60819aff6581","system_id":"levelo_inurba_marseille","lat":43.255,"lon":5.37652,"is_reserved":false,"is_disabled":false,"rental_uris":{"android":"levelo://app?vid=c8c0516c-62b0-4cbf-88f8-60819aff6581","ios":"levelo://app?vid=c8c0516c-62b0-4cbf-88f8-60819aff6581"},"vehicle_type_id":"4","last_reported":1739621688,"current_range_meters":38000,"station_id":"ce4bhh12rcd13ifvqff0","pricing_plan_id":"cebpf4jnsgd1na2vs0mg"},{"bike_id":"0c8f77b4-e2d3-4959-9595-23898a9b76cd","system_id":"levelo_inurba_marseille","lat":43.30424,"lon":5.39752,"is_reserved":false,"is_disabled":false,"rental_uris":{"android":"levelo://app?vid=0c8f77b4-e2d3-4959-9595-23898a9b76cd","ios":"levelo://app?vid=0c8f77b4-e2d3-4959-9595-23898a9b76cd"},"vehicle_type_id":"4","last_reported":1739621688,"current_range_meters":26000,"station_id":"ce4bh092rcd13ifvqd20","pricing_plan_id":"cebpf4jnsgd1na2vs0mg"},{"bike_id":"03b02bf5-5e6d-4b1c-abfe-96890ec6cf4f","system_id":"levelo_inurba_marseille","lat":43.28423,"lon":5.34978,"is_reserved":false,"is_disabled":false,"rental_uris":{"android":"levelo://app?vid=03b02bf5-5e6d-4b1c-abfe-96890ec6cf4f","ios":"levelo://app?vid=03b02bf5-5e6d-4b1c-abfe-96890ec6cf4f"},"vehicle_type_id":"4","last_reported":1739621688,"current_range_meters":8000,"station_id":"ce4bhbh2rcd13ifvqepg","pricing_plan_id":"cebpf4jnsgd1na2vs0mg"},{"bike_id":"dee3601d-ddca-408e-b8e5-fdf3429aa605","system_id":"levelo_inurba_marseille","lat":43.29007,"lon":5.35581,"is_reserved":false,"is_disabled":false,"rental_uris":{"android":"levelo://app?vid=dee3601d-ddca-408e-b8e5-fdf3429aa605","ios":"levelo://app?vid=dee3601d-ddca-408e-b8e5-fdf3429aa605"},"vehicle_type_id":"4","last_reported":1739621688,"current_range_meters":38800,"station_id":"ce4bhb92rcd13ifvqen0","pricing_plan_id":"cebpf4jnsgd1na2vs0mg"},{"bike_id":"29cf4d1a-ccab-47b7-95f1-f6a1fd28b7c1","system_id":"levelo_inurba_marseille","lat":43.30585,"lon":5.36524,"is_reserved":false,"is_disabled":false,"rental_uris":{"android":"levelo://app?vid=29cf4d1a-ccab-47b7-95f1-f6a1fd28b7c1","ios":"levelo://app?vid=29cf4d1a-ccab-47b7-95f1-f6a1fd28b7c1"},"vehicle_type_id":"4","last_reported":1739621688,"current_range_meters":36000,"station_id":"ce4bgs12rcd13ifvqcag","pricing_plan_id":"cebpf4jnsgd1na2vs0mg"},{"bike_id":"c1868f98-c702-4178-ba2d-52b537ed8d10","system_id":"levelo_inurba_marseille","lat":43.30204,"lon":5.39458,"is_reserved":false,"is_disabled":false,"rental_uris":{"android":"levelo://app?vid=c1868f98-c702-4178-ba2d-52b537ed8d10","ios":"levelo://app?vid=c1868f98-c702-4178-ba2d-52b537ed8d10"},"vehicle_type_id":"4","last_reported":1739621688,"current_range_meters":38800,"station_id":"ce4bh0p2rcd13ifvqd70","pricing_plan_id":"cebpf4jnsgd1na2vs0mg"},{"bike_id":"397f7144-3e20-4f61-9149-2720265fc375","system_id":"levelo_inurba_marseille","lat":43.24069,"lon":5.37752,"is_reserved":false,"is_disabled":false,"rental_uris":{"android":"levelo://app?vid=397f7144-3e20-4f61-9149-2720265fc375","ios":"levelo://app?vid=397f7144-3e20-4f61-9149-2720265fc375"},"vehicle_type_id":"4","last_reported":1739621688,"current_range_meters":38000,"station_id":"ce4bhnp2rcd13ifvqgvg","pricing_plan_id":"cebpf4jnsgd1na2vs0mg"},{"bike_id":"a631f734-4aa1-4ec4-bfa7-ef8429122ef0","system_id":"levelo_inurba_marseille","lat":43.25737,"lon":5.41106,"is_reserved":false,"is_disabled":false,"rental_uris":{"android":"levelo://app?vid=a631f734-4aa1-4ec4-bfa7-ef8429122ef0","ios":"levelo://app?vid=a631f734-4aa1-4ec4-bfa7-ef8429122ef0"},"vehicle_type_id":"4","last_reported":1739621688,"current_range_meters":18000,"station_id":"ce4bhkp2rcd13ifvqgd0","pricing_plan_id":"cebpf4jnsgd1na2vs0mg"},{"bike_id":"9c5a9138-5c3d-41ea-947f-4245b3af750a","system_id":"levelo_inurba_marseille","lat":43.29724,"lon":5.37673,"is_reserved":false,"is_disabled":false,"rental_uris":{"android":"levelo://app?vid=9c5a9138-5c3d-41ea-947f-4245b3af750a","ios":"levelo://app?vid=9c5a9138-5c3d-41ea-947f-4245b3af750a"},"vehicle_type_id":"4","last_reported":1739621688,"current_range_meters":38800,"station_id":"ce4bgkh2rcd13ifvqbl0","pricing_plan_id":"cebpf4jnsgd1na2vs0mg"},{"bike_id":"e2b6f8ca-f3b3-4e48-b127-0ec322c43b22","system_id":"levelo_inurba_marseille","lat":43.27421,"lon":5.39411,"is_reserved":false,"is_disabled":false,"rental_uris":{"android":"levelo://app?vid=e2b6f8ca-f3b3-4e48-b127-0ec322c43b22","ios":"levelo://app?vid=e2b6f8ca-f3b3-4e48-b127-0ec322c43b22"},"vehicle_type_id":"4","last_reported":1739621688,"current_range_meters":33200,"station_id":"ce4bhdp2rcd13ifvqf20","pricing_plan_id":"cebpf4jnsgd1na2vs0mg"},{"bike_id":"9d7c84b1-5e85-40b5-9214-0ea5f354ecac","system_id":"levelo_inurba_marseille","lat":43.28621,"lon":5.38463,"is_reserved":false,"is_disabled":false,"rental_uris":{"android":"levelo://app?vid=9d7c84b1-5e85-40b5-9214-0ea5f354ecac","ios":"levelo://app?vid=9d7c84b1-5e85-40b5-9214-0ea5f354ecac"},"vehicle_type_id":"4","last_reported":1739621688,"current_range_meters":16000,"station_id":"","pricing_plan_id":"cebpf4jnsgd1na2vs0mg"},{"bike_id":"258f2806-7b6c-4de8-8a7d-3a791724ae3d","system_id":"levelo_inurba_marseille","lat":43.27987,"lon":5.41656,"is_reserved":false,"is_disabled":false,"rental_uris":{"android":"levelo://app?vid=258f2806-7b6c-4de8-8a7d-3a791724ae3d","ios":"levelo://app?vid=258f2806-7b6c-4de8-8a7d-3a791724ae3d"},"vehicle_type_id":"4","last_reported":1739621688,"current_range_meters":38800,"station_id":"ce4bho12rcd13ifvqh1g","pricing_plan_id":"cebpf4jnsgd1na2vs0mg"},{"bike_id":"d2db952c-9c8f-436d-bbe5-1e42cf8a281c","system_id":"levelo_inurba_marseille","lat":43.29519,"lon":5.39036,"is_reserved":false,"is_disabled":false,"rental_uris":{"android":"levelo://app?vid=d2db952c-9c8f-436d-bbe5-1e42cf8a281c","ios":"levelo://app?vid=d2db952c-9c8f-436d-bbe5-1e42cf8a281c"},"vehicle_type_id":"4","last_reported":1739621688,"current_range_meters":36400,"station_id":"ce4bh3p2rcd13ifvqdp0","pricing_plan_id":"cebpf4jnsgd1na2vs0mg"},{"bike_id":"0e8fceb1-ca35-46d0-bdf2-7053674d26bb","system_id":"levelo_inurba_marseille","lat":43.262049,"lon":5.374681,"is_reserved":false,"is_disabled":false,"rental_uris":{"android":"levelo://app?vid=0e8fceb1-ca35-46d0-bdf2-7053674d26bb","ios":"levelo://app?vid=0e8fceb1-ca35-46d0-bdf2-7053674d26bb"},"vehicle_type_id":"4","last_reported":1739621688,"current_range_meters":35200,"station_id":"ce4bhgp2rcd13ifvqfc0","pricing_plan_id":"cebpf4jnsgd1na2vs0mg"},{"bike_id":"c563d63c-4647-411d-9ead-dba451cb2662","system_id":"levelo_inurba_marseille","lat":43.28263,"lon":5.35063,"is_reserved":false,"is_disabled":false,"rental_uris":{"android":"levelo://app?vid=c563d63c-4647-411d-9ead-dba451cb2662","ios":"levelo://app?vid=c563d63c-4647-411d-9ead-dba451cb2662"},"vehicle_type_id":"4","last_reported":1739621688,"current_range_meters":38800,"station_id":"ce4bhbp2rcd13ifvqerg","pricing_plan_id":"cebpf4jnsgd1na2vs0mg"},{"bike_id":"ea97ac5e-3549-4466-a935-a370db5cd759","system_id":"levelo_inurba_marseille","lat":43.27934,"lon":5.41038,"is_reserved":false,"is_disabled":false,"rental_uris":{"android":"levelo://app?vid=ea97ac5e-3549-4466-a935-a370db5cd759","ios":"levelo://app?vid=ea97ac5e-3549-4466-a935-a370db5cd759"},"vehicle_type_id":"4","last_reported":1739621688,"current_range_meters":30000,"station_id":"ce4bhnp2rcd13ifvqh0g","pricing_plan_id":"cebpf4jnsgd1na2vs0mg"},{"bike_id":"d0366eab-598a-4252-a062-ddcd4c837443","system_id":"levelo_inurba_marseille","lat":43.26932,"lon":5.38917,"is_reserved":false,"is_disabled":false,"rental_uris":{"android":"levelo://app?vid=d0366eab-598a-4252-a062-ddcd4c837443","ios":"levelo://app?vid=d0366eab-598a-4252-a062-ddcd4c837443"},"vehicle_type_id":"4","last_reported":1739621688,"current_range_meters":38000,"station_id":"ce4bhhh2rcd13ifvqfl0","pricing_plan_id":"cebpf4jnsgd1na2vs0mg"},{"bike_id":"d300390f-0422-40ec-a116-f6f2c613d309","system_id":"levelo_inurba_marseille","lat":43.29845,"lon":5.36282,"is_reserved":false,"is_disabled":false,"rental_uris":{"android":"levelo://app?vid=d300390f-0422-40ec-a116-f6f2c613d309","ios":"levelo://app?vid=d300390f-0422-40ec-a116-f6f2c613d309"},"vehicle_type_id":"4","last_reported":1739621688,"current_range_meters":38400,"station_id":"ce4bgpp2rcd13ifvqc3g","pricing_plan_id":"cebpf4jnsgd1na2vs0mg"},{"bike_id":"d1b7e7c3-d876-4585-aa93-a701646b8c19","system_id":"levelo_inurba_marseille","lat":43.23178,"lon":5.39988,"is_reserved":false,"is_disabled":false,"rental_uris":{"android":"levelo://app?vid=d1b7e7c3-d876-4585-aa93-a701646b8c19","ios":"levelo://app?vid=d1b7e7c3-d876-4585-aa93-a701646b8c19"},"vehicle_type_id":"4","last_reported":1739621688,"current_range_meters":39200,"station_id":"ce4bhn12rcd13ifvqgqg","pricing_plan_id":"cebpf4jnsgd1na2vs0mg"},{"bike_id":"dc4fc55f-0ea9-49a1-bb39-4722eda2c2cd","system_id":"levelo_inurba_marseille","lat":43.29917,"lon":5.376492,"is_reserved":false,"is_disabled":false,"rental_uris":{"android":"levelo://app?vid=dc4fc55f-0ea9-49a1-bb39-4722eda2c2cd","ios":"levelo://app?vid=dc4fc55f-0ea9-49a1-bb39-4722eda2c2cd"},"vehicle_type_id":"4","last_reported":1739621688,"current_range_meters":18000,"station_id":"","pricing_plan_id":"cebpf4jnsgd1na2vs0mg"},{"bike_id":"151b4b94-201a-42b7-9cd0-0a3bdd281af1","system_id":"levelo_inurba_marseille","lat":43.28404,"lon":5.34957,"is_reserved":false,"is_disabled":false,"rental_uris":{"android":"levelo://app?vid=151b4b94-201a-42b7-9cd0-0a3bdd281af1","ios":"levelo://app?vid=151b4b94-201a-42b7-9cd0-0a3bdd281af1"},"vehicle_type_id":"4","last_reported":1739621688,"current_range_meters":32000,"station_id":"ce4bhbh2rcd13ifvqepg","pricing_plan_id":"cebpf4jnsgd1na2vs0mg"},{"bike_id":"10410a5f-c872-4cbc-84fb-fe2ad13b1e20","system_id":"levelo_inurba_marseille","lat":43.28408,"lon":5.34984,"is_reserved":false,"is_disabled":false,"rental_uris":{"android":"levelo://app?vid=10410a5f-c872-4cbc-84fb-fe2ad13b1e20","ios":"levelo://app?vid=10410a5f-c872-4cbc-84fb-fe2ad13b1e20"},"vehicle_type_id":"4","last_reported":1739621688,"current_range_meters":29600,"station_id":"ce4bhbh2rcd13ifvqepg","pricing_plan_id":"cebpf4jnsgd1na2vs0mg"},{"bike_id":"20291502-ee6b-4666-848b-50e2c2484636","system_id":"levelo_inurba_marseille","lat":43.29181,"lon":5.35799,"is_reserved":false,"is_disabled":false,"rental_uris":{"android":"levelo://app?vid=20291502-ee6b-4666-848b-50e2c2484636","ios":"levelo://app?vid=20291502-ee6b-4666-848b-50e2c2484636"},"vehicle_type_id":"4","last_reported":1739621688,"current_range_meters":30400,"station_id":"ce4bhb12rcd13ifvqel0","pricing_plan_id":"cebpf4jnsgd1na2vs0mg"},{"bike_id":"d2c98906-95e6-41f0-887e-addf55786d50","system_id":"levelo_inurba_marseille","lat":43.27936,"lon":5.41058,"is_reserved":false,"is_disabled":false,"rental_uris":{"android":"levelo://app?vid=d2c98906-95e6-41f0-887e-addf55786d50","ios":"levelo://app?vid=d2c98906-95e6-41f0-887e-addf55786d50"},"vehicle_type_id":"4","last_reported":1739621688,"current_range_meters":25200,"station_id":"ce4bhnp2rcd13ifvqh0g","pricing_plan_id":"cebpf4jnsgd1na2vs0mg"},{"bike_id":"c4df4f16-0512-464a-a719-0bb1f3feadb0","system_id":"levelo_inurba_marseille","lat":43.32341,"lon":5.40624,"is_reserved":false,"is_disabled":false,"rental_uris":{"android":"levelo://app?vid=c4df4f16-0512-464a-a719-0bb1f3feadb0","ios":"levelo://app?vid=c4df4f16-0512-464a-a719-0bb1f3feadb0"},"vehicle_type_id":"4","last_reported":1739621688,"current_range_meters":20000,"station_id":"ce4bhq92rcd13ifvqhjg","pricing_plan_id":"cebpf4jnsgd1na2vs0mg"},{"bike_id":"5423b4eb-0bb8-4cf9-829d-80a1104aa3a3","system_id":"levelo_inurba_marseille","lat":43.29796,"lon":5.40417,"is_reserved":false,"is_disabled":false,"rental_uris":{"android":"levelo://app?vid=5423b4eb-0bb8-4cf9-829d-80a1104aa3a3","ios":"levelo://app?vid=5423b4eb-0bb8-4cf9-829d-80a1104aa3a3"},"vehicle_type_id":"4","last_reported":1739621688,"current_range_meters":8800,"station_id":"ce4bh112rcd13ifvqd90","pricing_plan_id":"cebpf4jnsgd1na2vs0mg"},{"bike_id":"9af4b56b-cb93-463a-9889-79218f110253","system_id":"levelo_inurba_marseille","lat":43.30889,"lon":5.39626,"is_reserved":false,"is_disabled":false,"rental_uris":{"android":"levelo://app?vid=9af4b56b-cb93-463a-9889-79218f110253","ios":"levelo://app?vid=9af4b56b-cb93-463a-9889-79218f110253"},"vehicle_type_id":"4","last_reported":1739621688,"current_range_meters":6800,"station_id":"ce4bh012rcd13ifvqcv0","pricing_plan_id":"cebpf4jnsgd1na2vs0mg"},{"bike_id":"03eba1d0-92c1-4e6e-a4d0-7c546f2439c0","system_id":"levelo_inurba_marseille","lat":43.337444,"lon":5.374475,"is_reserved":false,"is_disabled":true,"rental_uris":{"android":"levelo://app?vid=03eba1d0-92c1-4e6e-a4d0-7c546f2439c0","ios":"levelo://app?vid=03eba1d0-92c1-4e6e-a4d0-7c546f2439c0"},"vehicle_type_id":"4","last_reported":1739621688,"current_range_meters":0,"station_id":"","pricing_plan_id":"cebpf4jnsgd1na2vs0mg"},{"bike_id":"3ce9ce58-7c99-4dbb-a109-d0a36243ebfb","system_id":"levelo_inurba_marseille","lat":43.28441,"lon":5.39179,"is_reserved":false,"is_disabled":true,"rental_uris":{"android":"levelo://app?vid=3ce9ce58-7c99-4dbb-a109-d0a36243ebfb","ios":"levelo://app?vid=3ce9ce58-7c99-4dbb-a109-d0a36243ebfb"},"vehicle_type_id":"4","last_reported":1739621688,"current_range_meters":32400,"station_id":"ce4bhoh2rcd13ifvqh5g","pricing_plan_id":"cebpf4jnsgd1na2vs0mg"},{"bike_id":"37d274bc-7488-45e2-be26-b72715489ecd","system_id":"levelo_inurba_marseille","lat":43.28448,"lon":5.39193,"is_reserved":false,"is_disabled":true,"rental_uris":{"android":"levelo://app?vid=37d274bc-7488-45e2-be26-b72715489ecd","ios":"levelo://app?vid=37d274bc-7488-45e2-be26-b72715489ecd"},"vehicle_type_id":"4","last_reported":1739621688,"current_range_meters":36800,"station_id":"ce4bhoh2rcd13ifvqh5g","pricing_plan_id":"cebpf4jnsgd1na2vs0mg"},{"bike_id":"8208b9be-b2fb-4d4a-9708-6254e17f01c5","system_id":"levelo_inurba_marseille","lat":43.25497,"lon":5.37648,"is_reserved":false,"is_disabled":false,"rental_uris":{"android":"levelo://app?vid=8208b9be-b2fb-4d4a-9708-6254e17f01c5","ios":"levelo://app?vid=8208b9be-b2fb-4d4a-9708-6254e17f01c5"},"vehicle_type_id":"4","last_reported":1739621688,"current_range_meters":37600,"station_id":"ce4bhh12rcd13ifvqff0","pricing_plan_id":"cebpf4jnsgd1na2vs0mg"},{"bike_id":"3238c627-e4e2-46f4-87d6-ad32ab687642","system_id":"levelo_inurba_marseille","lat":43.29409,"lon":5.38586,"is_reserved":false,"is_disabled":true,"rental_uris":{"android":"levelo://app?vid=3238c627-e4e2-46f4-87d6-ad32ab687642","ios":"levelo://app?vid=3238c627-e4e2-46f4-87d6-ad32ab687642"},"vehicle_type_id":"4","last_reported":1739621688,"current_range_meters":38400,"station_id":"ce4bh2h2rcd13ifvqdh0","pricing_plan_id":"cebpf4jnsgd1na2vs0mg"},{"bike_id":"6731b96d-efef-4717-971c-9529035bf9eb","system_id":"levelo_inurba_marseille","lat":43.32288,"lon":5.3826,"is_reserved":false,"is_disabled":false,"rental_uris":{"android":"levelo://app?vid=6731b96d-efef-4717-971c-9529035bf9eb","ios":"levelo://app?vid=6731b96d-efef-4717-971c-9529035bf9eb"},"vehicle_type_id":"4","last_reported":1739621688,"current_range_meters":38000,"station_id":"ce4bhr12rcd13ifvqhqg","pricing_plan_id":"cebpf4jnsgd1na2vs0mg"},{"bike_id":"5016e875-414a-41bd-8f00-6a5845e39ba6","system_id":"levelo_inurba_marseille","lat":43.30801,"lon":5.43519,"is_reserved":false,"is_disabled":false,"rental_uris":{"android":"levelo://app?vid=5016e875-414a-41bd-8f00-6a5845e39ba6","ios":"levelo://app?vid=5016e875-414a-41bd-8f00-6a5845e39ba6"},"vehicle_type_id":"4","last_reported":1739621688,"current_range_meters":30000,"station_id":"ce4bhph2rcd13ifvqheg","pricing_plan_id":"cebpf4jnsgd1na2vs0mg"},{"bike_id":"2b8fafe3-b494-4137-a1c6-725a3b485574","system_id":"levelo_inurba_marseille","lat":43.28495,"lon":5.39205,"is_reserved":false,"is_disabled":false,"rental_uris":{"android":"levelo://app?vid=2b8fafe3-b494-4137-a1c6-725a3b485574","ios":"levelo://app?vid=2b8fafe3-b494-4137-a1c6-725a3b485574"},"vehicle_type_id":"4","last_reported":1739621688,"current_range_meters":39200,"station_id":"ce4bhoh2rcd13ifvqh5g","pricing_plan_id":"cebpf4jnsgd1na2vs0mg"},{"bike_id":"683dd2bd-1e81-48dd-a1eb-4b7a7378e30c","system_id":"levelo_inurba_marseille","lat":43.24385,"lon":5.37037,"is_reserved":false,"is_disabled":false,"rental_uris":{"android":"levelo://app?vid=683dd2bd-1e81-48dd-a1eb-4b7a7378e30c","ios":"levelo://app?vid=683dd2bd-1e81-48dd-a1eb-4b7a7378e30c"},"vehicle_type_id":"4","last_reported":1739621688,"current_range_meters":35600,"station_id":"ce4bhhh2rcd13ifvqfk0","pricing_plan_id":"cebpf4jnsgd1na2vs0mg"},{"bike_id":"4eda08d8-7df7-4af9-82a1-a13cb1b11947","system_id":"levelo_inurba_marseille","lat":43.29785,"lon":5.39344,"is_reserved":false,"is_disabled":false,"rental_uris":{"android":"levelo://app?vid=4eda08d8-7df7-4af9-82a1-a13cb1b11947","ios":"levelo://app?vid=4eda08d8-7df7-4af9-82a1-a13cb1b11947"},"vehicle_type_id":"4","last_reported":1739621688,"current_range_meters":18800,"station_id":"chh1huq6cuj3fo74tm60","pricing_plan_id":"cebpf4jnsgd1na2vs0mg"},{"bike_id":"a56dd895-dcb3-443d-8e30-5f93bbc4530e","system_id":"levelo_inurba_marseille","lat":43.30206,"lon":5.39477,"is_reserved":false,"is_disabled":false,"rental_uris":{"android":"levelo://app?vid=a56dd895-dcb3-443d-8e30-5f93bbc4530e","ios":"levelo://app?vid=a56dd895-dcb3-443d-8e30-5f93bbc4530e"},"vehicle_type_id":"4","last_reported":1739621688,"current_range_meters":23200,"station_id":"ce4bh0p2rcd13ifvqd70","pricing_plan_id":"cebpf4jnsgd1na2vs0mg"},{"bike_id":"ee7453f3-3fa3-4e0d-9a64-bd9106059582","system_id":"levelo_inurba_marseille","lat":43.29604,"lon":5.37733,"is_reserved":false,"is_disabled":false,"rental_uris":{"android":"levelo://app?vid=ee7453f3-3fa3-4e0d-9a64-bd9106059582","ios":"levelo://app?vid=ee7453f3-3fa3-4e0d-9a64-bd9106059582"},"vehicle_type_id":"4","last_reported":1739621688,"current_range_meters":38800,"station_id":"ce4bgi92rcd13ifvqb90","pricing_plan_id":"cebpf4jnsgd1na2vs0mg"},{"bike_id":"bd8ecd74-5502-4a33-aa50-324d14f9caf3","system_id":"levelo_inurba_marseille","lat":43.262,"lon":5.37929,"is_reserved":false,"is_disabled":false,"rental_uris":{"android":"levelo://app?vid=bd8ecd74-5502-4a33-aa50-324d14f9caf3","ios":"levelo://app?vid=bd8ecd74-5502-4a33-aa50-324d14f9caf3"},"vehicle_type_id":"4","last_reported":1739621688,"current_range_meters":17200,"station_id":"ce4bhjp2rcd13ifvqg90","pricing_plan_id":"cebpf4jnsgd1na2vs0mg"},{"bike_id":"bd1fbd17-5ecd-4c2a-9290-d1ffd1a70214","system_id":"levelo_inurba_marseille","lat":43.29549,"lon":5.42287,"is_reserved":false,"is_disabled":false,"rental_uris":{"android":"levelo://app?vid=bd1fbd17-5ecd-4c2a-9290-d1ffd1a70214","ios":"levelo://app?vid=bd1fbd17-5ecd-4c2a-9290-d1ffd1a70214"},"vehicle_type_id":"4","last_reported":1739621688,"current_range_meters":32800,"station_id":"ce4bhph2rcd13ifvqhdg","pricing_plan_id":"cebpf4jnsgd1na2vs0mg"},{"bike_id":"e492bf36-b9da-4024-88d1-1b3161c4bdab","system_id":"levelo_inurba_marseille","lat":43.26944,"lon":5.40256,"is_reserved":false,"is_disabled":false,"rental_uris":{"android":"levelo://app?vid=e492bf36-b9da-4024-88d1-1b3161c4bdab","ios":"levelo://app?vid=e492bf36-b9da-4024-88d1-1b3161c4bdab"},"vehicle_type_id":"4","last_reported":1739621688,"current_range_meters":38000,"station_id":"cjm6bp8fraef2m0cb0m0","pricing_plan_id":"cebpf4jnsgd1na2vs0mg"},{"bike_id":"d43528c0-bc71-47e5-95e7-fda200b40a43","system_id":"levelo_inurba_marseille","lat":43.30152,"lon":5.38099,"is_reserved":false,"is_disabled":false,"rental_uris":{"android":"levelo://app?vid=d43528c0-bc71-47e5-95e7-fda200b40a43","ios":"levelo://app?vid=d43528c0-bc71-47e5-95e7-fda200b40a43"},"vehicle_type_id":"4","last_reported":1739621688,"current_range_meters":35200,"station_id":"ce4bgjp2rcd13ifvqbh0","pricing_plan_id":"cebpf4jnsgd1na2vs0mg"},{"bike_id":"4f34ac20-13f8-4bff-8fa6-5425328bb98e","system_id":"levelo_inurba_marseille","lat":43.30237,"lon":5.40035,"is_reserved":false,"is_disabled":true,"rental_uris":{"android":"levelo://app?vid=4f34ac20-13f8-4bff-8fa6-5425328bb98e","ios":"levelo://app?vid=4f34ac20-13f8-4bff-8fa6-5425328bb98e"},"vehicle_type_id":"4","last_reported":1739621688,"current_range_meters":28000,"station_id":"","pricing_plan_id":"cebpf4jnsgd1na2vs0mg"},{"bike_id":"95b44814-f984-47a7-9d5d-b7aa69f907c9","system_id":"levelo_inurba_marseille","lat":43.28434,"lon":5.37538,"is_reserved":false,"is_disabled":true,"rental_uris":{"android":"levelo://app?vid=95b44814-f984-47a7-9d5d-b7aa69f907c9","ios":"levelo://app?vid=95b44814-f984-47a7-9d5d-b7aa69f907c9"},"vehicle_type_id":"4","last_reported":1739621688,"current_range_meters":11200,"station_id":"ce4bh412rcd13ifvqds0","pricing_plan_id":"cebpf4jnsgd1na2vs0mg"},{"bike_id":"290e8fa8-cff1-4e37-812f-43dadd234618","system_id":"levelo_inurba_marseille","lat":43.3029,"lon":5.39207,"is_reserved":false,"is_disabled":true,"rental_uris":{"android":"levelo://app?vid=290e8fa8-cff1-4e37-812f-43dadd234618","ios":"levelo://app?vid=290e8fa8-cff1-4e37-812f-43dadd234618"},"vehicle_type_id":"4","last_reported":1739621688,"current_range_meters":38800,"station_id":"ce4bgkh2rcd13ifvqbk0","pricing_plan_id":"cebpf4jnsgd1na2vs0mg"},{"bike_id":"e5e25a05-78f7-42e7-bd0f-55177573602f","system_id":"levelo_inurba_marseille","lat":43.30185,"lon":5.36608,"is_reserved":false,"is_disabled":false,"rental_uris":{"android":"levelo://app?vid=e5e25a05-78f7-42e7-bd0f-55177573602f","ios":"levelo://app?vid=e5e25a05-78f7-42e7-bd0f-55177573602f"},"vehicle_type_id":"4","last_reported":1739621688,"current_range_meters":39200,"station_id":"ce4bgrh2rcd13ifvqc8g","pricing_plan_id":"cebpf4jnsgd1na2vs0mg"},{"bike_id":"1ceb3fc3-67ac-401a-b607-48e566d19a0d","system_id":"levelo_inurba_marseille","lat":43.25498,"lon":5.37648,"is_reserved":false,"is_disabled":false,"rental_uris":{"android":"levelo://app?vid=1ceb3fc3-67ac-401a-b607-48e566d19a0d","ios":"levelo://app?vid=1ceb3fc3-67ac-401a-b607-48e566d19a0d"},"vehicle_type_id":"4","last_reported":1739621688,"current_range_meters":7200,"station_id":"ce4bhh12rcd13ifvqff0","pricing_plan_id":"cebpf4jnsgd1na2vs0mg"},{"bike_id":"312ffda6-57ec-493a-a409-1ceba4974ee9","system_id":"levelo_inurba_marseille","lat":43.311757,"lon":5.387194,"is_reserved":false,"is_disabled":false,"rental_uris":{"android":"levelo://app?vid=312ffda6-57ec-493a-a409-1ceba4974ee9","ios":"levelo://app?vid=312ffda6-57ec-493a-a409-1ceba4974ee9"},"vehicle_type_id":"4","last_reported":1739621688,"current_range_meters":29600,"station_id":"ce4bgv12rcd13ifvqcp0","pricing_plan_id":"cebpf4jnsgd1na2vs0mg"},{"bike_id":"3b2bde9a-e21b-4f53-b40f-a6b97bfabe92","system_id":"levelo_inurba_marseille","lat":43.290283,"lon":5.386689,"is_reserved":false,"is_disabled":false,"rental_uris":{"android":"levelo://app?vid=3b2bde9a-e21b-4f53-b40f-a6b97bfabe92","ios":"levelo://app?vid=3b2bde9a-e21b-4f53-b40f-a6b97bfabe92"},"vehicle_type_id":"4","last_reported":1739621688,"current_range_meters":16800,"station_id":"ce4bh4p2rcd13ifvqe0g","pricing_plan_id":"cebpf4jnsgd1na2vs0mg"},{"bike_id":"67e87f1d-1747-448a-9149-c4c50aa6f74a","system_id":"levelo_inurba_marseille","lat":43.29963,"lon":5.38511,"is_reserved":false,"is_disabled":false,"rental_uris":{"android":"levelo://app?vid=67e87f1d-1747-448a-9149-c4c50aa6f74a","ios":"levelo://app?vid=67e87f1d-1747-448a-9149-c4c50aa6f74a"},"vehicle_type_id":"4","last_reported":1739621688,"current_range_meters":36800,"station_id":"ce4bgj92rcd13ifvqbd0","pricing_plan_id":"cebpf4jnsgd1na2vs0mg"},{"bike_id":"a4a8670e-e1ec-4d66-8196-46b36b5e11ac","system_id":"levelo_inurba_marseille","lat":43.292748,"lon":5.368422,"is_reserved":false,"is_disabled":false,"rental_uris":{"android":"levelo://app?vid=a4a8670e-e1ec-4d66-8196-46b36b5e11ac","ios":"levelo://app?vid=a4a8670e-e1ec-4d66-8196-46b36b5e11ac"},"vehicle_type_id":"4","last_reported":1739621688,"current_range_meters":16000,"station_id":"ce4bhbp2rcd13ifvqesg","pricing_plan_id":"cebpf4jnsgd1na2vs0mg"},{"bike_id":"6815710c-f0b0-439b-b997-896dc070b1c3","system_id":"levelo_inurba_marseille","lat":43.26818,"lon":5.40267,"is_reserved":false,"is_disabled":false,"rental_uris":{"android":"levelo://app?vid=6815710c-f0b0-439b-b997-896dc070b1c3","ios":"levelo://app?vid=6815710c-f0b0-439b-b997-896dc070b1c3"},"vehicle_type_id":"4","last_reported":1739621688,"current_range_meters":39200,"station_id":"ce501612rcd8frsf0b60","pricing_plan_id":"cebpf4jnsgd1na2vs0mg"},{"bike_id":"ba6ee90b-9d94-4f43-8358-366faab5901e","system_id":"levelo_inurba_marseille","lat":43.28078,"lon":5.39629,"is_reserved":false,"is_disabled":false,"rental_uris":{"android":"levelo://app?vid=ba6ee90b-9d94-4f43-8358-366faab5901e","ios":"levelo://app?vid=ba6ee90b-9d94-4f43-8358-366faab5901e"},"vehicle_type_id":"4","last_reported":1739621688,"current_range_meters":34800,"station_id":"ce4bho12rcd13ifvqh2g","pricing_plan_id":"cebpf4jnsgd1na2vs0mg"},{"bike_id":"fe0f12a8-8d62-4d79-b629-bda6901e6297","system_id":"levelo_inurba_marseille","lat":43.26931,"lon":5.40261,"is_reserved":false,"is_disabled":true,"rental_uris":{"android":"levelo://app?vid=fe0f12a8-8d62-4d79-b629-bda6901e6297","ios":"levelo://app?vid=fe0f12a8-8d62-4d79-b629-bda6901e6297"},"vehicle_type_id":"4","last_reported":1739621688,"current_range_meters":31200,"station_id":"cjm6bp8fraef2m0cb0m0","pricing_plan_id":"cebpf4jnsgd1na2vs0mg"},{"bike_id":"32dc0a9b-13a7-466e-a5f6-a57bb4d27511","system_id":"levelo_inurba_marseille","lat":43.28423,"lon":5.34988,"is_reserved":false,"is_disabled":false,"rental_uris":{"android":"levelo://app?vid=32dc0a9b-13a7-466e-a5f6-a57bb4d27511","ios":"levelo://app?vid=32dc0a9b-13a7-466e-a5f6-a57bb4d27511"},"vehicle_type_id":"4","last_reported":1739621688,"current_range_meters":26000,"station_id":"ce4bhbh2rcd13ifvqepg","pricing_plan_id":"cebpf4jnsgd1na2vs0mg"},{"bike_id":"f863be64-7551-441a-8553-0f2ff252a38a","system_id":"levelo_inurba_marseille","lat":43.29525,"lon":5.37501,"is_reserved":false,"is_disabled":false,"rental_uris":{"android":"levelo://app?vid=f863be64-7551-441a-8553-0f2ff252a38a","ios":"levelo://app?vid=f863be64-7551-441a-8553-0f2ff252a38a"},"vehicle_type_id":"4","last_reported":1739621688,"current_range_meters":9200,"station_id":"ce4bgkp2rcd13ifvqbmg","pricing_plan_id":"cebpf4jnsgd1na2vs0mg"},{"bike_id":"5429a055-5c17-4863-ac08-ee7234bc7af8","system_id":"levelo_inurba_marseille","lat":43.32358,"lon":5.36741,"is_reserved":false,"is_disabled":false,"rental_uris":{"android":"levelo://app?vid=5429a055-5c17-4863-ac08-ee7234bc7af8","ios":"levelo://app?vid=5429a055-5c17-4863-ac08-ee7234bc7af8"},"vehicle_type_id":"4","last_reported":1739621688,"current_range_meters":33200,"station_id":"ce4bhsh2rcd13ifvqi2g","pricing_plan_id":"cebpf4jnsgd1na2vs0mg"},{"bike_id":"f8aa8631-00bb-4f5d-8f29-8445fb781f09","system_id":"levelo_inurba_marseille","lat":43.29624,"lon":5.37144,"is_reserved":false,"is_disabled":false,"rental_uris":{"android":"levelo://app?vid=f8aa8631-00bb-4f5d-8f29-8445fb781f09","ios":"levelo://app?vid=f8aa8631-00bb-4f5d-8f29-8445fb781f09"},"vehicle_type_id":"4","last_reported":1739621688,"current_range_meters":38800,"station_id":"ce4bgnh2rcd13ifvqc0g","pricing_plan_id":"cebpf4jnsgd1na2vs0mg"},{"bike_id":"bed1bab1-82f3-4487-b91a-f226eb89893b","system_id":"levelo_inurba_marseille","lat":43.24803,"lon":5.37454,"is_reserved":false,"is_disabled":false,"rental_uris":{"android":"levelo://app?vid=bed1bab1-82f3-4487-b91a-f226eb89893b","ios":"levelo://app?vid=bed1bab1-82f3-4487-b91a-f226eb89893b"},"vehicle_type_id":"4","last_reported":1739621688,"current_range_meters":38800,"station_id":"ce4bhgh2rcd13ifvqfb0","pricing_plan_id":"cebpf4jnsgd1na2vs0mg"},{"bike_id":"60f63138-f893-49b4-926c-eaa78179c7d8","system_id":"levelo_inurba_marseille","lat":43.25876,"lon":5.39929,"is_reserved":false,"is_disabled":false,"rental_uris":{"android":"levelo://app?vid=60f63138-f893-49b4-926c-eaa78179c7d8","ios":"levelo://app?vid=60f63138-f893-49b4-926c-eaa78179c7d8"},"vehicle_type_id":"4","last_reported":1739621688,"current_range_meters":37600,"station_id":"ce4bhl92rcd13ifvqghg","pricing_plan_id":"cebpf4jnsgd1na2vs0mg"},{"bike_id":"8e27dff1-77f5-4a1b-b9c0-4017a7900542","system_id":"levelo_inurba_marseille","lat":43.29178,"lon":5.35813,"is_reserved":false,"is_disabled":false,"rental_uris":{"android":"levelo://app?vid=8e27dff1-77f5-4a1b-b9c0-4017a7900542","ios":"levelo://app?vid=8e27dff1-77f5-4a1b-b9c0-4017a7900542"},"vehicle_type_id":"4","last_reported":1739621688,"current_range_meters":21600,"station_id":"ce4bhb12rcd13ifvqel0","pricing_plan_id":"cebpf4jnsgd1na2vs0mg"},{"bike_id":"bb60cb61-5efe-41d6-b5f0-573cb6639cdb","system_id":"levelo_inurba_marseille","lat":43.29601,"lon":5.3773,"is_reserved":false,"is_disabled":false,"rental_uris":{"android":"levelo://app?vid=bb60cb61-5efe-41d6-b5f0-573cb6639cdb","ios":"levelo://app?vid=bb60cb61-5efe-41d6-b5f0-573cb6639cdb"},"vehicle_type_id":"4","last_reported":1739621688,"current_range_meters":22400,"station_id":"ce4bgi92rcd13ifvqb90","pricing_plan_id":"cebpf4jnsgd1na2vs0mg"},{"bike_id":"981f0c84-c763-4744-ab7e-6d6374d30546","system_id":"levelo_inurba_marseille","lat":43.25515,"lon":5.37639,"is_reserved":false,"is_disabled":false,"rental_uris":{"android":"levelo://app?vid=981f0c84-c763-4744-ab7e-6d6374d30546","ios":"levelo://app?vid=981f0c84-c763-4744-ab7e-6d6374d30546"},"vehicle_type_id":"4","last_reported":1739621688,"current_range_meters":39200,"station_id":"ce4bhh12rcd13ifvqff0","pricing_plan_id":"cebpf4jnsgd1na2vs0mg"},{"bike_id":"e2421ffa-148e-429f-8a0d-c426f330625c","system_id":"levelo_inurba_marseille","lat":43.26806,"lon":5.40261,"is_reserved":false,"is_disabled":false,"rental_uris":{"android":"levelo://app?vid=e2421ffa-148e-429f-8a0d-c426f330625c","ios":"levelo://app?vid=e2421ffa-148e-429f-8a0d-c426f330625c"},"vehicle_type_id":"4","last_reported":1739621688,"current_range_meters":9200,"station_id":"ce501612rcd8frsf0b60","pricing_plan_id":"cebpf4jnsgd1na2vs0mg"},{"bike_id":"c4c30d43-c99a-4375-b69e-29accecccae5","system_id":"levelo_inurba_marseille","lat":43.311741,"lon":5.387159,"is_reserved":false,"is_disabled":false,"rental_uris":{"android":"levelo://app?vid=c4c30d43-c99a-4375-b69e-29accecccae5","ios":"levelo://app?vid=c4c30d43-c99a-4375-b69e-29accecccae5"},"vehicle_type_id":"4","last_reported":1739621688,"current_range_meters":35600,"station_id":"ce4bgv12rcd13ifvqcp0","pricing_plan_id":"cebpf4jnsgd1na2vs0mg"},{"bike_id":"0940bc76-06ec-48d0-8734-75e1fc848a06","system_id":"levelo_inurba_marseille","lat":43.29568,"lon":5.37522,"is_reserved":false,"is_disabled":false,"rental_uris":{"android":"levelo://app?vid=0940bc76-06ec-48d0-8734-75e1fc848a06","ios":"levelo://app?vid=0940bc76-06ec-48d0-8734-75e1fc848a06"},"vehicle_type_id":"4","last_reported":1739621688,"current_range_meters":21600,"station_id":"ce4bgh92rcd13ifvqb50","pricing_plan_id":"cebpf4jnsgd1na2vs0mg"},{"bike_id":"4b62bbbb-494a-4d7f-8e9a-376ca0015718","system_id":"levelo_inurba_marseille","lat":43.28616,"lon":5.35101,"is_reserved":false,"is_disabled":false,"rental_uris":{"android":"levelo://app?vid=4b62bbbb-494a-4d7f-8e9a-376ca0015718","ios":"levelo://app?vid=4b62bbbb-494a-4d7f-8e9a-376ca0015718"},"vehicle_type_id":"4","last_reported":1739621688,"current_range_meters":33200,"station_id":"ce4bhch2rcd13ifvqeug","pricing_plan_id":"cebpf4jnsgd1na2vs0mg"},{"bike_id":"c89c039b-42a6-4e8a-9edb-abb2b9561771","system_id":"levelo_inurba_marseille","lat":43.29901,"lon":5.43666,"is_reserved":false,"is_disabled":false,"rental_uris":{"android":"levelo://app?vid=c89c039b-42a6-4e8a-9edb-abb2b9561771","ios":"levelo://app?vid=c89c039b-42a6-4e8a-9edb-abb2b9561771"},"vehicle_type_id":"4","last_reported":1739621688,"current_range_meters":14400,"station_id":"ce4bhpp2rcd13ifvqhfg","pricing_plan_id":"cebpf4jnsgd1na2vs0mg"},{"bike_id":"cc06cad4-1ba5-4b99-a089-1e5671255834","system_id":"levelo_inurba_marseille","lat":43.29598,"lon":5.37721,"is_reserved":false,"is_disabled":false,"rental_uris":{"android":"levelo://app?vid=cc06cad4-1ba5-4b99-a089-1e5671255834","ios":"levelo://app?vid=cc06cad4-1ba5-4b99-a089-1e5671255834"},"vehicle_type_id":"4","last_reported":1739621688,"current_range_meters":38000,"station_id":"ce4bgi92rcd13ifvqb90","pricing_plan_id":"cebpf4jnsgd1na2vs0mg"},{"bike_id":"b3b0121c-d2f5-4bcd-aae6-f236573eef32","system_id":"levelo_inurba_marseille","lat":43.27082,"lon":5.40251,"is_reserved":false,"is_disabled":false,"rental_uris":{"android":"levelo://app?vid=b3b0121c-d2f5-4bcd-aae6-f236573eef32","ios":"levelo://app?vid=b3b0121c-d2f5-4bcd-aae6-f236573eef32"},"vehicle_type_id":"4","last_reported":1739621688,"current_range_meters":38800,"station_id":"ce4bhk92rcd13ifvqgc0","pricing_plan_id":"cebpf4jnsgd1na2vs0mg"},{"bike_id":"53b5f8d9-591b-4722-8b93-d03568f78034","system_id":"levelo_inurba_marseille","lat":43.28456,"lon":5.35883,"is_reserved":false,"is_disabled":false,"rental_uris":{"android":"levelo://app?vid=53b5f8d9-591b-4722-8b93-d03568f78034","ios":"levelo://app?vid=53b5f8d9-591b-4722-8b93-d03568f78034"},"vehicle_type_id":"4","last_reported":1739621688,"current_range_meters":25600,"station_id":"ce4bhah2rcd13ifvqei0","pricing_plan_id":"cebpf4jnsgd1na2vs0mg"},{"bike_id":"a8bece93-dbfc-4d1b-8ded-6678975fba2d","system_id":"levelo_inurba_marseille","lat":43.29578,"lon":5.36742,"is_reserved":false,"is_disabled":false,"rental_uris":{"android":"levelo://app?vid=a8bece93-dbfc-4d1b-8ded-6678975fba2d","ios":"levelo://app?vid=a8bece93-dbfc-4d1b-8ded-6678975fba2d"},"vehicle_type_id":"4","last_reported":1739621688,"current_range_meters":35200,"station_id":"ce4bgph2rcd13ifvqc2g","pricing_plan_id":"cebpf4jnsgd1na2vs0mg"},{"bike_id":"1d2187b0-d3c9-4f00-aaee-80b985a88d23","system_id":"levelo_inurba_marseille","lat":43.30202,"lon":5.39463,"is_reserved":false,"is_disabled":false,"rental_uris":{"android":"levelo://app?vid=1d2187b0-d3c9-4f00-aaee-80b985a88d23","ios":"levelo://app?vid=1d2187b0-d3c9-4f00-aaee-80b985a88d23"},"vehicle_type_id":"4","last_reported":1739621688,"current_range_meters":20800,"station_id":"ce4bh0p2rcd13ifvqd70","pricing_plan_id":"cebpf4jnsgd1na2vs0mg"},{"bike_id":"9de06f62-e014-4e5a-bd12-c29322ab9098","system_id":"levelo_inurba_marseille","lat":43.30948,"lon":5.39043,"is_reserved":false,"is_disabled":true,"rental_uris":{"android":"levelo://app?vid=9de06f62-e014-4e5a-bd12-c29322ab9098","ios":"levelo://app?vid=9de06f62-e014-4e5a-bd12-c29322ab9098"},"vehicle_type_id":"4","last_reported":1739621688,"current_range_meters":0,"station_id":"ce4bgup2rcd13ifvqco0","pricing_plan_id":"cebpf4jnsgd1na2vs0mg"},{"bike_id":"9f632daa-0745-4054-86b6-a68b5f988914","system_id":"levelo_inurba_marseille","lat":43.23184,"lon":5.39987,"is_reserved":false,"is_disabled":false,"rental_uris":{"android":"levelo://app?vid=9f632daa-0745-4054-86b6-a68b5f988914","ios":"levelo://app?vid=9f632daa-0745-4054-86b6-a68b5f988914"},"vehicle_type_id":"4","last_reported":1739621688,"current_range_meters":9200,"station_id":"ce4bhn12rcd13ifvqgqg","pricing_plan_id":"cebpf4jnsgd1na2vs0mg"},{"bike_id":"2a84e518-823c-4611-93b7-031f04718c55","system_id":"levelo_inurba_marseille","lat":43.2718,"lon":5.40993,"is_reserved":false,"is_disabled":false,"rental_uris":{"android":"levelo://app?vid=2a84e518-823c-4611-93b7-031f04718c55","ios":"levelo://app?vid=2a84e518-823c-4611-93b7-031f04718c55"},"vehicle_type_id":"4","last_reported":1739621688,"current_range_meters":22800,"station_id":"ce4bhl12rcd13ifvqgf0","pricing_plan_id":"cebpf4jnsgd1na2vs0mg"},{"bike_id":"e5e5a17e-27a5-454b-904b-e271a7fe6a76","system_id":"levelo_inurba_marseille","lat":43.28081,"lon":5.39634,"is_reserved":false,"is_disabled":false,"rental_uris":{"android":"levelo://app?vid=e5e5a17e-27a5-454b-904b-e271a7fe6a76","ios":"levelo://app?vid=e5e5a17e-27a5-454b-904b-e271a7fe6a76"},"vehicle_type_id":"4","last_reported":1739621688,"current_range_meters":39200,"station_id":"ce4bho12rcd13ifvqh2g","pricing_plan_id":"cebpf4jnsgd1na2vs0mg"},{"bike_id":"ddf1d674-41d6-443f-b0f1-1da7df267862","system_id":"levelo_inurba_marseille","lat":43.23053,"lon":5.35501,"is_reserved":false,"is_disabled":false,"rental_uris":{"android":"levelo://app?vid=ddf1d674-41d6-443f-b0f1-1da7df267862","ios":"levelo://app?vid=ddf1d674-41d6-443f-b0f1-1da7df267862"},"vehicle_type_id":"4","last_reported":1739621688,"current_range_meters":20800,"station_id":"cpo3342slgdg3j2ifvpg","pricing_plan_id":"cebpf4jnsgd1na2vs0mg"},{"bike_id":"b2850029-dc86-43ec-800e-0b100e3cac44","system_id":"levelo_inurba_marseille","lat":43.25135,"lon":5.40374,"is_reserved":false,"is_disabled":false,"rental_uris":{"android":"levelo://app?vid=b2850029-dc86-43ec-800e-0b100e3cac44","ios":"levelo://app?vid=b2850029-dc86-43ec-800e-0b100e3cac44"},"vehicle_type_id":"4","last_reported":1739621688,"current_range_meters":31200,"station_id":"","pricing_plan_id":"cebpf4jnsgd1na2vs0mg"},{"bike_id":"45d478f3-34a9-4671-9e6b-3e6e52015c4f","system_id":"levelo_inurba_marseille","lat":43.30449,"lon":5.3791,"is_reserved":false,"is_disabled":false,"rental_uris":{"android":"levelo://app?vid=45d478f3-34a9-4671-9e6b-3e6e52015c4f","ios":"levelo://app?vid=45d478f3-34a9-4671-9e6b-3e6e52015c4f"},"vehicle_type_id":"4","last_reported":1739621688,"current_range_meters":38800,"station_id":"ce4bgup2rcd13ifvqcn0","pricing_plan_id":"cebpf4jnsgd1na2vs0mg"},{"bike_id":"46f7dd7f-3698-4a4b-84b6-cdfa84e75594","system_id":"levelo_inurba_marseille","lat":43.23956,"lon":5.36632,"is_reserved":false,"is_disabled":false,"rental_uris":{"android":"levelo://app?vid=46f7dd7f-3698-4a4b-84b6-cdfa84e75594","ios":"levelo://app?vid=46f7dd7f-3698-4a4b-84b6-cdfa84e75594"},"vehicle_type_id":"4","last_reported":1739621688,"current_range_meters":27600,"station_id":"ce4bhi12rcd13ifvqfp0","pricing_plan_id":"cebpf4jnsgd1na2vs0mg"},{"bike_id":"d4fede80-356a-41a3-906f-1aa00c14c59d","system_id":"levelo_inurba_marseille","lat":43.255,"lon":5.3765,"is_reserved":false,"is_disabled":false,"rental_uris":{"android":"levelo://app?vid=d4fede80-356a-41a3-906f-1aa00c14c59d","ios":"levelo://app?vid=d4fede80-356a-41a3-906f-1aa00c14c59d"},"vehicle_type_id":"4","last_reported":1739621688,"current_range_meters":38800,"station_id":"ce4bhh12rcd13ifvqff0","pricing_plan_id":"cebpf4jnsgd1na2vs0mg"},{"bike_id":"75f9fa0d-3b24-44ce-91ab-c788c5bf7640","system_id":"levelo_inurba_marseille","lat":43.27633,"lon":5.36129,"is_reserved":false,"is_disabled":false,"rental_uris":{"android":"levelo://app?vid=75f9fa0d-3b24-44ce-91ab-c788c5bf7640","ios":"levelo://app?vid=75f9fa0d-3b24-44ce-91ab-c788c5bf7640"},"vehicle_type_id":"4","last_reported":1739621688,"current_range_meters":18000,"station_id":"ce4bgj92rcd13ifvqbe0","pricing_plan_id":"cebpf4jnsgd1na2vs0mg"},{"bike_id":"4099fe53-28e1-4b16-a9d0-fc1206e6c55b","system_id":"levelo_inurba_marseille","lat":43.30194,"lon":5.36625,"is_reserved":false,"is_disabled":false,"rental_uris":{"android":"levelo://app?vid=4099fe53-28e1-4b16-a9d0-fc1206e6c55b","ios":"levelo://app?vid=4099fe53-28e1-4b16-a9d0-fc1206e6c55b"},"vehicle_type_id":"4","last_reported":1739621688,"current_range_meters":35600,"station_id":"ce4bgrh2rcd13ifvqc8g","pricing_plan_id":"cebpf4jnsgd1na2vs0mg"},{"bike_id":"6fd14201-9274-4012-a310-3f01af072715","system_id":"levelo_inurba_marseille","lat":43.25131,"lon":5.40322,"is_reserved":false,"is_disabled":false,"rental_uris":{"android":"levelo://app?vid=6fd14201-9274-4012-a310-3f01af072715","ios":"levelo://app?vid=6fd14201-9274-4012-a310-3f01af072715"},"vehicle_type_id":"4","last_reported":1739621688,"current_range_meters":38800,"station_id":"ce4bhlh2rcd13ifvqgig","pricing_plan_id":"cebpf4jnsgd1na2vs0mg"},{"bike_id":"b439e73b-bfb3-4879-a082-bb8c52fd9a02","system_id":"levelo_inurba_marseille","lat":43.30142,"lon":5.37421,"is_reserved":false,"is_disabled":false,"rental_uris":{"android":"levelo://app?vid=b439e73b-bfb3-4879-a082-bb8c52fd9a02","ios":"levelo://app?vid=b439e73b-bfb3-4879-a082-bb8c52fd9a02"},"vehicle_type_id":"4","last_reported":1739621688,"current_range_meters":10800,"station_id":"ce4bgs92rcd13ifvqcc0","pricing_plan_id":"cebpf4jnsgd1na2vs0mg"},{"bike_id":"e9d71415-1817-4a43-bb37-1593c65a9a52","system_id":"levelo_inurba_marseille","lat":43.30419,"lon":5.41291,"is_reserved":false,"is_disabled":false,"rental_uris":{"android":"levelo://app?vid=e9d71415-1817-4a43-bb37-1593c65a9a52","ios":"levelo://app?vid=e9d71415-1817-4a43-bb37-1593c65a9a52"},"vehicle_type_id":"4","last_reported":1739621688,"current_range_meters":9600,"station_id":"ce4bhop2rcd13ifvqh8g","pricing_plan_id":"cebpf4jnsgd1na2vs0mg"},{"bike_id":"2f79e81a-7027-4c82-8b0a-92ebacbe6365","system_id":"levelo_inurba_marseille","lat":43.26804,"lon":5.40266,"is_reserved":false,"is_disabled":false,"rental_uris":{"android":"levelo://app?vid=2f79e81a-7027-4c82-8b0a-92ebacbe6365","ios":"levelo://app?vid=2f79e81a-7027-4c82-8b0a-92ebacbe6365"},"vehicle_type_id":"4","last_reported":1739621688,"current_range_meters":33600,"station_id":"ce501612rcd8frsf0b60","pricing_plan_id":"cebpf4jnsgd1na2vs0mg"},{"bike_id":"a8bc8483-ceef-456e-92ec-efcc9ae8cb95","system_id":"levelo_inurba_marseille","lat":43.27614,"lon":5.36117,"is_reserved":false,"is_disabled":false,"rental_uris":{"android":"levelo://app?vid=a8bc8483-ceef-456e-92ec-efcc9ae8cb95","ios":"levelo://app?vid=a8bc8483-ceef-456e-92ec-efcc9ae8cb95"},"vehicle_type_id":"4","last_reported":1739621688,"current_range_meters":36400,"station_id":"ce4bgj92rcd13ifvqbe0","pricing_plan_id":"cebpf4jnsgd1na2vs0mg"},{"bike_id":"4aaa0363-f313-42f1-83f9-2f2886c48346","system_id":"levelo_inurba_marseille","lat":43.313928,"lon":5.388017,"is_reserved":false,"is_disabled":true,"rental_uris":{"android":"levelo://app?vid=4aaa0363-f313-42f1-83f9-2f2886c48346","ios":"levelo://app?vid=4aaa0363-f313-42f1-83f9-2f2886c48346"},"vehicle_type_id":"4","last_reported":1739621688,"current_range_meters":0,"station_id":"","pricing_plan_id":"cebpf4jnsgd1na2vs0mg"},{"bike_id":"2a1b84b5-5fce-4913-8c8d-9bc2e41daef1","system_id":"levelo_inurba_marseille","lat":43.29268,"lon":5.3682,"is_reserved":false,"is_disabled":false,"rental_uris":{"android":"levelo://app?vid=2a1b84b5-5fce-4913-8c8d-9bc2e41daef1","ios":"levelo://app?vid=2a1b84b5-5fce-4913-8c8d-9bc2e41daef1"},"vehicle_type_id":"4","last_reported":1739621688,"current_range_meters":22800,"station_id":"ce4bhbp2rcd13ifvqesg","pricing_plan_id":"cebpf4jnsgd1na2vs0mg"},{"bike_id":"43dc5574-eed0-4b1d-9289-f32002400d84","system_id":"levelo_inurba_marseille","lat":43.24181,"lon":5.36403,"is_reserved":false,"is_disabled":false,"rental_uris":{"android":"levelo://app?vid=43dc5574-eed0-4b1d-9289-f32002400d84","ios":"levelo://app?vid=43dc5574-eed0-4b1d-9289-f32002400d84"},"vehicle_type_id":"4","last_reported":1739621688,"current_range_meters":11600,"station_id":"cpo36qri1sfpv3e86is0","pricing_plan_id":"cebpf4jnsgd1na2vs0mg"},{"bike_id":"b7675672-ea91-4212-a3c2-1e75ea117425","system_id":"levelo_inurba_marseille","lat":43.28169,"lon":5.42635,"is_reserved":false,"is_disabled":true,"rental_uris":{"android":"levelo://app?vid=b7675672-ea91-4212-a3c2-1e75ea117425","ios":"levelo://app?vid=b7675672-ea91-4212-a3c2-1e75ea117425"},"vehicle_type_id":"4","last_reported":1739621688,"current_range_meters":0,"station_id":"ce4bhnh2rcd13ifvqgug","pricing_plan_id":"cebpf4jnsgd1na2vs0mg"},{"bike_id":"008ed16f-d916-42dc-9845-48f81c518e29","system_id":"levelo_inurba_marseille","lat":43.30192,"lon":5.3661,"is_reserved":false,"is_disabled":false,"rental_uris":{"android":"levelo://app?vid=008ed16f-d916-42dc-9845-48f81c518e29","ios":"levelo://app?vid=008ed16f-d916-42dc-9845-48f81c518e29"},"vehicle_type_id":"4","last_reported":1739621688,"current_range_meters":39200,"station_id":"ce4bgrh2rcd13ifvqc8g","pricing_plan_id":"cebpf4jnsgd1na2vs0mg"},{"bike_id":"4235ce89-19ca-4588-835f-77ed16dc3abc","system_id":"levelo_inurba_marseille","lat":43.28178,"lon":5.42633,"is_reserved":false,"is_disabled":false,"rental_uris":{"android":"levelo://app?vid=4235ce89-19ca-4588-835f-77ed16dc3abc","ios":"levelo://app?vid=4235ce89-19ca-4588-835f-77ed16dc3abc"},"vehicle_type_id":"4","last_reported":1739621688,"current_range_meters":38000,"station_id":"ce4bhnh2rcd13ifvqgug","pricing_plan_id":"cebpf4jnsgd1na2vs0mg"},{"bike_id":"a40ecc08-bf05-4a6f-ad20-96a1ea035de9","system_id":"levelo_inurba_marseille","lat":43.29577,"lon":5.37503,"is_reserved":false,"is_disabled":false,"rental_uris":{"android":"levelo://app?vid=a40ecc08-bf05-4a6f-ad20-96a1ea035de9","ios":"levelo://app?vid=a40ecc08-bf05-4a6f-ad20-96a1ea035de9"},"vehicle_type_id":"4","last_reported":1739621688,"current_range_meters":36400,"station_id":"ce4bgh92rcd13ifvqb50","pricing_plan_id":"cebpf4jnsgd1na2vs0mg"},{"bike_id":"9bcc3779-160f-4f11-a908-15bc41b1ac43","system_id":"levelo_inurba_marseille","lat":43.28001,"lon":5.39989,"is_reserved":false,"is_disabled":true,"rental_uris":{"android":"levelo://app?vid=9bcc3779-160f-4f11-a908-15bc41b1ac43","ios":"levelo://app?vid=9bcc3779-160f-4f11-a908-15bc41b1ac43"},"vehicle_type_id":"4","last_reported":1739621688,"current_range_meters":7200,"station_id":"ce4bho92rcd13ifvqh4g","pricing_plan_id":"cebpf4jnsgd1na2vs0mg"},{"bike_id":"92d1ee13-e974-447f-aca6-7b5bff8f8b19","system_id":"levelo_inurba_marseille","lat":43.280716,"lon":5.396621,"is_reserved":false,"is_disabled":false,"rental_uris":{"android":"levelo://app?vid=92d1ee13-e974-447f-aca6-7b5bff8f8b19","ios":"levelo://app?vid=92d1ee13-e974-447f-aca6-7b5bff8f8b19"},"vehicle_type_id":"4","last_reported":1739621688,"current_range_meters":38800,"station_id":"ce4bho12rcd13ifvqh2g","pricing_plan_id":"cebpf4jnsgd1na2vs0mg"},{"bike_id":"1969e442-fa3c-497a-919d-b963880af2c7","system_id":"levelo_inurba_marseille","lat":43.30962,"lon":5.39049,"is_reserved":false,"is_disabled":false,"rental_uris":{"android":"levelo://app?vid=1969e442-fa3c-497a-919d-b963880af2c7","ios":"levelo://app?vid=1969e442-fa3c-497a-919d-b963880af2c7"},"vehicle_type_id":"4","last_reported":1739621688,"current_range_meters":35600,"station_id":"ce4bgup2rcd13ifvqco0","pricing_plan_id":"cebpf4jnsgd1na2vs0mg"},{"bike_id":"5f431628-1b2d-4a9e-9493-29ef6605563f","system_id":"levelo_inurba_marseille","lat":43.29528,"lon":5.39034,"is_reserved":false,"is_disabled":true,"rental_uris":{"android":"levelo://app?vid=5f431628-1b2d-4a9e-9493-29ef6605563f","ios":"levelo://app?vid=5f431628-1b2d-4a9e-9493-29ef6605563f"},"vehicle_type_id":"4","last_reported":1739621688,"current_range_meters":38000,"station_id":"ce4bh3p2rcd13ifvqdp0","pricing_plan_id":"cebpf4jnsgd1na2vs0mg"},{"bike_id":"dbfb7df1-d758-448c-9075-e7feb5f00d8e","system_id":"levelo_inurba_marseille","lat":43.24124,"lon":5.37812,"is_reserved":false,"is_disabled":false,"rental_uris":{"android":"levelo://app?vid=dbfb7df1-d758-448c-9075-e7feb5f00d8e","ios":"levelo://app?vid=dbfb7df1-d758-448c-9075-e7feb5f00d8e"},"vehicle_type_id":"4","last_reported":1739621688,"current_range_meters":18000,"station_id":"ce4bhnp2rcd13ifvqgvg","pricing_plan_id":"cebpf4jnsgd1na2vs0mg"},{"bike_id":"f66f74df-96d8-4ce3-87c1-7f9b86778635","system_id":"levelo_inurba_marseille","lat":43.22922,"lon":5.35384,"is_reserved":false,"is_disabled":false,"rental_uris":{"android":"levelo://app?vid=f66f74df-96d8-4ce3-87c1-7f9b86778635","ios":"levelo://app?vid=f66f74df-96d8-4ce3-87c1-7f9b86778635"},"vehicle_type_id":"4","last_reported":1739621688,"current_range_meters":22800,"station_id":"cpo3532slgdg3j2ikp40","pricing_plan_id":"cebpf4jnsgd1na2vs0mg"},{"bike_id":"e031351b-efdb-4640-8255-b69e1640bbff","system_id":"levelo_inurba_marseille","lat":43.24169,"lon":5.36397,"is_reserved":false,"is_disabled":false,"rental_uris":{"android":"levelo://app?vid=e031351b-efdb-4640-8255-b69e1640bbff","ios":"levelo://app?vid=e031351b-efdb-4640-8255-b69e1640bbff"},"vehicle_type_id":"4","last_reported":1739621688,"current_range_meters":30000,"station_id":"cpo36qri1sfpv3e86is0","pricing_plan_id":"cebpf4jnsgd1na2vs0mg"},{"bike_id":"ffa97390-41b6-40b4-903d-6bb69ec49093","system_id":"levelo_inurba_marseille","lat":43.29975,"lon":5.38479,"is_reserved":false,"is_disabled":false,"rental_uris":{"android":"levelo://app?vid=ffa97390-41b6-40b4-903d-6bb69ec49093","ios":"levelo://app?vid=ffa97390-41b6-40b4-903d-6bb69ec49093"},"vehicle_type_id":"4","last_reported":1739621688,"current_range_meters":9600,"station_id":"ce4bgj92rcd13ifvqbd0","pricing_plan_id":"cebpf4jnsgd1na2vs0mg"},{"bike_id":"98a8dae0-84f1-4836-a1a2-1b7ff39aee19","system_id":"levelo_inurba_marseille","lat":43.30966,"lon":5.39051,"is_reserved":false,"is_disabled":false,"rental_uris":{"android":"levelo://app?vid=98a8dae0-84f1-4836-a1a2-1b7ff39aee19","ios":"levelo://app?vid=98a8dae0-84f1-4836-a1a2-1b7ff39aee19"},"vehicle_type_id":"4","last_reported":1739621688,"current_range_meters":38800,"station_id":"ce4bgup2rcd13ifvqco0","pricing_plan_id":"cebpf4jnsgd1na2vs0mg"},{"bike_id":"2e015c42-cc40-4232-915d-7ff51faaa1bf","system_id":"levelo_inurba_marseille","lat":43.27378,"lon":5.36236,"is_reserved":false,"is_disabled":false,"rental_uris":{"android":"levelo://app?vid=2e015c42-cc40-4232-915d-7ff51faaa1bf","ios":"levelo://app?vid=2e015c42-cc40-4232-915d-7ff51faaa1bf"},"vehicle_type_id":"4","last_reported":1739621688,"current_range_meters":6400,"station_id":"ce4bhbh2rcd13ifvqeo0","pricing_plan_id":"cebpf4jnsgd1na2vs0mg"},{"bike_id":"abc5a5d7-7aaa-4f21-90f0-4be14faa3a2a","system_id":"levelo_inurba_marseille","lat":43.23052,"lon":5.35486,"is_reserved":false,"is_disabled":false,"rental_uris":{"android":"levelo://app?vid=abc5a5d7-7aaa-4f21-90f0-4be14faa3a2a","ios":"levelo://app?vid=abc5a5d7-7aaa-4f21-90f0-4be14faa3a2a"},"vehicle_type_id":"4","last_reported":1739621688,"current_range_meters":16800,"station_id":"cpo3342slgdg3j2ifvpg","pricing_plan_id":"cebpf4jnsgd1na2vs0mg"},{"bike_id":"62cd5e8a-a44c-481a-997c-3bf942ea08f1","system_id":"levelo_inurba_marseille","lat":43.29346,"lon":5.40294,"is_reserved":false,"is_disabled":false,"rental_uris":{"android":"levelo://app?vid=62cd5e8a-a44c-481a-997c-3bf942ea08f1","ios":"levelo://app?vid=62cd5e8a-a44c-481a-997c-3bf942ea08f1"},"vehicle_type_id":"4","last_reported":1739621688,"current_range_meters":25600,"station_id":"ce4bgt12rcd13ifvqcd0","pricing_plan_id":"cebpf4jnsgd1na2vs0mg"},{"bike_id":"eeb183ab-8558-448d-af48-048fbdd7b938","system_id":"levelo_inurba_marseille","lat":43.29006,"lon":5.35607,"is_reserved":false,"is_disabled":false,"rental_uris":{"android":"levelo://app?vid=eeb183ab-8558-448d-af48-048fbdd7b938","ios":"levelo://app?vid=eeb183ab-8558-448d-af48-048fbdd7b938"},"vehicle_type_id":"4","last_reported":1739621688,"current_range_meters":18000,"station_id":"ce4bhb92rcd13ifvqen0","pricing_plan_id":"cebpf4jnsgd1na2vs0mg"},{"bike_id":"b9c301ae-5f2d-48b1-a011-54e189ab892d","system_id":"levelo_inurba_marseille","lat":43.27321,"lon":5.39092,"is_reserved":false,"is_disabled":false,"rental_uris":{"android":"levelo://app?vid=b9c301ae-5f2d-48b1-a011-54e189ab892d","ios":"levelo://app?vid=b9c301ae-5f2d-48b1-a011-54e189ab892d"},"vehicle_type_id":"4","last_reported":1739621688,"current_range_meters":20800,"station_id":"ce4bhgp2rcd13ifvqfe0","pricing_plan_id":"cebpf4jnsgd1na2vs0mg"},{"bike_id":"ad4af932-f51b-41b8-983b-7e431dcc24a9","system_id":"levelo_inurba_marseille","lat":43.31131,"lon":5.38261,"is_reserved":false,"is_disabled":true,"rental_uris":{"android":"levelo://app?vid=ad4af932-f51b-41b8-983b-7e431dcc24a9","ios":"levelo://app?vid=ad4af932-f51b-41b8-983b-7e431dcc24a9"},"vehicle_type_id":"4","last_reported":1739621688,"current_range_meters":0,"station_id":"","pricing_plan_id":"cebpf4jnsgd1na2vs0mg"},{"bike_id":"95d42703-1a37-4cb4-8b06-69616f6b8e6d","system_id":"levelo_inurba_marseille","lat":43.2768,"lon":5.38911,"is_reserved":false,"is_disabled":true,"rental_uris":{"android":"levelo://app?vid=95d42703-1a37-4cb4-8b06-69616f6b8e6d","ios":"levelo://app?vid=95d42703-1a37-4cb4-8b06-69616f6b8e6d"},"vehicle_type_id":"4","last_reported":1739621688,"current_range_meters":37600,"station_id":"ce4bhi12rcd13ifvqfo0","pricing_plan_id":"cebpf4jnsgd1na2vs0mg"},{"bike_id":"492bcbb6-9023-4459-9b9d-6ec125624bb4","system_id":"levelo_inurba_marseille","lat":43.25508,"lon":5.37644,"is_reserved":false,"is_disabled":false,"rental_uris":{"android":"levelo://app?vid=492bcbb6-9023-4459-9b9d-6ec125624bb4","ios":"levelo://app?vid=492bcbb6-9023-4459-9b9d-6ec125624bb4"},"vehicle_type_id":"4","last_reported":1739621688,"current_range_meters":38800,"station_id":"ce4bhh12rcd13ifvqff0","pricing_plan_id":"cebpf4jnsgd1na2vs0mg"},{"bike_id":"dfb8b4bf-66b7-4f69-91ef-2703e7099d0d","system_id":"levelo_inurba_marseille","lat":43.26787,"lon":5.3942,"is_reserved":false,"is_disabled":true,"rental_uris":{"android":"levelo://app?vid=dfb8b4bf-66b7-4f69-91ef-2703e7099d0d","ios":"levelo://app?vid=dfb8b4bf-66b7-4f69-91ef-2703e7099d0d"},"vehicle_type_id":"4","last_reported":1739621688,"current_range_meters":4800,"station_id":"ce4bhh12rcd13ifvqfg0","pricing_plan_id":"cebpf4jnsgd1na2vs0mg"},{"bike_id":"0bbfac10-35d9-4a62-a88d-1e4a98fee6b9","system_id":"levelo_inurba_marseille","lat":43.3037,"lon":5.41879,"is_reserved":false,"is_disabled":false,"rental_uris":{"android":"levelo://app?vid=0bbfac10-35d9-4a62-a88d-1e4a98fee6b9","ios":"levelo://app?vid=0bbfac10-35d9-4a62-a88d-1e4a98fee6b9"},"vehicle_type_id":"4","last_reported":1739621688,"current_range_meters":38400,"station_id":"ce4bhop2rcd13ifvqh7g","pricing_plan_id":"cebpf4jnsgd1na2vs0mg"},{"bike_id":"3893b19f-ff96-4eec-9ace-a6c59815c4d1","system_id":"levelo_inurba_marseille","lat":43.29,"lon":5.35574,"is_reserved":false,"is_disabled":false,"rental_uris":{"android":"levelo://app?vid=3893b19f-ff96-4eec-9ace-a6c59815c4d1","ios":"levelo://app?vid=3893b19f-ff96-4eec-9ace-a6c59815c4d1"},"vehicle_type_id":"4","last_reported":1739621688,"current_range_meters":38800,"station_id":"ce4bhb92rcd13ifvqen0","pricing_plan_id":"cebpf4jnsgd1na2vs0mg"},{"bike_id":"038bc50d-e430-4e9a-a64b-f2da1bb07fe9","system_id":"levelo_inurba_marseille","lat":43.30793,"lon":5.38158,"is_reserved":false,"is_disabled":false,"rental_uris":{"android":"levelo://app?vid=038bc50d-e430-4e9a-a64b-f2da1bb07fe9","ios":"levelo://app?vid=038bc50d-e430-4e9a-a64b-f2da1bb07fe9"},"vehicle_type_id":"4","last_reported":1739621688,"current_range_meters":17600,"station_id":"ce4bgt12rcd13ifvqce0","pricing_plan_id":"cebpf4jnsgd1na2vs0mg"},{"bike_id":"aeb403d4-9cef-44b2-b32c-cb912f49efa3","system_id":"levelo_inurba_marseille","lat":43.23199,"lon":5.35551,"is_reserved":false,"is_disabled":false,"rental_uris":{"android":"levelo://app?vid=aeb403d4-9cef-44b2-b32c-cb912f49efa3","ios":"levelo://app?vid=aeb403d4-9cef-44b2-b32c-cb912f49efa3"},"vehicle_type_id":"4","last_reported":1739621688,"current_range_meters":33600,"station_id":"ce4bhu92rcd13ifvqi70","pricing_plan_id":"cebpf4jnsgd1na2vs0mg"},{"bike_id":"f00a432d-6e5e-4ca0-a2b9-2ac1fcc4c4f4","system_id":"levelo_inurba_marseille","lat":43.279964,"lon":5.400173,"is_reserved":false,"is_disabled":false,"rental_uris":{"android":"levelo://app?vid=f00a432d-6e5e-4ca0-a2b9-2ac1fcc4c4f4","ios":"levelo://app?vid=f00a432d-6e5e-4ca0-a2b9-2ac1fcc4c4f4"},"vehicle_type_id":"4","last_reported":1739621688,"current_range_meters":38800,"station_id":"ce4bho92rcd13ifvqh4g","pricing_plan_id":"cebpf4jnsgd1na2vs0mg"},{"bike_id":"a750a14f-62f9-42fb-ab51-ebfcb3c0fbfb","system_id":"levelo_inurba_marseille","lat":43.29583,"lon":5.37497,"is_reserved":false,"is_disabled":false,"rental_uris":{"android":"levelo://app?vid=a750a14f-62f9-42fb-ab51-ebfcb3c0fbfb","ios":"levelo://app?vid=a750a14f-62f9-42fb-ab51-ebfcb3c0fbfb"},"vehicle_type_id":"4","last_reported":1739621688,"current_range_meters":36000,"station_id":"ce4bgh92rcd13ifvqb50","pricing_plan_id":"cebpf4jnsgd1na2vs0mg"},{"bike_id":"201b0315-f60e-45b0-a64d-ce13682f54e1","system_id":"levelo_inurba_marseille","lat":43.29044,"lon":5.35893,"is_reserved":false,"is_disabled":false,"rental_uris":{"android":"levelo://app?vid=201b0315-f60e-45b0-a64d-ce13682f54e1","ios":"levelo://app?vid=201b0315-f60e-45b0-a64d-ce13682f54e1"},"vehicle_type_id":"4","last_reported":1739621688,"current_range_meters":38800,"station_id":"ce4bha92rcd13ifvqeg0","pricing_plan_id":"cebpf4jnsgd1na2vs0mg"},{"bike_id":"63ea1146-6635-4ab9-8ded-196ccb45282d","system_id":"levelo_inurba_marseille","lat":43.230606,"lon":5.354893,"is_reserved":false,"is_disabled":false,"rental_uris":{"android":"levelo://app?vid=63ea1146-6635-4ab9-8ded-196ccb45282d","ios":"levelo://app?vid=63ea1146-6635-4ab9-8ded-196ccb45282d"},"vehicle_type_id":"4","last_reported":1739621688,"current_range_meters":17600,"station_id":"cpo3342slgdg3j2ifvpg","pricing_plan_id":"cebpf4jnsgd1na2vs0mg"},{"bike_id":"d4c8c5d0-a371-434f-9621-65161baca610","system_id":"levelo_inurba_marseille","lat":43.28609,"lon":5.3706,"is_reserved":false,"is_disabled":false,"rental_uris":{"android":"levelo://app?vid=d4c8c5d0-a371-434f-9621-65161baca610","ios":"levelo://app?vid=d4c8c5d0-a371-434f-9621-65161baca610"},"vehicle_type_id":"4","last_reported":1739621688,"current_range_meters":33200,"station_id":"ce4bht12rcd13ifvqi60","pricing_plan_id":"cebpf4jnsgd1na2vs0mg"},{"bike_id":"33050acd-e97e-40d3-92fe-a0e277079524","system_id":"levelo_inurba_marseille","lat":43.29579,"lon":5.36741,"is_reserved":false,"is_disabled":false,"rental_uris":{"android":"levelo://app?vid=33050acd-e97e-40d3-92fe-a0e277079524","ios":"levelo://app?vid=33050acd-e97e-40d3-92fe-a0e277079524"},"vehicle_type_id":"4","last_reported":1739621688,"current_range_meters":35600,"station_id":"ce4bgph2rcd13ifvqc2g","pricing_plan_id":"cebpf4jnsgd1na2vs0mg"},{"bike_id":"0077e838-be06-495d-af23-ed2035c93956","system_id":"levelo_inurba_marseille","lat":43.2957,"lon":5.37521,"is_reserved":false,"is_disabled":false,"rental_uris":{"android":"levelo://app?vid=0077e838-be06-495d-af23-ed2035c93956","ios":"levelo://app?vid=0077e838-be06-495d-af23-ed2035c93956"},"vehicle_type_id":"4","last_reported":1739621688,"current_range_meters":35200,"station_id":"ce4bgh92rcd13ifvqb50","pricing_plan_id":"cebpf4jnsgd1na2vs0mg"},{"bike_id":"11138ea4-80af-4eeb-85e3-972c419a858a","system_id":"levelo_inurba_marseille","lat":43.29506,"lon":5.37499,"is_reserved":false,"is_disabled":false,"rental_uris":{"android":"levelo://app?vid=11138ea4-80af-4eeb-85e3-972c419a858a","ios":"levelo://app?vid=11138ea4-80af-4eeb-85e3-972c419a858a"},"vehicle_type_id":"4","last_reported":1739621688,"current_range_meters":38800,"station_id":"ce4bgkp2rcd13ifvqbmg","pricing_plan_id":"cebpf4jnsgd1na2vs0mg"},{"bike_id":"ea20de0c-b259-4209-8d1e-89d2fe06efeb","system_id":"levelo_inurba_marseille","lat":43.248,"lon":5.3746,"is_reserved":false,"is_disabled":false,"rental_uris":{"android":"levelo://app?vid=ea20de0c-b259-4209-8d1e-89d2fe06efeb","ios":"levelo://app?vid=ea20de0c-b259-4209-8d1e-89d2fe06efeb"},"vehicle_type_id":"4","last_reported":1739621688,"current_range_meters":28400,"station_id":"ce4bhgh2rcd13ifvqfb0","pricing_plan_id":"cebpf4jnsgd1na2vs0mg"},{"bike_id":"c1665b9a-8804-49fb-a2e7-87ab5bdd8b6d","system_id":"levelo_inurba_marseille","lat":43.33735,"lon":5.39183,"is_reserved":false,"is_disabled":false,"rental_uris":{"android":"levelo://app?vid=c1665b9a-8804-49fb-a2e7-87ab5bdd8b6d","ios":"levelo://app?vid=c1665b9a-8804-49fb-a2e7-87ab5bdd8b6d"},"vehicle_type_id":"4","last_reported":1739621688,"current_range_meters":38800,"station_id":"ce4bhr92rcd13ifvqhsg","pricing_plan_id":"cebpf4jnsgd1na2vs0mg"},{"bike_id":"8bc9d648-50a7-42aa-ab90-62df0b8cc213","system_id":"levelo_inurba_marseille","lat":43.287037,"lon":5.379467,"is_reserved":false,"is_disabled":false,"rental_uris":{"android":"levelo://app?vid=8bc9d648-50a7-42aa-ab90-62df0b8cc213","ios":"levelo://app?vid=8bc9d648-50a7-42aa-ab90-62df0b8cc213"},"vehicle_type_id":"4","last_reported":1739621688,"current_range_meters":37600,"station_id":"ce4bh9p2rcd13ifvqec0","pricing_plan_id":"cebpf4jnsgd1na2vs0mg"},{"bike_id":"5c381eca-4257-4fd5-9296-339ca91bf680","system_id":"levelo_inurba_marseille","lat":43.32019,"lon":5.38148,"is_reserved":false,"is_disabled":true,"rental_uris":{"android":"levelo://app?vid=5c381eca-4257-4fd5-9296-339ca91bf680","ios":"levelo://app?vid=5c381eca-4257-4fd5-9296-339ca91bf680"},"vehicle_type_id":"4","last_reported":1739621688,"current_range_meters":1200,"station_id":"ce4bhr12rcd13ifvqhpg","pricing_plan_id":"cebpf4jnsgd1na2vs0mg"},{"bike_id":"282211ad-bbca-4d13-9801-d0ebb9c1483d","system_id":"levelo_inurba_marseille","lat":43.29552,"lon":5.42276,"is_reserved":false,"is_disabled":false,"rental_uris":{"android":"levelo://app?vid=282211ad-bbca-4d13-9801-d0ebb9c1483d","ios":"levelo://app?vid=282211ad-bbca-4d13-9801-d0ebb9c1483d"},"vehicle_type_id":"4","last_reported":1739621688,"current_range_meters":26000,"station_id":"ce4bhph2rcd13ifvqhdg","pricing_plan_id":"cebpf4jnsgd1na2vs0mg"},{"bike_id":"a27c9ce4-f3a5-4f72-8d2b-b0b55f360911","system_id":"levelo_inurba_marseille","lat":43.30955,"lon":5.39051,"is_reserved":false,"is_disabled":false,"rental_uris":{"android":"levelo://app?vid=a27c9ce4-f3a5-4f72-8d2b-b0b55f360911","ios":"levelo://app?vid=a27c9ce4-f3a5-4f72-8d2b-b0b55f360911"},"vehicle_type_id":"4","last_reported":1739621688,"current_range_meters":31200,"station_id":"ce4bgup2rcd13ifvqco0","pricing_plan_id":"cebpf4jnsgd1na2vs0mg"},{"bike_id":"d157203c-3a5b-4bbc-9638-6eefce740d5e","system_id":"levelo_inurba_marseille","lat":43.23195,"lon":5.35548,"is_reserved":false,"is_disabled":false,"rental_uris":{"android":"levelo://app?vid=d157203c-3a5b-4bbc-9638-6eefce740d5e","ios":"levelo://app?vid=d157203c-3a5b-4bbc-9638-6eefce740d5e"},"vehicle_type_id":"4","last_reported":1739621688,"current_range_meters":24800,"station_id":"ce4bhu92rcd13ifvqi70","pricing_plan_id":"cebpf4jnsgd1na2vs0mg"},{"bike_id":"ab761f08-1e0a-4231-9bcc-bde3a6c90930","system_id":"levelo_inurba_marseille","lat":43.29963,"lon":5.41332,"is_reserved":false,"is_disabled":false,"rental_uris":{"android":"levelo://app?vid=ab761f08-1e0a-4231-9bcc-bde3a6c90930","ios":"levelo://app?vid=ab761f08-1e0a-4231-9bcc-bde3a6c90930"},"vehicle_type_id":"4","last_reported":1739621688,"current_range_meters":38800,"station_id":"ce4bhp12rcd13ifvqh9g","pricing_plan_id":"cebpf4jnsgd1na2vs0mg"},{"bike_id":"3067cc11-ea3d-4497-a8fa-3717c9b08d94","system_id":"levelo_inurba_marseille","lat":43.27343,"lon":5.39137,"is_reserved":false,"is_disabled":true,"rental_uris":{"android":"levelo://app?vid=3067cc11-ea3d-4497-a8fa-3717c9b08d94","ios":"levelo://app?vid=3067cc11-ea3d-4497-a8fa-3717c9b08d94"},"vehicle_type_id":"4","last_reported":1739621688,"current_range_meters":38000,"station_id":"ce4bhgp2rcd13ifvqfe0","pricing_plan_id":"cebpf4jnsgd1na2vs0mg"},{"bike_id":"0006c911-98f5-43c9-a001-26fa2e79094b","system_id":"levelo_inurba_marseille","lat":43.3097,"lon":5.39062,"is_reserved":false,"is_disabled":false,"rental_uris":{"android":"levelo://app?vid=0006c911-98f5-43c9-a001-26fa2e79094b","ios":"levelo://app?vid=0006c911-98f5-43c9-a001-26fa2e79094b"},"vehicle_type_id":"4","last_reported":1739621688,"current_range_meters":35600,"station_id":"ce4bgup2rcd13ifvqco0","pricing_plan_id":"cebpf4jnsgd1na2vs0mg"},{"bike_id":"6a2bb3c9-0567-4da7-8fd1-380f62448aab","system_id":"levelo_inurba_marseille","lat":43.2293,"lon":5.35381,"is_reserved":false,"is_disabled":false,"rental_uris":{"android":"levelo://app?vid=6a2bb3c9-0567-4da7-8fd1-380f62448aab","ios":"levelo://app?vid=6a2bb3c9-0567-4da7-8fd1-380f62448aab"},"vehicle_type_id":"4","last_reported":1739621688,"current_range_meters":20400,"station_id":"cpo3532slgdg3j2ikp40","pricing_plan_id":"cebpf4jnsgd1na2vs0mg"},{"bike_id":"de94d0d2-9315-430d-8c68-1e9797cfe35c","system_id":"levelo_inurba_marseille","lat":43.27303,"lon":5.39085,"is_reserved":false,"is_disabled":false,"rental_uris":{"android":"levelo://app?vid=de94d0d2-9315-430d-8c68-1e9797cfe35c","ios":"levelo://app?vid=de94d0d2-9315-430d-8c68-1e9797cfe35c"},"vehicle_type_id":"4","last_reported":1739621688,"current_range_meters":38400,"station_id":"ce4bhgp2rcd13ifvqfe0","pricing_plan_id":"cebpf4jnsgd1na2vs0mg"},{"bike_id":"b349ca26-b9bd-44a5-a912-d214a2826890","system_id":"levelo_inurba_marseille","lat":43.24664,"lon":5.38932,"is_reserved":false,"is_disabled":false,"rental_uris":{"android":"levelo://app?vid=b349ca26-b9bd-44a5-a912-d214a2826890","ios":"levelo://app?vid=b349ca26-b9bd-44a5-a912-d214a2826890"},"vehicle_type_id":"4","last_reported":1739621688,"current_range_meters":38800,"station_id":"ce4bhg12rcd13ifvqf60","pricing_plan_id":"cebpf4jnsgd1na2vs0mg"},{"bike_id":"d80860fa-7cf7-4ae7-befb-26e8065381a1","system_id":"levelo_inurba_marseille","lat":43.23198,"lon":5.35534,"is_reserved":false,"is_disabled":false,"rental_uris":{"android":"levelo://app?vid=d80860fa-7cf7-4ae7-befb-26e8065381a1","ios":"levelo://app?vid=d80860fa-7cf7-4ae7-befb-26e8065381a1"},"vehicle_type_id":"4","last_reported":1739621688,"current_range_meters":22800,"station_id":"ce4bhu92rcd13ifvqi70","pricing_plan_id":"cebpf4jnsgd1na2vs0mg"},{"bike_id":"d11b94f6-e46e-4cb9-8c5a-a5b56a732eb0","system_id":"levelo_inurba_marseille","lat":43.32022,"lon":5.37697,"is_reserved":false,"is_disabled":false,"rental_uris":{"android":"levelo://app?vid=d11b94f6-e46e-4cb9-8c5a-a5b56a732eb0","ios":"levelo://app?vid=d11b94f6-e46e-4cb9-8c5a-a5b56a732eb0"},"vehicle_type_id":"4","last_reported":1739621688,"current_range_meters":38800,"station_id":"","pricing_plan_id":"cebpf4jnsgd1na2vs0mg"},{"bike_id":"dcb69e46-c70b-46b4-b4ff-79b0e58babee","system_id":"levelo_inurba_marseille","lat":43.25922,"lon":5.40874,"is_reserved":false,"is_disabled":false,"rental_uris":{"android":"levelo://app?vid=dcb69e46-c70b-46b4-b4ff-79b0e58babee","ios":"levelo://app?vid=dcb69e46-c70b-46b4-b4ff-79b0e58babee"},"vehicle_type_id":"4","last_reported":1739621688,"current_range_meters":35200,"station_id":"ce4bhm92rcd13ifvqglg","pricing_plan_id":"cebpf4jnsgd1na2vs0mg"},{"bike_id":"47ef3a27-cf04-4369-bc44-2fee4bbfaa10","system_id":"levelo_inurba_marseille","lat":43.24662,"lon":5.38174,"is_reserved":false,"is_disabled":true,"rental_uris":{"android":"levelo://app?vid=47ef3a27-cf04-4369-bc44-2fee4bbfaa10","ios":"levelo://app?vid=47ef3a27-cf04-4369-bc44-2fee4bbfaa10"},"vehicle_type_id":"4","last_reported":1739621688,"current_range_meters":14800,"station_id":"ce4bhih2rcd13ifvqfr0","pricing_plan_id":"cebpf4jnsgd1na2vs0mg"},{"bike_id":"092bbe62-c706-481f-afe7-724ebb74d929","system_id":"levelo_inurba_marseille","lat":43.29358,"lon":5.37817,"is_reserved":false,"is_disabled":false,"rental_uris":{"android":"levelo://app?vid=092bbe62-c706-481f-afe7-724ebb74d929","ios":"levelo://app?vid=092bbe62-c706-481f-afe7-724ebb74d929"},"vehicle_type_id":"4","last_reported":1739621688,"current_range_meters":12400,"station_id":"ce4bgjh2rcd13ifvqbf0","pricing_plan_id":"cebpf4jnsgd1na2vs0mg"},{"bike_id":"5dd37d9c-d40e-4e88-801a-d8af44142808","system_id":"levelo_inurba_marseille","lat":43.31487,"lon":5.37308,"is_reserved":false,"is_disabled":false,"rental_uris":{"android":"levelo://app?vid=5dd37d9c-d40e-4e88-801a-d8af44142808","ios":"levelo://app?vid=5dd37d9c-d40e-4e88-801a-d8af44142808"},"vehicle_type_id":"4","last_reported":1739621688,"current_range_meters":37600,"station_id":"ce4bgt12rcd13ifvqcd0","pricing_plan_id":"cebpf4jnsgd1na2vs0mg"},{"bike_id":"b91ae04c-01cd-4e66-ad9e-67795adb30cc","system_id":"levelo_inurba_marseille","lat":43.29026,"lon":5.3862,"is_reserved":false,"is_disabled":false,"rental_uris":{"android":"levelo://app?vid=b91ae04c-01cd-4e66-ad9e-67795adb30cc","ios":"levelo://app?vid=b91ae04c-01cd-4e66-ad9e-67795adb30cc"},"vehicle_type_id":"4","last_reported":1739621688,"current_range_meters":22800,"station_id":"ce4bh4p2rcd13ifvqe0g","pricing_plan_id":"cebpf4jnsgd1na2vs0mg"},{"bike_id":"ce4f4277-5b34-4550-a49e-20c07d7f8834","system_id":"levelo_inurba_marseille","lat":43.2293,"lon":5.35383,"is_reserved":false,"is_disabled":false,"rental_uris":{"android":"levelo://app?vid=ce4f4277-5b34-4550-a49e-20c07d7f8834","ios":"levelo://app?vid=ce4f4277-5b34-4550-a49e-20c07d7f8834"},"vehicle_type_id":"4","last_reported":1739621688,"current_range_meters":18800,"station_id":"cpo3532slgdg3j2ikp40","pricing_plan_id":"cebpf4jnsgd1na2vs0mg"},