{"last_updated":1729415346,"ttl":60,"version":"2.2","data":{"bikes":[{"bike_id":"b0d265c2-72cd-4338-9ad3-9a8d7186164e","system_id":"levelo_inurba_marseille","lat":43.23964,"lon":5.36634,"is_reserved":false,"is_disabled":false,"rental_uris":{"android":"levelo://app?vid=b0d265c2-72cd-4338-9ad3-9a8d7186164e","ios":"levelo://app?vid=b0d265c2-72cd-4338-9ad3-9a8d7186164e"},"vehicle_type_id":"4","last_reported":1729415346,"current_range_meters":34000,"station_id":"ce4bhi12rcd13ifvqfp0","pricing_plan_id":"cebpf4jnsgd1na2vs0mg"},{"bike_id":"9b9a7cfe-944f-49a6-84c3-af9eec72cacc","system_id":"levelo_inurba_marseille","lat":43.31117,"lon":5.37767,"is_reserved":false,"is_disabled":false,"rental_uris":{"android":"levelo://app?vid=9b9a7cfe-944f-49a6-84c3-af9eec72cacc","ios":"levelo://app?vid=9b9a7cfe-944f-49a6-84c3-af9eec72cacc"},"vehicle_type_id":"4","last_reported":1729415346,"current_range_meters":21600,"station_id":"ce4bgt92rcd13ifvqcg0","pricing_plan_id":"cebpf4jnsgd1na2vs0mg"},{"bike_id":"b345df6b-79f8-4f27-bcd5-8bc648b30621","system_id":"levelo_inurba_marseille","lat":43.26194,"lon":5.3745,"is_reserved":false,"is_disabled":false,"rental_uris":{"android":"levelo://app?vid=b345df6b-79f8-4f27-bcd5-8bc648b30621","ios":"levelo://app?vid=b345df6b-79f8-4f27-bcd5-8bc648b30621"},"vehicle_type_id":"4","last_reported":1729415346,"current_range_meters":16000,"station_id":"ce4bhgp2rcd13ifvqfc0","pricing_plan_id":"cebpf4jnsgd1na2vs0mg"},{"bike_id":"7d9d35a1-ba17-4a6a-87c6-f5222c29c460","system_id":"levelo_inurba_marseille","lat":43.29962,"lon":5.38499,"is_reserved":false,"is_disabled":false,"rental_uris":{"android":"levelo://app?vid=7d9d35a1-ba17-4a6a-87c6-f5222c29c460","ios":"levelo://app?vid=7d9d35a1-ba17-4a6a-87c6-f5222c29c460"},"vehicle_type_id":"4","last_reported":1729415346,"current_range_meters":31200,"station_id":"ce4bgj92rcd13ifvqbd0","pricing_plan_id":"cebpf4jnsgd1na2vs0mg"},{"bike_id":"d615b4cf-5826-4f16-9ce7-a2757c8d8ba5","system_id":"levelo_inurba_marseille","lat":43.26943,"lon":5.40244,"is_reserved":false,"is_disabled":false,"rental_uris":{"android":"levelo://app?vid=d615b4cf-5826-4f16-9ce7-a2757c8d8ba5","ios":"levelo://app?vid=d615b4cf-5826-4f16-9ce7-a2757c8d8ba5"},"vehicle_type_id":"4","last_reported":1729415346,"current_range_meters":38000,"station_id":"cjm6bp8fraef2m0cb0m0","pricing_plan_id":"cebpf4jnsgd1na2vs0mg"},{"bike_id":"cc7efa44-13df-4e12-a405-4e45667f6687","system_id":"levelo_inurba_marseille","lat":43.31118,"lon":5.37764,"is_reserved":false,"is_disabled":false,"rental_uris":{"android":"levelo://app?vid=cc7efa44-13df-4e12-a405-4e45667f6687","ios":"levelo://app?vid=cc7efa44-13df-4e12-a405-4e45667f6687"},"vehicle_type_id":"4","last_reported":1729415346,"current_range_meters":38400,"station_id":"ce4bgt92rcd13ifvqcg0","pricing_plan_id":"cebpf4jnsgd1na2vs0mg"},{"bike_id":"fe93bfb2-7aeb-4c17-8248-6549ba71e9ff","system_id":"levelo_inurba_marseille","lat":43.28271,"lon":5.35069,"is_reserved":false,"is_disabled":false,"rental_uris":{"android":"levelo://app?vid=fe93bfb2-7aeb-4c17-8248-6549ba71e9ff","ios":"levelo://app?vid=fe93bfb2-7aeb-4c17-8248-6549ba71e9ff"},"vehicle_type_id":"4","last_reported":1729415346,"current_range_meters":38400,"station_id":"ce4bhbp2rcd13ifvqerg","pricing_plan_id":"cebpf4jnsgd1na2vs0mg"},{"bike_id":"079f0eb0-2f43-406f-bfbc-68285c577f87","system_id":"levelo_inurba_marseille","lat":43.2815,"lon":5.42639,"is_reserved":false,"is_disabled":false,"rental_uris":{"android":"levelo://app?vid=079f0eb0-2f43-406f-bfbc-68285c577f87","ios":"levelo://app?vid=079f0eb0-2f43-406f-bfbc-68285c577f87"},"vehicle_type_id":"4","last_reported":1729415346,"current_range_meters":7200,"station_id":"ce4bhnh2rcd13ifvqgug","pricing_plan_id":"cebpf4jnsgd1na2vs0mg"},{"bike_id":"a4f82997-97a2-41ab-8364-cac29d87167b","system_id":"levelo_inurba_marseille","lat":43.2707,"lon":5.42279,"is_reserved":false,"is_disabled":false,"rental_uris":{"android":"levelo://app?vid=a4f82997-97a2-41ab-8364-cac29d87167b","ios":"levelo://app?vid=a4f82997-97a2-41ab-8364-cac29d87167b"},"vehicle_type_id":"4","last_reported":1729415346,"current_range_meters":12000,"station_id":"ce4bhk92rcd13ifvqgb0","pricing_plan_id":"cebpf4jnsgd1na2vs0mg"},{"bike_id":"814a8b4c-43f0-4f31-87f7-0f70c081bccd","system_id":"levelo_inurba_marseille","lat":43.24811,"lon":5.37459,"is_reserved":false,"is_disabled":false,"rental_uris":{"android":"levelo://app?vid=814a8b4c-43f0-4f31-87f7-0f70c081bccd","ios":"levelo://app?vid=814a8b4c-43f0-4f31-87f7-0f70c081bccd"},"vehicle_type_id":"4","last_reported":1729415346,"current_range_meters":38000,"station_id":"ce4bhgh2rcd13ifvqfb0","pricing_plan_id":"cebpf4jnsgd1na2vs0mg"},{"bike_id":"c2a5f50c-30fd-43ed-bafd-5738334d2411","system_id":"levelo_inurba_marseille","lat":43.29842,"lon":5.36275,"is_reserved":false,"is_disabled":false,"rental_uris":{"android":"levelo://app?vid=c2a5f50c-30fd-43ed-bafd-5738334d2411","ios":"levelo://app?vid=c2a5f50c-30fd-43ed-bafd-5738334d2411"},"vehicle_type_id":"4","last_reported":1729415346,"current_range_meters":38400,"station_id":"ce4bgpp2rcd13ifvqc3g","pricing_plan_id":"cebpf4jnsgd1na2vs0mg"},{"bike_id":"1d123306-76de-4e99-b18a-f2b54d4716f7","system_id":"levelo_inurba_marseille","lat":43.32334,"lon":5.40627,"is_reserved":false,"is_disabled":false,"rental_uris":{"android":"levelo://app?vid=1d123306-76de-4e99-b18a-f2b54d4716f7","ios":"levelo://app?vid=1d123306-76de-4e99-b18a-f2b54d4716f7"},"vehicle_type_id":"4","last_reported":1729415346,"current_range_meters":16800,"station_id":"ce4bhq92rcd13ifvqhjg","pricing_plan_id":"cebpf4jnsgd1na2vs0mg"},{"bike_id":"e0879c3f-10eb-4d3b-8053-605cb1c6310c","system_id":"levelo_inurba_marseille","lat":43.26064,"lon":5.39392,"is_reserved":false,"is_disabled":false,"rental_uris":{"android":"levelo://app?vid=e0879c3f-10eb-4d3b-8053-605cb1c6310c","ios":"levelo://app?vid=e0879c3f-10eb-4d3b-8053-605cb1c6310c"},"vehicle_type_id":"4","last_reported":1729415346,"current_range_meters":22000,"station_id":"ce4bhh92rcd13ifvqfj0","pricing_plan_id":"cebpf4jnsgd1na2vs0mg"},{"bike_id":"1466c210-5781-41f0-8b8e-77a6facb7051","system_id":"levelo_inurba_marseille","lat":43.25584,"lon":5.3824,"is_reserved":false,"is_disabled":false,"rental_uris":{"android":"levelo://app?vid=1466c210-5781-41f0-8b8e-77a6facb7051","ios":"levelo://app?vid=1466c210-5781-41f0-8b8e-77a6facb7051"},"vehicle_type_id":"4","last_reported":1729415346,"current_range_meters":28800,"station_id":"ce4bhih2rcd13ifvqfs0","pricing_plan_id":"cebpf4jnsgd1na2vs0mg"},{"bike_id":"ae780042-1c74-4999-93b0-9cf57448bac2","system_id":"levelo_inurba_marseille","lat":43.29608,"lon":5.37723,"is_reserved":false,"is_disabled":false,"rental_uris":{"android":"levelo://app?vid=ae780042-1c74-4999-93b0-9cf57448bac2","ios":"levelo://app?vid=ae780042-1c74-4999-93b0-9cf57448bac2"},"vehicle_type_id":"4","last_reported":1729415346,"current_range_meters":32400,"station_id":"ce4bgi92rcd13ifvqb90","pricing_plan_id":"cebpf4jnsgd1na2vs0mg"},{"bike_id":"6ce775c4-02cf-418d-8d4a-b7d83d4820f9","system_id":"levelo_inurba_marseille","lat":43.26939,"lon":5.40254,"is_reserved":false,"is_disabled":false,"rental_uris":{"android":"levelo://app?vid=6ce775c4-02cf-418d-8d4a-b7d83d4820f9","ios":"levelo://app?vid=6ce775c4-02cf-418d-8d4a-b7d83d4820f9"},"vehicle_type_id":"4","last_reported":1729415346,"current_range_meters":38000,"station_id":"cjm6bp8fraef2m0cb0m0","pricing_plan_id":"cebpf4jnsgd1na2vs0mg"},{"bike_id":"3c542d24-c53e-4899-8c72-748e72210bc5","system_id":"levelo_inurba_marseille","lat":43.22926,"lon":5.35375,"is_reserved":false,"is_disabled":false,"rental_uris":{"android":"levelo://app?vid=3c542d24-c53e-4899-8c72-748e72210bc5","ios":"levelo://app?vid=3c542d24-c53e-4899-8c72-748e72210bc5"},"vehicle_type_id":"4","last_reported":1729415346,"current_range_meters":38400,"station_id":"cpo3532slgdg3j2ikp40","pricing_plan_id":"cebpf4jnsgd1na2vs0mg"},{"bike_id":"6967c4c2-f057-49d9-80b0-41170e417f9c","system_id":"levelo_inurba_marseille","lat":43.24076,"lon":5.37755,"is_reserved":false,"is_disabled":false,"rental_uris":{"android":"levelo://app?vid=6967c4c2-f057-49d9-80b0-41170e417f9c","ios":"levelo://app?vid=6967c4c2-f057-49d9-80b0-41170e417f9c"},"vehicle_type_id":"4","last_reported":1729415346,"current_range_meters":36800,"station_id":"ce4bhnp2rcd13ifvqgvg","pricing_plan_id":"cebpf4jnsgd1na2vs0mg"},{"bike_id":"8a73e7ba-a0f3-44c6-966e-e18fb2e0d01f","system_id":"levelo_inurba_marseille","lat":43.24169,"lon":5.36398,"is_reserved":false,"is_disabled":false,"rental_uris":{"android":"levelo://app?vid=8a73e7ba-a0f3-44c6-966e-e18fb2e0d01f","ios":"levelo://app?vid=8a73e7ba-a0f3-44c6-966e-e18fb2e0d01f"},"vehicle_type_id":"4","last_reported":1729415346,"current_range_meters":24400,"station_id":"cpo36qri1sfpv3e86is0","pricing_plan_id":"cebpf4jnsgd1na2vs0mg"},{"bike_id":"dfa34bab-96b7-4f7c-89c2-301229ba8900","system_id":"levelo_inurba_marseille","lat":43.28268,"lon":5.35072,"is_reserved":false,"is_disabled":false,"rental_uris":{"android":"levelo://app?vid=dfa34bab-96b7-4f7c-89c2-301229ba8900","ios":"levelo://app?vid=dfa34bab-96b7-4f7c-89c2-301229ba8900"},"vehicle_type_id":"4","last_reported":1729415346,"current_range_meters":11600,"station_id":"ce4bhbp2rcd13ifvqerg","pricing_plan_id":"cebpf4jnsgd1na2vs0mg"},{"bike_id":"481cffd0-bd3a-4827-9e2c-2ef60f9d0829","system_id":"levelo_inurba_marseille","lat":43.28459,"lon":5.35886,"is_reserved":false,"is_disabled":false,"rental_uris":{"android":"levelo://app?vid=481cffd0-bd3a-4827-9e2c-2ef60f9d0829","ios":"levelo://app?vid=481cffd0-bd3a-4827-9e2c-2ef60f9d0829"},"vehicle_type_id":"4","last_reported":1729415346,"current_range_meters":24400,"station_id":"ce4bhah2rcd13ifvqei0","pricing_plan_id":"cebpf4jnsgd1na2vs0mg"},{"bike_id":"f002ff7c-8d7f-4b30-a59b-b17d6e6e6eba","system_id":"levelo_inurba_marseille","lat":43.32664,"lon":5.40987,"is_reserved":false,"is_disabled":false,"rental_uris":{"android":"levelo://app?vid=f002ff7c-8d7f-4b30-a59b-b17d6e6e6eba","ios":"levelo://app?vid=f002ff7c-8d7f-4b30-a59b-b17d6e6e6eba"},"vehicle_type_id":"4","last_reported":1729415346,"current_range_meters":16400,"station_id":"ce4bhpp2rcd13ifvqhgg","pricing_plan_id":"cebpf4jnsgd1na2vs0mg"},{"bike_id":"2ce94f5e-a47f-4ce1-a4b8-2d9ba9f102e2","system_id":"levelo_inurba_marseille","lat":43.269249,"lon":5.389137,"is_reserved":false,"is_disabled":false,"rental_uris":{"android":"levelo://app?vid=2ce94f5e-a47f-4ce1-a4b8-2d9ba9f102e2","ios":"levelo://app?vid=2ce94f5e-a47f-4ce1-a4b8-2d9ba9f102e2"},"vehicle_type_id":"4","last_reported":1729415346,"current_range_meters":0,"station_id":"ce4bhhh2rcd13ifvqfl0","pricing_plan_id":"cebpf4jnsgd1na2vs0mg"},{"bike_id":"474ccd54-d884-4c48-ac27-1f7190ae4438","system_id":"levelo_inurba_marseille","lat":43.3373,"lon":5.39188,"is_reserved":false,"is_disabled":false,"rental_uris":{"android":"levelo://app?vid=474ccd54-d884-4c48-ac27-1f7190ae4438","ios":"levelo://app?vid=474ccd54-d884-4c48-ac27-1f7190ae4438"},"vehicle_type_id":"4","last_reported":1729415346,"current_range_meters":8000,"station_id":"ce4bhr92rcd13ifvqhsg","pricing_plan_id":"cebpf4jnsgd1na2vs0mg"},{"bike_id":"acc5a6b4-ec60-4c55-b7f7-6bb18158816d","system_id":"levelo_inurba_marseille","lat":43.24391,"lon":5.37064,"is_reserved":false,"is_disabled":false,"rental_uris":{"android":"levelo://app?vid=acc5a6b4-ec60-4c55-b7f7-6bb18158816d","ios":"levelo://app?vid=acc5a6b4-ec60-4c55-b7f7-6bb18158816d"},"vehicle_type_id":"4","last_reported":1729415346,"current_range_meters":32000,"station_id":"ce4bhhh2rcd13ifvqfk0","pricing_plan_id":"cebpf4jnsgd1na2vs0mg"},{"bike_id":"ca3a98fb-1eae-48f5-aca4-b718a35664a0","system_id":"levelo_inurba_marseille","lat":43.32334,"lon":5.40622,"is_reserved":false,"is_disabled":false,"rental_uris":{"android":"levelo://app?vid=ca3a98fb-1eae-48f5-aca4-b718a35664a0","ios":"levelo://app?vid=ca3a98fb-1eae-48f5-aca4-b718a35664a0"},"vehicle_type_id":"4","last_reported":1729415346,"current_range_meters":38800,"station_id":"ce4bhq92rcd13ifvqhjg","pricing_plan_id":"cebpf4jnsgd1na2vs0mg"},{"bike_id":"f75bac43-de1c-46ee-b029-720a38aa18a4","system_id":"levelo_inurba_marseille","lat":43.28617,"lon":5.35101,"is_reserved":false,"is_disabled":false,"rental_uris":{"android":"levelo://app?vid=f75bac43-de1c-46ee-b029-720a38aa18a4","ios":"levelo://app?vid=f75bac43-de1c-46ee-b029-720a38aa18a4"},"vehicle_type_id":"4","last_reported":1729415346,"current_range_meters":37600,"station_id":"ce4bhch2rcd13ifvqeug","pricing_plan_id":"cebpf4jnsgd1na2vs0mg"},{"bike_id":"4b3a7b1d-1156-4149-b46d-f67ecf2f601f","system_id":"levelo_inurba_marseille","lat":43.30467,"lon":5.37905,"is_reserved":false,"is_disabled":false,"rental_uris":{"android":"levelo://app?vid=4b3a7b1d-1156-4149-b46d-f67ecf2f601f","ios":"levelo://app?vid=4b3a7b1d-1156-4149-b46d-f67ecf2f601f"},"vehicle_type_id":"4","last_reported":1729415346,"current_range_meters":35200,"station_id":"ce4bgup2rcd13ifvqcn0","pricing_plan_id":"cebpf4jnsgd1na2vs0mg"},{"bike_id":"f3b69c34-10e7-4317-9526-21af752e0d86","system_id":"levelo_inurba_marseille","lat":43.27611,"lon":5.36106,"is_reserved":false,"is_disabled":false,"rental_uris":{"android":"levelo://app?vid=f3b69c34-10e7-4317-9526-21af752e0d86","ios":"levelo://app?vid=f3b69c34-10e7-4317-9526-21af752e0d86"},"vehicle_type_id":"4","last_reported":1729415346,"current_range_meters":38000,"station_id":"ce4bgj92rcd13ifvqbe0","pricing_plan_id":"cebpf4jnsgd1na2vs0mg"},{"bike_id":"abf89b06-8e5d-4c13-9f38-ee65f3c4b547","system_id":"levelo_inurba_marseille","lat":43.25088,"lon":5.39527,"is_reserved":false,"is_disabled":false,"rental_uris":{"android":"levelo://app?vid=abf89b06-8e5d-4c13-9f38-ee65f3c4b547","ios":"levelo://app?vid=abf89b06-8e5d-4c13-9f38-ee65f3c4b547"},"vehicle_type_id":"4","last_reported":1729415346,"current_range_meters":39200,"station_id":"ce4bhm12rcd13ifvqgkg","pricing_plan_id":"cebpf4jnsgd1na2vs0mg"},{"bike_id":"e6bc03ab-0f51-4efb-9d43-41a8ed6a3a2f","system_id":"levelo_inurba_marseille","lat":43.297,"lon":5.36622,"is_reserved":false,"is_disabled":false,"rental_uris":{"android":"levelo://app?vid=e6bc03ab-0f51-4efb-9d43-41a8ed6a3a2f","ios":"levelo://app?vid=e6bc03ab-0f51-4efb-9d43-41a8ed6a3a2f"},"vehicle_type_id":"4","last_reported":1729415346,"current_range_meters":9600,"station_id":"ce4bgn12rcd13ifvqbt0","pricing_plan_id":"cebpf4jnsgd1na2vs0mg"},{"bike_id":"9d912eba-02a5-41c2-8d48-c02ba9a29689","system_id":"levelo_inurba_marseille","lat":43.2749,"lon":5.42453,"is_reserved":false,"is_disabled":false,"rental_uris":{"android":"levelo://app?vid=9d912eba-02a5-41c2-8d48-c02ba9a29689","ios":"levelo://app?vid=9d912eba-02a5-41c2-8d48-c02ba9a29689"},"vehicle_type_id":"4","last_reported":1729415346,"current_range_meters":36800,"station_id":"ce4bhn92rcd13ifvqgrg","pricing_plan_id":"cebpf4jnsgd1na2vs0mg"},{"bike_id":"98f7b4ed-0d9f-453b-9176-41ebd99c3142","system_id":"levelo_inurba_marseille","lat":43.336,"lon":5.41019,"is_reserved":false,"is_disabled":false,"rental_uris":{"android":"levelo://app?vid=98f7b4ed-0d9f-453b-9176-41ebd99c3142","ios":"levelo://app?vid=98f7b4ed-0d9f-453b-9176-41ebd99c3142"},"vehicle_type_id":"4","last_reported":1729415346,"current_range_meters":37600,"station_id":"ce4bhqh2rcd13ifvqhmg","pricing_plan_id":"cebpf4jnsgd1na2vs0mg"},{"bike_id":"d85aed35-4005-4c2e-863d-273016e09085","system_id":"levelo_inurba_marseille","lat":43.24394,"lon":5.37059,"is_reserved":false,"is_disabled":false,"rental_uris":{"android":"levelo://app?vid=d85aed35-4005-4c2e-863d-273016e09085","ios":"levelo://app?vid=d85aed35-4005-4c2e-863d-273016e09085"},"vehicle_type_id":"4","last_reported":1729415346,"current_range_meters":30400,"station_id":"ce4bhhh2rcd13ifvqfk0","pricing_plan_id":"cebpf4jnsgd1na2vs0mg"},{"bike_id":"9fa7c963-2f9d-4588-8236-ff860a4358c6","system_id":"levelo_inurba_marseille","lat":43.27376,"lon":5.36247,"is_reserved":false,"is_disabled":false,"rental_uris":{"android":"levelo://app?vid=9fa7c963-2f9d-4588-8236-ff860a4358c6","ios":"levelo://app?vid=9fa7c963-2f9d-4588-8236-ff860a4358c6"},"vehicle_type_id":"4","last_reported":1729415346,"current_range_meters":37600,"station_id":"ce4bhbh2rcd13ifvqeo0","pricing_plan_id":"cebpf4jnsgd1na2vs0mg"},{"bike_id":"68ecf5b1-3e27-4073-bcfd-9b4d888b6f5c","system_id":"levelo_inurba_marseille","lat":43.32103,"lon":5.3678,"is_reserved":false,"is_disabled":false,"rental_uris":{"android":"levelo://app?vid=68ecf5b1-3e27-4073-bcfd-9b4d888b6f5c","ios":"levelo://app?vid=68ecf5b1-3e27-4073-bcfd-9b4d888b6f5c"},"vehicle_type_id":"4","last_reported":1729415346,"current_range_meters":36800,"station_id":"ce4bhrh2rcd13ifvqhug","pricing_plan_id":"cebpf4jnsgd1na2vs0mg"},{"bike_id":"b2d48dc8-e422-4fc5-8404-8125e0b56040","system_id":"levelo_inurba_marseille","lat":43.29222,"lon":5.36048,"is_reserved":false,"is_disabled":false,"rental_uris":{"android":"levelo://app?vid=b2d48dc8-e422-4fc5-8404-8125e0b56040","ios":"levelo://app?vid=b2d48dc8-e422-4fc5-8404-8125e0b56040"},"vehicle_type_id":"4","last_reported":1729415346,"current_range_meters":38800,"station_id":"ce4bhbh2rcd13ifvqeqg","pricing_plan_id":"cebpf4jnsgd1na2vs0mg"},{"bike_id":"6c4fed87-6be3-4d97-9301-4412accaca73","system_id":"levelo_inurba_marseille","lat":43.23959,"lon":5.36641,"is_reserved":false,"is_disabled":false,"rental_uris":{"android":"levelo://app?vid=6c4fed87-6be3-4d97-9301-4412accaca73","ios":"levelo://app?vid=6c4fed87-6be3-4d97-9301-4412accaca73"},"vehicle_type_id":"4","last_reported":1729415346,"current_range_meters":32400,"station_id":"ce4bhi12rcd13ifvqfp0","pricing_plan_id":"cebpf4jnsgd1na2vs0mg"},{"bike_id":"32c65db3-a0c8-4aca-bd02-3287e5e668b1","system_id":"levelo_inurba_marseille","lat":43.26192,"lon":5.3793,"is_reserved":false,"is_disabled":false,"rental_uris":{"android":"levelo://app?vid=32c65db3-a0c8-4aca-bd02-3287e5e668b1","ios":"levelo://app?vid=32c65db3-a0c8-4aca-bd02-3287e5e668b1"},"vehicle_type_id":"4","last_reported":1729415346,"current_range_meters":39200,"station_id":"ce4bhjp2rcd13ifvqg90","pricing_plan_id":"cebpf4jnsgd1na2vs0mg"},{"bike_id":"ab25e50e-031e-49b2-92c3-bc31c1e4e638","system_id":"levelo_inurba_marseille","lat":43.27975,"lon":5.41676,"is_reserved":false,"is_disabled":false,"rental_uris":{"android":"levelo://app?vid=ab25e50e-031e-49b2-92c3-bc31c1e4e638","ios":"levelo://app?vid=ab25e50e-031e-49b2-92c3-bc31c1e4e638"},"vehicle_type_id":"4","last_reported":1729415346,"current_range_meters":9200,"station_id":"ce4bho12rcd13ifvqh1g","pricing_plan_id":"cebpf4jnsgd1na2vs0mg"},{"bike_id":"d6705838-4779-4c07-bcd8-e488b02b05d4","system_id":"levelo_inurba_marseille","lat":43.30884,"lon":5.39631,"is_reserved":false,"is_disabled":false,"rental_uris":{"android":"levelo://app?vid=d6705838-4779-4c07-bcd8-e488b02b05d4","ios":"levelo://app?vid=d6705838-4779-4c07-bcd8-e488b02b05d4"},"vehicle_type_id":"4","last_reported":1729415346,"current_range_meters":35600,"station_id":"ce4bh012rcd13ifvqcv0","pricing_plan_id":"cebpf4jnsgd1na2vs0mg"},{"bike_id":"9988c1fb-1857-4a29-ab1f-1d430f880aa0","system_id":"levelo_inurba_marseille","lat":43.29621,"lon":5.37155,"is_reserved":false,"is_disabled":false,"rental_uris":{"android":"levelo://app?vid=9988c1fb-1857-4a29-ab1f-1d430f880aa0","ios":"levelo://app?vid=9988c1fb-1857-4a29-ab1f-1d430f880aa0"},"vehicle_type_id":"4","last_reported":1729415346,"current_range_meters":33200,"station_id":"ce4bgnh2rcd13ifvqc0g","pricing_plan_id":"cebpf4jnsgd1na2vs0mg"},{"bike_id":"57dd0012-e7c2-43e3-90a1-087125ac63fa","system_id":"levelo_inurba_marseille","lat":43.33753,"lon":5.37454,"is_reserved":false,"is_disabled":false,"rental_uris":{"android":"levelo://app?vid=57dd0012-e7c2-43e3-90a1-087125ac63fa","ios":"levelo://app?vid=57dd0012-e7c2-43e3-90a1-087125ac63fa"},"vehicle_type_id":"4","last_reported":1729415346,"current_range_meters":36000,"station_id":"","pricing_plan_id":"cebpf4jnsgd1na2vs0mg"},{"bike_id":"d0c5a1c1-66a9-4933-b464-9142a7c2b7a1","system_id":"levelo_inurba_marseille","lat":43.2846,"lon":5.35887,"is_reserved":false,"is_disabled":false,"rental_uris":{"android":"levelo://app?vid=d0c5a1c1-66a9-4933-b464-9142a7c2b7a1","ios":"levelo://app?vid=d0c5a1c1-66a9-4933-b464-9142a7c2b7a1"},"vehicle_type_id":"4","last_reported":1729415346,"current_range_meters":27200,"station_id":"ce4bhah2rcd13ifvqei0","pricing_plan_id":"cebpf4jnsgd1na2vs0mg"},{"bike_id":"dbf5ea83-8818-4c92-b0db-0c9245fa4d6c","system_id":"levelo_inurba_marseille","lat":43.23158,"lon":5.43705,"is_reserved":false,"is_disabled":false,"rental_uris":{"android":"levelo://app?vid=dbf5ea83-8818-4c92-b0db-0c9245fa4d6c","ios":"levelo://app?vid=dbf5ea83-8818-4c92-b0db-0c9245fa4d6c"},"vehicle_type_id":"4","last_reported":1729415346,"current_range_meters":24800,"station_id":"ce4bhmp2rcd13ifvqgog","pricing_plan_id":"cebpf4jnsgd1na2vs0mg"},{"bike_id":"148a15ed-21e1-49b5-862a-fcbd7cc3f264","system_id":"levelo_inurba_marseille","lat":43.28264,"lon":5.35059,"is_reserved":false,"is_disabled":false,"rental_uris":{"android":"levelo://app?vid=148a15ed-21e1-49b5-862a-fcbd7cc3f264","ios":"levelo://app?vid=148a15ed-21e1-49b5-862a-fcbd7cc3f264"},"vehicle_type_id":"4","last_reported":1729415346,"current_range_meters":35600,"station_id":"ce4bhbp2rcd13ifvqerg","pricing_plan_id":"cebpf4jnsgd1na2vs0mg"},{"bike_id":"308cc78b-7ede-41af-8473-9264aefaaa72","system_id":"levelo_inurba_marseille","lat":43.24806,"lon":5.37455,"is_reserved":false,"is_disabled":false,"rental_uris":{"android":"levelo://app?vid=308cc78b-7ede-41af-8473-9264aefaaa72","ios":"levelo://app?vid=308cc78b-7ede-41af-8473-9264aefaaa72"},"vehicle_type_id":"4","last_reported":1729415346,"current_range_meters":30000,"station_id":"ce4bhgh2rcd13ifvqfb0","pricing_plan_id":"cebpf4jnsgd1na2vs0mg"},{"bike_id":"56089be0-332d-429c-85dd-3b8dbab7080a","system_id":"levelo_inurba_marseille","lat":43.31683,"lon":5.40474,"is_reserved":false,"is_disabled":false,"rental_uris":{"android":"levelo://app?vid=56089be0-332d-429c-85dd-3b8dbab7080a","ios":"levelo://app?vid=56089be0-332d-429c-85dd-3b8dbab7080a"},"vehicle_type_id":"4","last_reported":1729415346,"current_range_meters":5600,"station_id":"ce4bh012rcd13ifvqd00","pricing_plan_id":"cebpf4jnsgd1na2vs0mg"},{"bike_id":"5694eb7f-ac74-444e-8124-7b93c24b932f","system_id":"levelo_inurba_marseille","lat":43.28615,"lon":5.35101,"is_reserved":false,"is_disabled":false,"rental_uris":{"android":"levelo://app?vid=5694eb7f-ac74-444e-8124-7b93c24b932f","ios":"levelo://app?vid=5694eb7f-ac74-444e-8124-7b93c24b932f"},"vehicle_type_id":"4","last_reported":1729415346,"current_range_meters":17200,"station_id":"ce4bhch2rcd13ifvqeug","pricing_plan_id":"cebpf4jnsgd1na2vs0mg"},{"bike_id":"970ce056-93b7-4b51-889b-8fcf2f52c05f","system_id":"levelo_inurba_marseille","lat":43.24546,"lon":5.39519,"is_reserved":false,"is_disabled":false,"rental_uris":{"android":"levelo://app?vid=970ce056-93b7-4b51-889b-8fcf2f52c05f","ios":"levelo://app?vid=970ce056-93b7-4b51-889b-8fcf2f52c05f"},"vehicle_type_id":"4","last_reported":1729415346,"current_range_meters":8400,"station_id":"ce4bhlp2rcd13ifvqgjg","pricing_plan_id":"cebpf4jnsgd1na2vs0mg"},{"bike_id":"236668e0-2c45-432e-806c-447012d90372","system_id":"levelo_inurba_marseille","lat":43.3232,"lon":5.40622,"is_reserved":false,"is_disabled":false,"rental_uris":{"android":"levelo://app?vid=236668e0-2c45-432e-806c-447012d90372","ios":"levelo://app?vid=236668e0-2c45-432e-806c-447012d90372"},"vehicle_type_id":"4","last_reported":1729415346,"current_range_meters":37600,"station_id":"ce4bhq92rcd13ifvqhjg","pricing_plan_id":"cebpf4jnsgd1na2vs0mg"},{"bike_id":"c2359229-823b-410c-ba1a-ced72b589bbf","system_id":"levelo_inurba_marseille","lat":43.27421,"lon":5.39421,"is_reserved":false,"is_disabled":false,"rental_uris":{"android":"levelo://app?vid=c2359229-823b-410c-ba1a-ced72b589bbf","ios":"levelo://app?vid=c2359229-823b-410c-ba1a-ced72b589bbf"},"vehicle_type_id":"4","last_reported":1729415346,"current_range_meters":38800,"station_id":"ce4bhdp2rcd13ifvqf20","pricing_plan_id":"cebpf4jnsgd1na2vs0mg"},{"bike_id":"ccfe3b3c-6495-4eaa-9764-c4646df21006","system_id":"levelo_inurba_marseille","lat":43.221161,"lon":5.444889,"is_reserved":false,"is_disabled":false,"rental_uris":{"android":"levelo://app?vid=ccfe3b3c-6495-4eaa-9764-c4646df21006","ios":"levelo://app?vid=ccfe3b3c-6495-4eaa-9764-c4646df21006"},"vehicle_type_id":"4","last_reported":1729415346,"current_range_meters":17200,"station_id":"ce4bhmp2rcd13ifvqgog","pricing_plan_id":"cebpf4jnsgd1na2vs0mg"},{"bike_id":"0267b95f-f262-4fa3-9ef3-3d2f4f626c6f","system_id":"levelo_inurba_marseille","lat":43.25104,"lon":5.40328,"is_reserved":false,"is_disabled":false,"rental_uris":{"android":"levelo://app?vid=0267b95f-f262-4fa3-9ef3-3d2f4f626c6f","ios":"levelo://app?vid=0267b95f-f262-4fa3-9ef3-3d2f4f626c6f"},"vehicle_type_id":"4","last_reported":1729415346,"current_range_meters":39200,"station_id":"ce4bhlh2rcd13ifvqgig","pricing_plan_id":"cebpf4jnsgd1na2vs0mg"},{"bike_id":"7581426e-f9dd-41a7-b744-10fe05078847","system_id":"levelo_inurba_marseille","lat":43.30143,"lon":5.37413,"is_reserved":false,"is_disabled":false,"rental_uris":{"android":"levelo://app?vid=7581426e-f9dd-41a7-b744-10fe05078847","ios":"levelo://app?vid=7581426e-f9dd-41a7-b744-10fe05078847"},"vehicle_type_id":"4","last_reported":1729415346,"current_range_meters":38400,"station_id":"ce4bgs92rcd13ifvqcc0","pricing_plan_id":"cebpf4jnsgd1na2vs0mg"},{"bike_id":"e8b3df60-01e0-45e7-8b61-61d52e175cbb","system_id":"levelo_inurba_marseille","lat":43.28104,"lon":5.37855,"is_reserved":false,"is_disabled":false,"rental_uris":{"android":"levelo://app?vid=e8b3df60-01e0-45e7-8b61-61d52e175cbb","ios":"levelo://app?vid=e8b3df60-01e0-45e7-8b61-61d52e175cbb"},"vehicle_type_id":"4","last_reported":1729415346,"current_range_meters":37600,"station_id":"ce4bha12rcd13ifvqee0","pricing_plan_id":"cebpf4jnsgd1na2vs0mg"},{"bike_id":"6efe2dd2-a32d-4db7-892a-8226ac965d8e","system_id":"levelo_inurba_marseille","lat":43.27185,"lon":5.4099,"is_reserved":false,"is_disabled":false,"rental_uris":{"android":"levelo://app?vid=6efe2dd2-a32d-4db7-892a-8226ac965d8e","ios":"levelo://app?vid=6efe2dd2-a32d-4db7-892a-8226ac965d8e"},"vehicle_type_id":"4","last_reported":1729415346,"current_range_meters":38400,"station_id":"ce4bhl12rcd13ifvqgf0","pricing_plan_id":"cebpf4jnsgd1na2vs0mg"},{"bike_id":"8df754ef-3a9b-4b00-9d1a-bc70650672b6","system_id":"levelo_inurba_marseille","lat":43.26059,"lon":5.39396,"is_reserved":false,"is_disabled":false,"rental_uris":{"android":"levelo://app?vid=8df754ef-3a9b-4b00-9d1a-bc70650672b6","ios":"levelo://app?vid=8df754ef-3a9b-4b00-9d1a-bc70650672b6"},"vehicle_type_id":"4","last_reported":1729415346,"current_range_meters":33600,"station_id":"ce4bhh92rcd13ifvqfj0","pricing_plan_id":"cebpf4jnsgd1na2vs0mg"},{"bike_id":"343aa4d1-f953-489c-ab86-dc9d91d2a18b","system_id":"levelo_inurba_marseille","lat":43.30386,"lon":5.36997,"is_reserved":false,"is_disabled":false,"rental_uris":{"android":"levelo://app?vid=343aa4d1-f953-489c-ab86-dc9d91d2a18b","ios":"levelo://app?vid=343aa4d1-f953-489c-ab86-dc9d91d2a18b"},"vehicle_type_id":"4","last_reported":1729415346,"current_range_meters":24400,"station_id":"ce4bgnh2rcd13ifvqc0g","pricing_plan_id":"cebpf4jnsgd1na2vs0mg"},{"bike_id":"3fc3344c-8b02-4a3d-b256-2e7a5003b4bf","system_id":"levelo_inurba_marseille","lat":43.239675,"lon":5.366303,"is_reserved":false,"is_disabled":false,"rental_uris":{"android":"levelo://app?vid=3fc3344c-8b02-4a3d-b256-2e7a5003b4bf","ios":"levelo://app?vid=3fc3344c-8b02-4a3d-b256-2e7a5003b4bf"},"vehicle_type_id":"4","last_reported":1729415346,"current_range_meters":12400,"station_id":"ce4bhi12rcd13ifvqfp0","pricing_plan_id":"cebpf4jnsgd1na2vs0mg"},{"bike_id":"d742ca4f-1a90-4196-b6c5-542dc9f212ea","system_id":"levelo_inurba_marseille","lat":43.302574,"lon":5.400841,"is_reserved":false,"is_disabled":false,"rental_uris":{"android":"levelo://app?vid=d742ca4f-1a90-4196-b6c5-542dc9f212ea","ios":"levelo://app?vid=d742ca4f-1a90-4196-b6c5-542dc9f212ea"},"vehicle_type_id":"4","last_reported":1729415346,"current_range_meters":32800,"station_id":"ce4bgvh2rcd13ifvqcs0","pricing_plan_id":"cebpf4jnsgd1na2vs0mg"},{"bike_id":"a8974f40-a9a1-4432-8314-6a4642ac28a4","system_id":"levelo_inurba_marseille","lat":43.281,"lon":5.3785,"is_reserved":false,"is_disabled":false,"rental_uris":{"android":"levelo://app?vid=a8974f40-a9a1-4432-8314-6a4642ac28a4","ios":"levelo://app?vid=a8974f40-a9a1-4432-8314-6a4642ac28a4"},"vehicle_type_id":"4","last_reported":1729415346,"current_range_meters":34800,"station_id":"ce4bha12rcd13ifvqee0","pricing_plan_id":"cebpf4jnsgd1na2vs0mg"},{"bike_id":"6cf6e3f2-d67f-4577-85be-79bfa89d8097","system_id":"levelo_inurba_marseille","lat":43.28464,"lon":5.35886,"is_reserved":false,"is_disabled":false,"rental_uris":{"android":"levelo://app?vid=6cf6e3f2-d67f-4577-85be-79bfa89d8097","ios":"levelo://app?vid=6cf6e3f2-d67f-4577-85be-79bfa89d8097"},"vehicle_type_id":"4","last_reported":1729415346,"current_range_meters":38800,"station_id":"ce4bhah2rcd13ifvqei0","pricing_plan_id":"cebpf4jnsgd1na2vs0mg"},{"bike_id":"e2198d75-ec0b-45d7-b6f6-08bbbe60882a","system_id":"levelo_inurba_marseille","lat":43.33019,"lon":5.39043,"is_reserved":false,"is_disabled":false,"rental_uris":{"android":"levelo://app?vid=e2198d75-ec0b-45d7-b6f6-08bbbe60882a","ios":"levelo://app?vid=e2198d75-ec0b-45d7-b6f6-08bbbe60882a"},"vehicle_type_id":"4","last_reported":1729415346,"current_range_meters":39200,"station_id":"ce4bhr92rcd13ifvqhrg","pricing_plan_id":"cebpf4jnsgd1na2vs0mg"},{"bike_id":"9032d96b-507c-452d-97c0-38b7559bf1f5","system_id":"levelo_inurba_marseille","lat":43.27364,"lon":5.36257,"is_reserved":false,"is_disabled":false,"rental_uris":{"android":"levelo://app?vid=9032d96b-507c-452d-97c0-38b7559bf1f5","ios":"levelo://app?vid=9032d96b-507c-452d-97c0-38b7559bf1f5"},"vehicle_type_id":"4","last_reported":1729415346,"current_range_meters":33600,"station_id":"ce4bhbh2rcd13ifvqeo0","pricing_plan_id":"cebpf4jnsgd1na2vs0mg"},{"bike_id":"e3b6f8d6-715d-433b-8ab0-718ff6b21ad1","system_id":"levelo_inurba_marseille","lat":43.27067,"lon":5.42272,"is_reserved":false,"is_disabled":false,"rental_uris":{"android":"levelo://app?vid=e3b6f8d6-715d-433b-8ab0-718ff6b21ad1","ios":"levelo://app?vid=e3b6f8d6-715d-433b-8ab0-718ff6b21ad1"},"vehicle_type_id":"4","last_reported":1729415346,"current_range_meters":8800,"station_id":"ce4bhk92rcd13ifvqgb0","pricing_plan_id":"cebpf4jnsgd1na2vs0mg"},{"bike_id":"fca55886-769e-4104-8bc2-0030b8dbff79","system_id":"levelo_inurba_marseille","lat":43.24084,"lon":5.3773,"is_reserved":false,"is_disabled":false,"rental_uris":{"android":"levelo://app?vid=fca55886-769e-4104-8bc2-0030b8dbff79","ios":"levelo://app?vid=fca55886-769e-4104-8bc2-0030b8dbff79"},"vehicle_type_id":"4","last_reported":1729415346,"current_range_meters":38000,"station_id":"ce4bhnp2rcd13ifvqgvg","pricing_plan_id":"cebpf4jnsgd1na2vs0mg"},{"bike_id":"c1a10003-2496-456b-9c14-55fceeb3724a","system_id":"levelo_inurba_marseille","lat":43.32483,"lon":5.36573,"is_reserved":false,"is_disabled":false,"rental_uris":{"android":"levelo://app?vid=c1a10003-2496-456b-9c14-55fceeb3724a","ios":"levelo://app?vid=c1a10003-2496-456b-9c14-55fceeb3724a"},"vehicle_type_id":"4","last_reported":1729415346,"current_range_meters":38800,"station_id":"ce4bhs12rcd13ifvqhvg","pricing_plan_id":"cebpf4jnsgd1na2vs0mg"},{"bike_id":"35e7f867-368c-476c-a860-684a9be05389","system_id":"levelo_inurba_marseille","lat":43.26558,"lon":5.39007,"is_reserved":false,"is_disabled":false,"rental_uris":{"android":"levelo://app?vid=35e7f867-368c-476c-a860-684a9be05389","ios":"levelo://app?vid=35e7f867-368c-476c-a860-684a9be05389"},"vehicle_type_id":"4","last_reported":1729415346,"current_range_meters":36000,"station_id":"ce4bhe12rcd13ifvqf30","pricing_plan_id":"cebpf4jnsgd1na2vs0mg"},{"bike_id":"87d5b6e8-30a1-469b-8ff7-7b579476e70e","system_id":"levelo_inurba_marseille","lat":43.26562,"lon":5.37283,"is_reserved":false,"is_disabled":false,"rental_uris":{"android":"levelo://app?vid=87d5b6e8-30a1-469b-8ff7-7b579476e70e","ios":"levelo://app?vid=87d5b6e8-30a1-469b-8ff7-7b579476e70e"},"vehicle_type_id":"4","last_reported":1729415346,"current_range_meters":15200,"station_id":"ce4bhg12rcd13ifvqf70","pricing_plan_id":"cebpf4jnsgd1na2vs0mg"},{"bike_id":"98c72085-a267-4e25-82a8-7cad096f4563","system_id":"levelo_inurba_marseille","lat":43.30458,"lon":5.37904,"is_reserved":false,"is_disabled":false,"rental_uris":{"android":"levelo://app?vid=98c72085-a267-4e25-82a8-7cad096f4563","ios":"levelo://app?vid=98c72085-a267-4e25-82a8-7cad096f4563"},"vehicle_type_id":"4","last_reported":1729415346,"current_range_meters":38800,"station_id":"ce4bgup2rcd13ifvqcn0","pricing_plan_id":"cebpf4jnsgd1na2vs0mg"},{"bike_id":"0fb852d3-09e2-4ed2-98d3-f17737cdf3eb","system_id":"levelo_inurba_marseille","lat":43.286713,"lon":5.363513,"is_reserved":false,"is_disabled":false,"rental_uris":{"android":"levelo://app?vid=0fb852d3-09e2-4ed2-98d3-f17737cdf3eb","ios":"levelo://app?vid=0fb852d3-09e2-4ed2-98d3-f17737cdf3eb"},"vehicle_type_id":"4","last_reported":1729415346,"current_range_meters":32400,"station_id":"ce4bhah2rcd13ifvqej0","pricing_plan_id":"cebpf4jnsgd1na2vs0mg"},{"bike_id":"d234dac7-4ce3-4348-b72f-a62abb04355c","system_id":"levelo_inurba_marseille","lat":43.27926,"lon":5.39578,"is_reserved":false,"is_disabled":false,"rental_uris":{"android":"levelo://app?vid=d234dac7-4ce3-4348-b72f-a62abb04355c","ios":"levelo://app?vid=d234dac7-4ce3-4348-b72f-a62abb04355c"},"vehicle_type_id":"4","last_reported":1729415346,"current_range_meters":10800,"station_id":"ce4bhf92rcd13ifvqf40","pricing_plan_id":"cebpf4jnsgd1na2vs0mg"},{"bike_id":"a36d5b65-eb8a-456f-8d5a-a5c7f0b1b618","system_id":"levelo_inurba_marseille","lat":43.249975,"lon":5.389335,"is_reserved":false,"is_disabled":false,"rental_uris":{"android":"levelo://app?vid=a36d5b65-eb8a-456f-8d5a-a5c7f0b1b618","ios":"levelo://app?vid=a36d5b65-eb8a-456f-8d5a-a5c7f0b1b618"},"vehicle_type_id":"4","last_reported":1729415346,"current_range_meters":32400,"station_id":"ce4bhgp2rcd13ifvqfd0","pricing_plan_id":"cebpf4jnsgd1na2vs0mg"},{"bike_id":"b10181cc-41ff-4bd7-8376-48a23e3dc7f1","system_id":"levelo_inurba_marseille","lat":43.25858,"lon":5.39904,"is_reserved":false,"is_disabled":false,"rental_uris":{"android":"levelo://app?vid=b10181cc-41ff-4bd7-8376-48a23e3dc7f1","ios":"levelo://app?vid=b10181cc-41ff-4bd7-8376-48a23e3dc7f1"},"vehicle_type_id":"4","last_reported":1729415346,"current_range_meters":30000,"station_id":"ce4bhl92rcd13ifvqghg","pricing_plan_id":"cebpf4jnsgd1na2vs0mg"},{"bike_id":"bdc9eb1f-e84a-472b-9728-39e6924ff743","system_id":"levelo_inurba_marseille","lat":43.26552,"lon":5.37281,"is_reserved":false,"is_disabled":false,"rental_uris":{"android":"levelo://app?vid=bdc9eb1f-e84a-472b-9728-39e6924ff743","ios":"levelo://app?vid=bdc9eb1f-e84a-472b-9728-39e6924ff743"},"vehicle_type_id":"4","last_reported":1729415346,"current_range_meters":38400,"station_id":"ce4bhg12rcd13ifvqf70","pricing_plan_id":"cebpf4jnsgd1na2vs0mg"},{"bike_id":"336d97b2-77c8-4d9d-ace7-04668b54be02","system_id":"levelo_inurba_marseille","lat":43.30902,"lon":5.3686,"is_reserved":false,"is_disabled":false,"rental_uris":{"android":"levelo://app?vid=336d97b2-77c8-4d9d-ace7-04668b54be02","ios":"levelo://app?vid=336d97b2-77c8-4d9d-ace7-04668b54be02"},"vehicle_type_id":"4","last_reported":1729415346,"current_range_meters":32800,"station_id":"ce4bgn92rcd13ifvqbvg","pricing_plan_id":"cebpf4jnsgd1na2vs0mg"},{"bike_id":"e51f2988-7e18-4959-b529-31b52045dc80","system_id":"levelo_inurba_marseille","lat":43.2827,"lon":5.35072,"is_reserved":false,"is_disabled":false,"rental_uris":{"android":"levelo://app?vid=e51f2988-7e18-4959-b529-31b52045dc80","ios":"levelo://app?vid=e51f2988-7e18-4959-b529-31b52045dc80"},"vehicle_type_id":"4","last_reported":1729415346,"current_range_meters":33200,"station_id":"ce4bhbp2rcd13ifvqerg","pricing_plan_id":"cebpf4jnsgd1na2vs0mg"},{"bike_id":"55b3a8f5-19d1-4d08-bf99-ccf2c312bc04","system_id":"levelo_inurba_marseille","lat":43.23188,"lon":5.35546,"is_reserved":false,"is_disabled":false,"rental_uris":{"android":"levelo://app?vid=55b3a8f5-19d1-4d08-bf99-ccf2c312bc04","ios":"levelo://app?vid=55b3a8f5-19d1-4d08-bf99-ccf2c312bc04"},"vehicle_type_id":"4","last_reported":1729415346,"current_range_meters":38400,"station_id":"ce4bhu92rcd13ifvqi70","pricing_plan_id":"cebpf4jnsgd1na2vs0mg"},{"bike_id":"378e51df-60c2-4a5c-bd90-9e7f0642dffc","system_id":"levelo_inurba_marseille","lat":43.28472,"lon":5.38419,"is_reserved":false,"is_disabled":false,"rental_uris":{"android":"levelo://app?vid=378e51df-60c2-4a5c-bd90-9e7f0642dffc","ios":"levelo://app?vid=378e51df-60c2-4a5c-bd90-9e7f0642dffc"},"vehicle_type_id":"4","last_reported":1729415346,"current_range_meters":38000,"station_id":"ce4bh512rcd13ifvqe3g","pricing_plan_id":"cebpf4jnsgd1na2vs0mg"},{"bike_id":"b7de9dd9-5cc2-4cc4-a2fe-9e58cc422c15","system_id":"levelo_inurba_marseille","lat":43.32343,"lon":5.40624,"is_reserved":false,"is_disabled":false,"rental_uris":{"android":"levelo://app?vid=b7de9dd9-5cc2-4cc4-a2fe-9e58cc422c15","ios":"levelo://app?vid=b7de9dd9-5cc2-4cc4-a2fe-9e58cc422c15"},"vehicle_type_id":"4","last_reported":1729415346,"current_range_meters":24400,"station_id":"ce4bhq92rcd13ifvqhjg","pricing_plan_id":"cebpf4jnsgd1na2vs0mg"},{"bike_id":"43d24770-4ece-4a77-a029-fe46e9bde13b","system_id":"levelo_inurba_marseille","lat":43.31565,"lon":5.37432,"is_reserved":false,"is_disabled":false,"rental_uris":{"android":"levelo://app?vid=43d24770-4ece-4a77-a029-fe46e9bde13b","ios":"levelo://app?vid=43d24770-4ece-4a77-a029-fe46e9bde13b"},"vehicle_type_id":"4","last_reported":1729415346,"current_range_meters":38000,"station_id":"","pricing_plan_id":"cebpf4jnsgd1na2vs0mg"},{"bike_id":"b025e277-dce5-479f-9394-1317af7a77c2","system_id":"levelo_inurba_marseille","lat":43.29007,"lon":5.35607,"is_reserved":false,"is_disabled":false,"rental_uris":{"android":"levelo://app?vid=b025e277-dce5-479f-9394-1317af7a77c2","ios":"levelo://app?vid=b025e277-dce5-479f-9394-1317af7a77c2"},"vehicle_type_id":"4","last_reported":1729415346,"current_range_meters":26000,"station_id":"ce4bhb92rcd13ifvqen0","pricing_plan_id":"cebpf4jnsgd1na2vs0mg"},{"bike_id":"31830c46-141b-4d33-97d3-09a539a79ef4","system_id":"levelo_inurba_marseille","lat":43.29727,"lon":5.37685,"is_reserved":false,"is_disabled":false,"rental_uris":{"android":"levelo://app?vid=31830c46-141b-4d33-97d3-09a539a79ef4","ios":"levelo://app?vid=31830c46-141b-4d33-97d3-09a539a79ef4"},"vehicle_type_id":"4","last_reported":1729415346,"current_range_meters":8400,"station_id":"ce4bgkh2rcd13ifvqbl0","pricing_plan_id":"cebpf4jnsgd1na2vs0mg"},{"bike_id":"e1dc42f1-ba0e-4515-9e82-ed70ae9b82e8","system_id":"levelo_inurba_marseille","lat":43.23965,"lon":5.36635,"is_reserved":false,"is_disabled":false,"rental_uris":{"android":"levelo://app?vid=e1dc42f1-ba0e-4515-9e82-ed70ae9b82e8","ios":"levelo://app?vid=e1dc42f1-ba0e-4515-9e82-ed70ae9b82e8"},"vehicle_type_id":"4","last_reported":1729415346,"current_range_meters":21600,"station_id":"ce4bhi12rcd13ifvqfp0","pricing_plan_id":"cebpf4jnsgd1na2vs0mg"},{"bike_id":"766da900-471d-42f5-8cfa-8db494f945d7","system_id":"levelo_inurba_marseille","lat":43.28915,"lon":5.46057,"is_reserved":false,"is_disabled":false,"rental_uris":{"android":"levelo://app?vid=766da900-471d-42f5-8cfa-8db494f945d7","ios":"levelo://app?vid=766da900-471d-42f5-8cfa-8db494f945d7"},"vehicle_type_id":"4","last_reported":1729415346,"current_range_meters":25600,"station_id":"","pricing_plan_id":"cebpf4jnsgd1na2vs0mg"},{"bike_id":"8664fa54-e5e6-47ee-8b6e-ba51a17828c2","system_id":"levelo_inurba_marseille","lat":43.295875,"lon":5.36747,"is_reserved":false,"is_disabled":false,"rental_uris":{"android":"levelo://app?vid=8664fa54-e5e6-47ee-8b6e-ba51a17828c2","ios":"levelo://app?vid=8664fa54-e5e6-47ee-8b6e-ba51a17828c2"},"vehicle_type_id":"4","last_reported":1729415346,"current_range_meters":32000,"station_id":"ce4bgph2rcd13ifvqc2g","pricing_plan_id":"cebpf4jnsgd1na2vs0mg"},{"bike_id":"07eaa915-1976-4fdd-a33f-d75a7e60b96c","system_id":"levelo_inurba_marseille","lat":43.27975,"lon":5.38741,"is_reserved":false,"is_disabled":false,"rental_uris":{"android":"levelo://app?vid=07eaa915-1976-4fdd-a33f-d75a7e60b96c","ios":"levelo://app?vid=07eaa915-1976-4fdd-a33f-d75a7e60b96c"},"vehicle_type_id":"4","last_reported":1729415346,"current_range_meters":10000,"station_id":"ce4bhg12rcd13ifvqf80","pricing_plan_id":"cebpf4jnsgd1na2vs0mg"},{"bike_id":"557744d5-dcf0-49a3-978d-ababff6906d9","system_id":"levelo_inurba_marseille","lat":43.286137,"lon":5.351052,"is_reserved":false,"is_disabled":false,"rental_uris":{"android":"levelo://app?vid=557744d5-dcf0-49a3-978d-ababff6906d9","ios":"levelo://app?vid=557744d5-dcf0-49a3-978d-ababff6906d9"},"vehicle_type_id":"4","last_reported":1729415346,"current_range_meters":17600,"station_id":"ce4bhch2rcd13ifvqeug","pricing_plan_id":"cebpf4jnsgd1na2vs0mg"},{"bike_id":"ab3708dc-2324-4d77-ac1a-38c928b735aa","system_id":"levelo_inurba_marseille","lat":43.28099,"lon":5.37846,"is_reserved":false,"is_disabled":false,"rental_uris":{"android":"levelo://app?vid=ab3708dc-2324-4d77-ac1a-38c928b735aa","ios":"levelo://app?vid=ab3708dc-2324-4d77-ac1a-38c928b735aa"},"vehicle_type_id":"4","last_reported":1729415346,"current_range_meters":26000,"station_id":"ce4bha12rcd13ifvqee0","pricing_plan_id":"cebpf4jnsgd1na2vs0mg"},{"bike_id":"20fa1e7e-e1d5-4b69-92ff-35f8262cb153","system_id":"levelo_inurba_marseille","lat":43.27621,"lon":5.36109,"is_reserved":false,"is_disabled":false,"rental_uris":{"android":"levelo://app?vid=20fa1e7e-e1d5-4b69-92ff-35f8262cb153","ios":"levelo://app?vid=20fa1e7e-e1d5-4b69-92ff-35f8262cb153"},"vehicle_type_id":"4","last_reported":1729415346,"current_range_meters":25600,"station_id":"ce4bgj92rcd13ifvqbe0","pricing_plan_id":"cebpf4jnsgd1na2vs0mg"},{"bike_id":"eefa5202-0b98-49ff-b525-e6f7b27c8f69","system_id":"levelo_inurba_marseille","lat":43.25087,"lon":5.39519,"is_reserved":false,"is_disabled":false,"rental_uris":{"android":"levelo://app?vid=eefa5202-0b98-49ff-b525-e6f7b27c8f69","ios":"levelo://app?vid=eefa5202-0b98-49ff-b525-e6f7b27c8f69"},"vehicle_type_id":"4","last_reported":1729415346,"current_range_meters":30400,"station_id":"ce4bhm12rcd13ifvqgkg","pricing_plan_id":"cebpf4jnsgd1na2vs0mg"},{"bike_id":"aa198ae7-0cb1-41bc-944a-560678a2f2dd","system_id":"levelo_inurba_marseille","lat":43.29534,"lon":5.36505,"is_reserved":false,"is_disabled":false,"rental_uris":{"android":"levelo://app?vid=aa198ae7-0cb1-41bc-944a-560678a2f2dd","ios":"levelo://app?vid=aa198ae7-0cb1-41bc-944a-560678a2f2dd"},"vehicle_type_id":"4","last_reported":1729415346,"current_range_meters":38800,"station_id":"","pricing_plan_id":"cebpf4jnsgd1na2vs0mg"},{"bike_id":"8400a97e-ed46-4d37-b5cf-926b69826c1f","system_id":"levelo_inurba_marseille","lat":43.28103,"lon":5.37852,"is_reserved":false,"is_disabled":false,"rental_uris":{"android":"levelo://app?vid=8400a97e-ed46-4d37-b5cf-926b69826c1f","ios":"levelo://app?vid=8400a97e-ed46-4d37-b5cf-926b69826c1f"},"vehicle_type_id":"4","last_reported":1729415346,"current_range_meters":16800,"station_id":"ce4bha12rcd13ifvqee0","pricing_plan_id":"cebpf4jnsgd1na2vs0mg"},{"bike_id":"cc10d048-9360-4f1c-b075-bd6d08c1c67a","system_id":"levelo_inurba_marseille","lat":43.24168,"lon":5.36395,"is_reserved":false,"is_disabled":false,"rental_uris":{"android":"levelo://app?vid=cc10d048-9360-4f1c-b075-bd6d08c1c67a","ios":"levelo://app?vid=cc10d048-9360-4f1c-b075-bd6d08c1c67a"},"vehicle_type_id":"4","last_reported":1729415346,"current_range_meters":14800,"station_id":"cpo36qri1sfpv3e86is0","pricing_plan_id":"cebpf4jnsgd1na2vs0mg"},{"bike_id":"48e31542-40b2-4d9a-9066-b8fd489905a2","system_id":"levelo_inurba_marseille","lat":43.27376,"lon":5.3627,"is_reserved":false,"is_disabled":false,"rental_uris":{"android":"levelo://app?vid=48e31542-40b2-4d9a-9066-b8fd489905a2","ios":"levelo://app?vid=48e31542-40b2-4d9a-9066-b8fd489905a2"},"vehicle_type_id":"4","last_reported":1729415346,"current_range_meters":8800,"station_id":"ce4bhbh2rcd13ifvqeo0","pricing_plan_id":"cebpf4jnsgd1na2vs0mg"},{"bike_id":"51391bff-5059-4451-b2f3-b70a5addab08","system_id":"levelo_inurba_marseille","lat":43.29033,"lon":5.37557,"is_reserved":false,"is_disabled":false,"rental_uris":{"android":"levelo://app?vid=51391bff-5059-4451-b2f3-b70a5addab08","ios":"levelo://app?vid=51391bff-5059-4451-b2f3-b70a5addab08"},"vehicle_type_id":"4","last_reported":1729415346,"current_range_meters":37600,"station_id":"ce4bh692rcd13ifvqe90","pricing_plan_id":"cebpf4jnsgd1na2vs0mg"},{"bike_id":"edb7d155-5715-46ac-ba62-b3603566e51c","system_id":"levelo_inurba_marseille","lat":43.2621,"lon":5.37925,"is_reserved":false,"is_disabled":false,"rental_uris":{"android":"levelo://app?vid=edb7d155-5715-46ac-ba62-b3603566e51c","ios":"levelo://app?vid=edb7d155-5715-46ac-ba62-b3603566e51c"},"vehicle_type_id":"4","last_reported":1729415346,"current_range_meters":27200,"station_id":"ce4bhjp2rcd13ifvqg90","pricing_plan_id":"cebpf4jnsgd1na2vs0mg"},{"bike_id":"b1987f79-3507-468b-81ed-924312b61f29","system_id":"levelo_inurba_marseille","lat":43.27369,"lon":5.3626,"is_reserved":false,"is_disabled":false,"rental_uris":{"android":"levelo://app?vid=b1987f79-3507-468b-81ed-924312b61f29","ios":"levelo://app?vid=b1987f79-3507-468b-81ed-924312b61f29"},"vehicle_type_id":"4","last_reported":1729415346,"current_range_meters":39200,"station_id":"ce4bhbh2rcd13ifvqeo0","pricing_plan_id":"cebpf4jnsgd1na2vs0mg"},{"bike_id":"68dd0e9a-435f-4944-be2e-18dd27411802","system_id":"levelo_inurba_marseille","lat":43.29705,"lon":5.36607,"is_reserved":false,"is_disabled":false,"rental_uris":{"android":"levelo://app?vid=68dd0e9a-435f-4944-be2e-18dd27411802","ios":"levelo://app?vid=68dd0e9a-435f-4944-be2e-18dd27411802"},"vehicle_type_id":"4","last_reported":1729415346,"current_range_meters":38000,"station_id":"ce4bgn12rcd13ifvqbt0","pricing_plan_id":"cebpf4jnsgd1na2vs0mg"},{"bike_id":"6b3548a2-b438-4e59-8d4e-79cbc12e7a24","system_id":"levelo_inurba_marseille","lat":43.25581,"lon":5.38234,"is_reserved":false,"is_disabled":false,"rental_uris":{"android":"levelo://app?vid=6b3548a2-b438-4e59-8d4e-79cbc12e7a24","ios":"levelo://app?vid=6b3548a2-b438-4e59-8d4e-79cbc12e7a24"},"vehicle_type_id":"4","last_reported":1729415346,"current_range_meters":30000,"station_id":"ce4bhih2rcd13ifvqfs0","pricing_plan_id":"cebpf4jnsgd1na2vs0mg"},{"bike_id":"b9661b05-bf59-42b0-8cf6-fee0afc026bf","system_id":"levelo_inurba_marseille","lat":43.32331,"lon":5.40619,"is_reserved":false,"is_disabled":false,"rental_uris":{"android":"levelo://app?vid=b9661b05-bf59-42b0-8cf6-fee0afc026bf","ios":"levelo://app?vid=b9661b05-bf59-42b0-8cf6-fee0afc026bf"},"vehicle_type_id":"4","last_reported":1729415346,"current_range_meters":7200,"station_id":"ce4bhq92rcd13ifvqhjg","pricing_plan_id":"cebpf4jnsgd1na2vs0mg"},{"bike_id":"f3384269-86f6-4022-9aac-310d32aa0279","system_id":"levelo_inurba_marseille","lat":43.2996,"lon":5.41325,"is_reserved":false,"is_disabled":false,"rental_uris":{"android":"levelo://app?vid=f3384269-86f6-4022-9aac-310d32aa0279","ios":"levelo://app?vid=f3384269-86f6-4022-9aac-310d32aa0279"},"vehicle_type_id":"4","last_reported":1729415346,"current_range_meters":19200,"station_id":"ce4bhp12rcd13ifvqh9g","pricing_plan_id":"cebpf4jnsgd1na2vs0mg"},{"bike_id":"2910eaad-da2f-4396-abed-6a24ceae014b","system_id":"levelo_inurba_marseille","lat":43.30384,"lon":5.37338,"is_reserved":false,"is_disabled":false,"rental_uris":{"android":"levelo://app?vid=2910eaad-da2f-4396-abed-6a24ceae014b","ios":"levelo://app?vid=2910eaad-da2f-4396-abed-6a24ceae014b"},"vehicle_type_id":"4","last_reported":1729415346,"current_range_meters":17200,"station_id":"","pricing_plan_id":"cebpf4jnsgd1na2vs0mg"},{"bike_id":"377d350b-9df2-4f48-972e-2d520cb9c9ab","system_id":"levelo_inurba_marseille","lat":43.29853,"lon":5.36281,"is_reserved":false,"is_disabled":false,"rental_uris":{"android":"levelo://app?vid=377d350b-9df2-4f48-972e-2d520cb9c9ab","ios":"levelo://app?vid=377d350b-9df2-4f48-972e-2d520cb9c9ab"},"vehicle_type_id":"4","last_reported":1729415346,"current_range_meters":39200,"station_id":"ce4bgpp2rcd13ifvqc3g","pricing_plan_id":"cebpf4jnsgd1na2vs0mg"},{"bike_id":"6e706dcb-6e41-41b6-a172-73765c66fdaa","system_id":"levelo_inurba_marseille","lat":43.26239,"lon":5.37584,"is_reserved":false,"is_disabled":false,"rental_uris":{"android":"levelo://app?vid=6e706dcb-6e41-41b6-a172-73765c66fdaa","ios":"levelo://app?vid=6e706dcb-6e41-41b6-a172-73765c66fdaa"},"vehicle_type_id":"4","last_reported":1729415346,"current_range_meters":35200,"station_id":"ce4bhhp2rcd13ifvqfm0","pricing_plan_id":"cebpf4jnsgd1na2vs0mg"},{"bike_id":"0b297742-aea6-41b8-bd02-ada1ede0366e","system_id":"levelo_inurba_marseille","lat":43.31277,"lon":5.40169,"is_reserved":false,"is_disabled":false,"rental_uris":{"android":"levelo://app?vid=0b297742-aea6-41b8-bd02-ada1ede0366e","ios":"levelo://app?vid=0b297742-aea6-41b8-bd02-ada1ede0366e"},"vehicle_type_id":"4","last_reported":1729415346,"current_range_meters":9600,"station_id":"ce4bh092rcd13ifvqd30","pricing_plan_id":"cebpf4jnsgd1na2vs0mg"},{"bike_id":"522bb5dc-efc4-45ac-a026-aafe838b2839","system_id":"levelo_inurba_marseille","lat":43.29784,"lon":5.37096,"is_reserved":false,"is_disabled":false,"rental_uris":{"android":"levelo://app?vid=522bb5dc-efc4-45ac-a026-aafe838b2839","ios":"levelo://app?vid=522bb5dc-efc4-45ac-a026-aafe838b2839"},"vehicle_type_id":"4","last_reported":1729415346,"current_range_meters":37600,"station_id":"ce4bgop2rcd13ifvqc1g","pricing_plan_id":"cebpf4jnsgd1na2vs0mg"},{"bike_id":"67269e36-d775-4e94-8a3f-fb8cb88cd2e0","system_id":"levelo_inurba_marseille","lat":43.31327,"lon":5.39696,"is_reserved":false,"is_disabled":false,"rental_uris":{"android":"levelo://app?vid=67269e36-d775-4e94-8a3f-fb8cb88cd2e0","ios":"levelo://app?vid=67269e36-d775-4e94-8a3f-fb8cb88cd2e0"},"vehicle_type_id":"4","last_reported":1729415346,"current_range_meters":36000,"station_id":"ce4bgvp2rcd13ifvqcu0","pricing_plan_id":"cebpf4jnsgd1na2vs0mg"},{"bike_id":"9a6c46dd-ccae-46ed-9562-947af13fee4a","system_id":"levelo_inurba_marseille","lat":43.23197,"lon":5.35555,"is_reserved":false,"is_disabled":false,"rental_uris":{"android":"levelo://app?vid=9a6c46dd-ccae-46ed-9562-947af13fee4a","ios":"levelo://app?vid=9a6c46dd-ccae-46ed-9562-947af13fee4a"},"vehicle_type_id":"4","last_reported":1729415346,"current_range_meters":29600,"station_id":"ce4bhu92rcd13ifvqi70","pricing_plan_id":"cebpf4jnsgd1na2vs0mg"},{"bike_id":"adf5cd07-0fd3-48b8-8b39-d99bf1af1db3","system_id":"levelo_inurba_marseille","lat":43.33024,"lon":5.39041,"is_reserved":false,"is_disabled":false,"rental_uris":{"android":"levelo://app?vid=adf5cd07-0fd3-48b8-8b39-d99bf1af1db3","ios":"levelo://app?vid=adf5cd07-0fd3-48b8-8b39-d99bf1af1db3"},"vehicle_type_id":"4","last_reported":1729415346,"current_range_meters":38400,"station_id":"ce4bhr92rcd13ifvqhrg","pricing_plan_id":"cebpf4jnsgd1na2vs0mg"},{"bike_id":"7772d39f-5e28-445c-af91-069b0cf63793","system_id":"levelo_inurba_marseille","lat":43.33765,"lon":5.37438,"is_reserved":false,"is_disabled":false,"rental_uris":{"android":"levelo://app?vid=7772d39f-5e28-445c-af91-069b0cf63793","ios":"levelo://app?vid=7772d39f-5e28-445c-af91-069b0cf63793"},"vehicle_type_id":"4","last_reported":1729415346,"current_range_meters":4800,"station_id":"","pricing_plan_id":"cebpf4jnsgd1na2vs0mg"},{"bike_id":"858f8101-d134-4ca8-b49c-156bc855d981","system_id":"levelo_inurba_marseille","lat":43.27052,"lon":5.40269,"is_reserved":false,"is_disabled":false,"rental_uris":{"android":"levelo://app?vid=858f8101-d134-4ca8-b49c-156bc855d981","ios":"levelo://app?vid=858f8101-d134-4ca8-b49c-156bc855d981"},"vehicle_type_id":"4","last_reported":1729415346,"current_range_meters":38000,"station_id":"ce4bhk92rcd13ifvqgc0","pricing_plan_id":"cebpf4jnsgd1na2vs0mg"},{"bike_id":"733eb2c5-00ab-4d49-8038-dfb888b12557","system_id":"levelo_inurba_marseille","lat":43.3199,"lon":5.3815,"is_reserved":false,"is_disabled":false,"rental_uris":{"android":"levelo://app?vid=733eb2c5-00ab-4d49-8038-dfb888b12557","ios":"levelo://app?vid=733eb2c5-00ab-4d49-8038-dfb888b12557"},"vehicle_type_id":"4","last_reported":1729415346,"current_range_meters":33200,"station_id":"ce4bhr12rcd13ifvqhpg","pricing_plan_id":"cebpf4jnsgd1na2vs0mg"},{"bike_id":"3213665e-989c-4d22-9f5a-31c8522597dd","system_id":"levelo_inurba_marseille","lat":43.296,"lon":5.36142,"is_reserved":false,"is_disabled":false,"rental_uris":{"android":"levelo://app?vid=3213665e-989c-4d22-9f5a-31c8522597dd","ios":"levelo://app?vid=3213665e-989c-4d22-9f5a-31c8522597dd"},"vehicle_type_id":"4","last_reported":1729415346,"current_range_meters":16000,"station_id":"","pricing_plan_id":"cebpf4jnsgd1na2vs0mg"},{"bike_id":"fd15510c-cb22-4d4b-b285-6de1e0fb4b50","system_id":"levelo_inurba_marseille","lat":43.23153,"lon":5.43711,"is_reserved":false,"is_disabled":false,"rental_uris":{"android":"levelo://app?vid=fd15510c-cb22-4d4b-b285-6de1e0fb4b50","ios":"levelo://app?vid=fd15510c-cb22-4d4b-b285-6de1e0fb4b50"},"vehicle_type_id":"4","last_reported":1729415346,"current_range_meters":11200,"station_id":"ce4bhmp2rcd13ifvqgog","pricing_plan_id":"cebpf4jnsgd1na2vs0mg"},{"bike_id":"3f3c663d-a6fd-4091-8533-6c09ca965902","system_id":"levelo_inurba_marseille","lat":43.31194,"lon":5.37707,"is_reserved":false,"is_disabled":false,"rental_uris":{"android":"levelo://app?vid=3f3c663d-a6fd-4091-8533-6c09ca965902","ios":"levelo://app?vid=3f3c663d-a6fd-4091-8533-6c09ca965902"},"vehicle_type_id":"4","last_reported":1729415346,"current_range_meters":14800,"station_id":"","pricing_plan_id":"cebpf4jnsgd1na2vs0mg"},{"bike_id":"275e8b97-c257-4f5b-9606-c19c9133569b","system_id":"levelo_inurba_marseille","lat":43.29472,"lon":5.36322,"is_reserved":false,"is_disabled":false,"rental_uris":{"android":"levelo://app?vid=275e8b97-c257-4f5b-9606-c19c9133569b","ios":"levelo://app?vid=275e8b97-c257-4f5b-9606-c19c9133569b"},"vehicle_type_id":"4","last_reported":1729415346,"current_range_meters":11600,"station_id":"","pricing_plan_id":"cebpf4jnsgd1na2vs0mg"},{"bike_id":"9a2117f0-c5b0-4dc2-891b-026a24af23f1","system_id":"levelo_inurba_marseille","lat":43.3105,"lon":5.40092,"is_reserved":false,"is_disabled":false,"rental_uris":{"android":"levelo://app?vid=9a2117f0-c5b0-4dc2-891b-026a24af23f1","ios":"levelo://app?vid=9a2117f0-c5b0-4dc2-891b-026a24af23f1"},"vehicle_type_id":"4","last_reported":1729415346,"current_range_meters":36400,"station_id":"","pricing_plan_id":"cebpf4jnsgd1na2vs0mg"},{"bike_id":"d25798a2-ebae-4afe-8c49-a6d31773dc0a","system_id":"levelo_inurba_marseille","lat":43.265594,"lon":5.372815,"is_reserved":false,"is_disabled":false,"rental_uris":{"android":"levelo://app?vid=d25798a2-ebae-4afe-8c49-a6d31773dc0a","ios":"levelo://app?vid=d25798a2-ebae-4afe-8c49-a6d31773dc0a"},"vehicle_type_id":"4","last_reported":1729415346,"current_range_meters":25600,"station_id":"ce4bhg12rcd13ifvqf70","pricing_plan_id":"cebpf4jnsgd1na2vs0mg"},{"bike_id":"41d12afe-d43b-4212-9958-e7c01d02bfc5","system_id":"levelo_inurba_marseille","lat":43.24997,"lon":5.38921,"is_reserved":false,"is_disabled":false,"rental_uris":{"android":"levelo://app?vid=41d12afe-d43b-4212-9958-e7c01d02bfc5","ios":"levelo://app?vid=41d12afe-d43b-4212-9958-e7c01d02bfc5"},"vehicle_type_id":"4","last_reported":1729415346,"current_range_meters":38400,"station_id":"ce4bhgp2rcd13ifvqfd0","pricing_plan_id":"cebpf4jnsgd1na2vs0mg"},{"bike_id":"5dd719ab-a213-4094-b2e1-609f6924f39b","system_id":"levelo_inurba_marseille","lat":43.31992,"lon":5.38153,"is_reserved":false,"is_disabled":false,"rental_uris":{"android":"levelo://app?vid=5dd719ab-a213-4094-b2e1-609f6924f39b","ios":"levelo://app?vid=5dd719ab-a213-4094-b2e1-609f6924f39b"},"vehicle_type_id":"4","last_reported":1729415346,"current_range_meters":39200,"station_id":"ce4bhr12rcd13ifvqhpg","pricing_plan_id":"cebpf4jnsgd1na2vs0mg"},{"bike_id":"d1eaed94-2ffc-4609-a3b8-b0df4a991b21","system_id":"levelo_inurba_marseille","lat":43.31236,"lon":5.38478,"is_reserved":false,"is_disabled":false,"rental_uris":{"android":"levelo://app?vid=d1eaed94-2ffc-4609-a3b8-b0df4a991b21","ios":"levelo://app?vid=d1eaed94-2ffc-4609-a3b8-b0df4a991b21"},"vehicle_type_id":"4","last_reported":1729415346,"current_range_meters":14800,"station_id":"","pricing_plan_id":"cebpf4jnsgd1na2vs0mg"},{"bike_id":"3a553d37-94eb-4024-abd0-f1450ee14b60","system_id":"levelo_inurba_marseille","lat":43.3153,"lon":5.38034,"is_reserved":false,"is_disabled":false,"rental_uris":{"android":"levelo://app?vid=3a553d37-94eb-4024-abd0-f1450ee14b60","ios":"levelo://app?vid=3a553d37-94eb-4024-abd0-f1450ee14b60"},"vehicle_type_id":"4","last_reported":1729415346,"current_range_meters":19200,"station_id":"ce4bhsp2rcd13ifvqi50","pricing_plan_id":"cebpf4jnsgd1na2vs0mg"},{"bike_id":"77eda452-1677-4e1e-a2d7-0a5d96dbe3ce","system_id":"levelo_inurba_marseille","lat":43.34145,"lon":5.4091,"is_reserved":false,"is_disabled":false,"rental_uris":{"android":"levelo://app?vid=77eda452-1677-4e1e-a2d7-0a5d96dbe3ce","ios":"levelo://app?vid=77eda452-1677-4e1e-a2d7-0a5d96dbe3ce"},"vehicle_type_id":"4","last_reported":1729415346,"current_range_meters":37600,"station_id":"ce4bhqh2rcd13ifvqhlg","pricing_plan_id":"cebpf4jnsgd1na2vs0mg"},{"bike_id":"7aa216d4-9013-4827-88c3-51b73d7ae2a1","system_id":"levelo_inurba_marseille","lat":43.28619,"lon":5.35103,"is_reserved":false,"is_disabled":false,"rental_uris":{"android":"levelo://app?vid=7aa216d4-9013-4827-88c3-51b73d7ae2a1","ios":"levelo://app?vid=7aa216d4-9013-4827-88c3-51b73d7ae2a1"},"vehicle_type_id":"4","last_reported":1729415346,"current_range_meters":31200,"station_id":"ce4bh492rcd13ifvqdvg","pricing_plan_id":"cebpf4jnsgd1na2vs0mg"},{"bike_id":"4cc5727d-b9bc-4c19-9396-1b26b139dc2a","system_id":"levelo_inurba_marseille","lat":43.31696,"lon":5.40468,"is_reserved":false,"is_disabled":false,"rental_uris":{"android":"levelo://app?vid=4cc5727d-b9bc-4c19-9396-1b26b139dc2a","ios":"levelo://app?vid=4cc5727d-b9bc-4c19-9396-1b26b139dc2a"},"vehicle_type_id":"4","last_reported":1729415346,"current_range_meters":39200,"station_id":"ce4bh012rcd13ifvqd00","pricing_plan_id":"cebpf4jnsgd1na2vs0mg"},{"bike_id":"b8b721e3-c0e7-4491-844f-191085275f86","system_id":"levelo_inurba_marseille","lat":43.24548,"lon":5.39521,"is_reserved":false,"is_disabled":false,"rental_uris":{"android":"levelo://app?vid=b8b721e3-c0e7-4491-844f-191085275f86","ios":"levelo://app?vid=b8b721e3-c0e7-4491-844f-191085275f86"},"vehicle_type_id":"4","last_reported":1729415346,"current_range_meters":38400,"station_id":"ce4bhlp2rcd13ifvqgjg","pricing_plan_id":"cebpf4jnsgd1na2vs0mg"},{"bike_id":"bda13ecd-dec7-4d6c-824c-916958aec047","system_id":"levelo_inurba_marseille","lat":43.30948,"lon":5.39036,"is_reserved":false,"is_disabled":false,"rental_uris":{"android":"levelo://app?vid=bda13ecd-dec7-4d6c-824c-916958aec047","ios":"levelo://app?vid=bda13ecd-dec7-4d6c-824c-916958aec047"},"vehicle_type_id":"4","last_reported":1729415346,"current_range_meters":38800,"station_id":"ce4bgup2rcd13ifvqco0","pricing_plan_id":"cebpf4jnsgd1na2vs0mg"},{"bike_id":"4fb6f8f4-e0f9-4df5-beee-dbaefb4861b0","system_id":"levelo_inurba_marseille","lat":43.258646,"lon":5.398902,"is_reserved":false,"is_disabled":false,"rental_uris":{"android":"levelo://app?vid=4fb6f8f4-e0f9-4df5-beee-dbaefb4861b0","ios":"levelo://app?vid=4fb6f8f4-e0f9-4df5-beee-dbaefb4861b0"},"vehicle_type_id":"4","last_reported":1729415346,"current_range_meters":33200,"station_id":"ce4bhl92rcd13ifvqghg","pricing_plan_id":"cebpf4jnsgd1na2vs0mg"},{"bike_id":"88a6c16e-2cb9-4142-9434-e66382622780","system_id":"levelo_inurba_marseille","lat":43.32338,"lon":5.40621,"is_reserved":false,"is_disabled":false,"rental_uris":{"android":"levelo://app?vid=88a6c16e-2cb9-4142-9434-e66382622780","ios":"levelo://app?vid=88a6c16e-2cb9-4142-9434-e66382622780"},"vehicle_type_id":"4","last_reported":1729415346,"current_range_meters":32400,"station_id":"ce4bhq92rcd13ifvqhjg","pricing_plan_id":"cebpf4jnsgd1na2vs0mg"},{"bike_id":"9aa0f5ce-7207-4726-95c5-7abdffd45e16","system_id":"levelo_inurba_marseille","lat":43.303733,"lon":5.418784,"is_reserved":false,"is_disabled":false,"rental_uris":{"android":"levelo://app?vid=9aa0f5ce-7207-4726-95c5-7abdffd45e16","ios":"levelo://app?vid=9aa0f5ce-7207-4726-95c5-7abdffd45e16"},"vehicle_type_id":"4","last_reported":1729415346,"current_range_meters":30800,"station_id":"ce4bhpp2rcd13ifvqhfg","pricing_plan_id":"cebpf4jnsgd1na2vs0mg"},{"bike_id":"f7b5f56c-96a1-445f-b511-773f0f01cf87","system_id":"levelo_inurba_marseille","lat":43.28156,"lon":5.42645,"is_reserved":false,"is_disabled":false,"rental_uris":{"android":"levelo://app?vid=f7b5f56c-96a1-445f-b511-773f0f01cf87","ios":"levelo://app?vid=f7b5f56c-96a1-445f-b511-773f0f01cf87"},"vehicle_type_id":"4","last_reported":1729415346,"current_range_meters":38800,"station_id":"ce4bhnh2rcd13ifvqgug","pricing_plan_id":"cebpf4jnsgd1na2vs0mg"},{"bike_id":"1c4ce82e-f03f-4873-b4e8-87353cd83dbd","system_id":"levelo_inurba_marseille","lat":43.29897,"lon":5.43662,"is_reserved":false,"is_disabled":false,"rental_uris":{"android":"levelo://app?vid=1c4ce82e-f03f-4873-b4e8-87353cd83dbd","ios":"levelo://app?vid=1c4ce82e-f03f-4873-b4e8-87353cd83dbd"},"vehicle_type_id":"4","last_reported":1729415346,"current_range_meters":38400,"station_id":"ce4bhpp2rcd13ifvqhfg","pricing_plan_id":"cebpf4jnsgd1na2vs0mg"},{"bike_id":"fac9a3a2-2dd0-4efd-afd6-73cc4f4edd9a","system_id":"levelo_inurba_marseille","lat":43.24813,"lon":5.37456,"is_reserved":false,"is_disabled":false,"rental_uris":{"android":"levelo://app?vid=fac9a3a2-2dd0-4efd-afd6-73cc4f4edd9a","ios":"levelo://app?vid=fac9a3a2-2dd0-4efd-afd6-73cc4f4edd9a"},"vehicle_type_id":"4","last_reported":1729415346,"current_range_meters":37600,"station_id":"ce4bhgh2rcd13ifvqfb0","pricing_plan_id":"cebpf4jnsgd1na2vs0mg"},{"bike_id":"883d1b73-800d-41ff-8415-40958f584c16","system_id":"levelo_inurba_marseille","lat":43.29849,"lon":5.36289,"is_reserved":false,"is_disabled":false,"rental_uris":{"android":"levelo://app?vid=883d1b73-800d-41ff-8415-40958f584c16","ios":"levelo://app?vid=883d1b73-800d-41ff-8415-40958f584c16"},"vehicle_type_id":"4","last_reported":1729415346,"current_range_meters":38400,"station_id":"ce4bgpp2rcd13ifvqc3g","pricing_plan_id":"cebpf4jnsgd1na2vs0mg"},{"bike_id":"ca4436b6-ef84-437a-acb8-3bff7e58e93c","system_id":"levelo_inurba_marseille","lat":43.23708,"lon":5.43571,"is_reserved":false,"is_disabled":false,"rental_uris":{"android":"levelo://app?vid=ca4436b6-ef84-437a-acb8-3bff7e58e93c","ios":"levelo://app?vid=ca4436b6-ef84-437a-acb8-3bff7e58e93c"},"vehicle_type_id":"4","last_reported":1729415346,"current_range_meters":24800,"station_id":"","pricing_plan_id":"cebpf4jnsgd1na2vs0mg"},{"bike_id":"65bdf8a7-581b-4618-bccb-c8132147d71a","system_id":"levelo_inurba_marseille","lat":43.27562,"lon":5.36017,"is_reserved":false,"is_disabled":false,"rental_uris":{"android":"levelo://app?vid=65bdf8a7-581b-4618-bccb-c8132147d71a","ios":"levelo://app?vid=65bdf8a7-581b-4618-bccb-c8132147d71a"},"vehicle_type_id":"4","last_reported":1729415346,"current_range_meters":12800,"station_id":"","pricing_plan_id":"cebpf4jnsgd1na2vs0mg"},{"bike_id":"3b4ba1e5-ac30-42f2-bc8a-d6e4130c1c65","system_id":"levelo_inurba_marseille","lat":43.26193,"lon":5.37451,"is_reserved":false,"is_disabled":false,"rental_uris":{"android":"levelo://app?vid=3b4ba1e5-ac30-42f2-bc8a-d6e4130c1c65","ios":"levelo://app?vid=3b4ba1e5-ac30-42f2-bc8a-d6e4130c1c65"},"vehicle_type_id":"4","last_reported":1729415346,"current_range_meters":38400,"station_id":"ce4bhgp2rcd13ifvqfc0","pricing_plan_id":"cebpf4jnsgd1na2vs0mg"},{"bike_id":"c13cafff-f91c-49a1-b44c-39d457fc994f","system_id":"levelo_inurba_marseille","lat":43.29198,"lon":5.35807,"is_reserved":false,"is_disabled":false,"rental_uris":{"android":"levelo://app?vid=c13cafff-f91c-49a1-b44c-39d457fc994f","ios":"levelo://app?vid=c13cafff-f91c-49a1-b44c-39d457fc994f"},"vehicle_type_id":"4","last_reported":1729415346,"current_range_meters":28000,"station_id":"ce4bhb12rcd13ifvqel0","pricing_plan_id":"cebpf4jnsgd1na2vs0mg"},{"bike_id":"528fef3b-bb8b-42d1-985d-ca1adbc390f0","system_id":"levelo_inurba_marseille","lat":43.24386,"lon":5.3706,"is_reserved":false,"is_disabled":false,"rental_uris":{"android":"levelo://app?vid=528fef3b-bb8b-42d1-985d-ca1adbc390f0","ios":"levelo://app?vid=528fef3b-bb8b-42d1-985d-ca1adbc390f0"},"vehicle_type_id":"4","last_reported":1729415346,"current_range_meters":11200,"station_id":"ce4bhhh2rcd13ifvqfk0","pricing_plan_id":"cebpf4jnsgd1na2vs0mg"},{"bike_id":"ceb1603d-2c49-4a2f-971f-80e7a3348d6a","system_id":"levelo_inurba_marseille","lat":43.33025,"lon":5.39043,"is_reserved":false,"is_disabled":false,"rental_uris":{"android":"levelo://app?vid=ceb1603d-2c49-4a2f-971f-80e7a3348d6a","ios":"levelo://app?vid=ceb1603d-2c49-4a2f-971f-80e7a3348d6a"},"vehicle_type_id":"4","last_reported":1729415346,"current_range_meters":39200,"station_id":"ce4bhr92rcd13ifvqhrg","pricing_plan_id":"cebpf4jnsgd1na2vs0mg"},{"bike_id":"6bd00f8b-916e-44af-90df-bc806f6543a2","system_id":"levelo_inurba_marseille","lat":43.27312,"lon":5.39094,"is_reserved":false,"is_disabled":false,"rental_uris":{"android":"levelo://app?vid=6bd00f8b-916e-44af-90df-bc806f6543a2","ios":"levelo://app?vid=6bd00f8b-916e-44af-90df-bc806f6543a2"},"vehicle_type_id":"4","last_reported":1729415346,"current_range_meters":32800,"station_id":"ce4bhgp2rcd13ifvqfe0","pricing_plan_id":"cebpf4jnsgd1na2vs0mg"},{"bike_id":"06fc3477-efca-4dfa-80c8-455a3b658825","system_id":"levelo_inurba_marseille","lat":43.2952,"lon":5.37509,"is_reserved":false,"is_disabled":false,"rental_uris":{"android":"levelo://app?vid=06fc3477-efca-4dfa-80c8-455a3b658825","ios":"levelo://app?vid=06fc3477-efca-4dfa-80c8-455a3b658825"},"vehicle_type_id":"4","last_reported":1729415346,"current_range_meters":24400,"station_id":"ce4bgkp2rcd13ifvqbmg","pricing_plan_id":"cebpf4jnsgd1na2vs0mg"},{"bike_id":"0d23ce13-96ff-4bdf-8190-c9be19f399ba","system_id":"levelo_inurba_marseille","lat":43.3241,"lon":5.41538,"is_reserved":false,"is_disabled":false,"rental_uris":{"android":"levelo://app?vid=0d23ce13-96ff-4bdf-8190-c9be19f399ba","ios":"levelo://app?vid=0d23ce13-96ff-4bdf-8190-c9be19f399ba"},"vehicle_type_id":"4","last_reported":1729415346,"current_range_meters":16400,"station_id":"ce4bhq12rcd13ifvqhhg","pricing_plan_id":"cebpf4jnsgd1na2vs0mg"},{"bike_id":"4cf3e5d8-4f9a-4007-b965-622ecd99339e","system_id":"levelo_inurba_marseille","lat":43.31074,"lon":5.40085,"is_reserved":false,"is_disabled":false,"rental_uris":{"android":"levelo://app?vid=4cf3e5d8-4f9a-4007-b965-622ecd99339e","ios":"levelo://app?vid=4cf3e5d8-4f9a-4007-b965-622ecd99339e"},"vehicle_type_id":"4","last_reported":1729415346,"current_range_meters":9600,"station_id":"","pricing_plan_id":"cebpf4jnsgd1na2vs0mg"},{"bike_id":"c34e2acb-3afe-4aa1-8cdb-c481d100b683","system_id":"levelo_inurba_marseille","lat":43.32487,"lon":5.36559,"is_reserved":false,"is_disabled":false,"rental_uris":{"android":"levelo://app?vid=c34e2acb-3afe-4aa1-8cdb-c481d100b683","ios":"levelo://app?vid=c34e2acb-3afe-4aa1-8cdb-c481d100b683"},"vehicle_type_id":"4","last_reported":1729415346,"current_range_meters":22000,"station_id":"ce4bhs12rcd13ifvqhvg","pricing_plan_id":"cebpf4jnsgd1na2vs0mg"},{"bike_id":"19e0c7ba-a3f7-43e2-aca8-366f22e4e87d","system_id":"levelo_inurba_marseille","lat":43.33724,"lon":5.3919,"is_reserved":false,"is_disabled":false,"rental_uris":{"android":"levelo://app?vid=19e0c7ba-a3f7-43e2-aca8-366f22e4e87d","ios":"levelo://app?vid=19e0c7ba-a3f7-43e2-aca8-366f22e4e87d"},"vehicle_type_id":"4","last_reported":1729415346,"current_range_meters":38400,"station_id":"ce4bhr92rcd13ifvqhsg","pricing_plan_id":"cebpf4jnsgd1na2vs0mg"},{"bike_id":"dc1671ee-37a9-4563-85ac-9c05583fa151","system_id":"levelo_inurba_marseille","lat":43.30465,"lon":5.37906,"is_reserved":false,"is_disabled":false,"rental_uris":{"android":"levelo://app?vid=dc1671ee-37a9-4563-85ac-9c05583fa151","ios":"levelo://app?vid=dc1671ee-37a9-4563-85ac-9c05583fa151"},"vehicle_type_id":"4","last_reported":1729415346,"current_range_meters":39200,"station_id":"ce4bgup2rcd13ifvqcn0","pricing_plan_id":"cebpf4jnsgd1na2vs0mg"},{"bike_id":"f9928a1b-5e01-4359-8549-3825d8c7f41a","system_id":"levelo_inurba_marseille","lat":43.22928,"lon":5.35377,"is_reserved":false,"is_disabled":false,"rental_uris":{"android":"levelo://app?vid=f9928a1b-5e01-4359-8549-3825d8c7f41a","ios":"levelo://app?vid=f9928a1b-5e01-4359-8549-3825d8c7f41a"},"vehicle_type_id":"4","last_reported":1729415346,"current_range_meters":38400,"station_id":"cpo3532slgdg3j2ikp40","pricing_plan_id":"cebpf4jnsgd1na2vs0mg"},{"bike_id":"d8ec393f-4484-4f65-969b-8ae2145a9b2b","system_id":"levelo_inurba_marseille","lat":43.31889,"lon":5.40724,"is_reserved":false,"is_disabled":false,"rental_uris":{"android":"levelo://app?vid=d8ec393f-4484-4f65-969b-8ae2145a9b2b","ios":"levelo://app?vid=d8ec393f-4484-4f65-969b-8ae2145a9b2b"},"vehicle_type_id":"4","last_reported":1729415346,"current_range_meters":39200,"station_id":"ce4bhq12rcd13ifvqhig","pricing_plan_id":"cebpf4jnsgd1na2vs0mg"},{"bike_id":"b3da6c3a-2a10-4172-a1ac-14d12204275b","system_id":"levelo_inurba_marseille","lat":43.27495,"lon":5.42458,"is_reserved":false,"is_disabled":false,"rental_uris":{"android":"levelo://app?vid=b3da6c3a-2a10-4172-a1ac-14d12204275b","ios":"levelo://app?vid=b3da6c3a-2a10-4172-a1ac-14d12204275b"},"vehicle_type_id":"4","last_reported":1729415346,"current_range_meters":39200,"station_id":"ce4bhn92rcd13ifvqgrg","pricing_plan_id":"cebpf4jnsgd1na2vs0mg"},{"bike_id":"da57fedc-7e7e-49e9-b674-21ebe804bbf1","system_id":"levelo_inurba_marseille","lat":43.31105,"lon":5.37773,"is_reserved":false,"is_disabled":false,"rental_uris":{"android":"levelo://app?vid=da57fedc-7e7e-49e9-b674-21ebe804bbf1","ios":"levelo://app?vid=da57fedc-7e7e-49e9-b674-21ebe804bbf1"},"vehicle_type_id":"4","last_reported":1729415346,"current_range_meters":30800,"station_id":"ce4bgt92rcd13ifvqcg0","pricing_plan_id":"cebpf4jnsgd1na2vs0mg"},{"bike_id":"a7b7a404-4daf-4700-b81b-e63a35f02840","system_id":"levelo_inurba_marseille","lat":43.24387,"lon":5.3706,"is_reserved":false,"is_disabled":false,"rental_uris":{"android":"levelo://app?vid=a7b7a404-4daf-4700-b81b-e63a35f02840","ios":"levelo://app?vid=a7b7a404-4daf-4700-b81b-e63a35f02840"},"vehicle_type_id":"4","last_reported":1729415346,"current_range_meters":36400,"station_id":"ce4bhhh2rcd13ifvqfk0","pricing_plan_id":"cebpf4jnsgd1na2vs0mg"},{"bike_id":"e7900d37-01c1-4dcd-8f48-85e96215d5de","system_id":"levelo_inurba_marseille","lat":43.28617,"lon":5.35109,"is_reserved":false,"is_disabled":false,"rental_uris":{"android":"levelo://app?vid=e7900d37-01c1-4dcd-8f48-85e96215d5de","ios":"levelo://app?vid=e7900d37-01c1-4dcd-8f48-85e96215d5de"},"vehicle_type_id":"4","last_reported":1729415346,"current_range_meters":34800,"station_id":"ce4bhch2rcd13ifvqeug","pricing_plan_id":"cebpf4jnsgd1na2vs0mg"},{"bike_id":"a0b4c194-1974-4888-85e2-7cfc7aeed116","system_id":"levelo_inurba_marseille","lat":43.31708,"lon":5.43697,"is_reserved":false,"is_disabled":false,"rental_uris":{"android":"levelo://app?vid=a0b4c194-1974-4888-85e2-7cfc7aeed116","ios":"levelo://app?vid=a0b4c194-1974-4888-85e2-7cfc7aeed116"},"vehicle_type_id":"4","last_reported":1729415346,"current_range_meters":38000,"station_id":"ce4bhp92rcd13ifvqhcg","pricing_plan_id":"cebpf4jnsgd1na2vs0mg"},{"bike_id":"e3b72656-5d37-43d6-a726-920ebd9ff6eb","system_id":"levelo_inurba_marseille","lat":43.29696,"lon":5.37986,"is_reserved":false,"is_disabled":false,"rental_uris":{"android":"levelo://app?vid=e3b72656-5d37-43d6-a726-920ebd9ff6eb","ios":"levelo://app?vid=e3b72656-5d37-43d6-a726-920ebd9ff6eb"},"vehicle_type_id":"4","last_reported":1729415346,"current_range_meters":38800,"station_id":"","pricing_plan_id":"cebpf4jnsgd1na2vs0mg"},{"bike_id":"e5331901-17c9-4614-9dd5-cf880c32e7df","system_id":"levelo_inurba_marseille","lat":43.32366,"lon":5.38885,"is_reserved":false,"is_disabled":false,"rental_uris":{"android":"levelo://app?vid=e5331901-17c9-4614-9dd5-cf880c32e7df","ios":"levelo://app?vid=e5331901-17c9-4614-9dd5-cf880c32e7df"},"vehicle_type_id":"4","last_reported":1729415346,"current_range_meters":20000,"station_id":"ce4bhqp2rcd13ifvqhog","pricing_plan_id":"cebpf4jnsgd1na2vs0mg"},{"bike_id":"ad9a42f3-8727-4e40-a621-56d9a1c9117f","system_id":"levelo_inurba_marseille","lat":43.305575,"lon":5.36532,"is_reserved":false,"is_disabled":false,"rental_uris":{"android":"levelo://app?vid=ad9a42f3-8727-4e40-a621-56d9a1c9117f","ios":"levelo://app?vid=ad9a42f3-8727-4e40-a621-56d9a1c9117f"},"vehicle_type_id":"4","last_reported":1729415346,"current_range_meters":38000,"station_id":"ce4bgs12rcd13ifvqcag","pricing_plan_id":"cebpf4jnsgd1na2vs0mg"},{"bike_id":"007255b7-eae9-4a4e-99da-942c389a9847","system_id":"levelo_inurba_marseille","lat":43.293335,"lon":5.373439,"is_reserved":false,"is_disabled":false,"rental_uris":{"android":"levelo://app?vid=007255b7-eae9-4a4e-99da-942c389a9847","ios":"levelo://app?vid=007255b7-eae9-4a4e-99da-942c389a9847"},"vehicle_type_id":"4","last_reported":1729415346,"current_range_meters":38000,"station_id":"ce4bgh92rcd13ifvqb40","pricing_plan_id":"cebpf4jnsgd1na2vs0mg"},{"bike_id":"d85acfe7-8a3c-43f4-83b9-747a558fc2b4","system_id":"levelo_inurba_marseille","lat":43.28614,"lon":5.35106,"is_reserved":false,"is_disabled":false,"rental_uris":{"android":"levelo://app?vid=d85acfe7-8a3c-43f4-83b9-747a558fc2b4","ios":"levelo://app?vid=d85acfe7-8a3c-43f4-83b9-747a558fc2b4"},"vehicle_type_id":"4","last_reported":1729415346,"current_range_meters":36800,"station_id":"ce4bhch2rcd13ifvqeug","pricing_plan_id":"cebpf4jnsgd1na2vs0mg"},{"bike_id":"07252ed8-27ef-43a1-9183-e098ee032f3d","system_id":"levelo_inurba_marseille","lat":43.24804,"lon":5.37464,"is_reserved":false,"is_disabled":false,"rental_uris":{"android":"levelo://app?vid=07252ed8-27ef-43a1-9183-e098ee032f3d","ios":"levelo://app?vid=07252ed8-27ef-43a1-9183-e098ee032f3d"},"vehicle_type_id":"4","last_reported":1729415346,"current_range_meters":36000,"station_id":"ce4bhgh2rcd13ifvqfb0","pricing_plan_id":"cebpf4jnsgd1na2vs0mg"},{"bike_id":"2967a1e2-4e25-4fe5-a36e-45940f756049","system_id":"levelo_inurba_marseille","lat":43.27315,"lon":5.39088,"is_reserved":false,"is_disabled":false,"rental_uris":{"android":"levelo://app?vid=2967a1e2-4e25-4fe5-a36e-45940f756049","ios":"levelo://app?vid=2967a1e2-4e25-4fe5-a36e-45940f756049"},"vehicle_type_id":"4","last_reported":1729415346,"current_range_meters":32400,"station_id":"ce4bhgp2rcd13ifvqfe0","pricing_plan_id":"cebpf4jnsgd1na2vs0mg"},{"bike_id":"772078c8-c709-4f60-bd2d-f4d6e3aa1011","system_id":"levelo_inurba_marseille","lat":43.30528,"lon":5.36558,"is_reserved":false,"is_disabled":false,"rental_uris":{"android":"levelo://app?vid=772078c8-c709-4f60-bd2d-f4d6e3aa1011","ios":"levelo://app?vid=772078c8-c709-4f60-bd2d-f4d6e3aa1011"},"vehicle_type_id":"4","last_reported":1729415346,"current_range_meters":33200,"station_id":"ce4bgs12rcd13ifvqcag","pricing_plan_id":"cebpf4jnsgd1na2vs0mg"},{"bike_id":"d1ec8813-9753-4c41-8aea-6311315358bd","system_id":"levelo_inurba_marseille","lat":43.31701,"lon":5.3775,"is_reserved":false,"is_disabled":false,"rental_uris":{"android":"levelo://app?vid=d1ec8813-9753-4c41-8aea-6311315358bd","ios":"levelo://app?vid=d1ec8813-9753-4c41-8aea-6311315358bd"},"vehicle_type_id":"4","last_reported":1729415346,"current_range_meters":10000,"station_id":"ce4bgth2rcd13ifvqch0","pricing_plan_id":"cebpf4jnsgd1na2vs0mg"},{"bike_id":"251c2ece-8912-4dfb-9847-d8f9ff013dd6","system_id":"levelo_inurba_marseille","lat":43.24672,"lon":5.38162,"is_reserved":false,"is_disabled":false,"rental_uris":{"android":"levelo://app?vid=251c2ece-8912-4dfb-9847-d8f9ff013dd6","ios":"levelo://app?vid=251c2ece-8912-4dfb-9847-d8f9ff013dd6"},"vehicle_type_id":"4","last_reported":1729415346,"current_range_meters":22000,"station_id":"ce4bhih2rcd13ifvqfr0","pricing_plan_id":"cebpf4jnsgd1na2vs0mg"},{"bike_id":"9a3a0a5d-83bb-4455-828c-fcd023da6592","system_id":"levelo_inurba_marseille","lat":43.28276,"lon":5.35074,"is_reserved":false,"is_disabled":false,"rental_uris":{"android":"levelo://app?vid=9a3a0a5d-83bb-4455-828c-fcd023da6592","ios":"levelo://app?vid=9a3a0a5d-83bb-4455-828c-fcd023da6592"},"vehicle_type_id":"4","last_reported":1729415346,"current_range_meters":29600,"station_id":"ce4bhbp2rcd13ifvqerg","pricing_plan_id":"cebpf4jnsgd1na2vs0mg"},{"bike_id":"96c0370a-2117-4376-938b-85413456106b","system_id":"levelo_inurba_marseille","lat":43.31705,"lon":5.37743,"is_reserved":false,"is_disabled":false,"rental_uris":{"android":"levelo://app?vid=96c0370a-2117-4376-938b-85413456106b","ios":"levelo://app?vid=96c0370a-2117-4376-938b-85413456106b"},"vehicle_type_id":"4","last_reported":1729415346,"current_range_meters":39200,"station_id":"ce4bgth2rcd13ifvqch0","pricing_plan_id":"cebpf4jnsgd1na2vs0mg"},{"bike_id":"d66bd0ae-b590-4029-ae7d-0fa65a35f925","system_id":"levelo_inurba_marseille","lat":43.336,"lon":5.41019,"is_reserved":false,"is_disabled":false,"rental_uris":{"android":"levelo://app?vid=d66bd0ae-b590-4029-ae7d-0fa65a35f925","ios":"levelo://app?vid=d66bd0ae-b590-4029-ae7d-0fa65a35f925"},"vehicle_type_id":"4","last_reported":1729415346,"current_range_meters":17600,"station_id":"ce4bhqh2rcd13ifvqhmg","pricing_plan_id":"cebpf4jnsgd1na2vs0mg"},{"bike_id":"0f4738a7-a481-4644-8053-d3232e29a6ce","system_id":"levelo_inurba_marseille","lat":43.28341,"lon":5.38111,"is_reserved":false,"is_disabled":false,"rental_uris":{"android":"levelo://app?vid=0f4738a7-a481-4644-8053-d3232e29a6ce","ios":"levelo://app?vid=0f4738a7-a481-4644-8053-d3232e29a6ce"},"vehicle_type_id":"4","last_reported":1729415346,"current_range_meters":38400,"station_id":"ce4bh412rcd13ifvqdr0","pricing_plan_id":"cebpf4jnsgd1na2vs0mg"},{"bike_id":"bdddfe23-e73a-465b-8f5d-33c18d897ac7","system_id":"levelo_inurba_marseille","lat":43.30148,"lon":5.38082,"is_reserved":false,"is_disabled":false,"rental_uris":{"android":"levelo://app?vid=bdddfe23-e73a-465b-8f5d-33c18d897ac7","ios":"levelo://app?vid=bdddfe23-e73a-465b-8f5d-33c18d897ac7"},"vehicle_type_id":"4","last_reported":1729415346,"current_range_meters":38800,"station_id":"ce4bgjp2rcd13ifvqbh0","pricing_plan_id":"cebpf4jnsgd1na2vs0mg"},{"bike_id":"0070ae3c-019c-45a4-b7c4-cac83bbfa099","system_id":"levelo_inurba_marseille","lat":43.28458,"lon":5.35888,"is_reserved":false,"is_disabled":false,"rental_uris":{"android":"levelo://app?vid=0070ae3c-019c-45a4-b7c4-cac83bbfa099","ios":"levelo://app?vid=0070ae3c-019c-45a4-b7c4-cac83bbfa099"},"vehicle_type_id":"4","last_reported":1729415346,"current_range_meters":8000,"station_id":"ce4bhah2rcd13ifvqei0","pricing_plan_id":"cebpf4jnsgd1na2vs0mg"},{"bike_id":"02b99d41-0727-45dd-8b05-f76d6d331f44","system_id":"levelo_inurba_marseille","lat":43.28103,"lon":5.37843,"is_reserved":false,"is_disabled":false,"rental_uris":{"android":"levelo://app?vid=02b99d41-0727-45dd-8b05-f76d6d331f44","ios":"levelo://app?vid=02b99d41-0727-45dd-8b05-f76d6d331f44"},"vehicle_type_id":"4","last_reported":1729415346,"current_range_meters":9600,"station_id":"ce4bha12rcd13ifvqee0","pricing_plan_id":"cebpf4jnsgd1na2vs0mg"},{"bike_id":"cfdbc031-1d29-43df-9f69-452b0c9f4985","system_id":"levelo_inurba_marseille","lat":43.31276,"lon":5.40168,"is_reserved":false,"is_disabled":false,"rental_uris":{"android":"levelo://app?vid=cfdbc031-1d29-43df-9f69-452b0c9f4985","ios":"levelo://app?vid=cfdbc031-1d29-43df-9f69-452b0c9f4985"},"vehicle_type_id":"4","last_reported":1729415346,"current_range_meters":9600,"station_id":"ce4bh092rcd13ifvqd30","pricing_plan_id":"cebpf4jnsgd1na2vs0mg"},{"bike_id":"f3b18d4c-688e-4e02-9104-7f1d559134af","system_id":"levelo_inurba_marseille","lat":43.3209,"lon":5.36776,"is_reserved":false,"is_disabled":false,"rental_uris":{"android":"levelo://app?vid=f3b18d4c-688e-4e02-9104-7f1d559134af","ios":"levelo://app?vid=f3b18d4c-688e-4e02-9104-7f1d559134af"},"vehicle_type_id":"4","last_reported":1729415346,"current_range_meters":36800,"station_id":"ce4bhrh2rcd13ifvqhug","pricing_plan_id":"cebpf4jnsgd1na2vs0mg"},{"bike_id":"99a36e8e-83dc-4174-97c1-e95b5764b998","system_id":"levelo_inurba_marseille","lat":43.2396,"lon":5.36637,"is_reserved":false,"is_disabled":false,"rental_uris":{"android":"levelo://app?vid=99a36e8e-83dc-4174-97c1-e95b5764b998","ios":"levelo://app?vid=99a36e8e-83dc-4174-97c1-e95b5764b998"},"vehicle_type_id":"4","last_reported":1729415346,"current_range_meters":9600,"station_id":"ce4bhi12rcd13ifvqfp0","pricing_plan_id":"cebpf4jnsgd1na2vs0mg"},{"bike_id":"044e7643-e166-4e08-bae3-a8ed673622ad","system_id":"levelo_inurba_marseille","lat":43.27065,"lon":5.42275,"is_reserved":false,"is_disabled":false,"rental_uris":{"android":"levelo://app?vid=044e7643-e166-4e08-bae3-a8ed673622ad","ios":"levelo://app?vid=044e7643-e166-4e08-bae3-a8ed673622ad"},"vehicle_type_id":"4","last_reported":1729415346,"current_range_meters":39200,"station_id":"ce4bhk92rcd13ifvqgb0","pricing_plan_id":"cebpf4jnsgd1na2vs0mg"},{"bike_id":"fc9b3fc1-600b-416a-b916-9cf37562dae6","system_id":"levelo_inurba_marseille","lat":43.31329,"lon":5.39696,"is_reserved":false,"is_disabled":false,"rental_uris":{"android":"levelo://app?vid=fc9b3fc1-600b-416a-b916-9cf37562dae6","ios":"levelo://app?vid=fc9b3fc1-600b-416a-b916-9cf37562dae6"},"vehicle_type_id":"4","last_reported":1729415346,"current_range_meters":38400,"station_id":"ce4bgvp2rcd13ifvqcu0","pricing_plan_id":"cebpf4jnsgd1na2vs0mg"},{"bike_id":"8a61b0d3-96ba-49fc-af75-dd8176297036","system_id":"levelo_inurba_marseille","lat":43.23959,"lon":5.36623,"is_reserved":false,"is_disabled":false,"rental_uris":{"android":"levelo://app?vid=8a61b0d3-96ba-49fc-af75-dd8176297036","ios":"levelo://app?vid=8a61b0d3-96ba-49fc-af75-dd8176297036"},"vehicle_type_id":"4","last_reported":1729415346,"current_range_meters":9600,"station_id":"ce4bhi12rcd13ifvqfp0","pricing_plan_id":"cebpf4jnsgd1na2vs0mg"},{"bike_id":"0edbd095-efea-4434-a94b-91a3c3c1b489","system_id":"levelo_inurba_marseille","lat":43.29031,"lon":5.38627,"is_reserved":false,"is_disabled":false,"rental_uris":{"android":"levelo://app?vid=0edbd095-efea-4434-a94b-91a3c3c1b489","ios":"levelo://app?vid=0edbd095-efea-4434-a94b-91a3c3c1b489"},"vehicle_type_id":"4","last_reported":1729415346,"current_range_meters":12800,"station_id":"ce4bh4p2rcd13ifvqe0g","pricing_plan_id":"cebpf4jnsgd1na2vs0mg"},{"bike_id":"f5b23b9e-9fc1-4540-8918-a3079fbfde07","system_id":"levelo_inurba_marseille","lat":43.31706,"lon":5.37745,"is_reserved":false,"is_disabled":false,"rental_uris":{"android":"levelo://app?vid=f5b23b9e-9fc1-4540-8918-a3079fbfde07","ios":"levelo://app?vid=f5b23b9e-9fc1-4540-8918-a3079fbfde07"},"vehicle_type_id":"4","last_reported":1729415346,"current_range_meters":39200,"station_id":"ce4bgth2rcd13ifvqch0","pricing_plan_id":"cebpf4jnsgd1na2vs0mg"},{"bike_id":"f79e2990-8308-47b7-8681-08ad567265a1","system_id":"levelo_inurba_marseille","lat":43.30809,"lon":5.43528,"is_reserved":false,"is_disabled":false,"rental_uris":{"android":"levelo://app?vid=f79e2990-8308-47b7-8681-08ad567265a1","ios":"levelo://app?vid=f79e2990-8308-47b7-8681-08ad567265a1"},"vehicle_type_id":"4","last_reported":1729415346,"current_range_meters":19600,"station_id":"ce4bhph2rcd13ifvqheg","pricing_plan_id":"cebpf4jnsgd1na2vs0mg"},{"bike_id":"85d3ade6-3665-431a-a885-89ce0aed83ce","system_id":"levelo_inurba_marseille","lat":43.33605,"lon":5.41026,"is_reserved":false,"is_disabled":false,"rental_uris":{"android":"levelo://app?vid=85d3ade6-3665-431a-a885-89ce0aed83ce","ios":"levelo://app?vid=85d3ade6-3665-431a-a885-89ce0aed83ce"},"vehicle_type_id":"4","last_reported":1729415346,"current_range_meters":17600,"station_id":"ce4bhqh2rcd13ifvqhmg","pricing_plan_id":"cebpf4jnsgd1na2vs0mg"},{"bike_id":"0004c2bb-ede3-47e6-b3ea-26ca1454c290","system_id":"levelo_inurba_marseille","lat":43.29267,"lon":5.36846,"is_reserved":false,"is_disabled":false,"rental_uris":{"android":"levelo://app?vid=0004c2bb-ede3-47e6-b3ea-26ca1454c290","ios":"levelo://app?vid=0004c2bb-ede3-47e6-b3ea-26ca1454c290"},"vehicle_type_id":"4","last_reported":1729415346,"current_range_meters":36400,"station_id":"ce4bhbp2rcd13ifvqesg","pricing_plan_id":"cebpf4jnsgd1na2vs0mg"},{"bike_id":"fcaf6803-0de9-4595-9c99-b702d79d9a79","system_id":"levelo_inurba_marseille","lat":43.284912,"lon":5.357838,"is_reserved":false,"is_disabled":false,"rental_uris":{"android":"levelo://app?vid=fcaf6803-0de9-4595-9c99-b702d79d9a79","ios":"levelo://app?vid=fcaf6803-0de9-4595-9c99-b702d79d9a79"},"vehicle_type_id":"4","last_reported":1729415346,"current_range_meters":25200,"station_id":"ce4bhah2rcd13ifvqei0","pricing_plan_id":"cebpf4jnsgd1na2vs0mg"},{"bike_id":"554c25bf-6348-4ef4-9525-96b062ddf7c6","system_id":"levelo_inurba_marseille","lat":43.26209,"lon":5.37925,"is_reserved":false,"is_disabled":false,"rental_uris":{"android":"levelo://app?vid=554c25bf-6348-4ef4-9525-96b062ddf7c6","ios":"levelo://app?vid=554c25bf-6348-4ef4-9525-96b062ddf7c6"},"vehicle_type_id":"4","last_reported":1729415346,"current_range_meters":32000,"station_id":"ce4bhjp2rcd13ifvqg90","pricing_plan_id":"cebpf4jnsgd1na2vs0mg"},{"bike_id":"82361134-3c2b-4158-bc46-39bf59bb2c55","system_id":"levelo_inurba_marseille","lat":43.28096,"lon":5.3786,"is_reserved":false,"is_disabled":false,"rental_uris":{"android":"levelo://app?vid=82361134-3c2b-4158-bc46-39bf59bb2c55","ios":"levelo://app?vid=82361134-3c2b-4158-bc46-39bf59bb2c55"},"vehicle_type_id":"4","last_reported":1729415346,"current_range_meters":28800,"station_id":"ce4bha12rcd13ifvqee0","pricing_plan_id":"cebpf4jnsgd1na2vs0mg"},{"bike_id":"aad71523-dd0e-43d2-bc68-c70147db6945","system_id":"levelo_inurba_marseille","lat":43.29005,"lon":5.35613,"is_reserved":false,"is_disabled":false,"rental_uris":{"android":"levelo://app?vid=aad71523-dd0e-43d2-bc68-c70147db6945","ios":"levelo://app?vid=aad71523-dd0e-43d2-bc68-c70147db6945"},"vehicle_type_id":"4","last_reported":1729415346,"current_range_meters":38800,"station_id":"ce4bhb92rcd13ifvqen0","pricing_plan_id":"cebpf4jnsgd1na2vs0mg"},{"bike_id":"64cdb452-2d9e-4a06-949d-9ff8ca73fcbd","system_id":"levelo_inurba_marseille","lat":43.27302,"lon":5.39091,"is_reserved":false,"is_disabled":false,"rental_uris":{"android":"levelo://app?vid=64cdb452-2d9e-4a06-949d-9ff8ca73fcbd","ios":"levelo://app?vid=64cdb452-2d9e-4a06-949d-9ff8ca73fcbd"},"vehicle_type_id":"4","last_reported":1729415346,"current_range_meters":32000,"station_id":"ce4bhgp2rcd13ifvqfe0","pricing_plan_id":"cebpf4jnsgd1na2vs0mg"},{"bike_id":"58cae57a-d647-4441-a734-e3f94d9e79d3","system_id":"levelo_inurba_marseille","lat":43.30956,"lon":5.39022,"is_reserved":false,"is_disabled":false,"rental_uris":{"android":"levelo://app?vid=58cae57a-d647-4441-a734-e3f94d9e79d3","ios":"levelo://app?vid=58cae57a-d647-4441-a734-e3f94d9e79d3"},"vehicle_type_id":"4","last_reported":1729415346,"current_range_meters":38400,"station_id":"ce4bgup2rcd13ifvqco0","pricing_plan_id":"cebpf4jnsgd1na2vs0mg"},{"bike_id":"f9b3de78-0a7a-448f-900c-725df95752d1","system_id":"levelo_inurba_marseille","lat":43.27371,"lon":5.36257,"is_reserved":false,"is_disabled":false,"rental_uris":{"android":"levelo://app?vid=f9b3de78-0a7a-448f-900c-725df95752d1","ios":"levelo://app?vid=f9b3de78-0a7a-448f-900c-725df95752d1"},"vehicle_type_id":"4","last_reported":1729415346,"current_range_meters":39200,"station_id":"ce4bhbh2rcd13ifvqeo0","pricing_plan_id":"cebpf4jnsgd1na2vs0mg"},{"bike_id":"1b4abbb1-a51a-4693-9175-41ca2b786aac","system_id":"levelo_inurba_marseille","lat":43.28267,"lon":5.3506,"is_reserved":false,"is_disabled":false,"rental_uris":{"android":"levelo://app?vid=1b4abbb1-a51a-4693-9175-41ca2b786aac","ios":"levelo://app?vid=1b4abbb1-a51a-4693-9175-41ca2b786aac"},"vehicle_type_id":"4","last_reported":1729415346,"current_range_meters":26800,"station_id":"ce4bhbp2rcd13ifvqerg","pricing_plan_id":"cebpf4jnsgd1na2vs0mg"},{"bike_id":"0b192f51-7551-4a7a-8349-7eb03dc37a20","system_id":"levelo_inurba_marseille","lat":43.26552,"lon":5.37281,"is_reserved":false,"is_disabled":false,"rental_uris":{"android":"levelo://app?vid=0b192f51-7551-4a7a-8349-7eb03dc37a20","ios":"levelo://app?vid=0b192f51-7551-4a7a-8349-7eb03dc37a20"},"vehicle_type_id":"4","last_reported":1729415346,"current_range_meters":38400,"station_id":"ce4bhg12rcd13ifvqf70","pricing_plan_id":"cebpf4jnsgd1na2vs0mg"},{"bike_id":"4f357a8f-803f-4ef1-b82a-19fa9f305e74","system_id":"levelo_inurba_marseille","lat":43.23195,"lon":5.35555,"is_reserved":false,"is_disabled":false,"rental_uris":{"android":"levelo://app?vid=4f357a8f-803f-4ef1-b82a-19fa9f305e74","ios":"levelo://app?vid=4f357a8f-803f-4ef1-b82a-19fa9f305e74"},"vehicle_type_id":"4","last_reported":1729415346,"current_range_meters":37600,"station_id":"ce4bhu92rcd13ifvqi70","pricing_plan_id":"cebpf4jnsgd1na2vs0mg"},{"bike_id":"870a0567-683b-4d05-928b-954fe947f3ad","system_id":"levelo_inurba_marseille","lat":43.30797,"lon":5.38167,"is_reserved":false,"is_disabled":false,"rental_uris":{"android":"levelo://app?vid=870a0567-683b-4d05-928b-954fe947f3ad","ios":"levelo://app?vid=870a0567-683b-4d05-928b-954fe947f3ad"},"vehicle_type_id":"4","last_reported":1729415346,"current_range_meters":37600,"station_id":"","pricing_plan_id":"cebpf4jnsgd1na2vs0mg"},{"bike_id":"57d6c459-9f04-4869-8203-b0341cdb2874","system_id":"levelo_inurba_marseille","lat":43.290009,"lon":5.356181,"is_reserved":false,"is_disabled":false,"rental_uris":{"android":"levelo://app?vid=57d6c459-9f04-4869-8203-b0341cdb2874","ios":"levelo://app?vid=57d6c459-9f04-4869-8203-b0341cdb2874"},"vehicle_type_id":"4","last_reported":1729415346,"current_range_meters":20400,"station_id":"","pricing_plan_id":"cebpf4jnsgd1na2vs0mg"},{"bike_id":"c7dd9049-c42c-4751-a420-0300532dacb7","system_id":"levelo_inurba_marseille","lat":43.29561,"lon":5.37549,"is_reserved":false,"is_disabled":false,"rental_uris":{"android":"levelo://app?vid=c7dd9049-c42c-4751-a420-0300532dacb7","ios":"levelo://app?vid=c7dd9049-c42c-4751-a420-0300532dacb7"},"vehicle_type_id":"4","last_reported":1729415346,"current_range_meters":36400,"station_id":"ce4bgh92rcd13ifvqb50","pricing_plan_id":"cebpf4jnsgd1na2vs0mg"},{"bike_id":"9276b2d1-1ca7-44d1-a8a4-e649bf357497","system_id":"levelo_inurba_marseille","lat":43.313232,"lon":5.397055,"is_reserved":false,"is_disabled":false,"rental_uris":{"android":"levelo://app?vid=9276b2d1-1ca7-44d1-a8a4-e649bf357497","ios":"levelo://app?vid=9276b2d1-1ca7-44d1-a8a4-e649bf357497"},"vehicle_type_id":"4","last_reported":1729415346,"current_range_meters":37600,"station_id":"ce4bgvp2rcd13ifvqcu0","pricing_plan_id":"cebpf4jnsgd1na2vs0mg"},{"bike_id":"b14579fa-e899-481a-a77e-60bd888e755f","system_id":"levelo_inurba_marseille","lat":43.29775,"lon":5.37132,"is_reserved":false,"is_disabled":false,"rental_uris":{"android":"levelo://app?vid=b14579fa-e899-481a-a77e-60bd888e755f","ios":"levelo://app?vid=b14579fa-e899-481a-a77e-60bd888e755f"},"vehicle_type_id":"4","last_reported":1729415346,"current_range_meters":21600,"station_id":"","pricing_plan_id":"cebpf4jnsgd1na2vs0mg"},{"bike_id":"5f4fb91b-86a7-408c-97cd-7180ee1b864b","system_id":"levelo_inurba_marseille","lat":43.30939,"lon":5.39046,"is_reserved":false,"is_disabled":false,"rental_uris":{"android":"levelo://app?vid=5f4fb91b-86a7-408c-97cd-7180ee1b864b","ios":"levelo://app?vid=5f4fb91b-86a7-408c-97cd-7180ee1b864b"},"vehicle_type_id":"4","last_reported":1729415346,"current_range_meters":39200,"station_id":"ce4bgup2rcd13ifvqco0","pricing_plan_id":"cebpf4jnsgd1na2vs0mg"},{"bike_id":"e78e5b07-8aad-4233-8caa-3a2852780ccb","system_id":"levelo_inurba_marseille","lat":43.23962,"lon":5.36632,"is_reserved":false,"is_disabled":false,"rental_uris":{"android":"levelo://app?vid=e78e5b07-8aad-4233-8caa-3a2852780ccb","ios":"levelo://app?vid=e78e5b07-8aad-4233-8caa-3a2852780ccb"},"vehicle_type_id":"4","last_reported":1729415346,"current_range_meters":17200,"station_id":"ce4bhi12rcd13ifvqfp0","pricing_plan_id":"cebpf4jnsgd1na2vs0mg"},{"bike_id":"f2ceaeaa-e96f-4545-9ae8-b62884c6cf38","system_id":"levelo_inurba_marseille","lat":43.25824,"lon":5.39439,"is_reserved":false,"is_disabled":false,"rental_uris":{"android":"levelo://app?vid=f2ceaeaa-e96f-4545-9ae8-b62884c6cf38","ios":"levelo://app?vid=f2ceaeaa-e96f-4545-9ae8-b62884c6cf38"},"vehicle_type_id":"4","last_reported":1729415346,"current_range_meters":38000,"station_id":"ce4bhip2rcd13ifvqft0","pricing_plan_id":"cebpf4jnsgd1na2vs0mg"},{"bike_id":"9362a3c1-a524-424a-8405-9c9a41216ff5","system_id":"levelo_inurba_marseille","lat":43.28265,"lon":5.35077,"is_reserved":false,"is_disabled":false,"rental_uris":{"android":"levelo://app?vid=9362a3c1-a524-424a-8405-9c9a41216ff5","ios":"levelo://app?vid=9362a3c1-a524-424a-8405-9c9a41216ff5"},"vehicle_type_id":"4","last_reported":1729415346,"current_range_meters":37600,"station_id":"ce4bhbp2rcd13ifvqerg","pricing_plan_id":"cebpf4jnsgd1na2vs0mg"},{"bike_id":"3c807220-758f-40c8-b4f1-96669d1b8d8b","system_id":"levelo_inurba_marseille","lat":43.2319,"lon":5.35557,"is_reserved":false,"is_disabled":false,"rental_uris":{"android":"levelo://app?vid=3c807220-758f-40c8-b4f1-96669d1b8d8b","ios":"levelo://app?vid=3c807220-758f-40c8-b4f1-96669d1b8d8b"},"vehicle_type_id":"4","last_reported":1729415346,"current_range_meters":3600,"station_id":"ce4bhu92rcd13ifvqi70","pricing_plan_id":"cebpf4jnsgd1na2vs0mg"},{"bike_id":"12e40262-ee50-427e-aa7c-43892b5d6531","system_id":"levelo_inurba_marseille","lat":43.29935,"lon":5.37467,"is_reserved":false,"is_disabled":false,"rental_uris":{"android":"levelo://app?vid=12e40262-ee50-427e-aa7c-43892b5d6531","ios":"levelo://app?vid=12e40262-ee50-427e-aa7c-43892b5d6531"},"vehicle_type_id":"4","last_reported":1729415346,"current_range_meters":14000,"station_id":"ce4bgjh2rcd13ifvqbg0","pricing_plan_id":"cebpf4jnsgd1na2vs0mg"},{"bike_id":"c11b0555-b997-4036-8536-79587f1a9f2e","system_id":"levelo_inurba_marseille","lat":43.2766,"lon":5.38902,"is_reserved":false,"is_disabled":false,"rental_uris":{"android":"levelo://app?vid=c11b0555-b997-4036-8536-79587f1a9f2e","ios":"levelo://app?vid=c11b0555-b997-4036-8536-79587f1a9f2e"},"vehicle_type_id":"4","last_reported":1729415346,"current_range_meters":33200,"station_id":"ce4bhi12rcd13ifvqfo0","pricing_plan_id":"cebpf4jnsgd1na2vs0mg"},{"bike_id":"0fba9eb4-95f8-406d-8b2e-16e62635929b","system_id":"levelo_inurba_marseille","lat":43.31368,"lon":5.38497,"is_reserved":false,"is_disabled":false,"rental_uris":{"android":"levelo://app?vid=0fba9eb4-95f8-406d-8b2e-16e62635929b","ios":"levelo://app?vid=0fba9eb4-95f8-406d-8b2e-16e62635929b"},"vehicle_type_id":"4","last_reported":1729415346,"current_range_meters":38800,"station_id":"ce4bgt92rcd13ifvqcf0","pricing_plan_id":"cebpf4jnsgd1na2vs0mg"},{"bike_id":"b5c40a57-fde0-4b3a-8522-4717ef7108e9","system_id":"levelo_inurba_marseille","lat":43.310718,"lon":5.400911,"is_reserved":false,"is_disabled":false,"rental_uris":{"android":"levelo://app?vid=b5c40a57-fde0-4b3a-8522-4717ef7108e9","ios":"levelo://app?vid=b5c40a57-fde0-4b3a-8522-4717ef7108e9"},"vehicle_type_id":"4","last_reported":1729415346,"current_range_meters":2800,"station_id":"","pricing_plan_id":"cebpf4jnsgd1na2vs0mg"},{"bike_id":"03eb1a7a-6b4f-4ede-b7b4-76daf8714793","system_id":"levelo_inurba_marseille","lat":43.28611,"lon":5.35105,"is_reserved":false,"is_disabled":false,"rental_uris":{"android":"levelo://app?vid=03eb1a7a-6b4f-4ede-b7b4-76daf8714793","ios":"levelo://app?vid=03eb1a7a-6b4f-4ede-b7b4-76daf8714793"},"vehicle_type_id":"4","last_reported":1729415346,"current_range_meters":35600,"station_id":"ce4bhch2rcd13ifvqeug","pricing_plan_id":"cebpf4jnsgd1na2vs0mg"},{"bike_id":"d478d24e-dfa8-444b-9e59-8eb9503aab2e","system_id":"levelo_inurba_marseille","lat":43.25718,"lon":5.41109,"is_reserved":false,"is_disabled":false,"rental_uris":{"android":"levelo://app?vid=d478d24e-dfa8-444b-9e59-8eb9503aab2e","ios":"levelo://app?vid=d478d24e-dfa8-444b-9e59-8eb9503aab2e"},"vehicle_type_id":"4","last_reported":1729415346,"current_range_meters":32800,"station_id":"ce4bhkp2rcd13ifvqgd0","pricing_plan_id":"cebpf4jnsgd1na2vs0mg"},{"bike_id":"f28c22d6-4d0a-4d75-b856-530d5c7bf70d","system_id":"levelo_inurba_marseille","lat":43.249978,"lon":5.389243,"is_reserved":false,"is_disabled":false,"rental_uris":{"android":"levelo://app?vid=f28c22d6-4d0a-4d75-b856-530d5c7bf70d","ios":"levelo://app?vid=f28c22d6-4d0a-4d75-b856-530d5c7bf70d"},"vehicle_type_id":"4","last_reported":1729415346,"current_range_meters":38800,"station_id":"ce4bhgp2rcd13ifvqfd0","pricing_plan_id":"cebpf4jnsgd1na2vs0mg"},{"bike_id":"b8502c95-6547-4ad4-8290-23e8e499ac98","system_id":"levelo_inurba_marseille","lat":43.29004,"lon":5.35613,"is_reserved":false,"is_disabled":false,"rental_uris":{"android":"levelo://app?vid=b8502c95-6547-4ad4-8290-23e8e499ac98","ios":"levelo://app?vid=b8502c95-6547-4ad4-8290-23e8e499ac98"},"vehicle_type_id":"4","last_reported":1729415346,"current_range_meters":37600,"station_id":"ce4bhb92rcd13ifvqen0","pricing_plan_id":"cebpf4jnsgd1na2vs0mg"},{"bike_id":"3062f309-4bc8-4454-a6df-6e6bd784fa3a","system_id":"levelo_inurba_marseille","lat":43.289917,"lon":5.372815,"is_reserved":false,"is_disabled":false,"rental_uris":{"android":"levelo://app?vid=3062f309-4bc8-4454-a6df-6e6bd784fa3a","ios":"levelo://app?vid=3062f309-4bc8-4454-a6df-6e6bd784fa3a"},"vehicle_type_id":"4","last_reported":1729415346,"current_range_meters":34000,"station_id":"ce4bhah2rcd13ifvqej0","pricing_plan_id":"cebpf4jnsgd1na2vs0mg"},{"bike_id":"b96e3a57-6d14-461c-8c8a-ace4003bf83c","system_id":"levelo_inurba_marseille","lat":43.25583,"lon":5.38241,"is_reserved":false,"is_disabled":false,"rental_uris":{"android":"levelo://app?vid=b96e3a57-6d14-461c-8c8a-ace4003bf83c","ios":"levelo://app?vid=b96e3a57-6d14-461c-8c8a-ace4003bf83c"},"vehicle_type_id":"4","last_reported":1729415346,"current_range_meters":28400,"station_id":"ce4bhih2rcd13ifvqfs0","pricing_plan_id":"cebpf4jnsgd1na2vs0mg"},{"bike_id":"51e44646-6a45-46bd-8308-60396821466c","system_id":"levelo_inurba_marseille","lat":43.26785,"lon":5.39418,"is_reserved":false,"is_disabled":false,"rental_uris":{"android":"levelo://app?vid=51e44646-6a45-46bd-8308-60396821466c","ios":"levelo://app?vid=51e44646-6a45-46bd-8308-60396821466c"},"vehicle_type_id":"4","last_reported":1729415346,"current_range_meters":38000,"station_id":"ce4bhh12rcd13ifvqfg0","pricing_plan_id":"cebpf4jnsgd1na2vs0mg"},{"bike_id":"b58d4c0b-e63e-472b-9de3-cfa175d75417","system_id":"levelo_inurba_marseille","lat":43.27323,"lon":5.39074,"is_reserved":false,"is_disabled":false,"rental_uris":{"android":"levelo://app?vid=b58d4c0b-e63e-472b-9de3-cfa175d75417","ios":"levelo://app?vid=b58d4c0b-e63e-472b-9de3-cfa175d75417"},"vehicle_type_id":"4","last_reported":1729415346,"current_range_meters":34800,"station_id":"ce4bhgp2rcd13ifvqfe0","pricing_plan_id":"cebpf4jnsgd1na2vs0mg"},{"bike_id":"fad01220-350a-4afa-a947-8413b4f03871","system_id":"levelo_inurba_marseille","lat":43.29843,"lon":5.36269,"is_reserved":false,"is_disabled":false,"rental_uris":{"android":"levelo://app?vid=fad01220-350a-4afa-a947-8413b4f03871","ios":"levelo://app?vid=fad01220-350a-4afa-a947-8413b4f03871"},"vehicle_type_id":"4","last_reported":1729415346,"current_range_meters":25200,"station_id":"ce4bgpp2rcd13ifvqc3g","pricing_plan_id":"cebpf4jnsgd1na2vs0mg"},{"bike_id":"77291753-8c8c-4497-aa81-5ef2d0e5d1d8","system_id":"levelo_inurba_marseille","lat":43.28416,"lon":5.34993,"is_reserved":false,"is_disabled":false,"rental_uris":{"android":"levelo://app?vid=77291753-8c8c-4497-aa81-5ef2d0e5d1d8","ios":"levelo://app?vid=77291753-8c8c-4497-aa81-5ef2d0e5d1d8"},"vehicle_type_id":"4","last_reported":1729415346,"current_range_meters":36400,"station_id":"ce4bhbh2rcd13ifvqepg","pricing_plan_id":"cebpf4jnsgd1na2vs0mg"},{"bike_id":"e65315d9-27d1-4df7-bca2-a21122a296a0","system_id":"levelo_inurba_marseille","lat":43.29586,"lon":5.36736,"is_reserved":false,"is_disabled":false,"rental_uris":{"android":"levelo://app?vid=e65315d9-27d1-4df7-bca2-a21122a296a0","ios":"levelo://app?vid=e65315d9-27d1-4df7-bca2-a21122a296a0"},"vehicle_type_id":"4","last_reported":1729415346,"current_range_meters":36400,"station_id":"ce4bgph2rcd13ifvqc2g","pricing_plan_id":"cebpf4jnsgd1na2vs0mg"},