{"last_updated":1747052453,"ttl":60,"version":"2.2","data":{"bikes":[{"bike_id":"fa38bfc7-3249-428a-a91f-53418e47994a","system_id":"levelo_inurba_marseille","lat":43.29004,"lon":5.3561,"is_reserved":false,"is_disabled":false,"rental_uris":{"android":"levelo://app?vid=fa38bfc7-3249-428a-a91f-53418e47994a","ios":"levelo://app?vid=fa38bfc7-3249-428a-a91f-53418e47994a"},"vehicle_type_id":"4","last_reported":1747052453,"current_range_meters":2000,"station_id":"ce4bhb92rcd13ifvqen0","pricing_plan_id":"cebpf4jnsgd1na2vs0mg"},{"bike_id":"05590690-5a7c-4f74-b3fe-0d851a34d7dc","system_id":"levelo_inurba_marseille","lat":43.24173,"lon":5.36396,"is_reserved":false,"is_disabled":false,"rental_uris":{"android":"levelo://app?vid=05590690-5a7c-4f74-b3fe-0d851a34d7dc","ios":"levelo://app?vid=05590690-5a7c-4f74-b3fe-0d851a34d7dc"},"vehicle_type_id":"4","last_reported":1747052453,"current_range_meters":3200,"station_id":"cpo36qri1sfpv3e86is0","pricing_plan_id":"cebpf4jnsgd1na2vs0mg"},{"bike_id":"f2465ffe-6552-47f4-9c81-63aa2917380e","system_id":"levelo_inurba_marseille","lat":43.27492,"lon":5.42449,"is_reserved":false,"is_disabled":false,"rental_uris":{"android":"levelo://app?vid=f2465ffe-6552-47f4-9c81-63aa2917380e","ios":"levelo://app?vid=f2465ffe-6552-47f4-9c81-63aa2917380e"},"vehicle_type_id":"4","last_reported":1747052453,"current_range_meters":3200,"station_id":"ce4bhn92rcd13ifvqgrg","pricing_plan_id":"cebpf4jnsgd1na2vs0mg"},{"bike_id":"ba0251e5-0027-4ef1-bb6d-2e38b2a066e2","system_id":"levelo_inurba_marseille","lat":43.29711,"lon":5.37689,"is_reserved":false,"is_disabled":false,"rental_uris":{"android":"levelo://app?vid=ba0251e5-0027-4ef1-bb6d-2e38b2a066e2","ios":"levelo://app?vid=ba0251e5-0027-4ef1-bb6d-2e38b2a066e2"},"vehicle_type_id":"4","last_reported":1747052453,"current_range_meters":2800,"station_id":"ce4bgkh2rcd13ifvqbl0","pricing_plan_id":"cebpf4jnsgd1na2vs0mg"},{"bike_id":"169059c4-3633-43a1-9d10-b66b1cff0b27","system_id":"levelo_inurba_marseille","lat":43.29009,"lon":5.38121,"is_reserved":false,"is_disabled":false,"rental_uris":{"android":"levelo://app?vid=169059c4-3633-43a1-9d10-b66b1cff0b27","ios":"levelo://app?vid=169059c4-3633-43a1-9d10-b66b1cff0b27"},"vehicle_type_id":"4","last_reported":1747052453,"current_range_meters":3200,"station_id":"ce4bh4p2rcd13ifvqe1g","pricing_plan_id":"cebpf4jnsgd1na2vs0mg"},{"bike_id":"802cbddc-3f84-4b3d-a4de-42e11882f1a4","system_id":"levelo_inurba_marseille","lat":43.28463,"lon":5.35897,"is_reserved":false,"is_disabled":false,"rental_uris":{"android":"levelo://app?vid=802cbddc-3f84-4b3d-a4de-42e11882f1a4","ios":"levelo://app?vid=802cbddc-3f84-4b3d-a4de-42e11882f1a4"},"vehicle_type_id":"4","last_reported":1747052453,"current_range_meters":3600,"station_id":"ce4bhah2rcd13ifvqei0","pricing_plan_id":"cebpf4jnsgd1na2vs0mg"},{"bike_id":"a9c38557-5124-45c5-9ded-c5a68570db24","system_id":"levelo_inurba_marseille","lat":43.3136,"lon":5.3849,"is_reserved":false,"is_disabled":false,"rental_uris":{"android":"levelo://app?vid=a9c38557-5124-45c5-9ded-c5a68570db24","ios":"levelo://app?vid=a9c38557-5124-45c5-9ded-c5a68570db24"},"vehicle_type_id":"4","last_reported":1747052453,"current_range_meters":3200,"station_id":"ce4bgt92rcd13ifvqcf0","pricing_plan_id":"cebpf4jnsgd1na2vs0mg"},{"bike_id":"e02662af-e5e0-47d3-b44e-2ff0c200b1c7","system_id":"levelo_inurba_marseille","lat":43.27989,"lon":5.38764,"is_reserved":false,"is_disabled":false,"rental_uris":{"android":"levelo://app?vid=e02662af-e5e0-47d3-b44e-2ff0c200b1c7","ios":"levelo://app?vid=e02662af-e5e0-47d3-b44e-2ff0c200b1c7"},"vehicle_type_id":"4","last_reported":1747052453,"current_range_meters":4000,"station_id":"ce4bhg12rcd13ifvqf80","pricing_plan_id":"cebpf4jnsgd1na2vs0mg"},{"bike_id":"7b52222b-d51c-4220-93ab-b65a0261c035","system_id":"levelo_inurba_marseille","lat":43.24392,"lon":5.37059,"is_reserved":false,"is_disabled":false,"rental_uris":{"android":"levelo://app?vid=7b52222b-d51c-4220-93ab-b65a0261c035","ios":"levelo://app?vid=7b52222b-d51c-4220-93ab-b65a0261c035"},"vehicle_type_id":"4","last_reported":1747052453,"current_range_meters":4400,"station_id":"ce4bhhh2rcd13ifvqfk0","pricing_plan_id":"cebpf4jnsgd1na2vs0mg"},{"bike_id":"a0c82a3d-7cfd-42ab-a11a-75797a7d17fb","system_id":"levelo_inurba_marseille","lat":43.29619,"lon":5.37151,"is_reserved":false,"is_disabled":false,"rental_uris":{"android":"levelo://app?vid=a0c82a3d-7cfd-42ab-a11a-75797a7d17fb","ios":"levelo://app?vid=a0c82a3d-7cfd-42ab-a11a-75797a7d17fb"},"vehicle_type_id":"4","last_reported":1747052453,"current_range_meters":4400,"station_id":"ce4bgnh2rcd13ifvqc0g","pricing_plan_id":"cebpf4jnsgd1na2vs0mg"},{"bike_id":"1b7326a7-7dff-4971-a411-29926a212d6a","system_id":"levelo_inurba_marseille","lat":43.28416,"lon":5.37503,"is_reserved":false,"is_disabled":false,"rental_uris":{"android":"levelo://app?vid=1b7326a7-7dff-4971-a411-29926a212d6a","ios":"levelo://app?vid=1b7326a7-7dff-4971-a411-29926a212d6a"},"vehicle_type_id":"4","last_reported":1747052453,"current_range_meters":4800,"station_id":"ce4bh412rcd13ifvqds0","pricing_plan_id":"cebpf4jnsgd1na2vs0mg"},{"bike_id":"8fcecb2c-9448-4339-9a6a-19f79482cffb","system_id":"levelo_inurba_marseille","lat":43.24061,"lon":5.3773,"is_reserved":false,"is_disabled":false,"rental_uris":{"android":"levelo://app?vid=8fcecb2c-9448-4339-9a6a-19f79482cffb","ios":"levelo://app?vid=8fcecb2c-9448-4339-9a6a-19f79482cffb"},"vehicle_type_id":"4","last_reported":1747052453,"current_range_meters":4800,"station_id":"ce4bhnp2rcd13ifvqgvg","pricing_plan_id":"cebpf4jnsgd1na2vs0mg"},{"bike_id":"8b55bba5-551a-493a-a344-9748a902b597","system_id":"levelo_inurba_marseille","lat":43.2315,"lon":5.43682,"is_reserved":false,"is_disabled":false,"rental_uris":{"android":"levelo://app?vid=8b55bba5-551a-493a-a344-9748a902b597","ios":"levelo://app?vid=8b55bba5-551a-493a-a344-9748a902b597"},"vehicle_type_id":"4","last_reported":1747052453,"current_range_meters":4800,"station_id":"ce4bhmp2rcd13ifvqgog","pricing_plan_id":"cebpf4jnsgd1na2vs0mg"},{"bike_id":"fc2577e7-1497-425b-9d4f-ab8d7dc843c6","system_id":"levelo_inurba_marseille","lat":43.33771,"lon":5.37485,"is_reserved":false,"is_disabled":false,"rental_uris":{"android":"levelo://app?vid=fc2577e7-1497-425b-9d4f-ab8d7dc843c6","ios":"levelo://app?vid=fc2577e7-1497-425b-9d4f-ab8d7dc843c6"},"vehicle_type_id":"4","last_reported":1747052453,"current_range_meters":6000,"station_id":"","pricing_plan_id":"cebpf4jnsgd1na2vs0mg"},{"bike_id":"b0b8e085-965b-4548-acef-24fa5f5e1bdd","system_id":"levelo_inurba_marseille","lat":43.29718,"lon":5.37689,"is_reserved":false,"is_disabled":false,"rental_uris":{"android":"levelo://app?vid=b0b8e085-965b-4548-acef-24fa5f5e1bdd","ios":"levelo://app?vid=b0b8e085-965b-4548-acef-24fa5f5e1bdd"},"vehicle_type_id":"4","last_reported":1747052453,"current_range_meters":6000,"station_id":"ce4bgkh2rcd13ifvqbl0","pricing_plan_id":"cebpf4jnsgd1na2vs0mg"},{"bike_id":"c6d157e9-56cb-43a1-9e17-5500243b3738","system_id":"levelo_inurba_marseille","lat":43.23153,"lon":5.43701,"is_reserved":false,"is_disabled":false,"rental_uris":{"android":"levelo://app?vid=c6d157e9-56cb-43a1-9e17-5500243b3738","ios":"levelo://app?vid=c6d157e9-56cb-43a1-9e17-5500243b3738"},"vehicle_type_id":"4","last_reported":1747052453,"current_range_meters":6000,"station_id":"ce4bhmp2rcd13ifvqgog","pricing_plan_id":"cebpf4jnsgd1na2vs0mg"},{"bike_id":"2f9170ba-9a1c-4327-9805-0a2dac6ed02b","system_id":"levelo_inurba_marseille","lat":43.30533,"lon":5.38416,"is_reserved":false,"is_disabled":false,"rental_uris":{"android":"levelo://app?vid=2f9170ba-9a1c-4327-9805-0a2dac6ed02b","ios":"levelo://app?vid=2f9170ba-9a1c-4327-9805-0a2dac6ed02b"},"vehicle_type_id":"4","last_reported":1747052453,"current_range_meters":6000,"station_id":"ce4bgg92rcd13ifvqb30","pricing_plan_id":"cebpf4jnsgd1na2vs0mg"},{"bike_id":"3d6a6bbc-0002-4cc8-b55f-e5cab4e3b71e","system_id":"levelo_inurba_marseille","lat":43.29788,"lon":5.38107,"is_reserved":false,"is_disabled":false,"rental_uris":{"android":"levelo://app?vid=3d6a6bbc-0002-4cc8-b55f-e5cab4e3b71e","ios":"levelo://app?vid=3d6a6bbc-0002-4cc8-b55f-e5cab4e3b71e"},"vehicle_type_id":"4","last_reported":1747052453,"current_range_meters":6000,"station_id":"ce4bgip2rcd13ifvqbb0","pricing_plan_id":"cebpf4jnsgd1na2vs0mg"},{"bike_id":"ca189185-ade3-4e36-aca6-40c71d0d16f2","system_id":"levelo_inurba_marseille","lat":43.3092,"lon":5.36833,"is_reserved":false,"is_disabled":false,"rental_uris":{"android":"levelo://app?vid=ca189185-ade3-4e36-aca6-40c71d0d16f2","ios":"levelo://app?vid=ca189185-ade3-4e36-aca6-40c71d0d16f2"},"vehicle_type_id":"4","last_reported":1747052453,"current_range_meters":6000,"station_id":"ce4bgn92rcd13ifvqbvg","pricing_plan_id":"cebpf4jnsgd1na2vs0mg"},{"bike_id":"b28707d5-3284-4812-878a-79a1264f2cac","system_id":"levelo_inurba_marseille","lat":43.32236,"lon":5.406434,"is_reserved":false,"is_disabled":false,"rental_uris":{"android":"levelo://app?vid=b28707d5-3284-4812-878a-79a1264f2cac","ios":"levelo://app?vid=b28707d5-3284-4812-878a-79a1264f2cac"},"vehicle_type_id":"4","last_reported":1747052453,"current_range_meters":6400,"station_id":"ce4bhq92rcd13ifvqhjg","pricing_plan_id":"cebpf4jnsgd1na2vs0mg"},{"bike_id":"3d83a6bc-8c51-4c36-8739-73b5e97f756b","system_id":"levelo_inurba_marseille","lat":43.30539,"lon":5.36694,"is_reserved":false,"is_disabled":false,"rental_uris":{"android":"levelo://app?vid=3d83a6bc-8c51-4c36-8739-73b5e97f756b","ios":"levelo://app?vid=3d83a6bc-8c51-4c36-8739-73b5e97f756b"},"vehicle_type_id":"4","last_reported":1747052453,"current_range_meters":6000,"station_id":"ce4bgrp2rcd13ifvqc9g","pricing_plan_id":"cebpf4jnsgd1na2vs0mg"},{"bike_id":"251dc8a3-302c-4677-9545-155eb0766bde","system_id":"levelo_inurba_marseille","lat":43.261992,"lon":5.379264,"is_reserved":false,"is_disabled":true,"rental_uris":{"android":"levelo://app?vid=251dc8a3-302c-4677-9545-155eb0766bde","ios":"levelo://app?vid=251dc8a3-302c-4677-9545-155eb0766bde"},"vehicle_type_id":"4","last_reported":1747052453,"current_range_meters":6400,"station_id":"ce4bhjp2rcd13ifvqg90","pricing_plan_id":"cebpf4jnsgd1na2vs0mg"},{"bike_id":"ae0cc3e4-290f-46a6-8de8-4b3b3039f0f4","system_id":"levelo_inurba_marseille","lat":43.315046,"lon":5.373153,"is_reserved":false,"is_disabled":true,"rental_uris":{"android":"levelo://app?vid=ae0cc3e4-290f-46a6-8de8-4b3b3039f0f4","ios":"levelo://app?vid=ae0cc3e4-290f-46a6-8de8-4b3b3039f0f4"},"vehicle_type_id":"4","last_reported":1747052453,"current_range_meters":6400,"station_id":"ce4bgt12rcd13ifvqcd0","pricing_plan_id":"cebpf4jnsgd1na2vs0mg"},{"bike_id":"79228c18-5cc4-4c5e-812c-42a1948ee185","system_id":"levelo_inurba_marseille","lat":43.27968,"lon":5.38742,"is_reserved":false,"is_disabled":false,"rental_uris":{"android":"levelo://app?vid=79228c18-5cc4-4c5e-812c-42a1948ee185","ios":"levelo://app?vid=79228c18-5cc4-4c5e-812c-42a1948ee185"},"vehicle_type_id":"4","last_reported":1747052453,"current_range_meters":6400,"station_id":"ce4bhg12rcd13ifvqf80","pricing_plan_id":"cebpf4jnsgd1na2vs0mg"},{"bike_id":"5a0c97ce-5630-4004-a15e-adb5b0df07d1","system_id":"levelo_inurba_marseille","lat":43.25574,"lon":5.38238,"is_reserved":false,"is_disabled":false,"rental_uris":{"android":"levelo://app?vid=5a0c97ce-5630-4004-a15e-adb5b0df07d1","ios":"levelo://app?vid=5a0c97ce-5630-4004-a15e-adb5b0df07d1"},"vehicle_type_id":"4","last_reported":1747052453,"current_range_meters":6400,"station_id":"ce4bhih2rcd13ifvqfs0","pricing_plan_id":"cebpf4jnsgd1na2vs0mg"},{"bike_id":"d2b9db06-c161-4783-8279-1418aa92fe7c","system_id":"levelo_inurba_marseille","lat":43.274945,"lon":5.424475,"is_reserved":false,"is_disabled":false,"rental_uris":{"android":"levelo://app?vid=d2b9db06-c161-4783-8279-1418aa92fe7c","ios":"levelo://app?vid=d2b9db06-c161-4783-8279-1418aa92fe7c"},"vehicle_type_id":"4","last_reported":1747052453,"current_range_meters":6400,"station_id":"ce4bhn92rcd13ifvqgrg","pricing_plan_id":"cebpf4jnsgd1na2vs0mg"},{"bike_id":"6647ab60-68c2-420a-a1af-29be6fb3d057","system_id":"levelo_inurba_marseille","lat":43.284646,"lon":5.374097,"is_reserved":false,"is_disabled":false,"rental_uris":{"android":"levelo://app?vid=6647ab60-68c2-420a-a1af-29be6fb3d057","ios":"levelo://app?vid=6647ab60-68c2-420a-a1af-29be6fb3d057"},"vehicle_type_id":"4","last_reported":1747052453,"current_range_meters":6800,"station_id":"ce4bhap2rcd13ifvqek0","pricing_plan_id":"cebpf4jnsgd1na2vs0mg"},{"bike_id":"349de4c5-95c4-4613-9a4e-ad2c10a79a0c","system_id":"levelo_inurba_marseille","lat":43.24665,"lon":5.38167,"is_reserved":false,"is_disabled":false,"rental_uris":{"android":"levelo://app?vid=349de4c5-95c4-4613-9a4e-ad2c10a79a0c","ios":"levelo://app?vid=349de4c5-95c4-4613-9a4e-ad2c10a79a0c"},"vehicle_type_id":"4","last_reported":1747052453,"current_range_meters":6800,"station_id":"ce4bhih2rcd13ifvqfr0","pricing_plan_id":"cebpf4jnsgd1na2vs0mg"},{"bike_id":"fc02cf2d-99f4-4e80-b0b3-59a5a2b58ba0","system_id":"levelo_inurba_marseille","lat":43.30549,"lon":5.38426,"is_reserved":false,"is_disabled":false,"rental_uris":{"android":"levelo://app?vid=fc02cf2d-99f4-4e80-b0b3-59a5a2b58ba0","ios":"levelo://app?vid=fc02cf2d-99f4-4e80-b0b3-59a5a2b58ba0"},"vehicle_type_id":"4","last_reported":1747052453,"current_range_meters":6800,"station_id":"ce4bgg92rcd13ifvqb30","pricing_plan_id":"cebpf4jnsgd1na2vs0mg"},{"bike_id":"9a6335fc-0b6d-4265-8398-82bdaeca7a99","system_id":"levelo_inurba_marseille","lat":43.29008,"lon":5.35611,"is_reserved":false,"is_disabled":false,"rental_uris":{"android":"levelo://app?vid=9a6335fc-0b6d-4265-8398-82bdaeca7a99","ios":"levelo://app?vid=9a6335fc-0b6d-4265-8398-82bdaeca7a99"},"vehicle_type_id":"4","last_reported":1747052453,"current_range_meters":7200,"station_id":"ce4bhb92rcd13ifvqen0","pricing_plan_id":"cebpf4jnsgd1na2vs0mg"},{"bike_id":"b9dcc1d1-f51b-4c46-850e-5c60c8b7f5e6","system_id":"levelo_inurba_marseille","lat":43.32348,"lon":5.36742,"is_reserved":false,"is_disabled":false,"rental_uris":{"android":"levelo://app?vid=b9dcc1d1-f51b-4c46-850e-5c60c8b7f5e6","ios":"levelo://app?vid=b9dcc1d1-f51b-4c46-850e-5c60c8b7f5e6"},"vehicle_type_id":"4","last_reported":1747052453,"current_range_meters":7200,"station_id":"ce4bhsh2rcd13ifvqi2g","pricing_plan_id":"cebpf4jnsgd1na2vs0mg"},{"bike_id":"e58cb755-84d7-4b83-9d74-1f4d67e1482f","system_id":"levelo_inurba_marseille","lat":43.264974,"lon":5.395702,"is_reserved":false,"is_disabled":false,"rental_uris":{"android":"levelo://app?vid=e58cb755-84d7-4b83-9d74-1f4d67e1482f","ios":"levelo://app?vid=e58cb755-84d7-4b83-9d74-1f4d67e1482f"},"vehicle_type_id":"4","last_reported":1747052453,"current_range_meters":6800,"station_id":"ce4bhi12rcd13ifvqfq0","pricing_plan_id":"cebpf4jnsgd1na2vs0mg"},{"bike_id":"6432cac5-f0f0-4e99-a1a8-9539d57335d1","system_id":"levelo_inurba_marseille","lat":43.28697,"lon":5.39981,"is_reserved":false,"is_disabled":false,"rental_uris":{"android":"levelo://app?vid=6432cac5-f0f0-4e99-a1a8-9539d57335d1","ios":"levelo://app?vid=6432cac5-f0f0-4e99-a1a8-9539d57335d1"},"vehicle_type_id":"4","last_reported":1747052453,"current_range_meters":7200,"station_id":"ce4bho92rcd13ifvqh3g","pricing_plan_id":"cebpf4jnsgd1na2vs0mg"},{"bike_id":"df62d90d-e00a-4083-b819-cb9c8a7a2168","system_id":"levelo_inurba_marseille","lat":43.23968,"lon":5.36618,"is_reserved":false,"is_disabled":false,"rental_uris":{"android":"levelo://app?vid=df62d90d-e00a-4083-b819-cb9c8a7a2168","ios":"levelo://app?vid=df62d90d-e00a-4083-b819-cb9c8a7a2168"},"vehicle_type_id":"4","last_reported":1747052453,"current_range_meters":7200,"station_id":"ce4bhi12rcd13ifvqfp0","pricing_plan_id":"cebpf4jnsgd1na2vs0mg"},{"bike_id":"5395b5b9-8475-4e54-9ac8-905874aea70f","system_id":"levelo_inurba_marseille","lat":43.26033,"lon":5.37545,"is_reserved":false,"is_disabled":false,"rental_uris":{"android":"levelo://app?vid=5395b5b9-8475-4e54-9ac8-905874aea70f","ios":"levelo://app?vid=5395b5b9-8475-4e54-9ac8-905874aea70f"},"vehicle_type_id":"4","last_reported":1747052453,"current_range_meters":7200,"station_id":"ce4bhgh2rcd13ifvqfa0","pricing_plan_id":"cebpf4jnsgd1na2vs0mg"},{"bike_id":"2f50b8d1-9b93-47d7-8d25-889ccdb3aef1","system_id":"levelo_inurba_marseille","lat":43.24077,"lon":5.37722,"is_reserved":false,"is_disabled":false,"rental_uris":{"android":"levelo://app?vid=2f50b8d1-9b93-47d7-8d25-889ccdb3aef1","ios":"levelo://app?vid=2f50b8d1-9b93-47d7-8d25-889ccdb3aef1"},"vehicle_type_id":"4","last_reported":1747052453,"current_range_meters":7200,"station_id":"ce4bhnp2rcd13ifvqgvg","pricing_plan_id":"cebpf4jnsgd1na2vs0mg"},{"bike_id":"c012bf18-964a-4b20-85ba-1e20a138ff9c","system_id":"levelo_inurba_marseille","lat":43.25943,"lon":5.40899,"is_reserved":false,"is_disabled":false,"rental_uris":{"android":"levelo://app?vid=c012bf18-964a-4b20-85ba-1e20a138ff9c","ios":"levelo://app?vid=c012bf18-964a-4b20-85ba-1e20a138ff9c"},"vehicle_type_id":"4","last_reported":1747052453,"current_range_meters":8000,"station_id":"ce4bhm92rcd13ifvqglg","pricing_plan_id":"cebpf4jnsgd1na2vs0mg"},{"bike_id":"4b460be1-c693-4bb9-911d-ee0bb3e597f1","system_id":"levelo_inurba_marseille","lat":43.324869,"lon":5.365721,"is_reserved":false,"is_disabled":false,"rental_uris":{"android":"levelo://app?vid=4b460be1-c693-4bb9-911d-ee0bb3e597f1","ios":"levelo://app?vid=4b460be1-c693-4bb9-911d-ee0bb3e597f1"},"vehicle_type_id":"4","last_reported":1747052453,"current_range_meters":8000,"station_id":"ce4bhs12rcd13ifvqhvg","pricing_plan_id":"cebpf4jnsgd1na2vs0mg"},{"bike_id":"5f841ad5-6a4c-4308-ad71-f253d7060cd8","system_id":"levelo_inurba_marseille","lat":43.23167,"lon":5.43679,"is_reserved":false,"is_disabled":false,"rental_uris":{"android":"levelo://app?vid=5f841ad5-6a4c-4308-ad71-f253d7060cd8","ios":"levelo://app?vid=5f841ad5-6a4c-4308-ad71-f253d7060cd8"},"vehicle_type_id":"4","last_reported":1747052453,"current_range_meters":8000,"station_id":"ce4bhmp2rcd13ifvqgog","pricing_plan_id":"cebpf4jnsgd1na2vs0mg"},{"bike_id":"3bb017b7-d70f-4c7f-8d5f-932fa83d36d9","system_id":"levelo_inurba_marseille","lat":43.32529,"lon":5.41467,"is_reserved":false,"is_disabled":false,"rental_uris":{"android":"levelo://app?vid=3bb017b7-d70f-4c7f-8d5f-932fa83d36d9","ios":"levelo://app?vid=3bb017b7-d70f-4c7f-8d5f-932fa83d36d9"},"vehicle_type_id":"4","last_reported":1747052453,"current_range_meters":8000,"station_id":"ce4bhq12rcd13ifvqhhg","pricing_plan_id":"cebpf4jnsgd1na2vs0mg"},{"bike_id":"32baf839-4a9e-478e-9d17-d3f597f47436","system_id":"levelo_inurba_marseille","lat":43.27495,"lon":5.42446,"is_reserved":false,"is_disabled":false,"rental_uris":{"android":"levelo://app?vid=32baf839-4a9e-478e-9d17-d3f597f47436","ios":"levelo://app?vid=32baf839-4a9e-478e-9d17-d3f597f47436"},"vehicle_type_id":"4","last_reported":1747052453,"current_range_meters":8400,"station_id":"ce4bhn92rcd13ifvqgrg","pricing_plan_id":"cebpf4jnsgd1na2vs0mg"},{"bike_id":"95fa1906-638f-4aa6-b576-ae770ec79b6e","system_id":"levelo_inurba_marseille","lat":43.297117,"lon":5.376768,"is_reserved":false,"is_disabled":false,"rental_uris":{"android":"levelo://app?vid=95fa1906-638f-4aa6-b576-ae770ec79b6e","ios":"levelo://app?vid=95fa1906-638f-4aa6-b576-ae770ec79b6e"},"vehicle_type_id":"4","last_reported":1747052453,"current_range_meters":8000,"station_id":"ce4bgkh2rcd13ifvqbl0","pricing_plan_id":"cebpf4jnsgd1na2vs0mg"},{"bike_id":"3c9cb365-05a6-4147-a597-bdd8295b0e96","system_id":"levelo_inurba_marseille","lat":43.2895,"lon":5.36407,"is_reserved":false,"is_disabled":false,"rental_uris":{"android":"levelo://app?vid=3c9cb365-05a6-4147-a597-bdd8295b0e96","ios":"levelo://app?vid=3c9cb365-05a6-4147-a597-bdd8295b0e96"},"vehicle_type_id":"4","last_reported":1747052453,"current_range_meters":8400,"station_id":"ce4bhc92rcd13ifvqetg","pricing_plan_id":"cebpf4jnsgd1na2vs0mg"},{"bike_id":"e0372e11-e2d7-499e-bc01-d37180083c7d","system_id":"levelo_inurba_marseille","lat":43.3235,"lon":5.36745,"is_reserved":false,"is_disabled":false,"rental_uris":{"android":"levelo://app?vid=e0372e11-e2d7-499e-bc01-d37180083c7d","ios":"levelo://app?vid=e0372e11-e2d7-499e-bc01-d37180083c7d"},"vehicle_type_id":"4","last_reported":1747052453,"current_range_meters":8400,"station_id":"ce4bhsh2rcd13ifvqi2g","pricing_plan_id":"cebpf4jnsgd1na2vs0mg"},{"bike_id":"d897bee0-67d9-4a89-b792-f686ea4ba0f7","system_id":"levelo_inurba_marseille","lat":43.2986,"lon":5.36293,"is_reserved":false,"is_disabled":false,"rental_uris":{"android":"levelo://app?vid=d897bee0-67d9-4a89-b792-f686ea4ba0f7","ios":"levelo://app?vid=d897bee0-67d9-4a89-b792-f686ea4ba0f7"},"vehicle_type_id":"4","last_reported":1747052453,"current_range_meters":9600,"station_id":"","pricing_plan_id":"cebpf4jnsgd1na2vs0mg"},{"bike_id":"544a0913-1d99-4d11-95e7-4803c53de1dc","system_id":"levelo_inurba_marseille","lat":43.24074,"lon":5.37758,"is_reserved":false,"is_disabled":false,"rental_uris":{"android":"levelo://app?vid=544a0913-1d99-4d11-95e7-4803c53de1dc","ios":"levelo://app?vid=544a0913-1d99-4d11-95e7-4803c53de1dc"},"vehicle_type_id":"4","last_reported":1747052453,"current_range_meters":8400,"station_id":"ce4bhnp2rcd13ifvqgvg","pricing_plan_id":"cebpf4jnsgd1na2vs0mg"},{"bike_id":"4f5dc0a9-a046-41f0-a35d-a4518bbc409f","system_id":"levelo_inurba_marseille","lat":43.24077,"lon":5.37756,"is_reserved":false,"is_disabled":false,"rental_uris":{"android":"levelo://app?vid=4f5dc0a9-a046-41f0-a35d-a4518bbc409f","ios":"levelo://app?vid=4f5dc0a9-a046-41f0-a35d-a4518bbc409f"},"vehicle_type_id":"4","last_reported":1747052453,"current_range_meters":8400,"station_id":"ce4bhnp2rcd13ifvqgvg","pricing_plan_id":"cebpf4jnsgd1na2vs0mg"},{"bike_id":"cdbe5a05-c193-43ad-85cd-fae37abc6340","system_id":"levelo_inurba_marseille","lat":43.24079,"lon":5.37752,"is_reserved":false,"is_disabled":false,"rental_uris":{"android":"levelo://app?vid=cdbe5a05-c193-43ad-85cd-fae37abc6340","ios":"levelo://app?vid=cdbe5a05-c193-43ad-85cd-fae37abc6340"},"vehicle_type_id":"4","last_reported":1747052453,"current_range_meters":8400,"station_id":"ce4bhnp2rcd13ifvqgvg","pricing_plan_id":"cebpf4jnsgd1na2vs0mg"},{"bike_id":"d4740293-18c1-49e6-8b5f-a6b1e7cc01eb","system_id":"levelo_inurba_marseille","lat":43.292605,"lon":5.409118,"is_reserved":false,"is_disabled":false,"rental_uris":{"android":"levelo://app?vid=d4740293-18c1-49e6-8b5f-a6b1e7cc01eb","ios":"levelo://app?vid=d4740293-18c1-49e6-8b5f-a6b1e7cc01eb"},"vehicle_type_id":"4","last_reported":1747052453,"current_range_meters":8400,"station_id":"ce4bh192rcd13ifvqdc0","pricing_plan_id":"cebpf4jnsgd1na2vs0mg"},{"bike_id":"f5e1c9f5-a154-49f8-8534-f9af92664802","system_id":"levelo_inurba_marseille","lat":43.27053,"lon":5.42265,"is_reserved":false,"is_disabled":false,"rental_uris":{"android":"levelo://app?vid=f5e1c9f5-a154-49f8-8534-f9af92664802","ios":"levelo://app?vid=f5e1c9f5-a154-49f8-8534-f9af92664802"},"vehicle_type_id":"4","last_reported":1747052453,"current_range_meters":8400,"station_id":"ce4bhk92rcd13ifvqgb0","pricing_plan_id":"cebpf4jnsgd1na2vs0mg"},{"bike_id":"09a0cf25-f8e9-484a-934f-95e1665ee1c3","system_id":"levelo_inurba_marseille","lat":43.26779,"lon":5.39411,"is_reserved":false,"is_disabled":false,"rental_uris":{"android":"levelo://app?vid=09a0cf25-f8e9-484a-934f-95e1665ee1c3","ios":"levelo://app?vid=09a0cf25-f8e9-484a-934f-95e1665ee1c3"},"vehicle_type_id":"4","last_reported":1747052453,"current_range_meters":8000,"station_id":"ce4bhh12rcd13ifvqfg0","pricing_plan_id":"cebpf4jnsgd1na2vs0mg"},{"bike_id":"dd6c715b-8844-4121-b9d2-90d7a0a87e55","system_id":"levelo_inurba_marseille","lat":43.29622,"lon":5.37725,"is_reserved":false,"is_disabled":false,"rental_uris":{"android":"levelo://app?vid=dd6c715b-8844-4121-b9d2-90d7a0a87e55","ios":"levelo://app?vid=dd6c715b-8844-4121-b9d2-90d7a0a87e55"},"vehicle_type_id":"4","last_reported":1747052453,"current_range_meters":8400,"station_id":"ce4bgi92rcd13ifvqb90","pricing_plan_id":"cebpf4jnsgd1na2vs0mg"},{"bike_id":"32f607e3-86f4-4b83-a00e-3860ca594338","system_id":"levelo_inurba_marseille","lat":43.31721,"lon":5.42383,"is_reserved":false,"is_disabled":false,"rental_uris":{"android":"levelo://app?vid=32f607e3-86f4-4b83-a00e-3860ca594338","ios":"levelo://app?vid=32f607e3-86f4-4b83-a00e-3860ca594338"},"vehicle_type_id":"4","last_reported":1747052453,"current_range_meters":8800,"station_id":"ce4bhp92rcd13ifvqhbg","pricing_plan_id":"cebpf4jnsgd1na2vs0mg"},{"bike_id":"1743ad6b-691e-476b-9f15-ca01749f6c60","system_id":"levelo_inurba_marseille","lat":43.27968,"lon":5.3875,"is_reserved":false,"is_disabled":false,"rental_uris":{"android":"levelo://app?vid=1743ad6b-691e-476b-9f15-ca01749f6c60","ios":"levelo://app?vid=1743ad6b-691e-476b-9f15-ca01749f6c60"},"vehicle_type_id":"4","last_reported":1747052453,"current_range_meters":8800,"station_id":"ce4bhg12rcd13ifvqf80","pricing_plan_id":"cebpf4jnsgd1na2vs0mg"},{"bike_id":"5d85d9df-56ef-4fb7-acd3-a772e4571368","system_id":"levelo_inurba_marseille","lat":43.30355,"lon":5.41874,"is_reserved":false,"is_disabled":false,"rental_uris":{"android":"levelo://app?vid=5d85d9df-56ef-4fb7-acd3-a772e4571368","ios":"levelo://app?vid=5d85d9df-56ef-4fb7-acd3-a772e4571368"},"vehicle_type_id":"4","last_reported":1747052453,"current_range_meters":8800,"station_id":"ce4bhop2rcd13ifvqh7g","pricing_plan_id":"cebpf4jnsgd1na2vs0mg"},{"bike_id":"b5d4111d-b188-47e7-ad4c-e3f29ba8b44b","system_id":"levelo_inurba_marseille","lat":43.24076,"lon":5.37753,"is_reserved":false,"is_disabled":false,"rental_uris":{"android":"levelo://app?vid=b5d4111d-b188-47e7-ad4c-e3f29ba8b44b","ios":"levelo://app?vid=b5d4111d-b188-47e7-ad4c-e3f29ba8b44b"},"vehicle_type_id":"4","last_reported":1747052453,"current_range_meters":8800,"station_id":"ce4bhnp2rcd13ifvqgvg","pricing_plan_id":"cebpf4jnsgd1na2vs0mg"},{"bike_id":"7f1f9ca6-04b5-48a5-b2e6-648fa73476da","system_id":"levelo_inurba_marseille","lat":43.29869,"lon":5.38894,"is_reserved":false,"is_disabled":false,"rental_uris":{"android":"levelo://app?vid=7f1f9ca6-04b5-48a5-b2e6-648fa73476da","ios":"levelo://app?vid=7f1f9ca6-04b5-48a5-b2e6-648fa73476da"},"vehicle_type_id":"4","last_reported":1747052453,"current_range_meters":8800,"station_id":"ce4bh392rcd13ifvqdl0","pricing_plan_id":"cebpf4jnsgd1na2vs0mg"},{"bike_id":"33c34b31-1434-4418-b758-28175ee9d5c7","system_id":"levelo_inurba_marseille","lat":43.24072,"lon":5.37746,"is_reserved":false,"is_disabled":false,"rental_uris":{"android":"levelo://app?vid=33c34b31-1434-4418-b758-28175ee9d5c7","ios":"levelo://app?vid=33c34b31-1434-4418-b758-28175ee9d5c7"},"vehicle_type_id":"4","last_reported":1747052453,"current_range_meters":9200,"station_id":"ce4bhnp2rcd13ifvqgvg","pricing_plan_id":"cebpf4jnsgd1na2vs0mg"},{"bike_id":"c978340a-5264-4247-9e69-0b8a6f5cc527","system_id":"levelo_inurba_marseille","lat":43.30144,"lon":5.38084,"is_reserved":false,"is_disabled":false,"rental_uris":{"android":"levelo://app?vid=c978340a-5264-4247-9e69-0b8a6f5cc527","ios":"levelo://app?vid=c978340a-5264-4247-9e69-0b8a6f5cc527"},"vehicle_type_id":"4","last_reported":1747052453,"current_range_meters":8800,"station_id":"ce4bgjp2rcd13ifvqbh0","pricing_plan_id":"cebpf4jnsgd1na2vs0mg"},{"bike_id":"de608a0b-278b-468e-957e-8246fb76906b","system_id":"levelo_inurba_marseille","lat":43.279633,"lon":5.387179,"is_reserved":false,"is_disabled":true,"rental_uris":{"android":"levelo://app?vid=de608a0b-278b-468e-957e-8246fb76906b","ios":"levelo://app?vid=de608a0b-278b-468e-957e-8246fb76906b"},"vehicle_type_id":"4","last_reported":1747052453,"current_range_meters":9200,"station_id":"","pricing_plan_id":"cebpf4jnsgd1na2vs0mg"},{"bike_id":"36686910-33f9-490e-9f5e-6329a2d27f3d","system_id":"levelo_inurba_marseille","lat":43.26192,"lon":5.37443,"is_reserved":false,"is_disabled":false,"rental_uris":{"android":"levelo://app?vid=36686910-33f9-490e-9f5e-6329a2d27f3d","ios":"levelo://app?vid=36686910-33f9-490e-9f5e-6329a2d27f3d"},"vehicle_type_id":"4","last_reported":1747052453,"current_range_meters":9600,"station_id":"ce4bhgp2rcd13ifvqfc0","pricing_plan_id":"cebpf4jnsgd1na2vs0mg"},{"bike_id":"3bcd288c-7bd6-4bf9-9a35-1a4ba91d43c5","system_id":"levelo_inurba_marseille","lat":43.28685,"lon":5.39978,"is_reserved":false,"is_disabled":false,"rental_uris":{"android":"levelo://app?vid=3bcd288c-7bd6-4bf9-9a35-1a4ba91d43c5","ios":"levelo://app?vid=3bcd288c-7bd6-4bf9-9a35-1a4ba91d43c5"},"vehicle_type_id":"4","last_reported":1747052453,"current_range_meters":9600,"station_id":"ce4bho92rcd13ifvqh3g","pricing_plan_id":"cebpf4jnsgd1na2vs0mg"},{"bike_id":"d2c20e70-c1bc-40cb-a87a-5a66f30ab482","system_id":"levelo_inurba_marseille","lat":43.30273,"lon":5.37706,"is_reserved":false,"is_disabled":false,"rental_uris":{"android":"levelo://app?vid=d2c20e70-c1bc-40cb-a87a-5a66f30ab482","ios":"levelo://app?vid=d2c20e70-c1bc-40cb-a87a-5a66f30ab482"},"vehicle_type_id":"4","last_reported":1747052453,"current_range_meters":9200,"station_id":"ce4bguh2rcd13ifvqcj0","pricing_plan_id":"cebpf4jnsgd1na2vs0mg"},{"bike_id":"e0bd4735-2d2c-46b7-9699-64d674102f61","system_id":"levelo_inurba_marseille","lat":43.2417,"lon":5.36399,"is_reserved":false,"is_disabled":false,"rental_uris":{"android":"levelo://app?vid=e0bd4735-2d2c-46b7-9699-64d674102f61","ios":"levelo://app?vid=e0bd4735-2d2c-46b7-9699-64d674102f61"},"vehicle_type_id":"4","last_reported":1747052453,"current_range_meters":9600,"station_id":"cpo36qri1sfpv3e86is0","pricing_plan_id":"cebpf4jnsgd1na2vs0mg"},{"bike_id":"da28b554-8b5b-4ca6-9f3b-f087512d379f","system_id":"levelo_inurba_marseille","lat":43.31449,"lon":5.36589,"is_reserved":false,"is_disabled":false,"rental_uris":{"android":"levelo://app?vid=da28b554-8b5b-4ca6-9f3b-f087512d379f","ios":"levelo://app?vid=da28b554-8b5b-4ca6-9f3b-f087512d379f"},"vehicle_type_id":"4","last_reported":1747052453,"current_range_meters":9600,"station_id":"","pricing_plan_id":"cebpf4jnsgd1na2vs0mg"},{"bike_id":"9c52b073-42af-4189-83f8-4c594cb8bf6b","system_id":"levelo_inurba_marseille","lat":43.286123,"lon":5.370669,"is_reserved":false,"is_disabled":false,"rental_uris":{"android":"levelo://app?vid=9c52b073-42af-4189-83f8-4c594cb8bf6b","ios":"levelo://app?vid=9c52b073-42af-4189-83f8-4c594cb8bf6b"},"vehicle_type_id":"4","last_reported":1747052453,"current_range_meters":9600,"station_id":"ce4bht12rcd13ifvqi60","pricing_plan_id":"cebpf4jnsgd1na2vs0mg"},{"bike_id":"4c7a1768-1809-4059-9b90-de0b9df63138","system_id":"levelo_inurba_marseille","lat":43.27491,"lon":5.42456,"is_reserved":false,"is_disabled":false,"rental_uris":{"android":"levelo://app?vid=4c7a1768-1809-4059-9b90-de0b9df63138","ios":"levelo://app?vid=4c7a1768-1809-4059-9b90-de0b9df63138"},"vehicle_type_id":"4","last_reported":1747052453,"current_range_meters":9600,"station_id":"ce4bhn92rcd13ifvqgrg","pricing_plan_id":"cebpf4jnsgd1na2vs0mg"},{"bike_id":"de4a530f-3b17-41b9-bd98-d22e64d46bdc","system_id":"levelo_inurba_marseille","lat":43.321043,"lon":5.367732,"is_reserved":false,"is_disabled":false,"rental_uris":{"android":"levelo://app?vid=de4a530f-3b17-41b9-bd98-d22e64d46bdc","ios":"levelo://app?vid=de4a530f-3b17-41b9-bd98-d22e64d46bdc"},"vehicle_type_id":"4","last_reported":1747052453,"current_range_meters":9600,"station_id":"ce4bhrh2rcd13ifvqhug","pricing_plan_id":"cebpf4jnsgd1na2vs0mg"},{"bike_id":"bbba9b2a-8e9d-4a1d-a5f2-90d259e41385","system_id":"levelo_inurba_marseille","lat":43.31761,"lon":5.3902,"is_reserved":false,"is_disabled":false,"rental_uris":{"android":"levelo://app?vid=bbba9b2a-8e9d-4a1d-a5f2-90d259e41385","ios":"levelo://app?vid=bbba9b2a-8e9d-4a1d-a5f2-90d259e41385"},"vehicle_type_id":"4","last_reported":1747052453,"current_range_meters":10000,"station_id":"ce4bhqp2rcd13ifvqhng","pricing_plan_id":"cebpf4jnsgd1na2vs0mg"},{"bike_id":"3ff13423-2698-4c4e-8fa9-5137c5f35d96","system_id":"levelo_inurba_marseille","lat":43.299037,"lon":5.381353,"is_reserved":false,"is_disabled":false,"rental_uris":{"android":"levelo://app?vid=3ff13423-2698-4c4e-8fa9-5137c5f35d96","ios":"levelo://app?vid=3ff13423-2698-4c4e-8fa9-5137c5f35d96"},"vehicle_type_id":"4","last_reported":1747052453,"current_range_meters":10000,"station_id":"ce4bgj12rcd13ifvqbc0","pricing_plan_id":"cebpf4jnsgd1na2vs0mg"},{"bike_id":"1450f5a8-04cf-4281-916a-dfdad5076549","system_id":"levelo_inurba_marseille","lat":43.2417,"lon":5.36391,"is_reserved":false,"is_disabled":false,"rental_uris":{"android":"levelo://app?vid=1450f5a8-04cf-4281-916a-dfdad5076549","ios":"levelo://app?vid=1450f5a8-04cf-4281-916a-dfdad5076549"},"vehicle_type_id":"4","last_reported":1747052453,"current_range_meters":10800,"station_id":"cpo36qri1sfpv3e86is0","pricing_plan_id":"cebpf4jnsgd1na2vs0mg"},{"bike_id":"0f11eb0d-2fa8-4c0e-a46a-60a34c1bf1b5","system_id":"levelo_inurba_marseille","lat":43.23149,"lon":5.43721,"is_reserved":false,"is_disabled":false,"rental_uris":{"android":"levelo://app?vid=0f11eb0d-2fa8-4c0e-a46a-60a34c1bf1b5","ios":"levelo://app?vid=0f11eb0d-2fa8-4c0e-a46a-60a34c1bf1b5"},"vehicle_type_id":"4","last_reported":1747052453,"current_range_meters":10800,"station_id":"ce4bhmp2rcd13ifvqgog","pricing_plan_id":"cebpf4jnsgd1na2vs0mg"},{"bike_id":"c422221a-e333-4546-ab26-9e46d225abe5","system_id":"levelo_inurba_marseille","lat":43.3015,"lon":5.38093,"is_reserved":false,"is_disabled":false,"rental_uris":{"android":"levelo://app?vid=c422221a-e333-4546-ab26-9e46d225abe5","ios":"levelo://app?vid=c422221a-e333-4546-ab26-9e46d225abe5"},"vehicle_type_id":"4","last_reported":1747052453,"current_range_meters":10800,"station_id":"ce4bgjp2rcd13ifvqbh0","pricing_plan_id":"cebpf4jnsgd1na2vs0mg"},{"bike_id":"866bc201-4174-4c58-8905-c934cc540801","system_id":"levelo_inurba_marseille","lat":43.28467,"lon":5.3589,"is_reserved":false,"is_disabled":false,"rental_uris":{"android":"levelo://app?vid=866bc201-4174-4c58-8905-c934cc540801","ios":"levelo://app?vid=866bc201-4174-4c58-8905-c934cc540801"},"vehicle_type_id":"4","last_reported":1747052453,"current_range_meters":10800,"station_id":"ce4bhah2rcd13ifvqei0","pricing_plan_id":"cebpf4jnsgd1na2vs0mg"},{"bike_id":"2ee4d910-0ee1-4bc5-86c8-c77afad12b4f","system_id":"levelo_inurba_marseille","lat":43.321125,"lon":5.367675,"is_reserved":false,"is_disabled":false,"rental_uris":{"android":"levelo://app?vid=2ee4d910-0ee1-4bc5-86c8-c77afad12b4f","ios":"levelo://app?vid=2ee4d910-0ee1-4bc5-86c8-c77afad12b4f"},"vehicle_type_id":"4","last_reported":1747052453,"current_range_meters":10800,"station_id":"ce4bhrh2rcd13ifvqhug","pricing_plan_id":"cebpf4jnsgd1na2vs0mg"},{"bike_id":"5122272e-cecb-40fe-a5c5-81d9ead81c39","system_id":"levelo_inurba_marseille","lat":43.28616,"lon":5.35101,"is_reserved":false,"is_disabled":false,"rental_uris":{"android":"levelo://app?vid=5122272e-cecb-40fe-a5c5-81d9ead81c39","ios":"levelo://app?vid=5122272e-cecb-40fe-a5c5-81d9ead81c39"},"vehicle_type_id":"4","last_reported":1747052453,"current_range_meters":11200,"station_id":"ce4bhch2rcd13ifvqeug","pricing_plan_id":"cebpf4jnsgd1na2vs0mg"},{"bike_id":"47ebbf4f-74f7-440e-9844-02aefb681c7c","system_id":"levelo_inurba_marseille","lat":43.24213,"lon":5.39729,"is_reserved":false,"is_disabled":false,"rental_uris":{"android":"levelo://app?vid=47ebbf4f-74f7-440e-9844-02aefb681c7c","ios":"levelo://app?vid=47ebbf4f-74f7-440e-9844-02aefb681c7c"},"vehicle_type_id":"4","last_reported":1747052453,"current_range_meters":11600,"station_id":"ce4bhn12rcd13ifvqgpg","pricing_plan_id":"cebpf4jnsgd1na2vs0mg"},{"bike_id":"11e4597e-c0da-4b11-b293-5b1f7659f2d6","system_id":"levelo_inurba_marseille","lat":43.31355,"lon":5.36711,"is_reserved":false,"is_disabled":false,"rental_uris":{"android":"levelo://app?vid=11e4597e-c0da-4b11-b293-5b1f7659f2d6","ios":"levelo://app?vid=11e4597e-c0da-4b11-b293-5b1f7659f2d6"},"vehicle_type_id":"4","last_reported":1747052453,"current_range_meters":11600,"station_id":"ce4bgr92rcd13ifvqc6g","pricing_plan_id":"cebpf4jnsgd1na2vs0mg"},{"bike_id":"a6783f40-347b-4463-9d27-fce0baa82d36","system_id":"levelo_inurba_marseille","lat":43.29164,"lon":5.37167,"is_reserved":false,"is_disabled":false,"rental_uris":{"android":"levelo://app?vid=a6783f40-347b-4463-9d27-fce0baa82d36","ios":"levelo://app?vid=a6783f40-347b-4463-9d27-fce0baa82d36"},"vehicle_type_id":"4","last_reported":1747052453,"current_range_meters":11600,"station_id":"ce4bha92rcd13ifvqeh0","pricing_plan_id":"cebpf4jnsgd1na2vs0mg"},{"bike_id":"b2a989e6-4d64-4e7a-b7f5-7a7bb3c92b1f","system_id":"levelo_inurba_marseille","lat":43.27969,"lon":5.38715,"is_reserved":false,"is_disabled":false,"rental_uris":{"android":"levelo://app?vid=b2a989e6-4d64-4e7a-b7f5-7a7bb3c92b1f","ios":"levelo://app?vid=b2a989e6-4d64-4e7a-b7f5-7a7bb3c92b1f"},"vehicle_type_id":"4","last_reported":1747052453,"current_range_meters":11600,"station_id":"ce4bhg12rcd13ifvqf80","pricing_plan_id":"cebpf4jnsgd1na2vs0mg"},{"bike_id":"f7535867-0f6a-4847-8cb9-c0fc270abc4f","system_id":"levelo_inurba_marseille","lat":43.29301,"lon":5.3746,"is_reserved":false,"is_disabled":false,"rental_uris":{"android":"levelo://app?vid=f7535867-0f6a-4847-8cb9-c0fc270abc4f","ios":"levelo://app?vid=f7535867-0f6a-4847-8cb9-c0fc270abc4f"},"vehicle_type_id":"4","last_reported":1747052453,"current_range_meters":11600,"station_id":"ce4bgi12rcd13ifvqb70","pricing_plan_id":"cebpf4jnsgd1na2vs0mg"},{"bike_id":"515bb9bf-628e-4241-bab8-f92638bfff4a","system_id":"levelo_inurba_marseille","lat":43.32538,"lon":5.41436,"is_reserved":false,"is_disabled":false,"rental_uris":{"android":"levelo://app?vid=515bb9bf-628e-4241-bab8-f92638bfff4a","ios":"levelo://app?vid=515bb9bf-628e-4241-bab8-f92638bfff4a"},"vehicle_type_id":"4","last_reported":1747052453,"current_range_meters":12000,"station_id":"ce4bhq12rcd13ifvqhhg","pricing_plan_id":"cebpf4jnsgd1na2vs0mg"},{"bike_id":"0bf31d40-2ad2-494c-afdd-13acdb3f7f8d","system_id":"levelo_inurba_marseille","lat":43.29568,"lon":5.42273,"is_reserved":false,"is_disabled":false,"rental_uris":{"android":"levelo://app?vid=0bf31d40-2ad2-494c-afdd-13acdb3f7f8d","ios":"levelo://app?vid=0bf31d40-2ad2-494c-afdd-13acdb3f7f8d"},"vehicle_type_id":"4","last_reported":1747052453,"current_range_meters":12000,"station_id":"ce4bhph2rcd13ifvqhdg","pricing_plan_id":"cebpf4jnsgd1na2vs0mg"},{"bike_id":"ba24b946-629f-45b5-a009-d0b46184cd1e","system_id":"levelo_inurba_marseille","lat":43.28366,"lon":5.38631,"is_reserved":false,"is_disabled":false,"rental_uris":{"android":"levelo://app?vid=ba24b946-629f-45b5-a009-d0b46184cd1e","ios":"levelo://app?vid=ba24b946-629f-45b5-a009-d0b46184cd1e"},"vehicle_type_id":"4","last_reported":1747052453,"current_range_meters":12000,"station_id":"ce4bh492rcd13ifvqdvg","pricing_plan_id":"cebpf4jnsgd1na2vs0mg"},{"bike_id":"c717b955-1d23-42a6-bf63-f39e0d9342dd","system_id":"levelo_inurba_marseille","lat":43.28288,"lon":5.4308,"is_reserved":false,"is_disabled":false,"rental_uris":{"android":"levelo://app?vid=c717b955-1d23-42a6-bf63-f39e0d9342dd","ios":"levelo://app?vid=c717b955-1d23-42a6-bf63-f39e0d9342dd"},"vehicle_type_id":"4","last_reported":1747052453,"current_range_meters":12000,"station_id":"","pricing_plan_id":"cebpf4jnsgd1na2vs0mg"},{"bike_id":"4489d8ab-8be5-430c-a025-1ace34b79260","system_id":"levelo_inurba_marseille","lat":43.30893,"lon":5.37184,"is_reserved":false,"is_disabled":false,"rental_uris":{"android":"levelo://app?vid=4489d8ab-8be5-430c-a025-1ace34b79260","ios":"levelo://app?vid=4489d8ab-8be5-430c-a025-1ace34b79260"},"vehicle_type_id":"4","last_reported":1747052453,"current_range_meters":12000,"station_id":"ce4bguh2rcd13ifvqckg","pricing_plan_id":"cebpf4jnsgd1na2vs0mg"},{"bike_id":"dff44ee9-d357-49fb-b8ef-b2ba825e92dc","system_id":"levelo_inurba_marseille","lat":43.33613,"lon":5.40992,"is_reserved":false,"is_disabled":false,"rental_uris":{"android":"levelo://app?vid=dff44ee9-d357-49fb-b8ef-b2ba825e92dc","ios":"levelo://app?vid=dff44ee9-d357-49fb-b8ef-b2ba825e92dc"},"vehicle_type_id":"4","last_reported":1747052453,"current_range_meters":12400,"station_id":"ce4bhqh2rcd13ifvqhmg","pricing_plan_id":"cebpf4jnsgd1na2vs0mg"},{"bike_id":"707ff88a-3928-4ce8-a0dc-6a22623e0f97","system_id":"levelo_inurba_marseille","lat":43.283752,"lon":5.386334,"is_reserved":false,"is_disabled":false,"rental_uris":{"android":"levelo://app?vid=707ff88a-3928-4ce8-a0dc-6a22623e0f97","ios":"levelo://app?vid=707ff88a-3928-4ce8-a0dc-6a22623e0f97"},"vehicle_type_id":"4","last_reported":1747052453,"current_range_meters":12400,"station_id":"ce4bh492rcd13ifvqdvg","pricing_plan_id":"cebpf4jnsgd1na2vs0mg"},{"bike_id":"dc9b51ae-1522-4e3c-af2b-a5f69236e65f","system_id":"levelo_inurba_marseille","lat":43.26939,"lon":5.40254,"is_reserved":false,"is_disabled":false,"rental_uris":{"android":"levelo://app?vid=dc9b51ae-1522-4e3c-af2b-a5f69236e65f","ios":"levelo://app?vid=dc9b51ae-1522-4e3c-af2b-a5f69236e65f"},"vehicle_type_id":"4","last_reported":1747052453,"current_range_meters":12000,"station_id":"cjm6bp8fraef2m0cb0m0","pricing_plan_id":"cebpf4jnsgd1na2vs0mg"},{"bike_id":"ed527413-d4a9-4e7a-9160-e2c6617e5844","system_id":"levelo_inurba_marseille","lat":43.29619,"lon":5.37728,"is_reserved":false,"is_disabled":false,"rental_uris":{"android":"levelo://app?vid=ed527413-d4a9-4e7a-9160-e2c6617e5844","ios":"levelo://app?vid=ed527413-d4a9-4e7a-9160-e2c6617e5844"},"vehicle_type_id":"4","last_reported":1747052453,"current_range_meters":12400,"station_id":"ce4bgi92rcd13ifvqb90","pricing_plan_id":"cebpf4jnsgd1na2vs0mg"},{"bike_id":"0a4dc782-e1df-48ff-81bf-b707284fe935","system_id":"levelo_inurba_marseille","lat":43.28427,"lon":5.34983,"is_reserved":false,"is_disabled":false,"rental_uris":{"android":"levelo://app?vid=0a4dc782-e1df-48ff-81bf-b707284fe935","ios":"levelo://app?vid=0a4dc782-e1df-48ff-81bf-b707284fe935"},"vehicle_type_id":"4","last_reported":1747052453,"current_range_meters":12400,"station_id":"ce4bhbh2rcd13ifvqepg","pricing_plan_id":"cebpf4jnsgd1na2vs0mg"},{"bike_id":"bb0d4c32-0d76-4e7d-a3af-a68c8e5e1ec7","system_id":"levelo_inurba_marseille","lat":43.24071,"lon":5.3775,"is_reserved":false,"is_disabled":false,"rental_uris":{"android":"levelo://app?vid=bb0d4c32-0d76-4e7d-a3af-a68c8e5e1ec7","ios":"levelo://app?vid=bb0d4c32-0d76-4e7d-a3af-a68c8e5e1ec7"},"vehicle_type_id":"4","last_reported":1747052453,"current_range_meters":12800,"station_id":"ce4bhnp2rcd13ifvqgvg","pricing_plan_id":"cebpf4jnsgd1na2vs0mg"},{"bike_id":"bf749073-d986-4282-8011-c366f5e041f3","system_id":"levelo_inurba_marseille","lat":43.28108,"lon":5.37859,"is_reserved":false,"is_disabled":false,"rental_uris":{"android":"levelo://app?vid=bf749073-d986-4282-8011-c366f5e041f3","ios":"levelo://app?vid=bf749073-d986-4282-8011-c366f5e041f3"},"vehicle_type_id":"4","last_reported":1747052453,"current_range_meters":12400,"station_id":"ce4bha12rcd13ifvqee0","pricing_plan_id":"cebpf4jnsgd1na2vs0mg"},{"bike_id":"2fefc888-e4c4-4963-a565-b0d7c06f36f0","system_id":"levelo_inurba_marseille","lat":43.26942,"lon":5.40246,"is_reserved":false,"is_disabled":false,"rental_uris":{"android":"levelo://app?vid=2fefc888-e4c4-4963-a565-b0d7c06f36f0","ios":"levelo://app?vid=2fefc888-e4c4-4963-a565-b0d7c06f36f0"},"vehicle_type_id":"4","last_reported":1747052453,"current_range_meters":12400,"station_id":"cjm6bp8fraef2m0cb0m0","pricing_plan_id":"cebpf4jnsgd1na2vs0mg"},{"bike_id":"c58f5b4c-a81d-45cd-8932-533fb8088e65","system_id":"levelo_inurba_marseille","lat":43.2842,"lon":5.3499,"is_reserved":false,"is_disabled":false,"rental_uris":{"android":"levelo://app?vid=c58f5b4c-a81d-45cd-8932-533fb8088e65","ios":"levelo://app?vid=c58f5b4c-a81d-45cd-8932-533fb8088e65"},"vehicle_type_id":"4","last_reported":1747052453,"current_range_meters":13600,"station_id":"ce4bhbh2rcd13ifvqepg","pricing_plan_id":"cebpf4jnsgd1na2vs0mg"},{"bike_id":"1a60297d-a878-4c66-a8bc-42e316b17252","system_id":"levelo_inurba_marseille","lat":43.32545,"lon":5.41436,"is_reserved":false,"is_disabled":false,"rental_uris":{"android":"levelo://app?vid=1a60297d-a878-4c66-a8bc-42e316b17252","ios":"levelo://app?vid=1a60297d-a878-4c66-a8bc-42e316b17252"},"vehicle_type_id":"4","last_reported":1747052453,"current_range_meters":13600,"station_id":"ce4bhq12rcd13ifvqhhg","pricing_plan_id":"cebpf4jnsgd1na2vs0mg"},{"bike_id":"09667552-604c-472f-b05c-2be0e1fd2bf4","system_id":"levelo_inurba_marseille","lat":43.28032,"lon":5.36946,"is_reserved":false,"is_disabled":false,"rental_uris":{"android":"levelo://app?vid=09667552-604c-472f-b05c-2be0e1fd2bf4","ios":"levelo://app?vid=09667552-604c-472f-b05c-2be0e1fd2bf4"},"vehicle_type_id":"4","last_reported":1747052453,"current_range_meters":13600,"station_id":"ce4bha12rcd13ifvqef0","pricing_plan_id":"cebpf4jnsgd1na2vs0mg"},{"bike_id":"368f885a-5edb-4d53-bcc0-fa9187e3dd2a","system_id":"levelo_inurba_marseille","lat":43.29011,"lon":5.38139,"is_reserved":false,"is_disabled":false,"rental_uris":{"android":"levelo://app?vid=368f885a-5edb-4d53-bcc0-fa9187e3dd2a","ios":"levelo://app?vid=368f885a-5edb-4d53-bcc0-fa9187e3dd2a"},"vehicle_type_id":"4","last_reported":1747052453,"current_range_meters":13600,"station_id":"ce4bh4p2rcd13ifvqe1g","pricing_plan_id":"cebpf4jnsgd1na2vs0mg"},{"bike_id":"ffab5025-97d6-48b3-a460-105c34028bdb","system_id":"levelo_inurba_marseille","lat":43.29923,"lon":5.37471,"is_reserved":false,"is_disabled":false,"rental_uris":{"android":"levelo://app?vid=ffab5025-97d6-48b3-a460-105c34028bdb","ios":"levelo://app?vid=ffab5025-97d6-48b3-a460-105c34028bdb"},"vehicle_type_id":"4","last_reported":1747052453,"current_range_meters":13600,"station_id":"ce4bgjh2rcd13ifvqbg0","pricing_plan_id":"cebpf4jnsgd1na2vs0mg"},{"bike_id":"3cf585c9-f300-4afc-a52e-f4f226664aba","system_id":"levelo_inurba_marseille","lat":43.2919,"lon":5.35798,"is_reserved":false,"is_disabled":false,"rental_uris":{"android":"levelo://app?vid=3cf585c9-f300-4afc-a52e-f4f226664aba","ios":"levelo://app?vid=3cf585c9-f300-4afc-a52e-f4f226664aba"},"vehicle_type_id":"4","last_reported":1747052453,"current_range_meters":13600,"station_id":"ce4bhb12rcd13ifvqel0","pricing_plan_id":"cebpf4jnsgd1na2vs0mg"},{"bike_id":"1dbcb607-dbf3-436c-b72b-b6f319ce513a","system_id":"levelo_inurba_marseille","lat":43.337444,"lon":5.374475,"is_reserved":false,"is_disabled":false,"rental_uris":{"android":"levelo://app?vid=1dbcb607-dbf3-436c-b72b-b6f319ce513a","ios":"levelo://app?vid=1dbcb607-dbf3-436c-b72b-b6f319ce513a"},"vehicle_type_id":"4","last_reported":1747052453,"current_range_meters":14000,"station_id":"","pricing_plan_id":"cebpf4jnsgd1na2vs0mg"},{"bike_id":"2426c398-e9ff-4bc6-af2e-6b6e8459674c","system_id":"levelo_inurba_marseille","lat":43.28424,"lon":5.34995,"is_reserved":false,"is_disabled":false,"rental_uris":{"android":"levelo://app?vid=2426c398-e9ff-4bc6-af2e-6b6e8459674c","ios":"levelo://app?vid=2426c398-e9ff-4bc6-af2e-6b6e8459674c"},"vehicle_type_id":"4","last_reported":1747052453,"current_range_meters":14000,"station_id":"ce4bhbh2rcd13ifvqepg","pricing_plan_id":"cebpf4jnsgd1na2vs0mg"},{"bike_id":"fb0a9de0-1cd4-4cf9-bf32-cc834b55a308","system_id":"levelo_inurba_marseille","lat":43.3016,"lon":5.37433,"is_reserved":false,"is_disabled":false,"rental_uris":{"android":"levelo://app?vid=fb0a9de0-1cd4-4cf9-bf32-cc834b55a308","ios":"levelo://app?vid=fb0a9de0-1cd4-4cf9-bf32-cc834b55a308"},"vehicle_type_id":"4","last_reported":1747052453,"current_range_meters":14000,"station_id":"ce4bgs92rcd13ifvqcc0","pricing_plan_id":"cebpf4jnsgd1na2vs0mg"},{"bike_id":"07b316d5-03e6-4826-83ee-dfb0ca83afd4","system_id":"levelo_inurba_marseille","lat":43.27916,"lon":5.38015,"is_reserved":false,"is_disabled":false,"rental_uris":{"android":"levelo://app?vid=07b316d5-03e6-4826-83ee-dfb0ca83afd4","ios":"levelo://app?vid=07b316d5-03e6-4826-83ee-dfb0ca83afd4"},"vehicle_type_id":"4","last_reported":1747052453,"current_range_meters":14400,"station_id":"ce4bhf92rcd13ifvqf50","pricing_plan_id":"cebpf4jnsgd1na2vs0mg"},{"bike_id":"e3447702-494e-4f4b-b502-fe80ed29dbef","system_id":"levelo_inurba_marseille","lat":43.29294,"lon":5.37453,"is_reserved":false,"is_disabled":false,"rental_uris":{"android":"levelo://app?vid=e3447702-494e-4f4b-b502-fe80ed29dbef","ios":"levelo://app?vid=e3447702-494e-4f4b-b502-fe80ed29dbef"},"vehicle_type_id":"4","last_reported":1747052453,"current_range_meters":14400,"station_id":"ce4bgi12rcd13ifvqb70","pricing_plan_id":"cebpf4jnsgd1na2vs0mg"},{"bike_id":"715f0887-b425-4ec3-bc91-198fdedcb277","system_id":"levelo_inurba_marseille","lat":43.30152,"lon":5.38078,"is_reserved":false,"is_disabled":false,"rental_uris":{"android":"levelo://app?vid=715f0887-b425-4ec3-bc91-198fdedcb277","ios":"levelo://app?vid=715f0887-b425-4ec3-bc91-198fdedcb277"},"vehicle_type_id":"4","last_reported":1747052453,"current_range_meters":14800,"station_id":"ce4bgjp2rcd13ifvqbh0","pricing_plan_id":"cebpf4jnsgd1na2vs0mg"},{"bike_id":"3b1a7bfb-e804-4f7f-ad87-7b777cf445b1","system_id":"levelo_inurba_marseille","lat":43.30557,"lon":5.36552,"is_reserved":false,"is_disabled":false,"rental_uris":{"android":"levelo://app?vid=3b1a7bfb-e804-4f7f-ad87-7b777cf445b1","ios":"levelo://app?vid=3b1a7bfb-e804-4f7f-ad87-7b777cf445b1"},"vehicle_type_id":"4","last_reported":1747052453,"current_range_meters":14800,"station_id":"ce4bgs12rcd13ifvqcag","pricing_plan_id":"cebpf4jnsgd1na2vs0mg"},{"bike_id":"edb4a904-1bc2-45eb-a149-5a6e188a207a","system_id":"levelo_inurba_marseille","lat":43.32341,"lon":5.3674,"is_reserved":false,"is_disabled":false,"rental_uris":{"android":"levelo://app?vid=edb4a904-1bc2-45eb-a149-5a6e188a207a","ios":"levelo://app?vid=edb4a904-1bc2-45eb-a149-5a6e188a207a"},"vehicle_type_id":"4","last_reported":1747052453,"current_range_meters":14800,"station_id":"ce4bhsh2rcd13ifvqi2g","pricing_plan_id":"cebpf4jnsgd1na2vs0mg"},{"bike_id":"b660e6e6-5e91-4741-9c70-7faa5f4d04ac","system_id":"levelo_inurba_marseille","lat":43.245464,"lon":5.395227,"is_reserved":false,"is_disabled":false,"rental_uris":{"android":"levelo://app?vid=b660e6e6-5e91-4741-9c70-7faa5f4d04ac","ios":"levelo://app?vid=b660e6e6-5e91-4741-9c70-7faa5f4d04ac"},"vehicle_type_id":"4","last_reported":1747052453,"current_range_meters":14400,"station_id":"ce4bhlp2rcd13ifvqgjg","pricing_plan_id":"cebpf4jnsgd1na2vs0mg"},{"bike_id":"88a78e7e-edf8-4e92-b336-7212c883d0a3","system_id":"levelo_inurba_marseille","lat":43.30545,"lon":5.36533,"is_reserved":false,"is_disabled":false,"rental_uris":{"android":"levelo://app?vid=88a78e7e-edf8-4e92-b336-7212c883d0a3","ios":"levelo://app?vid=88a78e7e-edf8-4e92-b336-7212c883d0a3"},"vehicle_type_id":"4","last_reported":1747052453,"current_range_meters":14800,"station_id":"ce4bgs12rcd13ifvqcag","pricing_plan_id":"cebpf4jnsgd1na2vs0mg"},{"bike_id":"d21d8a22-139b-484d-ab46-03a711766376","system_id":"levelo_inurba_marseille","lat":43.2919,"lon":5.35787,"is_reserved":false,"is_disabled":false,"rental_uris":{"android":"levelo://app?vid=d21d8a22-139b-484d-ab46-03a711766376","ios":"levelo://app?vid=d21d8a22-139b-484d-ab46-03a711766376"},"vehicle_type_id":"4","last_reported":1747052453,"current_range_meters":14800,"station_id":"","pricing_plan_id":"cebpf4jnsgd1na2vs0mg"},{"bike_id":"df50e219-40a7-446f-85e2-98380a457afc","system_id":"levelo_inurba_marseille","lat":43.28707,"lon":5.37386,"is_reserved":false,"is_disabled":false,"rental_uris":{"android":"levelo://app?vid=df50e219-40a7-446f-85e2-98380a457afc","ios":"levelo://app?vid=df50e219-40a7-446f-85e2-98380a457afc"},"vehicle_type_id":"4","last_reported":1747052453,"current_range_meters":14800,"station_id":"ce4bh3p2rcd13ifvqdq0","pricing_plan_id":"cebpf4jnsgd1na2vs0mg"},{"bike_id":"fc8890f4-4388-45df-a327-ba03d14caef2","system_id":"levelo_inurba_marseille","lat":43.24166,"lon":5.36393,"is_reserved":false,"is_disabled":false,"rental_uris":{"android":"levelo://app?vid=fc8890f4-4388-45df-a327-ba03d14caef2","ios":"levelo://app?vid=fc8890f4-4388-45df-a327-ba03d14caef2"},"vehicle_type_id":"4","last_reported":1747052453,"current_range_meters":14800,"station_id":"cpo36qri1sfpv3e86is0","pricing_plan_id":"cebpf4jnsgd1na2vs0mg"},{"bike_id":"c1b45b93-0a35-4113-9619-1cd6a90d8dd1","system_id":"levelo_inurba_marseille","lat":43.31125,"lon":5.37049,"is_reserved":false,"is_disabled":false,"rental_uris":{"android":"levelo://app?vid=c1b45b93-0a35-4113-9619-1cd6a90d8dd1","ios":"levelo://app?vid=c1b45b93-0a35-4113-9619-1cd6a90d8dd1"},"vehicle_type_id":"4","last_reported":1747052453,"current_range_meters":15200,"station_id":"","pricing_plan_id":"cebpf4jnsgd1na2vs0mg"},{"bike_id":"691a3aed-ca12-4cb3-94d3-705528740153","system_id":"levelo_inurba_marseille","lat":43.29307,"lon":5.37178,"is_reserved":false,"is_disabled":false,"rental_uris":{"android":"levelo://app?vid=691a3aed-ca12-4cb3-94d3-705528740153","ios":"levelo://app?vid=691a3aed-ca12-4cb3-94d3-705528740153"},"vehicle_type_id":"4","last_reported":1747052453,"current_range_meters":15200,"station_id":"ce4bgh92rcd13ifvqb40","pricing_plan_id":"cebpf4jnsgd1na2vs0mg"},{"bike_id":"5d583850-9b53-449c-be7c-f8211fb898d0","system_id":"levelo_inurba_marseille","lat":43.28271,"lon":5.35074,"is_reserved":false,"is_disabled":false,"rental_uris":{"android":"levelo://app?vid=5d583850-9b53-449c-be7c-f8211fb898d0","ios":"levelo://app?vid=5d583850-9b53-449c-be7c-f8211fb898d0"},"vehicle_type_id":"4","last_reported":1747052453,"current_range_meters":15200,"station_id":"ce4bhbp2rcd13ifvqerg","pricing_plan_id":"cebpf4jnsgd1na2vs0mg"},{"bike_id":"17a79ab3-12d6-4cd5-8d36-882a4e135eb0","system_id":"levelo_inurba_marseille","lat":43.23199,"lon":5.35543,"is_reserved":false,"is_disabled":false,"rental_uris":{"android":"levelo://app?vid=17a79ab3-12d6-4cd5-8d36-882a4e135eb0","ios":"levelo://app?vid=17a79ab3-12d6-4cd5-8d36-882a4e135eb0"},"vehicle_type_id":"4","last_reported":1747052453,"current_range_meters":15200,"station_id":"ce4bhu92rcd13ifvqi70","pricing_plan_id":"cebpf4jnsgd1na2vs0mg"},{"bike_id":"f69257da-8878-41a7-b8f6-c7f02aa7ae1d","system_id":"levelo_inurba_marseille","lat":43.25935,"lon":5.40909,"is_reserved":false,"is_disabled":false,"rental_uris":{"android":"levelo://app?vid=f69257da-8878-41a7-b8f6-c7f02aa7ae1d","ios":"levelo://app?vid=f69257da-8878-41a7-b8f6-c7f02aa7ae1d"},"vehicle_type_id":"4","last_reported":1747052453,"current_range_meters":16400,"station_id":"ce4bhm92rcd13ifvqglg","pricing_plan_id":"cebpf4jnsgd1na2vs0mg"},{"bike_id":"3c4b7339-5973-4181-85ba-e2484f7bc559","system_id":"levelo_inurba_marseille","lat":43.24807,"lon":5.37455,"is_reserved":false,"is_disabled":false,"rental_uris":{"android":"levelo://app?vid=3c4b7339-5973-4181-85ba-e2484f7bc559","ios":"levelo://app?vid=3c4b7339-5973-4181-85ba-e2484f7bc559"},"vehicle_type_id":"4","last_reported":1747052453,"current_range_meters":10000,"station_id":"ce4bhgh2rcd13ifvqfb0","pricing_plan_id":"cebpf4jnsgd1na2vs0mg"},{"bike_id":"c1ce1974-35b8-4ba5-a5a0-23aa0ad3ee27","system_id":"levelo_inurba_marseille","lat":43.30213,"lon":5.39468,"is_reserved":false,"is_disabled":false,"rental_uris":{"android":"levelo://app?vid=c1ce1974-35b8-4ba5-a5a0-23aa0ad3ee27","ios":"levelo://app?vid=c1ce1974-35b8-4ba5-a5a0-23aa0ad3ee27"},"vehicle_type_id":"4","last_reported":1747052453,"current_range_meters":16400,"station_id":"ce4bh0p2rcd13ifvqd70","pricing_plan_id":"cebpf4jnsgd1na2vs0mg"},{"bike_id":"8800a067-b478-4b7e-b1c0-2316c829da29","system_id":"levelo_inurba_marseille","lat":43.28358,"lon":5.38098,"is_reserved":false,"is_disabled":false,"rental_uris":{"android":"levelo://app?vid=8800a067-b478-4b7e-b1c0-2316c829da29","ios":"levelo://app?vid=8800a067-b478-4b7e-b1c0-2316c829da29"},"vehicle_type_id":"4","last_reported":1747052453,"current_range_meters":16400,"station_id":"ce4bh412rcd13ifvqdr0","pricing_plan_id":"cebpf4jnsgd1na2vs0mg"},{"bike_id":"e18e61d2-5de8-4824-9a88-24e1b45aabcf","system_id":"levelo_inurba_marseille","lat":43.23978,"lon":5.36624,"is_reserved":false,"is_disabled":false,"rental_uris":{"android":"levelo://app?vid=e18e61d2-5de8-4824-9a88-24e1b45aabcf","ios":"levelo://app?vid=e18e61d2-5de8-4824-9a88-24e1b45aabcf"},"vehicle_type_id":"4","last_reported":1747052453,"current_range_meters":16400,"station_id":"ce4bhi12rcd13ifvqfp0","pricing_plan_id":"cebpf4jnsgd1na2vs0mg"},{"bike_id":"b4c4fe2f-8f55-40ab-9e1a-b683fbdfb5ec","system_id":"levelo_inurba_marseille","lat":43.28099,"lon":5.3783,"is_reserved":false,"is_disabled":false,"rental_uris":{"android":"levelo://app?vid=b4c4fe2f-8f55-40ab-9e1a-b683fbdfb5ec","ios":"levelo://app?vid=b4c4fe2f-8f55-40ab-9e1a-b683fbdfb5ec"},"vehicle_type_id":"4","last_reported":1747052453,"current_range_meters":16400,"station_id":"ce4bha12rcd13ifvqee0","pricing_plan_id":"cebpf4jnsgd1na2vs0mg"},{"bike_id":"d634fdc9-515d-4dc9-8a9d-ea1ab6f1ecc9","system_id":"levelo_inurba_marseille","lat":43.24393,"lon":5.37055,"is_reserved":false,"is_disabled":false,"rental_uris":{"android":"levelo://app?vid=d634fdc9-515d-4dc9-8a9d-ea1ab6f1ecc9","ios":"levelo://app?vid=d634fdc9-515d-4dc9-8a9d-ea1ab6f1ecc9"},"vehicle_type_id":"4","last_reported":1747052453,"current_range_meters":16800,"station_id":"ce4bhhh2rcd13ifvqfk0","pricing_plan_id":"cebpf4jnsgd1na2vs0mg"},{"bike_id":"ac79bf2c-677c-4aaa-9464-b2997f13c5da","system_id":"levelo_inurba_marseille","lat":43.276655,"lon":5.388816,"is_reserved":false,"is_disabled":false,"rental_uris":{"android":"levelo://app?vid=ac79bf2c-677c-4aaa-9464-b2997f13c5da","ios":"levelo://app?vid=ac79bf2c-677c-4aaa-9464-b2997f13c5da"},"vehicle_type_id":"4","last_reported":1747052453,"current_range_meters":16800,"station_id":"ce4bhi12rcd13ifvqfo0","pricing_plan_id":"cebpf4jnsgd1na2vs0mg"},{"bike_id":"5ec68e01-2a22-44e1-b0b6-64fcb2ec9599","system_id":"levelo_inurba_marseille","lat":43.29971,"lon":5.38495,"is_reserved":false,"is_disabled":false,"rental_uris":{"android":"levelo://app?vid=5ec68e01-2a22-44e1-b0b6-64fcb2ec9599","ios":"levelo://app?vid=5ec68e01-2a22-44e1-b0b6-64fcb2ec9599"},"vehicle_type_id":"4","last_reported":1747052453,"current_range_meters":16800,"station_id":"ce4bgj92rcd13ifvqbd0","pricing_plan_id":"cebpf4jnsgd1na2vs0mg"},{"bike_id":"271c5912-31ce-4676-b35e-cdb23c727367","system_id":"levelo_inurba_marseille","lat":43.267983,"lon":5.402619,"is_reserved":false,"is_disabled":false,"rental_uris":{"android":"levelo://app?vid=271c5912-31ce-4676-b35e-cdb23c727367","ios":"levelo://app?vid=271c5912-31ce-4676-b35e-cdb23c727367"},"vehicle_type_id":"4","last_reported":1747052453,"current_range_meters":16800,"station_id":"ce501612rcd8frsf0b60","pricing_plan_id":"cebpf4jnsgd1na2vs0mg"},{"bike_id":"868c3067-4b7e-4995-a7f4-6389e65a15f5","system_id":"levelo_inurba_marseille","lat":43.28151,"lon":5.42646,"is_reserved":false,"is_disabled":false,"rental_uris":{"android":"levelo://app?vid=868c3067-4b7e-4995-a7f4-6389e65a15f5","ios":"levelo://app?vid=868c3067-4b7e-4995-a7f4-6389e65a15f5"},"vehicle_type_id":"4","last_reported":1747052453,"current_range_meters":17200,"station_id":"ce4bhnh2rcd13ifvqgug","pricing_plan_id":"cebpf4jnsgd1na2vs0mg"},{"bike_id":"47acc284-f48a-451d-86b9-5e344017c9d4","system_id":"levelo_inurba_marseille","lat":43.27365,"lon":5.3625,"is_reserved":false,"is_disabled":false,"rental_uris":{"android":"levelo://app?vid=47acc284-f48a-451d-86b9-5e344017c9d4","ios":"levelo://app?vid=47acc284-f48a-451d-86b9-5e344017c9d4"},"vehicle_type_id":"4","last_reported":1747052453,"current_range_meters":16800,"station_id":"ce4bhbh2rcd13ifvqeo0","pricing_plan_id":"cebpf4jnsgd1na2vs0mg"},{"bike_id":"654204d7-02b8-4b3f-8205-1c7400bbfbc4","system_id":"levelo_inurba_marseille","lat":43.24077,"lon":5.37759,"is_reserved":false,"is_disabled":false,"rental_uris":{"android":"levelo://app?vid=654204d7-02b8-4b3f-8205-1c7400bbfbc4","ios":"levelo://app?vid=654204d7-02b8-4b3f-8205-1c7400bbfbc4"},"vehicle_type_id":"4","last_reported":1747052453,"current_range_meters":17200,"station_id":"ce4bhnp2rcd13ifvqgvg","pricing_plan_id":"cebpf4jnsgd1na2vs0mg"},{"bike_id":"2aeca25e-88ec-49c3-a3e4-c4a8595ea415","system_id":"levelo_inurba_marseille","lat":43.30892,"lon":5.39632,"is_reserved":false,"is_disabled":true,"rental_uris":{"android":"levelo://app?vid=2aeca25e-88ec-49c3-a3e4-c4a8595ea415","ios":"levelo://app?vid=2aeca25e-88ec-49c3-a3e4-c4a8595ea415"},"vehicle_type_id":"4","last_reported":1747052453,"current_range_meters":17600,"station_id":"ce4bh012rcd13ifvqcv0","pricing_plan_id":"cebpf4jnsgd1na2vs0mg"},{"bike_id":"fc6e693c-992c-41f9-b827-1151421c293f","system_id":"levelo_inurba_marseille","lat":43.25935,"lon":5.40909,"is_reserved":false,"is_disabled":false,"rental_uris":{"android":"levelo://app?vid=fc6e693c-992c-41f9-b827-1151421c293f","ios":"levelo://app?vid=fc6e693c-992c-41f9-b827-1151421c293f"},"vehicle_type_id":"4","last_reported":1747052453,"current_range_meters":17600,"station_id":"ce4bhm92rcd13ifvqglg","pricing_plan_id":"cebpf4jnsgd1na2vs0mg"},{"bike_id":"87e594b5-b14d-427b-b907-38a918427ffe","system_id":"levelo_inurba_marseille","lat":43.27425,"lon":5.39422,"is_reserved":false,"is_disabled":false,"rental_uris":{"android":"levelo://app?vid=87e594b5-b14d-427b-b907-38a918427ffe","ios":"levelo://app?vid=87e594b5-b14d-427b-b907-38a918427ffe"},"vehicle_type_id":"4","last_reported":1747052453,"current_range_meters":17600,"station_id":"ce4bhdp2rcd13ifvqf20","pricing_plan_id":"cebpf4jnsgd1na2vs0mg"},{"bike_id":"f8dc9e04-d2ee-4752-9e41-df75a435cdb1","system_id":"levelo_inurba_marseille","lat":43.32542,"lon":5.41429,"is_reserved":false,"is_disabled":false,"rental_uris":{"android":"levelo://app?vid=f8dc9e04-d2ee-4752-9e41-df75a435cdb1","ios":"levelo://app?vid=f8dc9e04-d2ee-4752-9e41-df75a435cdb1"},"vehicle_type_id":"4","last_reported":1747052453,"current_range_meters":18000,"station_id":"ce4bhq12rcd13ifvqhhg","pricing_plan_id":"cebpf4jnsgd1na2vs0mg"},{"bike_id":"a2536962-e379-4a43-9c6d-5d0bec53a354","system_id":"levelo_inurba_marseille","lat":43.288529,"lon":5.393054,"is_reserved":false,"is_disabled":false,"rental_uris":{"android":"levelo://app?vid=a2536962-e379-4a43-9c6d-5d0bec53a354","ios":"levelo://app?vid=a2536962-e379-4a43-9c6d-5d0bec53a354"},"vehicle_type_id":"4","last_reported":1747052453,"current_range_meters":17600,"station_id":"ce4bh2p2rcd13ifvqdi0","pricing_plan_id":"cebpf4jnsgd1na2vs0mg"},{"bike_id":"d9ced790-526f-4a4b-8046-76ed359a515a","system_id":"levelo_inurba_marseille","lat":43.28429,"lon":5.34987,"is_reserved":false,"is_disabled":false,"rental_uris":{"android":"levelo://app?vid=d9ced790-526f-4a4b-8046-76ed359a515a","ios":"levelo://app?vid=d9ced790-526f-4a4b-8046-76ed359a515a"},"vehicle_type_id":"4","last_reported":1747052453,"current_range_meters":18000,"station_id":"ce4bhbh2rcd13ifvqepg","pricing_plan_id":"cebpf4jnsgd1na2vs0mg"},{"bike_id":"56d7bb55-d2ed-41a2-8044-c63c0676dbb7","system_id":"levelo_inurba_marseille","lat":43.23148,"lon":5.43709,"is_reserved":false,"is_disabled":false,"rental_uris":{"android":"levelo://app?vid=56d7bb55-d2ed-41a2-8044-c63c0676dbb7","ios":"levelo://app?vid=56d7bb55-d2ed-41a2-8044-c63c0676dbb7"},"vehicle_type_id":"4","last_reported":1747052453,"current_range_meters":18800,"station_id":"ce4bhmp2rcd13ifvqgog","pricing_plan_id":"cebpf4jnsgd1na2vs0mg"},{"bike_id":"78a336b2-7d28-4a19-a82c-6806dcf329c6","system_id":"levelo_inurba_marseille","lat":43.28616,"lon":5.35109,"is_reserved":false,"is_disabled":false,"rental_uris":{"android":"levelo://app?vid=78a336b2-7d28-4a19-a82c-6806dcf329c6","ios":"levelo://app?vid=78a336b2-7d28-4a19-a82c-6806dcf329c6"},"vehicle_type_id":"4","last_reported":1747052453,"current_range_meters":18800,"station_id":"ce4bhch2rcd13ifvqeug","pricing_plan_id":"cebpf4jnsgd1na2vs0mg"},{"bike_id":"e27a6104-9430-41e3-88d5-66b0835c3767","system_id":"levelo_inurba_marseille","lat":43.32654,"lon":5.40994,"is_reserved":false,"is_disabled":false,"rental_uris":{"android":"levelo://app?vid=e27a6104-9430-41e3-88d5-66b0835c3767","ios":"levelo://app?vid=e27a6104-9430-41e3-88d5-66b0835c3767"},"vehicle_type_id":"4","last_reported":1747052453,"current_range_meters":18800,"station_id":"ce4bhpp2rcd13ifvqhgg","pricing_plan_id":"cebpf4jnsgd1na2vs0mg"},{"bike_id":"d7bad7f6-5262-4cdd-b797-c1b7cdbbbd2c","system_id":"levelo_inurba_marseille","lat":43.28614,"lon":5.35102,"is_reserved":false,"is_disabled":false,"rental_uris":{"android":"levelo://app?vid=d7bad7f6-5262-4cdd-b797-c1b7cdbbbd2c","ios":"levelo://app?vid=d7bad7f6-5262-4cdd-b797-c1b7cdbbbd2c"},"vehicle_type_id":"4","last_reported":1747052453,"current_range_meters":18800,"station_id":"ce4bhch2rcd13ifvqeug","pricing_plan_id":"cebpf4jnsgd1na2vs0mg"},{"bike_id":"cc6105f9-6f7d-4848-9f36-916e401bfe26","system_id":"levelo_inurba_marseille","lat":43.31354,"lon":5.3679,"is_reserved":false,"is_disabled":false,"rental_uris":{"android":"levelo://app?vid=cc6105f9-6f7d-4848-9f36-916e401bfe26","ios":"levelo://app?vid=cc6105f9-6f7d-4848-9f36-916e401bfe26"},"vehicle_type_id":"4","last_reported":1747052453,"current_range_meters":18800,"station_id":"ce4bgr92rcd13ifvqc6g","pricing_plan_id":"cebpf4jnsgd1na2vs0mg"},{"bike_id":"84308f44-0cbd-46e7-bb9f-42e205b466ed","system_id":"levelo_inurba_marseille","lat":43.30137,"lon":5.38067,"is_reserved":false,"is_disabled":false,"rental_uris":{"android":"levelo://app?vid=84308f44-0cbd-46e7-bb9f-42e205b466ed","ios":"levelo://app?vid=84308f44-0cbd-46e7-bb9f-42e205b466ed"},"vehicle_type_id":"4","last_reported":1747052453,"current_range_meters":18800,"station_id":"ce4bgjp2rcd13ifvqbh0","pricing_plan_id":"cebpf4jnsgd1na2vs0mg"},{"bike_id":"7efbe277-6e45-4dfa-84e3-d162015b011b","system_id":"levelo_inurba_marseille","lat":43.25726,"lon":5.41107,"is_reserved":false,"is_disabled":false,"rental_uris":{"android":"levelo://app?vid=7efbe277-6e45-4dfa-84e3-d162015b011b","ios":"levelo://app?vid=7efbe277-6e45-4dfa-84e3-d162015b011b"},"vehicle_type_id":"4","last_reported":1747052453,"current_range_meters":18800,"station_id":"ce4bhkp2rcd13ifvqgd0","pricing_plan_id":"cebpf4jnsgd1na2vs0mg"},{"bike_id":"5a93d939-3ef6-4c54-b232-3d04db5a6bf0","system_id":"levelo_inurba_marseille","lat":43.2987,"lon":5.39719,"is_reserved":false,"is_disabled":false,"rental_uris":{"android":"levelo://app?vid=5a93d939-3ef6-4c54-b232-3d04db5a6bf0","ios":"levelo://app?vid=5a93d939-3ef6-4c54-b232-3d04db5a6bf0"},"vehicle_type_id":"4","last_reported":1747052453,"current_range_meters":18800,"station_id":"ce4bh0h2rcd13ifvqd50","pricing_plan_id":"cebpf4jnsgd1na2vs0mg"},{"bike_id":"691ad911-b1d0-47fc-a77d-e5e3db08d382","system_id":"levelo_inurba_marseille","lat":43.21759,"lon":5.3461,"is_reserved":false,"is_disabled":false,"rental_uris":{"android":"levelo://app?vid=691ad911-b1d0-47fc-a77d-e5e3db08d382","ios":"levelo://app?vid=691ad911-b1d0-47fc-a77d-e5e3db08d382"},"vehicle_type_id":"4","last_reported":1747052453,"current_range_meters":19200,"station_id":"st_cvj6r9ubvosntc0bgbag","pricing_plan_id":"cebpf4jnsgd1na2vs0mg"},{"bike_id":"ad318f3b-2a79-4060-98f6-ed32498cf202","system_id":"levelo_inurba_marseille","lat":43.25977,"lon":5.40911,"is_reserved":false,"is_disabled":false,"rental_uris":{"android":"levelo://app?vid=ad318f3b-2a79-4060-98f6-ed32498cf202","ios":"levelo://app?vid=ad318f3b-2a79-4060-98f6-ed32498cf202"},"vehicle_type_id":"4","last_reported":1747052453,"current_range_meters":19200,"station_id":"ce4bhm92rcd13ifvqglg","pricing_plan_id":"cebpf4jnsgd1na2vs0mg"},{"bike_id":"15524c50-84e2-4679-8b2f-c4c2f3057ec8","system_id":"levelo_inurba_marseille","lat":43.28278,"lon":5.35067,"is_reserved":false,"is_disabled":false,"rental_uris":{"android":"levelo://app?vid=15524c50-84e2-4679-8b2f-c4c2f3057ec8","ios":"levelo://app?vid=15524c50-84e2-4679-8b2f-c4c2f3057ec8"},"vehicle_type_id":"4","last_reported":1747052453,"current_range_meters":19200,"station_id":"ce4bhbp2rcd13ifvqerg","pricing_plan_id":"cebpf4jnsgd1na2vs0mg"},{"bike_id":"f3ec045a-47e2-4247-8265-708a5969471b","system_id":"levelo_inurba_marseille","lat":43.26216,"lon":5.37433,"is_reserved":false,"is_disabled":false,"rental_uris":{"android":"levelo://app?vid=f3ec045a-47e2-4247-8265-708a5969471b","ios":"levelo://app?vid=f3ec045a-47e2-4247-8265-708a5969471b"},"vehicle_type_id":"4","last_reported":1747052453,"current_range_meters":19200,"station_id":"ce4bhgp2rcd13ifvqfc0","pricing_plan_id":"cebpf4jnsgd1na2vs0mg"},{"bike_id":"ff9ef53e-4273-4a40-bd7f-a57ba4c3eea9","system_id":"levelo_inurba_marseille","lat":43.29226,"lon":5.36056,"is_reserved":false,"is_disabled":false,"rental_uris":{"android":"levelo://app?vid=ff9ef53e-4273-4a40-bd7f-a57ba4c3eea9","ios":"levelo://app?vid=ff9ef53e-4273-4a40-bd7f-a57ba4c3eea9"},"vehicle_type_id":"4","last_reported":1747052453,"current_range_meters":19200,"station_id":"ce4bhbh2rcd13ifvqeqg","pricing_plan_id":"cebpf4jnsgd1na2vs0mg"},{"bike_id":"b247b0ed-9340-4610-bbae-65f57e16ba5e","system_id":"levelo_inurba_marseille","lat":43.23184,"lon":5.39986,"is_reserved":false,"is_disabled":false,"rental_uris":{"android":"levelo://app?vid=b247b0ed-9340-4610-bbae-65f57e16ba5e","ios":"levelo://app?vid=b247b0ed-9340-4610-bbae-65f57e16ba5e"},"vehicle_type_id":"4","last_reported":1747052453,"current_range_meters":19200,"station_id":"ce4bhn12rcd13ifvqgqg","pricing_plan_id":"cebpf4jnsgd1na2vs0mg"},{"bike_id":"e2c80733-19b7-4d31-aee0-dc716a34092b","system_id":"levelo_inurba_marseille","lat":43.28432,"lon":5.34991,"is_reserved":false,"is_disabled":false,"rental_uris":{"android":"levelo://app?vid=e2c80733-19b7-4d31-aee0-dc716a34092b","ios":"levelo://app?vid=e2c80733-19b7-4d31-aee0-dc716a34092b"},"vehicle_type_id":"4","last_reported":1747052453,"current_range_meters":19600,"station_id":"ce4bhbh2rcd13ifvqepg","pricing_plan_id":"cebpf4jnsgd1na2vs0mg"},{"bike_id":"052e8be5-756e-40b8-bf8d-fe2bdca2d830","system_id":"levelo_inurba_marseille","lat":43.21199,"lon":5.35067,"is_reserved":false,"is_disabled":false,"rental_uris":{"android":"levelo://app?vid=052e8be5-756e-40b8-bf8d-fe2bdca2d830","ios":"levelo://app?vid=052e8be5-756e-40b8-bf8d-fe2bdca2d830"},"vehicle_type_id":"4","last_reported":1747052453,"current_range_meters":19600,"station_id":"st_cvj6sg6p6f1abm77japg","pricing_plan_id":"cebpf4jnsgd1na2vs0mg"},{"bike_id":"804143ab-c25a-4e4b-acc5-610b2d47d906","system_id":"levelo_inurba_marseille","lat":43.2408,"lon":5.37748,"is_reserved":false,"is_disabled":false,"rental_uris":{"android":"levelo://app?vid=804143ab-c25a-4e4b-acc5-610b2d47d906","ios":"levelo://app?vid=804143ab-c25a-4e4b-acc5-610b2d47d906"},"vehicle_type_id":"4","last_reported":1747052453,"current_range_meters":19600,"station_id":"ce4bhnp2rcd13ifvqgvg","pricing_plan_id":"cebpf4jnsgd1na2vs0mg"},{"bike_id":"7221d3f4-001d-43df-b2dc-0f97aa038761","system_id":"levelo_inurba_marseille","lat":43.29968,"lon":5.38484,"is_reserved":false,"is_disabled":false,"rental_uris":{"android":"levelo://app?vid=7221d3f4-001d-43df-b2dc-0f97aa038761","ios":"levelo://app?vid=7221d3f4-001d-43df-b2dc-0f97aa038761"},"vehicle_type_id":"4","last_reported":1747052453,"current_range_meters":19600,"station_id":"ce4bgj92rcd13ifvqbd0","pricing_plan_id":"cebpf4jnsgd1na2vs0mg"},{"bike_id":"38b7b9f0-4d03-4b6a-b846-b1a53fc87f21","system_id":"levelo_inurba_marseille","lat":43.26218,"lon":5.40432,"is_reserved":false,"is_disabled":false,"rental_uris":{"android":"levelo://app?vid=38b7b9f0-4d03-4b6a-b846-b1a53fc87f21","ios":"levelo://app?vid=38b7b9f0-4d03-4b6a-b846-b1a53fc87f21"},"vehicle_type_id":"4","last_reported":1747052453,"current_range_meters":19600,"station_id":"ce4bhmh2rcd13ifvqgmg","pricing_plan_id":"cebpf4jnsgd1na2vs0mg"},{"bike_id":"407a2a2e-1eab-424c-ba8c-09750dd96929","system_id":"levelo_inurba_marseille","lat":43.27971,"lon":5.38723,"is_reserved":false,"is_disabled":false,"rental_uris":{"android":"levelo://app?vid=407a2a2e-1eab-424c-ba8c-09750dd96929","ios":"levelo://app?vid=407a2a2e-1eab-424c-ba8c-09750dd96929"},"vehicle_type_id":"4","last_reported":1747052453,"current_range_meters":19600,"station_id":"ce4bhg12rcd13ifvqf80","pricing_plan_id":"cebpf4jnsgd1na2vs0mg"},{"bike_id":"a7c87125-f2ba-48ed-8cf4-e4847d754ac2","system_id":"levelo_inurba_marseille","lat":43.26675,"lon":5.38265,"is_reserved":false,"is_disabled":false,"rental_uris":{"android":"levelo://app?vid=a7c87125-f2ba-48ed-8cf4-e4847d754ac2","ios":"levelo://app?vid=a7c87125-f2ba-48ed-8cf4-e4847d754ac2"},"vehicle_type_id":"4","last_reported":1747052453,"current_range_meters":19200,"station_id":"ce4bhg92rcd13ifvqf90","pricing_plan_id":"cebpf4jnsgd1na2vs0mg"},{"bike_id":"8f898ea4-0b70-46db-b495-a08fd22223a4","system_id":"levelo_inurba_marseille","lat":43.22928,"lon":5.35386,"is_reserved":false,"is_disabled":false,"rental_uris":{"android":"levelo://app?vid=8f898ea4-0b70-46db-b495-a08fd22223a4","ios":"levelo://app?vid=8f898ea4-0b70-46db-b495-a08fd22223a4"},"vehicle_type_id":"4","last_reported":1747052453,"current_range_meters":19600,"station_id":"cpo3532slgdg3j2ikp40","pricing_plan_id":"cebpf4jnsgd1na2vs0mg"},{"bike_id":"1966f97c-cd4e-4fe3-a193-750443ac0f03","system_id":"levelo_inurba_marseille","lat":43.2716,"lon":5.40997,"is_reserved":false,"is_disabled":false,"rental_uris":{"android":"levelo://app?vid=1966f97c-cd4e-4fe3-a193-750443ac0f03","ios":"levelo://app?vid=1966f97c-cd4e-4fe3-a193-750443ac0f03"},"vehicle_type_id":"4","last_reported":1747052453,"current_range_meters":19600,"station_id":"ce4bhl12rcd13ifvqgf0","pricing_plan_id":"cebpf4jnsgd1na2vs0mg"},{"bike_id":"00f08a84-116d-4212-a5f0-1ee9809c15cd","system_id":"levelo_inurba_marseille","lat":43.29895,"lon":5.43665,"is_reserved":false,"is_disabled":false,"rental_uris":{"android":"levelo://app?vid=00f08a84-116d-4212-a5f0-1ee9809c15cd","ios":"levelo://app?vid=00f08a84-116d-4212-a5f0-1ee9809c15cd"},"vehicle_type_id":"4","last_reported":1747052453,"current_range_meters":19600,"station_id":"ce4bhpp2rcd13ifvqhfg","pricing_plan_id":"cebpf4jnsgd1na2vs0mg"},{"bike_id":"2d16ee83-92c0-470d-955e-dd24044eda1d","system_id":"levelo_inurba_marseille","lat":43.29874,"lon":5.389,"is_reserved":false,"is_disabled":true,"rental_uris":{"android":"levelo://app?vid=2d16ee83-92c0-470d-955e-dd24044eda1d","ios":"levelo://app?vid=2d16ee83-92c0-470d-955e-dd24044eda1d"},"vehicle_type_id":"4","last_reported":1747052453,"current_range_meters":20000,"station_id":"ce4bh392rcd13ifvqdl0","pricing_plan_id":"cebpf4jnsgd1na2vs0mg"},{"bike_id":"c2180296-e525-4f7e-aeda-5622275d4cbc","system_id":"levelo_inurba_marseille","lat":43.30539,"lon":5.36531,"is_reserved":false,"is_disabled":false,"rental_uris":{"android":"levelo://app?vid=c2180296-e525-4f7e-aeda-5622275d4cbc","ios":"levelo://app?vid=c2180296-e525-4f7e-aeda-5622275d4cbc"},"vehicle_type_id":"4","last_reported":1747052453,"current_range_meters":20000,"station_id":"ce4bgs12rcd13ifvqcag","pricing_plan_id":"cebpf4jnsgd1na2vs0mg"},{"bike_id":"1fbfeab7-ed60-416f-88a4-18669a345349","system_id":"levelo_inurba_marseille","lat":43.29304,"lon":5.37176,"is_reserved":false,"is_disabled":false,"rental_uris":{"android":"levelo://app?vid=1fbfeab7-ed60-416f-88a4-18669a345349","ios":"levelo://app?vid=1fbfeab7-ed60-416f-88a4-18669a345349"},"vehicle_type_id":"4","last_reported":1747052453,"current_range_meters":19600,"station_id":"ce4bgh92rcd13ifvqb40","pricing_plan_id":"cebpf4jnsgd1na2vs0mg"},{"bike_id":"cc25aae6-3197-44f8-8471-8a0efb35cc4f","system_id":"levelo_inurba_marseille","lat":43.30625,"lon":5.36559,"is_reserved":false,"is_disabled":false,"rental_uris":{"android":"levelo://app?vid=cc25aae6-3197-44f8-8471-8a0efb35cc4f","ios":"levelo://app?vid=cc25aae6-3197-44f8-8471-8a0efb35cc4f"},"vehicle_type_id":"4","last_reported":1747052453,"current_range_meters":20000,"station_id":"","pricing_plan_id":"cebpf4jnsgd1na2vs0mg"},{"bike_id":"c84cc980-38fe-4761-924e-99f94b7ce9c7","system_id":"levelo_inurba_marseille","lat":43.337444,"lon":5.374475,"is_reserved":false,"is_disabled":true,"rental_uris":{"android":"levelo://app?vid=c84cc980-38fe-4761-924e-99f94b7ce9c7","ios":"levelo://app?vid=c84cc980-38fe-4761-924e-99f94b7ce9c7"},"vehicle_type_id":"4","last_reported":1747052453,"current_range_meters":20000,"station_id":"","pricing_plan_id":"cebpf4jnsgd1na2vs0mg"},{"bike_id":"67220d98-479b-47d6-8c1b-05373ad11d44","system_id":"levelo_inurba_marseille","lat":43.304459,"lon":5.378764,"is_reserved":false,"is_disabled":false,"rental_uris":{"android":"levelo://app?vid=67220d98-479b-47d6-8c1b-05373ad11d44","ios":"levelo://app?vid=67220d98-479b-47d6-8c1b-05373ad11d44"},"vehicle_type_id":"4","last_reported":1747052453,"current_range_meters":20000,"station_id":"ce4bgup2rcd13ifvqcn0","pricing_plan_id":"cebpf4jnsgd1na2vs0mg"},{"bike_id":"8ef831d4-0dbc-4f70-892d-eef0645518c0","system_id":"levelo_inurba_marseille","lat":43.2842,"lon":5.34985,"is_reserved":false,"is_disabled":false,"rental_uris":{"android":"levelo://app?vid=8ef831d4-0dbc-4f70-892d-eef0645518c0","ios":"levelo://app?vid=8ef831d4-0dbc-4f70-892d-eef0645518c0"},"vehicle_type_id":"4","last_reported":1747052453,"current_range_meters":20400,"station_id":"ce4bhbh2rcd13ifvqepg","pricing_plan_id":"cebpf4jnsgd1na2vs0mg"},{"bike_id":"6751c3af-2785-42de-bc81-f466abd046af","system_id":"levelo_inurba_marseille","lat":43.28418,"lon":5.34982,"is_reserved":false,"is_disabled":false,"rental_uris":{"android":"levelo://app?vid=6751c3af-2785-42de-bc81-f466abd046af","ios":"levelo://app?vid=6751c3af-2785-42de-bc81-f466abd046af"},"vehicle_type_id":"4","last_reported":1747052453,"current_range_meters":20400,"station_id":"ce4bhbh2rcd13ifvqepg","pricing_plan_id":"cebpf4jnsgd1na2vs0mg"},{"bike_id":"ea0500c3-9cb3-42b0-964c-55269b8fab2c","system_id":"levelo_inurba_marseille","lat":43.29046,"lon":5.39951,"is_reserved":false,"is_disabled":false,"rental_uris":{"android":"levelo://app?vid=ea0500c3-9cb3-42b0-964c-55269b8fab2c","ios":"levelo://app?vid=ea0500c3-9cb3-42b0-964c-55269b8fab2c"},"vehicle_type_id":"4","last_reported":1747052453,"current_range_meters":20400,"station_id":"","pricing_plan_id":"cebpf4jnsgd1na2vs0mg"},{"bike_id":"c07e8e6a-8702-49b6-970c-c52975961a97","system_id":"levelo_inurba_marseille","lat":43.23962,"lon":5.36629,"is_reserved":false,"is_disabled":false,"rental_uris":{"android":"levelo://app?vid=c07e8e6a-8702-49b6-970c-c52975961a97","ios":"levelo://app?vid=c07e8e6a-8702-49b6-970c-c52975961a97"},"vehicle_type_id":"4","last_reported":1747052453,"current_range_meters":20400,"station_id":"ce4bhi12rcd13ifvqfp0","pricing_plan_id":"cebpf4jnsgd1na2vs0mg"},{"bike_id":"af1caa0e-9676-441e-8441-63b6c099f60b","system_id":"levelo_inurba_marseille","lat":43.29636,"lon":5.40594,"is_reserved":false,"is_disabled":false,"rental_uris":{"android":"levelo://app?vid=af1caa0e-9676-441e-8441-63b6c099f60b","ios":"levelo://app?vid=af1caa0e-9676-441e-8441-63b6c099f60b"},"vehicle_type_id":"4","last_reported":1747052453,"current_range_meters":20000,"station_id":"ce4bh0h2rcd13ifvqd60","pricing_plan_id":"cebpf4jnsgd1na2vs0mg"},{"bike_id":"cf8013f6-815e-46df-80ce-abfc250bfc49","system_id":"levelo_inurba_marseille","lat":43.23057,"lon":5.35493,"is_reserved":false,"is_disabled":false,"rental_uris":{"android":"levelo://app?vid=cf8013f6-815e-46df-80ce-abfc250bfc49","ios":"levelo://app?vid=cf8013f6-815e-46df-80ce-abfc250bfc49"},"vehicle_type_id":"4","last_reported":1747052453,"current_range_meters":20400,"station_id":"cpo3342slgdg3j2ifvpg","pricing_plan_id":"cebpf4jnsgd1na2vs0mg"},{"bike_id":"524afad1-1b84-4e36-b5c2-b5628eeb9711","system_id":"levelo_inurba_marseille","lat":43.23152,"lon":5.43703,"is_reserved":false,"is_disabled":false,"rental_uris":{"android":"levelo://app?vid=524afad1-1b84-4e36-b5c2-b5628eeb9711","ios":"levelo://app?vid=524afad1-1b84-4e36-b5c2-b5628eeb9711"},"vehicle_type_id":"4","last_reported":1747052453,"current_range_meters":20800,"station_id":"ce4bhmp2rcd13ifvqgog","pricing_plan_id":"cebpf4jnsgd1na2vs0mg"},{"bike_id":"94aecf60-80e2-4740-9194-acfe27b5c88e","system_id":"levelo_inurba_marseille","lat":43.286148,"lon":5.35101,"is_reserved":false,"is_disabled":false,"rental_uris":{"android":"levelo://app?vid=94aecf60-80e2-4740-9194-acfe27b5c88e","ios":"levelo://app?vid=94aecf60-80e2-4740-9194-acfe27b5c88e"},"vehicle_type_id":"4","last_reported":1747052453,"current_range_meters":20800,"station_id":"ce4bhch2rcd13ifvqeug","pricing_plan_id":"cebpf4jnsgd1na2vs0mg"},{"bike_id":"efc88c3c-910a-4ce7-84b2-480af6d11f71","system_id":"levelo_inurba_marseille","lat":43.28283,"lon":5.35076,"is_reserved":false,"is_disabled":false,"rental_uris":{"android":"levelo://app?vid=efc88c3c-910a-4ce7-84b2-480af6d11f71","ios":"levelo://app?vid=efc88c3c-910a-4ce7-84b2-480af6d11f71"},"vehicle_type_id":"4","last_reported":1747052453,"current_range_meters":20800,"station_id":"ce4bhbp2rcd13ifvqerg","pricing_plan_id":"cebpf4jnsgd1na2vs0mg"},{"bike_id":"660028db-ff82-4ced-988d-f8b0dfe5a76e","system_id":"levelo_inurba_marseille","lat":43.32332,"lon":5.4062,"is_reserved":false,"is_disabled":false,"rental_uris":{"android":"levelo://app?vid=660028db-ff82-4ced-988d-f8b0dfe5a76e","ios":"levelo://app?vid=660028db-ff82-4ced-988d-f8b0dfe5a76e"},"vehicle_type_id":"4","last_reported":1747052453,"current_range_meters":20800,"station_id":"ce4bhq92rcd13ifvqhjg","pricing_plan_id":"cebpf4jnsgd1na2vs0mg"},{"bike_id":"ad68c0d8-abda-4af0-9dbe-ce8d740f6f67","system_id":"levelo_inurba_marseille","lat":43.30475,"lon":5.37913,"is_reserved":false,"is_disabled":false,"rental_uris":{"android":"levelo://app?vid=ad68c0d8-abda-4af0-9dbe-ce8d740f6f67","ios":"levelo://app?vid=ad68c0d8-abda-4af0-9dbe-ce8d740f6f67"},"vehicle_type_id":"4","last_reported":1747052453,"current_range_meters":20800,"station_id":"ce4bgup2rcd13ifvqcn0","pricing_plan_id":"cebpf4jnsgd1na2vs0mg"},{"bike_id":"8c52f89b-cf87-47bc-8f7d-3247392a5c7d","system_id":"levelo_inurba_marseille","lat":43.23154,"lon":5.437,"is_reserved":false,"is_disabled":false,"rental_uris":{"android":"levelo://app?vid=8c52f89b-cf87-47bc-8f7d-3247392a5c7d","ios":"levelo://app?vid=8c52f89b-cf87-47bc-8f7d-3247392a5c7d"},"vehicle_type_id":"4","last_reported":1747052453,"current_range_meters":20400,"station_id":"ce4bhmp2rcd13ifvqgog","pricing_plan_id":"cebpf4jnsgd1na2vs0mg"},{"bike_id":"289c3504-3310-4a84-ade7-8aa92b52f054","system_id":"levelo_inurba_marseille","lat":43.2175,"lon":5.346,"is_reserved":false,"is_disabled":false,"rental_uris":{"android":"levelo://app?vid=289c3504-3310-4a84-ade7-8aa92b52f054","ios":"levelo://app?vid=289c3504-3310-4a84-ade7-8aa92b52f054"},"vehicle_type_id":"4","last_reported":1747052453,"current_range_meters":21600,"station_id":"st_cvj6r9ubvosntc0bgbag","pricing_plan_id":"cebpf4jnsgd1na2vs0mg"},{"bike_id":"82171c0d-e74b-441d-9785-ea5f1f55c2b9","system_id":"levelo_inurba_marseille","lat":43.28417,"lon":5.34992,"is_reserved":false,"is_disabled":false,"rental_uris":{"android":"levelo://app?vid=82171c0d-e74b-441d-9785-ea5f1f55c2b9","ios":"levelo://app?vid=82171c0d-e74b-441d-9785-ea5f1f55c2b9"},"vehicle_type_id":"4","last_reported":1747052453,"current_range_meters":20800,"station_id":"ce4bhbh2rcd13ifvqepg","pricing_plan_id":"cebpf4jnsgd1na2vs0mg"},{"bike_id":"38dc3881-777a-4246-bfb3-8469ef8abf21","system_id":"levelo_inurba_marseille","lat":43.26788,"lon":5.39409,"is_reserved":false,"is_disabled":false,"rental_uris":{"android":"levelo://app?vid=38dc3881-777a-4246-bfb3-8469ef8abf21","ios":"levelo://app?vid=38dc3881-777a-4246-bfb3-8469ef8abf21"},"vehicle_type_id":"4","last_reported":1747052453,"current_range_meters":20800,"station_id":"ce4bhh12rcd13ifvqfg0","pricing_plan_id":"cebpf4jnsgd1na2vs0mg"},{"bike_id":"ee9711bb-60b9-45e3-abe3-db1afee53a9f","system_id":"levelo_inurba_marseille","lat":43.2175,"lon":5.34597,"is_reserved":false,"is_disabled":false,"rental_uris":{"android":"levelo://app?vid=ee9711bb-60b9-45e3-abe3-db1afee53a9f","ios":"levelo://app?vid=ee9711bb-60b9-45e3-abe3-db1afee53a9f"},"vehicle_type_id":"4","last_reported":1747052453,"current_range_meters":21600,"station_id":"st_cvj6r9ubvosntc0bgbag","pricing_plan_id":"cebpf4jnsgd1na2vs0mg"},{"bike_id":"8ebfc9fd-3397-4ff1-9828-dd09681391c1","system_id":"levelo_inurba_marseille","lat":43.29047,"lon":5.35594,"is_reserved":false,"is_disabled":false,"rental_uris":{"android":"levelo://app?vid=8ebfc9fd-3397-4ff1-9828-dd09681391c1","ios":"levelo://app?vid=8ebfc9fd-3397-4ff1-9828-dd09681391c1"},"vehicle_type_id":"4","last_reported":1747052453,"current_range_meters":21600,"station_id":"ce4bhb92rcd13ifvqen0","pricing_plan_id":"cebpf4jnsgd1na2vs0mg"},{"bike_id":"49c96fcf-2465-4fdc-bf30-4c24a3d614d2","system_id":"levelo_inurba_marseille","lat":43.25595,"lon":5.38218,"is_reserved":false,"is_disabled":false,"rental_uris":{"android":"levelo://app?vid=49c96fcf-2465-4fdc-bf30-4c24a3d614d2","ios":"levelo://app?vid=49c96fcf-2465-4fdc-bf30-4c24a3d614d2"},"vehicle_type_id":"4","last_reported":1747052453,"current_range_meters":21600,"station_id":"ce4bhih2rcd13ifvqfs0","pricing_plan_id":"cebpf4jnsgd1na2vs0mg"},{"bike_id":"b0c6681a-ba98-4a69-afcf-4fc535f3ea51","system_id":"levelo_inurba_marseille","lat":43.23182,"lon":5.39977,"is_reserved":false,"is_disabled":false,"rental_uris":{"android":"levelo://app?vid=b0c6681a-ba98-4a69-afcf-4fc535f3ea51","ios":"levelo://app?vid=b0c6681a-ba98-4a69-afcf-4fc535f3ea51"},"vehicle_type_id":"4","last_reported":1747052453,"current_range_meters":22000,"station_id":"ce4bhn12rcd13ifvqgqg","pricing_plan_id":"cebpf4jnsgd1na2vs0mg"},{"bike_id":"47da3624-36f9-4143-ae1b-58e0b04fdda6","system_id":"levelo_inurba_marseille","lat":43.30271,"lon":5.37712,"is_reserved":false,"is_disabled":false,"rental_uris":{"android":"levelo://app?vid=47da3624-36f9-4143-ae1b-58e0b04fdda6","ios":"levelo://app?vid=47da3624-36f9-4143-ae1b-58e0b04fdda6"},"vehicle_type_id":"4","last_reported":1747052453,"current_range_meters":22000,"station_id":"ce4bguh2rcd13ifvqcj0","pricing_plan_id":"cebpf4jnsgd1na2vs0mg"},{"bike_id":"c26e5c71-a313-402b-a544-f96c31172a94","system_id":"levelo_inurba_marseille","lat":43.27173,"lon":5.40991,"is_reserved":false,"is_disabled":false,"rental_uris":{"android":"levelo://app?vid=c26e5c71-a313-402b-a544-f96c31172a94","ios":"levelo://app?vid=c26e5c71-a313-402b-a544-f96c31172a94"},"vehicle_type_id":"4","last_reported":1747052453,"current_range_meters":22400,"station_id":"ce4bhl12rcd13ifvqgf0","pricing_plan_id":"cebpf4jnsgd1na2vs0mg"},{"bike_id":"72acaacc-f04e-4387-b1e5-98e1713cb05c","system_id":"levelo_inurba_marseille","lat":43.28371,"lon":5.38644,"is_reserved":false,"is_disabled":true,"rental_uris":{"android":"levelo://app?vid=72acaacc-f04e-4387-b1e5-98e1713cb05c","ios":"levelo://app?vid=72acaacc-f04e-4387-b1e5-98e1713cb05c"},"vehicle_type_id":"4","last_reported":1747052453,"current_range_meters":22400,"station_id":"ce4bh492rcd13ifvqdvg","pricing_plan_id":"cebpf4jnsgd1na2vs0mg"},{"bike_id":"50bfafaa-d718-4e3d-b4a4-4b5c3b3cc9b5","system_id":"levelo_inurba_marseille","lat":43.28418,"lon":5.34973,"is_reserved":false,"is_disabled":false,"rental_uris":{"android":"levelo://app?vid=50bfafaa-d718-4e3d-b4a4-4b5c3b3cc9b5","ios":"levelo://app?vid=50bfafaa-d718-4e3d-b4a4-4b5c3b3cc9b5"},"vehicle_type_id":"4","last_reported":1747052453,"current_range_meters":22400,"station_id":"ce4bhbh2rcd13ifvqepg","pricing_plan_id":"cebpf4jnsgd1na2vs0mg"},{"bike_id":"e37fd84b-508b-49d0-af91-1586bbfabc65","system_id":"levelo_inurba_marseille","lat":43.31163,"lon":5.38725,"is_reserved":false,"is_disabled":false,"rental_uris":{"android":"levelo://app?vid=e37fd84b-508b-49d0-af91-1586bbfabc65","ios":"levelo://app?vid=e37fd84b-508b-49d0-af91-1586bbfabc65"},"vehicle_type_id":"4","last_reported":1747052453,"current_range_meters":22000,"station_id":"ce4bgv12rcd13ifvqcp0","pricing_plan_id":"cebpf4jnsgd1na2vs0mg"},{"bike_id":"58b8021a-05cc-4dc0-bd7e-874b0720ac96","system_id":"levelo_inurba_marseille","lat":43.2621,"lon":5.37435,"is_reserved":false,"is_disabled":false,"rental_uris":{"android":"levelo://app?vid=58b8021a-05cc-4dc0-bd7e-874b0720ac96","ios":"levelo://app?vid=58b8021a-05cc-4dc0-bd7e-874b0720ac96"},"vehicle_type_id":"4","last_reported":1747052453,"current_range_meters":22400,"station_id":"ce4bhgp2rcd13ifvqfc0","pricing_plan_id":"cebpf4jnsgd1na2vs0mg"},{"bike_id":"5728e68c-f162-4e22-b613-26d103e45857","system_id":"levelo_inurba_marseille","lat":43.2595,"lon":5.40892,"is_reserved":false,"is_disabled":false,"rental_uris":{"android":"levelo://app?vid=5728e68c-f162-4e22-b613-26d103e45857","ios":"levelo://app?vid=5728e68c-f162-4e22-b613-26d103e45857"},"vehicle_type_id":"4","last_reported":1747052453,"current_range_meters":22400,"station_id":"ce4bhm92rcd13ifvqglg","pricing_plan_id":"cebpf4jnsgd1na2vs0mg"},{"bike_id":"adeba8cc-6bd7-4e71-99e3-d06b2deb06a6","system_id":"levelo_inurba_marseille","lat":43.24388,"lon":5.37063,"is_reserved":false,"is_disabled":false,"rental_uris":{"android":"levelo://app?vid=adeba8cc-6bd7-4e71-99e3-d06b2deb06a6","ios":"levelo://app?vid=adeba8cc-6bd7-4e71-99e3-d06b2deb06a6"},"vehicle_type_id":"4","last_reported":1747052453,"current_range_meters":22400,"station_id":"ce4bhhh2rcd13ifvqfk0","pricing_plan_id":"cebpf4jnsgd1na2vs0mg"},{"bike_id":"2f60f94e-49b4-43ee-955e-c2ddd5c0c72f","system_id":"levelo_inurba_marseille","lat":43.27913,"lon":5.39577,"is_reserved":false,"is_disabled":false,"rental_uris":{"android":"levelo://app?vid=2f60f94e-49b4-43ee-955e-c2ddd5c0c72f","ios":"levelo://app?vid=2f60f94e-49b4-43ee-955e-c2ddd5c0c72f"},"vehicle_type_id":"4","last_reported":1747052453,"current_range_meters":22400,"station_id":"ce4bhf92rcd13ifvqf40","pricing_plan_id":"cebpf4jnsgd1na2vs0mg"},{"bike_id":"7836b4bc-7d58-466b-be3c-0a70e9c2ba81","system_id":"levelo_inurba_marseille","lat":43.30551,"lon":5.36535,"is_reserved":false,"is_disabled":false,"rental_uris":{"android":"levelo://app?vid=7836b4bc-7d58-466b-be3c-0a70e9c2ba81","ios":"levelo://app?vid=7836b4bc-7d58-466b-be3c-0a70e9c2ba81"},"vehicle_type_id":"4","last_reported":1747052453,"current_range_meters":22400,"station_id":"ce4bgs12rcd13ifvqcag","pricing_plan_id":"cebpf4jnsgd1na2vs0mg"},{"bike_id":"6d28a03c-23ea-46d2-8a7b-66386ffa83d9","system_id":"levelo_inurba_marseille","lat":43.33284,"lon":5.37853,"is_reserved":false,"is_disabled":false,"rental_uris":{"android":"levelo://app?vid=6d28a03c-23ea-46d2-8a7b-66386ffa83d9","ios":"levelo://app?vid=6d28a03c-23ea-46d2-8a7b-66386ffa83d9"},"vehicle_type_id":"4","last_reported":1747052453,"current_range_meters":22800,"station_id":"","pricing_plan_id":"cebpf4jnsgd1na2vs0mg"},{"bike_id":"7e3a6596-b53d-46e7-bad3-1e244cc85f4f","system_id":"levelo_inurba_marseille","lat":43.28615,"lon":5.35105,"is_reserved":false,"is_disabled":false,"rental_uris":{"android":"levelo://app?vid=7e3a6596-b53d-46e7-bad3-1e244cc85f4f","ios":"levelo://app?vid=7e3a6596-b53d-46e7-bad3-1e244cc85f4f"},"vehicle_type_id":"4","last_reported":1747052453,"current_range_meters":22800,"station_id":"ce4bhch2rcd13ifvqeug","pricing_plan_id":"cebpf4jnsgd1na2vs0mg"},{"bike_id":"8aeed7e3-49de-4929-ac9c-a3a1054a361a","system_id":"levelo_inurba_marseille","lat":43.29326,"lon":5.37657,"is_reserved":false,"is_disabled":false,"rental_uris":{"android":"levelo://app?vid=8aeed7e3-49de-4929-ac9c-a3a1054a361a","ios":"levelo://app?vid=8aeed7e3-49de-4929-ac9c-a3a1054a361a"},"vehicle_type_id":"4","last_reported":1747052453,"current_range_meters":22800,"station_id":"","pricing_plan_id":"cebpf4jnsgd1na2vs0mg"},{"bike_id":"54db4df2-d7a7-40c2-b741-2e8da57a89ea","system_id":"levelo_inurba_marseille","lat":43.313657,"lon":5.366953,"is_reserved":false,"is_disabled":false,"rental_uris":{"android":"levelo://app?vid=54db4df2-d7a7-40c2-b741-2e8da57a89ea","ios":"levelo://app?vid=54db4df2-d7a7-40c2-b741-2e8da57a89ea"},"vehicle_type_id":"4","last_reported":1747052453,"current_range_meters":22800,"station_id":"ce4bgr92rcd13ifvqc6g","pricing_plan_id":"cebpf4jnsgd1na2vs0mg"},{"bike_id":"c72ed33f-6eae-4500-8ecd-f8a83947488d","system_id":"levelo_inurba_marseille","lat":43.288526,"lon":5.393042,"is_reserved":false,"is_disabled":false,"rental_uris":{"android":"levelo://app?vid=c72ed33f-6eae-4500-8ecd-f8a83947488d","ios":"levelo://app?vid=c72ed33f-6eae-4500-8ecd-f8a83947488d"},"vehicle_type_id":"4","last_reported":1747052453,"current_range_meters":22800,"station_id":"ce4bh2p2rcd13ifvqdi0","pricing_plan_id":"cebpf4jnsgd1na2vs0mg"},{"bike_id":"1095b252-790e-4155-ab4e-86136a24d6fc","system_id":"levelo_inurba_marseille","lat":43.28427,"lon":5.34987,"is_reserved":false,"is_disabled":false,"rental_uris":{"android":"levelo://app?vid=1095b252-790e-4155-ab4e-86136a24d6fc","ios":"levelo://app?vid=1095b252-790e-4155-ab4e-86136a24d6fc"},"vehicle_type_id":"4","last_reported":1747052453,"current_range_meters":22800,"station_id":"ce4bhbh2rcd13ifvqepg","pricing_plan_id":"cebpf4jnsgd1na2vs0mg"},{"bike_id":"1cd6b3e6-7ebe-4422-8ecf-d070b7bc02f1","system_id":"levelo_inurba_marseille","lat":43.28704,"lon":5.39989,"is_reserved":false,"is_disabled":false,"rental_uris":{"android":"levelo://app?vid=1cd6b3e6-7ebe-4422-8ecf-d070b7bc02f1","ios":"levelo://app?vid=1cd6b3e6-7ebe-4422-8ecf-d070b7bc02f1"},"vehicle_type_id":"4","last_reported":1747052453,"current_range_meters":22800,"station_id":"ce4bho92rcd13ifvqh3g","pricing_plan_id":"cebpf4jnsgd1na2vs0mg"},{"bike_id":"dc641743-b968-4496-812a-3b41120ce533","system_id":"levelo_inurba_marseille","lat":43.28418,"lon":5.3498,"is_reserved":false,"is_disabled":false,"rental_uris":{"android":"levelo://app?vid=dc641743-b968-4496-812a-3b41120ce533","ios":"levelo://app?vid=dc641743-b968-4496-812a-3b41120ce533"},"vehicle_type_id":"4","last_reported":1747052453,"current_range_meters":23200,"station_id":"ce4bhbh2rcd13ifvqepg","pricing_plan_id":"cebpf4jnsgd1na2vs0mg"},{"bike_id":"3dd93b2f-5724-42e8-be9e-b3fd0b46f790","system_id":"levelo_inurba_marseille","lat":43.29758,"lon":5.37113,"is_reserved":false,"is_disabled":false,"rental_uris":{"android":"levelo://app?vid=3dd93b2f-5724-42e8-be9e-b3fd0b46f790","ios":"levelo://app?vid=3dd93b2f-5724-42e8-be9e-b3fd0b46f790"},"vehicle_type_id":"4","last_reported":1747052453,"current_range_meters":22800,"station_id":"ce4bgop2rcd13ifvqc1g","pricing_plan_id":"cebpf4jnsgd1na2vs0mg"},{"bike_id":"ded21d3b-017a-431c-a119-0da980f4a122","system_id":"levelo_inurba_marseille","lat":43.28416,"lon":5.34986,"is_reserved":false,"is_disabled":false,"rental_uris":{"android":"levelo://app?vid=ded21d3b-017a-431c-a119-0da980f4a122","ios":"levelo://app?vid=ded21d3b-017a-431c-a119-0da980f4a122"},"vehicle_type_id":"4","last_reported":1747052453,"current_range_meters":23200,"station_id":"ce4bhbh2rcd13ifvqepg","pricing_plan_id":"cebpf4jnsgd1na2vs0mg"},{"bike_id":"3751aa57-b08e-47dd-8971-93bf80d24bc3","system_id":"levelo_inurba_marseille","lat":43.24077,"lon":5.37758,"is_reserved":false,"is_disabled":false,"rental_uris":{"android":"levelo://app?vid=3751aa57-b08e-47dd-8971-93bf80d24bc3","ios":"levelo://app?vid=3751aa57-b08e-47dd-8971-93bf80d24bc3"},"vehicle_type_id":"4","last_reported":1747052453,"current_range_meters":23200,"station_id":"ce4bhnp2rcd13ifvqgvg","pricing_plan_id":"cebpf4jnsgd1na2vs0mg"},{"bike_id":"581a76c6-406f-436c-80cf-424046378536","system_id":"levelo_inurba_marseille","lat":43.23133,"lon":5.43708,"is_reserved":false,"is_disabled":false,"rental_uris":{"android":"levelo://app?vid=581a76c6-406f-436c-80cf-424046378536","ios":"levelo://app?vid=581a76c6-406f-436c-80cf-424046378536"},"vehicle_type_id":"4","last_reported":1747052453,"current_range_meters":23200,"station_id":"ce4bhmp2rcd13ifvqgog","pricing_plan_id":"cebpf4jnsgd1na2vs0mg"},{"bike_id":"51c1ed45-53a3-4817-be8d-13841f4f642b","system_id":"levelo_inurba_marseille","lat":43.30303,"lon":5.36877,"is_reserved":false,"is_disabled":false,"rental_uris":{"android":"levelo://app?vid=51c1ed45-53a3-4817-be8d-13841f4f642b","ios":"levelo://app?vid=51c1ed45-53a3-4817-be8d-13841f4f642b"},"vehicle_type_id":"4","last_reported":1747052453,"current_range_meters":23200,"station_id":"ce4bgqh2rcd13ifvqc5g","pricing_plan_id":"cebpf4jnsgd1na2vs0mg"},{"bike_id":"fd388c54-4eb4-4f54-ace2-004153200feb","system_id":"levelo_inurba_marseille","lat":43.29317,"lon":5.37194,"is_reserved":false,"is_disabled":true,"rental_uris":{"android":"levelo://app?vid=fd388c54-4eb4-4f54-ace2-004153200feb","ios":"levelo://app?vid=fd388c54-4eb4-4f54-ace2-004153200feb"},"vehicle_type_id":"4","last_reported":1747052453,"current_range_meters":23200,"station_id":"ce4bgh92rcd13ifvqb40","pricing_plan_id":"cebpf4jnsgd1na2vs0mg"},{"bike_id":"f7b28b14-5137-4023-b1b7-b7e5bb33d722","system_id":"levelo_inurba_marseille","lat":43.2594,"lon":5.40897,"is_reserved":false,"is_disabled":false,"rental_uris":{"android":"levelo://app?vid=f7b28b14-5137-4023-b1b7-b7e5bb33d722","ios":"levelo://app?vid=f7b28b14-5137-4023-b1b7-b7e5bb33d722"},"vehicle_type_id":"4","last_reported":1747052453,"current_range_meters":24000,"station_id":"ce4bhm92rcd13ifvqglg","pricing_plan_id":"cebpf4jnsgd1na2vs0mg"},{"bike_id":"04d66d1c-9824-4ef1-977b-71ea48fa7c25","system_id":"levelo_inurba_marseille","lat":43.29244,"lon":5.36489,"is_reserved":false,"is_disabled":false,"rental_uris":{"android":"levelo://app?vid=04d66d1c-9824-4ef1-977b-71ea48fa7c25","ios":"levelo://app?vid=04d66d1c-9824-4ef1-977b-71ea48fa7c25"},"vehicle_type_id":"4","last_reported":1747052453,"current_range_meters":24000,"station_id":"","pricing_plan_id":"cebpf4jnsgd1na2vs0mg"},{"bike_id":"0dbe54a4-d811-4e09-92be-2e7507924fd5","system_id":"levelo_inurba_marseille","lat":43.30907,"lon":5.36841,"is_reserved":false,"is_disabled":false,"rental_uris":{"android":"levelo://app?vid=0dbe54a4-d811-4e09-92be-2e7507924fd5","ios":"levelo://app?vid=0dbe54a4-d811-4e09-92be-2e7507924fd5"},"vehicle_type_id":"4","last_reported":1747052453,"current_range_meters":24000,"station_id":"ce4bgn92rcd13ifvqbvg","pricing_plan_id":"cebpf4jnsgd1na2vs0mg"},{"bike_id":"6df347ed-c861-48a7-8de9-6c66c37b6bb4","system_id":"levelo_inurba_marseille","lat":43.32105,"lon":5.36765,"is_reserved":false,"is_disabled":false,"rental_uris":{"android":"levelo://app?vid=6df347ed-c861-48a7-8de9-6c66c37b6bb4","ios":"levelo://app?vid=6df347ed-c861-48a7-8de9-6c66c37b6bb4"},"vehicle_type_id":"4","last_reported":1747052453,"current_range_meters":24000,"station_id":"ce4bhrh2rcd13ifvqhug","pricing_plan_id":"cebpf4jnsgd1na2vs0mg"},{"bike_id":"77bc90f1-18e0-4687-a129-cb6ec701c56e","system_id":"levelo_inurba_marseille","lat":43.27314,"lon":5.39091,"is_reserved":false,"is_disabled":false,"rental_uris":{"android":"levelo://app?vid=77bc90f1-18e0-4687-a129-cb6ec701c56e","ios":"levelo://app?vid=77bc90f1-18e0-4687-a129-cb6ec701c56e"},"vehicle_type_id":"4","last_reported":1747052453,"current_range_meters":23200,"station_id":"ce4bhgp2rcd13ifvqfe0","pricing_plan_id":"cebpf4jnsgd1na2vs0mg"},{"bike_id":"ad7d839c-ef4f-45da-9ae1-7d383423d442","system_id":"levelo_inurba_marseille","lat":43.2306,"lon":5.3549,"is_reserved":false,"is_disabled":false,"rental_uris":{"android":"levelo://app?vid=ad7d839c-ef4f-45da-9ae1-7d383423d442","ios":"levelo://app?vid=ad7d839c-ef4f-45da-9ae1-7d383423d442"},"vehicle_type_id":"4","last_reported":1747052453,"current_range_meters":24000,"station_id":"cpo3342slgdg3j2ifvpg","pricing_plan_id":"cebpf4jnsgd1na2vs0mg"},{"bike_id":"e36a08e4-75a7-43ac-9a82-c86201386a4a","system_id":"levelo_inurba_marseille","lat":43.32045,"lon":5.4154,"is_reserved":false,"is_disabled":false,"rental_uris":{"android":"levelo://app?vid=e36a08e4-75a7-43ac-9a82-c86201386a4a","ios":"levelo://app?vid=e36a08e4-75a7-43ac-9a82-c86201386a4a"},"vehicle_type_id":"4","last_reported":1747052453,"current_range_meters":24000,"station_id":"ce4bhq92rcd13ifvqhkg","pricing_plan_id":"cebpf4jnsgd1na2vs0mg"},{"bike_id":"cdbebb20-3b1b-4a9d-aa13-5efdf86231ec","system_id":"levelo_inurba_marseille","lat":43.2407,"lon":5.3776,"is_reserved":false,"is_disabled":false,"rental_uris":{"android":"levelo://app?vid=cdbebb20-3b1b-4a9d-aa13-5efdf86231ec","ios":"levelo://app?vid=cdbebb20-3b1b-4a9d-aa13-5efdf86231ec"},"vehicle_type_id":"4","last_reported":1747052453,"current_range_meters":24400,"station_id":"ce4bhnp2rcd13ifvqgvg","pricing_plan_id":"cebpf4jnsgd1na2vs0mg"},{"bike_id":"51fc3c2b-34f5-4676-b7ce-c2a3624e6b80","system_id":"levelo_inurba_marseille","lat":43.32544,"lon":5.41449,"is_reserved":false,"is_disabled":false,"rental_uris":{"android":"levelo://app?vid=51fc3c2b-34f5-4676-b7ce-c2a3624e6b80","ios":"levelo://app?vid=51fc3c2b-34f5-4676-b7ce-c2a3624e6b80"},"vehicle_type_id":"4","last_reported":1747052453,"current_range_meters":24400,"station_id":"ce4bhq12rcd13ifvqhhg","pricing_plan_id":"cebpf4jnsgd1na2vs0mg"},{"bike_id":"711c3665-551b-4176-9dc3-d824e9806ffd","system_id":"levelo_inurba_marseille","lat":43.31595,"lon":5.38394,"is_reserved":false,"is_disabled":false,"rental_uris":{"android":"levelo://app?vid=711c3665-551b-4176-9dc3-d824e9806ffd","ios":"levelo://app?vid=711c3665-551b-4176-9dc3-d824e9806ffd"},"vehicle_type_id":"4","last_reported":1747052453,"current_range_meters":24400,"station_id":"","pricing_plan_id":"cebpf4jnsgd1na2vs0mg"},