{"last_updated":1743865684,"ttl":60,"version":"2.2","data":{"bikes":[{"bike_id":"549d1400-ea23-457b-9967-c01d9beda72d","system_id":"levelo_inurba_marseille","lat":43.30929,"lon":5.40148,"is_reserved":false,"is_disabled":false,"rental_uris":{"android":"levelo://app?vid=549d1400-ea23-457b-9967-c01d9beda72d","ios":"levelo://app?vid=549d1400-ea23-457b-9967-c01d9beda72d"},"vehicle_type_id":"4","last_reported":1743865684,"current_range_meters":2000,"station_id":"ce4bgvp2rcd13ifvqct0","pricing_plan_id":"cebpf4jnsgd1na2vs0mg"},{"bike_id":"b0e9b0cb-2612-4797-bfbd-af468a40f785","system_id":"levelo_inurba_marseille","lat":43.31331,"lon":5.39691,"is_reserved":false,"is_disabled":false,"rental_uris":{"android":"levelo://app?vid=b0e9b0cb-2612-4797-bfbd-af468a40f785","ios":"levelo://app?vid=b0e9b0cb-2612-4797-bfbd-af468a40f785"},"vehicle_type_id":"4","last_reported":1743865684,"current_range_meters":2800,"station_id":"ce4bgvp2rcd13ifvqcu0","pricing_plan_id":"cebpf4jnsgd1na2vs0mg"},{"bike_id":"bd1485fb-af35-4bfa-91cc-88324827d600","system_id":"levelo_inurba_marseille","lat":43.28723,"lon":5.37941,"is_reserved":false,"is_disabled":false,"rental_uris":{"android":"levelo://app?vid=bd1485fb-af35-4bfa-91cc-88324827d600","ios":"levelo://app?vid=bd1485fb-af35-4bfa-91cc-88324827d600"},"vehicle_type_id":"4","last_reported":1743865684,"current_range_meters":2800,"station_id":"ce4bh9p2rcd13ifvqec0","pricing_plan_id":"cebpf4jnsgd1na2vs0mg"},{"bike_id":"84c23c24-8f1d-43d3-a01f-3f6e2511fc8f","system_id":"levelo_inurba_marseille","lat":43.22506,"lon":5.34785,"is_reserved":false,"is_disabled":false,"rental_uris":{"android":"levelo://app?vid=84c23c24-8f1d-43d3-a01f-3f6e2511fc8f","ios":"levelo://app?vid=84c23c24-8f1d-43d3-a01f-3f6e2511fc8f"},"vehicle_type_id":"4","last_reported":1743865684,"current_range_meters":2800,"station_id":"st_cvj5dfep6f1abm77gieg","pricing_plan_id":"cebpf4jnsgd1na2vs0mg"},{"bike_id":"e098230c-3425-4fa7-ad2a-e397fefe8af0","system_id":"levelo_inurba_marseille","lat":43.27371,"lon":5.36255,"is_reserved":false,"is_disabled":false,"rental_uris":{"android":"levelo://app?vid=e098230c-3425-4fa7-ad2a-e397fefe8af0","ios":"levelo://app?vid=e098230c-3425-4fa7-ad2a-e397fefe8af0"},"vehicle_type_id":"4","last_reported":1743865684,"current_range_meters":2000,"station_id":"ce4bhbh2rcd13ifvqeo0","pricing_plan_id":"cebpf4jnsgd1na2vs0mg"},{"bike_id":"3c0daef3-05e7-4ba0-bdb0-949635dc68dd","system_id":"levelo_inurba_marseille","lat":43.30151,"lon":5.38082,"is_reserved":false,"is_disabled":false,"rental_uris":{"android":"levelo://app?vid=3c0daef3-05e7-4ba0-bdb0-949635dc68dd","ios":"levelo://app?vid=3c0daef3-05e7-4ba0-bdb0-949635dc68dd"},"vehicle_type_id":"4","last_reported":1743865684,"current_range_meters":2000,"station_id":"ce4bgjp2rcd13ifvqbh0","pricing_plan_id":"cebpf4jnsgd1na2vs0mg"},{"bike_id":"dc63fabf-8ce8-44e4-8a18-22cd8bbb3819","system_id":"levelo_inurba_marseille","lat":43.31727,"lon":5.42391,"is_reserved":false,"is_disabled":false,"rental_uris":{"android":"levelo://app?vid=dc63fabf-8ce8-44e4-8a18-22cd8bbb3819","ios":"levelo://app?vid=dc63fabf-8ce8-44e4-8a18-22cd8bbb3819"},"vehicle_type_id":"4","last_reported":1743865684,"current_range_meters":2800,"station_id":"ce4bhp92rcd13ifvqhbg","pricing_plan_id":"cebpf4jnsgd1na2vs0mg"},{"bike_id":"6e7e8bd0-971a-4bf5-a521-0d1053f36753","system_id":"levelo_inurba_marseille","lat":43.3107,"lon":5.42429,"is_reserved":false,"is_disabled":true,"rental_uris":{"android":"levelo://app?vid=6e7e8bd0-971a-4bf5-a521-0d1053f36753","ios":"levelo://app?vid=6e7e8bd0-971a-4bf5-a521-0d1053f36753"},"vehicle_type_id":"4","last_reported":1743865684,"current_range_meters":2800,"station_id":"ce4bhp92rcd13ifvqhag","pricing_plan_id":"cebpf4jnsgd1na2vs0mg"},{"bike_id":"0f72a777-02b3-4132-b9eb-7752b30e3d38","system_id":"levelo_inurba_marseille","lat":43.304644,"lon":5.393389,"is_reserved":false,"is_disabled":false,"rental_uris":{"android":"levelo://app?vid=0f72a777-02b3-4132-b9eb-7752b30e3d38","ios":"levelo://app?vid=0f72a777-02b3-4132-b9eb-7752b30e3d38"},"vehicle_type_id":"4","last_reported":1743865684,"current_range_meters":3200,"station_id":"ce4bh012rcd13ifvqcv0","pricing_plan_id":"cebpf4jnsgd1na2vs0mg"},{"bike_id":"b7a0d818-fa67-4a4e-8190-83c95561ce8b","system_id":"levelo_inurba_marseille","lat":43.23209,"lon":5.39942,"is_reserved":false,"is_disabled":false,"rental_uris":{"android":"levelo://app?vid=b7a0d818-fa67-4a4e-8190-83c95561ce8b","ios":"levelo://app?vid=b7a0d818-fa67-4a4e-8190-83c95561ce8b"},"vehicle_type_id":"4","last_reported":1743865684,"current_range_meters":3200,"station_id":"ce4bhn12rcd13ifvqgqg","pricing_plan_id":"cebpf4jnsgd1na2vs0mg"},{"bike_id":"232a8fd0-6cf9-4bad-a70a-e31325da4621","system_id":"levelo_inurba_marseille","lat":43.29284,"lon":5.3743,"is_reserved":false,"is_disabled":false,"rental_uris":{"android":"levelo://app?vid=232a8fd0-6cf9-4bad-a70a-e31325da4621","ios":"levelo://app?vid=232a8fd0-6cf9-4bad-a70a-e31325da4621"},"vehicle_type_id":"4","last_reported":1743865684,"current_range_meters":3200,"station_id":"ce4bgi12rcd13ifvqb70","pricing_plan_id":"cebpf4jnsgd1na2vs0mg"},{"bike_id":"a87d57c2-ef8d-4a4e-b9dd-a8319e6d7944","system_id":"levelo_inurba_marseille","lat":43.28153,"lon":5.42651,"is_reserved":false,"is_disabled":false,"rental_uris":{"android":"levelo://app?vid=a87d57c2-ef8d-4a4e-b9dd-a8319e6d7944","ios":"levelo://app?vid=a87d57c2-ef8d-4a4e-b9dd-a8319e6d7944"},"vehicle_type_id":"4","last_reported":1743865684,"current_range_meters":3600,"station_id":"ce4bhnh2rcd13ifvqgug","pricing_plan_id":"cebpf4jnsgd1na2vs0mg"},{"bike_id":"e383190c-40ea-48df-9c41-2bb9db83410f","system_id":"levelo_inurba_marseille","lat":43.28619,"lon":5.35105,"is_reserved":false,"is_disabled":false,"rental_uris":{"android":"levelo://app?vid=e383190c-40ea-48df-9c41-2bb9db83410f","ios":"levelo://app?vid=e383190c-40ea-48df-9c41-2bb9db83410f"},"vehicle_type_id":"4","last_reported":1743865684,"current_range_meters":3600,"station_id":"ce4bhch2rcd13ifvqeug","pricing_plan_id":"cebpf4jnsgd1na2vs0mg"},{"bike_id":"2737e789-0ba6-4b8f-a2b5-fdbce548c2eb","system_id":"levelo_inurba_marseille","lat":43.2998,"lon":5.37178,"is_reserved":false,"is_disabled":false,"rental_uris":{"android":"levelo://app?vid=2737e789-0ba6-4b8f-a2b5-fdbce548c2eb","ios":"levelo://app?vid=2737e789-0ba6-4b8f-a2b5-fdbce548c2eb"},"vehicle_type_id":"4","last_reported":1743865684,"current_range_meters":3600,"station_id":"ce4bgr92rcd13ifvqc7g","pricing_plan_id":"cebpf4jnsgd1na2vs0mg"},{"bike_id":"3adb4a43-caa8-4123-820e-e61131bca72c","system_id":"levelo_inurba_marseille","lat":43.28436,"lon":5.39204,"is_reserved":false,"is_disabled":false,"rental_uris":{"android":"levelo://app?vid=3adb4a43-caa8-4123-820e-e61131bca72c","ios":"levelo://app?vid=3adb4a43-caa8-4123-820e-e61131bca72c"},"vehicle_type_id":"4","last_reported":1743865684,"current_range_meters":3200,"station_id":"ce4bhoh2rcd13ifvqh5g","pricing_plan_id":"cebpf4jnsgd1na2vs0mg"},{"bike_id":"d2c8c1b8-f549-4063-8e0f-81bf9b5cde18","system_id":"levelo_inurba_marseille","lat":43.25127,"lon":5.40332,"is_reserved":false,"is_disabled":false,"rental_uris":{"android":"levelo://app?vid=d2c8c1b8-f549-4063-8e0f-81bf9b5cde18","ios":"levelo://app?vid=d2c8c1b8-f549-4063-8e0f-81bf9b5cde18"},"vehicle_type_id":"4","last_reported":1743865684,"current_range_meters":3600,"station_id":"ce4bhlh2rcd13ifvqgig","pricing_plan_id":"cebpf4jnsgd1na2vs0mg"},{"bike_id":"25ba5602-9190-4116-b71f-222ad39f42c7","system_id":"levelo_inurba_marseille","lat":43.28147,"lon":5.42647,"is_reserved":false,"is_disabled":false,"rental_uris":{"android":"levelo://app?vid=25ba5602-9190-4116-b71f-222ad39f42c7","ios":"levelo://app?vid=25ba5602-9190-4116-b71f-222ad39f42c7"},"vehicle_type_id":"4","last_reported":1743865684,"current_range_meters":3600,"station_id":"ce4bhnh2rcd13ifvqgug","pricing_plan_id":"cebpf4jnsgd1na2vs0mg"},{"bike_id":"e2775695-385e-4074-b6fa-9c7c36a782ad","system_id":"levelo_inurba_marseille","lat":43.284153,"lon":5.349829,"is_reserved":false,"is_disabled":false,"rental_uris":{"android":"levelo://app?vid=e2775695-385e-4074-b6fa-9c7c36a782ad","ios":"levelo://app?vid=e2775695-385e-4074-b6fa-9c7c36a782ad"},"vehicle_type_id":"4","last_reported":1743865684,"current_range_meters":3600,"station_id":"ce4bhbh2rcd13ifvqepg","pricing_plan_id":"cebpf4jnsgd1na2vs0mg"},{"bike_id":"80cf7c9c-1a22-4eea-9dea-1aa16b39a0cc","system_id":"levelo_inurba_marseille","lat":43.29583,"lon":5.36745,"is_reserved":false,"is_disabled":false,"rental_uris":{"android":"levelo://app?vid=80cf7c9c-1a22-4eea-9dea-1aa16b39a0cc","ios":"levelo://app?vid=80cf7c9c-1a22-4eea-9dea-1aa16b39a0cc"},"vehicle_type_id":"4","last_reported":1743865684,"current_range_meters":3600,"station_id":"ce4bgph2rcd13ifvqc2g","pricing_plan_id":"cebpf4jnsgd1na2vs0mg"},{"bike_id":"b8ccb77a-104c-46ef-a73c-67d46643c1f6","system_id":"levelo_inurba_marseille","lat":43.21193,"lon":5.35072,"is_reserved":false,"is_disabled":false,"rental_uris":{"android":"levelo://app?vid=b8ccb77a-104c-46ef-a73c-67d46643c1f6","ios":"levelo://app?vid=b8ccb77a-104c-46ef-a73c-67d46643c1f6"},"vehicle_type_id":"4","last_reported":1743865684,"current_range_meters":4000,"station_id":"st_cvj6sg6p6f1abm77japg","pricing_plan_id":"cebpf4jnsgd1na2vs0mg"},{"bike_id":"a2e922a6-ea5c-4256-bd72-77fb483ae981","system_id":"levelo_inurba_marseille","lat":43.26489,"lon":5.3955,"is_reserved":false,"is_disabled":false,"rental_uris":{"android":"levelo://app?vid=a2e922a6-ea5c-4256-bd72-77fb483ae981","ios":"levelo://app?vid=a2e922a6-ea5c-4256-bd72-77fb483ae981"},"vehicle_type_id":"4","last_reported":1743865684,"current_range_meters":4000,"station_id":"ce4bhi12rcd13ifvqfq0","pricing_plan_id":"cebpf4jnsgd1na2vs0mg"},{"bike_id":"7654dfdb-2d49-4899-b1c4-60867904088e","system_id":"levelo_inurba_marseille","lat":43.24396,"lon":5.37061,"is_reserved":false,"is_disabled":false,"rental_uris":{"android":"levelo://app?vid=7654dfdb-2d49-4899-b1c4-60867904088e","ios":"levelo://app?vid=7654dfdb-2d49-4899-b1c4-60867904088e"},"vehicle_type_id":"4","last_reported":1743865684,"current_range_meters":4000,"station_id":"ce4bhhh2rcd13ifvqfk0","pricing_plan_id":"cebpf4jnsgd1na2vs0mg"},{"bike_id":"4dcb4c6e-8bd7-40e1-b91d-0d4935329b65","system_id":"levelo_inurba_marseille","lat":43.23056,"lon":5.35498,"is_reserved":false,"is_disabled":false,"rental_uris":{"android":"levelo://app?vid=4dcb4c6e-8bd7-40e1-b91d-0d4935329b65","ios":"levelo://app?vid=4dcb4c6e-8bd7-40e1-b91d-0d4935329b65"},"vehicle_type_id":"4","last_reported":1743865684,"current_range_meters":4000,"station_id":"cpo3342slgdg3j2ifvpg","pricing_plan_id":"cebpf4jnsgd1na2vs0mg"},{"bike_id":"0ef0a82c-cf7c-476b-a415-8d9d1395da57","system_id":"levelo_inurba_marseille","lat":43.30449,"lon":5.38882,"is_reserved":false,"is_disabled":false,"rental_uris":{"android":"levelo://app?vid=0ef0a82c-cf7c-476b-a415-8d9d1395da57","ios":"levelo://app?vid=0ef0a82c-cf7c-476b-a415-8d9d1395da57"},"vehicle_type_id":"4","last_reported":1743865684,"current_range_meters":3600,"station_id":"ce4bgk12rcd13ifvqbi0","pricing_plan_id":"cebpf4jnsgd1na2vs0mg"},{"bike_id":"c979a58a-2c56-4ab7-a6a4-c1855a317063","system_id":"levelo_inurba_marseille","lat":43.23964,"lon":5.36642,"is_reserved":false,"is_disabled":false,"rental_uris":{"android":"levelo://app?vid=c979a58a-2c56-4ab7-a6a4-c1855a317063","ios":"levelo://app?vid=c979a58a-2c56-4ab7-a6a4-c1855a317063"},"vehicle_type_id":"4","last_reported":1743865684,"current_range_meters":4000,"station_id":"ce4bhi12rcd13ifvqfp0","pricing_plan_id":"cebpf4jnsgd1na2vs0mg"},{"bike_id":"c06d7c9f-ad94-4adc-8cb7-d80994a1b1e4","system_id":"levelo_inurba_marseille","lat":43.24046,"lon":5.37755,"is_reserved":false,"is_disabled":false,"rental_uris":{"android":"levelo://app?vid=c06d7c9f-ad94-4adc-8cb7-d80994a1b1e4","ios":"levelo://app?vid=c06d7c9f-ad94-4adc-8cb7-d80994a1b1e4"},"vehicle_type_id":"4","last_reported":1743865684,"current_range_meters":4000,"station_id":"ce4bhnp2rcd13ifvqgvg","pricing_plan_id":"cebpf4jnsgd1na2vs0mg"},{"bike_id":"5809aa2a-6e8b-4396-909a-e4f6a1a76cf5","system_id":"levelo_inurba_marseille","lat":43.23961,"lon":5.36618,"is_reserved":false,"is_disabled":false,"rental_uris":{"android":"levelo://app?vid=5809aa2a-6e8b-4396-909a-e4f6a1a76cf5","ios":"levelo://app?vid=5809aa2a-6e8b-4396-909a-e4f6a1a76cf5"},"vehicle_type_id":"4","last_reported":1743865684,"current_range_meters":4000,"station_id":"ce4bhi12rcd13ifvqfp0","pricing_plan_id":"cebpf4jnsgd1na2vs0mg"},{"bike_id":"fc23420b-dce1-4463-b823-0eaa9df918ba","system_id":"levelo_inurba_marseille","lat":43.23189,"lon":5.35553,"is_reserved":false,"is_disabled":false,"rental_uris":{"android":"levelo://app?vid=fc23420b-dce1-4463-b823-0eaa9df918ba","ios":"levelo://app?vid=fc23420b-dce1-4463-b823-0eaa9df918ba"},"vehicle_type_id":"4","last_reported":1743865684,"current_range_meters":4000,"station_id":"ce4bhu92rcd13ifvqi70","pricing_plan_id":"cebpf4jnsgd1na2vs0mg"},{"bike_id":"061e9712-dc80-4a1e-a898-df605d31e318","system_id":"levelo_inurba_marseille","lat":43.28358,"lon":5.38105,"is_reserved":false,"is_disabled":false,"rental_uris":{"android":"levelo://app?vid=061e9712-dc80-4a1e-a898-df605d31e318","ios":"levelo://app?vid=061e9712-dc80-4a1e-a898-df605d31e318"},"vehicle_type_id":"4","last_reported":1743865684,"current_range_meters":4000,"station_id":"ce4bh412rcd13ifvqdr0","pricing_plan_id":"cebpf4jnsgd1na2vs0mg"},{"bike_id":"4e8e0dd2-0709-4cb4-b8a2-ff9774e5d35d","system_id":"levelo_inurba_marseille","lat":43.26206,"lon":5.37937,"is_reserved":false,"is_disabled":false,"rental_uris":{"android":"levelo://app?vid=4e8e0dd2-0709-4cb4-b8a2-ff9774e5d35d","ios":"levelo://app?vid=4e8e0dd2-0709-4cb4-b8a2-ff9774e5d35d"},"vehicle_type_id":"4","last_reported":1743865684,"current_range_meters":4400,"station_id":"ce4bhjp2rcd13ifvqg90","pricing_plan_id":"cebpf4jnsgd1na2vs0mg"},{"bike_id":"fed25cf4-7be8-408e-848d-a778b08cb7e9","system_id":"levelo_inurba_marseille","lat":43.298946,"lon":5.436714,"is_reserved":false,"is_disabled":false,"rental_uris":{"android":"levelo://app?vid=fed25cf4-7be8-408e-848d-a778b08cb7e9","ios":"levelo://app?vid=fed25cf4-7be8-408e-848d-a778b08cb7e9"},"vehicle_type_id":"4","last_reported":1743865684,"current_range_meters":4400,"station_id":"ce4bhpp2rcd13ifvqhfg","pricing_plan_id":"cebpf4jnsgd1na2vs0mg"},{"bike_id":"ce624242-9275-4953-8784-c2542e9a5006","system_id":"levelo_inurba_marseille","lat":43.23149,"lon":5.43716,"is_reserved":false,"is_disabled":false,"rental_uris":{"android":"levelo://app?vid=ce624242-9275-4953-8784-c2542e9a5006","ios":"levelo://app?vid=ce624242-9275-4953-8784-c2542e9a5006"},"vehicle_type_id":"4","last_reported":1743865684,"current_range_meters":4000,"station_id":"ce4bhmp2rcd13ifvqgog","pricing_plan_id":"cebpf4jnsgd1na2vs0mg"},{"bike_id":"444f17de-72e0-448d-bf67-36bf7e2f8b86","system_id":"levelo_inurba_marseille","lat":43.27372,"lon":5.3626,"is_reserved":false,"is_disabled":false,"rental_uris":{"android":"levelo://app?vid=444f17de-72e0-448d-bf67-36bf7e2f8b86","ios":"levelo://app?vid=444f17de-72e0-448d-bf67-36bf7e2f8b86"},"vehicle_type_id":"4","last_reported":1743865684,"current_range_meters":4800,"station_id":"ce4bhbh2rcd13ifvqeo0","pricing_plan_id":"cebpf4jnsgd1na2vs0mg"},{"bike_id":"7639b2e5-9700-4c59-ac02-8cbe45d6e369","system_id":"levelo_inurba_marseille","lat":43.276144,"lon":5.360996,"is_reserved":false,"is_disabled":false,"rental_uris":{"android":"levelo://app?vid=7639b2e5-9700-4c59-ac02-8cbe45d6e369","ios":"levelo://app?vid=7639b2e5-9700-4c59-ac02-8cbe45d6e369"},"vehicle_type_id":"4","last_reported":1743865684,"current_range_meters":4800,"station_id":"ce4bgj92rcd13ifvqbe0","pricing_plan_id":"cebpf4jnsgd1na2vs0mg"},{"bike_id":"824700ee-9054-4718-bf0c-9ddea2f2c9f1","system_id":"levelo_inurba_marseille","lat":43.29793,"lon":5.38106,"is_reserved":false,"is_disabled":false,"rental_uris":{"android":"levelo://app?vid=824700ee-9054-4718-bf0c-9ddea2f2c9f1","ios":"levelo://app?vid=824700ee-9054-4718-bf0c-9ddea2f2c9f1"},"vehicle_type_id":"4","last_reported":1743865684,"current_range_meters":4800,"station_id":"ce4bgip2rcd13ifvqbb0","pricing_plan_id":"cebpf4jnsgd1na2vs0mg"},{"bike_id":"08a078e3-7f65-49ef-838f-849895387668","system_id":"levelo_inurba_marseille","lat":43.26504,"lon":5.39544,"is_reserved":false,"is_disabled":false,"rental_uris":{"android":"levelo://app?vid=08a078e3-7f65-49ef-838f-849895387668","ios":"levelo://app?vid=08a078e3-7f65-49ef-838f-849895387668"},"vehicle_type_id":"4","last_reported":1743865684,"current_range_meters":4800,"station_id":"ce4bhi12rcd13ifvqfq0","pricing_plan_id":"cebpf4jnsgd1na2vs0mg"},{"bike_id":"db9b2616-949f-451e-955b-021beca116dc","system_id":"levelo_inurba_marseille","lat":43.30881,"lon":5.39616,"is_reserved":false,"is_disabled":false,"rental_uris":{"android":"levelo://app?vid=db9b2616-949f-451e-955b-021beca116dc","ios":"levelo://app?vid=db9b2616-949f-451e-955b-021beca116dc"},"vehicle_type_id":"4","last_reported":1743865684,"current_range_meters":4400,"station_id":"ce4bh012rcd13ifvqcv0","pricing_plan_id":"cebpf4jnsgd1na2vs0mg"},{"bike_id":"458879ba-db8a-4e9d-9c1b-fe1aa15bb977","system_id":"levelo_inurba_marseille","lat":43.23058,"lon":5.35493,"is_reserved":false,"is_disabled":false,"rental_uris":{"android":"levelo://app?vid=458879ba-db8a-4e9d-9c1b-fe1aa15bb977","ios":"levelo://app?vid=458879ba-db8a-4e9d-9c1b-fe1aa15bb977"},"vehicle_type_id":"4","last_reported":1743865684,"current_range_meters":4800,"station_id":"cpo3342slgdg3j2ifvpg","pricing_plan_id":"cebpf4jnsgd1na2vs0mg"},{"bike_id":"75418970-5577-432f-a982-7367504be45d","system_id":"levelo_inurba_marseille","lat":43.23064,"lon":5.35496,"is_reserved":false,"is_disabled":false,"rental_uris":{"android":"levelo://app?vid=75418970-5577-432f-a982-7367504be45d","ios":"levelo://app?vid=75418970-5577-432f-a982-7367504be45d"},"vehicle_type_id":"4","last_reported":1743865684,"current_range_meters":5600,"station_id":"cpo3342slgdg3j2ifvpg","pricing_plan_id":"cebpf4jnsgd1na2vs0mg"},{"bike_id":"b6e73fff-ccbc-4536-93d2-185678c34449","system_id":"levelo_inurba_marseille","lat":43.21194,"lon":5.3507,"is_reserved":false,"is_disabled":false,"rental_uris":{"android":"levelo://app?vid=b6e73fff-ccbc-4536-93d2-185678c34449","ios":"levelo://app?vid=b6e73fff-ccbc-4536-93d2-185678c34449"},"vehicle_type_id":"4","last_reported":1743865684,"current_range_meters":5600,"station_id":"st_cvj6sg6p6f1abm77japg","pricing_plan_id":"cebpf4jnsgd1na2vs0mg"},{"bike_id":"5d2ab57d-6f8e-4878-bbe5-3ba6ce7c591c","system_id":"levelo_inurba_marseille","lat":43.2558,"lon":5.38236,"is_reserved":false,"is_disabled":false,"rental_uris":{"android":"levelo://app?vid=5d2ab57d-6f8e-4878-bbe5-3ba6ce7c591c","ios":"levelo://app?vid=5d2ab57d-6f8e-4878-bbe5-3ba6ce7c591c"},"vehicle_type_id":"4","last_reported":1743865684,"current_range_meters":5600,"station_id":"ce4bhih2rcd13ifvqfs0","pricing_plan_id":"cebpf4jnsgd1na2vs0mg"},{"bike_id":"af8c7829-b818-439f-be4b-59657ab2c36e","system_id":"levelo_inurba_marseille","lat":43.28004,"lon":5.40015,"is_reserved":false,"is_disabled":false,"rental_uris":{"android":"levelo://app?vid=af8c7829-b818-439f-be4b-59657ab2c36e","ios":"levelo://app?vid=af8c7829-b818-439f-be4b-59657ab2c36e"},"vehicle_type_id":"4","last_reported":1743865684,"current_range_meters":5600,"station_id":"ce4bho92rcd13ifvqh4g","pricing_plan_id":"cebpf4jnsgd1na2vs0mg"},{"bike_id":"c08bac4f-503e-4ef1-844a-ad87e9dc46aa","system_id":"levelo_inurba_marseille","lat":43.28271,"lon":5.35057,"is_reserved":false,"is_disabled":false,"rental_uris":{"android":"levelo://app?vid=c08bac4f-503e-4ef1-844a-ad87e9dc46aa","ios":"levelo://app?vid=c08bac4f-503e-4ef1-844a-ad87e9dc46aa"},"vehicle_type_id":"4","last_reported":1743865684,"current_range_meters":5600,"station_id":"ce4bhbp2rcd13ifvqerg","pricing_plan_id":"cebpf4jnsgd1na2vs0mg"},{"bike_id":"15c9b0a5-5323-4ad6-b36d-b4c7062029ed","system_id":"levelo_inurba_marseille","lat":43.30802,"lon":5.38165,"is_reserved":false,"is_disabled":false,"rental_uris":{"android":"levelo://app?vid=15c9b0a5-5323-4ad6-b36d-b4c7062029ed","ios":"levelo://app?vid=15c9b0a5-5323-4ad6-b36d-b4c7062029ed"},"vehicle_type_id":"4","last_reported":1743865684,"current_range_meters":4800,"station_id":"ce4bgt12rcd13ifvqce0","pricing_plan_id":"cebpf4jnsgd1na2vs0mg"},{"bike_id":"b95de0eb-1201-4878-ab8a-85c36d803597","system_id":"levelo_inurba_marseille","lat":43.31171,"lon":5.38722,"is_reserved":false,"is_disabled":false,"rental_uris":{"android":"levelo://app?vid=b95de0eb-1201-4878-ab8a-85c36d803597","ios":"levelo://app?vid=b95de0eb-1201-4878-ab8a-85c36d803597"},"vehicle_type_id":"4","last_reported":1743865684,"current_range_meters":5600,"station_id":"ce4bgv12rcd13ifvqcp0","pricing_plan_id":"cebpf4jnsgd1na2vs0mg"},{"bike_id":"c6e09a47-db0b-4659-897b-c68b6d58526c","system_id":"levelo_inurba_marseille","lat":43.22925,"lon":5.3538,"is_reserved":false,"is_disabled":true,"rental_uris":{"android":"levelo://app?vid=c6e09a47-db0b-4659-897b-c68b6d58526c","ios":"levelo://app?vid=c6e09a47-db0b-4659-897b-c68b6d58526c"},"vehicle_type_id":"4","last_reported":1743865684,"current_range_meters":5600,"station_id":"","pricing_plan_id":"cebpf4jnsgd1na2vs0mg"},{"bike_id":"fb539292-0613-4950-890e-4d7d9f092151","system_id":"levelo_inurba_marseille","lat":43.23193,"lon":5.35556,"is_reserved":false,"is_disabled":false,"rental_uris":{"android":"levelo://app?vid=fb539292-0613-4950-890e-4d7d9f092151","ios":"levelo://app?vid=fb539292-0613-4950-890e-4d7d9f092151"},"vehicle_type_id":"4","last_reported":1743865684,"current_range_meters":5600,"station_id":"ce4bhu92rcd13ifvqi70","pricing_plan_id":"cebpf4jnsgd1na2vs0mg"},{"bike_id":"a6ed7d55-4106-48bb-9c99-deb74dd690fc","system_id":"levelo_inurba_marseille","lat":43.2861,"lon":5.35108,"is_reserved":false,"is_disabled":false,"rental_uris":{"android":"levelo://app?vid=a6ed7d55-4106-48bb-9c99-deb74dd690fc","ios":"levelo://app?vid=a6ed7d55-4106-48bb-9c99-deb74dd690fc"},"vehicle_type_id":"4","last_reported":1743865684,"current_range_meters":6000,"station_id":"ce4bhch2rcd13ifvqeug","pricing_plan_id":"cebpf4jnsgd1na2vs0mg"},{"bike_id":"d3af664a-44c6-45e9-880b-0f365c1409cf","system_id":"levelo_inurba_marseille","lat":43.26053,"lon":5.37535,"is_reserved":false,"is_disabled":false,"rental_uris":{"android":"levelo://app?vid=d3af664a-44c6-45e9-880b-0f365c1409cf","ios":"levelo://app?vid=d3af664a-44c6-45e9-880b-0f365c1409cf"},"vehicle_type_id":"4","last_reported":1743865684,"current_range_meters":6000,"station_id":"ce4bhgh2rcd13ifvqfa0","pricing_plan_id":"cebpf4jnsgd1na2vs0mg"},{"bike_id":"4a712a54-02b5-4080-b4fc-e6babc6b1b6b","system_id":"levelo_inurba_marseille","lat":43.28615,"lon":5.35112,"is_reserved":false,"is_disabled":false,"rental_uris":{"android":"levelo://app?vid=4a712a54-02b5-4080-b4fc-e6babc6b1b6b","ios":"levelo://app?vid=4a712a54-02b5-4080-b4fc-e6babc6b1b6b"},"vehicle_type_id":"4","last_reported":1743865684,"current_range_meters":6000,"station_id":"ce4bhch2rcd13ifvqeug","pricing_plan_id":"cebpf4jnsgd1na2vs0mg"},{"bike_id":"c3fd0690-461c-44ba-a8a8-0382e9da6426","system_id":"levelo_inurba_marseille","lat":43.28617,"lon":5.35112,"is_reserved":false,"is_disabled":false,"rental_uris":{"android":"levelo://app?vid=c3fd0690-461c-44ba-a8a8-0382e9da6426","ios":"levelo://app?vid=c3fd0690-461c-44ba-a8a8-0382e9da6426"},"vehicle_type_id":"4","last_reported":1743865684,"current_range_meters":6000,"station_id":"ce4bhch2rcd13ifvqeug","pricing_plan_id":"cebpf4jnsgd1na2vs0mg"},{"bike_id":"2b829cb4-e166-4fe2-b281-85746037f1ad","system_id":"levelo_inurba_marseille","lat":43.30388,"lon":5.4249,"is_reserved":false,"is_disabled":false,"rental_uris":{"android":"levelo://app?vid=2b829cb4-e166-4fe2-b281-85746037f1ad","ios":"levelo://app?vid=2b829cb4-e166-4fe2-b281-85746037f1ad"},"vehicle_type_id":"4","last_reported":1743865684,"current_range_meters":6400,"station_id":"ce4bhoh2rcd13ifvqh6g","pricing_plan_id":"cebpf4jnsgd1na2vs0mg"},{"bike_id":"a6d5ec2e-8b80-4a21-a470-1745ea110918","system_id":"levelo_inurba_marseille","lat":43.28855,"lon":5.35859,"is_reserved":false,"is_disabled":false,"rental_uris":{"android":"levelo://app?vid=a6d5ec2e-8b80-4a21-a470-1745ea110918","ios":"levelo://app?vid=a6d5ec2e-8b80-4a21-a470-1745ea110918"},"vehicle_type_id":"4","last_reported":1743865684,"current_range_meters":6400,"station_id":"ce4bhb12rcd13ifvqem0","pricing_plan_id":"cebpf4jnsgd1na2vs0mg"},{"bike_id":"0ac2c4ba-c840-4d70-97c0-cd2bea57af08","system_id":"levelo_inurba_marseille","lat":43.2438,"lon":5.37118,"is_reserved":false,"is_disabled":false,"rental_uris":{"android":"levelo://app?vid=0ac2c4ba-c840-4d70-97c0-cd2bea57af08","ios":"levelo://app?vid=0ac2c4ba-c840-4d70-97c0-cd2bea57af08"},"vehicle_type_id":"4","last_reported":1743865684,"current_range_meters":6400,"station_id":"ce4bhhh2rcd13ifvqfk0","pricing_plan_id":"cebpf4jnsgd1na2vs0mg"},{"bike_id":"e1d234d1-866d-497b-962d-6fc13a139f2f","system_id":"levelo_inurba_marseille","lat":43.28615,"lon":5.35108,"is_reserved":false,"is_disabled":false,"rental_uris":{"android":"levelo://app?vid=e1d234d1-866d-497b-962d-6fc13a139f2f","ios":"levelo://app?vid=e1d234d1-866d-497b-962d-6fc13a139f2f"},"vehicle_type_id":"4","last_reported":1743865684,"current_range_meters":6400,"station_id":"ce4bhch2rcd13ifvqeug","pricing_plan_id":"cebpf4jnsgd1na2vs0mg"},{"bike_id":"50297066-959d-45c5-a71e-b062cc3724ec","system_id":"levelo_inurba_marseille","lat":43.30804,"lon":5.37326,"is_reserved":false,"is_disabled":false,"rental_uris":{"android":"levelo://app?vid=50297066-959d-45c5-a71e-b062cc3724ec","ios":"levelo://app?vid=50297066-959d-45c5-a71e-b062cc3724ec"},"vehicle_type_id":"4","last_reported":1743865684,"current_range_meters":6400,"station_id":"","pricing_plan_id":"cebpf4jnsgd1na2vs0mg"},{"bike_id":"b2a19f75-fdea-446f-b11a-daf1b85ff07a","system_id":"levelo_inurba_marseille","lat":43.29863,"lon":5.36272,"is_reserved":false,"is_disabled":false,"rental_uris":{"android":"levelo://app?vid=b2a19f75-fdea-446f-b11a-daf1b85ff07a","ios":"levelo://app?vid=b2a19f75-fdea-446f-b11a-daf1b85ff07a"},"vehicle_type_id":"4","last_reported":1743865684,"current_range_meters":6800,"station_id":"ce4bgpp2rcd13ifvqc3g","pricing_plan_id":"cebpf4jnsgd1na2vs0mg"},{"bike_id":"89382623-7b7f-40e8-a15b-8193cd59c918","system_id":"levelo_inurba_marseille","lat":43.23191,"lon":5.35549,"is_reserved":false,"is_disabled":false,"rental_uris":{"android":"levelo://app?vid=89382623-7b7f-40e8-a15b-8193cd59c918","ios":"levelo://app?vid=89382623-7b7f-40e8-a15b-8193cd59c918"},"vehicle_type_id":"4","last_reported":1743865684,"current_range_meters":6800,"station_id":"ce4bhu92rcd13ifvqi70","pricing_plan_id":"cebpf4jnsgd1na2vs0mg"},{"bike_id":"5eb36045-10cb-4b59-8164-d7cf65a4a24f","system_id":"levelo_inurba_marseille","lat":43.26064,"lon":5.39398,"is_reserved":false,"is_disabled":false,"rental_uris":{"android":"levelo://app?vid=5eb36045-10cb-4b59-8164-d7cf65a4a24f","ios":"levelo://app?vid=5eb36045-10cb-4b59-8164-d7cf65a4a24f"},"vehicle_type_id":"4","last_reported":1743865684,"current_range_meters":6800,"station_id":"ce4bhh92rcd13ifvqfj0","pricing_plan_id":"cebpf4jnsgd1na2vs0mg"},{"bike_id":"9cecbd7a-9ce0-4058-8481-d43b6c20dbc2","system_id":"levelo_inurba_marseille","lat":43.212,"lon":5.35081,"is_reserved":false,"is_disabled":false,"rental_uris":{"android":"levelo://app?vid=9cecbd7a-9ce0-4058-8481-d43b6c20dbc2","ios":"levelo://app?vid=9cecbd7a-9ce0-4058-8481-d43b6c20dbc2"},"vehicle_type_id":"4","last_reported":1743865684,"current_range_meters":6800,"station_id":"st_cvj6sg6p6f1abm77japg","pricing_plan_id":"cebpf4jnsgd1na2vs0mg"},{"bike_id":"3a673a01-13fc-4ed6-b9b1-08a0faf2fd75","system_id":"levelo_inurba_marseille","lat":43.231854,"lon":5.399796,"is_reserved":false,"is_disabled":false,"rental_uris":{"android":"levelo://app?vid=3a673a01-13fc-4ed6-b9b1-08a0faf2fd75","ios":"levelo://app?vid=3a673a01-13fc-4ed6-b9b1-08a0faf2fd75"},"vehicle_type_id":"4","last_reported":1743865684,"current_range_meters":6800,"station_id":"ce4bhn12rcd13ifvqgqg","pricing_plan_id":"cebpf4jnsgd1na2vs0mg"},{"bike_id":"c7db32de-b2fb-421a-b701-2e55dc182d90","system_id":"levelo_inurba_marseille","lat":43.295418,"lon":5.365308,"is_reserved":false,"is_disabled":false,"rental_uris":{"android":"levelo://app?vid=c7db32de-b2fb-421a-b701-2e55dc182d90","ios":"levelo://app?vid=c7db32de-b2fb-421a-b701-2e55dc182d90"},"vehicle_type_id":"4","last_reported":1743865684,"current_range_meters":6800,"station_id":"ce4bgph2rcd13ifvqc2g","pricing_plan_id":"cebpf4jnsgd1na2vs0mg"},{"bike_id":"4e6bbb71-9a05-4305-8651-eabdb0ee6733","system_id":"levelo_inurba_marseille","lat":43.23191,"lon":5.3998,"is_reserved":false,"is_disabled":false,"rental_uris":{"android":"levelo://app?vid=4e6bbb71-9a05-4305-8651-eabdb0ee6733","ios":"levelo://app?vid=4e6bbb71-9a05-4305-8651-eabdb0ee6733"},"vehicle_type_id":"4","last_reported":1743865684,"current_range_meters":7200,"station_id":"ce4bhn12rcd13ifvqgqg","pricing_plan_id":"cebpf4jnsgd1na2vs0mg"},{"bike_id":"b1b2480f-09aa-4401-a309-6a8041a409bd","system_id":"levelo_inurba_marseille","lat":43.24167,"lon":5.364,"is_reserved":false,"is_disabled":false,"rental_uris":{"android":"levelo://app?vid=b1b2480f-09aa-4401-a309-6a8041a409bd","ios":"levelo://app?vid=b1b2480f-09aa-4401-a309-6a8041a409bd"},"vehicle_type_id":"4","last_reported":1743865684,"current_range_meters":7200,"station_id":"cpo36qri1sfpv3e86is0","pricing_plan_id":"cebpf4jnsgd1na2vs0mg"},{"bike_id":"53007107-6a44-4a40-b9a7-e01e1f07aa94","system_id":"levelo_inurba_marseille","lat":43.29579,"lon":5.36736,"is_reserved":false,"is_disabled":false,"rental_uris":{"android":"levelo://app?vid=53007107-6a44-4a40-b9a7-e01e1f07aa94","ios":"levelo://app?vid=53007107-6a44-4a40-b9a7-e01e1f07aa94"},"vehicle_type_id":"4","last_reported":1743865684,"current_range_meters":7200,"station_id":"ce4bgph2rcd13ifvqc2g","pricing_plan_id":"cebpf4jnsgd1na2vs0mg"},{"bike_id":"11101b03-02c0-4bb4-a9dc-326497f91f4e","system_id":"levelo_inurba_marseille","lat":43.29248,"lon":5.40914,"is_reserved":false,"is_disabled":true,"rental_uris":{"android":"levelo://app?vid=11101b03-02c0-4bb4-a9dc-326497f91f4e","ios":"levelo://app?vid=11101b03-02c0-4bb4-a9dc-326497f91f4e"},"vehicle_type_id":"4","last_reported":1743865684,"current_range_meters":7200,"station_id":"ce4bh192rcd13ifvqdc0","pricing_plan_id":"cebpf4jnsgd1na2vs0mg"},{"bike_id":"2300e608-9f49-4219-a239-0a93902d8d11","system_id":"levelo_inurba_marseille","lat":43.30731,"lon":5.4246,"is_reserved":false,"is_disabled":false,"rental_uris":{"android":"levelo://app?vid=2300e608-9f49-4219-a239-0a93902d8d11","ios":"levelo://app?vid=2300e608-9f49-4219-a239-0a93902d8d11"},"vehicle_type_id":"4","last_reported":1743865684,"current_range_meters":7200,"station_id":"st_cvj6ca6bvosntc0bfgr0","pricing_plan_id":"cebpf4jnsgd1na2vs0mg"},{"bike_id":"acd3e63c-865b-4a4e-97fc-48a78de5c093","system_id":"levelo_inurba_marseille","lat":43.22935,"lon":5.35372,"is_reserved":false,"is_disabled":false,"rental_uris":{"android":"levelo://app?vid=acd3e63c-865b-4a4e-97fc-48a78de5c093","ios":"levelo://app?vid=acd3e63c-865b-4a4e-97fc-48a78de5c093"},"vehicle_type_id":"4","last_reported":1743865684,"current_range_meters":8000,"station_id":"cpo3532slgdg3j2ikp40","pricing_plan_id":"cebpf4jnsgd1na2vs0mg"},{"bike_id":"be5a522b-8e23-4fa1-8d3a-143cb411156b","system_id":"levelo_inurba_marseille","lat":43.21196,"lon":5.35081,"is_reserved":false,"is_disabled":false,"rental_uris":{"android":"levelo://app?vid=be5a522b-8e23-4fa1-8d3a-143cb411156b","ios":"levelo://app?vid=be5a522b-8e23-4fa1-8d3a-143cb411156b"},"vehicle_type_id":"4","last_reported":1743865684,"current_range_meters":8000,"station_id":"","pricing_plan_id":"cebpf4jnsgd1na2vs0mg"},{"bike_id":"e7b956ce-2ab2-4301-8fd3-6312d753e8f6","system_id":"levelo_inurba_marseille","lat":43.24685,"lon":5.38149,"is_reserved":false,"is_disabled":true,"rental_uris":{"android":"levelo://app?vid=e7b956ce-2ab2-4301-8fd3-6312d753e8f6","ios":"levelo://app?vid=e7b956ce-2ab2-4301-8fd3-6312d753e8f6"},"vehicle_type_id":"4","last_reported":1743865684,"current_range_meters":8000,"station_id":"ce4bhih2rcd13ifvqfr0","pricing_plan_id":"cebpf4jnsgd1na2vs0mg"},{"bike_id":"783ef245-163c-4c81-b038-df23059b7c57","system_id":"levelo_inurba_marseille","lat":43.310755,"lon":5.383546,"is_reserved":false,"is_disabled":false,"rental_uris":{"android":"levelo://app?vid=783ef245-163c-4c81-b038-df23059b7c57","ios":"levelo://app?vid=783ef245-163c-4c81-b038-df23059b7c57"},"vehicle_type_id":"4","last_reported":1743865684,"current_range_meters":8000,"station_id":"","pricing_plan_id":"cebpf4jnsgd1na2vs0mg"},{"bike_id":"263a9c05-622f-47a5-b753-3b4374503a15","system_id":"levelo_inurba_marseille","lat":43.28286,"lon":5.35077,"is_reserved":false,"is_disabled":false,"rental_uris":{"android":"levelo://app?vid=263a9c05-622f-47a5-b753-3b4374503a15","ios":"levelo://app?vid=263a9c05-622f-47a5-b753-3b4374503a15"},"vehicle_type_id":"4","last_reported":1743865684,"current_range_meters":8000,"station_id":"ce4bhbp2rcd13ifvqerg","pricing_plan_id":"cebpf4jnsgd1na2vs0mg"},{"bike_id":"0300ed36-144c-47d9-a922-f93668338414","system_id":"levelo_inurba_marseille","lat":43.23954,"lon":5.3663,"is_reserved":false,"is_disabled":false,"rental_uris":{"android":"levelo://app?vid=0300ed36-144c-47d9-a922-f93668338414","ios":"levelo://app?vid=0300ed36-144c-47d9-a922-f93668338414"},"vehicle_type_id":"4","last_reported":1743865684,"current_range_meters":8000,"station_id":"ce4bhi12rcd13ifvqfp0","pricing_plan_id":"cebpf4jnsgd1na2vs0mg"},{"bike_id":"908c0033-ebf3-400a-acb3-0a621b83539f","system_id":"levelo_inurba_marseille","lat":43.23188,"lon":5.3998,"is_reserved":false,"is_disabled":false,"rental_uris":{"android":"levelo://app?vid=908c0033-ebf3-400a-acb3-0a621b83539f","ios":"levelo://app?vid=908c0033-ebf3-400a-acb3-0a621b83539f"},"vehicle_type_id":"4","last_reported":1743865684,"current_range_meters":8000,"station_id":"ce4bhn12rcd13ifvqgqg","pricing_plan_id":"cebpf4jnsgd1na2vs0mg"},{"bike_id":"f6128f55-efc6-4150-805c-fd642d9e817a","system_id":"levelo_inurba_marseille","lat":43.30376,"lon":5.42483,"is_reserved":false,"is_disabled":false,"rental_uris":{"android":"levelo://app?vid=f6128f55-efc6-4150-805c-fd642d9e817a","ios":"levelo://app?vid=f6128f55-efc6-4150-805c-fd642d9e817a"},"vehicle_type_id":"4","last_reported":1743865684,"current_range_meters":8000,"station_id":"ce4bhoh2rcd13ifvqh6g","pricing_plan_id":"cebpf4jnsgd1na2vs0mg"},{"bike_id":"ae85a7a4-7c38-4e25-9e50-a9a925b58789","system_id":"levelo_inurba_marseille","lat":43.31091,"lon":5.42424,"is_reserved":false,"is_disabled":false,"rental_uris":{"android":"levelo://app?vid=ae85a7a4-7c38-4e25-9e50-a9a925b58789","ios":"levelo://app?vid=ae85a7a4-7c38-4e25-9e50-a9a925b58789"},"vehicle_type_id":"4","last_reported":1743865684,"current_range_meters":8000,"station_id":"ce4bhp92rcd13ifvqhag","pricing_plan_id":"cebpf4jnsgd1na2vs0mg"},{"bike_id":"e51b53ae-b384-48da-bd37-4e55c3e89459","system_id":"levelo_inurba_marseille","lat":43.29022,"lon":5.38134,"is_reserved":false,"is_disabled":false,"rental_uris":{"android":"levelo://app?vid=e51b53ae-b384-48da-bd37-4e55c3e89459","ios":"levelo://app?vid=e51b53ae-b384-48da-bd37-4e55c3e89459"},"vehicle_type_id":"4","last_reported":1743865684,"current_range_meters":8000,"station_id":"ce4bh4p2rcd13ifvqe1g","pricing_plan_id":"cebpf4jnsgd1na2vs0mg"},{"bike_id":"3bce4924-e6e3-41d8-9c27-e19d57f6b16d","system_id":"levelo_inurba_marseille","lat":43.284169,"lon":5.375214,"is_reserved":false,"is_disabled":false,"rental_uris":{"android":"levelo://app?vid=3bce4924-e6e3-41d8-9c27-e19d57f6b16d","ios":"levelo://app?vid=3bce4924-e6e3-41d8-9c27-e19d57f6b16d"},"vehicle_type_id":"4","last_reported":1743865684,"current_range_meters":8400,"station_id":"ce4bh412rcd13ifvqds0","pricing_plan_id":"cebpf4jnsgd1na2vs0mg"},{"bike_id":"372d9a6f-bab5-4bcf-8fef-db5c7b7130eb","system_id":"levelo_inurba_marseille","lat":43.31903,"lon":5.4072,"is_reserved":false,"is_disabled":false,"rental_uris":{"android":"levelo://app?vid=372d9a6f-bab5-4bcf-8fef-db5c7b7130eb","ios":"levelo://app?vid=372d9a6f-bab5-4bcf-8fef-db5c7b7130eb"},"vehicle_type_id":"4","last_reported":1743865684,"current_range_meters":8400,"station_id":"ce4bhq12rcd13ifvqhig","pricing_plan_id":"cebpf4jnsgd1na2vs0mg"},{"bike_id":"1e135d7b-7603-434a-a8ed-a31969334424","system_id":"levelo_inurba_marseille","lat":43.29846,"lon":5.36266,"is_reserved":false,"is_disabled":false,"rental_uris":{"android":"levelo://app?vid=1e135d7b-7603-434a-a8ed-a31969334424","ios":"levelo://app?vid=1e135d7b-7603-434a-a8ed-a31969334424"},"vehicle_type_id":"4","last_reported":1743865684,"current_range_meters":8400,"station_id":"ce4bgpp2rcd13ifvqc3g","pricing_plan_id":"cebpf4jnsgd1na2vs0mg"},{"bike_id":"0bc5be8d-5424-45a6-ba31-ea9c1e123644","system_id":"levelo_inurba_marseille","lat":43.22931,"lon":5.35374,"is_reserved":false,"is_disabled":false,"rental_uris":{"android":"levelo://app?vid=0bc5be8d-5424-45a6-ba31-ea9c1e123644","ios":"levelo://app?vid=0bc5be8d-5424-45a6-ba31-ea9c1e123644"},"vehicle_type_id":"4","last_reported":1743865684,"current_range_meters":8400,"station_id":"cpo3532slgdg3j2ikp40","pricing_plan_id":"cebpf4jnsgd1na2vs0mg"},{"bike_id":"e0fc34f6-0214-440a-9ed4-af39ae5d38dd","system_id":"levelo_inurba_marseille","lat":43.22502,"lon":5.34785,"is_reserved":false,"is_disabled":false,"rental_uris":{"android":"levelo://app?vid=e0fc34f6-0214-440a-9ed4-af39ae5d38dd","ios":"levelo://app?vid=e0fc34f6-0214-440a-9ed4-af39ae5d38dd"},"vehicle_type_id":"4","last_reported":1743865684,"current_range_meters":8400,"station_id":"","pricing_plan_id":"cebpf4jnsgd1na2vs0mg"},{"bike_id":"32b35258-d759-4548-af10-fc0ce8dffa66","system_id":"levelo_inurba_marseille","lat":43.24171,"lon":5.36399,"is_reserved":false,"is_disabled":false,"rental_uris":{"android":"levelo://app?vid=32b35258-d759-4548-af10-fc0ce8dffa66","ios":"levelo://app?vid=32b35258-d759-4548-af10-fc0ce8dffa66"},"vehicle_type_id":"4","last_reported":1743865684,"current_range_meters":8400,"station_id":"cpo36qri1sfpv3e86is0","pricing_plan_id":"cebpf4jnsgd1na2vs0mg"},{"bike_id":"ff46d83c-810c-4916-9653-cf6f7c6c2a42","system_id":"levelo_inurba_marseille","lat":43.29717,"lon":5.36597,"is_reserved":false,"is_disabled":false,"rental_uris":{"android":"levelo://app?vid=ff46d83c-810c-4916-9653-cf6f7c6c2a42","ios":"levelo://app?vid=ff46d83c-810c-4916-9653-cf6f7c6c2a42"},"vehicle_type_id":"4","last_reported":1743865684,"current_range_meters":8400,"station_id":"ce4bgn12rcd13ifvqbt0","pricing_plan_id":"cebpf4jnsgd1na2vs0mg"},{"bike_id":"f229a08a-9237-44f3-870a-72cc9aa4aa81","system_id":"levelo_inurba_marseille","lat":43.27385,"lon":5.36283,"is_reserved":false,"is_disabled":false,"rental_uris":{"android":"levelo://app?vid=f229a08a-9237-44f3-870a-72cc9aa4aa81","ios":"levelo://app?vid=f229a08a-9237-44f3-870a-72cc9aa4aa81"},"vehicle_type_id":"4","last_reported":1743865684,"current_range_meters":8400,"station_id":"ce4bhbh2rcd13ifvqeo0","pricing_plan_id":"cebpf4jnsgd1na2vs0mg"},{"bike_id":"582e8c36-bed4-4d42-9f47-39206acbea2f","system_id":"levelo_inurba_marseille","lat":43.29795,"lon":5.38105,"is_reserved":false,"is_disabled":false,"rental_uris":{"android":"levelo://app?vid=582e8c36-bed4-4d42-9f47-39206acbea2f","ios":"levelo://app?vid=582e8c36-bed4-4d42-9f47-39206acbea2f"},"vehicle_type_id":"4","last_reported":1743865684,"current_range_meters":8800,"station_id":"ce4bgip2rcd13ifvqbb0","pricing_plan_id":"cebpf4jnsgd1na2vs0mg"},{"bike_id":"72a61c0f-712e-48a9-8ede-39c60fc3dc15","system_id":"levelo_inurba_marseille","lat":43.28427,"lon":5.34991,"is_reserved":false,"is_disabled":false,"rental_uris":{"android":"levelo://app?vid=72a61c0f-712e-48a9-8ede-39c60fc3dc15","ios":"levelo://app?vid=72a61c0f-712e-48a9-8ede-39c60fc3dc15"},"vehicle_type_id":"4","last_reported":1743865684,"current_range_meters":8800,"station_id":"ce4bhbh2rcd13ifvqepg","pricing_plan_id":"cebpf4jnsgd1na2vs0mg"},{"bike_id":"f0333dc1-016f-4bc6-ae12-db34eb24cb03","system_id":"levelo_inurba_marseille","lat":43.2603,"lon":5.37558,"is_reserved":false,"is_disabled":false,"rental_uris":{"android":"levelo://app?vid=f0333dc1-016f-4bc6-ae12-db34eb24cb03","ios":"levelo://app?vid=f0333dc1-016f-4bc6-ae12-db34eb24cb03"},"vehicle_type_id":"4","last_reported":1743865684,"current_range_meters":8800,"station_id":"ce4bhgh2rcd13ifvqfa0","pricing_plan_id":"cebpf4jnsgd1na2vs0mg"},{"bike_id":"3b4ad8c6-6244-4378-90d7-dac703d1508d","system_id":"levelo_inurba_marseille","lat":43.23193,"lon":5.35553,"is_reserved":false,"is_disabled":false,"rental_uris":{"android":"levelo://app?vid=3b4ad8c6-6244-4378-90d7-dac703d1508d","ios":"levelo://app?vid=3b4ad8c6-6244-4378-90d7-dac703d1508d"},"vehicle_type_id":"4","last_reported":1743865684,"current_range_meters":8800,"station_id":"ce4bhu92rcd13ifvqi70","pricing_plan_id":"cebpf4jnsgd1na2vs0mg"},{"bike_id":"6b8df6c6-e69f-416d-869f-6c58b572d426","system_id":"levelo_inurba_marseille","lat":43.2319,"lon":5.39979,"is_reserved":false,"is_disabled":false,"rental_uris":{"android":"levelo://app?vid=6b8df6c6-e69f-416d-869f-6c58b572d426","ios":"levelo://app?vid=6b8df6c6-e69f-416d-869f-6c58b572d426"},"vehicle_type_id":"4","last_reported":1743865684,"current_range_meters":8800,"station_id":"ce4bhn12rcd13ifvqgqg","pricing_plan_id":"cebpf4jnsgd1na2vs0mg"},{"bike_id":"cf29d2fd-59aa-4341-a747-c70b3608cf05","system_id":"levelo_inurba_marseille","lat":43.30146,"lon":5.38076,"is_reserved":false,"is_disabled":false,"rental_uris":{"android":"levelo://app?vid=cf29d2fd-59aa-4341-a747-c70b3608cf05","ios":"levelo://app?vid=cf29d2fd-59aa-4341-a747-c70b3608cf05"},"vehicle_type_id":"4","last_reported":1743865684,"current_range_meters":8800,"station_id":"ce4bgjp2rcd13ifvqbh0","pricing_plan_id":"cebpf4jnsgd1na2vs0mg"},{"bike_id":"9a055327-5ba2-482f-b223-d78608155b28","system_id":"levelo_inurba_marseille","lat":43.2842,"lon":5.34995,"is_reserved":false,"is_disabled":false,"rental_uris":{"android":"levelo://app?vid=9a055327-5ba2-482f-b223-d78608155b28","ios":"levelo://app?vid=9a055327-5ba2-482f-b223-d78608155b28"},"vehicle_type_id":"4","last_reported":1743865684,"current_range_meters":8800,"station_id":"ce4bhbh2rcd13ifvqepg","pricing_plan_id":"cebpf4jnsgd1na2vs0mg"},{"bike_id":"0314bab5-7060-4db4-b3f2-12aee6f3ad34","system_id":"levelo_inurba_marseille","lat":43.2306,"lon":5.35495,"is_reserved":false,"is_disabled":false,"rental_uris":{"android":"levelo://app?vid=0314bab5-7060-4db4-b3f2-12aee6f3ad34","ios":"levelo://app?vid=0314bab5-7060-4db4-b3f2-12aee6f3ad34"},"vehicle_type_id":"4","last_reported":1743865684,"current_range_meters":8800,"station_id":"cpo3342slgdg3j2ifvpg","pricing_plan_id":"cebpf4jnsgd1na2vs0mg"},{"bike_id":"fb0d4993-67fa-4314-9525-ef2ba9197c72","system_id":"levelo_inurba_marseille","lat":43.30321,"lon":5.4059,"is_reserved":false,"is_disabled":false,"rental_uris":{"android":"levelo://app?vid=fb0d4993-67fa-4314-9525-ef2ba9197c72","ios":"levelo://app?vid=fb0d4993-67fa-4314-9525-ef2ba9197c72"},"vehicle_type_id":"4","last_reported":1743865684,"current_range_meters":8800,"station_id":"","pricing_plan_id":"cebpf4jnsgd1na2vs0mg"},{"bike_id":"b0cf9caa-172b-4572-8f1d-bfcf6eac9db0","system_id":"levelo_inurba_marseille","lat":43.297974,"lon":5.38087,"is_reserved":false,"is_disabled":false,"rental_uris":{"android":"levelo://app?vid=b0cf9caa-172b-4572-8f1d-bfcf6eac9db0","ios":"levelo://app?vid=b0cf9caa-172b-4572-8f1d-bfcf6eac9db0"},"vehicle_type_id":"4","last_reported":1743865684,"current_range_meters":8800,"station_id":"ce4bgip2rcd13ifvqbb0","pricing_plan_id":"cebpf4jnsgd1na2vs0mg"},{"bike_id":"d68bb49e-ae67-46b9-9113-2f1b9eefff70","system_id":"levelo_inurba_marseille","lat":43.32009,"lon":5.38154,"is_reserved":false,"is_disabled":false,"rental_uris":{"android":"levelo://app?vid=d68bb49e-ae67-46b9-9113-2f1b9eefff70","ios":"levelo://app?vid=d68bb49e-ae67-46b9-9113-2f1b9eefff70"},"vehicle_type_id":"4","last_reported":1743865684,"current_range_meters":8800,"station_id":"ce4bhr12rcd13ifvqhpg","pricing_plan_id":"cebpf4jnsgd1na2vs0mg"},{"bike_id":"7947ef89-7966-48e7-95e6-645f403436b0","system_id":"levelo_inurba_marseille","lat":43.2736,"lon":5.36258,"is_reserved":false,"is_disabled":false,"rental_uris":{"android":"levelo://app?vid=7947ef89-7966-48e7-95e6-645f403436b0","ios":"levelo://app?vid=7947ef89-7966-48e7-95e6-645f403436b0"},"vehicle_type_id":"4","last_reported":1743865684,"current_range_meters":8800,"station_id":"ce4bhbh2rcd13ifvqeo0","pricing_plan_id":"cebpf4jnsgd1na2vs0mg"},{"bike_id":"546eb10f-a67a-4d0e-aff4-5d6802734e7f","system_id":"levelo_inurba_marseille","lat":43.30353,"lon":5.41882,"is_reserved":false,"is_disabled":false,"rental_uris":{"android":"levelo://app?vid=546eb10f-a67a-4d0e-aff4-5d6802734e7f","ios":"levelo://app?vid=546eb10f-a67a-4d0e-aff4-5d6802734e7f"},"vehicle_type_id":"4","last_reported":1743865684,"current_range_meters":8800,"station_id":"ce4bhop2rcd13ifvqh7g","pricing_plan_id":"cebpf4jnsgd1na2vs0mg"},{"bike_id":"ff7ec03b-9cbc-499a-8768-56d604a1a82b","system_id":"levelo_inurba_marseille","lat":43.241715,"lon":5.363957,"is_reserved":false,"is_disabled":false,"rental_uris":{"android":"levelo://app?vid=ff7ec03b-9cbc-499a-8768-56d604a1a82b","ios":"levelo://app?vid=ff7ec03b-9cbc-499a-8768-56d604a1a82b"},"vehicle_type_id":"4","last_reported":1743865684,"current_range_meters":9200,"station_id":"cpo36qri1sfpv3e86is0","pricing_plan_id":"cebpf4jnsgd1na2vs0mg"},{"bike_id":"be90388b-b79c-4471-9a29-aa2b57138f38","system_id":"levelo_inurba_marseille","lat":43.23961,"lon":5.3664,"is_reserved":false,"is_disabled":false,"rental_uris":{"android":"levelo://app?vid=be90388b-b79c-4471-9a29-aa2b57138f38","ios":"levelo://app?vid=be90388b-b79c-4471-9a29-aa2b57138f38"},"vehicle_type_id":"4","last_reported":1743865684,"current_range_meters":9200,"station_id":"ce4bhi12rcd13ifvqfp0","pricing_plan_id":"cebpf4jnsgd1na2vs0mg"},{"bike_id":"ce7f3b6d-def9-4f1d-bc38-50037dc4e00e","system_id":"levelo_inurba_marseille","lat":43.295992,"lon":5.381036,"is_reserved":false,"is_disabled":false,"rental_uris":{"android":"levelo://app?vid=ce7f3b6d-def9-4f1d-bc38-50037dc4e00e","ios":"levelo://app?vid=ce7f3b6d-def9-4f1d-bc38-50037dc4e00e"},"vehicle_type_id":"4","last_reported":1743865684,"current_range_meters":8800,"station_id":"ce4bhh92rcd13ifvqfj0","pricing_plan_id":"cebpf4jnsgd1na2vs0mg"},{"bike_id":"36b40002-a941-4025-8496-6f64ad8c3f60","system_id":"levelo_inurba_marseille","lat":43.23192,"lon":5.39973,"is_reserved":false,"is_disabled":false,"rental_uris":{"android":"levelo://app?vid=36b40002-a941-4025-8496-6f64ad8c3f60","ios":"levelo://app?vid=36b40002-a941-4025-8496-6f64ad8c3f60"},"vehicle_type_id":"4","last_reported":1743865684,"current_range_meters":9200,"station_id":"ce4bhn12rcd13ifvqgqg","pricing_plan_id":"cebpf4jnsgd1na2vs0mg"},{"bike_id":"5deace9a-efc4-401d-b841-20d614476e03","system_id":"levelo_inurba_marseille","lat":43.26198,"lon":5.37935,"is_reserved":false,"is_disabled":false,"rental_uris":{"android":"levelo://app?vid=5deace9a-efc4-401d-b841-20d614476e03","ios":"levelo://app?vid=5deace9a-efc4-401d-b841-20d614476e03"},"vehicle_type_id":"4","last_reported":1743865684,"current_range_meters":9200,"station_id":"ce4bhjp2rcd13ifvqg90","pricing_plan_id":"cebpf4jnsgd1na2vs0mg"},{"bike_id":"ac7a85da-6a1d-42f4-b3e0-decaec458451","system_id":"levelo_inurba_marseille","lat":43.22925,"lon":5.35376,"is_reserved":false,"is_disabled":true,"rental_uris":{"android":"levelo://app?vid=ac7a85da-6a1d-42f4-b3e0-decaec458451","ios":"levelo://app?vid=ac7a85da-6a1d-42f4-b3e0-decaec458451"},"vehicle_type_id":"4","last_reported":1743865684,"current_range_meters":9200,"station_id":"cpo3532slgdg3j2ikp40","pricing_plan_id":"cebpf4jnsgd1na2vs0mg"},{"bike_id":"9444e92d-22b8-4140-882d-645730b9468f","system_id":"levelo_inurba_marseille","lat":43.23195,"lon":5.35554,"is_reserved":false,"is_disabled":false,"rental_uris":{"android":"levelo://app?vid=9444e92d-22b8-4140-882d-645730b9468f","ios":"levelo://app?vid=9444e92d-22b8-4140-882d-645730b9468f"},"vehicle_type_id":"4","last_reported":1743865684,"current_range_meters":9200,"station_id":"ce4bhu92rcd13ifvqi70","pricing_plan_id":"cebpf4jnsgd1na2vs0mg"},{"bike_id":"6f82e887-d39d-46d6-99a9-a7f2d3eb2337","system_id":"levelo_inurba_marseille","lat":43.225006,"lon":5.347889,"is_reserved":false,"is_disabled":false,"rental_uris":{"android":"levelo://app?vid=6f82e887-d39d-46d6-99a9-a7f2d3eb2337","ios":"levelo://app?vid=6f82e887-d39d-46d6-99a9-a7f2d3eb2337"},"vehicle_type_id":"4","last_reported":1743865684,"current_range_meters":9200,"station_id":"ce4bhbp2rcd13ifvqerg","pricing_plan_id":"cebpf4jnsgd1na2vs0mg"},{"bike_id":"b82ececc-9628-439b-ac73-9a3c3097ddf8","system_id":"levelo_inurba_marseille","lat":43.28412,"lon":5.34995,"is_reserved":false,"is_disabled":false,"rental_uris":{"android":"levelo://app?vid=b82ececc-9628-439b-ac73-9a3c3097ddf8","ios":"levelo://app?vid=b82ececc-9628-439b-ac73-9a3c3097ddf8"},"vehicle_type_id":"4","last_reported":1743865684,"current_range_meters":9200,"station_id":"ce4bhbh2rcd13ifvqepg","pricing_plan_id":"cebpf4jnsgd1na2vs0mg"},{"bike_id":"b09bec9d-c290-4a39-8cd4-69697c4c17eb","system_id":"levelo_inurba_marseille","lat":43.28415,"lon":5.3498,"is_reserved":false,"is_disabled":false,"rental_uris":{"android":"levelo://app?vid=b09bec9d-c290-4a39-8cd4-69697c4c17eb","ios":"levelo://app?vid=b09bec9d-c290-4a39-8cd4-69697c4c17eb"},"vehicle_type_id":"4","last_reported":1743865684,"current_range_meters":9200,"station_id":"ce4bhbh2rcd13ifvqepg","pricing_plan_id":"cebpf4jnsgd1na2vs0mg"},{"bike_id":"537aed99-1427-4e96-b363-b24ec033cef1","system_id":"levelo_inurba_marseille","lat":43.29983,"lon":5.37173,"is_reserved":false,"is_disabled":false,"rental_uris":{"android":"levelo://app?vid=537aed99-1427-4e96-b363-b24ec033cef1","ios":"levelo://app?vid=537aed99-1427-4e96-b363-b24ec033cef1"},"vehicle_type_id":"4","last_reported":1743865684,"current_range_meters":9600,"station_id":"ce4bgr92rcd13ifvqc7g","pricing_plan_id":"cebpf4jnsgd1na2vs0mg"},{"bike_id":"eb79d1f9-7c91-4ea2-b5f8-796189743e1a","system_id":"levelo_inurba_marseille","lat":43.33733,"lon":5.39187,"is_reserved":false,"is_disabled":false,"rental_uris":{"android":"levelo://app?vid=eb79d1f9-7c91-4ea2-b5f8-796189743e1a","ios":"levelo://app?vid=eb79d1f9-7c91-4ea2-b5f8-796189743e1a"},"vehicle_type_id":"4","last_reported":1743865684,"current_range_meters":9600,"station_id":"ce4bhr92rcd13ifvqhsg","pricing_plan_id":"cebpf4jnsgd1na2vs0mg"},{"bike_id":"d4b0314a-c0ee-4421-ac55-754c84c82a85","system_id":"levelo_inurba_marseille","lat":43.21198,"lon":5.35074,"is_reserved":false,"is_disabled":false,"rental_uris":{"android":"levelo://app?vid=d4b0314a-c0ee-4421-ac55-754c84c82a85","ios":"levelo://app?vid=d4b0314a-c0ee-4421-ac55-754c84c82a85"},"vehicle_type_id":"4","last_reported":1743865684,"current_range_meters":9600,"station_id":"st_cvj6sg6p6f1abm77japg","pricing_plan_id":"cebpf4jnsgd1na2vs0mg"},{"bike_id":"8556af88-daaf-42e0-b67a-04f02050beb0","system_id":"levelo_inurba_marseille","lat":43.27371,"lon":5.3625,"is_reserved":false,"is_disabled":false,"rental_uris":{"android":"levelo://app?vid=8556af88-daaf-42e0-b67a-04f02050beb0","ios":"levelo://app?vid=8556af88-daaf-42e0-b67a-04f02050beb0"},"vehicle_type_id":"4","last_reported":1743865684,"current_range_meters":9600,"station_id":"ce4bhbh2rcd13ifvqeo0","pricing_plan_id":"cebpf4jnsgd1na2vs0mg"},{"bike_id":"237609e2-dd34-4a85-8815-355368c4cd05","system_id":"levelo_inurba_marseille","lat":43.32479,"lon":5.36565,"is_reserved":false,"is_disabled":false,"rental_uris":{"android":"levelo://app?vid=237609e2-dd34-4a85-8815-355368c4cd05","ios":"levelo://app?vid=237609e2-dd34-4a85-8815-355368c4cd05"},"vehicle_type_id":"4","last_reported":1743865684,"current_range_meters":9600,"station_id":"ce4bhs12rcd13ifvqhvg","pricing_plan_id":"cebpf4jnsgd1na2vs0mg"},{"bike_id":"d89bb348-a2b2-475f-b66f-22fe74c882fd","system_id":"levelo_inurba_marseille","lat":43.23194,"lon":5.39976,"is_reserved":false,"is_disabled":false,"rental_uris":{"android":"levelo://app?vid=d89bb348-a2b2-475f-b66f-22fe74c882fd","ios":"levelo://app?vid=d89bb348-a2b2-475f-b66f-22fe74c882fd"},"vehicle_type_id":"4","last_reported":1743865684,"current_range_meters":9600,"station_id":"ce4bhn12rcd13ifvqgqg","pricing_plan_id":"cebpf4jnsgd1na2vs0mg"},{"bike_id":"fdad6e5e-1467-4616-9d72-68b29d343e00","system_id":"levelo_inurba_marseille","lat":43.3229,"lon":5.38274,"is_reserved":false,"is_disabled":false,"rental_uris":{"android":"levelo://app?vid=fdad6e5e-1467-4616-9d72-68b29d343e00","ios":"levelo://app?vid=fdad6e5e-1467-4616-9d72-68b29d343e00"},"vehicle_type_id":"4","last_reported":1743865684,"current_range_meters":9600,"station_id":"ce4bhr12rcd13ifvqhqg","pricing_plan_id":"cebpf4jnsgd1na2vs0mg"},{"bike_id":"aecd6db3-bfd0-4f56-bdfc-31c4a713e16f","system_id":"levelo_inurba_marseille","lat":43.28272,"lon":5.35075,"is_reserved":false,"is_disabled":false,"rental_uris":{"android":"levelo://app?vid=aecd6db3-bfd0-4f56-bdfc-31c4a713e16f","ios":"levelo://app?vid=aecd6db3-bfd0-4f56-bdfc-31c4a713e16f"},"vehicle_type_id":"4","last_reported":1743865684,"current_range_meters":9600,"station_id":"ce4bhbp2rcd13ifvqerg","pricing_plan_id":"cebpf4jnsgd1na2vs0mg"},{"bike_id":"310cf25c-6b50-4e0e-b783-6d931222ba8d","system_id":"levelo_inurba_marseille","lat":43.27999,"lon":5.41665,"is_reserved":false,"is_disabled":false,"rental_uris":{"android":"levelo://app?vid=310cf25c-6b50-4e0e-b783-6d931222ba8d","ios":"levelo://app?vid=310cf25c-6b50-4e0e-b783-6d931222ba8d"},"vehicle_type_id":"4","last_reported":1743865684,"current_range_meters":9600,"station_id":"ce4bho12rcd13ifvqh1g","pricing_plan_id":"cebpf4jnsgd1na2vs0mg"},{"bike_id":"30748b14-6ebd-4673-b458-0df365106ebd","system_id":"levelo_inurba_marseille","lat":43.28631,"lon":5.35102,"is_reserved":false,"is_disabled":false,"rental_uris":{"android":"levelo://app?vid=30748b14-6ebd-4673-b458-0df365106ebd","ios":"levelo://app?vid=30748b14-6ebd-4673-b458-0df365106ebd"},"vehicle_type_id":"4","last_reported":1743865684,"current_range_meters":9600,"station_id":"ce4bhch2rcd13ifvqeug","pricing_plan_id":"cebpf4jnsgd1na2vs0mg"},{"bike_id":"8e8105ce-63e2-4441-9ebe-d6a09a08a22e","system_id":"levelo_inurba_marseille","lat":43.29609,"lon":5.36183,"is_reserved":false,"is_disabled":false,"rental_uris":{"android":"levelo://app?vid=8e8105ce-63e2-4441-9ebe-d6a09a08a22e","ios":"levelo://app?vid=8e8105ce-63e2-4441-9ebe-d6a09a08a22e"},"vehicle_type_id":"4","last_reported":1743865684,"current_range_meters":9600,"station_id":"","pricing_plan_id":"cebpf4jnsgd1na2vs0mg"},{"bike_id":"cfadcf3b-b51c-41ae-803d-f6f025883f8b","system_id":"levelo_inurba_marseille","lat":43.29785,"lon":5.39342,"is_reserved":false,"is_disabled":false,"rental_uris":{"android":"levelo://app?vid=cfadcf3b-b51c-41ae-803d-f6f025883f8b","ios":"levelo://app?vid=cfadcf3b-b51c-41ae-803d-f6f025883f8b"},"vehicle_type_id":"4","last_reported":1743865684,"current_range_meters":9600,"station_id":"chh1huq6cuj3fo74tm60","pricing_plan_id":"cebpf4jnsgd1na2vs0mg"},{"bike_id":"14d24ed7-cea7-43de-94b5-d3ed5551437a","system_id":"levelo_inurba_marseille","lat":43.23061,"lon":5.35495,"is_reserved":false,"is_disabled":false,"rental_uris":{"android":"levelo://app?vid=14d24ed7-cea7-43de-94b5-d3ed5551437a","ios":"levelo://app?vid=14d24ed7-cea7-43de-94b5-d3ed5551437a"},"vehicle_type_id":"4","last_reported":1743865684,"current_range_meters":9600,"station_id":"cpo3342slgdg3j2ifvpg","pricing_plan_id":"cebpf4jnsgd1na2vs0mg"},{"bike_id":"fe8abb4d-6551-489f-9549-73fcda15cdff","system_id":"levelo_inurba_marseille","lat":43.23061,"lon":5.35489,"is_reserved":false,"is_disabled":false,"rental_uris":{"android":"levelo://app?vid=fe8abb4d-6551-489f-9549-73fcda15cdff","ios":"levelo://app?vid=fe8abb4d-6551-489f-9549-73fcda15cdff"},"vehicle_type_id":"4","last_reported":1743865684,"current_range_meters":9600,"station_id":"cpo3342slgdg3j2ifvpg","pricing_plan_id":"cebpf4jnsgd1na2vs0mg"},{"bike_id":"80f08235-b306-4bd0-916b-91213dcec3f4","system_id":"levelo_inurba_marseille","lat":43.24165,"lon":5.36394,"is_reserved":false,"is_disabled":false,"rental_uris":{"android":"levelo://app?vid=80f08235-b306-4bd0-916b-91213dcec3f4","ios":"levelo://app?vid=80f08235-b306-4bd0-916b-91213dcec3f4"},"vehicle_type_id":"4","last_reported":1743865684,"current_range_meters":9600,"station_id":"cpo36qri1sfpv3e86is0","pricing_plan_id":"cebpf4jnsgd1na2vs0mg"},{"bike_id":"d56a49c2-1617-44e2-ad81-3daf96ba9d03","system_id":"levelo_inurba_marseille","lat":43.28612,"lon":5.35106,"is_reserved":false,"is_disabled":false,"rental_uris":{"android":"levelo://app?vid=d56a49c2-1617-44e2-ad81-3daf96ba9d03","ios":"levelo://app?vid=d56a49c2-1617-44e2-ad81-3daf96ba9d03"},"vehicle_type_id":"4","last_reported":1743865684,"current_range_meters":10000,"station_id":"ce4bhch2rcd13ifvqeug","pricing_plan_id":"cebpf4jnsgd1na2vs0mg"},{"bike_id":"f106cf8b-f5a0-489a-b425-5e3896bac612","system_id":"levelo_inurba_marseille","lat":43.30551,"lon":5.365267,"is_reserved":false,"is_disabled":false,"rental_uris":{"android":"levelo://app?vid=f106cf8b-f5a0-489a-b425-5e3896bac612","ios":"levelo://app?vid=f106cf8b-f5a0-489a-b425-5e3896bac612"},"vehicle_type_id":"4","last_reported":1743865684,"current_range_meters":10000,"station_id":"ce4bgs12rcd13ifvqcag","pricing_plan_id":"cebpf4jnsgd1na2vs0mg"},{"bike_id":"bb9bc54b-a35e-4e50-8447-1bfc8a9758ca","system_id":"levelo_inurba_marseille","lat":43.2732,"lon":5.39073,"is_reserved":false,"is_disabled":false,"rental_uris":{"android":"levelo://app?vid=bb9bc54b-a35e-4e50-8447-1bfc8a9758ca","ios":"levelo://app?vid=bb9bc54b-a35e-4e50-8447-1bfc8a9758ca"},"vehicle_type_id":"4","last_reported":1743865684,"current_range_meters":10000,"station_id":"ce4bhgp2rcd13ifvqfe0","pricing_plan_id":"cebpf4jnsgd1na2vs0mg"},{"bike_id":"6cc4f403-6c3a-449d-9a5a-281aabbe96a8","system_id":"levelo_inurba_marseille","lat":43.25,"lon":5.38912,"is_reserved":false,"is_disabled":false,"rental_uris":{"android":"levelo://app?vid=6cc4f403-6c3a-449d-9a5a-281aabbe96a8","ios":"levelo://app?vid=6cc4f403-6c3a-449d-9a5a-281aabbe96a8"},"vehicle_type_id":"4","last_reported":1743865684,"current_range_meters":10000,"station_id":"ce4bhgp2rcd13ifvqfd0","pricing_plan_id":"cebpf4jnsgd1na2vs0mg"},{"bike_id":"ec1d3458-0a90-4120-8a34-a42a38cc7495","system_id":"levelo_inurba_marseille","lat":43.28421,"lon":5.34985,"is_reserved":false,"is_disabled":false,"rental_uris":{"android":"levelo://app?vid=ec1d3458-0a90-4120-8a34-a42a38cc7495","ios":"levelo://app?vid=ec1d3458-0a90-4120-8a34-a42a38cc7495"},"vehicle_type_id":"4","last_reported":1743865684,"current_range_meters":10000,"station_id":"ce4bhbh2rcd13ifvqepg","pricing_plan_id":"cebpf4jnsgd1na2vs0mg"},{"bike_id":"d88f0a4c-e811-431d-b2a1-0b216e0c96e8","system_id":"levelo_inurba_marseille","lat":43.29195,"lon":5.35799,"is_reserved":false,"is_disabled":false,"rental_uris":{"android":"levelo://app?vid=d88f0a4c-e811-431d-b2a1-0b216e0c96e8","ios":"levelo://app?vid=d88f0a4c-e811-431d-b2a1-0b216e0c96e8"},"vehicle_type_id":"4","last_reported":1743865684,"current_range_meters":10000,"station_id":"ce4bhb12rcd13ifvqel0","pricing_plan_id":"cebpf4jnsgd1na2vs0mg"},{"bike_id":"604b1c28-62a6-4ac5-9cbd-b7cca364e5ce","system_id":"levelo_inurba_marseille","lat":43.28363,"lon":5.38102,"is_reserved":false,"is_disabled":false,"rental_uris":{"android":"levelo://app?vid=604b1c28-62a6-4ac5-9cbd-b7cca364e5ce","ios":"levelo://app?vid=604b1c28-62a6-4ac5-9cbd-b7cca364e5ce"},"vehicle_type_id":"4","last_reported":1743865684,"current_range_meters":10000,"station_id":"ce4bh412rcd13ifvqdr0","pricing_plan_id":"cebpf4jnsgd1na2vs0mg"},{"bike_id":"e5745adb-babf-4de2-9937-0bce596c85a4","system_id":"levelo_inurba_marseille","lat":43.30545,"lon":5.36538,"is_reserved":false,"is_disabled":false,"rental_uris":{"android":"levelo://app?vid=e5745adb-babf-4de2-9937-0bce596c85a4","ios":"levelo://app?vid=e5745adb-babf-4de2-9937-0bce596c85a4"},"vehicle_type_id":"4","last_reported":1743865684,"current_range_meters":10000,"station_id":"ce4bgs12rcd13ifvqcag","pricing_plan_id":"cebpf4jnsgd1na2vs0mg"},{"bike_id":"c30f802a-9d70-474a-a9aa-6970c7362d07","system_id":"levelo_inurba_marseille","lat":43.28141,"lon":5.42634,"is_reserved":false,"is_disabled":false,"rental_uris":{"android":"levelo://app?vid=c30f802a-9d70-474a-a9aa-6970c7362d07","ios":"levelo://app?vid=c30f802a-9d70-474a-a9aa-6970c7362d07"},"vehicle_type_id":"4","last_reported":1743865684,"current_range_meters":10000,"station_id":"ce4bhnh2rcd13ifvqgug","pricing_plan_id":"cebpf4jnsgd1na2vs0mg"},{"bike_id":"d5e984d3-343e-4e16-bd54-bc3ebbd48639","system_id":"levelo_inurba_marseille","lat":43.30129,"lon":5.38792,"is_reserved":false,"is_disabled":true,"rental_uris":{"android":"levelo://app?vid=d5e984d3-343e-4e16-bd54-bc3ebbd48639","ios":"levelo://app?vid=d5e984d3-343e-4e16-bd54-bc3ebbd48639"},"vehicle_type_id":"4","last_reported":1743865684,"current_range_meters":10800,"station_id":"ce4bghh2rcd13ifvqb60","pricing_plan_id":"cebpf4jnsgd1na2vs0mg"},{"bike_id":"a20172c3-b8d9-40d0-8adf-95ad9d3c4f7c","system_id":"levelo_inurba_marseille","lat":43.21197,"lon":5.35071,"is_reserved":false,"is_disabled":false,"rental_uris":{"android":"levelo://app?vid=a20172c3-b8d9-40d0-8adf-95ad9d3c4f7c","ios":"levelo://app?vid=a20172c3-b8d9-40d0-8adf-95ad9d3c4f7c"},"vehicle_type_id":"4","last_reported":1743865684,"current_range_meters":10800,"station_id":"st_cvj6sg6p6f1abm77japg","pricing_plan_id":"cebpf4jnsgd1na2vs0mg"},{"bike_id":"04bc4fca-e644-4d9b-a729-a6f469715855","system_id":"levelo_inurba_marseille","lat":43.30888,"lon":5.39663,"is_reserved":false,"is_disabled":false,"rental_uris":{"android":"levelo://app?vid=04bc4fca-e644-4d9b-a729-a6f469715855","ios":"levelo://app?vid=04bc4fca-e644-4d9b-a729-a6f469715855"},"vehicle_type_id":"4","last_reported":1743865684,"current_range_meters":10000,"station_id":"ce4bh012rcd13ifvqcv0","pricing_plan_id":"cebpf4jnsgd1na2vs0mg"},{"bike_id":"f17a8ecc-e6a6-4ff0-87dd-6f1b580ae80d","system_id":"levelo_inurba_marseille","lat":43.26199,"lon":5.37937,"is_reserved":false,"is_disabled":false,"rental_uris":{"android":"levelo://app?vid=f17a8ecc-e6a6-4ff0-87dd-6f1b580ae80d","ios":"levelo://app?vid=f17a8ecc-e6a6-4ff0-87dd-6f1b580ae80d"},"vehicle_type_id":"4","last_reported":1743865684,"current_range_meters":10800,"station_id":"ce4bhjp2rcd13ifvqg90","pricing_plan_id":"cebpf4jnsgd1na2vs0mg"},{"bike_id":"f24a394a-266f-4198-804d-8e0e669141cd","system_id":"levelo_inurba_marseille","lat":43.23184,"lon":5.35558,"is_reserved":false,"is_disabled":false,"rental_uris":{"android":"levelo://app?vid=f24a394a-266f-4198-804d-8e0e669141cd","ios":"levelo://app?vid=f24a394a-266f-4198-804d-8e0e669141cd"},"vehicle_type_id":"4","last_reported":1743865684,"current_range_meters":10800,"station_id":"ce4bhu92rcd13ifvqi70","pricing_plan_id":"cebpf4jnsgd1na2vs0mg"},{"bike_id":"bdda9346-28ea-475d-892f-0de842bf0ff2","system_id":"levelo_inurba_marseille","lat":43.225037,"lon":5.347927,"is_reserved":false,"is_disabled":false,"rental_uris":{"android":"levelo://app?vid=bdda9346-28ea-475d-892f-0de842bf0ff2","ios":"levelo://app?vid=bdda9346-28ea-475d-892f-0de842bf0ff2"},"vehicle_type_id":"4","last_reported":1743865684,"current_range_meters":10800,"station_id":"st_cvj5dfep6f1abm77gieg","pricing_plan_id":"cebpf4jnsgd1na2vs0mg"},{"bike_id":"48c00eb2-4763-4e26-b062-0ef4d38eed1e","system_id":"levelo_inurba_marseille","lat":43.30133,"lon":5.39865,"is_reserved":false,"is_disabled":false,"rental_uris":{"android":"levelo://app?vid=48c00eb2-4763-4e26-b062-0ef4d38eed1e","ios":"levelo://app?vid=48c00eb2-4763-4e26-b062-0ef4d38eed1e"},"vehicle_type_id":"4","last_reported":1743865684,"current_range_meters":10800,"station_id":"ce4bh0h2rcd13ifvqd40","pricing_plan_id":"cebpf4jnsgd1na2vs0mg"},{"bike_id":"194eb7ca-d837-42fe-b4d4-cbbcb93137d4","system_id":"levelo_inurba_marseille","lat":43.28619,"lon":5.35106,"is_reserved":false,"is_disabled":false,"rental_uris":{"android":"levelo://app?vid=194eb7ca-d837-42fe-b4d4-cbbcb93137d4","ios":"levelo://app?vid=194eb7ca-d837-42fe-b4d4-cbbcb93137d4"},"vehicle_type_id":"4","last_reported":1743865684,"current_range_meters":10800,"station_id":"ce4bhch2rcd13ifvqeug","pricing_plan_id":"cebpf4jnsgd1na2vs0mg"},{"bike_id":"30b57730-cb66-4122-bd93-7dabcaba84e7","system_id":"levelo_inurba_marseille","lat":43.24915,"lon":5.40676,"is_reserved":false,"is_disabled":false,"rental_uris":{"android":"levelo://app?vid=30b57730-cb66-4122-bd93-7dabcaba84e7","ios":"levelo://app?vid=30b57730-cb66-4122-bd93-7dabcaba84e7"},"vehicle_type_id":"4","last_reported":1743865684,"current_range_meters":10800,"station_id":"","pricing_plan_id":"cebpf4jnsgd1na2vs0mg"},{"bike_id":"ac2ab547-c1fd-4abe-b352-d4ded3160820","system_id":"levelo_inurba_marseille","lat":43.28408,"lon":5.34992,"is_reserved":false,"is_disabled":false,"rental_uris":{"android":"levelo://app?vid=ac2ab547-c1fd-4abe-b352-d4ded3160820","ios":"levelo://app?vid=ac2ab547-c1fd-4abe-b352-d4ded3160820"},"vehicle_type_id":"4","last_reported":1743865684,"current_range_meters":10800,"station_id":"ce4bhbh2rcd13ifvqepg","pricing_plan_id":"cebpf4jnsgd1na2vs0mg"},{"bike_id":"94c48813-3e93-48a1-90df-ccc4fc52bd8d","system_id":"levelo_inurba_marseille","lat":43.272919,"lon":5.390712,"is_reserved":false,"is_disabled":false,"rental_uris":{"android":"levelo://app?vid=94c48813-3e93-48a1-90df-ccc4fc52bd8d","ios":"levelo://app?vid=94c48813-3e93-48a1-90df-ccc4fc52bd8d"},"vehicle_type_id":"4","last_reported":1743865684,"current_range_meters":10800,"station_id":"ce4bhgp2rcd13ifvqfe0","pricing_plan_id":"cebpf4jnsgd1na2vs0mg"},{"bike_id":"606ab72d-61cd-4340-a8bc-296c8122d4a0","system_id":"levelo_inurba_marseille","lat":43.21189,"lon":5.35082,"is_reserved":false,"is_disabled":false,"rental_uris":{"android":"levelo://app?vid=606ab72d-61cd-4340-a8bc-296c8122d4a0","ios":"levelo://app?vid=606ab72d-61cd-4340-a8bc-296c8122d4a0"},"vehicle_type_id":"4","last_reported":1743865684,"current_range_meters":11200,"station_id":"st_cvj6sg6p6f1abm77japg","pricing_plan_id":"cebpf4jnsgd1na2vs0mg"},{"bike_id":"db29433a-c7f6-40d6-b0e1-3a1f0abf15ab","system_id":"levelo_inurba_marseille","lat":43.241712,"lon":5.364041,"is_reserved":false,"is_disabled":true,"rental_uris":{"android":"levelo://app?vid=db29433a-c7f6-40d6-b0e1-3a1f0abf15ab","ios":"levelo://app?vid=db29433a-c7f6-40d6-b0e1-3a1f0abf15ab"},"vehicle_type_id":"4","last_reported":1743865684,"current_range_meters":11200,"station_id":"ce4bh412rcd13ifvqdr0","pricing_plan_id":"cebpf4jnsgd1na2vs0mg"},{"bike_id":"7e36a2ea-0d4e-4ded-8bd1-8d8163c6aaa2","system_id":"levelo_inurba_marseille","lat":43.26061,"lon":5.39395,"is_reserved":false,"is_disabled":false,"rental_uris":{"android":"levelo://app?vid=7e36a2ea-0d4e-4ded-8bd1-8d8163c6aaa2","ios":"levelo://app?vid=7e36a2ea-0d4e-4ded-8bd1-8d8163c6aaa2"},"vehicle_type_id":"4","last_reported":1743865684,"current_range_meters":11200,"station_id":"ce4bhh92rcd13ifvqfj0","pricing_plan_id":"cebpf4jnsgd1na2vs0mg"},{"bike_id":"4de59fa9-d633-4533-9fce-dff890560a88","system_id":"levelo_inurba_marseille","lat":43.28411,"lon":5.34997,"is_reserved":false,"is_disabled":false,"rental_uris":{"android":"levelo://app?vid=4de59fa9-d633-4533-9fce-dff890560a88","ios":"levelo://app?vid=4de59fa9-d633-4533-9fce-dff890560a88"},"vehicle_type_id":"4","last_reported":1743865684,"current_range_meters":11200,"station_id":"ce4bhbh2rcd13ifvqepg","pricing_plan_id":"cebpf4jnsgd1na2vs0mg"},{"bike_id":"d1d840db-2b6e-4559-b45f-b65cabb26600","system_id":"levelo_inurba_marseille","lat":43.29621,"lon":5.3717,"is_reserved":false,"is_disabled":false,"rental_uris":{"android":"levelo://app?vid=d1d840db-2b6e-4559-b45f-b65cabb26600","ios":"levelo://app?vid=d1d840db-2b6e-4559-b45f-b65cabb26600"},"vehicle_type_id":"4","last_reported":1743865684,"current_range_meters":11200,"station_id":"ce4bgnh2rcd13ifvqc0g","pricing_plan_id":"cebpf4jnsgd1na2vs0mg"},{"bike_id":"5cf90792-145b-43ed-b60d-9d6ec07c952d","system_id":"levelo_inurba_marseille","lat":43.27373,"lon":5.36258,"is_reserved":false,"is_disabled":false,"rental_uris":{"android":"levelo://app?vid=5cf90792-145b-43ed-b60d-9d6ec07c952d","ios":"levelo://app?vid=5cf90792-145b-43ed-b60d-9d6ec07c952d"},"vehicle_type_id":"4","last_reported":1743865684,"current_range_meters":11200,"station_id":"ce4bhbh2rcd13ifvqeo0","pricing_plan_id":"cebpf4jnsgd1na2vs0mg"},{"bike_id":"3b02e95e-4fb0-4ffc-955e-eb811d3e93dd","system_id":"levelo_inurba_marseille","lat":43.22921,"lon":5.35381,"is_reserved":false,"is_disabled":false,"rental_uris":{"android":"levelo://app?vid=3b02e95e-4fb0-4ffc-955e-eb811d3e93dd","ios":"levelo://app?vid=3b02e95e-4fb0-4ffc-955e-eb811d3e93dd"},"vehicle_type_id":"4","last_reported":1743865684,"current_range_meters":11200,"station_id":"cpo3532slgdg3j2ikp40","pricing_plan_id":"cebpf4jnsgd1na2vs0mg"},{"bike_id":"7a935817-47e2-4cb3-8324-a647fdf3a140","system_id":"levelo_inurba_marseille","lat":43.29529,"lon":5.38552,"is_reserved":false,"is_disabled":true,"rental_uris":{"android":"levelo://app?vid=7a935817-47e2-4cb3-8324-a647fdf3a140","ios":"levelo://app?vid=7a935817-47e2-4cb3-8324-a647fdf3a140"},"vehicle_type_id":"4","last_reported":1743865684,"current_range_meters":11200,"station_id":"ce4bgih2rcd13ifvqba0","pricing_plan_id":"cebpf4jnsgd1na2vs0mg"},{"bike_id":"aae9d3f7-de2c-4609-8c94-39a483a1e324","system_id":"levelo_inurba_marseille","lat":43.26029,"lon":5.37551,"is_reserved":false,"is_disabled":false,"rental_uris":{"android":"levelo://app?vid=aae9d3f7-de2c-4609-8c94-39a483a1e324","ios":"levelo://app?vid=aae9d3f7-de2c-4609-8c94-39a483a1e324"},"vehicle_type_id":"4","last_reported":1743865684,"current_range_meters":11200,"station_id":"ce4bhgh2rcd13ifvqfa0","pricing_plan_id":"cebpf4jnsgd1na2vs0mg"},{"bike_id":"c7643979-9ece-4372-b68c-2d9a4e876f66","system_id":"levelo_inurba_marseille","lat":43.22502,"lon":5.34778,"is_reserved":false,"is_disabled":false,"rental_uris":{"android":"levelo://app?vid=c7643979-9ece-4372-b68c-2d9a4e876f66","ios":"levelo://app?vid=c7643979-9ece-4372-b68c-2d9a4e876f66"},"vehicle_type_id":"4","last_reported":1743865684,"current_range_meters":11200,"station_id":"st_cvj5dfep6f1abm77gieg","pricing_plan_id":"cebpf4jnsgd1na2vs0mg"},{"bike_id":"c65e5b3a-123c-4c56-9f0b-f272ac9ede2e","system_id":"levelo_inurba_marseille","lat":43.31757,"lon":5.39017,"is_reserved":false,"is_disabled":false,"rental_uris":{"android":"levelo://app?vid=c65e5b3a-123c-4c56-9f0b-f272ac9ede2e","ios":"levelo://app?vid=c65e5b3a-123c-4c56-9f0b-f272ac9ede2e"},"vehicle_type_id":"4","last_reported":1743865684,"current_range_meters":10800,"station_id":"ce4bhqp2rcd13ifvqhng","pricing_plan_id":"cebpf4jnsgd1na2vs0mg"},{"bike_id":"49893cc6-000c-4e13-94e0-be7f519d7d21","system_id":"levelo_inurba_marseille","lat":43.24166,"lon":5.36391,"is_reserved":false,"is_disabled":false,"rental_uris":{"android":"levelo://app?vid=49893cc6-000c-4e13-94e0-be7f519d7d21","ios":"levelo://app?vid=49893cc6-000c-4e13-94e0-be7f519d7d21"},"vehicle_type_id":"4","last_reported":1743865684,"current_range_meters":11600,"station_id":"cpo36qri1sfpv3e86is0","pricing_plan_id":"cebpf4jnsgd1na2vs0mg"},{"bike_id":"a904c70b-4553-459b-a21b-8e3b8a68efd3","system_id":"levelo_inurba_marseille","lat":43.26558,"lon":5.37251,"is_reserved":false,"is_disabled":false,"rental_uris":{"android":"levelo://app?vid=a904c70b-4553-459b-a21b-8e3b8a68efd3","ios":"levelo://app?vid=a904c70b-4553-459b-a21b-8e3b8a68efd3"},"vehicle_type_id":"4","last_reported":1743865684,"current_range_meters":11600,"station_id":"ce4bhg12rcd13ifvqf70","pricing_plan_id":"cebpf4jnsgd1na2vs0mg"},{"bike_id":"ab28779e-763b-4694-9a1d-1eef1ce4ca02","system_id":"levelo_inurba_marseille","lat":43.22927,"lon":5.35377,"is_reserved":false,"is_disabled":true,"rental_uris":{"android":"levelo://app?vid=ab28779e-763b-4694-9a1d-1eef1ce4ca02","ios":"levelo://app?vid=ab28779e-763b-4694-9a1d-1eef1ce4ca02"},"vehicle_type_id":"4","last_reported":1743865684,"current_range_meters":11600,"station_id":"cpo3532slgdg3j2ikp40","pricing_plan_id":"cebpf4jnsgd1na2vs0mg"},{"bike_id":"00251f22-1b98-475e-968b-b3ed81a2303c","system_id":"levelo_inurba_marseille","lat":43.2417,"lon":5.36401,"is_reserved":false,"is_disabled":false,"rental_uris":{"android":"levelo://app?vid=00251f22-1b98-475e-968b-b3ed81a2303c","ios":"levelo://app?vid=00251f22-1b98-475e-968b-b3ed81a2303c"},"vehicle_type_id":"4","last_reported":1743865684,"current_range_meters":11600,"station_id":"cpo36qri1sfpv3e86is0","pricing_plan_id":"cebpf4jnsgd1na2vs0mg"},{"bike_id":"eec9f420-26cd-43a2-adbb-cff0546f0931","system_id":"levelo_inurba_marseille","lat":43.2175,"lon":5.34603,"is_reserved":false,"is_disabled":false,"rental_uris":{"android":"levelo://app?vid=eec9f420-26cd-43a2-adbb-cff0546f0931","ios":"levelo://app?vid=eec9f420-26cd-43a2-adbb-cff0546f0931"},"vehicle_type_id":"4","last_reported":1743865684,"current_range_meters":11600,"station_id":"st_cvj6r9ubvosntc0bgbag","pricing_plan_id":"cebpf4jnsgd1na2vs0mg"},{"bike_id":"271c1017-678f-497b-8b51-f08087faa008","system_id":"levelo_inurba_marseille","lat":43.23064,"lon":5.35493,"is_reserved":false,"is_disabled":false,"rental_uris":{"android":"levelo://app?vid=271c1017-678f-497b-8b51-f08087faa008","ios":"levelo://app?vid=271c1017-678f-497b-8b51-f08087faa008"},"vehicle_type_id":"4","last_reported":1743865684,"current_range_meters":11600,"station_id":"cpo3342slgdg3j2ifvpg","pricing_plan_id":"cebpf4jnsgd1na2vs0mg"},{"bike_id":"c174ed50-fb37-4f7e-aa85-9aa7b0f5e513","system_id":"levelo_inurba_marseille","lat":43.269363,"lon":5.40264,"is_reserved":false,"is_disabled":false,"rental_uris":{"android":"levelo://app?vid=c174ed50-fb37-4f7e-aa85-9aa7b0f5e513","ios":"levelo://app?vid=c174ed50-fb37-4f7e-aa85-9aa7b0f5e513"},"vehicle_type_id":"4","last_reported":1743865684,"current_range_meters":11600,"station_id":"ce4bhl12rcd13ifvqgf0","pricing_plan_id":"cebpf4jnsgd1na2vs0mg"},{"bike_id":"bfff19e5-18cd-4438-8635-936fb8f9f127","system_id":"levelo_inurba_marseille","lat":43.25576,"lon":5.38231,"is_reserved":false,"is_disabled":false,"rental_uris":{"android":"levelo://app?vid=bfff19e5-18cd-4438-8635-936fb8f9f127","ios":"levelo://app?vid=bfff19e5-18cd-4438-8635-936fb8f9f127"},"vehicle_type_id":"4","last_reported":1743865684,"current_range_meters":12000,"station_id":"ce4bhih2rcd13ifvqfs0","pricing_plan_id":"cebpf4jnsgd1na2vs0mg"},{"bike_id":"fbd21487-c92d-4ccb-b93f-87ca518a2812","system_id":"levelo_inurba_marseille","lat":43.23056,"lon":5.35494,"is_reserved":false,"is_disabled":false,"rental_uris":{"android":"levelo://app?vid=fbd21487-c92d-4ccb-b93f-87ca518a2812","ios":"levelo://app?vid=fbd21487-c92d-4ccb-b93f-87ca518a2812"},"vehicle_type_id":"4","last_reported":1743865684,"current_range_meters":12000,"station_id":"cpo3342slgdg3j2ifvpg","pricing_plan_id":"cebpf4jnsgd1na2vs0mg"},{"bike_id":"adc1fd60-1074-40eb-a1ec-a3bba99bdcf1","system_id":"levelo_inurba_marseille","lat":43.29516,"lon":5.39392,"is_reserved":false,"is_disabled":false,"rental_uris":{"android":"levelo://app?vid=adc1fd60-1074-40eb-a1ec-a3bba99bdcf1","ios":"levelo://app?vid=adc1fd60-1074-40eb-a1ec-a3bba99bdcf1"},"vehicle_type_id":"4","last_reported":1743865684,"current_range_meters":12000,"station_id":"ce4bh292rcd13ifvqdf0","pricing_plan_id":"cebpf4jnsgd1na2vs0mg"},{"bike_id":"3a4ddc82-3be1-4056-8cce-a5d400df90fd","system_id":"levelo_inurba_marseille","lat":43.28617,"lon":5.35098,"is_reserved":false,"is_disabled":false,"rental_uris":{"android":"levelo://app?vid=3a4ddc82-3be1-4056-8cce-a5d400df90fd","ios":"levelo://app?vid=3a4ddc82-3be1-4056-8cce-a5d400df90fd"},"vehicle_type_id":"4","last_reported":1743865684,"current_range_meters":12000,"station_id":"ce4bhch2rcd13ifvqeug","pricing_plan_id":"cebpf4jnsgd1na2vs0mg"},{"bike_id":"c1b50e89-53cf-4e3f-8bb9-965b51be5b9e","system_id":"levelo_inurba_marseille","lat":43.284246,"lon":5.375101,"is_reserved":false,"is_disabled":false,"rental_uris":{"android":"levelo://app?vid=c1b50e89-53cf-4e3f-8bb9-965b51be5b9e","ios":"levelo://app?vid=c1b50e89-53cf-4e3f-8bb9-965b51be5b9e"},"vehicle_type_id":"4","last_reported":1743865684,"current_range_meters":12000,"station_id":"ce4bh412rcd13ifvqds0","pricing_plan_id":"cebpf4jnsgd1na2vs0mg"},{"bike_id":"9b28574b-5a8f-4ca1-a2a8-7046c5dc6fa4","system_id":"levelo_inurba_marseille","lat":43.27374,"lon":5.36258,"is_reserved":false,"is_disabled":false,"rental_uris":{"android":"levelo://app?vid=9b28574b-5a8f-4ca1-a2a8-7046c5dc6fa4","ios":"levelo://app?vid=9b28574b-5a8f-4ca1-a2a8-7046c5dc6fa4"},"vehicle_type_id":"4","last_reported":1743865684,"current_range_meters":12000,"station_id":"ce4bhbh2rcd13ifvqeo0","pricing_plan_id":"cebpf4jnsgd1na2vs0mg"},{"bike_id":"5d86a99f-7ffa-45e8-9cff-7100f78ec2a8","system_id":"levelo_inurba_marseille","lat":43.24547,"lon":5.39526,"is_reserved":false,"is_disabled":false,"rental_uris":{"android":"levelo://app?vid=5d86a99f-7ffa-45e8-9cff-7100f78ec2a8","ios":"levelo://app?vid=5d86a99f-7ffa-45e8-9cff-7100f78ec2a8"},"vehicle_type_id":"4","last_reported":1743865684,"current_range_meters":12000,"station_id":"ce4bhlp2rcd13ifvqgjg","pricing_plan_id":"cebpf4jnsgd1na2vs0mg"},{"bike_id":"ed6e303b-9e67-4722-a15d-77bf995a6be6","system_id":"levelo_inurba_marseille","lat":43.29848,"lon":5.3626,"is_reserved":false,"is_disabled":false,"rental_uris":{"android":"levelo://app?vid=ed6e303b-9e67-4722-a15d-77bf995a6be6","ios":"levelo://app?vid=ed6e303b-9e67-4722-a15d-77bf995a6be6"},"vehicle_type_id":"4","last_reported":1743865684,"current_range_meters":12000,"station_id":"ce4bgpp2rcd13ifvqc3g","pricing_plan_id":"cebpf4jnsgd1na2vs0mg"},{"bike_id":"8ee8a071-ee3c-4e6e-b1b2-0e8120beb7f4","system_id":"levelo_inurba_marseille","lat":43.25951,"lon":5.40857,"is_reserved":false,"is_disabled":false,"rental_uris":{"android":"levelo://app?vid=8ee8a071-ee3c-4e6e-b1b2-0e8120beb7f4","ios":"levelo://app?vid=8ee8a071-ee3c-4e6e-b1b2-0e8120beb7f4"},"vehicle_type_id":"4","last_reported":1743865684,"current_range_meters":12400,"station_id":"ce4bhm92rcd13ifvqglg","pricing_plan_id":"cebpf4jnsgd1na2vs0mg"},{"bike_id":"7912ca41-370e-46ab-922b-f63622eea5cd","system_id":"levelo_inurba_marseille","lat":43.22507,"lon":5.34785,"is_reserved":false,"is_disabled":false,"rental_uris":{"android":"levelo://app?vid=7912ca41-370e-46ab-922b-f63622eea5cd","ios":"levelo://app?vid=7912ca41-370e-46ab-922b-f63622eea5cd"},"vehicle_type_id":"4","last_reported":1743865684,"current_range_meters":12400,"station_id":"st_cvj5dfep6f1abm77gieg","pricing_plan_id":"cebpf4jnsgd1na2vs0mg"},{"bike_id":"1a208450-707b-438a-b30b-75b43249bec3","system_id":"levelo_inurba_marseille","lat":43.24181,"lon":5.39727,"is_reserved":false,"is_disabled":false,"rental_uris":{"android":"levelo://app?vid=1a208450-707b-438a-b30b-75b43249bec3","ios":"levelo://app?vid=1a208450-707b-438a-b30b-75b43249bec3"},"vehicle_type_id":"4","last_reported":1743865684,"current_range_meters":12800,"station_id":"ce4bhn12rcd13ifvqgpg","pricing_plan_id":"cebpf4jnsgd1na2vs0mg"},{"bike_id":"e1ab711e-1d7a-4afe-af67-1bdc40727ecc","system_id":"levelo_inurba_marseille","lat":43.28267,"lon":5.35063,"is_reserved":false,"is_disabled":false,"rental_uris":{"android":"levelo://app?vid=e1ab711e-1d7a-4afe-af67-1bdc40727ecc","ios":"levelo://app?vid=e1ab711e-1d7a-4afe-af67-1bdc40727ecc"},"vehicle_type_id":"4","last_reported":1743865684,"current_range_meters":12800,"station_id":"ce4bhbp2rcd13ifvqerg","pricing_plan_id":"cebpf4jnsgd1na2vs0mg"},{"bike_id":"96f81a34-b65c-4f43-92a6-820442af598e","system_id":"levelo_inurba_marseille","lat":43.28628,"lon":5.35068,"is_reserved":false,"is_disabled":false,"rental_uris":{"android":"levelo://app?vid=96f81a34-b65c-4f43-92a6-820442af598e","ios":"levelo://app?vid=96f81a34-b65c-4f43-92a6-820442af598e"},"vehicle_type_id":"4","last_reported":1743865684,"current_range_meters":12800,"station_id":"ce4bhch2rcd13ifvqeug","pricing_plan_id":"cebpf4jnsgd1na2vs0mg"},{"bike_id":"b95e6875-e007-45d1-aee4-c2e3906b19d0","system_id":"levelo_inurba_marseille","lat":43.292014,"lon":5.35802,"is_reserved":false,"is_disabled":false,"rental_uris":{"android":"levelo://app?vid=b95e6875-e007-45d1-aee4-c2e3906b19d0","ios":"levelo://app?vid=b95e6875-e007-45d1-aee4-c2e3906b19d0"},"vehicle_type_id":"4","last_reported":1743865684,"current_range_meters":12400,"station_id":"ce4bhb12rcd13ifvqel0","pricing_plan_id":"cebpf4jnsgd1na2vs0mg"},{"bike_id":"fab3a0a2-ba3f-4160-92d6-2af481a5e282","system_id":"levelo_inurba_marseille","lat":43.28617,"lon":5.35095,"is_reserved":false,"is_disabled":false,"rental_uris":{"android":"levelo://app?vid=fab3a0a2-ba3f-4160-92d6-2af481a5e282","ios":"levelo://app?vid=fab3a0a2-ba3f-4160-92d6-2af481a5e282"},"vehicle_type_id":"4","last_reported":1743865684,"current_range_meters":13600,"station_id":"ce4bhch2rcd13ifvqeug","pricing_plan_id":"cebpf4jnsgd1na2vs0mg"},{"bike_id":"0df65237-e7a4-4343-893f-a48efecb67b4","system_id":"levelo_inurba_marseille","lat":43.2583,"lon":5.39438,"is_reserved":false,"is_disabled":false,"rental_uris":{"android":"levelo://app?vid=0df65237-e7a4-4343-893f-a48efecb67b4","ios":"levelo://app?vid=0df65237-e7a4-4343-893f-a48efecb67b4"},"vehicle_type_id":"4","last_reported":1743865684,"current_range_meters":13600,"station_id":"ce4bhip2rcd13ifvqft0","pricing_plan_id":"cebpf4jnsgd1na2vs0mg"},{"bike_id":"78f5eb49-2986-4e89-a47d-f9f24b792d02","system_id":"levelo_inurba_marseille","lat":43.2842,"lon":5.34995,"is_reserved":false,"is_disabled":false,"rental_uris":{"android":"levelo://app?vid=78f5eb49-2986-4e89-a47d-f9f24b792d02","ios":"levelo://app?vid=78f5eb49-2986-4e89-a47d-f9f24b792d02"},"vehicle_type_id":"4","last_reported":1743865684,"current_range_meters":13600,"station_id":"ce4bhbh2rcd13ifvqepg","pricing_plan_id":"cebpf4jnsgd1na2vs0mg"},{"bike_id":"a4279391-193b-43a8-9dee-4e4fcfd1c429","system_id":"levelo_inurba_marseille","lat":43.28421,"lon":5.35002,"is_reserved":false,"is_disabled":false,"rental_uris":{"android":"levelo://app?vid=a4279391-193b-43a8-9dee-4e4fcfd1c429","ios":"levelo://app?vid=a4279391-193b-43a8-9dee-4e4fcfd1c429"},"vehicle_type_id":"4","last_reported":1743865684,"current_range_meters":13600,"station_id":"ce4bhbh2rcd13ifvqepg","pricing_plan_id":"cebpf4jnsgd1na2vs0mg"},{"bike_id":"a6303451-5b45-435c-bf0e-748f94cc010d","system_id":"levelo_inurba_marseille","lat":43.23156,"lon":5.35537,"is_reserved":false,"is_disabled":false,"rental_uris":{"android":"levelo://app?vid=a6303451-5b45-435c-bf0e-748f94cc010d","ios":"levelo://app?vid=a6303451-5b45-435c-bf0e-748f94cc010d"},"vehicle_type_id":"4","last_reported":1743865684,"current_range_meters":13600,"station_id":"ce4bhu92rcd13ifvqi70","pricing_plan_id":"cebpf4jnsgd1na2vs0mg"},{"bike_id":"6e703b26-efce-44ce-adb2-1543ee71acbe","system_id":"levelo_inurba_marseille","lat":43.27372,"lon":5.36266,"is_reserved":false,"is_disabled":false,"rental_uris":{"android":"levelo://app?vid=6e703b26-efce-44ce-adb2-1543ee71acbe","ios":"levelo://app?vid=6e703b26-efce-44ce-adb2-1543ee71acbe"},"vehicle_type_id":"4","last_reported":1743865684,"current_range_meters":13600,"station_id":"ce4bhbh2rcd13ifvqeo0","pricing_plan_id":"cebpf4jnsgd1na2vs0mg"},{"bike_id":"de603971-ad9b-4430-951e-0e4f9937ea0a","system_id":"levelo_inurba_marseille","lat":43.24161,"lon":5.36394,"is_reserved":false,"is_disabled":false,"rental_uris":{"android":"levelo://app?vid=de603971-ad9b-4430-951e-0e4f9937ea0a","ios":"levelo://app?vid=de603971-ad9b-4430-951e-0e4f9937ea0a"},"vehicle_type_id":"4","last_reported":1743865684,"current_range_meters":13600,"station_id":"cpo36qri1sfpv3e86is0","pricing_plan_id":"cebpf4jnsgd1na2vs0mg"},{"bike_id":"05d9ead5-e53f-44bf-853d-065da9448545","system_id":"levelo_inurba_marseille","lat":43.24067,"lon":5.37762,"is_reserved":false,"is_disabled":false,"rental_uris":{"android":"levelo://app?vid=05d9ead5-e53f-44bf-853d-065da9448545","ios":"levelo://app?vid=05d9ead5-e53f-44bf-853d-065da9448545"},"vehicle_type_id":"4","last_reported":1743865684,"current_range_meters":13600,"station_id":"ce4bhnp2rcd13ifvqgvg","pricing_plan_id":"cebpf4jnsgd1na2vs0mg"},{"bike_id":"37305d68-2ebe-4dc2-8e97-c97283d3802e","system_id":"levelo_inurba_marseille","lat":43.33603,"lon":5.41031,"is_reserved":false,"is_disabled":false,"rental_uris":{"android":"levelo://app?vid=37305d68-2ebe-4dc2-8e97-c97283d3802e","ios":"levelo://app?vid=37305d68-2ebe-4dc2-8e97-c97283d3802e"},"vehicle_type_id":"4","last_reported":1743865684,"current_range_meters":14000,"station_id":"ce4bhqh2rcd13ifvqhmg","pricing_plan_id":"cebpf4jnsgd1na2vs0mg"},{"bike_id":"97d77224-5748-4443-848a-6ab951c45d6d","system_id":"levelo_inurba_marseille","lat":43.32283,"lon":5.38298,"is_reserved":false,"is_disabled":false,"rental_uris":{"android":"levelo://app?vid=97d77224-5748-4443-848a-6ab951c45d6d","ios":"levelo://app?vid=97d77224-5748-4443-848a-6ab951c45d6d"},"vehicle_type_id":"4","last_reported":1743865684,"current_range_meters":14000,"station_id":"ce4bhr12rcd13ifvqhqg","pricing_plan_id":"cebpf4jnsgd1na2vs0mg"},{"bike_id":"d6624175-72b4-4607-a92c-fc3c7467aa1e","system_id":"levelo_inurba_marseille","lat":43.29716,"lon":5.36605,"is_reserved":false,"is_disabled":false,"rental_uris":{"android":"levelo://app?vid=d6624175-72b4-4607-a92c-fc3c7467aa1e","ios":"levelo://app?vid=d6624175-72b4-4607-a92c-fc3c7467aa1e"},"vehicle_type_id":"4","last_reported":1743865684,"current_range_meters":14000,"station_id":"ce4bgn12rcd13ifvqbt0","pricing_plan_id":"cebpf4jnsgd1na2vs0mg"},{"bike_id":"a5ee3e06-ae72-48d0-9bae-5aead6340ce6","system_id":"levelo_inurba_marseille","lat":43.28416,"lon":5.34998,"is_reserved":false,"is_disabled":false,"rental_uris":{"android":"levelo://app?vid=a5ee3e06-ae72-48d0-9bae-5aead6340ce6","ios":"levelo://app?vid=a5ee3e06-ae72-48d0-9bae-5aead6340ce6"},"vehicle_type_id":"4","last_reported":1743865684,"current_range_meters":14000,"station_id":"ce4bhbh2rcd13ifvqepg","pricing_plan_id":"cebpf4jnsgd1na2vs0mg"},{"bike_id":"33bdc25c-426d-4542-8bd7-aea233210dc2","system_id":"levelo_inurba_marseille","lat":43.28409,"lon":5.34993,"is_reserved":false,"is_disabled":false,"rental_uris":{"android":"levelo://app?vid=33bdc25c-426d-4542-8bd7-aea233210dc2","ios":"levelo://app?vid=33bdc25c-426d-4542-8bd7-aea233210dc2"},"vehicle_type_id":"4","last_reported":1743865684,"current_range_meters":14000,"station_id":"ce4bhbh2rcd13ifvqepg","pricing_plan_id":"cebpf4jnsgd1na2vs0mg"},{"bike_id":"73272853-088e-4b39-8e6e-94fe10fc353c","system_id":"levelo_inurba_marseille","lat":43.33766,"lon":5.37477,"is_reserved":false,"is_disabled":false,"rental_uris":{"android":"levelo://app?vid=73272853-088e-4b39-8e6e-94fe10fc353c","ios":"levelo://app?vid=73272853-088e-4b39-8e6e-94fe10fc353c"},"vehicle_type_id":"4","last_reported":1743865684,"current_range_meters":14000,"station_id":"","pricing_plan_id":"cebpf4jnsgd1na2vs0mg"},{"bike_id":"d9d6694b-f86f-4536-831e-f893d955c678","system_id":"levelo_inurba_marseille","lat":43.21765,"lon":5.34616,"is_reserved":false,"is_disabled":false,"rental_uris":{"android":"levelo://app?vid=d9d6694b-f86f-4536-831e-f893d955c678","ios":"levelo://app?vid=d9d6694b-f86f-4536-831e-f893d955c678"},"vehicle_type_id":"4","last_reported":1743865684,"current_range_meters":14000,"station_id":"st_cvj6r9ubvosntc0bgbag","pricing_plan_id":"cebpf4jnsgd1na2vs0mg"},{"bike_id":"60bdcd24-1d0e-4b80-8e18-d7b4dbb087a3","system_id":"levelo_inurba_marseille","lat":43.250757,"lon":5.395261,"is_reserved":false,"is_disabled":false,"rental_uris":{"android":"levelo://app?vid=60bdcd24-1d0e-4b80-8e18-d7b4dbb087a3","ios":"levelo://app?vid=60bdcd24-1d0e-4b80-8e18-d7b4dbb087a3"},"vehicle_type_id":"4","last_reported":1743865684,"current_range_meters":14000,"station_id":"ce4bhm12rcd13ifvqgkg","pricing_plan_id":"cebpf4jnsgd1na2vs0mg"},{"bike_id":"c23772a6-53c1-430f-8570-284ba0642d08","system_id":"levelo_inurba_marseille","lat":43.286164,"lon":5.351019,"is_reserved":false,"is_disabled":false,"rental_uris":{"android":"levelo://app?vid=c23772a6-53c1-430f-8570-284ba0642d08","ios":"levelo://app?vid=c23772a6-53c1-430f-8570-284ba0642d08"},"vehicle_type_id":"4","last_reported":1743865684,"current_range_meters":14400,"station_id":"ce4bhch2rcd13ifvqeug","pricing_plan_id":"cebpf4jnsgd1na2vs0mg"},{"bike_id":"652d1757-8080-4e48-ad35-5e64267d4cee","system_id":"levelo_inurba_marseille","lat":43.22509,"lon":5.34781,"is_reserved":false,"is_disabled":false,"rental_uris":{"android":"levelo://app?vid=652d1757-8080-4e48-ad35-5e64267d4cee","ios":"levelo://app?vid=652d1757-8080-4e48-ad35-5e64267d4cee"},"vehicle_type_id":"4","last_reported":1743865684,"current_range_meters":14400,"station_id":"st_cvj5dfep6f1abm77gieg","pricing_plan_id":"cebpf4jnsgd1na2vs0mg"},{"bike_id":"c50edd2b-88dd-434e-b794-36692e2c1f27","system_id":"levelo_inurba_marseille","lat":43.28411,"lon":5.34984,"is_reserved":false,"is_disabled":false,"rental_uris":{"android":"levelo://app?vid=c50edd2b-88dd-434e-b794-36692e2c1f27","ios":"levelo://app?vid=c50edd2b-88dd-434e-b794-36692e2c1f27"},"vehicle_type_id":"4","last_reported":1743865684,"current_range_meters":14400,"station_id":"ce4bhbh2rcd13ifvqepg","pricing_plan_id":"cebpf4jnsgd1na2vs0mg"},{"bike_id":"ecf63522-3f23-426f-bc86-1b4158f9be91","system_id":"levelo_inurba_marseille","lat":43.27999,"lon":5.41658,"is_reserved":false,"is_disabled":false,"rental_uris":{"android":"levelo://app?vid=ecf63522-3f23-426f-bc86-1b4158f9be91","ios":"levelo://app?vid=ecf63522-3f23-426f-bc86-1b4158f9be91"},"vehicle_type_id":"4","last_reported":1743865684,"current_range_meters":14000,"station_id":"ce4bho12rcd13ifvqh1g","pricing_plan_id":"cebpf4jnsgd1na2vs0mg"},{"bike_id":"8ddb5c1a-cfc3-48a1-a076-a2f2eeb905d1","system_id":"levelo_inurba_marseille","lat":43.23964,"lon":5.36634,"is_reserved":false,"is_disabled":false,"rental_uris":{"android":"levelo://app?vid=8ddb5c1a-cfc3-48a1-a076-a2f2eeb905d1","ios":"levelo://app?vid=8ddb5c1a-cfc3-48a1-a076-a2f2eeb905d1"},"vehicle_type_id":"4","last_reported":1743865684,"current_range_meters":14400,"station_id":"ce4bhi12rcd13ifvqfp0","pricing_plan_id":"cebpf4jnsgd1na2vs0mg"},{"bike_id":"fe36a046-4d6c-4af1-87d4-4e88b83573a1","system_id":"levelo_inurba_marseille","lat":43.25502,"lon":5.37651,"is_reserved":false,"is_disabled":false,"rental_uris":{"android":"levelo://app?vid=fe36a046-4d6c-4af1-87d4-4e88b83573a1","ios":"levelo://app?vid=fe36a046-4d6c-4af1-87d4-4e88b83573a1"},"vehicle_type_id":"4","last_reported":1743865684,"current_range_meters":14800,"station_id":"ce4bhh12rcd13ifvqff0","pricing_plan_id":"cebpf4jnsgd1na2vs0mg"},{"bike_id":"6082a6d8-29f3-4441-bd82-d0f95ead75d7","system_id":"levelo_inurba_marseille","lat":43.23196,"lon":5.35561,"is_reserved":false,"is_disabled":false,"rental_uris":{"android":"levelo://app?vid=6082a6d8-29f3-4441-bd82-d0f95ead75d7","ios":"levelo://app?vid=6082a6d8-29f3-4441-bd82-d0f95ead75d7"},"vehicle_type_id":"4","last_reported":1743865684,"current_range_meters":14800,"station_id":"ce4bhu92rcd13ifvqi70","pricing_plan_id":"cebpf4jnsgd1na2vs0mg"},{"bike_id":"1cd4dc90-adbf-47cd-96bd-3fbbeb43267d","system_id":"levelo_inurba_marseille","lat":43.27372,"lon":5.36258,"is_reserved":false,"is_disabled":false,"rental_uris":{"android":"levelo://app?vid=1cd4dc90-adbf-47cd-96bd-3fbbeb43267d","ios":"levelo://app?vid=1cd4dc90-adbf-47cd-96bd-3fbbeb43267d"},"vehicle_type_id":"4","last_reported":1743865684,"current_range_meters":14800,"station_id":"ce4bhbh2rcd13ifvqeo0","pricing_plan_id":"cebpf4jnsgd1na2vs0mg"},{"bike_id":"7df4fe21-d183-4d33-95e2-d5b1c922d381","system_id":"levelo_inurba_marseille","lat":43.24547,"lon":5.39521,"is_reserved":false,"is_disabled":false,"rental_uris":{"android":"levelo://app?vid=7df4fe21-d183-4d33-95e2-d5b1c922d381","ios":"levelo://app?vid=7df4fe21-d183-4d33-95e2-d5b1c922d381"},"vehicle_type_id":"4","last_reported":1743865684,"current_range_meters":14400,"station_id":"ce4bhlp2rcd13ifvqgjg","pricing_plan_id":"cebpf4jnsgd1na2vs0mg"},{"bike_id":"6318df25-e619-488e-8e5a-ffa050963103","system_id":"levelo_inurba_marseille","lat":43.2175,"lon":5.34606,"is_reserved":false,"is_disabled":false,"rental_uris":{"android":"levelo://app?vid=6318df25-e619-488e-8e5a-ffa050963103","ios":"levelo://app?vid=6318df25-e619-488e-8e5a-ffa050963103"},"vehicle_type_id":"4","last_reported":1743865684,"current_range_meters":14800,"station_id":"st_cvj6r9ubvosntc0bgbag","pricing_plan_id":"cebpf4jnsgd1na2vs0mg"},{"bike_id":"cf59e74f-4034-4161-bcde-5a3802e0666a","system_id":"levelo_inurba_marseille","lat":43.28625,"lon":5.37059,"is_reserved":false,"is_disabled":false,"rental_uris":{"android":"levelo://app?vid=cf59e74f-4034-4161-bcde-5a3802e0666a","ios":"levelo://app?vid=cf59e74f-4034-4161-bcde-5a3802e0666a"},"vehicle_type_id":"4","last_reported":1743865684,"current_range_meters":14800,"station_id":"ce4bht12rcd13ifvqi60","pricing_plan_id":"cebpf4jnsgd1na2vs0mg"},{"bike_id":"87908f94-d8aa-4a33-8565-205213af20b1","system_id":"levelo_inurba_marseille","lat":43.32086,"lon":5.36792,"is_reserved":false,"is_disabled":false,"rental_uris":{"android":"levelo://app?vid=87908f94-d8aa-4a33-8565-205213af20b1","ios":"levelo://app?vid=87908f94-d8aa-4a33-8565-205213af20b1"},"vehicle_type_id":"4","last_reported":1743865684,"current_range_meters":15200,"station_id":"ce4bhrh2rcd13ifvqhug","pricing_plan_id":"cebpf4jnsgd1na2vs0mg"},{"bike_id":"f8cd1080-6c6d-4a30-90b4-6915b2f4d13d","system_id":"levelo_inurba_marseille","lat":43.26536,"lon":5.37241,"is_reserved":false,"is_disabled":false,"rental_uris":{"android":"levelo://app?vid=f8cd1080-6c6d-4a30-90b4-6915b2f4d13d","ios":"levelo://app?vid=f8cd1080-6c6d-4a30-90b4-6915b2f4d13d"},"vehicle_type_id":"4","last_reported":1743865684,"current_range_meters":15200,"station_id":"","pricing_plan_id":"cebpf4jnsgd1na2vs0mg"},{"bike_id":"7438faae-9286-4ffc-be3f-061836c0316c","system_id":"levelo_inurba_marseille","lat":43.2862,"lon":5.35106,"is_reserved":false,"is_disabled":false,"rental_uris":{"android":"levelo://app?vid=7438faae-9286-4ffc-be3f-061836c0316c","ios":"levelo://app?vid=7438faae-9286-4ffc-be3f-061836c0316c"},"vehicle_type_id":"4","last_reported":1743865684,"current_range_meters":16000,"station_id":"ce4bhch2rcd13ifvqeug","pricing_plan_id":"cebpf4jnsgd1na2vs0mg"},{"bike_id":"b01f2b6c-7fe9-48f0-afe1-7f525943b944","system_id":"levelo_inurba_marseille","lat":43.26198,"lon":5.37931,"is_reserved":false,"is_disabled":false,"rental_uris":{"android":"levelo://app?vid=b01f2b6c-7fe9-48f0-afe1-7f525943b944","ios":"levelo://app?vid=b01f2b6c-7fe9-48f0-afe1-7f525943b944"},"vehicle_type_id":"4","last_reported":1743865684,"current_range_meters":16000,"station_id":"ce4bhjp2rcd13ifvqg90","pricing_plan_id":"cebpf4jnsgd1na2vs0mg"},{"bike_id":"5420e474-5232-43f0-bd62-51e2359e3157","system_id":"levelo_inurba_marseille","lat":43.31323,"lon":5.36996,"is_reserved":false,"is_disabled":false,"rental_uris":{"android":"levelo://app?vid=5420e474-5232-43f0-bd62-51e2359e3157","ios":"levelo://app?vid=5420e474-5232-43f0-bd62-51e2359e3157"},"vehicle_type_id":"4","last_reported":1743865684,"current_range_meters":16000,"station_id":"","pricing_plan_id":"cebpf4jnsgd1na2vs0mg"},{"bike_id":"ceba594e-ff69-4140-828e-f8a961103e51","system_id":"levelo_inurba_marseille","lat":43.24166,"lon":5.36389,"is_reserved":false,"is_disabled":false,"rental_uris":{"android":"levelo://app?vid=ceba594e-ff69-4140-828e-f8a961103e51","ios":"levelo://app?vid=ceba594e-ff69-4140-828e-f8a961103e51"},"vehicle_type_id":"4","last_reported":1743865684,"current_range_meters":16000,"station_id":"cpo36qri1sfpv3e86is0","pricing_plan_id":"cebpf4jnsgd1na2vs0mg"},{"bike_id":"76a06502-6db4-492a-9fc9-93c8ede4abc6","system_id":"levelo_inurba_marseille","lat":43.31222,"lon":5.36709,"is_reserved":false,"is_disabled":false,"rental_uris":{"android":"levelo://app?vid=76a06502-6db4-492a-9fc9-93c8ede4abc6","ios":"levelo://app?vid=76a06502-6db4-492a-9fc9-93c8ede4abc6"},"vehicle_type_id":"4","last_reported":1743865684,"current_range_meters":16000,"station_id":"","pricing_plan_id":"cebpf4jnsgd1na2vs0mg"},{"bike_id":"4ade3e0f-5715-4caa-a6bd-e1f54b3bb7f4","system_id":"levelo_inurba_marseille","lat":43.26032,"lon":5.37546,"is_reserved":false,"is_disabled":false,"rental_uris":{"android":"levelo://app?vid=4ade3e0f-5715-4caa-a6bd-e1f54b3bb7f4","ios":"levelo://app?vid=4ade3e0f-5715-4caa-a6bd-e1f54b3bb7f4"},"vehicle_type_id":"4","last_reported":1743865684,"current_range_meters":15200,"station_id":"ce4bhgh2rcd13ifvqfa0","pricing_plan_id":"cebpf4jnsgd1na2vs0mg"},{"bike_id":"7fd0635d-68ad-4ce6-a52b-daef56987b4b","system_id":"levelo_inurba_marseille","lat":43.30864,"lon":5.38591,"is_reserved":false,"is_disabled":false,"rental_uris":{"android":"levelo://app?vid=7fd0635d-68ad-4ce6-a52b-daef56987b4b","ios":"levelo://app?vid=7fd0635d-68ad-4ce6-a52b-daef56987b4b"},"vehicle_type_id":"4","last_reported":1743865684,"current_range_meters":16000,"station_id":"","pricing_plan_id":"cebpf4jnsgd1na2vs0mg"},{"bike_id":"9919d73f-34f4-481f-8460-7a82f0650cd7","system_id":"levelo_inurba_marseille","lat":43.295898,"lon":5.372125,"is_reserved":false,"is_disabled":false,"rental_uris":{"android":"levelo://app?vid=9919d73f-34f4-481f-8460-7a82f0650cd7","ios":"levelo://app?vid=9919d73f-34f4-481f-8460-7a82f0650cd7"},"vehicle_type_id":"4","last_reported":1743865684,"current_range_meters":16000,"station_id":"ce4bgnh2rcd13ifvqc0g","pricing_plan_id":"cebpf4jnsgd1na2vs0mg"},{"bike_id":"8e5bc270-6f55-45b4-918a-d08230aa5f2e","system_id":"levelo_inurba_marseille","lat":43.28861,"lon":5.35854,"is_reserved":false,"is_disabled":false,"rental_uris":{"android":"levelo://app?vid=8e5bc270-6f55-45b4-918a-d08230aa5f2e","ios":"levelo://app?vid=8e5bc270-6f55-45b4-918a-d08230aa5f2e"},"vehicle_type_id":"4","last_reported":1743865684,"current_range_meters":16000,"station_id":"ce4bhb12rcd13ifvqem0","pricing_plan_id":"cebpf4jnsgd1na2vs0mg"},{"bike_id":"136b6e45-ee21-453e-aa22-e07947db9071","system_id":"levelo_inurba_marseille","lat":43.23164,"lon":5.43692,"is_reserved":false,"is_disabled":true,"rental_uris":{"android":"levelo://app?vid=136b6e45-ee21-453e-aa22-e07947db9071","ios":"levelo://app?vid=136b6e45-ee21-453e-aa22-e07947db9071"},"vehicle_type_id":"4","last_reported":1743865684,"current_range_meters":16000,"station_id":"ce4bhmp2rcd13ifvqgog","pricing_plan_id":"cebpf4jnsgd1na2vs0mg"},{"bike_id":"0f9240af-c934-4bce-9d3d-a4c3c70a20d6","system_id":"levelo_inurba_marseille","lat":43.31074,"lon":5.38356,"is_reserved":false,"is_disabled":false,"rental_uris":{"android":"levelo://app?vid=0f9240af-c934-4bce-9d3d-a4c3c70a20d6","ios":"levelo://app?vid=0f9240af-c934-4bce-9d3d-a4c3c70a20d6"},"vehicle_type_id":"4","last_reported":1743865684,"current_range_meters":16000,"station_id":"ce4bgv92rcd13ifvqcr0","pricing_plan_id":"cebpf4jnsgd1na2vs0mg"},{"bike_id":"5b8d1103-1921-4c53-912e-93d122cd3cdc","system_id":"levelo_inurba_marseille","lat":43.24407,"lon":5.37077,"is_reserved":false,"is_disabled":false,"rental_uris":{"android":"levelo://app?vid=5b8d1103-1921-4c53-912e-93d122cd3cdc","ios":"levelo://app?vid=5b8d1103-1921-4c53-912e-93d122cd3cdc"},"vehicle_type_id":"4","last_reported":1743865684,"current_range_meters":16000,"station_id":"ce4bhhh2rcd13ifvqfk0","pricing_plan_id":"cebpf4jnsgd1na2vs0mg"},{"bike_id":"77bd308d-4917-4be0-9c3a-4c340c288f38","system_id":"levelo_inurba_marseille","lat":43.2251,"lon":5.34776,"is_reserved":false,"is_disabled":false,"rental_uris":{"android":"levelo://app?vid=77bd308d-4917-4be0-9c3a-4c340c288f38","ios":"levelo://app?vid=77bd308d-4917-4be0-9c3a-4c340c288f38"},"vehicle_type_id":"4","last_reported":1743865684,"current_range_meters":16400,"station_id":"st_cvj5dfep6f1abm77gieg","pricing_plan_id":"cebpf4jnsgd1na2vs0mg"},{"bike_id":"42eca5f1-e207-4a29-bf3c-e908cce97821","system_id":"levelo_inurba_marseille","lat":43.2842,"lon":5.34993,"is_reserved":false,"is_disabled":false,"rental_uris":{"android":"levelo://app?vid=42eca5f1-e207-4a29-bf3c-e908cce97821","ios":"levelo://app?vid=42eca5f1-e207-4a29-bf3c-e908cce97821"},"vehicle_type_id":"4","last_reported":1743865684,"current_range_meters":16400,"station_id":"ce4bhbh2rcd13ifvqepg","pricing_plan_id":"cebpf4jnsgd1na2vs0mg"},{"bike_id":"64723ed1-d23d-4a0d-a2d0-b3af72b7c6d2","system_id":"levelo_inurba_marseille","lat":43.28156,"lon":5.42646,"is_reserved":false,"is_disabled":false,"rental_uris":{"android":"levelo://app?vid=64723ed1-d23d-4a0d-a2d0-b3af72b7c6d2","ios":"levelo://app?vid=64723ed1-d23d-4a0d-a2d0-b3af72b7c6d2"},"vehicle_type_id":"4","last_reported":1743865684,"current_range_meters":16400,"station_id":"ce4bhnh2rcd13ifvqgug","pricing_plan_id":"cebpf4jnsgd1na2vs0mg"},