{"last_updated":1722622272,"ttl":30,"version":"2.2","data":{"bikes":[{"bike_id":"9d9f34c9-2599-4c3b-b8dd-bc800019d068","system_id":"levelo_inurba_marseille","lat":43.312239,"lon":5.368562,"is_reserved":false,"is_disabled":false,"rental_uris":{"android":"levelo://app?vid=9d9f34c9-2599-4c3b-b8dd-bc800019d068","ios":"levelo://app?vid=9d9f34c9-2599-4c3b-b8dd-bc800019d068"},"vehicle_type_id":"4","last_reported":1722622272,"current_range_meters":800,"station_id":"ce4bgl92rcd13ifvqbq0","pricing_plan_id":"cebpf4jnsgd1na2vs0mg"},{"bike_id":"56e29a17-381b-4bd6-b555-fbad3225eefd","system_id":"levelo_inurba_marseille","lat":43.309076,"lon":5.368465,"is_reserved":false,"is_disabled":false,"rental_uris":{"android":"levelo://app?vid=56e29a17-381b-4bd6-b555-fbad3225eefd","ios":"levelo://app?vid=56e29a17-381b-4bd6-b555-fbad3225eefd"},"vehicle_type_id":"4","last_reported":1722622272,"current_range_meters":6000,"station_id":"ce4bgn92rcd13ifvqbvg","pricing_plan_id":"cebpf4jnsgd1na2vs0mg"},{"bike_id":"381ab569-93c5-4e58-83b1-7f2f1a23fa1e","system_id":"levelo_inurba_marseille","lat":43.314811,"lon":5.373103,"is_reserved":false,"is_disabled":false,"rental_uris":{"android":"levelo://app?vid=381ab569-93c5-4e58-83b1-7f2f1a23fa1e","ios":"levelo://app?vid=381ab569-93c5-4e58-83b1-7f2f1a23fa1e"},"vehicle_type_id":"4","last_reported":1722622272,"current_range_meters":5600,"station_id":"ce4bgt12rcd13ifvqcd0","pricing_plan_id":"cebpf4jnsgd1na2vs0mg"},{"bike_id":"5936082d-4a85-4943-8ca3-f5f964d8e744","system_id":"levelo_inurba_marseille","lat":43.314811,"lon":5.373103,"is_reserved":false,"is_disabled":false,"rental_uris":{"android":"levelo://app?vid=5936082d-4a85-4943-8ca3-f5f964d8e744","ios":"levelo://app?vid=5936082d-4a85-4943-8ca3-f5f964d8e744"},"vehicle_type_id":"4","last_reported":1722622272,"current_range_meters":800,"station_id":"ce4bgt12rcd13ifvqcd0","pricing_plan_id":"cebpf4jnsgd1na2vs0mg"},{"bike_id":"69eebdea-6b88-4f2e-913a-0898de38fbcc","system_id":"levelo_inurba_marseille","lat":43.314057,"lon":5.374856,"is_reserved":false,"is_disabled":false,"rental_uris":{"android":"levelo://app?vid=69eebdea-6b88-4f2e-913a-0898de38fbcc","ios":"levelo://app?vid=69eebdea-6b88-4f2e-913a-0898de38fbcc"},"vehicle_type_id":"4","last_reported":1722622272,"current_range_meters":30000,"station_id":"","pricing_plan_id":"cebpf4jnsgd1na2vs0mg"},{"bike_id":"cea1672b-ed18-4f74-b76c-5499ac23d99a","system_id":"levelo_inurba_marseille","lat":43.30547,"lon":5.36696,"is_reserved":false,"is_disabled":false,"rental_uris":{"android":"levelo://app?vid=cea1672b-ed18-4f74-b76c-5499ac23d99a","ios":"levelo://app?vid=cea1672b-ed18-4f74-b76c-5499ac23d99a"},"vehicle_type_id":"4","last_reported":1722622272,"current_range_meters":2400,"station_id":"ce4bgrp2rcd13ifvqc9g","pricing_plan_id":"cebpf4jnsgd1na2vs0mg"},{"bike_id":"f06f345b-88f3-4464-9ea5-72a62aea6cff","system_id":"levelo_inurba_marseille","lat":43.30507,"lon":5.36671,"is_reserved":false,"is_disabled":false,"rental_uris":{"android":"levelo://app?vid=f06f345b-88f3-4464-9ea5-72a62aea6cff","ios":"levelo://app?vid=f06f345b-88f3-4464-9ea5-72a62aea6cff"},"vehicle_type_id":"4","last_reported":1722622272,"current_range_meters":31200,"station_id":"ce4bgrp2rcd13ifvqc9g","pricing_plan_id":"cebpf4jnsgd1na2vs0mg"},{"bike_id":"357f05bf-f287-427f-99f7-cd801204cca4","system_id":"levelo_inurba_marseille","lat":43.317075,"lon":5.377367,"is_reserved":false,"is_disabled":false,"rental_uris":{"android":"levelo://app?vid=357f05bf-f287-427f-99f7-cd801204cca4","ios":"levelo://app?vid=357f05bf-f287-427f-99f7-cd801204cca4"},"vehicle_type_id":"4","last_reported":1722622272,"current_range_meters":400,"station_id":"ce4bgth2rcd13ifvqch0","pricing_plan_id":"cebpf4jnsgd1na2vs0mg"},{"bike_id":"6ae84527-6147-4032-a8a5-335036cb429e","system_id":"levelo_inurba_marseille","lat":43.317075,"lon":5.377367,"is_reserved":false,"is_disabled":false,"rental_uris":{"android":"levelo://app?vid=6ae84527-6147-4032-a8a5-335036cb429e","ios":"levelo://app?vid=6ae84527-6147-4032-a8a5-335036cb429e"},"vehicle_type_id":"4","last_reported":1722622272,"current_range_meters":25200,"station_id":"ce4bgth2rcd13ifvqch0","pricing_plan_id":"cebpf4jnsgd1na2vs0mg"},{"bike_id":"43996fb1-0eaf-480d-92e6-69739fd26e34","system_id":"levelo_inurba_marseille","lat":43.317075,"lon":5.377367,"is_reserved":false,"is_disabled":false,"rental_uris":{"android":"levelo://app?vid=43996fb1-0eaf-480d-92e6-69739fd26e34","ios":"levelo://app?vid=43996fb1-0eaf-480d-92e6-69739fd26e34"},"vehicle_type_id":"4","last_reported":1722622272,"current_range_meters":12400,"station_id":"ce4bgth2rcd13ifvqch0","pricing_plan_id":"cebpf4jnsgd1na2vs0mg"},{"bike_id":"749576d7-ac1c-4fdc-b071-bdc937fb475d","system_id":"levelo_inurba_marseille","lat":43.303672,"lon":5.366836,"is_reserved":false,"is_disabled":false,"rental_uris":{"android":"levelo://app?vid=749576d7-ac1c-4fdc-b071-bdc937fb475d","ios":"levelo://app?vid=749576d7-ac1c-4fdc-b071-bdc937fb475d"},"vehicle_type_id":"4","last_reported":1722622272,"current_range_meters":17600,"station_id":"","pricing_plan_id":"cebpf4jnsgd1na2vs0mg"},{"bike_id":"7c14d4b9-0373-42f4-98ca-5464de42dfc1","system_id":"levelo_inurba_marseille","lat":43.315289,"lon":5.380349,"is_reserved":false,"is_disabled":false,"rental_uris":{"android":"levelo://app?vid=7c14d4b9-0373-42f4-98ca-5464de42dfc1","ios":"levelo://app?vid=7c14d4b9-0373-42f4-98ca-5464de42dfc1"},"vehicle_type_id":"4","last_reported":1722622272,"current_range_meters":1600,"station_id":"ce4bhsp2rcd13ifvqi50","pricing_plan_id":"cebpf4jnsgd1na2vs0mg"},{"bike_id":"08a89d3f-02cd-4d21-9055-145ab517d296","system_id":"levelo_inurba_marseille","lat":43.315289,"lon":5.380349,"is_reserved":false,"is_disabled":false,"rental_uris":{"android":"levelo://app?vid=08a89d3f-02cd-4d21-9055-145ab517d296","ios":"levelo://app?vid=08a89d3f-02cd-4d21-9055-145ab517d296"},"vehicle_type_id":"4","last_reported":1722622272,"current_range_meters":8000,"station_id":"ce4bhsp2rcd13ifvqi50","pricing_plan_id":"cebpf4jnsgd1na2vs0mg"},{"bike_id":"f7988602-a0ea-4016-a660-519b5b93cb09","system_id":"levelo_inurba_marseille","lat":43.315289,"lon":5.380349,"is_reserved":false,"is_disabled":false,"rental_uris":{"android":"levelo://app?vid=f7988602-a0ea-4016-a660-519b5b93cb09","ios":"levelo://app?vid=f7988602-a0ea-4016-a660-519b5b93cb09"},"vehicle_type_id":"4","last_reported":1722622272,"current_range_meters":30000,"station_id":"ce4bhsp2rcd13ifvqi50","pricing_plan_id":"cebpf4jnsgd1na2vs0mg"},{"bike_id":"d1972a95-185c-40cc-a78d-10bd787933c4","system_id":"levelo_inurba_marseille","lat":43.315289,"lon":5.380349,"is_reserved":false,"is_disabled":false,"rental_uris":{"android":"levelo://app?vid=d1972a95-185c-40cc-a78d-10bd787933c4","ios":"levelo://app?vid=d1972a95-185c-40cc-a78d-10bd787933c4"},"vehicle_type_id":"4","last_reported":1722622272,"current_range_meters":21200,"station_id":"ce4bhsp2rcd13ifvqi50","pricing_plan_id":"cebpf4jnsgd1na2vs0mg"},{"bike_id":"c078cab2-bd8c-47ea-9d88-a8964c9582c9","system_id":"levelo_inurba_marseille","lat":43.315289,"lon":5.380349,"is_reserved":false,"is_disabled":false,"rental_uris":{"android":"levelo://app?vid=c078cab2-bd8c-47ea-9d88-a8964c9582c9","ios":"levelo://app?vid=c078cab2-bd8c-47ea-9d88-a8964c9582c9"},"vehicle_type_id":"4","last_reported":1722622272,"current_range_meters":29200,"station_id":"ce4bhsp2rcd13ifvqi50","pricing_plan_id":"cebpf4jnsgd1na2vs0mg"},{"bike_id":"90760164-f4c6-4df9-bad2-80c1bfbe45ae","system_id":"levelo_inurba_marseille","lat":43.315289,"lon":5.380349,"is_reserved":false,"is_disabled":false,"rental_uris":{"android":"levelo://app?vid=90760164-f4c6-4df9-bad2-80c1bfbe45ae","ios":"levelo://app?vid=90760164-f4c6-4df9-bad2-80c1bfbe45ae"},"vehicle_type_id":"4","last_reported":1722622272,"current_range_meters":9200,"station_id":"ce4bhsp2rcd13ifvqi50","pricing_plan_id":"cebpf4jnsgd1na2vs0mg"},{"bike_id":"c7a34433-ac3c-4b84-afec-3c50dc979a5d","system_id":"levelo_inurba_marseille","lat":43.315289,"lon":5.380349,"is_reserved":false,"is_disabled":false,"rental_uris":{"android":"levelo://app?vid=c7a34433-ac3c-4b84-afec-3c50dc979a5d","ios":"levelo://app?vid=c7a34433-ac3c-4b84-afec-3c50dc979a5d"},"vehicle_type_id":"4","last_reported":1722622272,"current_range_meters":29200,"station_id":"ce4bhsp2rcd13ifvqi50","pricing_plan_id":"cebpf4jnsgd1na2vs0mg"},{"bike_id":"af6cb9df-438d-45ef-8380-84652ebeaf69","system_id":"levelo_inurba_marseille","lat":43.315468,"lon":5.38048,"is_reserved":false,"is_disabled":false,"rental_uris":{"android":"levelo://app?vid=af6cb9df-438d-45ef-8380-84652ebeaf69","ios":"levelo://app?vid=af6cb9df-438d-45ef-8380-84652ebeaf69"},"vehicle_type_id":"4","last_reported":1722622272,"current_range_meters":15600,"station_id":"ce4bhsp2rcd13ifvqi50","pricing_plan_id":"cebpf4jnsgd1na2vs0mg"},{"bike_id":"438cb4b4-0c82-4633-b735-9965f643c3f9","system_id":"levelo_inurba_marseille","lat":43.30907,"lon":5.38022,"is_reserved":false,"is_disabled":false,"rental_uris":{"android":"levelo://app?vid=438cb4b4-0c82-4633-b735-9965f643c3f9","ios":"levelo://app?vid=438cb4b4-0c82-4633-b735-9965f643c3f9"},"vehicle_type_id":"4","last_reported":1722622272,"current_range_meters":24000,"station_id":"","pricing_plan_id":"cebpf4jnsgd1na2vs0mg"},{"bike_id":"f6f914c6-a8bd-43ac-913b-04099c260a16","system_id":"levelo_inurba_marseille","lat":43.301939,"lon":5.366286,"is_reserved":false,"is_disabled":false,"rental_uris":{"android":"levelo://app?vid=f6f914c6-a8bd-43ac-913b-04099c260a16","ios":"levelo://app?vid=f6f914c6-a8bd-43ac-913b-04099c260a16"},"vehicle_type_id":"4","last_reported":1722622272,"current_range_meters":19600,"station_id":"ce4bgrh2rcd13ifvqc8g","pricing_plan_id":"cebpf4jnsgd1na2vs0mg"},{"bike_id":"7d26f442-7c92-4f3d-8240-0ca62ad96ee4","system_id":"levelo_inurba_marseille","lat":43.32347,"lon":5.36491,"is_reserved":false,"is_disabled":false,"rental_uris":{"android":"levelo://app?vid=7d26f442-7c92-4f3d-8240-0ca62ad96ee4","ios":"levelo://app?vid=7d26f442-7c92-4f3d-8240-0ca62ad96ee4"},"vehicle_type_id":"4","last_reported":1722622272,"current_range_meters":29600,"station_id":"","pricing_plan_id":"cebpf4jnsgd1na2vs0mg"},{"bike_id":"25322664-ad51-410a-b825-dc006552e621","system_id":"levelo_inurba_marseille","lat":43.308012,"lon":5.381511,"is_reserved":false,"is_disabled":false,"rental_uris":{"android":"levelo://app?vid=25322664-ad51-410a-b825-dc006552e621","ios":"levelo://app?vid=25322664-ad51-410a-b825-dc006552e621"},"vehicle_type_id":"4","last_reported":1722622272,"current_range_meters":2000,"station_id":"ce4bgt12rcd13ifvqce0","pricing_plan_id":"cebpf4jnsgd1na2vs0mg"},{"bike_id":"cfbb5f88-214f-4b9d-a4eb-4496dbd9322a","system_id":"levelo_inurba_marseille","lat":43.324771,"lon":5.36557,"is_reserved":false,"is_disabled":false,"rental_uris":{"android":"levelo://app?vid=cfbb5f88-214f-4b9d-a4eb-4496dbd9322a","ios":"levelo://app?vid=cfbb5f88-214f-4b9d-a4eb-4496dbd9322a"},"vehicle_type_id":"4","last_reported":1722622272,"current_range_meters":32000,"station_id":"ce4bhs12rcd13ifvqhvg","pricing_plan_id":"cebpf4jnsgd1na2vs0mg"},{"bike_id":"c14aeb51-646d-4522-9b8b-74f57a5c0a12","system_id":"levelo_inurba_marseille","lat":43.324771,"lon":5.36557,"is_reserved":false,"is_disabled":false,"rental_uris":{"android":"levelo://app?vid=c14aeb51-646d-4522-9b8b-74f57a5c0a12","ios":"levelo://app?vid=c14aeb51-646d-4522-9b8b-74f57a5c0a12"},"vehicle_type_id":"4","last_reported":1722622272,"current_range_meters":4400,"station_id":"ce4bhs12rcd13ifvqhvg","pricing_plan_id":"cebpf4jnsgd1na2vs0mg"},{"bike_id":"d2ed19fa-d664-4cb1-9ff1-2f5d9c8c9627","system_id":"levelo_inurba_marseille","lat":43.301429,"lon":5.37413,"is_reserved":false,"is_disabled":false,"rental_uris":{"android":"levelo://app?vid=d2ed19fa-d664-4cb1-9ff1-2f5d9c8c9627","ios":"levelo://app?vid=d2ed19fa-d664-4cb1-9ff1-2f5d9c8c9627"},"vehicle_type_id":"4","last_reported":1722622272,"current_range_meters":1200,"station_id":"ce4bgs92rcd13ifvqcc0","pricing_plan_id":"cebpf4jnsgd1na2vs0mg"},{"bike_id":"d50f5eee-d5a0-407d-8e48-052c6677cd42","system_id":"levelo_inurba_marseille","lat":43.32483,"lon":5.36556,"is_reserved":false,"is_disabled":false,"rental_uris":{"android":"levelo://app?vid=d50f5eee-d5a0-407d-8e48-052c6677cd42","ios":"levelo://app?vid=d50f5eee-d5a0-407d-8e48-052c6677cd42"},"vehicle_type_id":"4","last_reported":1722622272,"current_range_meters":23600,"station_id":"ce4bhs12rcd13ifvqhvg","pricing_plan_id":"cebpf4jnsgd1na2vs0mg"},{"bike_id":"2b9799f5-efa7-4e00-9020-9de8d5ff632a","system_id":"levelo_inurba_marseille","lat":43.324849,"lon":5.3657,"is_reserved":false,"is_disabled":false,"rental_uris":{"android":"levelo://app?vid=2b9799f5-efa7-4e00-9020-9de8d5ff632a","ios":"levelo://app?vid=2b9799f5-efa7-4e00-9020-9de8d5ff632a"},"vehicle_type_id":"4","last_reported":1722622272,"current_range_meters":26800,"station_id":"ce4bhs12rcd13ifvqhvg","pricing_plan_id":"cebpf4jnsgd1na2vs0mg"},{"bike_id":"ca5dcd10-cb47-43cc-85a9-81882783085f","system_id":"levelo_inurba_marseille","lat":43.32487,"lon":5.365661,"is_reserved":false,"is_disabled":false,"rental_uris":{"android":"levelo://app?vid=ca5dcd10-cb47-43cc-85a9-81882783085f","ios":"levelo://app?vid=ca5dcd10-cb47-43cc-85a9-81882783085f"},"vehicle_type_id":"4","last_reported":1722622272,"current_range_meters":7600,"station_id":"ce4bhs12rcd13ifvqhvg","pricing_plan_id":"cebpf4jnsgd1na2vs0mg"},{"bike_id":"7370f898-d05e-4325-a96c-8cb4ab59798f","system_id":"levelo_inurba_marseille","lat":43.324771,"lon":5.36557,"is_reserved":false,"is_disabled":false,"rental_uris":{"android":"levelo://app?vid=7370f898-d05e-4325-a96c-8cb4ab59798f","ios":"levelo://app?vid=7370f898-d05e-4325-a96c-8cb4ab59798f"},"vehicle_type_id":"4","last_reported":1722622272,"current_range_meters":28000,"station_id":"ce4bhs12rcd13ifvqhvg","pricing_plan_id":"cebpf4jnsgd1na2vs0mg"},{"bike_id":"75a25d88-d4f8-49f5-9b75-4c3b5365c690","system_id":"levelo_inurba_marseille","lat":43.324889,"lon":5.365644,"is_reserved":false,"is_disabled":false,"rental_uris":{"android":"levelo://app?vid=75a25d88-d4f8-49f5-9b75-4c3b5365c690","ios":"levelo://app?vid=75a25d88-d4f8-49f5-9b75-4c3b5365c690"},"vehicle_type_id":"4","last_reported":1722622272,"current_range_meters":12000,"station_id":"ce4bhs12rcd13ifvqhvg","pricing_plan_id":"cebpf4jnsgd1na2vs0mg"},{"bike_id":"0bc0b908-eaba-4b4d-87fc-c271f9bbbf80","system_id":"levelo_inurba_marseille","lat":43.3249,"lon":5.36575,"is_reserved":false,"is_disabled":false,"rental_uris":{"android":"levelo://app?vid=0bc0b908-eaba-4b4d-87fc-c271f9bbbf80","ios":"levelo://app?vid=0bc0b908-eaba-4b4d-87fc-c271f9bbbf80"},"vehicle_type_id":"4","last_reported":1722622272,"current_range_meters":13200,"station_id":"ce4bhs12rcd13ifvqhvg","pricing_plan_id":"cebpf4jnsgd1na2vs0mg"},{"bike_id":"285dd0c9-3d21-42c4-a7b5-9eedcf3644db","system_id":"levelo_inurba_marseille","lat":43.310804,"lon":5.38359,"is_reserved":false,"is_disabled":false,"rental_uris":{"android":"levelo://app?vid=285dd0c9-3d21-42c4-a7b5-9eedcf3644db","ios":"levelo://app?vid=285dd0c9-3d21-42c4-a7b5-9eedcf3644db"},"vehicle_type_id":"4","last_reported":1722622272,"current_range_meters":10400,"station_id":"ce4bgv92rcd13ifvqcr0","pricing_plan_id":"cebpf4jnsgd1na2vs0mg"},{"bike_id":"1d1b90eb-d589-437a-866c-212f53f723bc","system_id":"levelo_inurba_marseille","lat":43.310804,"lon":5.38359,"is_reserved":false,"is_disabled":false,"rental_uris":{"android":"levelo://app?vid=1d1b90eb-d589-437a-866c-212f53f723bc","ios":"levelo://app?vid=1d1b90eb-d589-437a-866c-212f53f723bc"},"vehicle_type_id":"4","last_reported":1722622272,"current_range_meters":28800,"station_id":"ce4bgv92rcd13ifvqcr0","pricing_plan_id":"cebpf4jnsgd1na2vs0mg"},{"bike_id":"1716bffb-7402-4c05-945a-ce26edc0f792","system_id":"levelo_inurba_marseille","lat":43.310804,"lon":5.38359,"is_reserved":false,"is_disabled":false,"rental_uris":{"android":"levelo://app?vid=1716bffb-7402-4c05-945a-ce26edc0f792","ios":"levelo://app?vid=1716bffb-7402-4c05-945a-ce26edc0f792"},"vehicle_type_id":"4","last_reported":1722622272,"current_range_meters":0,"station_id":"ce4bgv92rcd13ifvqcr0","pricing_plan_id":"cebpf4jnsgd1na2vs0mg"},{"bike_id":"153cd610-ec6e-4fd9-89bf-29fdeaebdb32","system_id":"levelo_inurba_marseille","lat":43.31094,"lon":5.383645,"is_reserved":false,"is_disabled":false,"rental_uris":{"android":"levelo://app?vid=153cd610-ec6e-4fd9-89bf-29fdeaebdb32","ios":"levelo://app?vid=153cd610-ec6e-4fd9-89bf-29fdeaebdb32"},"vehicle_type_id":"4","last_reported":1722622272,"current_range_meters":16000,"station_id":"ce4bgv92rcd13ifvqcr0","pricing_plan_id":"cebpf4jnsgd1na2vs0mg"},{"bike_id":"0c265bb3-fcef-4e60-be41-873f8eed2727","system_id":"levelo_inurba_marseille","lat":43.30281,"lon":5.37702,"is_reserved":false,"is_disabled":false,"rental_uris":{"android":"levelo://app?vid=0c265bb3-fcef-4e60-be41-873f8eed2727","ios":"levelo://app?vid=0c265bb3-fcef-4e60-be41-873f8eed2727"},"vehicle_type_id":"4","last_reported":1722622272,"current_range_meters":0,"station_id":"ce4bguh2rcd13ifvqcj0","pricing_plan_id":"cebpf4jnsgd1na2vs0mg"},{"bike_id":"9a226090-3295-422c-9444-aac31e91bf73","system_id":"levelo_inurba_marseille","lat":43.302784,"lon":5.377158,"is_reserved":false,"is_disabled":false,"rental_uris":{"android":"levelo://app?vid=9a226090-3295-422c-9444-aac31e91bf73","ios":"levelo://app?vid=9a226090-3295-422c-9444-aac31e91bf73"},"vehicle_type_id":"4","last_reported":1722622272,"current_range_meters":14000,"station_id":"ce4bguh2rcd13ifvqcj0","pricing_plan_id":"cebpf4jnsgd1na2vs0mg"},{"bike_id":"0123d57f-b3fb-4689-9fa3-ead728c037d1","system_id":"levelo_inurba_marseille","lat":43.30145,"lon":5.37405,"is_reserved":false,"is_disabled":false,"rental_uris":{"android":"levelo://app?vid=0123d57f-b3fb-4689-9fa3-ead728c037d1","ios":"levelo://app?vid=0123d57f-b3fb-4689-9fa3-ead728c037d1"},"vehicle_type_id":"4","last_reported":1722622272,"current_range_meters":0,"station_id":"ce4bgs92rcd13ifvqcc0","pricing_plan_id":"cebpf4jnsgd1na2vs0mg"},{"bike_id":"c2b42ebb-446e-48f3-a94a-4fa4c69f8c14","system_id":"levelo_inurba_marseille","lat":43.302784,"lon":5.377158,"is_reserved":false,"is_disabled":false,"rental_uris":{"android":"levelo://app?vid=c2b42ebb-446e-48f3-a94a-4fa4c69f8c14","ios":"levelo://app?vid=c2b42ebb-446e-48f3-a94a-4fa4c69f8c14"},"vehicle_type_id":"4","last_reported":1722622272,"current_range_meters":21200,"station_id":"ce4bguh2rcd13ifvqcj0","pricing_plan_id":"cebpf4jnsgd1na2vs0mg"},{"bike_id":"6335c0f1-b33f-4ea3-a9ee-dcfdb24a7ac8","system_id":"levelo_inurba_marseille","lat":43.319935,"lon":5.381699,"is_reserved":false,"is_disabled":false,"rental_uris":{"android":"levelo://app?vid=6335c0f1-b33f-4ea3-a9ee-dcfdb24a7ac8","ios":"levelo://app?vid=6335c0f1-b33f-4ea3-a9ee-dcfdb24a7ac8"},"vehicle_type_id":"4","last_reported":1722622272,"current_range_meters":17200,"station_id":"ce4bhr12rcd13ifvqhpg","pricing_plan_id":"cebpf4jnsgd1na2vs0mg"},{"bike_id":"468d1d5d-3fcc-4b92-9efc-c13d437ba07c","system_id":"levelo_inurba_marseille","lat":43.30612,"lon":5.3822,"is_reserved":false,"is_disabled":false,"rental_uris":{"android":"levelo://app?vid=468d1d5d-3fcc-4b92-9efc-c13d437ba07c","ios":"levelo://app?vid=468d1d5d-3fcc-4b92-9efc-c13d437ba07c"},"vehicle_type_id":"4","last_reported":1722622272,"current_range_meters":20400,"station_id":"","pricing_plan_id":"cebpf4jnsgd1na2vs0mg"},{"bike_id":"034c34c2-dfb6-4735-b5ba-8db946b11e54","system_id":"levelo_inurba_marseille","lat":43.313571,"lon":5.384829,"is_reserved":false,"is_disabled":false,"rental_uris":{"android":"levelo://app?vid=034c34c2-dfb6-4735-b5ba-8db946b11e54","ios":"levelo://app?vid=034c34c2-dfb6-4735-b5ba-8db946b11e54"},"vehicle_type_id":"4","last_reported":1722622272,"current_range_meters":0,"station_id":"ce4bgt92rcd13ifvqcf0","pricing_plan_id":"cebpf4jnsgd1na2vs0mg"},{"bike_id":"763bf39c-5029-4e82-a3ad-017d646a176a","system_id":"levelo_inurba_marseille","lat":43.313626,"lon":5.384907,"is_reserved":false,"is_disabled":false,"rental_uris":{"android":"levelo://app?vid=763bf39c-5029-4e82-a3ad-017d646a176a","ios":"levelo://app?vid=763bf39c-5029-4e82-a3ad-017d646a176a"},"vehicle_type_id":"4","last_reported":1722622272,"current_range_meters":3600,"station_id":"ce4bguh2rcd13ifvqcj0","pricing_plan_id":"cebpf4jnsgd1na2vs0mg"},{"bike_id":"01c3ffdf-9899-4aba-89f8-7e99e8bed313","system_id":"levelo_inurba_marseille","lat":43.299724,"lon":5.371829,"is_reserved":false,"is_disabled":false,"rental_uris":{"android":"levelo://app?vid=01c3ffdf-9899-4aba-89f8-7e99e8bed313","ios":"levelo://app?vid=01c3ffdf-9899-4aba-89f8-7e99e8bed313"},"vehicle_type_id":"4","last_reported":1722622272,"current_range_meters":19200,"station_id":"ce4bgr92rcd13ifvqc7g","pricing_plan_id":"cebpf4jnsgd1na2vs0mg"},{"bike_id":"edc4c5e2-9384-41bc-8654-2c4cffed7988","system_id":"levelo_inurba_marseille","lat":43.29973,"lon":5.3718,"is_reserved":false,"is_disabled":false,"rental_uris":{"android":"levelo://app?vid=edc4c5e2-9384-41bc-8654-2c4cffed7988","ios":"levelo://app?vid=edc4c5e2-9384-41bc-8654-2c4cffed7988"},"vehicle_type_id":"4","last_reported":1722622272,"current_range_meters":0,"station_id":"ce4bgr92rcd13ifvqc7g","pricing_plan_id":"cebpf4jnsgd1na2vs0mg"},{"bike_id":"4c306cd9-ac09-4afa-b2ea-321bc317bfed","system_id":"levelo_inurba_marseille","lat":43.319935,"lon":5.381699,"is_reserved":false,"is_disabled":false,"rental_uris":{"android":"levelo://app?vid=4c306cd9-ac09-4afa-b2ea-321bc317bfed","ios":"levelo://app?vid=4c306cd9-ac09-4afa-b2ea-321bc317bfed"},"vehicle_type_id":"4","last_reported":1722622272,"current_range_meters":29200,"station_id":"ce4bhr12rcd13ifvqhpg","pricing_plan_id":"cebpf4jnsgd1na2vs0mg"},{"bike_id":"104865e4-b6fb-4ad7-bd5c-a20d27a75059","system_id":"levelo_inurba_marseille","lat":43.298433,"lon":5.362774,"is_reserved":false,"is_disabled":false,"rental_uris":{"android":"levelo://app?vid=104865e4-b6fb-4ad7-bd5c-a20d27a75059","ios":"levelo://app?vid=104865e4-b6fb-4ad7-bd5c-a20d27a75059"},"vehicle_type_id":"4","last_reported":1722622272,"current_range_meters":11200,"station_id":"ce4bgpp2rcd13ifvqc3g","pricing_plan_id":"cebpf4jnsgd1na2vs0mg"},{"bike_id":"66271360-f295-4ed7-b4c9-61cb098a4201","system_id":"levelo_inurba_marseille","lat":43.301756,"lon":5.380257,"is_reserved":false,"is_disabled":false,"rental_uris":{"android":"levelo://app?vid=66271360-f295-4ed7-b4c9-61cb098a4201","ios":"levelo://app?vid=66271360-f295-4ed7-b4c9-61cb098a4201"},"vehicle_type_id":"4","last_reported":1722622272,"current_range_meters":23600,"station_id":"","pricing_plan_id":"cebpf4jnsgd1na2vs0mg"},{"bike_id":"b4cb6f7a-7728-448d-94aa-024bc5e107e5","system_id":"levelo_inurba_marseille","lat":43.311722,"lon":5.387247,"is_reserved":false,"is_disabled":false,"rental_uris":{"android":"levelo://app?vid=b4cb6f7a-7728-448d-94aa-024bc5e107e5","ios":"levelo://app?vid=b4cb6f7a-7728-448d-94aa-024bc5e107e5"},"vehicle_type_id":"4","last_reported":1722622272,"current_range_meters":6000,"station_id":"ce4bgv12rcd13ifvqcp0","pricing_plan_id":"cebpf4jnsgd1na2vs0mg"},{"bike_id":"34165e58-720d-442e-b352-9c978d4ee477","system_id":"levelo_inurba_marseille","lat":43.311722,"lon":5.387247,"is_reserved":false,"is_disabled":false,"rental_uris":{"android":"levelo://app?vid=34165e58-720d-442e-b352-9c978d4ee477","ios":"levelo://app?vid=34165e58-720d-442e-b352-9c978d4ee477"},"vehicle_type_id":"4","last_reported":1722622272,"current_range_meters":25200,"station_id":"ce4bgv12rcd13ifvqcp0","pricing_plan_id":"cebpf4jnsgd1na2vs0mg"},{"bike_id":"0202d1c8-1e17-4de1-b483-3075ce04e1ce","system_id":"levelo_inurba_marseille","lat":43.311722,"lon":5.387247,"is_reserved":false,"is_disabled":false,"rental_uris":{"android":"levelo://app?vid=0202d1c8-1e17-4de1-b483-3075ce04e1ce","ios":"levelo://app?vid=0202d1c8-1e17-4de1-b483-3075ce04e1ce"},"vehicle_type_id":"4","last_reported":1722622272,"current_range_meters":6800,"station_id":"ce4bgv12rcd13ifvqcp0","pricing_plan_id":"cebpf4jnsgd1na2vs0mg"},{"bike_id":"2f405d20-1a5a-43c4-91be-ababa2f6504d","system_id":"levelo_inurba_marseille","lat":43.311695,"lon":5.387177,"is_reserved":false,"is_disabled":false,"rental_uris":{"android":"levelo://app?vid=2f405d20-1a5a-43c4-91be-ababa2f6504d","ios":"levelo://app?vid=2f405d20-1a5a-43c4-91be-ababa2f6504d"},"vehicle_type_id":"4","last_reported":1722622272,"current_range_meters":24000,"station_id":"","pricing_plan_id":"cebpf4jnsgd1na2vs0mg"},{"bike_id":"3c8d6358-6637-44d6-bbd6-2eb761901345","system_id":"levelo_inurba_marseille","lat":43.311722,"lon":5.387247,"is_reserved":false,"is_disabled":false,"rental_uris":{"android":"levelo://app?vid=3c8d6358-6637-44d6-bbd6-2eb761901345","ios":"levelo://app?vid=3c8d6358-6637-44d6-bbd6-2eb761901345"},"vehicle_type_id":"4","last_reported":1722622272,"current_range_meters":4000,"station_id":"ce4bgv12rcd13ifvqcp0","pricing_plan_id":"cebpf4jnsgd1na2vs0mg"},{"bike_id":"9b318cf3-030b-4e2d-ae1e-190171014376","system_id":"levelo_inurba_marseille","lat":43.297794,"lon":5.370888,"is_reserved":false,"is_disabled":false,"rental_uris":{"android":"levelo://app?vid=9b318cf3-030b-4e2d-ae1e-190171014376","ios":"levelo://app?vid=9b318cf3-030b-4e2d-ae1e-190171014376"},"vehicle_type_id":"4","last_reported":1722622272,"current_range_meters":3200,"station_id":"ce4bgop2rcd13ifvqc1g","pricing_plan_id":"cebpf4jnsgd1na2vs0mg"},{"bike_id":"7bff8d13-17a5-40cb-8bf6-f30983ef8a25","system_id":"levelo_inurba_marseille","lat":43.322872,"lon":5.382756,"is_reserved":false,"is_disabled":false,"rental_uris":{"android":"levelo://app?vid=7bff8d13-17a5-40cb-8bf6-f30983ef8a25","ios":"levelo://app?vid=7bff8d13-17a5-40cb-8bf6-f30983ef8a25"},"vehicle_type_id":"4","last_reported":1722622272,"current_range_meters":30000,"station_id":"ce4bhr12rcd13ifvqhqg","pricing_plan_id":"cebpf4jnsgd1na2vs0mg"},{"bike_id":"56e8bfaf-8ee2-427e-9b5c-f58a627fcfe1","system_id":"levelo_inurba_marseille","lat":43.322872,"lon":5.382756,"is_reserved":false,"is_disabled":false,"rental_uris":{"android":"levelo://app?vid=56e8bfaf-8ee2-427e-9b5c-f58a627fcfe1","ios":"levelo://app?vid=56e8bfaf-8ee2-427e-9b5c-f58a627fcfe1"},"vehicle_type_id":"4","last_reported":1722622272,"current_range_meters":21200,"station_id":"ce4bhr12rcd13ifvqhqg","pricing_plan_id":"cebpf4jnsgd1na2vs0mg"},{"bike_id":"6b4b8c6a-76f1-465e-be3f-e428664afbbf","system_id":"levelo_inurba_marseille","lat":43.322872,"lon":5.382756,"is_reserved":false,"is_disabled":false,"rental_uris":{"android":"levelo://app?vid=6b4b8c6a-76f1-465e-be3f-e428664afbbf","ios":"levelo://app?vid=6b4b8c6a-76f1-465e-be3f-e428664afbbf"},"vehicle_type_id":"4","last_reported":1722622272,"current_range_meters":24400,"station_id":"ce4bhr12rcd13ifvqhqg","pricing_plan_id":"cebpf4jnsgd1na2vs0mg"},{"bike_id":"953b69be-39c0-47c3-a594-dea76f046d3c","system_id":"levelo_inurba_marseille","lat":43.30058,"lon":5.38088,"is_reserved":false,"is_disabled":false,"rental_uris":{"android":"levelo://app?vid=953b69be-39c0-47c3-a594-dea76f046d3c","ios":"levelo://app?vid=953b69be-39c0-47c3-a594-dea76f046d3c"},"vehicle_type_id":"4","last_reported":1722622272,"current_range_meters":0,"station_id":"","pricing_plan_id":"cebpf4jnsgd1na2vs0mg"},{"bike_id":"4bc8d866-9884-455a-872a-342756fec42f","system_id":"levelo_inurba_marseille","lat":43.2968,"lon":5.37291,"is_reserved":false,"is_disabled":false,"rental_uris":{"android":"levelo://app?vid=4bc8d866-9884-455a-872a-342756fec42f","ios":"levelo://app?vid=4bc8d866-9884-455a-872a-342756fec42f"},"vehicle_type_id":"4","last_reported":1722622272,"current_range_meters":16000,"station_id":"ce4bgk12rcd13ifvqbj0","pricing_plan_id":"cebpf4jnsgd1na2vs0mg"},{"bike_id":"557fa70a-21d7-4f19-aa71-0c18e3755edd","system_id":"levelo_inurba_marseille","lat":43.2968,"lon":5.37291,"is_reserved":false,"is_disabled":false,"rental_uris":{"android":"levelo://app?vid=557fa70a-21d7-4f19-aa71-0c18e3755edd","ios":"levelo://app?vid=557fa70a-21d7-4f19-aa71-0c18e3755edd"},"vehicle_type_id":"4","last_reported":1722622272,"current_range_meters":21600,"station_id":"ce4bgk12rcd13ifvqbj0","pricing_plan_id":"cebpf4jnsgd1na2vs0mg"},{"bike_id":"2914a6ce-7a25-4971-bc58-7eb345d80670","system_id":"levelo_inurba_marseille","lat":43.32936,"lon":5.36597,"is_reserved":false,"is_disabled":false,"rental_uris":{"android":"levelo://app?vid=2914a6ce-7a25-4971-bc58-7eb345d80670","ios":"levelo://app?vid=2914a6ce-7a25-4971-bc58-7eb345d80670"},"vehicle_type_id":"4","last_reported":1722622272,"current_range_meters":31200,"station_id":"","pricing_plan_id":"cebpf4jnsgd1na2vs0mg"},{"bike_id":"37d9e2e8-a330-49bc-89e2-194bde6ea8da","system_id":"levelo_inurba_marseille","lat":43.29581,"lon":5.36738,"is_reserved":false,"is_disabled":false,"rental_uris":{"android":"levelo://app?vid=37d9e2e8-a330-49bc-89e2-194bde6ea8da","ios":"levelo://app?vid=37d9e2e8-a330-49bc-89e2-194bde6ea8da"},"vehicle_type_id":"4","last_reported":1722622272,"current_range_meters":0,"station_id":"ce4bgph2rcd13ifvqc2g","pricing_plan_id":"cebpf4jnsgd1na2vs0mg"},{"bike_id":"59a7ef28-af28-4dc3-ae9b-d5796d76d0cc","system_id":"levelo_inurba_marseille","lat":43.309589,"lon":5.390258,"is_reserved":false,"is_disabled":false,"rental_uris":{"android":"levelo://app?vid=59a7ef28-af28-4dc3-ae9b-d5796d76d0cc","ios":"levelo://app?vid=59a7ef28-af28-4dc3-ae9b-d5796d76d0cc"},"vehicle_type_id":"4","last_reported":1722622272,"current_range_meters":5600,"station_id":"ce4bgup2rcd13ifvqco0","pricing_plan_id":"cebpf4jnsgd1na2vs0mg"},{"bike_id":"df826f2f-144d-46e7-bdf4-8f030a162f09","system_id":"levelo_inurba_marseille","lat":43.309589,"lon":5.390258,"is_reserved":false,"is_disabled":false,"rental_uris":{"android":"levelo://app?vid=df826f2f-144d-46e7-bdf4-8f030a162f09","ios":"levelo://app?vid=df826f2f-144d-46e7-bdf4-8f030a162f09"},"vehicle_type_id":"4","last_reported":1722622272,"current_range_meters":25200,"station_id":"ce4bgup2rcd13ifvqco0","pricing_plan_id":"cebpf4jnsgd1na2vs0mg"},{"bike_id":"197e10b1-48c1-495b-b873-9bc4ae87424d","system_id":"levelo_inurba_marseille","lat":43.309589,"lon":5.390258,"is_reserved":false,"is_disabled":false,"rental_uris":{"android":"levelo://app?vid=197e10b1-48c1-495b-b873-9bc4ae87424d","ios":"levelo://app?vid=197e10b1-48c1-495b-b873-9bc4ae87424d"},"vehicle_type_id":"4","last_reported":1722622272,"current_range_meters":26400,"station_id":"ce4bgup2rcd13ifvqco0","pricing_plan_id":"cebpf4jnsgd1na2vs0mg"},{"bike_id":"7034cf4e-30a6-48f1-b9f7-7fef16c6f7dd","system_id":"levelo_inurba_marseille","lat":43.309589,"lon":5.390258,"is_reserved":false,"is_disabled":false,"rental_uris":{"android":"levelo://app?vid=7034cf4e-30a6-48f1-b9f7-7fef16c6f7dd","ios":"levelo://app?vid=7034cf4e-30a6-48f1-b9f7-7fef16c6f7dd"},"vehicle_type_id":"4","last_reported":1722622272,"current_range_meters":400,"station_id":"ce4bgup2rcd13ifvqco0","pricing_plan_id":"cebpf4jnsgd1na2vs0mg"},{"bike_id":"78eb6882-7798-48a8-b923-d63376f5eb2b","system_id":"levelo_inurba_marseille","lat":43.309589,"lon":5.390258,"is_reserved":false,"is_disabled":false,"rental_uris":{"android":"levelo://app?vid=78eb6882-7798-48a8-b923-d63376f5eb2b","ios":"levelo://app?vid=78eb6882-7798-48a8-b923-d63376f5eb2b"},"vehicle_type_id":"4","last_reported":1722622272,"current_range_meters":4400,"station_id":"ce4bgup2rcd13ifvqco0","pricing_plan_id":"cebpf4jnsgd1na2vs0mg"},{"bike_id":"4fa058fb-81d9-47a6-80fe-be441de87445","system_id":"levelo_inurba_marseille","lat":43.309589,"lon":5.390258,"is_reserved":false,"is_disabled":false,"rental_uris":{"android":"levelo://app?vid=4fa058fb-81d9-47a6-80fe-be441de87445","ios":"levelo://app?vid=4fa058fb-81d9-47a6-80fe-be441de87445"},"vehicle_type_id":"4","last_reported":1722622272,"current_range_meters":3200,"station_id":"ce4bgup2rcd13ifvqco0","pricing_plan_id":"cebpf4jnsgd1na2vs0mg"},{"bike_id":"246cd1e9-68d5-43cd-9e0d-76da18891f6b","system_id":"levelo_inurba_marseille","lat":43.30953,"lon":5.39028,"is_reserved":false,"is_disabled":false,"rental_uris":{"android":"levelo://app?vid=246cd1e9-68d5-43cd-9e0d-76da18891f6b","ios":"levelo://app?vid=246cd1e9-68d5-43cd-9e0d-76da18891f6b"},"vehicle_type_id":"4","last_reported":1722622272,"current_range_meters":1600,"station_id":"ce4bgup2rcd13ifvqco0","pricing_plan_id":"cebpf4jnsgd1na2vs0mg"},{"bike_id":"86271625-0bce-40da-bf5b-2e8f6d62e3df","system_id":"levelo_inurba_marseille","lat":43.309589,"lon":5.390258,"is_reserved":false,"is_disabled":false,"rental_uris":{"android":"levelo://app?vid=86271625-0bce-40da-bf5b-2e8f6d62e3df","ios":"levelo://app?vid=86271625-0bce-40da-bf5b-2e8f6d62e3df"},"vehicle_type_id":"4","last_reported":1722622272,"current_range_meters":3200,"station_id":"ce4bgup2rcd13ifvqco0","pricing_plan_id":"cebpf4jnsgd1na2vs0mg"},{"bike_id":"6aecd2a1-ab4f-40e6-90d4-947d67007d14","system_id":"levelo_inurba_marseille","lat":43.309589,"lon":5.390258,"is_reserved":false,"is_disabled":false,"rental_uris":{"android":"levelo://app?vid=6aecd2a1-ab4f-40e6-90d4-947d67007d14","ios":"levelo://app?vid=6aecd2a1-ab4f-40e6-90d4-947d67007d14"},"vehicle_type_id":"4","last_reported":1722622272,"current_range_meters":18800,"station_id":"ce4bgup2rcd13ifvqco0","pricing_plan_id":"cebpf4jnsgd1na2vs0mg"},{"bike_id":"689f0014-e821-4725-b298-96875190a183","system_id":"levelo_inurba_marseille","lat":43.309589,"lon":5.390258,"is_reserved":false,"is_disabled":false,"rental_uris":{"android":"levelo://app?vid=689f0014-e821-4725-b298-96875190a183","ios":"levelo://app?vid=689f0014-e821-4725-b298-96875190a183"},"vehicle_type_id":"4","last_reported":1722622272,"current_range_meters":25600,"station_id":"ce4bgup2rcd13ifvqco0","pricing_plan_id":"cebpf4jnsgd1na2vs0mg"},{"bike_id":"2e79251c-bf00-4b5f-be50-7b1117c0e221","system_id":"levelo_inurba_marseille","lat":43.30945,"lon":5.3903,"is_reserved":false,"is_disabled":false,"rental_uris":{"android":"levelo://app?vid=2e79251c-bf00-4b5f-be50-7b1117c0e221","ios":"levelo://app?vid=2e79251c-bf00-4b5f-be50-7b1117c0e221"},"vehicle_type_id":"4","last_reported":1722622272,"current_range_meters":4000,"station_id":"ce4bgup2rcd13ifvqco0","pricing_plan_id":"cebpf4jnsgd1na2vs0mg"},{"bike_id":"822e5bff-596e-4b0a-a8d8-bd2200722696","system_id":"levelo_inurba_marseille","lat":43.309589,"lon":5.390258,"is_reserved":false,"is_disabled":false,"rental_uris":{"android":"levelo://app?vid=822e5bff-596e-4b0a-a8d8-bd2200722696","ios":"levelo://app?vid=822e5bff-596e-4b0a-a8d8-bd2200722696"},"vehicle_type_id":"4","last_reported":1722622272,"current_range_meters":0,"station_id":"ce4bgup2rcd13ifvqco0","pricing_plan_id":"cebpf4jnsgd1na2vs0mg"},{"bike_id":"99b1fd25-0c95-4ec5-920f-21ce059e2ef3","system_id":"levelo_inurba_marseille","lat":43.309497,"lon":5.39032,"is_reserved":false,"is_disabled":false,"rental_uris":{"android":"levelo://app?vid=99b1fd25-0c95-4ec5-920f-21ce059e2ef3","ios":"levelo://app?vid=99b1fd25-0c95-4ec5-920f-21ce059e2ef3"},"vehicle_type_id":"4","last_reported":1722622272,"current_range_meters":10400,"station_id":"","pricing_plan_id":"cebpf4jnsgd1na2vs0mg"},{"bike_id":"668adb6c-8cb5-4c06-bb03-9a913d4d8693","system_id":"levelo_inurba_marseille","lat":43.309589,"lon":5.390258,"is_reserved":false,"is_disabled":false,"rental_uris":{"android":"levelo://app?vid=668adb6c-8cb5-4c06-bb03-9a913d4d8693","ios":"levelo://app?vid=668adb6c-8cb5-4c06-bb03-9a913d4d8693"},"vehicle_type_id":"4","last_reported":1722622272,"current_range_meters":27600,"station_id":"ce4bgup2rcd13ifvqco0","pricing_plan_id":"cebpf4jnsgd1na2vs0mg"},{"bike_id":"a95d7059-5111-4d28-8401-c56681bd6c4a","system_id":"levelo_inurba_marseille","lat":43.309589,"lon":5.390258,"is_reserved":false,"is_disabled":false,"rental_uris":{"android":"levelo://app?vid=a95d7059-5111-4d28-8401-c56681bd6c4a","ios":"levelo://app?vid=a95d7059-5111-4d28-8401-c56681bd6c4a"},"vehicle_type_id":"4","last_reported":1722622272,"current_range_meters":4000,"station_id":"ce4bgup2rcd13ifvqco0","pricing_plan_id":"cebpf4jnsgd1na2vs0mg"},{"bike_id":"b495903b-3c26-4953-9531-509f950f0ec9","system_id":"levelo_inurba_marseille","lat":43.309589,"lon":5.390258,"is_reserved":false,"is_disabled":false,"rental_uris":{"android":"levelo://app?vid=b495903b-3c26-4953-9531-509f950f0ec9","ios":"levelo://app?vid=b495903b-3c26-4953-9531-509f950f0ec9"},"vehicle_type_id":"4","last_reported":1722622272,"current_range_meters":15600,"station_id":"ce4bgup2rcd13ifvqco0","pricing_plan_id":"cebpf4jnsgd1na2vs0mg"},{"bike_id":"2ae8d666-01da-42c0-ab11-b926644bc09f","system_id":"levelo_inurba_marseille","lat":43.309589,"lon":5.390258,"is_reserved":false,"is_disabled":false,"rental_uris":{"android":"levelo://app?vid=2ae8d666-01da-42c0-ab11-b926644bc09f","ios":"levelo://app?vid=2ae8d666-01da-42c0-ab11-b926644bc09f"},"vehicle_type_id":"4","last_reported":1722622272,"current_range_meters":22800,"station_id":"ce4bgup2rcd13ifvqco0","pricing_plan_id":"cebpf4jnsgd1na2vs0mg"},{"bike_id":"c582b85d-2f20-4dfb-98f6-bae93ba13d5e","system_id":"levelo_inurba_marseille","lat":43.309589,"lon":5.390258,"is_reserved":false,"is_disabled":false,"rental_uris":{"android":"levelo://app?vid=c582b85d-2f20-4dfb-98f6-bae93ba13d5e","ios":"levelo://app?vid=c582b85d-2f20-4dfb-98f6-bae93ba13d5e"},"vehicle_type_id":"4","last_reported":1722622272,"current_range_meters":24000,"station_id":"ce4bgup2rcd13ifvqco0","pricing_plan_id":"cebpf4jnsgd1na2vs0mg"},{"bike_id":"7e39b3cc-61a0-41b7-82ff-a69505f72f9e","system_id":"levelo_inurba_marseille","lat":43.309512,"lon":5.390422,"is_reserved":false,"is_disabled":false,"rental_uris":{"android":"levelo://app?vid=7e39b3cc-61a0-41b7-82ff-a69505f72f9e","ios":"levelo://app?vid=7e39b3cc-61a0-41b7-82ff-a69505f72f9e"},"vehicle_type_id":"4","last_reported":1722622272,"current_range_meters":18000,"station_id":"","pricing_plan_id":"cebpf4jnsgd1na2vs0mg"},{"bike_id":"025de810-2f27-40f4-b1ba-02649cbec5e3","system_id":"levelo_inurba_marseille","lat":43.317557,"lon":5.390173,"is_reserved":false,"is_disabled":false,"rental_uris":{"android":"levelo://app?vid=025de810-2f27-40f4-b1ba-02649cbec5e3","ios":"levelo://app?vid=025de810-2f27-40f4-b1ba-02649cbec5e3"},"vehicle_type_id":"4","last_reported":1722622272,"current_range_meters":18000,"station_id":"ce4bhqp2rcd13ifvqhng","pricing_plan_id":"cebpf4jnsgd1na2vs0mg"},{"bike_id":"69de66e4-9356-454e-addd-3e293526380e","system_id":"levelo_inurba_marseille","lat":43.32477,"lon":5.38529,"is_reserved":false,"is_disabled":false,"rental_uris":{"android":"levelo://app?vid=69de66e4-9356-454e-addd-3e293526380e","ios":"levelo://app?vid=69de66e4-9356-454e-addd-3e293526380e"},"vehicle_type_id":"4","last_reported":1722622272,"current_range_meters":12400,"station_id":"","pricing_plan_id":"cebpf4jnsgd1na2vs0mg"},{"bike_id":"b5263cb6-18ad-4d6d-83e6-888376b58798","system_id":"levelo_inurba_marseille","lat":43.29575,"lon":5.37518,"is_reserved":false,"is_disabled":false,"rental_uris":{"android":"levelo://app?vid=b5263cb6-18ad-4d6d-83e6-888376b58798","ios":"levelo://app?vid=b5263cb6-18ad-4d6d-83e6-888376b58798"},"vehicle_type_id":"4","last_reported":1722622272,"current_range_meters":0,"station_id":"ce4bgh92rcd13ifvqb50","pricing_plan_id":"cebpf4jnsgd1na2vs0mg"},{"bike_id":"97da5d59-cf98-4fa4-ac4b-a28c882d915e","system_id":"levelo_inurba_marseille","lat":43.295748,"lon":5.37522,"is_reserved":false,"is_disabled":false,"rental_uris":{"android":"levelo://app?vid=97da5d59-cf98-4fa4-ac4b-a28c882d915e","ios":"levelo://app?vid=97da5d59-cf98-4fa4-ac4b-a28c882d915e"},"vehicle_type_id":"4","last_reported":1722622272,"current_range_meters":0,"station_id":"ce4bgh92rcd13ifvqb50","pricing_plan_id":"cebpf4jnsgd1na2vs0mg"},{"bike_id":"0184d497-373c-4a5a-a89b-388ed5028858","system_id":"levelo_inurba_marseille","lat":43.298037,"lon":5.381066,"is_reserved":false,"is_disabled":false,"rental_uris":{"android":"levelo://app?vid=0184d497-373c-4a5a-a89b-388ed5028858","ios":"levelo://app?vid=0184d497-373c-4a5a-a89b-388ed5028858"},"vehicle_type_id":"4","last_reported":1722622272,"current_range_meters":8400,"station_id":"ce4bgip2rcd13ifvqbb0","pricing_plan_id":"cebpf4jnsgd1na2vs0mg"},{"bike_id":"e971f224-08a2-40fd-9a66-a56f096f70af","system_id":"levelo_inurba_marseille","lat":43.29568,"lon":5.37514,"is_reserved":false,"is_disabled":false,"rental_uris":{"android":"levelo://app?vid=e971f224-08a2-40fd-9a66-a56f096f70af","ios":"levelo://app?vid=e971f224-08a2-40fd-9a66-a56f096f70af"},"vehicle_type_id":"4","last_reported":1722622272,"current_range_meters":400,"station_id":"ce4bgh92rcd13ifvqb50","pricing_plan_id":"cebpf4jnsgd1na2vs0mg"},{"bike_id":"d413d96f-b951-431e-9e04-63e42143e190","system_id":"levelo_inurba_marseille","lat":43.29566,"lon":5.37516,"is_reserved":false,"is_disabled":false,"rental_uris":{"android":"levelo://app?vid=d413d96f-b951-431e-9e04-63e42143e190","ios":"levelo://app?vid=d413d96f-b951-431e-9e04-63e42143e190"},"vehicle_type_id":"4","last_reported":1722622272,"current_range_meters":0,"station_id":"ce4bgh92rcd13ifvqb50","pricing_plan_id":"cebpf4jnsgd1na2vs0mg"},{"bike_id":"6d35c23d-e057-44cb-a1ef-f0022ba4b38c","system_id":"levelo_inurba_marseille","lat":43.29898,"lon":5.3831,"is_reserved":false,"is_disabled":false,"rental_uris":{"android":"levelo://app?vid=6d35c23d-e057-44cb-a1ef-f0022ba4b38c","ios":"levelo://app?vid=6d35c23d-e057-44cb-a1ef-f0022ba4b38c"},"vehicle_type_id":"4","last_reported":1722622272,"current_range_meters":5600,"station_id":"","pricing_plan_id":"cebpf4jnsgd1na2vs0mg"},{"bike_id":"cc718971-5089-4aab-ad44-396f980b3e7e","system_id":"levelo_inurba_marseille","lat":43.304278,"lon":5.388868,"is_reserved":false,"is_disabled":false,"rental_uris":{"android":"levelo://app?vid=cc718971-5089-4aab-ad44-396f980b3e7e","ios":"levelo://app?vid=cc718971-5089-4aab-ad44-396f980b3e7e"},"vehicle_type_id":"4","last_reported":1722622272,"current_range_meters":31600,"station_id":"ce4bgk12rcd13ifvqbi0","pricing_plan_id":"cebpf4jnsgd1na2vs0mg"},{"bike_id":"0cc88cca-ac39-466c-bb02-7d14ef719576","system_id":"levelo_inurba_marseille","lat":43.304274,"lon":5.388873,"is_reserved":false,"is_disabled":false,"rental_uris":{"android":"levelo://app?vid=0cc88cca-ac39-466c-bb02-7d14ef719576","ios":"levelo://app?vid=0cc88cca-ac39-466c-bb02-7d14ef719576"},"vehicle_type_id":"4","last_reported":1722622272,"current_range_meters":0,"station_id":"ce4bgk12rcd13ifvqbi0","pricing_plan_id":"cebpf4jnsgd1na2vs0mg"},{"bike_id":"ae6dbbbc-c12a-42a8-834f-ceb739624b16","system_id":"levelo_inurba_marseille","lat":43.296277,"lon":5.377108,"is_reserved":false,"is_disabled":false,"rental_uris":{"android":"levelo://app?vid=ae6dbbbc-c12a-42a8-834f-ceb739624b16","ios":"levelo://app?vid=ae6dbbbc-c12a-42a8-834f-ceb739624b16"},"vehicle_type_id":"4","last_reported":1722622272,"current_range_meters":0,"station_id":"ce4bgi92rcd13ifvqb90","pricing_plan_id":"cebpf4jnsgd1na2vs0mg"},{"bike_id":"6b615995-0f79-4a4f-86f2-09acc989cacd","system_id":"levelo_inurba_marseille","lat":43.29983,"lon":5.38484,"is_reserved":false,"is_disabled":false,"rental_uris":{"android":"levelo://app?vid=6b615995-0f79-4a4f-86f2-09acc989cacd","ios":"levelo://app?vid=6b615995-0f79-4a4f-86f2-09acc989cacd"},"vehicle_type_id":"4","last_reported":1722622272,"current_range_meters":0,"station_id":"ce4bgj92rcd13ifvqbd0","pricing_plan_id":"cebpf4jnsgd1na2vs0mg"},{"bike_id":"8e3bf011-2794-4f8d-8b06-f8ae3803c30b","system_id":"levelo_inurba_marseille","lat":43.309589,"lon":5.390258,"is_reserved":false,"is_disabled":false,"rental_uris":{"android":"levelo://app?vid=8e3bf011-2794-4f8d-8b06-f8ae3803c30b","ios":"levelo://app?vid=8e3bf011-2794-4f8d-8b06-f8ae3803c30b"},"vehicle_type_id":"4","last_reported":1722622272,"current_range_meters":8800,"station_id":"ce4bgup2rcd13ifvqco0","pricing_plan_id":"cebpf4jnsgd1na2vs0mg"},{"bike_id":"4368b7f6-ef2d-42ba-ad58-1932d541634e","system_id":"levelo_inurba_marseille","lat":43.295279,"lon":5.375048,"is_reserved":false,"is_disabled":false,"rental_uris":{"android":"levelo://app?vid=4368b7f6-ef2d-42ba-ad58-1932d541634e","ios":"levelo://app?vid=4368b7f6-ef2d-42ba-ad58-1932d541634e"},"vehicle_type_id":"4","last_reported":1722622272,"current_range_meters":0,"station_id":"ce4bgkp2rcd13ifvqbmg","pricing_plan_id":"cebpf4jnsgd1na2vs0mg"},{"bike_id":"6f93d237-c115-42ef-9df1-cc69fe318c35","system_id":"levelo_inurba_marseille","lat":43.299707,"lon":5.384859,"is_reserved":false,"is_disabled":false,"rental_uris":{"android":"levelo://app?vid=6f93d237-c115-42ef-9df1-cc69fe318c35","ios":"levelo://app?vid=6f93d237-c115-42ef-9df1-cc69fe318c35"},"vehicle_type_id":"4","last_reported":1722622272,"current_range_meters":15200,"station_id":"ce4bgj92rcd13ifvqbd0","pricing_plan_id":"cebpf4jnsgd1na2vs0mg"},{"bike_id":"9729a99a-40a1-45c5-a0bf-fab8f0e937e0","system_id":"levelo_inurba_marseille","lat":43.29971,"lon":5.38488,"is_reserved":false,"is_disabled":false,"rental_uris":{"android":"levelo://app?vid=9729a99a-40a1-45c5-a0bf-fab8f0e937e0","ios":"levelo://app?vid=9729a99a-40a1-45c5-a0bf-fab8f0e937e0"},"vehicle_type_id":"4","last_reported":1722622272,"current_range_meters":23200,"station_id":"ce4bgj92rcd13ifvqbd0","pricing_plan_id":"cebpf4jnsgd1na2vs0mg"},{"bike_id":"82c161fc-6eea-4850-a125-f816989ab0d9","system_id":"levelo_inurba_marseille","lat":43.299717,"lon":5.384845,"is_reserved":false,"is_disabled":false,"rental_uris":{"android":"levelo://app?vid=82c161fc-6eea-4850-a125-f816989ab0d9","ios":"levelo://app?vid=82c161fc-6eea-4850-a125-f816989ab0d9"},"vehicle_type_id":"4","last_reported":1722622272,"current_range_meters":11200,"station_id":"ce4bgj92rcd13ifvqbd0","pricing_plan_id":"cebpf4jnsgd1na2vs0mg"},{"bike_id":"aee81695-9745-4753-b453-af7449281f6b","system_id":"levelo_inurba_marseille","lat":43.299717,"lon":5.384845,"is_reserved":false,"is_disabled":false,"rental_uris":{"android":"levelo://app?vid=aee81695-9745-4753-b453-af7449281f6b","ios":"levelo://app?vid=aee81695-9745-4753-b453-af7449281f6b"},"vehicle_type_id":"4","last_reported":1722622272,"current_range_meters":4400,"station_id":"ce4bgj92rcd13ifvqbd0","pricing_plan_id":"cebpf4jnsgd1na2vs0mg"},{"bike_id":"7e9505f1-cdcf-4132-8d33-5ad815fc30e0","system_id":"levelo_inurba_marseille","lat":43.299717,"lon":5.384845,"is_reserved":false,"is_disabled":false,"rental_uris":{"android":"levelo://app?vid=7e9505f1-cdcf-4132-8d33-5ad815fc30e0","ios":"levelo://app?vid=7e9505f1-cdcf-4132-8d33-5ad815fc30e0"},"vehicle_type_id":"4","last_reported":1722622272,"current_range_meters":16800,"station_id":"ce4bgj92rcd13ifvqbd0","pricing_plan_id":"cebpf4jnsgd1na2vs0mg"},{"bike_id":"db34874f-8517-4cb3-a102-0b719724e1f1","system_id":"levelo_inurba_marseille","lat":43.30139,"lon":5.3877,"is_reserved":false,"is_disabled":false,"rental_uris":{"android":"levelo://app?vid=db34874f-8517-4cb3-a102-0b719724e1f1","ios":"levelo://app?vid=db34874f-8517-4cb3-a102-0b719724e1f1"},"vehicle_type_id":"4","last_reported":1722622272,"current_range_meters":23200,"station_id":"ce4bghh2rcd13ifvqb60","pricing_plan_id":"cebpf4jnsgd1na2vs0mg"},{"bike_id":"104aa5f0-f079-4576-b617-cb69012268be","system_id":"levelo_inurba_marseille","lat":43.301396,"lon":5.387812,"is_reserved":false,"is_disabled":false,"rental_uris":{"android":"levelo://app?vid=104aa5f0-f079-4576-b617-cb69012268be","ios":"levelo://app?vid=104aa5f0-f079-4576-b617-cb69012268be"},"vehicle_type_id":"4","last_reported":1722622272,"current_range_meters":22000,"station_id":"ce4bghh2rcd13ifvqb60","pricing_plan_id":"cebpf4jnsgd1na2vs0mg"},{"bike_id":"0009eb61-2553-4477-91e3-ab94c3850384","system_id":"levelo_inurba_marseille","lat":43.32367,"lon":5.388836,"is_reserved":false,"is_disabled":false,"rental_uris":{"android":"levelo://app?vid=0009eb61-2553-4477-91e3-ab94c3850384","ios":"levelo://app?vid=0009eb61-2553-4477-91e3-ab94c3850384"},"vehicle_type_id":"4","last_reported":1722622272,"current_range_meters":27200,"station_id":"ce4bhqp2rcd13ifvqhog","pricing_plan_id":"cebpf4jnsgd1na2vs0mg"},{"bike_id":"2a7fdbca-6296-4df7-8529-49300be1471d","system_id":"levelo_inurba_marseille","lat":43.32367,"lon":5.388836,"is_reserved":false,"is_disabled":false,"rental_uris":{"android":"levelo://app?vid=2a7fdbca-6296-4df7-8529-49300be1471d","ios":"levelo://app?vid=2a7fdbca-6296-4df7-8529-49300be1471d"},"vehicle_type_id":"4","last_reported":1722622272,"current_range_meters":13600,"station_id":"ce4bhqp2rcd13ifvqhog","pricing_plan_id":"cebpf4jnsgd1na2vs0mg"},{"bike_id":"ce1d46c3-7a87-468d-93ef-7de440451ad5","system_id":"levelo_inurba_marseille","lat":43.32367,"lon":5.388836,"is_reserved":false,"is_disabled":false,"rental_uris":{"android":"levelo://app?vid=ce1d46c3-7a87-468d-93ef-7de440451ad5","ios":"levelo://app?vid=ce1d46c3-7a87-468d-93ef-7de440451ad5"},"vehicle_type_id":"4","last_reported":1722622272,"current_range_meters":17600,"station_id":"ce4bhqp2rcd13ifvqhog","pricing_plan_id":"cebpf4jnsgd1na2vs0mg"},{"bike_id":"8cb1e866-7783-454b-8c11-289b6f3952ac","system_id":"levelo_inurba_marseille","lat":43.29602,"lon":5.381084,"is_reserved":false,"is_disabled":false,"rental_uris":{"android":"levelo://app?vid=8cb1e866-7783-454b-8c11-289b6f3952ac","ios":"levelo://app?vid=8cb1e866-7783-454b-8c11-289b6f3952ac"},"vehicle_type_id":"4","last_reported":1722622272,"current_range_meters":3200,"station_id":"ce4bgl12rcd13ifvqbo0","pricing_plan_id":"cebpf4jnsgd1na2vs0mg"},{"bike_id":"98ae2a7c-35e2-42cb-98eb-af8e770e67de","system_id":"levelo_inurba_marseille","lat":43.293259,"lon":5.371586,"is_reserved":false,"is_disabled":false,"rental_uris":{"android":"levelo://app?vid=98ae2a7c-35e2-42cb-98eb-af8e770e67de","ios":"levelo://app?vid=98ae2a7c-35e2-42cb-98eb-af8e770e67de"},"vehicle_type_id":"4","last_reported":1722622272,"current_range_meters":30400,"station_id":"ce4bgh92rcd13ifvqb40","pricing_plan_id":"cebpf4jnsgd1na2vs0mg"},{"bike_id":"d2bd4368-58b3-4d06-a01b-b1b62393ca1d","system_id":"levelo_inurba_marseille","lat":43.29283,"lon":5.36838,"is_reserved":false,"is_disabled":false,"rental_uris":{"android":"levelo://app?vid=d2bd4368-58b3-4d06-a01b-b1b62393ca1d","ios":"levelo://app?vid=d2bd4368-58b3-4d06-a01b-b1b62393ca1d"},"vehicle_type_id":"4","last_reported":1722622272,"current_range_meters":31200,"station_id":"ce4bhbp2rcd13ifvqesg","pricing_plan_id":"cebpf4jnsgd1na2vs0mg"},{"bike_id":"14abe69a-655b-4bb8-8221-32c060d00afd","system_id":"levelo_inurba_marseille","lat":43.293259,"lon":5.371586,"is_reserved":false,"is_disabled":false,"rental_uris":{"android":"levelo://app?vid=14abe69a-655b-4bb8-8221-32c060d00afd","ios":"levelo://app?vid=14abe69a-655b-4bb8-8221-32c060d00afd"},"vehicle_type_id":"4","last_reported":1722622272,"current_range_meters":24000,"station_id":"ce4bgh92rcd13ifvqb40","pricing_plan_id":"cebpf4jnsgd1na2vs0mg"},{"bike_id":"b277cdcb-d67c-401c-86b6-51796c4a15f4","system_id":"levelo_inurba_marseille","lat":43.292749,"lon":5.368402,"is_reserved":false,"is_disabled":false,"rental_uris":{"android":"levelo://app?vid=b277cdcb-d67c-401c-86b6-51796c4a15f4","ios":"levelo://app?vid=b277cdcb-d67c-401c-86b6-51796c4a15f4"},"vehicle_type_id":"4","last_reported":1722622272,"current_range_meters":0,"station_id":"ce4bhbp2rcd13ifvqesg","pricing_plan_id":"cebpf4jnsgd1na2vs0mg"},{"bike_id":"bfeefce0-8feb-4695-9cd3-86d9b4e2f44e","system_id":"levelo_inurba_marseille","lat":43.292749,"lon":5.368402,"is_reserved":false,"is_disabled":false,"rental_uris":{"android":"levelo://app?vid=bfeefce0-8feb-4695-9cd3-86d9b4e2f44e","ios":"levelo://app?vid=bfeefce0-8feb-4695-9cd3-86d9b4e2f44e"},"vehicle_type_id":"4","last_reported":1722622272,"current_range_meters":11600,"station_id":"ce4bhbp2rcd13ifvqesg","pricing_plan_id":"cebpf4jnsgd1na2vs0mg"},{"bike_id":"3dcf5a46-1eed-45c9-a060-2711b7f461a9","system_id":"levelo_inurba_marseille","lat":43.29273,"lon":5.36849,"is_reserved":false,"is_disabled":false,"rental_uris":{"android":"levelo://app?vid=3dcf5a46-1eed-45c9-a060-2711b7f461a9","ios":"levelo://app?vid=3dcf5a46-1eed-45c9-a060-2711b7f461a9"},"vehicle_type_id":"4","last_reported":1722622272,"current_range_meters":24000,"station_id":"ce4bhbp2rcd13ifvqesg","pricing_plan_id":"cebpf4jnsgd1na2vs0mg"},{"bike_id":"f6d8b518-5a96-43db-b0df-9f743146926d","system_id":"levelo_inurba_marseille","lat":43.29271,"lon":5.36846,"is_reserved":false,"is_disabled":false,"rental_uris":{"android":"levelo://app?vid=f6d8b518-5a96-43db-b0df-9f743146926d","ios":"levelo://app?vid=f6d8b518-5a96-43db-b0df-9f743146926d"},"vehicle_type_id":"4","last_reported":1722622272,"current_range_meters":0,"station_id":"ce4bhbp2rcd13ifvqesg","pricing_plan_id":"cebpf4jnsgd1na2vs0mg"},{"bike_id":"e03021e0-47dd-414f-8ef5-d4be7cee29e5","system_id":"levelo_inurba_marseille","lat":43.292749,"lon":5.368402,"is_reserved":false,"is_disabled":false,"rental_uris":{"android":"levelo://app?vid=e03021e0-47dd-414f-8ef5-d4be7cee29e5","ios":"levelo://app?vid=e03021e0-47dd-414f-8ef5-d4be7cee29e5"},"vehicle_type_id":"4","last_reported":1722622272,"current_range_meters":11600,"station_id":"ce4bhbp2rcd13ifvqesg","pricing_plan_id":"cebpf4jnsgd1na2vs0mg"},{"bike_id":"dccc8a22-88fb-4299-9a25-44308d3f42c9","system_id":"levelo_inurba_marseille","lat":43.293249,"lon":5.371578,"is_reserved":false,"is_disabled":false,"rental_uris":{"android":"levelo://app?vid=dccc8a22-88fb-4299-9a25-44308d3f42c9","ios":"levelo://app?vid=dccc8a22-88fb-4299-9a25-44308d3f42c9"},"vehicle_type_id":"4","last_reported":1722622272,"current_range_meters":0,"station_id":"ce4bgh92rcd13ifvqb40","pricing_plan_id":"cebpf4jnsgd1na2vs0mg"},{"bike_id":"b9288bbd-f40b-4d36-b3b0-ae9c0d909be8","system_id":"levelo_inurba_marseille","lat":43.29424,"lon":5.3785,"is_reserved":false,"is_disabled":false,"rental_uris":{"android":"levelo://app?vid=b9288bbd-f40b-4d36-b3b0-ae9c0d909be8","ios":"levelo://app?vid=b9288bbd-f40b-4d36-b3b0-ae9c0d909be8"},"vehicle_type_id":"4","last_reported":1722622272,"current_range_meters":1200,"station_id":"","pricing_plan_id":"cebpf4jnsgd1na2vs0mg"},{"bike_id":"6fb5ac60-9586-42fa-8f5c-ee7042ebada3","system_id":"levelo_inurba_marseille","lat":43.29303,"lon":5.37444,"is_reserved":false,"is_disabled":false,"rental_uris":{"android":"levelo://app?vid=6fb5ac60-9586-42fa-8f5c-ee7042ebada3","ios":"levelo://app?vid=6fb5ac60-9586-42fa-8f5c-ee7042ebada3"},"vehicle_type_id":"4","last_reported":1722622272,"current_range_meters":0,"station_id":"ce4bgi12rcd13ifvqb70","pricing_plan_id":"cebpf4jnsgd1na2vs0mg"},{"bike_id":"b99a41a1-dc57-43fa-9321-45f616261cec","system_id":"levelo_inurba_marseille","lat":43.305994,"lon":5.393687,"is_reserved":false,"is_disabled":false,"rental_uris":{"android":"levelo://app?vid=b99a41a1-dc57-43fa-9321-45f616261cec","ios":"levelo://app?vid=b99a41a1-dc57-43fa-9321-45f616261cec"},"vehicle_type_id":"4","last_reported":1722622272,"current_range_meters":0,"station_id":"ce4bh0p2rcd13ifvqd80","pricing_plan_id":"cebpf4jnsgd1na2vs0mg"},{"bike_id":"1cb1df70-b07a-432c-a232-8cada8b1de5b","system_id":"levelo_inurba_marseille","lat":43.305994,"lon":5.393687,"is_reserved":false,"is_disabled":false,"rental_uris":{"android":"levelo://app?vid=1cb1df70-b07a-432c-a232-8cada8b1de5b","ios":"levelo://app?vid=1cb1df70-b07a-432c-a232-8cada8b1de5b"},"vehicle_type_id":"4","last_reported":1722622272,"current_range_meters":5200,"station_id":"ce4bh0p2rcd13ifvqd80","pricing_plan_id":"cebpf4jnsgd1na2vs0mg"},{"bike_id":"562d4a33-155c-4032-8571-52d98434140d","system_id":"levelo_inurba_marseille","lat":43.305994,"lon":5.393687,"is_reserved":false,"is_disabled":false,"rental_uris":{"android":"levelo://app?vid=562d4a33-155c-4032-8571-52d98434140d","ios":"levelo://app?vid=562d4a33-155c-4032-8571-52d98434140d"},"vehicle_type_id":"4","last_reported":1722622272,"current_range_meters":0,"station_id":"ce4bh0p2rcd13ifvqd80","pricing_plan_id":"cebpf4jnsgd1na2vs0mg"},{"bike_id":"ad2ebceb-f754-4edc-9f8f-eaf247bb0d06","system_id":"levelo_inurba_marseille","lat":43.305994,"lon":5.393687,"is_reserved":false,"is_disabled":false,"rental_uris":{"android":"levelo://app?vid=ad2ebceb-f754-4edc-9f8f-eaf247bb0d06","ios":"levelo://app?vid=ad2ebceb-f754-4edc-9f8f-eaf247bb0d06"},"vehicle_type_id":"4","last_reported":1722622272,"current_range_meters":0,"station_id":"ce4bh0p2rcd13ifvqd80","pricing_plan_id":"cebpf4jnsgd1na2vs0mg"},{"bike_id":"4ec6c9f0-1ee5-4bb9-bba0-05adaf11392b","system_id":"levelo_inurba_marseille","lat":43.302992,"lon":5.392136,"is_reserved":false,"is_disabled":false,"rental_uris":{"android":"levelo://app?vid=4ec6c9f0-1ee5-4bb9-bba0-05adaf11392b","ios":"levelo://app?vid=4ec6c9f0-1ee5-4bb9-bba0-05adaf11392b"},"vehicle_type_id":"4","last_reported":1722622272,"current_range_meters":28400,"station_id":"ce4bgkh2rcd13ifvqbk0","pricing_plan_id":"cebpf4jnsgd1na2vs0mg"},{"bike_id":"eba287f5-1ddc-4c4c-9790-69b835ae8b96","system_id":"levelo_inurba_marseille","lat":43.29363,"lon":5.37838,"is_reserved":false,"is_disabled":false,"rental_uris":{"android":"levelo://app?vid=eba287f5-1ddc-4c4c-9790-69b835ae8b96","ios":"levelo://app?vid=eba287f5-1ddc-4c4c-9790-69b835ae8b96"},"vehicle_type_id":"4","last_reported":1722622272,"current_range_meters":0,"station_id":"ce4bgjh2rcd13ifvqbf0","pricing_plan_id":"cebpf4jnsgd1na2vs0mg"},{"bike_id":"a57683dc-9ae7-49ab-ac5a-c1b397831bde","system_id":"levelo_inurba_marseille","lat":43.30085,"lon":5.390856,"is_reserved":false,"is_disabled":false,"rental_uris":{"android":"levelo://app?vid=a57683dc-9ae7-49ab-ac5a-c1b397831bde","ios":"levelo://app?vid=a57683dc-9ae7-49ab-ac5a-c1b397831bde"},"vehicle_type_id":"4","last_reported":1722622272,"current_range_meters":0,"station_id":"ce4bh192rcd13ifvqdb0","pricing_plan_id":"cebpf4jnsgd1na2vs0mg"},{"bike_id":"030c4f98-a90c-4631-ad3f-b2cdd2ebcf94","system_id":"levelo_inurba_marseille","lat":43.30085,"lon":5.390856,"is_reserved":false,"is_disabled":false,"rental_uris":{"android":"levelo://app?vid=030c4f98-a90c-4631-ad3f-b2cdd2ebcf94","ios":"levelo://app?vid=030c4f98-a90c-4631-ad3f-b2cdd2ebcf94"},"vehicle_type_id":"4","last_reported":1722622272,"current_range_meters":0,"station_id":"ce4bh192rcd13ifvqdb0","pricing_plan_id":"cebpf4jnsgd1na2vs0mg"},{"bike_id":"5435816c-2c0d-4d24-ad9f-ce81592171f7","system_id":"levelo_inurba_marseille","lat":43.29224,"lon":5.3605,"is_reserved":false,"is_disabled":false,"rental_uris":{"android":"levelo://app?vid=5435816c-2c0d-4d24-ad9f-ce81592171f7","ios":"levelo://app?vid=5435816c-2c0d-4d24-ad9f-ce81592171f7"},"vehicle_type_id":"4","last_reported":1722622272,"current_range_meters":1200,"station_id":"ce4bhbh2rcd13ifvqeqg","pricing_plan_id":"cebpf4jnsgd1na2vs0mg"},{"bike_id":"a55c8685-a27a-4f1b-ab3c-75aa83615d5a","system_id":"levelo_inurba_marseille","lat":43.29224,"lon":5.36048,"is_reserved":false,"is_disabled":false,"rental_uris":{"android":"levelo://app?vid=a55c8685-a27a-4f1b-ab3c-75aa83615d5a","ios":"levelo://app?vid=a55c8685-a27a-4f1b-ab3c-75aa83615d5a"},"vehicle_type_id":"4","last_reported":1722622272,"current_range_meters":17200,"station_id":"ce4bhbh2rcd13ifvqeqg","pricing_plan_id":"cebpf4jnsgd1na2vs0mg"},{"bike_id":"07dbab1c-db87-4912-9373-73076c79aa62","system_id":"levelo_inurba_marseille","lat":43.29221,"lon":5.36057,"is_reserved":false,"is_disabled":false,"rental_uris":{"android":"levelo://app?vid=07dbab1c-db87-4912-9373-73076c79aa62","ios":"levelo://app?vid=07dbab1c-db87-4912-9373-73076c79aa62"},"vehicle_type_id":"4","last_reported":1722622272,"current_range_meters":28800,"station_id":"ce4bhbh2rcd13ifvqeqg","pricing_plan_id":"cebpf4jnsgd1na2vs0mg"},{"bike_id":"f869fca0-0ab0-4f5b-a91c-b5e587329c49","system_id":"levelo_inurba_marseille","lat":43.29219,"lon":5.36047,"is_reserved":false,"is_disabled":false,"rental_uris":{"android":"levelo://app?vid=f869fca0-0ab0-4f5b-a91c-b5e587329c49","ios":"levelo://app?vid=f869fca0-0ab0-4f5b-a91c-b5e587329c49"},"vehicle_type_id":"4","last_reported":1722622272,"current_range_meters":0,"station_id":"ce4bhbh2rcd13ifvqeqg","pricing_plan_id":"cebpf4jnsgd1na2vs0mg"},{"bike_id":"59c2f0d0-1877-4c68-8bf4-b431f98ef670","system_id":"levelo_inurba_marseille","lat":43.298764,"lon":5.388973,"is_reserved":false,"is_disabled":false,"rental_uris":{"android":"levelo://app?vid=59c2f0d0-1877-4c68-8bf4-b431f98ef670","ios":"levelo://app?vid=59c2f0d0-1877-4c68-8bf4-b431f98ef670"},"vehicle_type_id":"4","last_reported":1722622272,"current_range_meters":7600,"station_id":"ce4bh392rcd13ifvqdl0","pricing_plan_id":"cebpf4jnsgd1na2vs0mg"},{"bike_id":"bee8212f-8dc8-4ce2-ae48-ea6e4924fe6e","system_id":"levelo_inurba_marseille","lat":43.298764,"lon":5.388973,"is_reserved":false,"is_disabled":false,"rental_uris":{"android":"levelo://app?vid=bee8212f-8dc8-4ce2-ae48-ea6e4924fe6e","ios":"levelo://app?vid=bee8212f-8dc8-4ce2-ae48-ea6e4924fe6e"},"vehicle_type_id":"4","last_reported":1722622272,"current_range_meters":4400,"station_id":"ce4bh392rcd13ifvqdl0","pricing_plan_id":"cebpf4jnsgd1na2vs0mg"},{"bike_id":"12b5ca2a-bac9-46cd-b5ae-930d6d385f9f","system_id":"levelo_inurba_marseille","lat":43.298764,"lon":5.388973,"is_reserved":false,"is_disabled":false,"rental_uris":{"android":"levelo://app?vid=12b5ca2a-bac9-46cd-b5ae-930d6d385f9f","ios":"levelo://app?vid=12b5ca2a-bac9-46cd-b5ae-930d6d385f9f"},"vehicle_type_id":"4","last_reported":1722622272,"current_range_meters":29600,"station_id":"ce4bh392rcd13ifvqdl0","pricing_plan_id":"cebpf4jnsgd1na2vs0mg"},{"bike_id":"c60ae143-ad65-46c2-8717-0fbc6a05c619","system_id":"levelo_inurba_marseille","lat":43.29259,"lon":5.37617,"is_reserved":false,"is_disabled":false,"rental_uris":{"android":"levelo://app?vid=c60ae143-ad65-46c2-8717-0fbc6a05c619","ios":"levelo://app?vid=c60ae143-ad65-46c2-8717-0fbc6a05c619"},"vehicle_type_id":"4","last_reported":1722622272,"current_range_meters":0,"station_id":"ce4bgi12rcd13ifvqb80","pricing_plan_id":"cebpf4jnsgd1na2vs0mg"},{"bike_id":"5c699db9-3706-4de5-9699-0b4011d9f0c0","system_id":"levelo_inurba_marseille","lat":43.291675,"lon":5.371583,"is_reserved":false,"is_disabled":false,"rental_uris":{"android":"levelo://app?vid=5c699db9-3706-4de5-9699-0b4011d9f0c0","ios":"levelo://app?vid=5c699db9-3706-4de5-9699-0b4011d9f0c0"},"vehicle_type_id":"4","last_reported":1722622272,"current_range_meters":27600,"station_id":"ce4bha92rcd13ifvqeh0","pricing_plan_id":"cebpf4jnsgd1na2vs0mg"},{"bike_id":"0585a35c-a493-4604-83cc-e13af32aec91","system_id":"levelo_inurba_marseille","lat":43.291675,"lon":5.371583,"is_reserved":false,"is_disabled":false,"rental_uris":{"android":"levelo://app?vid=0585a35c-a493-4604-83cc-e13af32aec91","ios":"levelo://app?vid=0585a35c-a493-4604-83cc-e13af32aec91"},"vehicle_type_id":"4","last_reported":1722622272,"current_range_meters":5600,"station_id":"ce4bha92rcd13ifvqeh0","pricing_plan_id":"cebpf4jnsgd1na2vs0mg"},{"bike_id":"c3cc90ad-1c16-426b-bd83-4c1f426b5320","system_id":"levelo_inurba_marseille","lat":43.291675,"lon":5.371583,"is_reserved":false,"is_disabled":false,"rental_uris":{"android":"levelo://app?vid=c3cc90ad-1c16-426b-bd83-4c1f426b5320","ios":"levelo://app?vid=c3cc90ad-1c16-426b-bd83-4c1f426b5320"},"vehicle_type_id":"4","last_reported":1722622272,"current_range_meters":9600,"station_id":"ce4bha92rcd13ifvqeh0","pricing_plan_id":"cebpf4jnsgd1na2vs0mg"},{"bike_id":"918596a4-507b-4aff-92e5-3fd83addfacb","system_id":"levelo_inurba_marseille","lat":43.313291,"lon":5.396838,"is_reserved":false,"is_disabled":false,"rental_uris":{"android":"levelo://app?vid=918596a4-507b-4aff-92e5-3fd83addfacb","ios":"levelo://app?vid=918596a4-507b-4aff-92e5-3fd83addfacb"},"vehicle_type_id":"4","last_reported":1722622272,"current_range_meters":11600,"station_id":"ce4bgvp2rcd13ifvqcu0","pricing_plan_id":"cebpf4jnsgd1na2vs0mg"},{"bike_id":"93538d4e-b032-4e6d-80d9-4c6719bd3732","system_id":"levelo_inurba_marseille","lat":43.292005,"lon":5.357875,"is_reserved":false,"is_disabled":false,"rental_uris":{"android":"levelo://app?vid=93538d4e-b032-4e6d-80d9-4c6719bd3732","ios":"levelo://app?vid=93538d4e-b032-4e6d-80d9-4c6719bd3732"},"vehicle_type_id":"4","last_reported":1722622272,"current_range_meters":0,"station_id":"ce4bhb12rcd13ifvqel0","pricing_plan_id":"cebpf4jnsgd1na2vs0mg"},{"bike_id":"51c9664f-ccca-44fc-9ecb-9f345d0ae7b1","system_id":"levelo_inurba_marseille","lat":43.29195,"lon":5.35795,"is_reserved":false,"is_disabled":false,"rental_uris":{"android":"levelo://app?vid=51c9664f-ccca-44fc-9ecb-9f345d0ae7b1","ios":"levelo://app?vid=51c9664f-ccca-44fc-9ecb-9f345d0ae7b1"},"vehicle_type_id":"4","last_reported":1722622272,"current_range_meters":0,"station_id":"ce4bhb12rcd13ifvqel0","pricing_plan_id":"cebpf4jnsgd1na2vs0mg"},{"bike_id":"7f482db4-a0f0-49b7-bf13-9ed3a55f0f99","system_id":"levelo_inurba_marseille","lat":43.313291,"lon":5.396838,"is_reserved":false,"is_disabled":false,"rental_uris":{"android":"levelo://app?vid=7f482db4-a0f0-49b7-bf13-9ed3a55f0f99","ios":"levelo://app?vid=7f482db4-a0f0-49b7-bf13-9ed3a55f0f99"},"vehicle_type_id":"4","last_reported":1722622272,"current_range_meters":14800,"station_id":"ce4bgvp2rcd13ifvqcu0","pricing_plan_id":"cebpf4jnsgd1na2vs0mg"},{"bike_id":"2e5d2cb4-f4de-4833-bde4-130e616f1b2b","system_id":"levelo_inurba_marseille","lat":43.309038,"lon":5.396546,"is_reserved":false,"is_disabled":false,"rental_uris":{"android":"levelo://app?vid=2e5d2cb4-f4de-4833-bde4-130e616f1b2b","ios":"levelo://app?vid=2e5d2cb4-f4de-4833-bde4-130e616f1b2b"},"vehicle_type_id":"4","last_reported":1722622272,"current_range_meters":0,"station_id":"ce4bh012rcd13ifvqcv0","pricing_plan_id":"cebpf4jnsgd1na2vs0mg"},{"bike_id":"4ff088ee-a694-49f2-b4c4-f28b21acb926","system_id":"levelo_inurba_marseille","lat":43.313291,"lon":5.396838,"is_reserved":false,"is_disabled":false,"rental_uris":{"android":"levelo://app?vid=4ff088ee-a694-49f2-b4c4-f28b21acb926","ios":"levelo://app?vid=4ff088ee-a694-49f2-b4c4-f28b21acb926"},"vehicle_type_id":"4","last_reported":1722622272,"current_range_meters":6800,"station_id":"ce4bgvp2rcd13ifvqcu0","pricing_plan_id":"cebpf4jnsgd1na2vs0mg"},{"bike_id":"50535b9d-ce83-49cd-9847-89288af5bc4c","system_id":"levelo_inurba_marseille","lat":43.29529,"lon":5.385581,"is_reserved":false,"is_disabled":false,"rental_uris":{"android":"levelo://app?vid=50535b9d-ce83-49cd-9847-89288af5bc4c","ios":"levelo://app?vid=50535b9d-ce83-49cd-9847-89288af5bc4c"},"vehicle_type_id":"4","last_reported":1722622272,"current_range_meters":23200,"station_id":"ce4bgih2rcd13ifvqba0","pricing_plan_id":"cebpf4jnsgd1na2vs0mg"},{"bike_id":"3abac70d-0543-400b-9342-feece1800922","system_id":"levelo_inurba_marseille","lat":43.290779,"lon":5.371482,"is_reserved":false,"is_disabled":false,"rental_uris":{"android":"levelo://app?vid=3abac70d-0543-400b-9342-feece1800922","ios":"levelo://app?vid=3abac70d-0543-400b-9342-feece1800922"},"vehicle_type_id":"4","last_reported":1722622272,"current_range_meters":18400,"station_id":"ce4bh5p2rcd13ifvqe4g","pricing_plan_id":"cebpf4jnsgd1na2vs0mg"},{"bike_id":"e4b50fee-7fe7-480a-9b85-775dde81c797","system_id":"levelo_inurba_marseille","lat":43.290779,"lon":5.371482,"is_reserved":false,"is_disabled":false,"rental_uris":{"android":"levelo://app?vid=e4b50fee-7fe7-480a-9b85-775dde81c797","ios":"levelo://app?vid=e4b50fee-7fe7-480a-9b85-775dde81c797"},"vehicle_type_id":"4","last_reported":1722622272,"current_range_meters":22800,"station_id":"ce4bh5p2rcd13ifvqe4g","pricing_plan_id":"cebpf4jnsgd1na2vs0mg"},{"bike_id":"646f13e3-df96-47b4-a7c9-e29b7f3dd3e4","system_id":"levelo_inurba_marseille","lat":43.290779,"lon":5.371482,"is_reserved":false,"is_disabled":false,"rental_uris":{"android":"levelo://app?vid=646f13e3-df96-47b4-a7c9-e29b7f3dd3e4","ios":"levelo://app?vid=646f13e3-df96-47b4-a7c9-e29b7f3dd3e4"},"vehicle_type_id":"4","last_reported":1722622272,"current_range_meters":0,"station_id":"ce4bh5p2rcd13ifvqe4g","pricing_plan_id":"cebpf4jnsgd1na2vs0mg"},{"bike_id":"ffa8433e-0af5-4573-a96d-ce5506d52b5e","system_id":"levelo_inurba_marseille","lat":43.290779,"lon":5.371482,"is_reserved":false,"is_disabled":false,"rental_uris":{"android":"levelo://app?vid=ffa8433e-0af5-4573-a96d-ce5506d52b5e","ios":"levelo://app?vid=ffa8433e-0af5-4573-a96d-ce5506d52b5e"},"vehicle_type_id":"4","last_reported":1722622272,"current_range_meters":0,"station_id":"ce4bh5p2rcd13ifvqe4g","pricing_plan_id":"cebpf4jnsgd1na2vs0mg"},{"bike_id":"c13f3263-c8b5-4d5e-9e2d-3082e642126c","system_id":"levelo_inurba_marseille","lat":43.290779,"lon":5.371482,"is_reserved":false,"is_disabled":false,"rental_uris":{"android":"levelo://app?vid=c13f3263-c8b5-4d5e-9e2d-3082e642126c","ios":"levelo://app?vid=c13f3263-c8b5-4d5e-9e2d-3082e642126c"},"vehicle_type_id":"4","last_reported":1722622272,"current_range_meters":8000,"station_id":"ce4bh5p2rcd13ifvqe4g","pricing_plan_id":"cebpf4jnsgd1na2vs0mg"},{"bike_id":"9222ba18-f1ae-48f2-befa-588ad6b6a782","system_id":"levelo_inurba_marseille","lat":43.302008,"lon":5.394694,"is_reserved":false,"is_disabled":false,"rental_uris":{"android":"levelo://app?vid=9222ba18-f1ae-48f2-befa-588ad6b6a782","ios":"levelo://app?vid=9222ba18-f1ae-48f2-befa-588ad6b6a782"},"vehicle_type_id":"4","last_reported":1722622272,"current_range_meters":8400,"station_id":"ce4bh0p2rcd13ifvqd70","pricing_plan_id":"cebpf4jnsgd1na2vs0mg"},{"bike_id":"1f95278d-40a7-417a-869c-e1bc865ac522","system_id":"levelo_inurba_marseille","lat":43.294153,"lon":5.386305,"is_reserved":false,"is_disabled":false,"rental_uris":{"android":"levelo://app?vid=1f95278d-40a7-417a-869c-e1bc865ac522","ios":"levelo://app?vid=1f95278d-40a7-417a-869c-e1bc865ac522"},"vehicle_type_id":"4","last_reported":1722622272,"current_range_meters":0,"station_id":"ce4bh2h2rcd13ifvqdh0","pricing_plan_id":"cebpf4jnsgd1na2vs0mg"},{"bike_id":"54214326-62a7-41fd-8eb9-8bf44818fbd9","system_id":"levelo_inurba_marseille","lat":43.290327,"lon":5.375711,"is_reserved":false,"is_disabled":false,"rental_uris":{"android":"levelo://app?vid=54214326-62a7-41fd-8eb9-8bf44818fbd9","ios":"levelo://app?vid=54214326-62a7-41fd-8eb9-8bf44818fbd9"},"vehicle_type_id":"4","last_reported":1722622272,"current_range_meters":3600,"station_id":"ce4bh692rcd13ifvqe90","pricing_plan_id":"cebpf4jnsgd1na2vs0mg"},{"bike_id":"46b34f75-fb55-49b7-a324-4f6b31c8959e","system_id":"levelo_inurba_marseille","lat":43.294153,"lon":5.386305,"is_reserved":false,"is_disabled":false,"rental_uris":{"android":"levelo://app?vid=46b34f75-fb55-49b7-a324-4f6b31c8959e","ios":"levelo://app?vid=46b34f75-fb55-49b7-a324-4f6b31c8959e"},"vehicle_type_id":"4","last_reported":1722622272,"current_range_meters":0,"station_id":"ce4bh2h2rcd13ifvqdh0","pricing_plan_id":"cebpf4jnsgd1na2vs0mg"},{"bike_id":"921f4831-8e14-4071-ab48-851e03c86ff0","system_id":"levelo_inurba_marseille","lat":43.289184,"lon":5.366408,"is_reserved":false,"is_disabled":false,"rental_uris":{"android":"levelo://app?vid=921f4831-8e14-4071-ab48-851e03c86ff0","ios":"levelo://app?vid=921f4831-8e14-4071-ab48-851e03c86ff0"},"vehicle_type_id":"4","last_reported":1722622272,"current_range_meters":31200,"station_id":"ce4bhap2rcd13ifvqek0","pricing_plan_id":"cebpf4jnsgd1na2vs0mg"},{"bike_id":"d6823751-b1cf-4369-a0cd-58043a0ce2c2","system_id":"levelo_inurba_marseille","lat":43.324488,"lon":5.394653,"is_reserved":false,"is_disabled":false,"rental_uris":{"android":"levelo://app?vid=d6823751-b1cf-4369-a0cd-58043a0ce2c2","ios":"levelo://app?vid=d6823751-b1cf-4369-a0cd-58043a0ce2c2"},"vehicle_type_id":"4","last_reported":1722622272,"current_range_meters":30000,"station_id":"","pricing_plan_id":"cebpf4jnsgd1na2vs0mg"},{"bike_id":"c821466c-920c-458a-b122-8aa9551f7441","system_id":"levelo_inurba_marseille","lat":43.289184,"lon":5.366408,"is_reserved":false,"is_disabled":false,"rental_uris":{"android":"levelo://app?vid=c821466c-920c-458a-b122-8aa9551f7441","ios":"levelo://app?vid=c821466c-920c-458a-b122-8aa9551f7441"},"vehicle_type_id":"4","last_reported":1722622272,"current_range_meters":31200,"station_id":"ce4bhap2rcd13ifvqek0","pricing_plan_id":"cebpf4jnsgd1na2vs0mg"},{"bike_id":"2d24fabb-2afa-495e-bc19-682b4db7e8ed","system_id":"levelo_inurba_marseille","lat":43.289393,"lon":5.364029,"is_reserved":false,"is_disabled":false,"rental_uris":{"android":"levelo://app?vid=2d24fabb-2afa-495e-bc19-682b4db7e8ed","ios":"levelo://app?vid=2d24fabb-2afa-495e-bc19-682b4db7e8ed"},"vehicle_type_id":"4","last_reported":1722622272,"current_range_meters":31600,"station_id":"ce4bhc92rcd13ifvqetg","pricing_plan_id":"cebpf4jnsgd1na2vs0mg"},{"bike_id":"7b996aaa-85ad-42aa-9cc3-45620c6ed9d5","system_id":"levelo_inurba_marseille","lat":43.2894,"lon":5.36389,"is_reserved":false,"is_disabled":false,"rental_uris":{"android":"levelo://app?vid=7b996aaa-85ad-42aa-9cc3-45620c6ed9d5","ios":"levelo://app?vid=7b996aaa-85ad-42aa-9cc3-45620c6ed9d5"},"vehicle_type_id":"4","last_reported":1722622272,"current_range_meters":31600,"station_id":"ce4bhc92rcd13ifvqetg","pricing_plan_id":"cebpf4jnsgd1na2vs0mg"},{"bike_id":"66ea1771-2431-48e7-8abf-7e6987e913aa","system_id":"levelo_inurba_marseille","lat":43.289468,"lon":5.363719,"is_reserved":false,"is_disabled":false,"rental_uris":{"android":"levelo://app?vid=66ea1771-2431-48e7-8abf-7e6987e913aa","ios":"levelo://app?vid=66ea1771-2431-48e7-8abf-7e6987e913aa"},"vehicle_type_id":"4","last_reported":1722622272,"current_range_meters":31200,"station_id":"ce4bhc92rcd13ifvqetg","pricing_plan_id":"cebpf4jnsgd1na2vs0mg"},{"bike_id":"cc21a639-00cc-44f4-b285-1fd1823e2b60","system_id":"levelo_inurba_marseille","lat":43.29268,"lon":5.38432,"is_reserved":false,"is_disabled":false,"rental_uris":{"android":"levelo://app?vid=cc21a639-00cc-44f4-b285-1fd1823e2b60","ios":"levelo://app?vid=cc21a639-00cc-44f4-b285-1fd1823e2b60"},"vehicle_type_id":"4","last_reported":1722622272,"current_range_meters":31200,"station_id":"ce4bh692rcd13ifvqea0","pricing_plan_id":"cebpf4jnsgd1na2vs0mg"},{"bike_id":"558588de-38f0-435c-9c01-02887424d53a","system_id":"levelo_inurba_marseille","lat":43.292644,"lon":5.384257,"is_reserved":false,"is_disabled":false,"rental_uris":{"android":"levelo://app?vid=558588de-38f0-435c-9c01-02887424d53a","ios":"levelo://app?vid=558588de-38f0-435c-9c01-02887424d53a"},"vehicle_type_id":"4","last_reported":1722622272,"current_range_meters":2800,"station_id":"ce4bh692rcd13ifvqea0","pricing_plan_id":"cebpf4jnsgd1na2vs0mg"},{"bike_id":"0c9ae017-8eed-49b8-8b66-54b6427d2233","system_id":"levelo_inurba_marseille","lat":43.292644,"lon":5.384257,"is_reserved":false,"is_disabled":false,"rental_uris":{"android":"levelo://app?vid=0c9ae017-8eed-49b8-8b66-54b6427d2233","ios":"levelo://app?vid=0c9ae017-8eed-49b8-8b66-54b6427d2233"},"vehicle_type_id":"4","last_reported":1722622272,"current_range_meters":22400,"station_id":"ce4bh692rcd13ifvqea0","pricing_plan_id":"cebpf4jnsgd1na2vs0mg"},{"bike_id":"828e9560-1996-4d03-b399-11c07187d0b2","system_id":"levelo_inurba_marseille","lat":43.29268,"lon":5.38441,"is_reserved":false,"is_disabled":false,"rental_uris":{"android":"levelo://app?vid=828e9560-1996-4d03-b399-11c07187d0b2","ios":"levelo://app?vid=828e9560-1996-4d03-b399-11c07187d0b2"},"vehicle_type_id":"4","last_reported":1722622272,"current_range_meters":31200,"station_id":"ce4bh692rcd13ifvqea0","pricing_plan_id":"cebpf4jnsgd1na2vs0mg"},{"bike_id":"72fa4087-1a7c-4f0c-923e-9c82b8217701","system_id":"levelo_inurba_marseille","lat":43.292644,"lon":5.384257,"is_reserved":false,"is_disabled":false,"rental_uris":{"android":"levelo://app?vid=72fa4087-1a7c-4f0c-923e-9c82b8217701","ios":"levelo://app?vid=72fa4087-1a7c-4f0c-923e-9c82b8217701"},"vehicle_type_id":"4","last_reported":1722622272,"current_range_meters":9600,"station_id":"ce4bh692rcd13ifvqea0","pricing_plan_id":"cebpf4jnsgd1na2vs0mg"},{"bike_id":"8002efd6-cf2f-4dd3-a41b-cd42aa2e4f86","system_id":"levelo_inurba_marseille","lat":43.29258,"lon":5.38429,"is_reserved":false,"is_disabled":false,"rental_uris":{"android":"levelo://app?vid=8002efd6-cf2f-4dd3-a41b-cd42aa2e4f86","ios":"levelo://app?vid=8002efd6-cf2f-4dd3-a41b-cd42aa2e4f86"},"vehicle_type_id":"4","last_reported":1722622272,"current_range_meters":31200,"station_id":"ce4bh692rcd13ifvqea0","pricing_plan_id":"cebpf4jnsgd1na2vs0mg"},{"bike_id":"f9a6bade-b17a-4ce8-93c5-3ef85ef5b7bf","system_id":"levelo_inurba_marseille","lat":43.292605,"lon":5.384429,"is_reserved":false,"is_disabled":false,"rental_uris":{"android":"levelo://app?vid=f9a6bade-b17a-4ce8-93c5-3ef85ef5b7bf","ios":"levelo://app?vid=f9a6bade-b17a-4ce8-93c5-3ef85ef5b7bf"},"vehicle_type_id":"4","last_reported":1722622272,"current_range_meters":31200,"station_id":"ce4bh692rcd13ifvqea0","pricing_plan_id":"cebpf4jnsgd1na2vs0mg"},{"bike_id":"5d672107-7b94-4d94-80ec-c35b3d9888a2","system_id":"levelo_inurba_marseille","lat":43.29254,"lon":5.38429,"is_reserved":false,"is_disabled":false,"rental_uris":{"android":"levelo://app?vid=5d672107-7b94-4d94-80ec-c35b3d9888a2","ios":"levelo://app?vid=5d672107-7b94-4d94-80ec-c35b3d9888a2"},"vehicle_type_id":"4","last_reported":1722622272,"current_range_meters":9200,"station_id":"ce4bh692rcd13ifvqea0","pricing_plan_id":"cebpf4jnsgd1na2vs0mg"},{"bike_id":"1c2a5e14-7068-4c95-b4c2-889242e60508","system_id":"levelo_inurba_marseille","lat":43.292575,"lon":5.384507,"is_reserved":false,"is_disabled":false,"rental_uris":{"android":"levelo://app?vid=1c2a5e14-7068-4c95-b4c2-889242e60508","ios":"levelo://app?vid=1c2a5e14-7068-4c95-b4c2-889242e60508"},"vehicle_type_id":"4","last_reported":1722622272,"current_range_meters":31200,"station_id":"ce4bh692rcd13ifvqea0","pricing_plan_id":"cebpf4jnsgd1na2vs0mg"},{"bike_id":"83688d75-9689-451b-a44a-66a8548c9e18","system_id":"levelo_inurba_marseille","lat":43.290104,"lon":5.356111,"is_reserved":false,"is_disabled":false,"rental_uris":{"android":"levelo://app?vid=83688d75-9689-451b-a44a-66a8548c9e18","ios":"levelo://app?vid=83688d75-9689-451b-a44a-66a8548c9e18"},"vehicle_type_id":"4","last_reported":1722622272,"current_range_meters":16000,"station_id":"ce4bhb92rcd13ifvqen0","pricing_plan_id":"cebpf4jnsgd1na2vs0mg"},{"bike_id":"c7a316c4-3622-455b-8f8e-56d5d4ea8d8b","system_id":"levelo_inurba_marseille","lat":43.29007,"lon":5.35609,"is_reserved":false,"is_disabled":false,"rental_uris":{"android":"levelo://app?vid=c7a316c4-3622-455b-8f8e-56d5d4ea8d8b","ios":"levelo://app?vid=c7a316c4-3622-455b-8f8e-56d5d4ea8d8b"},"vehicle_type_id":"4","last_reported":1722622272,"current_range_meters":20000,"station_id":"ce4bhb92rcd13ifvqen0","pricing_plan_id":"cebpf4jnsgd1na2vs0mg"},{"bike_id":"d8eaab2a-8013-464b-8761-2e73d17df661","system_id":"levelo_inurba_marseille","lat":43.29005,"lon":5.35615,"is_reserved":false,"is_disabled":false,"rental_uris":{"android":"levelo://app?vid=d8eaab2a-8013-464b-8761-2e73d17df661","ios":"levelo://app?vid=d8eaab2a-8013-464b-8761-2e73d17df661"},"vehicle_type_id":"4","last_reported":1722622272,"current_range_meters":0,"station_id":"ce4bhb92rcd13ifvqen0","pricing_plan_id":"cebpf4jnsgd1na2vs0mg"},{"bike_id":"b356debe-2182-47a8-a1fc-3d61a62bd771","system_id":"levelo_inurba_marseille","lat":43.29007,"lon":5.35604,"is_reserved":false,"is_disabled":false,"rental_uris":{"android":"levelo://app?vid=b356debe-2182-47a8-a1fc-3d61a62bd771","ios":"levelo://app?vid=b356debe-2182-47a8-a1fc-3d61a62bd771"},"vehicle_type_id":"4","last_reported":1722622272,"current_range_meters":0,"station_id":"ce4bhb92rcd13ifvqen0","pricing_plan_id":"cebpf4jnsgd1na2vs0mg"},{"bike_id":"8f36a82a-ace8-49bb-9fb3-4cb39387a609","system_id":"levelo_inurba_marseille","lat":43.290104,"lon":5.356111,"is_reserved":false,"is_disabled":false,"rental_uris":{"android":"levelo://app?vid=8f36a82a-ace8-49bb-9fb3-4cb39387a609","ios":"levelo://app?vid=8f36a82a-ace8-49bb-9fb3-4cb39387a609"},"vehicle_type_id":"4","last_reported":1722622272,"current_range_meters":13200,"station_id":"ce4bhb92rcd13ifvqen0","pricing_plan_id":"cebpf4jnsgd1na2vs0mg"},{"bike_id":"4fdaf736-9771-49ac-820e-1227b4df9b33","system_id":"levelo_inurba_marseille","lat":43.29001,"lon":5.35605,"is_reserved":false,"is_disabled":false,"rental_uris":{"android":"levelo://app?vid=4fdaf736-9771-49ac-820e-1227b4df9b33","ios":"levelo://app?vid=4fdaf736-9771-49ac-820e-1227b4df9b33"},"vehicle_type_id":"4","last_reported":1722622272,"current_range_meters":0,"station_id":"ce4bhb92rcd13ifvqen0","pricing_plan_id":"cebpf4jnsgd1na2vs0mg"},{"bike_id":"19688180-f0a1-44ae-be76-95c0974986fe","system_id":"levelo_inurba_marseille","lat":43.29,"lon":5.35608,"is_reserved":false,"is_disabled":false,"rental_uris":{"android":"levelo://app?vid=19688180-f0a1-44ae-be76-95c0974986fe","ios":"levelo://app?vid=19688180-f0a1-44ae-be76-95c0974986fe"},"vehicle_type_id":"4","last_reported":1722622272,"current_range_meters":2400,"station_id":"ce4bhb92rcd13ifvqen0","pricing_plan_id":"cebpf4jnsgd1na2vs0mg"},{"bike_id":"3cb580f0-206f-423c-bce9-50419f47f104","system_id":"levelo_inurba_marseille","lat":43.30293,"lon":5.39715,"is_reserved":false,"is_disabled":false,"rental_uris":{"android":"levelo://app?vid=3cb580f0-206f-423c-bce9-50419f47f104","ios":"levelo://app?vid=3cb580f0-206f-423c-bce9-50419f47f104"},"vehicle_type_id":"4","last_reported":1722622272,"current_range_meters":15200,"station_id":"","pricing_plan_id":"cebpf4jnsgd1na2vs0mg"},{"bike_id":"fadac2bd-a3a0-4e21-ab7c-e1d1a21c65b0","system_id":"levelo_inurba_marseille","lat":43.2932,"lon":5.38656,"is_reserved":false,"is_disabled":false,"rental_uris":{"android":"levelo://app?vid=fadac2bd-a3a0-4e21-ab7c-e1d1a21c65b0","ios":"levelo://app?vid=fadac2bd-a3a0-4e21-ab7c-e1d1a21c65b0"},"vehicle_type_id":"4","last_reported":1722622272,"current_range_meters":0,"station_id":"","pricing_plan_id":"cebpf4jnsgd1na2vs0mg"},{"bike_id":"17534dae-45d5-401c-bb8c-19cd79618f02","system_id":"levelo_inurba_marseille","lat":43.29107,"lon":5.38184,"is_reserved":false,"is_disabled":false,"rental_uris":{"android":"levelo://app?vid=17534dae-45d5-401c-bb8c-19cd79618f02","ios":"levelo://app?vid=17534dae-45d5-401c-bb8c-19cd79618f02"},"vehicle_type_id":"4","last_reported":1722622272,"current_range_meters":5200,"station_id":"ce4bh512rcd13ifvqe2g","pricing_plan_id":"cebpf4jnsgd1na2vs0mg"},{"bike_id":"43e1c37a-2652-4735-826e-b8eedd07eed0","system_id":"levelo_inurba_marseille","lat":43.297807,"lon":5.393533,"is_reserved":false,"is_disabled":false,"rental_uris":{"android":"levelo://app?vid=43e1c37a-2652-4735-826e-b8eedd07eed0","ios":"levelo://app?vid=43e1c37a-2652-4735-826e-b8eedd07eed0"},"vehicle_type_id":"4","last_reported":1722622272,"current_range_meters":0,"station_id":"chh1huq6cuj3fo74tm60","pricing_plan_id":"cebpf4jnsgd1na2vs0mg"},{"bike_id":"6b6b514c-04ea-44d5-bcb9-e8d0b9d7ef1e","system_id":"levelo_inurba_marseille","lat":43.33023,"lon":5.39034,"is_reserved":false,"is_disabled":false,"rental_uris":{"android":"levelo://app?vid=6b6b514c-04ea-44d5-bcb9-e8d0b9d7ef1e","ios":"levelo://app?vid=6b6b514c-04ea-44d5-bcb9-e8d0b9d7ef1e"},"vehicle_type_id":"4","last_reported":1722622272,"current_range_meters":7200,"station_id":"ce4bhr92rcd13ifvqhrg","pricing_plan_id":"cebpf4jnsgd1na2vs0mg"},{"bike_id":"05a3b06b-0ebd-4692-9b38-4c2ce4ad9b74","system_id":"levelo_inurba_marseille","lat":43.28978,"lon":5.37836,"is_reserved":false,"is_disabled":false,"rental_uris":{"android":"levelo://app?vid=05a3b06b-0ebd-4692-9b38-4c2ce4ad9b74","ios":"levelo://app?vid=05a3b06b-0ebd-4692-9b38-4c2ce4ad9b74"},"vehicle_type_id":"4","last_reported":1722622272,"current_range_meters":0,"station_id":"ce4bh9p2rcd13ifvqed0","pricing_plan_id":"cebpf4jnsgd1na2vs0mg"},{"bike_id":"091e73a9-ca51-465d-9722-5d7d1b973231","system_id":"levelo_inurba_marseille","lat":43.295169,"lon":5.390426,"is_reserved":false,"is_disabled":false,"rental_uris":{"android":"levelo://app?vid=091e73a9-ca51-465d-9722-5d7d1b973231","ios":"levelo://app?vid=091e73a9-ca51-465d-9722-5d7d1b973231"},"vehicle_type_id":"4","last_reported":1722622272,"current_range_meters":0,"station_id":"ce4bh3p2rcd13ifvqdp0","pricing_plan_id":"cebpf4jnsgd1na2vs0mg"},{"bike_id":"422a9871-19a9-4900-b8f2-2ada661c7bac","system_id":"levelo_inurba_marseille","lat":43.33023,"lon":5.39042,"is_reserved":false,"is_disabled":false,"rental_uris":{"android":"levelo://app?vid=422a9871-19a9-4900-b8f2-2ada661c7bac","ios":"levelo://app?vid=422a9871-19a9-4900-b8f2-2ada661c7bac"},"vehicle_type_id":"4","last_reported":1722622272,"current_range_meters":30000,"station_id":"ce4bhr92rcd13ifvqhrg","pricing_plan_id":"cebpf4jnsgd1na2vs0mg"},{"bike_id":"e4d3c045-0f11-4fb2-9344-b45dfe5cd1ef","system_id":"levelo_inurba_marseille","lat":43.295169,"lon":5.390426,"is_reserved":false,"is_disabled":false,"rental_uris":{"android":"levelo://app?vid=e4d3c045-0f11-4fb2-9344-b45dfe5cd1ef","ios":"levelo://app?vid=e4d3c045-0f11-4fb2-9344-b45dfe5cd1ef"},"vehicle_type_id":"4","last_reported":1722622272,"current_range_meters":400,"station_id":"ce4bh3p2rcd13ifvqdp0","pricing_plan_id":"cebpf4jnsgd1na2vs0mg"},{"bike_id":"1d1bd7ee-5cab-4351-9b86-2ae103d3ffe6","system_id":"levelo_inurba_marseille","lat":43.330442,"lon":5.389148,"is_reserved":false,"is_disabled":false,"rental_uris":{"android":"levelo://app?vid=1d1bd7ee-5cab-4351-9b86-2ae103d3ffe6","ios":"levelo://app?vid=1d1bd7ee-5cab-4351-9b86-2ae103d3ffe6"},"vehicle_type_id":"4","last_reported":1722622272,"current_range_meters":10800,"station_id":"ce4bhr92rcd13ifvqhrg","pricing_plan_id":"cebpf4jnsgd1na2vs0mg"},{"bike_id":"8c41966c-0991-4fae-b58f-fe39b91685f2","system_id":"levelo_inurba_marseille","lat":43.33027,"lon":5.39042,"is_reserved":false,"is_disabled":false,"rental_uris":{"android":"levelo://app?vid=8c41966c-0991-4fae-b58f-fe39b91685f2","ios":"levelo://app?vid=8c41966c-0991-4fae-b58f-fe39b91685f2"},"vehicle_type_id":"4","last_reported":1722622272,"current_range_meters":27200,"station_id":"ce4bhr92rcd13ifvqhrg","pricing_plan_id":"cebpf4jnsgd1na2vs0mg"},{"bike_id":"47271fc2-8469-4497-b01a-87a59c447e2a","system_id":"levelo_inurba_marseille","lat":43.295169,"lon":5.390426,"is_reserved":false,"is_disabled":false,"rental_uris":{"android":"levelo://app?vid=47271fc2-8469-4497-b01a-87a59c447e2a","ios":"levelo://app?vid=47271fc2-8469-4497-b01a-87a59c447e2a"},"vehicle_type_id":"4","last_reported":1722622272,"current_range_meters":14000,"station_id":"ce4bh3p2rcd13ifvqdp0","pricing_plan_id":"cebpf4jnsgd1na2vs0mg"},{"bike_id":"f4cdf6f8-59cc-4926-bbd3-bf830cd7e7b6","system_id":"levelo_inurba_marseille","lat":43.2901,"lon":5.381269,"is_reserved":false,"is_disabled":false,"rental_uris":{"android":"levelo://app?vid=f4cdf6f8-59cc-4926-bbd3-bf830cd7e7b6","ios":"levelo://app?vid=f4cdf6f8-59cc-4926-bbd3-bf830cd7e7b6"},"vehicle_type_id":"4","last_reported":1722622272,"current_range_meters":29200,"station_id":"ce4bh4p2rcd13ifvqe1g","pricing_plan_id":"cebpf4jnsgd1na2vs0mg"},{"bike_id":"6234535d-b83b-476d-bd20-de00f58df1d0","system_id":"levelo_inurba_marseille","lat":43.290094,"lon":5.381264,"is_reserved":false,"is_disabled":false,"rental_uris":{"android":"levelo://app?vid=6234535d-b83b-476d-bd20-de00f58df1d0","ios":"levelo://app?vid=6234535d-b83b-476d-bd20-de00f58df1d0"},"vehicle_type_id":"4","last_reported":1722622272,"current_range_meters":0,"station_id":"ce4bh4p2rcd13ifvqe1g","pricing_plan_id":"cebpf4jnsgd1na2vs0mg"},{"bike_id":"c063181f-03b6-4e66-a896-11ba68169dea","system_id":"levelo_inurba_marseille","lat":43.28856,"lon":5.358371,"is_reserved":false,"is_disabled":false,"rental_uris":{"android":"levelo://app?vid=c063181f-03b6-4e66-a896-11ba68169dea","ios":"levelo://app?vid=c063181f-03b6-4e66-a896-11ba68169dea"},"vehicle_type_id":"4","last_reported":1722622272,"current_range_meters":1200,"station_id":"ce4bhb12rcd13ifvqem0","pricing_plan_id":"cebpf4jnsgd1na2vs0mg"},{"bike_id":"e7ea7af6-a63c-4c88-a0c0-e0cc7fc872c9","system_id":"levelo_inurba_marseille","lat":43.28856,"lon":5.358371,"is_reserved":false,"is_disabled":false,"rental_uris":{"android":"levelo://app?vid=e7ea7af6-a63c-4c88-a0c0-e0cc7fc872c9","ios":"levelo://app?vid=e7ea7af6-a63c-4c88-a0c0-e0cc7fc872c9"},"vehicle_type_id":"4","last_reported":1722622272,"current_range_meters":31600,"station_id":"ce4bhb12rcd13ifvqem0","pricing_plan_id":"cebpf4jnsgd1na2vs0mg"},{"bike_id":"c814bde4-8edd-426d-9aa3-4b993e443cd9","system_id":"levelo_inurba_marseille","lat":43.28856,"lon":5.358371,"is_reserved":false,"is_disabled":false,"rental_uris":{"android":"levelo://app?vid=c814bde4-8edd-426d-9aa3-4b993e443cd9","ios":"levelo://app?vid=c814bde4-8edd-426d-9aa3-4b993e443cd9"},"vehicle_type_id":"4","last_reported":1722622272,"current_range_meters":28000,"station_id":"ce4bhb12rcd13ifvqem0","pricing_plan_id":"cebpf4jnsgd1na2vs0mg"},{"bike_id":"10273c28-387f-40a1-971f-ac1ca1d577ec","system_id":"levelo_inurba_marseille","lat":43.312609,"lon":5.401662,"is_reserved":false,"is_disabled":false,"rental_uris":{"android":"levelo://app?vid=10273c28-387f-40a1-971f-ac1ca1d577ec","ios":"levelo://app?vid=10273c28-387f-40a1-971f-ac1ca1d577ec"},"vehicle_type_id":"4","last_reported":1722622272,"current_range_meters":0,"station_id":"ce4bh092rcd13ifvqd30","pricing_plan_id":"cebpf4jnsgd1na2vs0mg"},{"bike_id":"6f044633-3688-4e83-af67-cf3db97c1cc7","system_id":"levelo_inurba_marseille","lat":43.337444,"lon":5.374475,"is_reserved":false,"is_disabled":false,"rental_uris":{"android":"levelo://app?vid=6f044633-3688-4e83-af67-cf3db97c1cc7","ios":"levelo://app?vid=6f044633-3688-4e83-af67-cf3db97c1cc7"},"vehicle_type_id":"3","last_reported":1722622272,"current_range_meters":24800,"station_id":"","pricing_plan_id":"cebpf4jnsgd1na2vs0mg"},{"bike_id":"e0e3be1b-64b5-48cf-9f84-3b588612ab48","system_id":"levelo_inurba_marseille","lat":43.290103,"lon":5.356114,"is_reserved":false,"is_disabled":false,"rental_uris":{"android":"levelo://app?vid=e0e3be1b-64b5-48cf-9f84-3b588612ab48","ios":"levelo://app?vid=e0e3be1b-64b5-48cf-9f84-3b588612ab48"},"vehicle_type_id":"4","last_reported":1722622272,"current_range_meters":0,"station_id":"ce4bhb92rcd13ifvqen0","pricing_plan_id":"cebpf4jnsgd1na2vs0mg"},{"bike_id":"fb448ed4-cab8-4195-a9a6-ce639e8fa4e9","system_id":"levelo_inurba_marseille","lat":43.30642,"lon":5.401031,"is_reserved":false,"is_disabled":false,"rental_uris":{"android":"levelo://app?vid=fb448ed4-cab8-4195-a9a6-ce639e8fa4e9","ios":"levelo://app?vid=fb448ed4-cab8-4195-a9a6-ce639e8fa4e9"},"vehicle_type_id":"4","last_reported":1722622272,"current_range_meters":400,"station_id":"ce4bh112rcd13ifvqda0","pricing_plan_id":"cebpf4jnsgd1na2vs0mg"},{"bike_id":"b1cae000-4ef3-4206-b025-f1232ca324c8","system_id":"levelo_inurba_marseille","lat":43.301323,"lon":5.398539,"is_reserved":false,"is_disabled":false,"rental_uris":{"android":"levelo://app?vid=b1cae000-4ef3-4206-b025-f1232ca324c8","ios":"levelo://app?vid=b1cae000-4ef3-4206-b025-f1232ca324c8"},"vehicle_type_id":"4","last_reported":1722622272,"current_range_meters":10400,"station_id":"","pricing_plan_id":"cebpf4jnsgd1na2vs0mg"},{"bike_id":"9cafcfc3-1c31-4176-8d6f-07232ffff456","system_id":"levelo_inurba_marseille","lat":43.28727,"lon":5.36078,"is_reserved":false,"is_disabled":false,"rental_uris":{"android":"levelo://app?vid=9cafcfc3-1c31-4176-8d6f-07232ffff456","ios":"levelo://app?vid=9cafcfc3-1c31-4176-8d6f-07232ffff456"},"vehicle_type_id":"4","last_reported":1722622272,"current_range_meters":3600,"station_id":"cki0cbj6b192h4jlfktg","pricing_plan_id":"cebpf4jnsgd1na2vs0mg"},{"bike_id":"3f44f2b4-0cb7-451e-81d9-cf8b91b3eea2","system_id":"levelo_inurba_marseille","lat":43.28727,"lon":5.36078,"is_reserved":false,"is_disabled":false,"rental_uris":{"android":"levelo://app?vid=3f44f2b4-0cb7-451e-81d9-cf8b91b3eea2","ios":"levelo://app?vid=3f44f2b4-0cb7-451e-81d9-cf8b91b3eea2"},"vehicle_type_id":"4","last_reported":1722622272,"current_range_meters":4000,"station_id":"cki0cbj6b192h4jlfktg","pricing_plan_id":"cebpf4jnsgd1na2vs0mg"},{"bike_id":"0f653388-b9a1-4280-811f-1fbe8e8bf875","system_id":"levelo_inurba_marseille","lat":43.28727,"lon":5.36078,"is_reserved":false,"is_disabled":false,"rental_uris":{"android":"levelo://app?vid=0f653388-b9a1-4280-811f-1fbe8e8bf875","ios":"levelo://app?vid=0f653388-b9a1-4280-811f-1fbe8e8bf875"},"vehicle_type_id":"4","last_reported":1722622272,"current_range_meters":22800,"station_id":"cki0cbj6b192h4jlfktg","pricing_plan_id":"cebpf4jnsgd1na2vs0mg"},{"bike_id":"f678613c-770f-4ff1-a207-02ce04d810a4","system_id":"levelo_inurba_marseille","lat":43.298681,"lon":5.397225,"is_reserved":false,"is_disabled":false,"rental_uris":{"android":"levelo://app?vid=f678613c-770f-4ff1-a207-02ce04d810a4","ios":"levelo://app?vid=f678613c-770f-4ff1-a207-02ce04d810a4"},"vehicle_type_id":"4","last_reported":1722622272,"current_range_meters":23200,"station_id":"ce4bh0h2rcd13ifvqd50","pricing_plan_id":"cebpf4jnsgd1na2vs0mg"},{"bike_id":"e83e105a-9650-4b7d-9afd-f82d8b932294","system_id":"levelo_inurba_marseille","lat":43.298681,"lon":5.397225,"is_reserved":false,"is_disabled":false,"rental_uris":{"android":"levelo://app?vid=e83e105a-9650-4b7d-9afd-f82d8b932294","ios":"levelo://app?vid=e83e105a-9650-4b7d-9afd-f82d8b932294"},"vehicle_type_id":"4","last_reported":1722622272,"current_range_meters":0,"station_id":"ce4bh0h2rcd13ifvqd50","pricing_plan_id":"cebpf4jnsgd1na2vs0mg"},{"bike_id":"b2fb2f0b-f1c2-448d-bbf1-5b40ad01ca9c","system_id":"levelo_inurba_marseille","lat":43.286591,"lon":5.363346,"is_reserved":false,"is_disabled":false,"rental_uris":{"android":"levelo://app?vid=b2fb2f0b-f1c2-448d-bbf1-5b40ad01ca9c","ios":"levelo://app?vid=b2fb2f0b-f1c2-448d-bbf1-5b40ad01ca9c"},"vehicle_type_id":"4","last_reported":1722622272,"current_range_meters":30800,"station_id":"ce4bhah2rcd13ifvqej0","pricing_plan_id":"cebpf4jnsgd1na2vs0mg"},{"bike_id":"94f9d285-5bf0-4e95-bf20-4baa6cd4fdd9","system_id":"levelo_inurba_marseille","lat":43.286961,"lon":5.373785,"is_reserved":false,"is_disabled":false,"rental_uris":{"android":"levelo://app?vid=94f9d285-5bf0-4e95-bf20-4baa6cd4fdd9","ios":"levelo://app?vid=94f9d285-5bf0-4e95-bf20-4baa6cd4fdd9"},"vehicle_type_id":"4","last_reported":1722622272,"current_range_meters":0,"station_id":"ce4bh3p2rcd13ifvqdq0","pricing_plan_id":"cebpf4jnsgd1na2vs0mg"},{"bike_id":"e8328c1e-cdd4-4e7d-bfad-84c556b16f34","system_id":"levelo_inurba_marseille","lat":43.286591,"lon":5.363346,"is_reserved":false,"is_disabled":false,"rental_uris":{"android":"levelo://app?vid=e8328c1e-cdd4-4e7d-bfad-84c556b16f34","ios":"levelo://app?vid=e8328c1e-cdd4-4e7d-bfad-84c556b16f34"},"vehicle_type_id":"4","last_reported":1722622272,"current_range_meters":8400,"station_id":"ce4bhah2rcd13ifvqej0","pricing_plan_id":"cebpf4jnsgd1na2vs0mg"},{"bike_id":"9a7e7058-8270-4798-a688-62f6a0be07eb","system_id":"levelo_inurba_marseille","lat":43.289307,"lon":5.38406,"is_reserved":false,"is_disabled":false,"rental_uris":{"android":"levelo://app?vid=9a7e7058-8270-4798-a688-62f6a0be07eb","ios":"levelo://app?vid=9a7e7058-8270-4798-a688-62f6a0be07eb"},"vehicle_type_id":"4","last_reported":1722622272,"current_range_meters":11600,"station_id":"ce4bh612rcd13ifvqe6g","pricing_plan_id":"cebpf4jnsgd1na2vs0mg"},{"bike_id":"d4724105-0426-4083-8787-5d539e26c2f1","system_id":"levelo_inurba_marseille","lat":43.289307,"lon":5.38406,"is_reserved":false,"is_disabled":false,"rental_uris":{"android":"levelo://app?vid=d4724105-0426-4083-8787-5d539e26c2f1","ios":"levelo://app?vid=d4724105-0426-4083-8787-5d539e26c2f1"},"vehicle_type_id":"4","last_reported":1722622272,"current_range_meters":2400,"station_id":"ce4bh612rcd13ifvqe6g","pricing_plan_id":"cebpf4jnsgd1na2vs0mg"},{"bike_id":"c3c22dd7-9414-406b-9af7-116053a772e5","system_id":"levelo_inurba_marseille","lat":43.290392,"lon":5.386478,"is_reserved":false,"is_disabled":false,"rental_uris":{"android":"levelo://app?vid=c3c22dd7-9414-406b-9af7-116053a772e5","ios":"levelo://app?vid=c3c22dd7-9414-406b-9af7-116053a772e5"},"vehicle_type_id":"4","last_reported":1722622272,"current_range_meters":26800,"station_id":"ce4bh4p2rcd13ifvqe0g","pricing_plan_id":"cebpf4jnsgd1na2vs0mg"},{"bike_id":"1a91a567-c0ab-4516-b639-88192e360457","system_id":"levelo_inurba_marseille","lat":43.289307,"lon":5.38406,"is_reserved":false,"is_disabled":false,"rental_uris":{"android":"levelo://app?vid=1a91a567-c0ab-4516-b639-88192e360457","ios":"levelo://app?vid=1a91a567-c0ab-4516-b639-88192e360457"},"vehicle_type_id":"4","last_reported":1722622272,"current_range_meters":30800,"station_id":"ce4bh612rcd13ifvqe6g","pricing_plan_id":"cebpf4jnsgd1na2vs0mg"},{"bike_id":"8d7db2ef-bd32-4685-9673-dae30c69ebe5","system_id":"levelo_inurba_marseille","lat":43.290336,"lon":5.386425,"is_reserved":false,"is_disabled":false,"rental_uris":{"android":"levelo://app?vid=8d7db2ef-bd32-4685-9673-dae30c69ebe5","ios":"levelo://app?vid=8d7db2ef-bd32-4685-9673-dae30c69ebe5"},"vehicle_type_id":"4","last_reported":1722622272,"current_range_meters":14400,"station_id":"ce4bh4p2rcd13ifvqe0g","pricing_plan_id":"cebpf4jnsgd1na2vs0mg"},{"bike_id":"cfc51b93-fc84-4b91-ac98-027ef1c20ffb","system_id":"levelo_inurba_marseille","lat":43.286039,"lon":5.370681,"is_reserved":false,"is_disabled":false,"rental_uris":{"android":"levelo://app?vid=cfc51b93-fc84-4b91-ac98-027ef1c20ffb","ios":"levelo://app?vid=cfc51b93-fc84-4b91-ac98-027ef1c20ffb"},"vehicle_type_id":"4","last_reported":1722622272,"current_range_meters":0,"station_id":"ce4bht12rcd13ifvqi60","pricing_plan_id":"cebpf4jnsgd1na2vs0mg"},{"bike_id":"94541910-aa33-4ce6-9e81-a158e718a15a","system_id":"levelo_inurba_marseille","lat":43.290336,"lon":5.386425,"is_reserved":false,"is_disabled":false,"rental_uris":{"android":"levelo://app?vid=94541910-aa33-4ce6-9e81-a158e718a15a","ios":"levelo://app?vid=94541910-aa33-4ce6-9e81-a158e718a15a"},"vehicle_type_id":"4","last_reported":1722622272,"current_range_meters":25200,"station_id":"ce4bh4p2rcd13ifvqe0g","pricing_plan_id":"cebpf4jnsgd1na2vs0mg"},{"bike_id":"f9c8bc09-1aeb-468e-9c9f-730a7c320875","system_id":"levelo_inurba_marseille","lat":43.290254,"lon":5.386442,"is_reserved":false,"is_disabled":false,"rental_uris":{"android":"levelo://app?vid=f9c8bc09-1aeb-468e-9c9f-730a7c320875","ios":"levelo://app?vid=f9c8bc09-1aeb-468e-9c9f-730a7c320875"},"vehicle_type_id":"4","last_reported":1722622272,"current_range_meters":7600,"station_id":"","pricing_plan_id":"cebpf4jnsgd1na2vs0mg"},{"bike_id":"fa2fc274-1768-4240-bf2b-c2ba6c2672c4","system_id":"levelo_inurba_marseille","lat":43.29023,"lon":5.38642,"is_reserved":false,"is_disabled":false,"rental_uris":{"android":"levelo://app?vid=fa2fc274-1768-4240-bf2b-c2ba6c2672c4","ios":"levelo://app?vid=fa2fc274-1768-4240-bf2b-c2ba6c2672c4"},"vehicle_type_id":"4","last_reported":1722622272,"current_range_meters":0,"station_id":"ce4bh4p2rcd13ifvqe0g","pricing_plan_id":"cebpf4jnsgd1na2vs0mg"},{"bike_id":"4818707b-3bf9-4f9a-9d34-5878f805979d","system_id":"levelo_inurba_marseille","lat":43.302759,"lon":5.400793,"is_reserved":false,"is_disabled":false,"rental_uris":{"android":"levelo://app?vid=4818707b-3bf9-4f9a-9d34-5878f805979d","ios":"levelo://app?vid=4818707b-3bf9-4f9a-9d34-5878f805979d"},"vehicle_type_id":"4","last_reported":1722622272,"current_range_meters":26800,"station_id":"ce4bgvh2rcd13ifvqcs0","pricing_plan_id":"cebpf4jnsgd1na2vs0mg"},{"bike_id":"724cd1d2-bc73-46e8-b575-f5aaf6c9e41d","system_id":"levelo_inurba_marseille","lat":43.286039,"lon":5.370681,"is_reserved":false,"is_disabled":false,"rental_uris":{"android":"levelo://app?vid=724cd1d2-bc73-46e8-b575-f5aaf6c9e41d","ios":"levelo://app?vid=724cd1d2-bc73-46e8-b575-f5aaf6c9e41d"},"vehicle_type_id":"4","last_reported":1722622272,"current_range_meters":3600,"station_id":"ce4bht12rcd13ifvqi60","pricing_plan_id":"cebpf4jnsgd1na2vs0mg"},{"bike_id":"9bb0786c-ec98-48a9-a277-c310d0303d49","system_id":"levelo_inurba_marseille","lat":43.286039,"lon":5.370681,"is_reserved":false,"is_disabled":false,"rental_uris":{"android":"levelo://app?vid=9bb0786c-ec98-48a9-a277-c310d0303d49","ios":"levelo://app?vid=9bb0786c-ec98-48a9-a277-c310d0303d49"},"vehicle_type_id":"4","last_reported":1722622272,"current_range_meters":13200,"station_id":"ce4bht12rcd13ifvqi60","pricing_plan_id":"cebpf4jnsgd1na2vs0mg"},{"bike_id":"ff7ce74b-3741-4365-b525-71521a7999ec","system_id":"levelo_inurba_marseille","lat":43.286039,"lon":5.370679,"is_reserved":false,"is_disabled":false,"rental_uris":{"android":"levelo://app?vid=ff7ce74b-3741-4365-b525-71521a7999ec","ios":"levelo://app?vid=ff7ce74b-3741-4365-b525-71521a7999ec"},"vehicle_type_id":"4","last_reported":1722622272,"current_range_meters":24800,"station_id":"ce4bht12rcd13ifvqi60","pricing_plan_id":"cebpf4jnsgd1na2vs0mg"},{"bike_id":"e46a6531-5571-49f8-8611-56b3d7f51b20","system_id":"levelo_inurba_marseille","lat":43.286039,"lon":5.370679,"is_reserved":false,"is_disabled":false,"rental_uris":{"android":"levelo://app?vid=e46a6531-5571-49f8-8611-56b3d7f51b20","ios":"levelo://app?vid=e46a6531-5571-49f8-8611-56b3d7f51b20"},"vehicle_type_id":"4","last_reported":1722622272,"current_range_meters":5200,"station_id":"ce4bht12rcd13ifvqi60","pricing_plan_id":"cebpf4jnsgd1na2vs0mg"},