{"last_updated":1727961461,"ttl":60,"version":"2.2","data":{"bikes":[{"bike_id":"00e10aca-6a54-466d-98d2-736a20deb55c","system_id":"levelo_inurba_marseille","lat":43.24661,"lon":5.38154,"is_reserved":false,"is_disabled":false,"rental_uris":{"android":"levelo://app?vid=00e10aca-6a54-466d-98d2-736a20deb55c","ios":"levelo://app?vid=00e10aca-6a54-466d-98d2-736a20deb55c"},"vehicle_type_id":"4","last_reported":1727961461,"current_range_meters":12800,"station_id":"ce4bhih2rcd13ifvqfr0","pricing_plan_id":"cebpf4jnsgd1na2vs0mg"},{"bike_id":"8bc0aa01-1d61-49ab-973d-784704f64634","system_id":"levelo_inurba_marseille","lat":43.29928,"lon":5.36544,"is_reserved":false,"is_disabled":false,"rental_uris":{"android":"levelo://app?vid=8bc0aa01-1d61-49ab-973d-784704f64634","ios":"levelo://app?vid=8bc0aa01-1d61-49ab-973d-784704f64634"},"vehicle_type_id":"4","last_reported":1727961461,"current_range_meters":38800,"station_id":"ce4bgm92rcd13ifvqbr0","pricing_plan_id":"cebpf4jnsgd1na2vs0mg"},{"bike_id":"a70a0f52-1b29-48c0-a1d3-2e5b1b754d4c","system_id":"levelo_inurba_marseille","lat":43.26619,"lon":5.39051,"is_reserved":false,"is_disabled":false,"rental_uris":{"android":"levelo://app?vid=a70a0f52-1b29-48c0-a1d3-2e5b1b754d4c","ios":"levelo://app?vid=a70a0f52-1b29-48c0-a1d3-2e5b1b754d4c"},"vehicle_type_id":"4","last_reported":1727961461,"current_range_meters":27600,"station_id":"ce4bhe12rcd13ifvqf30","pricing_plan_id":"cebpf4jnsgd1na2vs0mg"},{"bike_id":"8a8c1da6-fe54-4c56-80fc-9fd299284584","system_id":"levelo_inurba_marseille","lat":43.32666,"lon":5.40985,"is_reserved":false,"is_disabled":false,"rental_uris":{"android":"levelo://app?vid=8a8c1da6-fe54-4c56-80fc-9fd299284584","ios":"levelo://app?vid=8a8c1da6-fe54-4c56-80fc-9fd299284584"},"vehicle_type_id":"4","last_reported":1727961461,"current_range_meters":26800,"station_id":"ce4bhpp2rcd13ifvqhgg","pricing_plan_id":"cebpf4jnsgd1na2vs0mg"},{"bike_id":"629c9e6b-15c5-45ca-8eda-87d62cbcc87f","system_id":"levelo_inurba_marseille","lat":43.27491,"lon":5.42452,"is_reserved":false,"is_disabled":false,"rental_uris":{"android":"levelo://app?vid=629c9e6b-15c5-45ca-8eda-87d62cbcc87f","ios":"levelo://app?vid=629c9e6b-15c5-45ca-8eda-87d62cbcc87f"},"vehicle_type_id":"4","last_reported":1727961461,"current_range_meters":16000,"station_id":"ce4bhn92rcd13ifvqgrg","pricing_plan_id":"cebpf4jnsgd1na2vs0mg"},{"bike_id":"c9792f07-8082-4b90-9b72-46cf8f201b6a","system_id":"levelo_inurba_marseille","lat":43.26942,"lon":5.40252,"is_reserved":false,"is_disabled":false,"rental_uris":{"android":"levelo://app?vid=c9792f07-8082-4b90-9b72-46cf8f201b6a","ios":"levelo://app?vid=c9792f07-8082-4b90-9b72-46cf8f201b6a"},"vehicle_type_id":"4","last_reported":1727961461,"current_range_meters":16400,"station_id":"cjm6bp8fraef2m0cb0m0","pricing_plan_id":"cebpf4jnsgd1na2vs0mg"},{"bike_id":"d73772b5-d9cb-413f-80ef-df4ee9369cea","system_id":"levelo_inurba_marseille","lat":43.30158,"lon":5.38069,"is_reserved":false,"is_disabled":false,"rental_uris":{"android":"levelo://app?vid=d73772b5-d9cb-413f-80ef-df4ee9369cea","ios":"levelo://app?vid=d73772b5-d9cb-413f-80ef-df4ee9369cea"},"vehicle_type_id":"4","last_reported":1727961461,"current_range_meters":36400,"station_id":"ce4bgjp2rcd13ifvqbh0","pricing_plan_id":"cebpf4jnsgd1na2vs0mg"},{"bike_id":"dfa316ed-31fe-4eb7-ae98-3312a562d760","system_id":"levelo_inurba_marseille","lat":43.27186,"lon":5.40996,"is_reserved":false,"is_disabled":false,"rental_uris":{"android":"levelo://app?vid=dfa316ed-31fe-4eb7-ae98-3312a562d760","ios":"levelo://app?vid=dfa316ed-31fe-4eb7-ae98-3312a562d760"},"vehicle_type_id":"4","last_reported":1727961461,"current_range_meters":35600,"station_id":"ce4bhl12rcd13ifvqgf0","pricing_plan_id":"cebpf4jnsgd1na2vs0mg"},{"bike_id":"31b7f732-5eb8-43e4-b26d-d0d6a02fcf7f","system_id":"levelo_inurba_marseille","lat":43.25586,"lon":5.38228,"is_reserved":false,"is_disabled":false,"rental_uris":{"android":"levelo://app?vid=31b7f732-5eb8-43e4-b26d-d0d6a02fcf7f","ios":"levelo://app?vid=31b7f732-5eb8-43e4-b26d-d0d6a02fcf7f"},"vehicle_type_id":"4","last_reported":1727961461,"current_range_meters":8400,"station_id":"ce4bhih2rcd13ifvqfs0","pricing_plan_id":"cebpf4jnsgd1na2vs0mg"},{"bike_id":"756088e4-bd38-4606-aa6f-cbbf1461af00","system_id":"levelo_inurba_marseille","lat":43.22934,"lon":5.35376,"is_reserved":false,"is_disabled":false,"rental_uris":{"android":"levelo://app?vid=756088e4-bd38-4606-aa6f-cbbf1461af00","ios":"levelo://app?vid=756088e4-bd38-4606-aa6f-cbbf1461af00"},"vehicle_type_id":"4","last_reported":1727961461,"current_range_meters":18800,"station_id":"cpo3532slgdg3j2ikp40","pricing_plan_id":"cebpf4jnsgd1na2vs0mg"},{"bike_id":"55284b84-83c5-4b2c-928e-9a74cd123c12","system_id":"levelo_inurba_marseille","lat":43.28082,"lon":5.39662,"is_reserved":false,"is_disabled":false,"rental_uris":{"android":"levelo://app?vid=55284b84-83c5-4b2c-928e-9a74cd123c12","ios":"levelo://app?vid=55284b84-83c5-4b2c-928e-9a74cd123c12"},"vehicle_type_id":"4","last_reported":1727961461,"current_range_meters":38800,"station_id":"ce4bho12rcd13ifvqh2g","pricing_plan_id":"cebpf4jnsgd1na2vs0mg"},{"bike_id":"91dd8c22-d1e9-4d71-ae55-5dd7e65d7d5a","system_id":"levelo_inurba_marseille","lat":43.23148,"lon":5.43714,"is_reserved":false,"is_disabled":false,"rental_uris":{"android":"levelo://app?vid=91dd8c22-d1e9-4d71-ae55-5dd7e65d7d5a","ios":"levelo://app?vid=91dd8c22-d1e9-4d71-ae55-5dd7e65d7d5a"},"vehicle_type_id":"4","last_reported":1727961461,"current_range_meters":19200,"station_id":"ce4bhmp2rcd13ifvqgog","pricing_plan_id":"cebpf4jnsgd1na2vs0mg"},{"bike_id":"ff89b7e6-8dbb-4502-ae6b-954b46feae02","system_id":"levelo_inurba_marseille","lat":43.25005,"lon":5.38914,"is_reserved":false,"is_disabled":false,"rental_uris":{"android":"levelo://app?vid=ff89b7e6-8dbb-4502-ae6b-954b46feae02","ios":"levelo://app?vid=ff89b7e6-8dbb-4502-ae6b-954b46feae02"},"vehicle_type_id":"4","last_reported":1727961461,"current_range_meters":37600,"station_id":"ce4bhgp2rcd13ifvqfd0","pricing_plan_id":"cebpf4jnsgd1na2vs0mg"},{"bike_id":"bc41810d-3fc6-4e9c-bcc1-3b1d7bce3ce2","system_id":"levelo_inurba_marseille","lat":43.23192,"lon":5.39983,"is_reserved":false,"is_disabled":false,"rental_uris":{"android":"levelo://app?vid=bc41810d-3fc6-4e9c-bcc1-3b1d7bce3ce2","ios":"levelo://app?vid=bc41810d-3fc6-4e9c-bcc1-3b1d7bce3ce2"},"vehicle_type_id":"4","last_reported":1727961461,"current_range_meters":24400,"station_id":"ce4bhn12rcd13ifvqgqg","pricing_plan_id":"cebpf4jnsgd1na2vs0mg"},{"bike_id":"4b6721b8-1a28-4ce5-a9fa-1b893f7f0ac0","system_id":"levelo_inurba_marseille","lat":43.32491,"lon":5.36561,"is_reserved":false,"is_disabled":false,"rental_uris":{"android":"levelo://app?vid=4b6721b8-1a28-4ce5-a9fa-1b893f7f0ac0","ios":"levelo://app?vid=4b6721b8-1a28-4ce5-a9fa-1b893f7f0ac0"},"vehicle_type_id":"4","last_reported":1727961461,"current_range_meters":38800,"station_id":"ce4bhs12rcd13ifvqhvg","pricing_plan_id":"cebpf4jnsgd1na2vs0mg"},{"bike_id":"c728b18c-7894-4518-918e-469ab51ff2d3","system_id":"levelo_inurba_marseille","lat":43.30547,"lon":5.36543,"is_reserved":false,"is_disabled":false,"rental_uris":{"android":"levelo://app?vid=c728b18c-7894-4518-918e-469ab51ff2d3","ios":"levelo://app?vid=c728b18c-7894-4518-918e-469ab51ff2d3"},"vehicle_type_id":"4","last_reported":1727961461,"current_range_meters":36000,"station_id":"ce4bgs12rcd13ifvqcag","pricing_plan_id":"cebpf4jnsgd1na2vs0mg"},{"bike_id":"0a9918d7-41e5-40b7-a2f3-9509ab8baede","system_id":"levelo_inurba_marseille","lat":43.283406,"lon":5.412763,"is_reserved":false,"is_disabled":false,"rental_uris":{"android":"levelo://app?vid=0a9918d7-41e5-40b7-a2f3-9509ab8baede","ios":"levelo://app?vid=0a9918d7-41e5-40b7-a2f3-9509ab8baede"},"vehicle_type_id":"4","last_reported":1727961461,"current_range_meters":18000,"station_id":"","pricing_plan_id":"cebpf4jnsgd1na2vs0mg"},{"bike_id":"fd802ec6-87e9-40f7-8a8b-86140cac3ad3","system_id":"levelo_inurba_marseille","lat":43.29586,"lon":5.36739,"is_reserved":false,"is_disabled":false,"rental_uris":{"android":"levelo://app?vid=fd802ec6-87e9-40f7-8a8b-86140cac3ad3","ios":"levelo://app?vid=fd802ec6-87e9-40f7-8a8b-86140cac3ad3"},"vehicle_type_id":"4","last_reported":1727961461,"current_range_meters":39200,"station_id":"ce4bgph2rcd13ifvqc2g","pricing_plan_id":"cebpf4jnsgd1na2vs0mg"},{"bike_id":"847b5f29-9921-4ec5-b320-25044e7544ac","system_id":"levelo_inurba_marseille","lat":43.25111,"lon":5.4033,"is_reserved":false,"is_disabled":false,"rental_uris":{"android":"levelo://app?vid=847b5f29-9921-4ec5-b320-25044e7544ac","ios":"levelo://app?vid=847b5f29-9921-4ec5-b320-25044e7544ac"},"vehicle_type_id":"4","last_reported":1727961461,"current_range_meters":23200,"station_id":"ce4bhlh2rcd13ifvqgig","pricing_plan_id":"cebpf4jnsgd1na2vs0mg"},{"bike_id":"c86382ac-a52c-44c4-ae21-a21b0f63f107","system_id":"levelo_inurba_marseille","lat":43.29254,"lon":5.40902,"is_reserved":false,"is_disabled":false,"rental_uris":{"android":"levelo://app?vid=c86382ac-a52c-44c4-ae21-a21b0f63f107","ios":"levelo://app?vid=c86382ac-a52c-44c4-ae21-a21b0f63f107"},"vehicle_type_id":"4","last_reported":1727961461,"current_range_meters":38000,"station_id":"ce4bh192rcd13ifvqdc0","pricing_plan_id":"cebpf4jnsgd1na2vs0mg"},{"bike_id":"891c4784-04bb-4064-8da0-9170f878a0d7","system_id":"levelo_inurba_marseille","lat":43.30141,"lon":5.39867,"is_reserved":false,"is_disabled":false,"rental_uris":{"android":"levelo://app?vid=891c4784-04bb-4064-8da0-9170f878a0d7","ios":"levelo://app?vid=891c4784-04bb-4064-8da0-9170f878a0d7"},"vehicle_type_id":"4","last_reported":1727961461,"current_range_meters":30000,"station_id":"ce4bh0h2rcd13ifvqd40","pricing_plan_id":"cebpf4jnsgd1na2vs0mg"},{"bike_id":"8326421d-4562-4b4c-a6a6-90f2e91c56b9","system_id":"levelo_inurba_marseille","lat":43.29902,"lon":5.38141,"is_reserved":false,"is_disabled":false,"rental_uris":{"android":"levelo://app?vid=8326421d-4562-4b4c-a6a6-90f2e91c56b9","ios":"levelo://app?vid=8326421d-4562-4b4c-a6a6-90f2e91c56b9"},"vehicle_type_id":"4","last_reported":1727961461,"current_range_meters":28000,"station_id":"ce4bgj12rcd13ifvqbc0","pricing_plan_id":"cebpf4jnsgd1na2vs0mg"},{"bike_id":"1ba5208c-573b-4492-aa1d-13e2ac1f8483","system_id":"levelo_inurba_marseille","lat":43.29266,"lon":5.36849,"is_reserved":false,"is_disabled":false,"rental_uris":{"android":"levelo://app?vid=1ba5208c-573b-4492-aa1d-13e2ac1f8483","ios":"levelo://app?vid=1ba5208c-573b-4492-aa1d-13e2ac1f8483"},"vehicle_type_id":"4","last_reported":1727961461,"current_range_meters":5600,"station_id":"ce4bhbp2rcd13ifvqesg","pricing_plan_id":"cebpf4jnsgd1na2vs0mg"},{"bike_id":"867a6dd3-db2a-4a34-ab19-c4794de9d49c","system_id":"levelo_inurba_marseille","lat":43.2872,"lon":5.3794,"is_reserved":false,"is_disabled":false,"rental_uris":{"android":"levelo://app?vid=867a6dd3-db2a-4a34-ab19-c4794de9d49c","ios":"levelo://app?vid=867a6dd3-db2a-4a34-ab19-c4794de9d49c"},"vehicle_type_id":"4","last_reported":1727961461,"current_range_meters":6400,"station_id":"ce4bh9p2rcd13ifvqec0","pricing_plan_id":"cebpf4jnsgd1na2vs0mg"},{"bike_id":"00411a3f-977b-4a5e-a064-0b34d5d1c69d","system_id":"levelo_inurba_marseille","lat":43.25871,"lon":5.39898,"is_reserved":false,"is_disabled":false,"rental_uris":{"android":"levelo://app?vid=00411a3f-977b-4a5e-a064-0b34d5d1c69d","ios":"levelo://app?vid=00411a3f-977b-4a5e-a064-0b34d5d1c69d"},"vehicle_type_id":"4","last_reported":1727961461,"current_range_meters":32400,"station_id":"ce4bhl92rcd13ifvqghg","pricing_plan_id":"cebpf4jnsgd1na2vs0mg"},{"bike_id":"0d85dad1-cd4b-43e6-bec7-f20cb70cbe4f","system_id":"levelo_inurba_marseille","lat":43.25587,"lon":5.38236,"is_reserved":false,"is_disabled":false,"rental_uris":{"android":"levelo://app?vid=0d85dad1-cd4b-43e6-bec7-f20cb70cbe4f","ios":"levelo://app?vid=0d85dad1-cd4b-43e6-bec7-f20cb70cbe4f"},"vehicle_type_id":"4","last_reported":1727961461,"current_range_meters":20800,"station_id":"ce4bhih2rcd13ifvqfs0","pricing_plan_id":"cebpf4jnsgd1na2vs0mg"},{"bike_id":"89f432c5-7161-4a6b-9029-4b77b3dc64b5","system_id":"levelo_inurba_marseille","lat":43.25708,"lon":5.41124,"is_reserved":false,"is_disabled":false,"rental_uris":{"android":"levelo://app?vid=89f432c5-7161-4a6b-9029-4b77b3dc64b5","ios":"levelo://app?vid=89f432c5-7161-4a6b-9029-4b77b3dc64b5"},"vehicle_type_id":"4","last_reported":1727961461,"current_range_meters":4000,"station_id":"ce4bhkp2rcd13ifvqgd0","pricing_plan_id":"cebpf4jnsgd1na2vs0mg"},{"bike_id":"97c413f0-0499-425d-bfab-2f45162826bf","system_id":"levelo_inurba_marseille","lat":43.25495,"lon":5.3765,"is_reserved":false,"is_disabled":false,"rental_uris":{"android":"levelo://app?vid=97c413f0-0499-425d-bfab-2f45162826bf","ios":"levelo://app?vid=97c413f0-0499-425d-bfab-2f45162826bf"},"vehicle_type_id":"4","last_reported":1727961461,"current_range_meters":36000,"station_id":"ce4bhh12rcd13ifvqff0","pricing_plan_id":"cebpf4jnsgd1na2vs0mg"},{"bike_id":"64ac65e9-55c0-49e9-b472-a6c5ee0c2c06","system_id":"levelo_inurba_marseille","lat":43.29021,"lon":5.38645,"is_reserved":false,"is_disabled":false,"rental_uris":{"android":"levelo://app?vid=64ac65e9-55c0-49e9-b472-a6c5ee0c2c06","ios":"levelo://app?vid=64ac65e9-55c0-49e9-b472-a6c5ee0c2c06"},"vehicle_type_id":"4","last_reported":1727961461,"current_range_meters":29600,"station_id":"ce4bh4p2rcd13ifvqe0g","pricing_plan_id":"cebpf4jnsgd1na2vs0mg"},{"bike_id":"0d836344-fa94-49cd-8033-6b8fd9b0ab9e","system_id":"levelo_inurba_marseille","lat":43.25937,"lon":5.40896,"is_reserved":false,"is_disabled":false,"rental_uris":{"android":"levelo://app?vid=0d836344-fa94-49cd-8033-6b8fd9b0ab9e","ios":"levelo://app?vid=0d836344-fa94-49cd-8033-6b8fd9b0ab9e"},"vehicle_type_id":"4","last_reported":1727961461,"current_range_meters":3200,"station_id":"ce4bhm92rcd13ifvqglg","pricing_plan_id":"cebpf4jnsgd1na2vs0mg"},{"bike_id":"348571c2-5d32-4f15-9980-7c837c202b3f","system_id":"levelo_inurba_marseille","lat":43.24649,"lon":5.38895,"is_reserved":false,"is_disabled":false,"rental_uris":{"android":"levelo://app?vid=348571c2-5d32-4f15-9980-7c837c202b3f","ios":"levelo://app?vid=348571c2-5d32-4f15-9980-7c837c202b3f"},"vehicle_type_id":"4","last_reported":1727961461,"current_range_meters":36000,"station_id":"ce4bhg12rcd13ifvqf60","pricing_plan_id":"cebpf4jnsgd1na2vs0mg"},{"bike_id":"62e5f888-7e6d-4e7f-bbf2-e279246da4b8","system_id":"levelo_inurba_marseille","lat":43.30246,"lon":5.40074,"is_reserved":false,"is_disabled":false,"rental_uris":{"android":"levelo://app?vid=62e5f888-7e6d-4e7f-bbf2-e279246da4b8","ios":"levelo://app?vid=62e5f888-7e6d-4e7f-bbf2-e279246da4b8"},"vehicle_type_id":"4","last_reported":1727961461,"current_range_meters":37600,"station_id":"ce4bgvh2rcd13ifvqcs0","pricing_plan_id":"cebpf4jnsgd1na2vs0mg"},{"bike_id":"86efcd5a-9c00-4fd3-8fda-2ba0c5fcfe39","system_id":"levelo_inurba_marseille","lat":43.292009,"lon":5.393203,"is_reserved":false,"is_disabled":false,"rental_uris":{"android":"levelo://app?vid=86efcd5a-9c00-4fd3-8fda-2ba0c5fcfe39","ios":"levelo://app?vid=86efcd5a-9c00-4fd3-8fda-2ba0c5fcfe39"},"vehicle_type_id":"4","last_reported":1727961461,"current_range_meters":27200,"station_id":"ce4bh112rcd13ifvqda0","pricing_plan_id":"cebpf4jnsgd1na2vs0mg"},{"bike_id":"bc8e430a-4441-42a3-85b3-53e1b2cb0e0e","system_id":"levelo_inurba_marseille","lat":43.31755,"lon":5.39017,"is_reserved":false,"is_disabled":false,"rental_uris":{"android":"levelo://app?vid=bc8e430a-4441-42a3-85b3-53e1b2cb0e0e","ios":"levelo://app?vid=bc8e430a-4441-42a3-85b3-53e1b2cb0e0e"},"vehicle_type_id":"4","last_reported":1727961461,"current_range_meters":16800,"station_id":"ce4bhqp2rcd13ifvqhng","pricing_plan_id":"cebpf4jnsgd1na2vs0mg"},{"bike_id":"24c98704-a72f-4136-b091-895885dbb2c8","system_id":"levelo_inurba_marseille","lat":43.24083,"lon":5.37751,"is_reserved":false,"is_disabled":false,"rental_uris":{"android":"levelo://app?vid=24c98704-a72f-4136-b091-895885dbb2c8","ios":"levelo://app?vid=24c98704-a72f-4136-b091-895885dbb2c8"},"vehicle_type_id":"4","last_reported":1727961461,"current_range_meters":27600,"station_id":"ce4bhnp2rcd13ifvqgvg","pricing_plan_id":"cebpf4jnsgd1na2vs0mg"},{"bike_id":"a2105016-831b-4430-8e5a-d92ad4b3c953","system_id":"levelo_inurba_marseille","lat":43.32555,"lon":5.41435,"is_reserved":false,"is_disabled":false,"rental_uris":{"android":"levelo://app?vid=a2105016-831b-4430-8e5a-d92ad4b3c953","ios":"levelo://app?vid=a2105016-831b-4430-8e5a-d92ad4b3c953"},"vehicle_type_id":"4","last_reported":1727961461,"current_range_meters":36800,"station_id":"ce4bhq12rcd13ifvqhhg","pricing_plan_id":"cebpf4jnsgd1na2vs0mg"},{"bike_id":"1401da6e-9856-41a0-af80-3445d87d8a5e","system_id":"levelo_inurba_marseille","lat":43.337444,"lon":5.374475,"is_reserved":false,"is_disabled":false,"rental_uris":{"android":"levelo://app?vid=1401da6e-9856-41a0-af80-3445d87d8a5e","ios":"levelo://app?vid=1401da6e-9856-41a0-af80-3445d87d8a5e"},"vehicle_type_id":"4","last_reported":1727961461,"current_range_meters":27200,"station_id":"ce4bh0p2rcd13ifvqd80","pricing_plan_id":"cebpf4jnsgd1na2vs0mg"},{"bike_id":"0254b970-14d7-4dfc-8d38-0171ca9ae025","system_id":"levelo_inurba_marseille","lat":43.26683,"lon":5.38265,"is_reserved":false,"is_disabled":false,"rental_uris":{"android":"levelo://app?vid=0254b970-14d7-4dfc-8d38-0171ca9ae025","ios":"levelo://app?vid=0254b970-14d7-4dfc-8d38-0171ca9ae025"},"vehicle_type_id":"4","last_reported":1727961461,"current_range_meters":19200,"station_id":"ce4bhg92rcd13ifvqf90","pricing_plan_id":"cebpf4jnsgd1na2vs0mg"},{"bike_id":"1699506f-c969-4c90-b21c-665e35889a5f","system_id":"levelo_inurba_marseille","lat":43.30967,"lon":5.39042,"is_reserved":false,"is_disabled":false,"rental_uris":{"android":"levelo://app?vid=1699506f-c969-4c90-b21c-665e35889a5f","ios":"levelo://app?vid=1699506f-c969-4c90-b21c-665e35889a5f"},"vehicle_type_id":"4","last_reported":1727961461,"current_range_meters":38800,"station_id":"ce4bgup2rcd13ifvqco0","pricing_plan_id":"cebpf4jnsgd1na2vs0mg"},{"bike_id":"5a66baa5-8f6e-44b7-835f-794b54ff498e","system_id":"levelo_inurba_marseille","lat":43.24655,"lon":5.38892,"is_reserved":false,"is_disabled":false,"rental_uris":{"android":"levelo://app?vid=5a66baa5-8f6e-44b7-835f-794b54ff498e","ios":"levelo://app?vid=5a66baa5-8f6e-44b7-835f-794b54ff498e"},"vehicle_type_id":"4","last_reported":1727961461,"current_range_meters":3200,"station_id":"ce4bhg12rcd13ifvqf60","pricing_plan_id":"cebpf4jnsgd1na2vs0mg"},{"bike_id":"bc3ddbfe-7db0-4256-b481-74d09037f9dd","system_id":"levelo_inurba_marseille","lat":43.28075,"lon":5.39658,"is_reserved":false,"is_disabled":false,"rental_uris":{"android":"levelo://app?vid=bc3ddbfe-7db0-4256-b481-74d09037f9dd","ios":"levelo://app?vid=bc3ddbfe-7db0-4256-b481-74d09037f9dd"},"vehicle_type_id":"4","last_reported":1727961461,"current_range_meters":35600,"station_id":"ce4bho12rcd13ifvqh2g","pricing_plan_id":"cebpf4jnsgd1na2vs0mg"},{"bike_id":"f8b9251e-a818-4b62-9a03-ad5c02250b87","system_id":"levelo_inurba_marseille","lat":43.30287,"lon":5.377,"is_reserved":false,"is_disabled":false,"rental_uris":{"android":"levelo://app?vid=f8b9251e-a818-4b62-9a03-ad5c02250b87","ios":"levelo://app?vid=f8b9251e-a818-4b62-9a03-ad5c02250b87"},"vehicle_type_id":"4","last_reported":1727961461,"current_range_meters":22800,"station_id":"ce4bguh2rcd13ifvqcj0","pricing_plan_id":"cebpf4jnsgd1na2vs0mg"},{"bike_id":"a0feab16-2f1f-4214-9058-21d8b9b7774f","system_id":"levelo_inurba_marseille","lat":43.27994,"lon":5.4096,"is_reserved":false,"is_disabled":false,"rental_uris":{"android":"levelo://app?vid=a0feab16-2f1f-4214-9058-21d8b9b7774f","ios":"levelo://app?vid=a0feab16-2f1f-4214-9058-21d8b9b7774f"},"vehicle_type_id":"4","last_reported":1727961461,"current_range_meters":16000,"station_id":"","pricing_plan_id":"cebpf4jnsgd1na2vs0mg"},{"bike_id":"d99c7d74-ba98-40c3-97fb-1db4a70aeb75","system_id":"levelo_inurba_marseille","lat":43.2984,"lon":5.36271,"is_reserved":false,"is_disabled":false,"rental_uris":{"android":"levelo://app?vid=d99c7d74-ba98-40c3-97fb-1db4a70aeb75","ios":"levelo://app?vid=d99c7d74-ba98-40c3-97fb-1db4a70aeb75"},"vehicle_type_id":"4","last_reported":1727961461,"current_range_meters":7200,"station_id":"ce4bgpp2rcd13ifvqc3g","pricing_plan_id":"cebpf4jnsgd1na2vs0mg"},{"bike_id":"0d38caac-4e1b-4bc6-8634-fba8549655ca","system_id":"levelo_inurba_marseille","lat":43.32111,"lon":5.36783,"is_reserved":false,"is_disabled":false,"rental_uris":{"android":"levelo://app?vid=0d38caac-4e1b-4bc6-8634-fba8549655ca","ios":"levelo://app?vid=0d38caac-4e1b-4bc6-8634-fba8549655ca"},"vehicle_type_id":"4","last_reported":1727961461,"current_range_meters":36400,"station_id":"ce4bhrh2rcd13ifvqhug","pricing_plan_id":"cebpf4jnsgd1na2vs0mg"},{"bike_id":"30acda25-b94f-4383-b594-669d6cf83409","system_id":"levelo_inurba_marseille","lat":43.30589,"lon":5.39359,"is_reserved":false,"is_disabled":false,"rental_uris":{"android":"levelo://app?vid=30acda25-b94f-4383-b594-669d6cf83409","ios":"levelo://app?vid=30acda25-b94f-4383-b594-669d6cf83409"},"vehicle_type_id":"4","last_reported":1727961461,"current_range_meters":8400,"station_id":"ce4bh0p2rcd13ifvqd80","pricing_plan_id":"cebpf4jnsgd1na2vs0mg"},{"bike_id":"133464c2-43c3-4b45-a7a1-f966a6c79f4e","system_id":"levelo_inurba_marseille","lat":43.24676,"lon":5.38149,"is_reserved":false,"is_disabled":false,"rental_uris":{"android":"levelo://app?vid=133464c2-43c3-4b45-a7a1-f966a6c79f4e","ios":"levelo://app?vid=133464c2-43c3-4b45-a7a1-f966a6c79f4e"},"vehicle_type_id":"4","last_reported":1727961461,"current_range_meters":10800,"station_id":"ce4bhih2rcd13ifvqfr0","pricing_plan_id":"cebpf4jnsgd1na2vs0mg"},{"bike_id":"f8d47cde-ba81-4b02-8f47-8aa36e8ed787","system_id":"levelo_inurba_marseille","lat":43.27813,"lon":5.40712,"is_reserved":false,"is_disabled":false,"rental_uris":{"android":"levelo://app?vid=f8d47cde-ba81-4b02-8f47-8aa36e8ed787","ios":"levelo://app?vid=f8d47cde-ba81-4b02-8f47-8aa36e8ed787"},"vehicle_type_id":"4","last_reported":1727961461,"current_range_meters":4000,"station_id":"ce4bhnh2rcd13ifvqgtg","pricing_plan_id":"cebpf4jnsgd1na2vs0mg"},{"bike_id":"0c486ab5-3217-4997-8e62-08ba6082ea68","system_id":"levelo_inurba_marseille","lat":43.25932,"lon":5.40911,"is_reserved":false,"is_disabled":false,"rental_uris":{"android":"levelo://app?vid=0c486ab5-3217-4997-8e62-08ba6082ea68","ios":"levelo://app?vid=0c486ab5-3217-4997-8e62-08ba6082ea68"},"vehicle_type_id":"4","last_reported":1727961461,"current_range_meters":3200,"station_id":"ce4bhm92rcd13ifvqglg","pricing_plan_id":"cebpf4jnsgd1na2vs0mg"},{"bike_id":"65394c5b-5813-4a07-b98a-2324213a98a3","system_id":"levelo_inurba_marseille","lat":43.30192,"lon":5.36614,"is_reserved":false,"is_disabled":false,"rental_uris":{"android":"levelo://app?vid=65394c5b-5813-4a07-b98a-2324213a98a3","ios":"levelo://app?vid=65394c5b-5813-4a07-b98a-2324213a98a3"},"vehicle_type_id":"4","last_reported":1727961461,"current_range_meters":15200,"station_id":"ce4bgrh2rcd13ifvqc8g","pricing_plan_id":"cebpf4jnsgd1na2vs0mg"},{"bike_id":"c1cd5965-ecae-48c4-9bc7-ff28a85fc3e2","system_id":"levelo_inurba_marseille","lat":43.27948,"lon":5.41048,"is_reserved":false,"is_disabled":false,"rental_uris":{"android":"levelo://app?vid=c1cd5965-ecae-48c4-9bc7-ff28a85fc3e2","ios":"levelo://app?vid=c1cd5965-ecae-48c4-9bc7-ff28a85fc3e2"},"vehicle_type_id":"4","last_reported":1727961461,"current_range_meters":2800,"station_id":"ce4bhnp2rcd13ifvqh0g","pricing_plan_id":"cebpf4jnsgd1na2vs0mg"},{"bike_id":"c0067fb4-53e3-4085-84ef-791077749fa9","system_id":"levelo_inurba_marseille","lat":43.25581,"lon":5.38236,"is_reserved":false,"is_disabled":false,"rental_uris":{"android":"levelo://app?vid=c0067fb4-53e3-4085-84ef-791077749fa9","ios":"levelo://app?vid=c0067fb4-53e3-4085-84ef-791077749fa9"},"vehicle_type_id":"4","last_reported":1727961461,"current_range_meters":28400,"station_id":"ce4bhih2rcd13ifvqfs0","pricing_plan_id":"cebpf4jnsgd1na2vs0mg"},{"bike_id":"5ebca78e-16b5-4f19-a72e-4c6fbb77d0fd","system_id":"levelo_inurba_marseille","lat":43.30201,"lon":5.39461,"is_reserved":false,"is_disabled":false,"rental_uris":{"android":"levelo://app?vid=5ebca78e-16b5-4f19-a72e-4c6fbb77d0fd","ios":"levelo://app?vid=5ebca78e-16b5-4f19-a72e-4c6fbb77d0fd"},"vehicle_type_id":"4","last_reported":1727961461,"current_range_meters":38800,"station_id":"ce4bh0p2rcd13ifvqd70","pricing_plan_id":"cebpf4jnsgd1na2vs0mg"},{"bike_id":"499cb64c-6fb8-4407-89d8-a118e3c5c28d","system_id":"levelo_inurba_marseille","lat":43.28002,"lon":5.40007,"is_reserved":false,"is_disabled":false,"rental_uris":{"android":"levelo://app?vid=499cb64c-6fb8-4407-89d8-a118e3c5c28d","ios":"levelo://app?vid=499cb64c-6fb8-4407-89d8-a118e3c5c28d"},"vehicle_type_id":"4","last_reported":1727961461,"current_range_meters":20000,"station_id":"ce4bho92rcd13ifvqh4g","pricing_plan_id":"cebpf4jnsgd1na2vs0mg"},{"bike_id":"ad9d6e94-a639-469e-9892-0c7fed511f97","system_id":"levelo_inurba_marseille","lat":43.26567,"lon":5.37289,"is_reserved":false,"is_disabled":false,"rental_uris":{"android":"levelo://app?vid=ad9d6e94-a639-469e-9892-0c7fed511f97","ios":"levelo://app?vid=ad9d6e94-a639-469e-9892-0c7fed511f97"},"vehicle_type_id":"4","last_reported":1727961461,"current_range_meters":20800,"station_id":"ce4bhg12rcd13ifvqf70","pricing_plan_id":"cebpf4jnsgd1na2vs0mg"},{"bike_id":"279378b5-bdfd-4139-a8ee-ca339ddef503","system_id":"levelo_inurba_marseille","lat":43.31435,"lon":5.37327,"is_reserved":false,"is_disabled":false,"rental_uris":{"android":"levelo://app?vid=279378b5-bdfd-4139-a8ee-ca339ddef503","ios":"levelo://app?vid=279378b5-bdfd-4139-a8ee-ca339ddef503"},"vehicle_type_id":"4","last_reported":1727961461,"current_range_meters":31200,"station_id":"ce4bgt92rcd13ifvqcg0","pricing_plan_id":"cebpf4jnsgd1na2vs0mg"},{"bike_id":"0ef612cc-2a4c-4efc-be29-113e1471189b","system_id":"levelo_inurba_marseille","lat":43.28867,"lon":5.35831,"is_reserved":false,"is_disabled":false,"rental_uris":{"android":"levelo://app?vid=0ef612cc-2a4c-4efc-be29-113e1471189b","ios":"levelo://app?vid=0ef612cc-2a4c-4efc-be29-113e1471189b"},"vehicle_type_id":"4","last_reported":1727961461,"current_range_meters":38800,"station_id":"ce4bhb12rcd13ifvqem0","pricing_plan_id":"cebpf4jnsgd1na2vs0mg"},{"bike_id":"3e2daf70-0524-4e71-8de4-0ed4b5df5a53","system_id":"levelo_inurba_marseille","lat":43.25499,"lon":5.37645,"is_reserved":false,"is_disabled":false,"rental_uris":{"android":"levelo://app?vid=3e2daf70-0524-4e71-8de4-0ed4b5df5a53","ios":"levelo://app?vid=3e2daf70-0524-4e71-8de4-0ed4b5df5a53"},"vehicle_type_id":"4","last_reported":1727961461,"current_range_meters":23200,"station_id":"ce4bhh12rcd13ifvqff0","pricing_plan_id":"cebpf4jnsgd1na2vs0mg"},{"bike_id":"529979a7-067a-4819-b0ac-ae3e3753cb84","system_id":"levelo_inurba_marseille","lat":43.25589,"lon":5.38243,"is_reserved":false,"is_disabled":false,"rental_uris":{"android":"levelo://app?vid=529979a7-067a-4819-b0ac-ae3e3753cb84","ios":"levelo://app?vid=529979a7-067a-4819-b0ac-ae3e3753cb84"},"vehicle_type_id":"4","last_reported":1727961461,"current_range_meters":35600,"station_id":"ce4bhih2rcd13ifvqfs0","pricing_plan_id":"cebpf4jnsgd1na2vs0mg"},{"bike_id":"228e128a-5af5-46f4-8044-b656b080814e","system_id":"levelo_inurba_marseille","lat":43.29173,"lon":5.37148,"is_reserved":false,"is_disabled":false,"rental_uris":{"android":"levelo://app?vid=228e128a-5af5-46f4-8044-b656b080814e","ios":"levelo://app?vid=228e128a-5af5-46f4-8044-b656b080814e"},"vehicle_type_id":"4","last_reported":1727961461,"current_range_meters":30800,"station_id":"ce4bha92rcd13ifvqeh0","pricing_plan_id":"cebpf4jnsgd1na2vs0mg"},{"bike_id":"c75a55b0-7a2f-4b27-bb36-85b9bce54e40","system_id":"levelo_inurba_marseille","lat":43.26683,"lon":5.3827,"is_reserved":false,"is_disabled":false,"rental_uris":{"android":"levelo://app?vid=c75a55b0-7a2f-4b27-bb36-85b9bce54e40","ios":"levelo://app?vid=c75a55b0-7a2f-4b27-bb36-85b9bce54e40"},"vehicle_type_id":"4","last_reported":1727961461,"current_range_meters":9200,"station_id":"ce4bhg92rcd13ifvqf90","pricing_plan_id":"cebpf4jnsgd1na2vs0mg"},{"bike_id":"76f567d4-1967-4cea-af8b-fd617ffaec8d","system_id":"levelo_inurba_marseille","lat":43.28278,"lon":5.35065,"is_reserved":false,"is_disabled":false,"rental_uris":{"android":"levelo://app?vid=76f567d4-1967-4cea-af8b-fd617ffaec8d","ios":"levelo://app?vid=76f567d4-1967-4cea-af8b-fd617ffaec8d"},"vehicle_type_id":"4","last_reported":1727961461,"current_range_meters":27200,"station_id":"ce4bhbp2rcd13ifvqerg","pricing_plan_id":"cebpf4jnsgd1na2vs0mg"},{"bike_id":"80a0930f-371b-4df6-82ff-8d8beeb68d67","system_id":"levelo_inurba_marseille","lat":43.30589,"lon":5.39361,"is_reserved":false,"is_disabled":false,"rental_uris":{"android":"levelo://app?vid=80a0930f-371b-4df6-82ff-8d8beeb68d67","ios":"levelo://app?vid=80a0930f-371b-4df6-82ff-8d8beeb68d67"},"vehicle_type_id":"4","last_reported":1727961461,"current_range_meters":18800,"station_id":"ce4bh0p2rcd13ifvqd80","pricing_plan_id":"cebpf4jnsgd1na2vs0mg"},{"bike_id":"7bfb5721-baf3-4893-bbf9-7c8112a113a1","system_id":"levelo_inurba_marseille","lat":43.27999,"lon":5.40001,"is_reserved":false,"is_disabled":false,"rental_uris":{"android":"levelo://app?vid=7bfb5721-baf3-4893-bbf9-7c8112a113a1","ios":"levelo://app?vid=7bfb5721-baf3-4893-bbf9-7c8112a113a1"},"vehicle_type_id":"4","last_reported":1727961461,"current_range_meters":34000,"station_id":"ce4bho92rcd13ifvqh4g","pricing_plan_id":"cebpf4jnsgd1na2vs0mg"},{"bike_id":"2e4b02b7-0de5-45ad-86c6-a94f2241b839","system_id":"levelo_inurba_marseille","lat":43.3029,"lon":5.37699,"is_reserved":false,"is_disabled":false,"rental_uris":{"android":"levelo://app?vid=2e4b02b7-0de5-45ad-86c6-a94f2241b839","ios":"levelo://app?vid=2e4b02b7-0de5-45ad-86c6-a94f2241b839"},"vehicle_type_id":"4","last_reported":1727961461,"current_range_meters":34000,"station_id":"ce4bguh2rcd13ifvqcj0","pricing_plan_id":"cebpf4jnsgd1na2vs0mg"},{"bike_id":"a689a59b-c5bf-43fa-85ec-6f4efa9591ad","system_id":"levelo_inurba_marseille","lat":43.32552,"lon":5.41439,"is_reserved":false,"is_disabled":false,"rental_uris":{"android":"levelo://app?vid=a689a59b-c5bf-43fa-85ec-6f4efa9591ad","ios":"levelo://app?vid=a689a59b-c5bf-43fa-85ec-6f4efa9591ad"},"vehicle_type_id":"4","last_reported":1727961461,"current_range_meters":38800,"station_id":"ce4bhq12rcd13ifvqhhg","pricing_plan_id":"cebpf4jnsgd1na2vs0mg"},{"bike_id":"4491ad8d-0f5f-4170-a2b4-2cbe70bb99c0","system_id":"levelo_inurba_marseille","lat":43.29993,"lon":5.37176,"is_reserved":false,"is_disabled":false,"rental_uris":{"android":"levelo://app?vid=4491ad8d-0f5f-4170-a2b4-2cbe70bb99c0","ios":"levelo://app?vid=4491ad8d-0f5f-4170-a2b4-2cbe70bb99c0"},"vehicle_type_id":"4","last_reported":1727961461,"current_range_meters":38400,"station_id":"ce4bgr92rcd13ifvqc7g","pricing_plan_id":"cebpf4jnsgd1na2vs0mg"},{"bike_id":"ebcbc2e3-e290-4b77-9737-e810b3a17ed2","system_id":"levelo_inurba_marseille","lat":43.320341,"lon":5.415604,"is_reserved":false,"is_disabled":false,"rental_uris":{"android":"levelo://app?vid=ebcbc2e3-e290-4b77-9737-e810b3a17ed2","ios":"levelo://app?vid=ebcbc2e3-e290-4b77-9737-e810b3a17ed2"},"vehicle_type_id":"4","last_reported":1727961461,"current_range_meters":13600,"station_id":"ce4bhqh2rcd13ifvqhlg","pricing_plan_id":"cebpf4jnsgd1na2vs0mg"},{"bike_id":"71df8d68-d681-474c-bc91-c17849864970","system_id":"levelo_inurba_marseille","lat":43.31223,"lon":5.36855,"is_reserved":false,"is_disabled":false,"rental_uris":{"android":"levelo://app?vid=71df8d68-d681-474c-bc91-c17849864970","ios":"levelo://app?vid=71df8d68-d681-474c-bc91-c17849864970"},"vehicle_type_id":"4","last_reported":1727961461,"current_range_meters":21600,"station_id":"ce4bgl92rcd13ifvqbq0","pricing_plan_id":"cebpf4jnsgd1na2vs0mg"},{"bike_id":"817c9a23-cf0f-4867-8488-477e32c13792","system_id":"levelo_inurba_marseille","lat":43.24667,"lon":5.38164,"is_reserved":false,"is_disabled":false,"rental_uris":{"android":"levelo://app?vid=817c9a23-cf0f-4867-8488-477e32c13792","ios":"levelo://app?vid=817c9a23-cf0f-4867-8488-477e32c13792"},"vehicle_type_id":"4","last_reported":1727961461,"current_range_meters":12800,"station_id":"ce4bhih2rcd13ifvqfr0","pricing_plan_id":"cebpf4jnsgd1na2vs0mg"},{"bike_id":"34a0ea9d-ee33-4584-885d-bef1888c013d","system_id":"levelo_inurba_marseille","lat":43.31352,"lon":5.36715,"is_reserved":false,"is_disabled":false,"rental_uris":{"android":"levelo://app?vid=34a0ea9d-ee33-4584-885d-bef1888c013d","ios":"levelo://app?vid=34a0ea9d-ee33-4584-885d-bef1888c013d"},"vehicle_type_id":"4","last_reported":1727961461,"current_range_meters":19200,"station_id":"ce4bgr92rcd13ifvqc6g","pricing_plan_id":"cebpf4jnsgd1na2vs0mg"},{"bike_id":"6b3ad59e-4e49-4779-ad59-c5b871f82181","system_id":"levelo_inurba_marseille","lat":43.29806,"lon":5.38092,"is_reserved":false,"is_disabled":false,"rental_uris":{"android":"levelo://app?vid=6b3ad59e-4e49-4779-ad59-c5b871f82181","ios":"levelo://app?vid=6b3ad59e-4e49-4779-ad59-c5b871f82181"},"vehicle_type_id":"4","last_reported":1727961461,"current_range_meters":19200,"station_id":"ce4bgip2rcd13ifvqbb0","pricing_plan_id":"cebpf4jnsgd1na2vs0mg"},{"bike_id":"c928f32c-8e17-419c-8d40-0dc42db64a2d","system_id":"levelo_inurba_marseille","lat":43.26579,"lon":5.39001,"is_reserved":false,"is_disabled":false,"rental_uris":{"android":"levelo://app?vid=c928f32c-8e17-419c-8d40-0dc42db64a2d","ios":"levelo://app?vid=c928f32c-8e17-419c-8d40-0dc42db64a2d"},"vehicle_type_id":"4","last_reported":1727961461,"current_range_meters":2800,"station_id":"ce4bhe12rcd13ifvqf30","pricing_plan_id":"cebpf4jnsgd1na2vs0mg"},{"bike_id":"18c94768-6c13-4979-9078-5c030a047685","system_id":"levelo_inurba_marseille","lat":43.29897,"lon":5.43671,"is_reserved":false,"is_disabled":false,"rental_uris":{"android":"levelo://app?vid=18c94768-6c13-4979-9078-5c030a047685","ios":"levelo://app?vid=18c94768-6c13-4979-9078-5c030a047685"},"vehicle_type_id":"4","last_reported":1727961461,"current_range_meters":28800,"station_id":"ce4bhpp2rcd13ifvqhfg","pricing_plan_id":"cebpf4jnsgd1na2vs0mg"},{"bike_id":"8b426252-90ee-4cb1-a2a0-ac5baa109860","system_id":"levelo_inurba_marseille","lat":43.2927,"lon":5.36843,"is_reserved":false,"is_disabled":false,"rental_uris":{"android":"levelo://app?vid=8b426252-90ee-4cb1-a2a0-ac5baa109860","ios":"levelo://app?vid=8b426252-90ee-4cb1-a2a0-ac5baa109860"},"vehicle_type_id":"4","last_reported":1727961461,"current_range_meters":17200,"station_id":"ce4bhbp2rcd13ifvqesg","pricing_plan_id":"cebpf4jnsgd1na2vs0mg"},{"bike_id":"a829d6d2-b66c-407b-8887-6948dfb67a97","system_id":"levelo_inurba_marseille","lat":43.27434,"lon":5.39421,"is_reserved":false,"is_disabled":false,"rental_uris":{"android":"levelo://app?vid=a829d6d2-b66c-407b-8887-6948dfb67a97","ios":"levelo://app?vid=a829d6d2-b66c-407b-8887-6948dfb67a97"},"vehicle_type_id":"4","last_reported":1727961461,"current_range_meters":32000,"station_id":"ce4bhdp2rcd13ifvqf20","pricing_plan_id":"cebpf4jnsgd1na2vs0mg"},{"bike_id":"b3926858-a41b-495a-bbc1-06ce82f46ee8","system_id":"levelo_inurba_marseille","lat":43.2315,"lon":5.43707,"is_reserved":false,"is_disabled":false,"rental_uris":{"android":"levelo://app?vid=b3926858-a41b-495a-bbc1-06ce82f46ee8","ios":"levelo://app?vid=b3926858-a41b-495a-bbc1-06ce82f46ee8"},"vehicle_type_id":"4","last_reported":1727961461,"current_range_meters":38400,"station_id":"ce4bhmp2rcd13ifvqgog","pricing_plan_id":"cebpf4jnsgd1na2vs0mg"},{"bike_id":"854a821b-a7cf-4f37-af53-c1e2df356f0c","system_id":"levelo_inurba_marseille","lat":43.29901,"lon":5.3765,"is_reserved":false,"is_disabled":false,"rental_uris":{"android":"levelo://app?vid=854a821b-a7cf-4f37-af53-c1e2df356f0c","ios":"levelo://app?vid=854a821b-a7cf-4f37-af53-c1e2df356f0c"},"vehicle_type_id":"4","last_reported":1727961461,"current_range_meters":29600,"station_id":"ce4bhlh2rcd13ifvqgig","pricing_plan_id":"cebpf4jnsgd1na2vs0mg"},{"bike_id":"791a01c0-56bc-4060-9a4b-e19ccefe819a","system_id":"levelo_inurba_marseille","lat":43.29707,"lon":5.36609,"is_reserved":false,"is_disabled":false,"rental_uris":{"android":"levelo://app?vid=791a01c0-56bc-4060-9a4b-e19ccefe819a","ios":"levelo://app?vid=791a01c0-56bc-4060-9a4b-e19ccefe819a"},"vehicle_type_id":"4","last_reported":1727961461,"current_range_meters":20800,"station_id":"ce4bgn12rcd13ifvqbt0","pricing_plan_id":"cebpf4jnsgd1na2vs0mg"},{"bike_id":"422a7c4b-04a2-4d7a-bb60-e21896c982e3","system_id":"levelo_inurba_marseille","lat":43.26676,"lon":5.38258,"is_reserved":false,"is_disabled":false,"rental_uris":{"android":"levelo://app?vid=422a7c4b-04a2-4d7a-bb60-e21896c982e3","ios":"levelo://app?vid=422a7c4b-04a2-4d7a-bb60-e21896c982e3"},"vehicle_type_id":"4","last_reported":1727961461,"current_range_meters":9200,"station_id":"ce4bhg92rcd13ifvqf90","pricing_plan_id":"cebpf4jnsgd1na2vs0mg"},{"bike_id":"f405a66a-fe0c-4c0e-bca5-17665a8e7617","system_id":"levelo_inurba_marseille","lat":43.25498,"lon":5.37647,"is_reserved":false,"is_disabled":false,"rental_uris":{"android":"levelo://app?vid=f405a66a-fe0c-4c0e-bca5-17665a8e7617","ios":"levelo://app?vid=f405a66a-fe0c-4c0e-bca5-17665a8e7617"},"vehicle_type_id":"4","last_reported":1727961461,"current_range_meters":23200,"station_id":"ce4bhh12rcd13ifvqff0","pricing_plan_id":"cebpf4jnsgd1na2vs0mg"},{"bike_id":"9abd52f9-1022-4442-b4d3-171b178048ae","system_id":"levelo_inurba_marseille","lat":43.25575,"lon":5.38228,"is_reserved":false,"is_disabled":false,"rental_uris":{"android":"levelo://app?vid=9abd52f9-1022-4442-b4d3-171b178048ae","ios":"levelo://app?vid=9abd52f9-1022-4442-b4d3-171b178048ae"},"vehicle_type_id":"4","last_reported":1727961461,"current_range_meters":25600,"station_id":"ce4bhih2rcd13ifvqfs0","pricing_plan_id":"cebpf4jnsgd1na2vs0mg"},{"bike_id":"8dbe3dae-8285-44fb-9ca9-ed8317c5dd96","system_id":"levelo_inurba_marseille","lat":43.30533,"lon":5.36701,"is_reserved":false,"is_disabled":false,"rental_uris":{"android":"levelo://app?vid=8dbe3dae-8285-44fb-9ca9-ed8317c5dd96","ios":"levelo://app?vid=8dbe3dae-8285-44fb-9ca9-ed8317c5dd96"},"vehicle_type_id":"4","last_reported":1727961461,"current_range_meters":26000,"station_id":"ce4bgrp2rcd13ifvqc9g","pricing_plan_id":"cebpf4jnsgd1na2vs0mg"},{"bike_id":"d7db08aa-cc45-4ef8-ac0c-cd2100497c50","system_id":"levelo_inurba_marseille","lat":43.25494,"lon":5.37647,"is_reserved":false,"is_disabled":false,"rental_uris":{"android":"levelo://app?vid=d7db08aa-cc45-4ef8-ac0c-cd2100497c50","ios":"levelo://app?vid=d7db08aa-cc45-4ef8-ac0c-cd2100497c50"},"vehicle_type_id":"4","last_reported":1727961461,"current_range_meters":22000,"station_id":"ce4bhh12rcd13ifvqff0","pricing_plan_id":"cebpf4jnsgd1na2vs0mg"},{"bike_id":"55bb5a22-967e-4f86-9cba-66561ae930ed","system_id":"levelo_inurba_marseille","lat":43.31121,"lon":5.3777,"is_reserved":false,"is_disabled":false,"rental_uris":{"android":"levelo://app?vid=55bb5a22-967e-4f86-9cba-66561ae930ed","ios":"levelo://app?vid=55bb5a22-967e-4f86-9cba-66561ae930ed"},"vehicle_type_id":"4","last_reported":1727961461,"current_range_meters":6800,"station_id":"ce4bgt92rcd13ifvqcg0","pricing_plan_id":"cebpf4jnsgd1na2vs0mg"},{"bike_id":"7cfe92b3-4c96-41a9-bad3-f1e9911d0aed","system_id":"levelo_inurba_marseille","lat":43.27954,"lon":5.41042,"is_reserved":false,"is_disabled":false,"rental_uris":{"android":"levelo://app?vid=7cfe92b3-4c96-41a9-bad3-f1e9911d0aed","ios":"levelo://app?vid=7cfe92b3-4c96-41a9-bad3-f1e9911d0aed"},"vehicle_type_id":"4","last_reported":1727961461,"current_range_meters":26800,"station_id":"ce4bhnp2rcd13ifvqh0g","pricing_plan_id":"cebpf4jnsgd1na2vs0mg"},{"bike_id":"19254c70-c59e-4705-a4dc-186130b7fbc8","system_id":"levelo_inurba_marseille","lat":43.27073,"lon":5.42277,"is_reserved":false,"is_disabled":false,"rental_uris":{"android":"levelo://app?vid=19254c70-c59e-4705-a4dc-186130b7fbc8","ios":"levelo://app?vid=19254c70-c59e-4705-a4dc-186130b7fbc8"},"vehicle_type_id":"4","last_reported":1727961461,"current_range_meters":11600,"station_id":"ce4bhk92rcd13ifvqgb0","pricing_plan_id":"cebpf4jnsgd1na2vs0mg"},{"bike_id":"5ff1a778-cd09-41d1-bb8d-3625daf4f689","system_id":"levelo_inurba_marseille","lat":43.337444,"lon":5.374475,"is_reserved":false,"is_disabled":false,"rental_uris":{"android":"levelo://app?vid=5ff1a778-cd09-41d1-bb8d-3625daf4f689","ios":"levelo://app?vid=5ff1a778-cd09-41d1-bb8d-3625daf4f689"},"vehicle_type_id":"4","last_reported":1727961461,"current_range_meters":38000,"station_id":"","pricing_plan_id":"cebpf4jnsgd1na2vs0mg"},{"bike_id":"91663321-7cd1-4868-9393-47c7db147a4d","system_id":"levelo_inurba_marseille","lat":43.29003,"lon":5.35616,"is_reserved":false,"is_disabled":false,"rental_uris":{"android":"levelo://app?vid=91663321-7cd1-4868-9393-47c7db147a4d","ios":"levelo://app?vid=91663321-7cd1-4868-9393-47c7db147a4d"},"vehicle_type_id":"4","last_reported":1727961461,"current_range_meters":12400,"station_id":"ce4bhb92rcd13ifvqen0","pricing_plan_id":"cebpf4jnsgd1na2vs0mg"},{"bike_id":"3ed5f8ac-7b6a-4b36-ab19-9157a39aefe0","system_id":"levelo_inurba_marseille","lat":43.29574,"lon":5.37522,"is_reserved":false,"is_disabled":false,"rental_uris":{"android":"levelo://app?vid=3ed5f8ac-7b6a-4b36-ab19-9157a39aefe0","ios":"levelo://app?vid=3ed5f8ac-7b6a-4b36-ab19-9157a39aefe0"},"vehicle_type_id":"4","last_reported":1727961461,"current_range_meters":7200,"station_id":"ce4bgh92rcd13ifvqb50","pricing_plan_id":"cebpf4jnsgd1na2vs0mg"},{"bike_id":"7a96a6d8-40ca-4598-892a-a963eca3917f","system_id":"levelo_inurba_marseille","lat":43.29188,"lon":5.39306,"is_reserved":false,"is_disabled":false,"rental_uris":{"android":"levelo://app?vid=7a96a6d8-40ca-4598-892a-a963eca3917f","ios":"levelo://app?vid=7a96a6d8-40ca-4598-892a-a963eca3917f"},"vehicle_type_id":"4","last_reported":1727961461,"current_range_meters":27200,"station_id":"ce4bh192rcd13ifvqdd0","pricing_plan_id":"cebpf4jnsgd1na2vs0mg"},{"bike_id":"e7827799-280d-4f23-9918-c2c728dc54e0","system_id":"levelo_inurba_marseille","lat":43.24078,"lon":5.37756,"is_reserved":false,"is_disabled":false,"rental_uris":{"android":"levelo://app?vid=e7827799-280d-4f23-9918-c2c728dc54e0","ios":"levelo://app?vid=e7827799-280d-4f23-9918-c2c728dc54e0"},"vehicle_type_id":"4","last_reported":1727961461,"current_range_meters":30000,"station_id":"ce4bhnp2rcd13ifvqgvg","pricing_plan_id":"cebpf4jnsgd1na2vs0mg"},{"bike_id":"4e256eeb-30cc-4407-99d4-b14c54352d07","system_id":"levelo_inurba_marseille","lat":43.2743,"lon":5.39412,"is_reserved":false,"is_disabled":false,"rental_uris":{"android":"levelo://app?vid=4e256eeb-30cc-4407-99d4-b14c54352d07","ios":"levelo://app?vid=4e256eeb-30cc-4407-99d4-b14c54352d07"},"vehicle_type_id":"4","last_reported":1727961461,"current_range_meters":3200,"station_id":"ce4bhdp2rcd13ifvqf20","pricing_plan_id":"cebpf4jnsgd1na2vs0mg"},{"bike_id":"a4b6e82a-9982-47c0-80bb-09de1a813ec4","system_id":"levelo_inurba_marseille","lat":43.29979,"lon":5.38483,"is_reserved":false,"is_disabled":false,"rental_uris":{"android":"levelo://app?vid=a4b6e82a-9982-47c0-80bb-09de1a813ec4","ios":"levelo://app?vid=a4b6e82a-9982-47c0-80bb-09de1a813ec4"},"vehicle_type_id":"4","last_reported":1727961461,"current_range_meters":38800,"station_id":"ce4bgj92rcd13ifvqbd0","pricing_plan_id":"cebpf4jnsgd1na2vs0mg"},{"bike_id":"57c70b37-5907-4ddb-8187-528c392943d9","system_id":"levelo_inurba_marseille","lat":43.2657,"lon":5.3901,"is_reserved":false,"is_disabled":false,"rental_uris":{"android":"levelo://app?vid=57c70b37-5907-4ddb-8187-528c392943d9","ios":"levelo://app?vid=57c70b37-5907-4ddb-8187-528c392943d9"},"vehicle_type_id":"4","last_reported":1727961461,"current_range_meters":14800,"station_id":"ce4bhe12rcd13ifvqf30","pricing_plan_id":"cebpf4jnsgd1na2vs0mg"},{"bike_id":"4a747835-d704-49de-b6c2-9706bbeb173f","system_id":"levelo_inurba_marseille","lat":43.246735,"lon":5.381667,"is_reserved":false,"is_disabled":false,"rental_uris":{"android":"levelo://app?vid=4a747835-d704-49de-b6c2-9706bbeb173f","ios":"levelo://app?vid=4a747835-d704-49de-b6c2-9706bbeb173f"},"vehicle_type_id":"4","last_reported":1727961461,"current_range_meters":22800,"station_id":"ce4bhih2rcd13ifvqfr0","pricing_plan_id":"cebpf4jnsgd1na2vs0mg"},{"bike_id":"8b3c50f3-8b90-4fdf-925b-419cef19e8bf","system_id":"levelo_inurba_marseille","lat":43.27067,"lon":5.39799,"is_reserved":false,"is_disabled":false,"rental_uris":{"android":"levelo://app?vid=8b3c50f3-8b90-4fdf-925b-419cef19e8bf","ios":"levelo://app?vid=8b3c50f3-8b90-4fdf-925b-419cef19e8bf"},"vehicle_type_id":"4","last_reported":1727961461,"current_range_meters":10800,"station_id":"cjm6bp8fraef2m0cb0m0","pricing_plan_id":"cebpf4jnsgd1na2vs0mg"},{"bike_id":"19b28b1f-edc6-4636-8008-567154589778","system_id":"levelo_inurba_marseille","lat":43.29166,"lon":5.3716,"is_reserved":false,"is_disabled":false,"rental_uris":{"android":"levelo://app?vid=19b28b1f-edc6-4636-8008-567154589778","ios":"levelo://app?vid=19b28b1f-edc6-4636-8008-567154589778"},"vehicle_type_id":"4","last_reported":1727961461,"current_range_meters":7200,"station_id":"ce4bha92rcd13ifvqeh0","pricing_plan_id":"cebpf4jnsgd1na2vs0mg"},{"bike_id":"de302269-fdda-4ef3-9935-87f4834e17d5","system_id":"levelo_inurba_marseille","lat":43.25932,"lon":5.40908,"is_reserved":false,"is_disabled":false,"rental_uris":{"android":"levelo://app?vid=de302269-fdda-4ef3-9935-87f4834e17d5","ios":"levelo://app?vid=de302269-fdda-4ef3-9935-87f4834e17d5"},"vehicle_type_id":"4","last_reported":1727961461,"current_range_meters":9200,"station_id":"ce4bhm92rcd13ifvqglg","pricing_plan_id":"cebpf4jnsgd1na2vs0mg"},{"bike_id":"cc330ff8-0b34-4768-9586-5006e70906ab","system_id":"levelo_inurba_marseille","lat":43.30133,"lon":5.39856,"is_reserved":false,"is_disabled":false,"rental_uris":{"android":"levelo://app?vid=cc330ff8-0b34-4768-9586-5006e70906ab","ios":"levelo://app?vid=cc330ff8-0b34-4768-9586-5006e70906ab"},"vehicle_type_id":"4","last_reported":1727961461,"current_range_meters":38800,"station_id":"ce4bh0h2rcd13ifvqd40","pricing_plan_id":"cebpf4jnsgd1na2vs0mg"},{"bike_id":"e29eec06-ee2f-4e4a-8ccc-0c6727773c98","system_id":"levelo_inurba_marseille","lat":43.3206,"lon":5.41537,"is_reserved":false,"is_disabled":false,"rental_uris":{"android":"levelo://app?vid=e29eec06-ee2f-4e4a-8ccc-0c6727773c98","ios":"levelo://app?vid=e29eec06-ee2f-4e4a-8ccc-0c6727773c98"},"vehicle_type_id":"4","last_reported":1727961461,"current_range_meters":16800,"station_id":"ce4bhq92rcd13ifvqhkg","pricing_plan_id":"cebpf4jnsgd1na2vs0mg"},{"bike_id":"0f53c290-ccde-436e-93da-5e6799c490b6","system_id":"levelo_inurba_marseille","lat":43.31756,"lon":5.39011,"is_reserved":false,"is_disabled":false,"rental_uris":{"android":"levelo://app?vid=0f53c290-ccde-436e-93da-5e6799c490b6","ios":"levelo://app?vid=0f53c290-ccde-436e-93da-5e6799c490b6"},"vehicle_type_id":"4","last_reported":1727961461,"current_range_meters":17600,"station_id":"ce4bhqp2rcd13ifvqhng","pricing_plan_id":"cebpf4jnsgd1na2vs0mg"},{"bike_id":"086469e0-3a4c-449b-823f-3ab025193336","system_id":"levelo_inurba_marseille","lat":43.30148,"lon":5.38099,"is_reserved":false,"is_disabled":false,"rental_uris":{"android":"levelo://app?vid=086469e0-3a4c-449b-823f-3ab025193336","ios":"levelo://app?vid=086469e0-3a4c-449b-823f-3ab025193336"},"vehicle_type_id":"4","last_reported":1727961461,"current_range_meters":27600,"station_id":"ce4bgjp2rcd13ifvqbh0","pricing_plan_id":"cebpf4jnsgd1na2vs0mg"},{"bike_id":"cad59c35-b24f-4e6c-9a13-d33989c2055e","system_id":"levelo_inurba_marseille","lat":43.33022,"lon":5.39037,"is_reserved":false,"is_disabled":false,"rental_uris":{"android":"levelo://app?vid=cad59c35-b24f-4e6c-9a13-d33989c2055e","ios":"levelo://app?vid=cad59c35-b24f-4e6c-9a13-d33989c2055e"},"vehicle_type_id":"4","last_reported":1727961461,"current_range_meters":36800,"station_id":"ce4bhr92rcd13ifvqhrg","pricing_plan_id":"cebpf4jnsgd1na2vs0mg"},{"bike_id":"2b58fe52-cecf-4d77-847f-b40d2ae6cb7d","system_id":"levelo_inurba_marseille","lat":43.31339,"lon":5.36723,"is_reserved":false,"is_disabled":false,"rental_uris":{"android":"levelo://app?vid=2b58fe52-cecf-4d77-847f-b40d2ae6cb7d","ios":"levelo://app?vid=2b58fe52-cecf-4d77-847f-b40d2ae6cb7d"},"vehicle_type_id":"4","last_reported":1727961461,"current_range_meters":4400,"station_id":"ce4bgr92rcd13ifvqc6g","pricing_plan_id":"cebpf4jnsgd1na2vs0mg"},{"bike_id":"c2f5f578-a20b-4f47-bf3f-1ad5b785aa5b","system_id":"levelo_inurba_marseille","lat":43.2315,"lon":5.43722,"is_reserved":false,"is_disabled":false,"rental_uris":{"android":"levelo://app?vid=c2f5f578-a20b-4f47-bf3f-1ad5b785aa5b","ios":"levelo://app?vid=c2f5f578-a20b-4f47-bf3f-1ad5b785aa5b"},"vehicle_type_id":"4","last_reported":1727961461,"current_range_meters":13600,"station_id":"ce4bhmp2rcd13ifvqgog","pricing_plan_id":"cebpf4jnsgd1na2vs0mg"},{"bike_id":"efcf964a-28ef-4eae-9342-3b86cfe57d18","system_id":"levelo_inurba_marseille","lat":43.31226,"lon":5.36857,"is_reserved":false,"is_disabled":false,"rental_uris":{"android":"levelo://app?vid=efcf964a-28ef-4eae-9342-3b86cfe57d18","ios":"levelo://app?vid=efcf964a-28ef-4eae-9342-3b86cfe57d18"},"vehicle_type_id":"4","last_reported":1727961461,"current_range_meters":36000,"station_id":"ce4bgl92rcd13ifvqbq0","pricing_plan_id":"cebpf4jnsgd1na2vs0mg"},{"bike_id":"7e0117ef-79ea-4625-96fd-07e97e0d433b","system_id":"levelo_inurba_marseille","lat":43.30937,"lon":5.40139,"is_reserved":false,"is_disabled":false,"rental_uris":{"android":"levelo://app?vid=7e0117ef-79ea-4625-96fd-07e97e0d433b","ios":"levelo://app?vid=7e0117ef-79ea-4625-96fd-07e97e0d433b"},"vehicle_type_id":"4","last_reported":1727961461,"current_range_meters":8800,"station_id":"ce4bgvp2rcd13ifvqct0","pricing_plan_id":"cebpf4jnsgd1na2vs0mg"},{"bike_id":"901ac55a-b0b5-4f92-8129-efc416658b03","system_id":"levelo_inurba_marseille","lat":43.27623,"lon":5.360965,"is_reserved":false,"is_disabled":false,"rental_uris":{"android":"levelo://app?vid=901ac55a-b0b5-4f92-8129-efc416658b03","ios":"levelo://app?vid=901ac55a-b0b5-4f92-8129-efc416658b03"},"vehicle_type_id":"4","last_reported":1727961461,"current_range_meters":38800,"station_id":"ce4bgj92rcd13ifvqbe0","pricing_plan_id":"cebpf4jnsgd1na2vs0mg"},{"bike_id":"137d56b1-cdc7-4f99-ba23-c424b109461a","system_id":"levelo_inurba_marseille","lat":43.30137,"lon":5.3742,"is_reserved":false,"is_disabled":false,"rental_uris":{"android":"levelo://app?vid=137d56b1-cdc7-4f99-ba23-c424b109461a","ios":"levelo://app?vid=137d56b1-cdc7-4f99-ba23-c424b109461a"},"vehicle_type_id":"4","last_reported":1727961461,"current_range_meters":21600,"station_id":"ce4bgs92rcd13ifvqcc0","pricing_plan_id":"cebpf4jnsgd1na2vs0mg"},{"bike_id":"0b686d92-003d-4166-a098-b9dcbae963c7","system_id":"levelo_inurba_marseille","lat":43.270691,"lon":5.422843,"is_reserved":false,"is_disabled":false,"rental_uris":{"android":"levelo://app?vid=0b686d92-003d-4166-a098-b9dcbae963c7","ios":"levelo://app?vid=0b686d92-003d-4166-a098-b9dcbae963c7"},"vehicle_type_id":"4","last_reported":1727961461,"current_range_meters":16800,"station_id":"ce4bhk92rcd13ifvqgb0","pricing_plan_id":"cebpf4jnsgd1na2vs0mg"},{"bike_id":"d45e2ce7-bfdb-4de5-9b5c-e84bf817b59c","system_id":"levelo_inurba_marseille","lat":43.29279,"lon":5.36851,"is_reserved":false,"is_disabled":false,"rental_uris":{"android":"levelo://app?vid=d45e2ce7-bfdb-4de5-9b5c-e84bf817b59c","ios":"levelo://app?vid=d45e2ce7-bfdb-4de5-9b5c-e84bf817b59c"},"vehicle_type_id":"4","last_reported":1727961461,"current_range_meters":33600,"station_id":"ce4bhbp2rcd13ifvqesg","pricing_plan_id":"cebpf4jnsgd1na2vs0mg"},{"bike_id":"3c42433a-9cfc-4332-942d-3511a8fa84d1","system_id":"levelo_inurba_marseille","lat":43.29529,"lon":5.3854,"is_reserved":false,"is_disabled":false,"rental_uris":{"android":"levelo://app?vid=3c42433a-9cfc-4332-942d-3511a8fa84d1","ios":"levelo://app?vid=3c42433a-9cfc-4332-942d-3511a8fa84d1"},"vehicle_type_id":"4","last_reported":1727961461,"current_range_meters":30800,"station_id":"ce4bgih2rcd13ifvqba0","pricing_plan_id":"cebpf4jnsgd1na2vs0mg"},{"bike_id":"f3d43b10-369f-430d-84d9-42299ff5dbe4","system_id":"levelo_inurba_marseille","lat":43.314737,"lon":5.373141,"is_reserved":false,"is_disabled":false,"rental_uris":{"android":"levelo://app?vid=f3d43b10-369f-430d-84d9-42299ff5dbe4","ios":"levelo://app?vid=f3d43b10-369f-430d-84d9-42299ff5dbe4"},"vehicle_type_id":"4","last_reported":1727961461,"current_range_meters":28800,"station_id":"ce4bgt12rcd13ifvqcd0","pricing_plan_id":"cebpf4jnsgd1na2vs0mg"},{"bike_id":"aea2a461-c96b-4733-a960-402c92ce7436","system_id":"levelo_inurba_marseille","lat":43.30458,"lon":5.37904,"is_reserved":false,"is_disabled":false,"rental_uris":{"android":"levelo://app?vid=aea2a461-c96b-4733-a960-402c92ce7436","ios":"levelo://app?vid=aea2a461-c96b-4733-a960-402c92ce7436"},"vehicle_type_id":"4","last_reported":1727961461,"current_range_meters":35200,"station_id":"ce4bgup2rcd13ifvqcn0","pricing_plan_id":"cebpf4jnsgd1na2vs0mg"},{"bike_id":"8be05048-e3d9-495f-b256-5843a165f0a1","system_id":"levelo_inurba_marseille","lat":43.31364,"lon":5.38492,"is_reserved":false,"is_disabled":false,"rental_uris":{"android":"levelo://app?vid=8be05048-e3d9-495f-b256-5843a165f0a1","ios":"levelo://app?vid=8be05048-e3d9-495f-b256-5843a165f0a1"},"vehicle_type_id":"4","last_reported":1727961461,"current_range_meters":3200,"station_id":"ce4bgt92rcd13ifvqcf0","pricing_plan_id":"cebpf4jnsgd1na2vs0mg"},{"bike_id":"dfcabb21-11fe-4910-9030-0b21cea77b26","system_id":"levelo_inurba_marseille","lat":43.2998,"lon":5.38491,"is_reserved":false,"is_disabled":false,"rental_uris":{"android":"levelo://app?vid=dfcabb21-11fe-4910-9030-0b21cea77b26","ios":"levelo://app?vid=dfcabb21-11fe-4910-9030-0b21cea77b26"},"vehicle_type_id":"4","last_reported":1727961461,"current_range_meters":36800,"station_id":"ce4bgj92rcd13ifvqbd0","pricing_plan_id":"cebpf4jnsgd1na2vs0mg"},{"bike_id":"3137bcb0-acbd-40ab-b5a6-e4658f0b9dc7","system_id":"levelo_inurba_marseille","lat":43.281,"lon":5.37851,"is_reserved":false,"is_disabled":false,"rental_uris":{"android":"levelo://app?vid=3137bcb0-acbd-40ab-b5a6-e4658f0b9dc7","ios":"levelo://app?vid=3137bcb0-acbd-40ab-b5a6-e4658f0b9dc7"},"vehicle_type_id":"4","last_reported":1727961461,"current_range_meters":9600,"station_id":"ce4bha12rcd13ifvqee0","pricing_plan_id":"cebpf4jnsgd1na2vs0mg"},{"bike_id":"0d6fffa1-18d6-4860-8a68-37182a84e29b","system_id":"levelo_inurba_marseille","lat":43.305908,"lon":5.393589,"is_reserved":false,"is_disabled":false,"rental_uris":{"android":"levelo://app?vid=0d6fffa1-18d6-4860-8a68-37182a84e29b","ios":"levelo://app?vid=0d6fffa1-18d6-4860-8a68-37182a84e29b"},"vehicle_type_id":"4","last_reported":1727961461,"current_range_meters":35600,"station_id":"","pricing_plan_id":"cebpf4jnsgd1na2vs0mg"},{"bike_id":"f9d70636-cbf5-4b6c-943e-9f457732f566","system_id":"levelo_inurba_marseille","lat":43.29904,"lon":5.37468,"is_reserved":false,"is_disabled":false,"rental_uris":{"android":"levelo://app?vid=f9d70636-cbf5-4b6c-943e-9f457732f566","ios":"levelo://app?vid=f9d70636-cbf5-4b6c-943e-9f457732f566"},"vehicle_type_id":"4","last_reported":1727961461,"current_range_meters":24800,"station_id":"ce4bgjh2rcd13ifvqbg0","pricing_plan_id":"cebpf4jnsgd1na2vs0mg"},{"bike_id":"53c6fe7a-c5f0-4c29-bdb6-08c6c7db5c71","system_id":"levelo_inurba_marseille","lat":43.3211,"lon":5.36777,"is_reserved":false,"is_disabled":false,"rental_uris":{"android":"levelo://app?vid=53c6fe7a-c5f0-4c29-bdb6-08c6c7db5c71","ios":"levelo://app?vid=53c6fe7a-c5f0-4c29-bdb6-08c6c7db5c71"},"vehicle_type_id":"4","last_reported":1727961461,"current_range_meters":9600,"station_id":"ce4bhrh2rcd13ifvqhug","pricing_plan_id":"cebpf4jnsgd1na2vs0mg"},{"bike_id":"ebc0c02c-38ba-42ff-8441-d12aa14ad935","system_id":"levelo_inurba_marseille","lat":43.30288,"lon":5.37708,"is_reserved":false,"is_disabled":false,"rental_uris":{"android":"levelo://app?vid=ebc0c02c-38ba-42ff-8441-d12aa14ad935","ios":"levelo://app?vid=ebc0c02c-38ba-42ff-8441-d12aa14ad935"},"vehicle_type_id":"4","last_reported":1727961461,"current_range_meters":38800,"station_id":"ce4bguh2rcd13ifvqcj0","pricing_plan_id":"cebpf4jnsgd1na2vs0mg"},{"bike_id":"6ce60676-3f86-4aaa-a5df-572436c32ad4","system_id":"levelo_inurba_marseille","lat":43.23191,"lon":5.35546,"is_reserved":false,"is_disabled":false,"rental_uris":{"android":"levelo://app?vid=6ce60676-3f86-4aaa-a5df-572436c32ad4","ios":"levelo://app?vid=6ce60676-3f86-4aaa-a5df-572436c32ad4"},"vehicle_type_id":"4","last_reported":1727961461,"current_range_meters":19600,"station_id":"ce4bhu92rcd13ifvqi70","pricing_plan_id":"cebpf4jnsgd1na2vs0mg"},{"bike_id":"db529dbd-a157-4db6-ab56-5a5e47145cac","system_id":"levelo_inurba_marseille","lat":43.25502,"lon":5.37646,"is_reserved":false,"is_disabled":false,"rental_uris":{"android":"levelo://app?vid=db529dbd-a157-4db6-ab56-5a5e47145cac","ios":"levelo://app?vid=db529dbd-a157-4db6-ab56-5a5e47145cac"},"vehicle_type_id":"4","last_reported":1727961461,"current_range_meters":39200,"station_id":"ce4bhh12rcd13ifvqff0","pricing_plan_id":"cebpf4jnsgd1na2vs0mg"},{"bike_id":"dee6229e-26d0-4d7e-9236-92ea7c2f2755","system_id":"levelo_inurba_marseille","lat":43.29624,"lon":5.37152,"is_reserved":false,"is_disabled":false,"rental_uris":{"android":"levelo://app?vid=dee6229e-26d0-4d7e-9236-92ea7c2f2755","ios":"levelo://app?vid=dee6229e-26d0-4d7e-9236-92ea7c2f2755"},"vehicle_type_id":"4","last_reported":1727961461,"current_range_meters":38800,"station_id":"ce4bgnh2rcd13ifvqc0g","pricing_plan_id":"cebpf4jnsgd1na2vs0mg"},{"bike_id":"cbda46fb-babe-4bd4-814c-9052243ac18a","system_id":"levelo_inurba_marseille","lat":43.31995,"lon":5.38164,"is_reserved":false,"is_disabled":false,"rental_uris":{"android":"levelo://app?vid=cbda46fb-babe-4bd4-814c-9052243ac18a","ios":"levelo://app?vid=cbda46fb-babe-4bd4-814c-9052243ac18a"},"vehicle_type_id":"4","last_reported":1727961461,"current_range_meters":24000,"station_id":"ce4bhr12rcd13ifvqhpg","pricing_plan_id":"cebpf4jnsgd1na2vs0mg"},{"bike_id":"116bf9ce-a48c-4b0c-9e08-1cfcbf29e8b4","system_id":"levelo_inurba_marseille","lat":43.25872,"lon":5.39894,"is_reserved":false,"is_disabled":false,"rental_uris":{"android":"levelo://app?vid=116bf9ce-a48c-4b0c-9e08-1cfcbf29e8b4","ios":"levelo://app?vid=116bf9ce-a48c-4b0c-9e08-1cfcbf29e8b4"},"vehicle_type_id":"4","last_reported":1727961461,"current_range_meters":2000,"station_id":"ce4bhl92rcd13ifvqghg","pricing_plan_id":"cebpf4jnsgd1na2vs0mg"},{"bike_id":"c1ee04fe-b9d5-4b78-8f81-33bd158835b3","system_id":"levelo_inurba_marseille","lat":43.29811,"lon":5.38108,"is_reserved":false,"is_disabled":false,"rental_uris":{"android":"levelo://app?vid=c1ee04fe-b9d5-4b78-8f81-33bd158835b3","ios":"levelo://app?vid=c1ee04fe-b9d5-4b78-8f81-33bd158835b3"},"vehicle_type_id":"4","last_reported":1727961461,"current_range_meters":28400,"station_id":"ce4bgip2rcd13ifvqbb0","pricing_plan_id":"cebpf4jnsgd1na2vs0mg"},{"bike_id":"2bd41e8f-595a-48d8-87d1-c39e3b02765b","system_id":"levelo_inurba_marseille","lat":43.33758,"lon":5.37477,"is_reserved":false,"is_disabled":false,"rental_uris":{"android":"levelo://app?vid=2bd41e8f-595a-48d8-87d1-c39e3b02765b","ios":"levelo://app?vid=2bd41e8f-595a-48d8-87d1-c39e3b02765b"},"vehicle_type_id":"4","last_reported":1727961461,"current_range_meters":35600,"station_id":"","pricing_plan_id":"cebpf4jnsgd1na2vs0mg"},{"bike_id":"e9ceba96-efa6-4a0c-a2ff-94f627a909d5","system_id":"levelo_inurba_marseille","lat":43.29276,"lon":5.3684,"is_reserved":false,"is_disabled":false,"rental_uris":{"android":"levelo://app?vid=e9ceba96-efa6-4a0c-a2ff-94f627a909d5","ios":"levelo://app?vid=e9ceba96-efa6-4a0c-a2ff-94f627a909d5"},"vehicle_type_id":"4","last_reported":1727961461,"current_range_meters":18800,"station_id":"ce4bhbp2rcd13ifvqesg","pricing_plan_id":"cebpf4jnsgd1na2vs0mg"},{"bike_id":"4056ecda-0872-4bc9-b476-8b10a85ef96e","system_id":"levelo_inurba_marseille","lat":43.28268,"lon":5.35061,"is_reserved":false,"is_disabled":false,"rental_uris":{"android":"levelo://app?vid=4056ecda-0872-4bc9-b476-8b10a85ef96e","ios":"levelo://app?vid=4056ecda-0872-4bc9-b476-8b10a85ef96e"},"vehicle_type_id":"4","last_reported":1727961461,"current_range_meters":8000,"station_id":"ce4bhbp2rcd13ifvqerg","pricing_plan_id":"cebpf4jnsgd1na2vs0mg"},{"bike_id":"ff23f5f0-f9af-4724-82e5-3f68d5b2dbaf","system_id":"levelo_inurba_marseille","lat":43.3046,"lon":5.379,"is_reserved":false,"is_disabled":false,"rental_uris":{"android":"levelo://app?vid=ff23f5f0-f9af-4724-82e5-3f68d5b2dbaf","ios":"levelo://app?vid=ff23f5f0-f9af-4724-82e5-3f68d5b2dbaf"},"vehicle_type_id":"4","last_reported":1727961461,"current_range_meters":16400,"station_id":"ce4bgup2rcd13ifvqcn0","pricing_plan_id":"cebpf4jnsgd1na2vs0mg"},{"bike_id":"7a7dee93-6c29-407e-bcf5-949befcd0be2","system_id":"levelo_inurba_marseille","lat":43.26959,"lon":5.3862,"is_reserved":false,"is_disabled":false,"rental_uris":{"android":"levelo://app?vid=7a7dee93-6c29-407e-bcf5-949befcd0be2","ios":"levelo://app?vid=7a7dee93-6c29-407e-bcf5-949befcd0be2"},"vehicle_type_id":"4","last_reported":1727961461,"current_range_meters":36800,"station_id":"ce4bhh92rcd13ifvqfh0","pricing_plan_id":"cebpf4jnsgd1na2vs0mg"},{"bike_id":"248ad5c6-7e0e-480d-a3cd-889c51a266b1","system_id":"levelo_inurba_marseille","lat":43.337444,"lon":5.374475,"is_reserved":false,"is_disabled":false,"rental_uris":{"android":"levelo://app?vid=248ad5c6-7e0e-480d-a3cd-889c51a266b1","ios":"levelo://app?vid=248ad5c6-7e0e-480d-a3cd-889c51a266b1"},"vehicle_type_id":"4","last_reported":1727961461,"current_range_meters":26000,"station_id":"","pricing_plan_id":"cebpf4jnsgd1na2vs0mg"},{"bike_id":"97da7c7f-f10d-4cb7-8679-6296d5c83e95","system_id":"levelo_inurba_marseille","lat":43.32537,"lon":5.4144,"is_reserved":false,"is_disabled":false,"rental_uris":{"android":"levelo://app?vid=97da7c7f-f10d-4cb7-8679-6296d5c83e95","ios":"levelo://app?vid=97da7c7f-f10d-4cb7-8679-6296d5c83e95"},"vehicle_type_id":"4","last_reported":1727961461,"current_range_meters":26000,"station_id":"ce4bhq12rcd13ifvqhhg","pricing_plan_id":"cebpf4jnsgd1na2vs0mg"},{"bike_id":"713b8eaa-6753-4deb-8123-31fef052d3de","system_id":"levelo_inurba_marseille","lat":43.26574,"lon":5.39009,"is_reserved":false,"is_disabled":false,"rental_uris":{"android":"levelo://app?vid=713b8eaa-6753-4deb-8123-31fef052d3de","ios":"levelo://app?vid=713b8eaa-6753-4deb-8123-31fef052d3de"},"vehicle_type_id":"4","last_reported":1727961461,"current_range_meters":27600,"station_id":"ce4bhe12rcd13ifvqf30","pricing_plan_id":"cebpf4jnsgd1na2vs0mg"},{"bike_id":"02c0373a-eaa5-4fcb-a227-4fe175d7f485","system_id":"levelo_inurba_marseille","lat":43.29801,"lon":5.40403,"is_reserved":false,"is_disabled":false,"rental_uris":{"android":"levelo://app?vid=02c0373a-eaa5-4fcb-a227-4fe175d7f485","ios":"levelo://app?vid=02c0373a-eaa5-4fcb-a227-4fe175d7f485"},"vehicle_type_id":"4","last_reported":1727961461,"current_range_meters":25200,"station_id":"ce4bh112rcd13ifvqd90","pricing_plan_id":"cebpf4jnsgd1na2vs0mg"},{"bike_id":"b101aa68-0be1-4fa3-8d66-644e2e205781","system_id":"levelo_inurba_marseille","lat":43.26214,"lon":5.37442,"is_reserved":false,"is_disabled":false,"rental_uris":{"android":"levelo://app?vid=b101aa68-0be1-4fa3-8d66-644e2e205781","ios":"levelo://app?vid=b101aa68-0be1-4fa3-8d66-644e2e205781"},"vehicle_type_id":"4","last_reported":1727961461,"current_range_meters":6800,"station_id":"ce4bhgp2rcd13ifvqfc0","pricing_plan_id":"cebpf4jnsgd1na2vs0mg"},{"bike_id":"0066c6b0-1057-4400-85b9-4677ce2f8905","system_id":"levelo_inurba_marseille","lat":43.29842,"lon":5.36261,"is_reserved":false,"is_disabled":false,"rental_uris":{"android":"levelo://app?vid=0066c6b0-1057-4400-85b9-4677ce2f8905","ios":"levelo://app?vid=0066c6b0-1057-4400-85b9-4677ce2f8905"},"vehicle_type_id":"4","last_reported":1727961461,"current_range_meters":16400,"station_id":"ce4bgpp2rcd13ifvqc3g","pricing_plan_id":"cebpf4jnsgd1na2vs0mg"},{"bike_id":"abfa74ce-ac56-4bd7-af8d-9fbafd2dc3d5","system_id":"levelo_inurba_marseille","lat":43.239624,"lon":5.36636,"is_reserved":false,"is_disabled":false,"rental_uris":{"android":"levelo://app?vid=abfa74ce-ac56-4bd7-af8d-9fbafd2dc3d5","ios":"levelo://app?vid=abfa74ce-ac56-4bd7-af8d-9fbafd2dc3d5"},"vehicle_type_id":"4","last_reported":1727961461,"current_range_meters":38800,"station_id":"ce4bhi12rcd13ifvqfp0","pricing_plan_id":"cebpf4jnsgd1na2vs0mg"},{"bike_id":"e85a3ddb-58f6-4dca-a921-74684e685e01","system_id":"levelo_inurba_marseille","lat":43.29278,"lon":5.36849,"is_reserved":false,"is_disabled":false,"rental_uris":{"android":"levelo://app?vid=e85a3ddb-58f6-4dca-a921-74684e685e01","ios":"levelo://app?vid=e85a3ddb-58f6-4dca-a921-74684e685e01"},"vehicle_type_id":"4","last_reported":1727961461,"current_range_meters":6000,"station_id":"ce4bhbp2rcd13ifvqesg","pricing_plan_id":"cebpf4jnsgd1na2vs0mg"},{"bike_id":"5ee7ca17-4ed3-4361-90e4-eb798bc2d571","system_id":"levelo_inurba_marseille","lat":43.29598,"lon":5.3811,"is_reserved":false,"is_disabled":false,"rental_uris":{"android":"levelo://app?vid=5ee7ca17-4ed3-4361-90e4-eb798bc2d571","ios":"levelo://app?vid=5ee7ca17-4ed3-4361-90e4-eb798bc2d571"},"vehicle_type_id":"4","last_reported":1727961461,"current_range_meters":14800,"station_id":"ce4bgl12rcd13ifvqbo0","pricing_plan_id":"cebpf4jnsgd1na2vs0mg"},{"bike_id":"e6324d82-a00d-4ac7-b4d3-567315cd04e5","system_id":"levelo_inurba_marseille","lat":43.24982,"lon":5.38807,"is_reserved":false,"is_disabled":false,"rental_uris":{"android":"levelo://app?vid=e6324d82-a00d-4ac7-b4d3-567315cd04e5","ios":"levelo://app?vid=e6324d82-a00d-4ac7-b4d3-567315cd04e5"},"vehicle_type_id":"4","last_reported":1727961461,"current_range_meters":25600,"station_id":"","pricing_plan_id":"cebpf4jnsgd1na2vs0mg"},{"bike_id":"6c5a26eb-ee07-4d34-9b92-1ad63d0731a1","system_id":"levelo_inurba_marseille","lat":43.302868,"lon":5.37694,"is_reserved":false,"is_disabled":false,"rental_uris":{"android":"levelo://app?vid=6c5a26eb-ee07-4d34-9b92-1ad63d0731a1","ios":"levelo://app?vid=6c5a26eb-ee07-4d34-9b92-1ad63d0731a1"},"vehicle_type_id":"4","last_reported":1727961461,"current_range_meters":34800,"station_id":"ce4bguh2rcd13ifvqcj0","pricing_plan_id":"cebpf4jnsgd1na2vs0mg"},{"bike_id":"7b2c7c50-c95e-4812-bfbc-36c6ac4ed1e8","system_id":"levelo_inurba_marseille","lat":43.2762,"lon":5.36107,"is_reserved":false,"is_disabled":false,"rental_uris":{"android":"levelo://app?vid=7b2c7c50-c95e-4812-bfbc-36c6ac4ed1e8","ios":"levelo://app?vid=7b2c7c50-c95e-4812-bfbc-36c6ac4ed1e8"},"vehicle_type_id":"4","last_reported":1727961461,"current_range_meters":20400,"station_id":"ce4bgj92rcd13ifvqbe0","pricing_plan_id":"cebpf4jnsgd1na2vs0mg"},{"bike_id":"ed182f46-8ba0-4418-b11f-188c4f703938","system_id":"levelo_inurba_marseille","lat":43.28721,"lon":5.37947,"is_reserved":false,"is_disabled":false,"rental_uris":{"android":"levelo://app?vid=ed182f46-8ba0-4418-b11f-188c4f703938","ios":"levelo://app?vid=ed182f46-8ba0-4418-b11f-188c4f703938"},"vehicle_type_id":"4","last_reported":1727961461,"current_range_meters":24800,"station_id":"ce4bh9p2rcd13ifvqec0","pricing_plan_id":"cebpf4jnsgd1na2vs0mg"},{"bike_id":"c8e4ff73-620c-4248-92f7-758d5098242c","system_id":"levelo_inurba_marseille","lat":43.22928,"lon":5.35376,"is_reserved":false,"is_disabled":false,"rental_uris":{"android":"levelo://app?vid=c8e4ff73-620c-4248-92f7-758d5098242c","ios":"levelo://app?vid=c8e4ff73-620c-4248-92f7-758d5098242c"},"vehicle_type_id":"4","last_reported":1727961461,"current_range_meters":27600,"station_id":"cpo3532slgdg3j2ikp40","pricing_plan_id":"cebpf4jnsgd1na2vs0mg"},{"bike_id":"da902bad-86bb-4239-9b68-6f5a7a44ed03","system_id":"levelo_inurba_marseille","lat":43.28615,"lon":5.35104,"is_reserved":false,"is_disabled":false,"rental_uris":{"android":"levelo://app?vid=da902bad-86bb-4239-9b68-6f5a7a44ed03","ios":"levelo://app?vid=da902bad-86bb-4239-9b68-6f5a7a44ed03"},"vehicle_type_id":"4","last_reported":1727961461,"current_range_meters":22000,"station_id":"ce4bhch2rcd13ifvqeug","pricing_plan_id":"cebpf4jnsgd1na2vs0mg"},{"bike_id":"f482c2cf-ba02-4c58-a5f7-4a140a15281f","system_id":"levelo_inurba_marseille","lat":43.31712,"lon":5.37743,"is_reserved":false,"is_disabled":false,"rental_uris":{"android":"levelo://app?vid=f482c2cf-ba02-4c58-a5f7-4a140a15281f","ios":"levelo://app?vid=f482c2cf-ba02-4c58-a5f7-4a140a15281f"},"vehicle_type_id":"4","last_reported":1727961461,"current_range_meters":28800,"station_id":"ce4bgth2rcd13ifvqch0","pricing_plan_id":"cebpf4jnsgd1na2vs0mg"},{"bike_id":"5fd74767-be89-4d70-934d-0d640f37cdd6","system_id":"levelo_inurba_marseille","lat":43.23148,"lon":5.43708,"is_reserved":false,"is_disabled":false,"rental_uris":{"android":"levelo://app?vid=5fd74767-be89-4d70-934d-0d640f37cdd6","ios":"levelo://app?vid=5fd74767-be89-4d70-934d-0d640f37cdd6"},"vehicle_type_id":"4","last_reported":1727961461,"current_range_meters":16800,"station_id":"ce4bhmp2rcd13ifvqgog","pricing_plan_id":"cebpf4jnsgd1na2vs0mg"},{"bike_id":"eea02000-c069-4533-af9e-a32a1e59b69d","system_id":"levelo_inurba_marseille","lat":43.26955,"lon":5.38645,"is_reserved":false,"is_disabled":false,"rental_uris":{"android":"levelo://app?vid=eea02000-c069-4533-af9e-a32a1e59b69d","ios":"levelo://app?vid=eea02000-c069-4533-af9e-a32a1e59b69d"},"vehicle_type_id":"4","last_reported":1727961461,"current_range_meters":27200,"station_id":"ce4bhh92rcd13ifvqfh0","pricing_plan_id":"cebpf4jnsgd1na2vs0mg"},{"bike_id":"34d8fa81-94a5-49f7-98da-128d2edbe4c1","system_id":"levelo_inurba_marseille","lat":43.23203,"lon":5.35555,"is_reserved":false,"is_disabled":false,"rental_uris":{"android":"levelo://app?vid=34d8fa81-94a5-49f7-98da-128d2edbe4c1","ios":"levelo://app?vid=34d8fa81-94a5-49f7-98da-128d2edbe4c1"},"vehicle_type_id":"4","last_reported":1727961461,"current_range_meters":8000,"station_id":"ce4bhu92rcd13ifvqi70","pricing_plan_id":"cebpf4jnsgd1na2vs0mg"},{"bike_id":"72b74475-869f-4c63-88b1-f4fccea0ce5c","system_id":"levelo_inurba_marseille","lat":43.28672,"lon":5.38664,"is_reserved":false,"is_disabled":false,"rental_uris":{"android":"levelo://app?vid=72b74475-869f-4c63-88b1-f4fccea0ce5c","ios":"levelo://app?vid=72b74475-869f-4c63-88b1-f4fccea0ce5c"},"vehicle_type_id":"4","last_reported":1727961461,"current_range_meters":21600,"station_id":"ce4bh492rcd13ifvqdug","pricing_plan_id":"cebpf4jnsgd1na2vs0mg"},{"bike_id":"96e09bbf-80bf-4b4a-8c1c-bc174ee515fe","system_id":"levelo_inurba_marseille","lat":43.30465,"lon":5.37905,"is_reserved":false,"is_disabled":false,"rental_uris":{"android":"levelo://app?vid=96e09bbf-80bf-4b4a-8c1c-bc174ee515fe","ios":"levelo://app?vid=96e09bbf-80bf-4b4a-8c1c-bc174ee515fe"},"vehicle_type_id":"4","last_reported":1727961461,"current_range_meters":38800,"station_id":"ce4bgup2rcd13ifvqcn0","pricing_plan_id":"cebpf4jnsgd1na2vs0mg"},{"bike_id":"6760ec2b-cc3d-4b17-8c33-3b5a17607e89","system_id":"levelo_inurba_marseille","lat":43.24652,"lon":5.38891,"is_reserved":false,"is_disabled":false,"rental_uris":{"android":"levelo://app?vid=6760ec2b-cc3d-4b17-8c33-3b5a17607e89","ios":"levelo://app?vid=6760ec2b-cc3d-4b17-8c33-3b5a17607e89"},"vehicle_type_id":"4","last_reported":1727961461,"current_range_meters":12000,"station_id":"ce4bhg12rcd13ifvqf60","pricing_plan_id":"cebpf4jnsgd1na2vs0mg"},{"bike_id":"3a0fc9fd-e162-42e9-95a6-8d20c9272e90","system_id":"levelo_inurba_marseille","lat":43.30202,"lon":5.39464,"is_reserved":false,"is_disabled":false,"rental_uris":{"android":"levelo://app?vid=3a0fc9fd-e162-42e9-95a6-8d20c9272e90","ios":"levelo://app?vid=3a0fc9fd-e162-42e9-95a6-8d20c9272e90"},"vehicle_type_id":"4","last_reported":1727961461,"current_range_meters":16000,"station_id":"ce4bh0p2rcd13ifvqd70","pricing_plan_id":"cebpf4jnsgd1na2vs0mg"},{"bike_id":"82214cfe-0a99-47c3-b686-6c284473d810","system_id":"levelo_inurba_marseille","lat":43.24812,"lon":5.3746,"is_reserved":false,"is_disabled":false,"rental_uris":{"android":"levelo://app?vid=82214cfe-0a99-47c3-b686-6c284473d810","ios":"levelo://app?vid=82214cfe-0a99-47c3-b686-6c284473d810"},"vehicle_type_id":"4","last_reported":1727961461,"current_range_meters":36400,"station_id":"ce4bhgh2rcd13ifvqfb0","pricing_plan_id":"cebpf4jnsgd1na2vs0mg"},{"bike_id":"279deea5-d960-4cac-a348-cfd072a8fdd8","system_id":"levelo_inurba_marseille","lat":43.30906,"lon":5.36855,"is_reserved":false,"is_disabled":false,"rental_uris":{"android":"levelo://app?vid=279deea5-d960-4cac-a348-cfd072a8fdd8","ios":"levelo://app?vid=279deea5-d960-4cac-a348-cfd072a8fdd8"},"vehicle_type_id":"4","last_reported":1727961461,"current_range_meters":30400,"station_id":"ce4bgn92rcd13ifvqbvg","pricing_plan_id":"cebpf4jnsgd1na2vs0mg"},{"bike_id":"279905d2-31cb-4375-9057-1a2156283393","system_id":"levelo_inurba_marseille","lat":43.28413,"lon":5.34987,"is_reserved":false,"is_disabled":false,"rental_uris":{"android":"levelo://app?vid=279905d2-31cb-4375-9057-1a2156283393","ios":"levelo://app?vid=279905d2-31cb-4375-9057-1a2156283393"},"vehicle_type_id":"4","last_reported":1727961461,"current_range_meters":12400,"station_id":"ce4bhbh2rcd13ifvqepg","pricing_plan_id":"cebpf4jnsgd1na2vs0mg"},{"bike_id":"24b32eea-db62-45a7-9e27-e74c5ca892c1","system_id":"levelo_inurba_marseille","lat":43.301525,"lon":5.380874,"is_reserved":false,"is_disabled":false,"rental_uris":{"android":"levelo://app?vid=24b32eea-db62-45a7-9e27-e74c5ca892c1","ios":"levelo://app?vid=24b32eea-db62-45a7-9e27-e74c5ca892c1"},"vehicle_type_id":"4","last_reported":1727961461,"current_range_meters":38000,"station_id":"ce4bgph2rcd13ifvqc2g","pricing_plan_id":"cebpf4jnsgd1na2vs0mg"},{"bike_id":"75b6d23c-8e6a-4f18-bb07-ff063c93e683","system_id":"levelo_inurba_marseille","lat":43.30905,"lon":5.36841,"is_reserved":false,"is_disabled":false,"rental_uris":{"android":"levelo://app?vid=75b6d23c-8e6a-4f18-bb07-ff063c93e683","ios":"levelo://app?vid=75b6d23c-8e6a-4f18-bb07-ff063c93e683"},"vehicle_type_id":"4","last_reported":1727961461,"current_range_meters":38000,"station_id":"ce4bgn92rcd13ifvqbvg","pricing_plan_id":"cebpf4jnsgd1na2vs0mg"},{"bike_id":"e61056d1-9737-4365-a245-e089563da881","system_id":"levelo_inurba_marseille","lat":43.24669,"lon":5.38165,"is_reserved":false,"is_disabled":false,"rental_uris":{"android":"levelo://app?vid=e61056d1-9737-4365-a245-e089563da881","ios":"levelo://app?vid=e61056d1-9737-4365-a245-e089563da881"},"vehicle_type_id":"4","last_reported":1727961461,"current_range_meters":23200,"station_id":"ce4bhih2rcd13ifvqfr0","pricing_plan_id":"cebpf4jnsgd1na2vs0mg"},{"bike_id":"30e2f0ec-0394-406c-8829-fe660566e51a","system_id":"levelo_inurba_marseille","lat":43.27818,"lon":5.40715,"is_reserved":false,"is_disabled":false,"rental_uris":{"android":"levelo://app?vid=30e2f0ec-0394-406c-8829-fe660566e51a","ios":"levelo://app?vid=30e2f0ec-0394-406c-8829-fe660566e51a"},"vehicle_type_id":"4","last_reported":1727961461,"current_range_meters":6400,"station_id":"ce4bhnh2rcd13ifvqgtg","pricing_plan_id":"cebpf4jnsgd1na2vs0mg"},{"bike_id":"4a258a1c-e2e9-4984-a6e0-5a2d591e6aad","system_id":"levelo_inurba_marseille","lat":43.24662,"lon":5.38161,"is_reserved":false,"is_disabled":false,"rental_uris":{"android":"levelo://app?vid=4a258a1c-e2e9-4984-a6e0-5a2d591e6aad","ios":"levelo://app?vid=4a258a1c-e2e9-4984-a6e0-5a2d591e6aad"},"vehicle_type_id":"4","last_reported":1727961461,"current_range_meters":6800,"station_id":"ce4bhih2rcd13ifvqfr0","pricing_plan_id":"cebpf4jnsgd1na2vs0mg"},{"bike_id":"4f69c4e4-4aab-4ccb-88ff-64579ae1a72c","system_id":"levelo_inurba_marseille","lat":43.24178,"lon":5.39712,"is_reserved":false,"is_disabled":false,"rental_uris":{"android":"levelo://app?vid=4f69c4e4-4aab-4ccb-88ff-64579ae1a72c","ios":"levelo://app?vid=4f69c4e4-4aab-4ccb-88ff-64579ae1a72c"},"vehicle_type_id":"4","last_reported":1727961461,"current_range_meters":12400,"station_id":"ce4bhn12rcd13ifvqgpg","pricing_plan_id":"cebpf4jnsgd1na2vs0mg"},{"bike_id":"9fec9171-ecc3-4458-a490-f5c3b2300c5d","system_id":"levelo_inurba_marseille","lat":43.29248,"lon":5.40911,"is_reserved":false,"is_disabled":false,"rental_uris":{"android":"levelo://app?vid=9fec9171-ecc3-4458-a490-f5c3b2300c5d","ios":"levelo://app?vid=9fec9171-ecc3-4458-a490-f5c3b2300c5d"},"vehicle_type_id":"4","last_reported":1727961461,"current_range_meters":38800,"station_id":"ce4bh192rcd13ifvqdc0","pricing_plan_id":"cebpf4jnsgd1na2vs0mg"},{"bike_id":"e57821a2-1d03-437a-9585-d9dcc5eec488","system_id":"levelo_inurba_marseille","lat":43.24802,"lon":5.37456,"is_reserved":false,"is_disabled":false,"rental_uris":{"android":"levelo://app?vid=e57821a2-1d03-437a-9585-d9dcc5eec488","ios":"levelo://app?vid=e57821a2-1d03-437a-9585-d9dcc5eec488"},"vehicle_type_id":"4","last_reported":1727961461,"current_range_meters":14800,"station_id":"ce4bhgh2rcd13ifvqfb0","pricing_plan_id":"cebpf4jnsgd1na2vs0mg"},{"bike_id":"e690ed13-32d4-4cc3-821d-4783773c830f","system_id":"levelo_inurba_marseille","lat":43.299327,"lon":5.365353,"is_reserved":false,"is_disabled":false,"rental_uris":{"android":"levelo://app?vid=e690ed13-32d4-4cc3-821d-4783773c830f","ios":"levelo://app?vid=e690ed13-32d4-4cc3-821d-4783773c830f"},"vehicle_type_id":"4","last_reported":1727961461,"current_range_meters":20000,"station_id":"ce4bgm92rcd13ifvqbr0","pricing_plan_id":"cebpf4jnsgd1na2vs0mg"},{"bike_id":"23fcd5dc-52e3-40b6-b601-8da82c35b64a","system_id":"levelo_inurba_marseille","lat":43.23197,"lon":5.35547,"is_reserved":false,"is_disabled":false,"rental_uris":{"android":"levelo://app?vid=23fcd5dc-52e3-40b6-b601-8da82c35b64a","ios":"levelo://app?vid=23fcd5dc-52e3-40b6-b601-8da82c35b64a"},"vehicle_type_id":"4","last_reported":1727961461,"current_range_meters":37600,"station_id":"ce4bhu92rcd13ifvqi70","pricing_plan_id":"cebpf4jnsgd1na2vs0mg"},{"bike_id":"70d6fbef-4b74-4a7f-ba0f-213348f1f163","system_id":"levelo_inurba_marseille","lat":43.27681,"lon":5.3888,"is_reserved":false,"is_disabled":false,"rental_uris":{"android":"levelo://app?vid=70d6fbef-4b74-4a7f-ba0f-213348f1f163","ios":"levelo://app?vid=70d6fbef-4b74-4a7f-ba0f-213348f1f163"},"vehicle_type_id":"4","last_reported":1727961461,"current_range_meters":17200,"station_id":"ce4bhi12rcd13ifvqfo0","pricing_plan_id":"cebpf4jnsgd1na2vs0mg"},{"bike_id":"62f19d79-47dc-43fc-bb5c-5ca6716720e2","system_id":"levelo_inurba_marseille","lat":43.28723,"lon":5.37944,"is_reserved":false,"is_disabled":false,"rental_uris":{"android":"levelo://app?vid=62f19d79-47dc-43fc-bb5c-5ca6716720e2","ios":"levelo://app?vid=62f19d79-47dc-43fc-bb5c-5ca6716720e2"},"vehicle_type_id":"4","last_reported":1727961461,"current_range_meters":38000,"station_id":"ce4bh9p2rcd13ifvqec0","pricing_plan_id":"cebpf4jnsgd1na2vs0mg"},{"bike_id":"ed41c24c-b616-488e-9266-0dad2b13c574","system_id":"levelo_inurba_marseille","lat":43.28852,"lon":5.3932,"is_reserved":false,"is_disabled":false,"rental_uris":{"android":"levelo://app?vid=ed41c24c-b616-488e-9266-0dad2b13c574","ios":"levelo://app?vid=ed41c24c-b616-488e-9266-0dad2b13c574"},"vehicle_type_id":"4","last_reported":1727961461,"current_range_meters":16400,"station_id":"ce4bh2p2rcd13ifvqdi0","pricing_plan_id":"cebpf4jnsgd1na2vs0mg"},{"bike_id":"5c099b0d-a750-4b91-86e7-2abb5b1fed68","system_id":"levelo_inurba_marseille","lat":43.25945,"lon":5.40897,"is_reserved":false,"is_disabled":false,"rental_uris":{"android":"levelo://app?vid=5c099b0d-a750-4b91-86e7-2abb5b1fed68","ios":"levelo://app?vid=5c099b0d-a750-4b91-86e7-2abb5b1fed68"},"vehicle_type_id":"4","last_reported":1727961461,"current_range_meters":7200,"station_id":"ce4bhm92rcd13ifvqglg","pricing_plan_id":"cebpf4jnsgd1na2vs0mg"},{"bike_id":"4a3ae92b-5ed3-417e-bbd8-f22ddf4fa812","system_id":"levelo_inurba_marseille","lat":43.29421,"lon":5.38617,"is_reserved":false,"is_disabled":false,"rental_uris":{"android":"levelo://app?vid=4a3ae92b-5ed3-417e-bbd8-f22ddf4fa812","ios":"levelo://app?vid=4a3ae92b-5ed3-417e-bbd8-f22ddf4fa812"},"vehicle_type_id":"4","last_reported":1727961461,"current_range_meters":16400,"station_id":"ce4bh2h2rcd13ifvqdh0","pricing_plan_id":"cebpf4jnsgd1na2vs0mg"},{"bike_id":"7d3e0c4d-ca7c-4de4-b417-1505937c7044","system_id":"levelo_inurba_marseille","lat":43.24409,"lon":5.3705,"is_reserved":false,"is_disabled":false,"rental_uris":{"android":"levelo://app?vid=7d3e0c4d-ca7c-4de4-b417-1505937c7044","ios":"levelo://app?vid=7d3e0c4d-ca7c-4de4-b417-1505937c7044"},"vehicle_type_id":"4","last_reported":1727961461,"current_range_meters":22800,"station_id":"ce4bhhh2rcd13ifvqfk0","pricing_plan_id":"cebpf4jnsgd1na2vs0mg"},{"bike_id":"bf87d1b0-e6d3-4fb0-bfb1-7852ae520573","system_id":"levelo_inurba_marseille","lat":43.27975,"lon":5.38733,"is_reserved":false,"is_disabled":false,"rental_uris":{"android":"levelo://app?vid=bf87d1b0-e6d3-4fb0-bfb1-7852ae520573","ios":"levelo://app?vid=bf87d1b0-e6d3-4fb0-bfb1-7852ae520573"},"vehicle_type_id":"4","last_reported":1727961461,"current_range_meters":9600,"station_id":"ce4bhg12rcd13ifvqf80","pricing_plan_id":"cebpf4jnsgd1na2vs0mg"},{"bike_id":"c5bf6c57-7703-4962-bea8-fc52f0c9311e","system_id":"levelo_inurba_marseille","lat":43.27812,"lon":5.40716,"is_reserved":false,"is_disabled":false,"rental_uris":{"android":"levelo://app?vid=c5bf6c57-7703-4962-bea8-fc52f0c9311e","ios":"levelo://app?vid=c5bf6c57-7703-4962-bea8-fc52f0c9311e"},"vehicle_type_id":"4","last_reported":1727961461,"current_range_meters":21600,"station_id":"ce4bhnh2rcd13ifvqgtg","pricing_plan_id":"cebpf4jnsgd1na2vs0mg"},{"bike_id":"ce054c01-b1f0-487c-a386-bc92bcbf9739","system_id":"levelo_inurba_marseille","lat":43.28074,"lon":5.39653,"is_reserved":false,"is_disabled":false,"rental_uris":{"android":"levelo://app?vid=ce054c01-b1f0-487c-a386-bc92bcbf9739","ios":"levelo://app?vid=ce054c01-b1f0-487c-a386-bc92bcbf9739"},"vehicle_type_id":"4","last_reported":1727961461,"current_range_meters":38000,"station_id":"ce4bho12rcd13ifvqh2g","pricing_plan_id":"cebpf4jnsgd1na2vs0mg"},{"bike_id":"97eb5edc-36e5-49cb-80b9-7628fc0c7cdd","system_id":"levelo_inurba_marseille","lat":43.23967,"lon":5.36628,"is_reserved":false,"is_disabled":false,"rental_uris":{"android":"levelo://app?vid=97eb5edc-36e5-49cb-80b9-7628fc0c7cdd","ios":"levelo://app?vid=97eb5edc-36e5-49cb-80b9-7628fc0c7cdd"},"vehicle_type_id":"4","last_reported":1727961461,"current_range_meters":23200,"station_id":"ce4bhi12rcd13ifvqfp0","pricing_plan_id":"cebpf4jnsgd1na2vs0mg"},{"bike_id":"ba696df5-1cc9-41cd-a6c8-17f551fe3534","system_id":"levelo_inurba_marseille","lat":43.28485,"lon":5.38449,"is_reserved":false,"is_disabled":false,"rental_uris":{"android":"levelo://app?vid=ba696df5-1cc9-41cd-a6c8-17f551fe3534","ios":"levelo://app?vid=ba696df5-1cc9-41cd-a6c8-17f551fe3534"},"vehicle_type_id":"4","last_reported":1727961461,"current_range_meters":28000,"station_id":"ce4bgkp2rcd13ifvqbmg","pricing_plan_id":"cebpf4jnsgd1na2vs0mg"},{"bike_id":"62aa63ba-411f-4ebf-8681-843b445372fd","system_id":"levelo_inurba_marseille","lat":43.29783,"lon":5.39337,"is_reserved":false,"is_disabled":false,"rental_uris":{"android":"levelo://app?vid=62aa63ba-411f-4ebf-8681-843b445372fd","ios":"levelo://app?vid=62aa63ba-411f-4ebf-8681-843b445372fd"},"vehicle_type_id":"4","last_reported":1727961461,"current_range_meters":22000,"station_id":"chh1huq6cuj3fo74tm60","pricing_plan_id":"cebpf4jnsgd1na2vs0mg"},{"bike_id":"d9513a24-3235-43a7-b9a5-1c5cfe37603f","system_id":"levelo_inurba_marseille","lat":43.23059,"lon":5.3549,"is_reserved":false,"is_disabled":false,"rental_uris":{"android":"levelo://app?vid=d9513a24-3235-43a7-b9a5-1c5cfe37603f","ios":"levelo://app?vid=d9513a24-3235-43a7-b9a5-1c5cfe37603f"},"vehicle_type_id":"4","last_reported":1727961461,"current_range_meters":29600,"station_id":"cpo3342slgdg3j2ifvpg","pricing_plan_id":"cebpf4jnsgd1na2vs0mg"},{"bike_id":"4d7f2b54-e56c-4d82-9d95-e9fe68b5a88b","system_id":"levelo_inurba_marseille","lat":43.30147,"lon":5.38084,"is_reserved":false,"is_disabled":false,"rental_uris":{"android":"levelo://app?vid=4d7f2b54-e56c-4d82-9d95-e9fe68b5a88b","ios":"levelo://app?vid=4d7f2b54-e56c-4d82-9d95-e9fe68b5a88b"},"vehicle_type_id":"4","last_reported":1727961461,"current_range_meters":12400,"station_id":"ce4bgjp2rcd13ifvqbh0","pricing_plan_id":"cebpf4jnsgd1na2vs0mg"},{"bike_id":"e9b49f26-1d92-4bde-b87b-022796d9d0d6","system_id":"levelo_inurba_marseille","lat":43.32539,"lon":5.41429,"is_reserved":false,"is_disabled":false,"rental_uris":{"android":"levelo://app?vid=e9b49f26-1d92-4bde-b87b-022796d9d0d6","ios":"levelo://app?vid=e9b49f26-1d92-4bde-b87b-022796d9d0d6"},"vehicle_type_id":"4","last_reported":1727961461,"current_range_meters":19200,"station_id":"ce4bhq12rcd13ifvqhhg","pricing_plan_id":"cebpf4jnsgd1na2vs0mg"},{"bike_id":"4350d1c5-9602-4f3a-9b16-78ffe7254563","system_id":"levelo_inurba_marseille","lat":43.25001,"lon":5.38926,"is_reserved":false,"is_disabled":false,"rental_uris":{"android":"levelo://app?vid=4350d1c5-9602-4f3a-9b16-78ffe7254563","ios":"levelo://app?vid=4350d1c5-9602-4f3a-9b16-78ffe7254563"},"vehicle_type_id":"4","last_reported":1727961461,"current_range_meters":20000,"station_id":"ce4bhgp2rcd13ifvqfd0","pricing_plan_id":"cebpf4jnsgd1na2vs0mg"},{"bike_id":"fdfdbea0-ed0d-4f4a-b66c-52a9d805b38c","system_id":"levelo_inurba_marseille","lat":43.28675,"lon":5.3867,"is_reserved":false,"is_disabled":false,"rental_uris":{"android":"levelo://app?vid=fdfdbea0-ed0d-4f4a-b66c-52a9d805b38c","ios":"levelo://app?vid=fdfdbea0-ed0d-4f4a-b66c-52a9d805b38c"},"vehicle_type_id":"4","last_reported":1727961461,"current_range_meters":9200,"station_id":"ce4bh492rcd13ifvqdug","pricing_plan_id":"cebpf4jnsgd1na2vs0mg"},{"bike_id":"c2365a43-69b9-4f30-bd1b-6c09b1e2ea85","system_id":"levelo_inurba_marseille","lat":43.32303,"lon":5.41324,"is_reserved":false,"is_disabled":false,"rental_uris":{"android":"levelo://app?vid=c2365a43-69b9-4f30-bd1b-6c09b1e2ea85","ios":"levelo://app?vid=c2365a43-69b9-4f30-bd1b-6c09b1e2ea85"},"vehicle_type_id":"4","last_reported":1727961461,"current_range_meters":30400,"station_id":"","pricing_plan_id":"cebpf4jnsgd1na2vs0mg"},{"bike_id":"c11e4bd0-e2c3-48ea-a4b3-91464161cb45","system_id":"levelo_inurba_marseille","lat":43.2397,"lon":5.36635,"is_reserved":false,"is_disabled":false,"rental_uris":{"android":"levelo://app?vid=c11e4bd0-e2c3-48ea-a4b3-91464161cb45","ios":"levelo://app?vid=c11e4bd0-e2c3-48ea-a4b3-91464161cb45"},"vehicle_type_id":"4","last_reported":1727961461,"current_range_meters":38000,"station_id":"ce4bhi12rcd13ifvqfp0","pricing_plan_id":"cebpf4jnsgd1na2vs0mg"},{"bike_id":"d1b19411-4566-47f6-aa66-8f704d1b81b5","system_id":"levelo_inurba_marseille","lat":43.24545,"lon":5.39523,"is_reserved":false,"is_disabled":false,"rental_uris":{"android":"levelo://app?vid=d1b19411-4566-47f6-aa66-8f704d1b81b5","ios":"levelo://app?vid=d1b19411-4566-47f6-aa66-8f704d1b81b5"},"vehicle_type_id":"4","last_reported":1727961461,"current_range_meters":19200,"station_id":"ce4bhlp2rcd13ifvqgjg","pricing_plan_id":"cebpf4jnsgd1na2vs0mg"},{"bike_id":"f8cb6c66-265c-45fd-be15-c77bccfacdcf","system_id":"levelo_inurba_marseille","lat":43.303162,"lon":5.368978,"is_reserved":false,"is_disabled":false,"rental_uris":{"android":"levelo://app?vid=f8cb6c66-265c-45fd-be15-c77bccfacdcf","ios":"levelo://app?vid=f8cb6c66-265c-45fd-be15-c77bccfacdcf"},"vehicle_type_id":"4","last_reported":1727961461,"current_range_meters":38000,"station_id":"ce4bgqh2rcd13ifvqc5g","pricing_plan_id":"cebpf4jnsgd1na2vs0mg"},{"bike_id":"1430add3-d4f9-4c53-8101-19290ecfc468","system_id":"levelo_inurba_marseille","lat":43.29838,"lon":5.36269,"is_reserved":false,"is_disabled":false,"rental_uris":{"android":"levelo://app?vid=1430add3-d4f9-4c53-8101-19290ecfc468","ios":"levelo://app?vid=1430add3-d4f9-4c53-8101-19290ecfc468"},"vehicle_type_id":"4","last_reported":1727961461,"current_range_meters":14800,"station_id":"ce4bgpp2rcd13ifvqc3g","pricing_plan_id":"cebpf4jnsgd1na2vs0mg"},{"bike_id":"8bf24ec6-c749-49bb-9fe4-7369b00725ba","system_id":"levelo_inurba_marseille","lat":43.33765,"lon":5.37437,"is_reserved":false,"is_disabled":false,"rental_uris":{"android":"levelo://app?vid=8bf24ec6-c749-49bb-9fe4-7369b00725ba","ios":"levelo://app?vid=8bf24ec6-c749-49bb-9fe4-7369b00725ba"},"vehicle_type_id":"4","last_reported":1727961461,"current_range_meters":27600,"station_id":"","pricing_plan_id":"cebpf4jnsgd1na2vs0mg"},{"bike_id":"47d6a757-4a7a-41f8-8ec1-01bc93a10302","system_id":"levelo_inurba_marseille","lat":43.255,"lon":5.37652,"is_reserved":false,"is_disabled":false,"rental_uris":{"android":"levelo://app?vid=47d6a757-4a7a-41f8-8ec1-01bc93a10302","ios":"levelo://app?vid=47d6a757-4a7a-41f8-8ec1-01bc93a10302"},"vehicle_type_id":"4","last_reported":1727961461,"current_range_meters":25600,"station_id":"ce4bhh12rcd13ifvqff0","pricing_plan_id":"cebpf4jnsgd1na2vs0mg"},{"bike_id":"e52c7158-7944-4268-89aa-ed5cf215cd5b","system_id":"levelo_inurba_marseille","lat":43.32544,"lon":5.41432,"is_reserved":false,"is_disabled":false,"rental_uris":{"android":"levelo://app?vid=e52c7158-7944-4268-89aa-ed5cf215cd5b","ios":"levelo://app?vid=e52c7158-7944-4268-89aa-ed5cf215cd5b"},"vehicle_type_id":"4","last_reported":1727961461,"current_range_meters":6800,"station_id":"ce4bhq12rcd13ifvqhhg","pricing_plan_id":"cebpf4jnsgd1na2vs0mg"},{"bike_id":"f045ab78-8e20-439d-81b0-508584ff2be9","system_id":"levelo_inurba_marseille","lat":43.31362,"lon":5.38483,"is_reserved":false,"is_disabled":false,"rental_uris":{"android":"levelo://app?vid=f045ab78-8e20-439d-81b0-508584ff2be9","ios":"levelo://app?vid=f045ab78-8e20-439d-81b0-508584ff2be9"},"vehicle_type_id":"4","last_reported":1727961461,"current_range_meters":18800,"station_id":"ce4bgt92rcd13ifvqcf0","pricing_plan_id":"cebpf4jnsgd1na2vs0mg"},{"bike_id":"f61a6a7d-45f4-4762-a532-f93ce34188e8","system_id":"levelo_inurba_marseille","lat":43.29009,"lon":5.35609,"is_reserved":false,"is_disabled":false,"rental_uris":{"android":"levelo://app?vid=f61a6a7d-45f4-4762-a532-f93ce34188e8","ios":"levelo://app?vid=f61a6a7d-45f4-4762-a532-f93ce34188e8"},"vehicle_type_id":"4","last_reported":1727961461,"current_range_meters":18800,"station_id":"ce4bhb92rcd13ifvqen0","pricing_plan_id":"cebpf4jnsgd1na2vs0mg"},{"bike_id":"e953d47a-e381-45be-ab38-303171eb1f53","system_id":"levelo_inurba_marseille","lat":43.26941,"lon":5.38638,"is_reserved":false,"is_disabled":false,"rental_uris":{"android":"levelo://app?vid=e953d47a-e381-45be-ab38-303171eb1f53","ios":"levelo://app?vid=e953d47a-e381-45be-ab38-303171eb1f53"},"vehicle_type_id":"4","last_reported":1727961461,"current_range_meters":17200,"station_id":"ce4bhh92rcd13ifvqfh0","pricing_plan_id":"cebpf4jnsgd1na2vs0mg"},{"bike_id":"eb3d774c-9505-416f-bc8b-a4432d24511b","system_id":"levelo_inurba_marseille","lat":43.26568,"lon":5.39005,"is_reserved":false,"is_disabled":false,"rental_uris":{"android":"levelo://app?vid=eb3d774c-9505-416f-bc8b-a4432d24511b","ios":"levelo://app?vid=eb3d774c-9505-416f-bc8b-a4432d24511b"},"vehicle_type_id":"4","last_reported":1727961461,"current_range_meters":36400,"station_id":"ce4bhe12rcd13ifvqf30","pricing_plan_id":"cebpf4jnsgd1na2vs0mg"},{"bike_id":"f911ee7a-f32f-4553-9240-54e57d80d915","system_id":"levelo_inurba_marseille","lat":43.29021,"lon":5.38139,"is_reserved":false,"is_disabled":false,"rental_uris":{"android":"levelo://app?vid=f911ee7a-f32f-4553-9240-54e57d80d915","ios":"levelo://app?vid=f911ee7a-f32f-4553-9240-54e57d80d915"},"vehicle_type_id":"4","last_reported":1727961461,"current_range_meters":6800,"station_id":"ce4bh4p2rcd13ifvqe1g","pricing_plan_id":"cebpf4jnsgd1na2vs0mg"},{"bike_id":"d4ca3cb7-3285-4e3b-9f6a-2440127c81f8","system_id":"levelo_inurba_marseille","lat":43.31716,"lon":5.37755,"is_reserved":false,"is_disabled":false,"rental_uris":{"android":"levelo://app?vid=d4ca3cb7-3285-4e3b-9f6a-2440127c81f8","ios":"levelo://app?vid=d4ca3cb7-3285-4e3b-9f6a-2440127c81f8"},"vehicle_type_id":"4","last_reported":1727961461,"current_range_meters":38800,"station_id":"ce4bgth2rcd13ifvqch0","pricing_plan_id":"cebpf4jnsgd1na2vs0mg"},{"bike_id":"cd72c2d4-4e75-48dd-b62e-0be215050eb6","system_id":"levelo_inurba_marseille","lat":43.27319,"lon":5.39095,"is_reserved":false,"is_disabled":false,"rental_uris":{"android":"levelo://app?vid=cd72c2d4-4e75-48dd-b62e-0be215050eb6","ios":"levelo://app?vid=cd72c2d4-4e75-48dd-b62e-0be215050eb6"},"vehicle_type_id":"4","last_reported":1727961461,"current_range_meters":6000,"station_id":"ce4bhgp2rcd13ifvqfe0","pricing_plan_id":"cebpf4jnsgd1na2vs0mg"},{"bike_id":"7ceb82db-c602-41ec-87df-d2fb590e74c2","system_id":"levelo_inurba_marseille","lat":43.26554,"lon":5.37292,"is_reserved":false,"is_disabled":false,"rental_uris":{"android":"levelo://app?vid=7ceb82db-c602-41ec-87df-d2fb590e74c2","ios":"levelo://app?vid=7ceb82db-c602-41ec-87df-d2fb590e74c2"},"vehicle_type_id":"4","last_reported":1727961461,"current_range_meters":17200,"station_id":"ce4bhg12rcd13ifvqf70","pricing_plan_id":"cebpf4jnsgd1na2vs0mg"},{"bike_id":"e52b7795-3f18-4aa6-af04-6e91c3f15757","system_id":"levelo_inurba_marseille","lat":43.26948,"lon":5.38634,"is_reserved":false,"is_disabled":false,"rental_uris":{"android":"levelo://app?vid=e52b7795-3f18-4aa6-af04-6e91c3f15757","ios":"levelo://app?vid=e52b7795-3f18-4aa6-af04-6e91c3f15757"},"vehicle_type_id":"4","last_reported":1727961461,"current_range_meters":38800,"station_id":"ce4bhh92rcd13ifvqfh0","pricing_plan_id":"cebpf4jnsgd1na2vs0mg"},{"bike_id":"0ba25c9b-fca3-45dd-b364-f0d6a9f77ae9","system_id":"levelo_inurba_marseille","lat":43.28436,"lon":5.39185,"is_reserved":false,"is_disabled":false,"rental_uris":{"android":"levelo://app?vid=0ba25c9b-fca3-45dd-b364-f0d6a9f77ae9","ios":"levelo://app?vid=0ba25c9b-fca3-45dd-b364-f0d6a9f77ae9"},"vehicle_type_id":"4","last_reported":1727961461,"current_range_meters":32000,"station_id":"ce4bhoh2rcd13ifvqh5g","pricing_plan_id":"cebpf4jnsgd1na2vs0mg"},{"bike_id":"e037eabf-4d4f-4d5b-8f1a-a74e2be708c6","system_id":"levelo_inurba_marseille","lat":43.26554,"lon":5.37289,"is_reserved":false,"is_disabled":false,"rental_uris":{"android":"levelo://app?vid=e037eabf-4d4f-4d5b-8f1a-a74e2be708c6","ios":"levelo://app?vid=e037eabf-4d4f-4d5b-8f1a-a74e2be708c6"},"vehicle_type_id":"4","last_reported":1727961461,"current_range_meters":36000,"station_id":"ce4bhg12rcd13ifvqf70","pricing_plan_id":"cebpf4jnsgd1na2vs0mg"},{"bike_id":"ec8a83de-f64f-46e9-8ae9-e57828ed67c3","system_id":"levelo_inurba_marseille","lat":43.29679,"lon":5.37299,"is_reserved":false,"is_disabled":false,"rental_uris":{"android":"levelo://app?vid=ec8a83de-f64f-46e9-8ae9-e57828ed67c3","ios":"levelo://app?vid=ec8a83de-f64f-46e9-8ae9-e57828ed67c3"},"vehicle_type_id":"4","last_reported":1727961461,"current_range_meters":30400,"station_id":"ce4bgk12rcd13ifvqbj0","pricing_plan_id":"cebpf4jnsgd1na2vs0mg"},{"bike_id":"99503802-976a-4f5c-ae1a-54e134b43c8c","system_id":"levelo_inurba_marseille","lat":43.30151,"lon":5.3741,"is_reserved":false,"is_disabled":false,"rental_uris":{"android":"levelo://app?vid=99503802-976a-4f5c-ae1a-54e134b43c8c","ios":"levelo://app?vid=99503802-976a-4f5c-ae1a-54e134b43c8c"},"vehicle_type_id":"4","last_reported":1727961461,"current_range_meters":35200,"station_id":"ce4bgs92rcd13ifvqcc0","pricing_plan_id":"cebpf4jnsgd1na2vs0mg"},{"bike_id":"fc5707ae-e28b-42af-867e-4d47cf49d55a","system_id":"levelo_inurba_marseille","lat":43.3053,"lon":5.36695,"is_reserved":false,"is_disabled":false,"rental_uris":{"android":"levelo://app?vid=fc5707ae-e28b-42af-867e-4d47cf49d55a","ios":"levelo://app?vid=fc5707ae-e28b-42af-867e-4d47cf49d55a"},"vehicle_type_id":"4","last_reported":1727961461,"current_range_meters":20000,"station_id":"ce4bgrp2rcd13ifvqc9g","pricing_plan_id":"cebpf4jnsgd1na2vs0mg"},{"bike_id":"0d71b32b-d6f5-4bb0-b03f-a3b7411ac4c1","system_id":"levelo_inurba_marseille","lat":43.24801,"lon":5.37452,"is_reserved":false,"is_disabled":false,"rental_uris":{"android":"levelo://app?vid=0d71b32b-d6f5-4bb0-b03f-a3b7411ac4c1","ios":"levelo://app?vid=0d71b32b-d6f5-4bb0-b03f-a3b7411ac4c1"},"vehicle_type_id":"4","last_reported":1727961461,"current_range_meters":38800,"station_id":"ce4bhgh2rcd13ifvqfb0","pricing_plan_id":"cebpf4jnsgd1na2vs0mg"},{"bike_id":"622fd232-2682-45f3-bc16-59cd5fa8763d","system_id":"levelo_inurba_marseille","lat":43.34147,"lon":5.40905,"is_reserved":false,"is_disabled":false,"rental_uris":{"android":"levelo://app?vid=622fd232-2682-45f3-bc16-59cd5fa8763d","ios":"levelo://app?vid=622fd232-2682-45f3-bc16-59cd5fa8763d"},"vehicle_type_id":"4","last_reported":1727961461,"current_range_meters":4400,"station_id":"ce4bhqh2rcd13ifvqhlg","pricing_plan_id":"cebpf4jnsgd1na2vs0mg"},{"bike_id":"5084d4e8-22d7-4248-aec8-4997331ff1e0","system_id":"levelo_inurba_marseille","lat":43.22926,"lon":5.35378,"is_reserved":false,"is_disabled":false,"rental_uris":{"android":"levelo://app?vid=5084d4e8-22d7-4248-aec8-4997331ff1e0","ios":"levelo://app?vid=5084d4e8-22d7-4248-aec8-4997331ff1e0"},"vehicle_type_id":"4","last_reported":1727961461,"current_range_meters":34800,"station_id":"cpo3532slgdg3j2ikp40","pricing_plan_id":"cebpf4jnsgd1na2vs0mg"},{"bike_id":"1bccc78d-8ea0-4090-8e4b-117be5765d7b","system_id":"levelo_inurba_marseille","lat":43.29995,"lon":5.37184,"is_reserved":false,"is_disabled":false,"rental_uris":{"android":"levelo://app?vid=1bccc78d-8ea0-4090-8e4b-117be5765d7b","ios":"levelo://app?vid=1bccc78d-8ea0-4090-8e4b-117be5765d7b"},"vehicle_type_id":"4","last_reported":1727961461,"current_range_meters":38000,"station_id":"ce4bgr92rcd13ifvqc7g","pricing_plan_id":"cebpf4jnsgd1na2vs0mg"},{"bike_id":"c7e622e1-c6ac-4a75-98f5-f44dfca00e56","system_id":"levelo_inurba_marseille","lat":43.29788,"lon":5.39348,"is_reserved":false,"is_disabled":false,"rental_uris":{"android":"levelo://app?vid=c7e622e1-c6ac-4a75-98f5-f44dfca00e56","ios":"levelo://app?vid=c7e622e1-c6ac-4a75-98f5-f44dfca00e56"},"vehicle_type_id":"4","last_reported":1727961461,"current_range_meters":38800,"station_id":"chh1huq6cuj3fo74tm60","pricing_plan_id":"cebpf4jnsgd1na2vs0mg"},{"bike_id":"17774e5e-4ca1-4447-afa9-8f03dd4b5e12","system_id":"levelo_inurba_marseille","lat":43.26194,"lon":5.37448,"is_reserved":false,"is_disabled":false,"rental_uris":{"android":"levelo://app?vid=17774e5e-4ca1-4447-afa9-8f03dd4b5e12","ios":"levelo://app?vid=17774e5e-4ca1-4447-afa9-8f03dd4b5e12"},"vehicle_type_id":"4","last_reported":1727961461,"current_range_meters":8400,"station_id":"ce4bhgp2rcd13ifvqfc0","pricing_plan_id":"cebpf4jnsgd1na2vs0mg"},{"bike_id":"99f89927-fc15-41cc-8a9b-b695d5267480","system_id":"levelo_inurba_marseille","lat":43.26685,"lon":5.38273,"is_reserved":false,"is_disabled":false,"rental_uris":{"android":"levelo://app?vid=99f89927-fc15-41cc-8a9b-b695d5267480","ios":"levelo://app?vid=99f89927-fc15-41cc-8a9b-b695d5267480"},"vehicle_type_id":"4","last_reported":1727961461,"current_range_meters":34800,"station_id":"ce4bhg92rcd13ifvqf90","pricing_plan_id":"cebpf4jnsgd1na2vs0mg"},{"bike_id":"72874289-d55b-4589-a58d-5439d0347367","system_id":"levelo_inurba_marseille","lat":43.29964,"lon":5.37156,"is_reserved":false,"is_disabled":false,"rental_uris":{"android":"levelo://app?vid=72874289-d55b-4589-a58d-5439d0347367","ios":"levelo://app?vid=72874289-d55b-4589-a58d-5439d0347367"},"vehicle_type_id":"4","last_reported":1727961461,"current_range_meters":37600,"station_id":"ce4bgr92rcd13ifvqc7g","pricing_plan_id":"cebpf4jnsgd1na2vs0mg"},{"bike_id":"c4bd5543-f1ab-40db-bd18-61efeff36223","system_id":"levelo_inurba_marseille","lat":43.30244,"lon":5.40074,"is_reserved":false,"is_disabled":false,"rental_uris":{"android":"levelo://app?vid=c4bd5543-f1ab-40db-bd18-61efeff36223","ios":"levelo://app?vid=c4bd5543-f1ab-40db-bd18-61efeff36223"},"vehicle_type_id":"4","last_reported":1727961461,"current_range_meters":35200,"station_id":"ce4bgvh2rcd13ifvqcs0","pricing_plan_id":"cebpf4jnsgd1na2vs0mg"},{"bike_id":"b62a8f1e-5001-4b21-a79d-b1ce2167db4d","system_id":"levelo_inurba_marseille","lat":43.2846,"lon":5.35888,"is_reserved":false,"is_disabled":false,"rental_uris":{"android":"levelo://app?vid=b62a8f1e-5001-4b21-a79d-b1ce2167db4d","ios":"levelo://app?vid=b62a8f1e-5001-4b21-a79d-b1ce2167db4d"},"vehicle_type_id":"4","last_reported":1727961461,"current_range_meters":8400,"station_id":"ce4bguh2rcd13ifvqckg","pricing_plan_id":"cebpf4jnsgd1na2vs0mg"},{"bike_id":"87f00374-b879-4abd-9f32-4f0c18799a15","system_id":"levelo_inurba_marseille","lat":43.28924,"lon":5.38387,"is_reserved":false,"is_disabled":false,"rental_uris":{"android":"levelo://app?vid=87f00374-b879-4abd-9f32-4f0c18799a15","ios":"levelo://app?vid=87f00374-b879-4abd-9f32-4f0c18799a15"},"vehicle_type_id":"4","last_reported":1727961461,"current_range_meters":37600,"station_id":"ce4bh612rcd13ifvqe6g","pricing_plan_id":"cebpf4jnsgd1na2vs0mg"},