{"last_updated":1724515738,"ttl":30,"version":"2.2","data":{"bikes":[{"bike_id":"0c72db77-31e3-473f-8b60-6e706f380ce0","system_id":"levelo_inurba_marseille","lat":43.31203,"lon":5.368919,"is_reserved":false,"is_disabled":false,"rental_uris":{"android":"levelo://app?vid=0c72db77-31e3-473f-8b60-6e706f380ce0","ios":"levelo://app?vid=0c72db77-31e3-473f-8b60-6e706f380ce0"},"vehicle_type_id":"4","last_reported":1724515738,"current_range_meters":21200,"station_id":"ce4bgl92rcd13ifvqbq0","pricing_plan_id":"cebpf4jnsgd1na2vs0mg"},{"bike_id":"832cd9d1-2991-4f47-b1b3-4aa85821f18e","system_id":"levelo_inurba_marseille","lat":43.31339,"lon":5.37192,"is_reserved":false,"is_disabled":false,"rental_uris":{"android":"levelo://app?vid=832cd9d1-2991-4f47-b1b3-4aa85821f18e","ios":"levelo://app?vid=832cd9d1-2991-4f47-b1b3-4aa85821f18e"},"vehicle_type_id":"4","last_reported":1724515738,"current_range_meters":0,"station_id":"","pricing_plan_id":"cebpf4jnsgd1na2vs0mg"},{"bike_id":"5f9f9fce-5b8c-4515-a530-19fe5b1001ca","system_id":"levelo_inurba_marseille","lat":43.314811,"lon":5.373103,"is_reserved":false,"is_disabled":false,"rental_uris":{"android":"levelo://app?vid=5f9f9fce-5b8c-4515-a530-19fe5b1001ca","ios":"levelo://app?vid=5f9f9fce-5b8c-4515-a530-19fe5b1001ca"},"vehicle_type_id":"4","last_reported":1724515738,"current_range_meters":8800,"station_id":"ce4bgt12rcd13ifvqcd0","pricing_plan_id":"cebpf4jnsgd1na2vs0mg"},{"bike_id":"efcde5f1-e558-40cb-8f6a-688694bd37c4","system_id":"levelo_inurba_marseille","lat":43.309039,"lon":5.371797,"is_reserved":false,"is_disabled":false,"rental_uris":{"android":"levelo://app?vid=efcde5f1-e558-40cb-8f6a-688694bd37c4","ios":"levelo://app?vid=efcde5f1-e558-40cb-8f6a-688694bd37c4"},"vehicle_type_id":"4","last_reported":1724515738,"current_range_meters":6800,"station_id":"ce4bguh2rcd13ifvqckg","pricing_plan_id":"cebpf4jnsgd1na2vs0mg"},{"bike_id":"94364dda-06d7-43ca-bb0f-a2a92e5bdeb5","system_id":"levelo_inurba_marseille","lat":43.30553,"lon":5.36544,"is_reserved":false,"is_disabled":false,"rental_uris":{"android":"levelo://app?vid=94364dda-06d7-43ca-bb0f-a2a92e5bdeb5","ios":"levelo://app?vid=94364dda-06d7-43ca-bb0f-a2a92e5bdeb5"},"vehicle_type_id":"4","last_reported":1724515738,"current_range_meters":16800,"station_id":"ce4bgs12rcd13ifvqcag","pricing_plan_id":"cebpf4jnsgd1na2vs0mg"},{"bike_id":"b2c8b55d-8387-451e-99cd-c3fc368681ec","system_id":"levelo_inurba_marseille","lat":43.305368,"lon":5.367343,"is_reserved":false,"is_disabled":false,"rental_uris":{"android":"levelo://app?vid=b2c8b55d-8387-451e-99cd-c3fc368681ec","ios":"levelo://app?vid=b2c8b55d-8387-451e-99cd-c3fc368681ec"},"vehicle_type_id":"4","last_reported":1724515738,"current_range_meters":18000,"station_id":"ce4bgrp2rcd13ifvqc9g","pricing_plan_id":"cebpf4jnsgd1na2vs0mg"},{"bike_id":"2d3eef00-0c73-4111-b371-caacde4486b1","system_id":"levelo_inurba_marseille","lat":43.305368,"lon":5.367343,"is_reserved":false,"is_disabled":false,"rental_uris":{"android":"levelo://app?vid=2d3eef00-0c73-4111-b371-caacde4486b1","ios":"levelo://app?vid=2d3eef00-0c73-4111-b371-caacde4486b1"},"vehicle_type_id":"4","last_reported":1724515738,"current_range_meters":9600,"station_id":"ce4bgrp2rcd13ifvqc9g","pricing_plan_id":"cebpf4jnsgd1na2vs0mg"},{"bike_id":"bd337f21-83e5-4e07-bbd1-fb63e53a497a","system_id":"levelo_inurba_marseille","lat":43.305712,"lon":5.365641,"is_reserved":false,"is_disabled":false,"rental_uris":{"android":"levelo://app?vid=bd337f21-83e5-4e07-bbd1-fb63e53a497a","ios":"levelo://app?vid=bd337f21-83e5-4e07-bbd1-fb63e53a497a"},"vehicle_type_id":"4","last_reported":1724515738,"current_range_meters":30800,"station_id":"ce4bgs12rcd13ifvqcag","pricing_plan_id":"cebpf4jnsgd1na2vs0mg"},{"bike_id":"26cc9b77-d2c1-42fb-a582-304abd17b4dc","system_id":"levelo_inurba_marseille","lat":43.305368,"lon":5.367343,"is_reserved":false,"is_disabled":false,"rental_uris":{"android":"levelo://app?vid=26cc9b77-d2c1-42fb-a582-304abd17b4dc","ios":"levelo://app?vid=26cc9b77-d2c1-42fb-a582-304abd17b4dc"},"vehicle_type_id":"4","last_reported":1724515738,"current_range_meters":6000,"station_id":"ce4bgrp2rcd13ifvqc9g","pricing_plan_id":"cebpf4jnsgd1na2vs0mg"},{"bike_id":"ebc0a47a-8ea0-49a4-9b3c-dc8009ed5e20","system_id":"levelo_inurba_marseille","lat":43.305989,"lon":5.37225,"is_reserved":false,"is_disabled":false,"rental_uris":{"android":"levelo://app?vid=ebc0a47a-8ea0-49a4-9b3c-dc8009ed5e20","ios":"levelo://app?vid=ebc0a47a-8ea0-49a4-9b3c-dc8009ed5e20"},"vehicle_type_id":"4","last_reported":1724515738,"current_range_meters":11200,"station_id":"ce4bgqh2rcd13ifvqc4g","pricing_plan_id":"cebpf4jnsgd1na2vs0mg"},{"bike_id":"3a18f24d-6d25-423b-981c-a8c7878d7a92","system_id":"levelo_inurba_marseille","lat":43.305989,"lon":5.37225,"is_reserved":false,"is_disabled":false,"rental_uris":{"android":"levelo://app?vid=3a18f24d-6d25-423b-981c-a8c7878d7a92","ios":"levelo://app?vid=3a18f24d-6d25-423b-981c-a8c7878d7a92"},"vehicle_type_id":"4","last_reported":1724515738,"current_range_meters":3600,"station_id":"ce4bgqh2rcd13ifvqc4g","pricing_plan_id":"cebpf4jnsgd1na2vs0mg"},{"bike_id":"36dc8d37-45f7-42f8-a050-0a15c6e71b28","system_id":"levelo_inurba_marseille","lat":43.273609,"lon":5.362708,"is_reserved":false,"is_disabled":false,"rental_uris":{"android":"levelo://app?vid=36dc8d37-45f7-42f8-a050-0a15c6e71b28","ios":"levelo://app?vid=36dc8d37-45f7-42f8-a050-0a15c6e71b28"},"vehicle_type_id":"4","last_reported":1724515738,"current_range_meters":27200,"station_id":"ce4bhbh2rcd13ifvqeo0","pricing_plan_id":"cebpf4jnsgd1na2vs0mg"},{"bike_id":"f815bfe6-6f96-47ad-b0d3-3e38815172fd","system_id":"levelo_inurba_marseille","lat":43.307945,"lon":5.376487,"is_reserved":false,"is_disabled":false,"rental_uris":{"android":"levelo://app?vid=f815bfe6-6f96-47ad-b0d3-3e38815172fd","ios":"levelo://app?vid=f815bfe6-6f96-47ad-b0d3-3e38815172fd"},"vehicle_type_id":"4","last_reported":1724515738,"current_range_meters":26000,"station_id":"ce4bgv92rcd13ifvqcq0","pricing_plan_id":"cebpf4jnsgd1na2vs0mg"},{"bike_id":"5add6e00-1bd2-427f-b3a8-41d84d2c3689","system_id":"levelo_inurba_marseille","lat":43.30463,"lon":5.3791,"is_reserved":false,"is_disabled":false,"rental_uris":{"android":"levelo://app?vid=5add6e00-1bd2-427f-b3a8-41d84d2c3689","ios":"levelo://app?vid=5add6e00-1bd2-427f-b3a8-41d84d2c3689"},"vehicle_type_id":"4","last_reported":1724515738,"current_range_meters":1200,"station_id":"ce4bgup2rcd13ifvqcn0","pricing_plan_id":"cebpf4jnsgd1na2vs0mg"},{"bike_id":"ae95873f-f14f-4d35-b942-fa940c80daab","system_id":"levelo_inurba_marseille","lat":43.324771,"lon":5.36557,"is_reserved":false,"is_disabled":false,"rental_uris":{"android":"levelo://app?vid=ae95873f-f14f-4d35-b942-fa940c80daab","ios":"levelo://app?vid=ae95873f-f14f-4d35-b942-fa940c80daab"},"vehicle_type_id":"4","last_reported":1724515738,"current_range_meters":13200,"station_id":"ce4bhs12rcd13ifvqhvg","pricing_plan_id":"cebpf4jnsgd1na2vs0mg"},{"bike_id":"04f70c27-51ae-488d-b40d-9138bfa802ed","system_id":"levelo_inurba_marseille","lat":43.324771,"lon":5.36557,"is_reserved":false,"is_disabled":false,"rental_uris":{"android":"levelo://app?vid=04f70c27-51ae-488d-b40d-9138bfa802ed","ios":"levelo://app?vid=04f70c27-51ae-488d-b40d-9138bfa802ed"},"vehicle_type_id":"4","last_reported":1724515738,"current_range_meters":6800,"station_id":"ce4bhs12rcd13ifvqhvg","pricing_plan_id":"cebpf4jnsgd1na2vs0mg"},{"bike_id":"99e5e427-5a35-4ea2-97a7-7f522a761281","system_id":"levelo_inurba_marseille","lat":43.324771,"lon":5.36557,"is_reserved":false,"is_disabled":false,"rental_uris":{"android":"levelo://app?vid=99e5e427-5a35-4ea2-97a7-7f522a761281","ios":"levelo://app?vid=99e5e427-5a35-4ea2-97a7-7f522a761281"},"vehicle_type_id":"4","last_reported":1724515738,"current_range_meters":16800,"station_id":"ce4bhs12rcd13ifvqhvg","pricing_plan_id":"cebpf4jnsgd1na2vs0mg"},{"bike_id":"4cc2080c-2720-43e9-a55a-8550022b2885","system_id":"levelo_inurba_marseille","lat":43.324771,"lon":5.36557,"is_reserved":false,"is_disabled":false,"rental_uris":{"android":"levelo://app?vid=4cc2080c-2720-43e9-a55a-8550022b2885","ios":"levelo://app?vid=4cc2080c-2720-43e9-a55a-8550022b2885"},"vehicle_type_id":"4","last_reported":1724515738,"current_range_meters":9600,"station_id":"ce4bhs12rcd13ifvqhvg","pricing_plan_id":"cebpf4jnsgd1na2vs0mg"},{"bike_id":"37987f2b-3750-406b-8bf4-fbef977d64db","system_id":"levelo_inurba_marseille","lat":43.32485,"lon":5.36554,"is_reserved":false,"is_disabled":false,"rental_uris":{"android":"levelo://app?vid=37987f2b-3750-406b-8bf4-fbef977d64db","ios":"levelo://app?vid=37987f2b-3750-406b-8bf4-fbef977d64db"},"vehicle_type_id":"4","last_reported":1724515738,"current_range_meters":0,"station_id":"ce4bhs12rcd13ifvqhvg","pricing_plan_id":"cebpf4jnsgd1na2vs0mg"},{"bike_id":"11c3db8a-fd27-4d2a-8017-fb086f3e4ead","system_id":"levelo_inurba_marseille","lat":43.324771,"lon":5.36557,"is_reserved":false,"is_disabled":false,"rental_uris":{"android":"levelo://app?vid=11c3db8a-fd27-4d2a-8017-fb086f3e4ead","ios":"levelo://app?vid=11c3db8a-fd27-4d2a-8017-fb086f3e4ead"},"vehicle_type_id":"4","last_reported":1724515738,"current_range_meters":28400,"station_id":"ce4bhs12rcd13ifvqhvg","pricing_plan_id":"cebpf4jnsgd1na2vs0mg"},{"bike_id":"4b068ad2-1221-4476-9487-2b7eb5619d8a","system_id":"levelo_inurba_marseille","lat":43.31366,"lon":5.38364,"is_reserved":false,"is_disabled":false,"rental_uris":{"android":"levelo://app?vid=4b068ad2-1221-4476-9487-2b7eb5619d8a","ios":"levelo://app?vid=4b068ad2-1221-4476-9487-2b7eb5619d8a"},"vehicle_type_id":"4","last_reported":1724515738,"current_range_meters":4800,"station_id":"","pricing_plan_id":"cebpf4jnsgd1na2vs0mg"},{"bike_id":"5c32ae6e-6619-4f45-90d7-ee3ecf2b124f","system_id":"levelo_inurba_marseille","lat":43.302784,"lon":5.377158,"is_reserved":false,"is_disabled":false,"rental_uris":{"android":"levelo://app?vid=5c32ae6e-6619-4f45-90d7-ee3ecf2b124f","ios":"levelo://app?vid=5c32ae6e-6619-4f45-90d7-ee3ecf2b124f"},"vehicle_type_id":"4","last_reported":1724515738,"current_range_meters":12400,"station_id":"ce4bguh2rcd13ifvqcj0","pricing_plan_id":"cebpf4jnsgd1na2vs0mg"},{"bike_id":"e43e5672-ed0c-41f6-b8b8-2d7f3dad35e1","system_id":"levelo_inurba_marseille","lat":43.30143,"lon":5.37413,"is_reserved":false,"is_disabled":false,"rental_uris":{"android":"levelo://app?vid=e43e5672-ed0c-41f6-b8b8-2d7f3dad35e1","ios":"levelo://app?vid=e43e5672-ed0c-41f6-b8b8-2d7f3dad35e1"},"vehicle_type_id":"4","last_reported":1724515738,"current_range_meters":10000,"station_id":"ce4bgs92rcd13ifvqcc0","pricing_plan_id":"cebpf4jnsgd1na2vs0mg"},{"bike_id":"c13d2e9b-9865-4baa-94c1-e6c3069bc45e","system_id":"levelo_inurba_marseille","lat":43.30143,"lon":5.37413,"is_reserved":false,"is_disabled":false,"rental_uris":{"android":"levelo://app?vid=c13d2e9b-9865-4baa-94c1-e6c3069bc45e","ios":"levelo://app?vid=c13d2e9b-9865-4baa-94c1-e6c3069bc45e"},"vehicle_type_id":"4","last_reported":1724515738,"current_range_meters":0,"station_id":"ce4bgs92rcd13ifvqcc0","pricing_plan_id":"cebpf4jnsgd1na2vs0mg"},{"bike_id":"af03f237-1c19-48b1-850b-d4af1a856dc6","system_id":"levelo_inurba_marseille","lat":43.299222,"lon":5.365554,"is_reserved":false,"is_disabled":false,"rental_uris":{"android":"levelo://app?vid=af03f237-1c19-48b1-850b-d4af1a856dc6","ios":"levelo://app?vid=af03f237-1c19-48b1-850b-d4af1a856dc6"},"vehicle_type_id":"4","last_reported":1724515738,"current_range_meters":0,"station_id":"ce4bgm92rcd13ifvqbr0","pricing_plan_id":"cebpf4jnsgd1na2vs0mg"},{"bike_id":"198ac4fb-3c14-45be-a662-62e0b9166651","system_id":"levelo_inurba_marseille","lat":43.299724,"lon":5.371829,"is_reserved":false,"is_disabled":false,"rental_uris":{"android":"levelo://app?vid=198ac4fb-3c14-45be-a662-62e0b9166651","ios":"levelo://app?vid=198ac4fb-3c14-45be-a662-62e0b9166651"},"vehicle_type_id":"4","last_reported":1724515738,"current_range_meters":15600,"station_id":"ce4bgr92rcd13ifvqc7g","pricing_plan_id":"cebpf4jnsgd1na2vs0mg"},{"bike_id":"99b957fe-b6fc-4071-8083-6eee0cb7b77a","system_id":"levelo_inurba_marseille","lat":43.299222,"lon":5.365554,"is_reserved":false,"is_disabled":false,"rental_uris":{"android":"levelo://app?vid=99b957fe-b6fc-4071-8083-6eee0cb7b77a","ios":"levelo://app?vid=99b957fe-b6fc-4071-8083-6eee0cb7b77a"},"vehicle_type_id":"4","last_reported":1724515738,"current_range_meters":0,"station_id":"ce4bgm92rcd13ifvqbr0","pricing_plan_id":"cebpf4jnsgd1na2vs0mg"},{"bike_id":"6cc456cf-dcbe-4e0b-ac20-2d7483f1b8f1","system_id":"levelo_inurba_marseille","lat":43.299222,"lon":5.365554,"is_reserved":false,"is_disabled":false,"rental_uris":{"android":"levelo://app?vid=6cc456cf-dcbe-4e0b-ac20-2d7483f1b8f1","ios":"levelo://app?vid=6cc456cf-dcbe-4e0b-ac20-2d7483f1b8f1"},"vehicle_type_id":"4","last_reported":1724515738,"current_range_meters":12800,"station_id":"ce4bgm92rcd13ifvqbr0","pricing_plan_id":"cebpf4jnsgd1na2vs0mg"},{"bike_id":"50a2620b-1095-4251-954b-8e85d4a3cd85","system_id":"levelo_inurba_marseille","lat":43.299209,"lon":5.365547,"is_reserved":false,"is_disabled":false,"rental_uris":{"android":"levelo://app?vid=50a2620b-1095-4251-954b-8e85d4a3cd85","ios":"levelo://app?vid=50a2620b-1095-4251-954b-8e85d4a3cd85"},"vehicle_type_id":"4","last_reported":1724515738,"current_range_meters":0,"station_id":"ce4bgm92rcd13ifvqbr0","pricing_plan_id":"cebpf4jnsgd1na2vs0mg"},{"bike_id":"97166433-acbf-4fdc-8f34-89ab0c43e92a","system_id":"levelo_inurba_marseille","lat":43.29921,"lon":5.36695,"is_reserved":false,"is_disabled":false,"rental_uris":{"android":"levelo://app?vid=97166433-acbf-4fdc-8f34-89ab0c43e92a","ios":"levelo://app?vid=97166433-acbf-4fdc-8f34-89ab0c43e92a"},"vehicle_type_id":"4","last_reported":1724515738,"current_range_meters":0,"station_id":"ce4bgs12rcd13ifvqcag","pricing_plan_id":"cebpf4jnsgd1na2vs0mg"},{"bike_id":"19e14428-5d4f-4674-8396-5d2f28f0470e","system_id":"levelo_inurba_marseille","lat":43.29861,"lon":5.36286,"is_reserved":false,"is_disabled":false,"rental_uris":{"android":"levelo://app?vid=19e14428-5d4f-4674-8396-5d2f28f0470e","ios":"levelo://app?vid=19e14428-5d4f-4674-8396-5d2f28f0470e"},"vehicle_type_id":"4","last_reported":1724515738,"current_range_meters":6400,"station_id":"ce4bgpp2rcd13ifvqc3g","pricing_plan_id":"cebpf4jnsgd1na2vs0mg"},{"bike_id":"b1570522-5d25-4fa0-a5a2-7b1deef0fff9","system_id":"levelo_inurba_marseille","lat":43.298433,"lon":5.362774,"is_reserved":false,"is_disabled":false,"rental_uris":{"android":"levelo://app?vid=b1570522-5d25-4fa0-a5a2-7b1deef0fff9","ios":"levelo://app?vid=b1570522-5d25-4fa0-a5a2-7b1deef0fff9"},"vehicle_type_id":"4","last_reported":1724515738,"current_range_meters":1600,"station_id":"ce4bgpp2rcd13ifvqc3g","pricing_plan_id":"cebpf4jnsgd1na2vs0mg"},{"bike_id":"936f077c-3577-4ae9-bcd2-2fa7f3ba8832","system_id":"levelo_inurba_marseille","lat":43.29851,"lon":5.36289,"is_reserved":false,"is_disabled":false,"rental_uris":{"android":"levelo://app?vid=936f077c-3577-4ae9-bcd2-2fa7f3ba8832","ios":"levelo://app?vid=936f077c-3577-4ae9-bcd2-2fa7f3ba8832"},"vehicle_type_id":"4","last_reported":1724515738,"current_range_meters":30000,"station_id":"ce4bgpp2rcd13ifvqc3g","pricing_plan_id":"cebpf4jnsgd1na2vs0mg"},{"bike_id":"b164c2c3-e9a2-48d2-91a5-9ec33fdc2be0","system_id":"levelo_inurba_marseille","lat":43.298433,"lon":5.362774,"is_reserved":false,"is_disabled":false,"rental_uris":{"android":"levelo://app?vid=b164c2c3-e9a2-48d2-91a5-9ec33fdc2be0","ios":"levelo://app?vid=b164c2c3-e9a2-48d2-91a5-9ec33fdc2be0"},"vehicle_type_id":"4","last_reported":1724515738,"current_range_meters":15600,"station_id":"ce4bgpp2rcd13ifvqc3g","pricing_plan_id":"cebpf4jnsgd1na2vs0mg"},{"bike_id":"37b83890-de12-4dce-8fe5-d0cb9740da1b","system_id":"levelo_inurba_marseille","lat":43.29851,"lon":5.36286,"is_reserved":false,"is_disabled":false,"rental_uris":{"android":"levelo://app?vid=37b83890-de12-4dce-8fe5-d0cb9740da1b","ios":"levelo://app?vid=37b83890-de12-4dce-8fe5-d0cb9740da1b"},"vehicle_type_id":"4","last_reported":1724515738,"current_range_meters":19200,"station_id":"ce4bgpp2rcd13ifvqc3g","pricing_plan_id":"cebpf4jnsgd1na2vs0mg"},{"bike_id":"a800e9ee-323b-4c4b-a4e8-2e83b5dffc0b","system_id":"levelo_inurba_marseille","lat":43.29851,"lon":5.36285,"is_reserved":false,"is_disabled":false,"rental_uris":{"android":"levelo://app?vid=a800e9ee-323b-4c4b-a4e8-2e83b5dffc0b","ios":"levelo://app?vid=a800e9ee-323b-4c4b-a4e8-2e83b5dffc0b"},"vehicle_type_id":"4","last_reported":1724515738,"current_range_meters":28800,"station_id":"ce4bgpp2rcd13ifvqc3g","pricing_plan_id":"cebpf4jnsgd1na2vs0mg"},{"bike_id":"ff5a0186-4f46-47b8-be99-16739d8717d2","system_id":"levelo_inurba_marseille","lat":43.298473,"lon":5.363055,"is_reserved":false,"is_disabled":false,"rental_uris":{"android":"levelo://app?vid=ff5a0186-4f46-47b8-be99-16739d8717d2","ios":"levelo://app?vid=ff5a0186-4f46-47b8-be99-16739d8717d2"},"vehicle_type_id":"4","last_reported":1724515738,"current_range_meters":12400,"station_id":"ce4bgnh2rcd13ifvqc0g","pricing_plan_id":"cebpf4jnsgd1na2vs0mg"},{"bike_id":"cca6275b-8213-4f39-b38e-538f65891115","system_id":"levelo_inurba_marseille","lat":43.298433,"lon":5.362774,"is_reserved":false,"is_disabled":false,"rental_uris":{"android":"levelo://app?vid=cca6275b-8213-4f39-b38e-538f65891115","ios":"levelo://app?vid=cca6275b-8213-4f39-b38e-538f65891115"},"vehicle_type_id":"4","last_reported":1724515738,"current_range_meters":28000,"station_id":"ce4bgpp2rcd13ifvqc3g","pricing_plan_id":"cebpf4jnsgd1na2vs0mg"},{"bike_id":"b5071d2f-56ff-4d82-9a61-8ea50e4235f0","system_id":"levelo_inurba_marseille","lat":43.298433,"lon":5.362774,"is_reserved":false,"is_disabled":false,"rental_uris":{"android":"levelo://app?vid=b5071d2f-56ff-4d82-9a61-8ea50e4235f0","ios":"levelo://app?vid=b5071d2f-56ff-4d82-9a61-8ea50e4235f0"},"vehicle_type_id":"4","last_reported":1724515738,"current_range_meters":31200,"station_id":"ce4bgpp2rcd13ifvqc3g","pricing_plan_id":"cebpf4jnsgd1na2vs0mg"},{"bike_id":"416e506b-a1e5-41b8-8cdd-8f26729a5264","system_id":"levelo_inurba_marseille","lat":43.298433,"lon":5.362774,"is_reserved":false,"is_disabled":false,"rental_uris":{"android":"levelo://app?vid=416e506b-a1e5-41b8-8cdd-8f26729a5264","ios":"levelo://app?vid=416e506b-a1e5-41b8-8cdd-8f26729a5264"},"vehicle_type_id":"4","last_reported":1724515738,"current_range_meters":2400,"station_id":"ce4bgpp2rcd13ifvqc3g","pricing_plan_id":"cebpf4jnsgd1na2vs0mg"},{"bike_id":"d1e28295-aef8-494f-b743-7c2b7c7e7249","system_id":"levelo_inurba_marseille","lat":43.298433,"lon":5.362774,"is_reserved":false,"is_disabled":false,"rental_uris":{"android":"levelo://app?vid=d1e28295-aef8-494f-b743-7c2b7c7e7249","ios":"levelo://app?vid=d1e28295-aef8-494f-b743-7c2b7c7e7249"},"vehicle_type_id":"4","last_reported":1724515738,"current_range_meters":22800,"station_id":"ce4bgpp2rcd13ifvqc3g","pricing_plan_id":"cebpf4jnsgd1na2vs0mg"},{"bike_id":"59466f81-7d53-46ff-8d1e-a9e80125b7be","system_id":"levelo_inurba_marseille","lat":43.298433,"lon":5.362774,"is_reserved":false,"is_disabled":false,"rental_uris":{"android":"levelo://app?vid=59466f81-7d53-46ff-8d1e-a9e80125b7be","ios":"levelo://app?vid=59466f81-7d53-46ff-8d1e-a9e80125b7be"},"vehicle_type_id":"4","last_reported":1724515738,"current_range_meters":11600,"station_id":"ce4bgpp2rcd13ifvqc3g","pricing_plan_id":"cebpf4jnsgd1na2vs0mg"},{"bike_id":"347e78bf-b421-48e6-adc2-936efc65c4d7","system_id":"levelo_inurba_marseille","lat":43.298433,"lon":5.362774,"is_reserved":false,"is_disabled":false,"rental_uris":{"android":"levelo://app?vid=347e78bf-b421-48e6-adc2-936efc65c4d7","ios":"levelo://app?vid=347e78bf-b421-48e6-adc2-936efc65c4d7"},"vehicle_type_id":"4","last_reported":1724515738,"current_range_meters":22800,"station_id":"ce4bgpp2rcd13ifvqc3g","pricing_plan_id":"cebpf4jnsgd1na2vs0mg"},{"bike_id":"417ed9ab-27b9-40fa-8f6c-d14f40811b9d","system_id":"levelo_inurba_marseille","lat":43.311722,"lon":5.387247,"is_reserved":false,"is_disabled":false,"rental_uris":{"android":"levelo://app?vid=417ed9ab-27b9-40fa-8f6c-d14f40811b9d","ios":"levelo://app?vid=417ed9ab-27b9-40fa-8f6c-d14f40811b9d"},"vehicle_type_id":"4","last_reported":1724515738,"current_range_meters":6800,"station_id":"ce4bgv12rcd13ifvqcp0","pricing_plan_id":"cebpf4jnsgd1na2vs0mg"},{"bike_id":"09533606-ceff-49a0-b49f-f77a5f11d245","system_id":"levelo_inurba_marseille","lat":43.301417,"lon":5.3809,"is_reserved":false,"is_disabled":false,"rental_uris":{"android":"levelo://app?vid=09533606-ceff-49a0-b49f-f77a5f11d245","ios":"levelo://app?vid=09533606-ceff-49a0-b49f-f77a5f11d245"},"vehicle_type_id":"4","last_reported":1724515738,"current_range_meters":7200,"station_id":"ce4bgjp2rcd13ifvqbh0","pricing_plan_id":"cebpf4jnsgd1na2vs0mg"},{"bike_id":"75dad56f-7f22-4170-bdb7-63e42483344e","system_id":"levelo_inurba_marseille","lat":43.301417,"lon":5.3809,"is_reserved":false,"is_disabled":false,"rental_uris":{"android":"levelo://app?vid=75dad56f-7f22-4170-bdb7-63e42483344e","ios":"levelo://app?vid=75dad56f-7f22-4170-bdb7-63e42483344e"},"vehicle_type_id":"4","last_reported":1724515738,"current_range_meters":26000,"station_id":"ce4bgjp2rcd13ifvqbh0","pricing_plan_id":"cebpf4jnsgd1na2vs0mg"},{"bike_id":"214376e6-67f3-4071-9560-1ca3f0bfd6ec","system_id":"levelo_inurba_marseille","lat":43.30149,"lon":5.38079,"is_reserved":false,"is_disabled":false,"rental_uris":{"android":"levelo://app?vid=214376e6-67f3-4071-9560-1ca3f0bfd6ec","ios":"levelo://app?vid=214376e6-67f3-4071-9560-1ca3f0bfd6ec"},"vehicle_type_id":"4","last_reported":1724515738,"current_range_meters":31200,"station_id":"ce4bgjp2rcd13ifvqbh0","pricing_plan_id":"cebpf4jnsgd1na2vs0mg"},{"bike_id":"43637faa-bc57-4af9-9031-ccf7137dafc6","system_id":"levelo_inurba_marseille","lat":43.322916,"lon":5.382574,"is_reserved":false,"is_disabled":false,"rental_uris":{"android":"levelo://app?vid=43637faa-bc57-4af9-9031-ccf7137dafc6","ios":"levelo://app?vid=43637faa-bc57-4af9-9031-ccf7137dafc6"},"vehicle_type_id":"4","last_reported":1724515738,"current_range_meters":23200,"station_id":"ce4bhr12rcd13ifvqhqg","pricing_plan_id":"cebpf4jnsgd1na2vs0mg"},{"bike_id":"11de57d2-90fc-4e0a-b531-0e2fe44a43ca","system_id":"levelo_inurba_marseille","lat":43.297163,"lon":5.365866,"is_reserved":false,"is_disabled":false,"rental_uris":{"android":"levelo://app?vid=11de57d2-90fc-4e0a-b531-0e2fe44a43ca","ios":"levelo://app?vid=11de57d2-90fc-4e0a-b531-0e2fe44a43ca"},"vehicle_type_id":"4","last_reported":1724515738,"current_range_meters":8000,"station_id":"ce4bgn12rcd13ifvqbt0","pricing_plan_id":"cebpf4jnsgd1na2vs0mg"},{"bike_id":"1edb5b7e-d996-4896-b0c4-4a329c86d074","system_id":"levelo_inurba_marseille","lat":43.297163,"lon":5.365866,"is_reserved":false,"is_disabled":false,"rental_uris":{"android":"levelo://app?vid=1edb5b7e-d996-4896-b0c4-4a329c86d074","ios":"levelo://app?vid=1edb5b7e-d996-4896-b0c4-4a329c86d074"},"vehicle_type_id":"4","last_reported":1724515738,"current_range_meters":22800,"station_id":"ce4bgn12rcd13ifvqbt0","pricing_plan_id":"cebpf4jnsgd1na2vs0mg"},{"bike_id":"0922deb9-3d31-401f-9f51-cde30822957e","system_id":"levelo_inurba_marseille","lat":43.297163,"lon":5.365866,"is_reserved":false,"is_disabled":false,"rental_uris":{"android":"levelo://app?vid=0922deb9-3d31-401f-9f51-cde30822957e","ios":"levelo://app?vid=0922deb9-3d31-401f-9f51-cde30822957e"},"vehicle_type_id":"4","last_reported":1724515738,"current_range_meters":28000,"station_id":"ce4bgn12rcd13ifvqbt0","pricing_plan_id":"cebpf4jnsgd1na2vs0mg"},{"bike_id":"b09667e6-bb31-4a3d-9406-f1b86cd237d2","system_id":"levelo_inurba_marseille","lat":43.297163,"lon":5.365866,"is_reserved":false,"is_disabled":false,"rental_uris":{"android":"levelo://app?vid=b09667e6-bb31-4a3d-9406-f1b86cd237d2","ios":"levelo://app?vid=b09667e6-bb31-4a3d-9406-f1b86cd237d2"},"vehicle_type_id":"4","last_reported":1724515738,"current_range_meters":13200,"station_id":"ce4bgn12rcd13ifvqbt0","pricing_plan_id":"cebpf4jnsgd1na2vs0mg"},{"bike_id":"e6b7a96e-45ee-4570-af06-8a40ccf4206a","system_id":"levelo_inurba_marseille","lat":43.296826,"lon":5.371773,"is_reserved":false,"is_disabled":false,"rental_uris":{"android":"levelo://app?vid=e6b7a96e-45ee-4570-af06-8a40ccf4206a","ios":"levelo://app?vid=e6b7a96e-45ee-4570-af06-8a40ccf4206a"},"vehicle_type_id":"4","last_reported":1724515738,"current_range_meters":13200,"station_id":"","pricing_plan_id":"cebpf4jnsgd1na2vs0mg"},{"bike_id":"93b7acac-0b98-474c-b00f-258cc618ee23","system_id":"levelo_inurba_marseille","lat":43.296131,"lon":5.370791,"is_reserved":false,"is_disabled":false,"rental_uris":{"android":"levelo://app?vid=93b7acac-0b98-474c-b00f-258cc618ee23","ios":"levelo://app?vid=93b7acac-0b98-474c-b00f-258cc618ee23"},"vehicle_type_id":"4","last_reported":1724515738,"current_range_meters":4800,"station_id":"ce4bgnh2rcd13ifvqc0g","pricing_plan_id":"cebpf4jnsgd1na2vs0mg"},{"bike_id":"4232986f-8213-4cbe-b32f-d38f2ac8b0c1","system_id":"levelo_inurba_marseille","lat":43.2959,"lon":5.36742,"is_reserved":false,"is_disabled":false,"rental_uris":{"android":"levelo://app?vid=4232986f-8213-4cbe-b32f-d38f2ac8b0c1","ios":"levelo://app?vid=4232986f-8213-4cbe-b32f-d38f2ac8b0c1"},"vehicle_type_id":"4","last_reported":1724515738,"current_range_meters":0,"station_id":"ce4bgph2rcd13ifvqc2g","pricing_plan_id":"cebpf4jnsgd1na2vs0mg"},{"bike_id":"1b13401d-aa15-41a3-910c-54bea85c2055","system_id":"levelo_inurba_marseille","lat":43.29573,"lon":5.367355,"is_reserved":false,"is_disabled":false,"rental_uris":{"android":"levelo://app?vid=1b13401d-aa15-41a3-910c-54bea85c2055","ios":"levelo://app?vid=1b13401d-aa15-41a3-910c-54bea85c2055"},"vehicle_type_id":"4","last_reported":1724515738,"current_range_meters":24400,"station_id":"ce4bgph2rcd13ifvqc2g","pricing_plan_id":"cebpf4jnsgd1na2vs0mg"},{"bike_id":"4ecc939b-72a7-40c3-8e20-6bffdb27d08a","system_id":"levelo_inurba_marseille","lat":43.29587,"lon":5.36747,"is_reserved":false,"is_disabled":false,"rental_uris":{"android":"levelo://app?vid=4ecc939b-72a7-40c3-8e20-6bffdb27d08a","ios":"levelo://app?vid=4ecc939b-72a7-40c3-8e20-6bffdb27d08a"},"vehicle_type_id":"4","last_reported":1724515738,"current_range_meters":0,"station_id":"ce4bgph2rcd13ifvqc2g","pricing_plan_id":"cebpf4jnsgd1na2vs0mg"},{"bike_id":"b53c7510-b14a-49c4-be64-650d96fe9bcf","system_id":"levelo_inurba_marseille","lat":43.29573,"lon":5.367355,"is_reserved":false,"is_disabled":false,"rental_uris":{"android":"levelo://app?vid=b53c7510-b14a-49c4-be64-650d96fe9bcf","ios":"levelo://app?vid=b53c7510-b14a-49c4-be64-650d96fe9bcf"},"vehicle_type_id":"4","last_reported":1724515738,"current_range_meters":11200,"station_id":"ce4bgph2rcd13ifvqc2g","pricing_plan_id":"cebpf4jnsgd1na2vs0mg"},{"bike_id":"d951b372-fb40-4739-aaf8-295452826d7f","system_id":"levelo_inurba_marseille","lat":43.29573,"lon":5.367355,"is_reserved":false,"is_disabled":false,"rental_uris":{"android":"levelo://app?vid=d951b372-fb40-4739-aaf8-295452826d7f","ios":"levelo://app?vid=d951b372-fb40-4739-aaf8-295452826d7f"},"vehicle_type_id":"4","last_reported":1724515738,"current_range_meters":14800,"station_id":"ce4bgph2rcd13ifvqc2g","pricing_plan_id":"cebpf4jnsgd1na2vs0mg"},{"bike_id":"0f80e4a7-dd24-4bcb-898e-d82ea20cfec9","system_id":"levelo_inurba_marseille","lat":43.2963,"lon":5.36031,"is_reserved":false,"is_disabled":false,"rental_uris":{"android":"levelo://app?vid=0f80e4a7-dd24-4bcb-898e-d82ea20cfec9","ios":"levelo://app?vid=0f80e4a7-dd24-4bcb-898e-d82ea20cfec9"},"vehicle_type_id":"4","last_reported":1724515738,"current_range_meters":3600,"station_id":"","pricing_plan_id":"cebpf4jnsgd1na2vs0mg"},{"bike_id":"ee63f5c2-f6df-46aa-b9b6-29aa4b1a4ab7","system_id":"levelo_inurba_marseille","lat":43.299028,"lon":5.381509,"is_reserved":false,"is_disabled":false,"rental_uris":{"android":"levelo://app?vid=ee63f5c2-f6df-46aa-b9b6-29aa4b1a4ab7","ios":"levelo://app?vid=ee63f5c2-f6df-46aa-b9b6-29aa4b1a4ab7"},"vehicle_type_id":"4","last_reported":1724515738,"current_range_meters":20400,"station_id":"ce4bgj12rcd13ifvqbc0","pricing_plan_id":"cebpf4jnsgd1na2vs0mg"},{"bike_id":"2f747daa-f5a6-411b-b6d6-605bbea6874c","system_id":"levelo_inurba_marseille","lat":43.296921,"lon":5.376579,"is_reserved":false,"is_disabled":false,"rental_uris":{"android":"levelo://app?vid=2f747daa-f5a6-411b-b6d6-605bbea6874c","ios":"levelo://app?vid=2f747daa-f5a6-411b-b6d6-605bbea6874c"},"vehicle_type_id":"4","last_reported":1724515738,"current_range_meters":0,"station_id":"ce4bgkh2rcd13ifvqbl0","pricing_plan_id":"cebpf4jnsgd1na2vs0mg"},{"bike_id":"a5bc2825-e0f2-461a-8e99-23030e0bf1cd","system_id":"levelo_inurba_marseille","lat":43.299028,"lon":5.381509,"is_reserved":false,"is_disabled":false,"rental_uris":{"android":"levelo://app?vid=a5bc2825-e0f2-461a-8e99-23030e0bf1cd","ios":"levelo://app?vid=a5bc2825-e0f2-461a-8e99-23030e0bf1cd"},"vehicle_type_id":"4","last_reported":1724515738,"current_range_meters":28000,"station_id":"ce4bgj12rcd13ifvqbc0","pricing_plan_id":"cebpf4jnsgd1na2vs0mg"},{"bike_id":"e82cd79c-00e8-4e1e-bb59-cc095788745f","system_id":"levelo_inurba_marseille","lat":43.298037,"lon":5.381066,"is_reserved":false,"is_disabled":false,"rental_uris":{"android":"levelo://app?vid=e82cd79c-00e8-4e1e-bb59-cc095788745f","ios":"levelo://app?vid=e82cd79c-00e8-4e1e-bb59-cc095788745f"},"vehicle_type_id":"4","last_reported":1724515738,"current_range_meters":12800,"station_id":"ce4bgip2rcd13ifvqbb0","pricing_plan_id":"cebpf4jnsgd1na2vs0mg"},{"bike_id":"a07d0bfe-2ad9-4e73-8e28-3c28f4dddc36","system_id":"levelo_inurba_marseille","lat":43.298037,"lon":5.381066,"is_reserved":false,"is_disabled":false,"rental_uris":{"android":"levelo://app?vid=a07d0bfe-2ad9-4e73-8e28-3c28f4dddc36","ios":"levelo://app?vid=a07d0bfe-2ad9-4e73-8e28-3c28f4dddc36"},"vehicle_type_id":"4","last_reported":1724515738,"current_range_meters":8400,"station_id":"ce4bgip2rcd13ifvqbb0","pricing_plan_id":"cebpf4jnsgd1na2vs0mg"},{"bike_id":"fd0dc787-f7a3-4026-831c-945fce9c4ad0","system_id":"levelo_inurba_marseille","lat":43.29798,"lon":5.38096,"is_reserved":false,"is_disabled":false,"rental_uris":{"android":"levelo://app?vid=fd0dc787-f7a3-4026-831c-945fce9c4ad0","ios":"levelo://app?vid=fd0dc787-f7a3-4026-831c-945fce9c4ad0"},"vehicle_type_id":"4","last_reported":1724515738,"current_range_meters":5600,"station_id":"ce4bgip2rcd13ifvqbb0","pricing_plan_id":"cebpf4jnsgd1na2vs0mg"},{"bike_id":"4fd54986-b007-4507-8977-423d375f6243","system_id":"levelo_inurba_marseille","lat":43.298037,"lon":5.381066,"is_reserved":false,"is_disabled":false,"rental_uris":{"android":"levelo://app?vid=4fd54986-b007-4507-8977-423d375f6243","ios":"levelo://app?vid=4fd54986-b007-4507-8977-423d375f6243"},"vehicle_type_id":"4","last_reported":1724515738,"current_range_meters":28000,"station_id":"ce4bgip2rcd13ifvqbb0","pricing_plan_id":"cebpf4jnsgd1na2vs0mg"},{"bike_id":"639e3ec2-d2d5-4562-9e60-78a3f8e077a1","system_id":"levelo_inurba_marseille","lat":43.298037,"lon":5.381066,"is_reserved":false,"is_disabled":false,"rental_uris":{"android":"levelo://app?vid=639e3ec2-d2d5-4562-9e60-78a3f8e077a1","ios":"levelo://app?vid=639e3ec2-d2d5-4562-9e60-78a3f8e077a1"},"vehicle_type_id":"4","last_reported":1724515738,"current_range_meters":6400,"station_id":"ce4bgip2rcd13ifvqbb0","pricing_plan_id":"cebpf4jnsgd1na2vs0mg"},{"bike_id":"955091b8-7eae-4bc1-ad3c-94f4c2f0fc73","system_id":"levelo_inurba_marseille","lat":43.304278,"lon":5.388868,"is_reserved":false,"is_disabled":false,"rental_uris":{"android":"levelo://app?vid=955091b8-7eae-4bc1-ad3c-94f4c2f0fc73","ios":"levelo://app?vid=955091b8-7eae-4bc1-ad3c-94f4c2f0fc73"},"vehicle_type_id":"4","last_reported":1724515738,"current_range_meters":6000,"station_id":"ce4bgk12rcd13ifvqbi0","pricing_plan_id":"cebpf4jnsgd1na2vs0mg"},{"bike_id":"f8537930-9b98-4024-a917-2abe76b3e45c","system_id":"levelo_inurba_marseille","lat":43.304274,"lon":5.388873,"is_reserved":false,"is_disabled":false,"rental_uris":{"android":"levelo://app?vid=f8537930-9b98-4024-a917-2abe76b3e45c","ios":"levelo://app?vid=f8537930-9b98-4024-a917-2abe76b3e45c"},"vehicle_type_id":"4","last_reported":1724515738,"current_range_meters":23200,"station_id":"ce4bgk12rcd13ifvqbi0","pricing_plan_id":"cebpf4jnsgd1na2vs0mg"},{"bike_id":"088ac5f7-9ed2-42c4-9685-1d266172c179","system_id":"levelo_inurba_marseille","lat":43.304274,"lon":5.388873,"is_reserved":false,"is_disabled":false,"rental_uris":{"android":"levelo://app?vid=088ac5f7-9ed2-42c4-9685-1d266172c179","ios":"levelo://app?vid=088ac5f7-9ed2-42c4-9685-1d266172c179"},"vehicle_type_id":"4","last_reported":1724515738,"current_range_meters":6000,"station_id":"ce4bgk12rcd13ifvqbi0","pricing_plan_id":"cebpf4jnsgd1na2vs0mg"},{"bike_id":"f6a647ee-e80b-4208-b55d-a223044eb758","system_id":"levelo_inurba_marseille","lat":43.296277,"lon":5.377108,"is_reserved":false,"is_disabled":false,"rental_uris":{"android":"levelo://app?vid=f6a647ee-e80b-4208-b55d-a223044eb758","ios":"levelo://app?vid=f6a647ee-e80b-4208-b55d-a223044eb758"},"vehicle_type_id":"4","last_reported":1724515738,"current_range_meters":0,"station_id":"ce4bgi92rcd13ifvqb90","pricing_plan_id":"cebpf4jnsgd1na2vs0mg"},{"bike_id":"081dc954-003b-4afd-8dcf-9a44b6ea1821","system_id":"levelo_inurba_marseille","lat":43.29784,"lon":5.38093,"is_reserved":false,"is_disabled":false,"rental_uris":{"android":"levelo://app?vid=081dc954-003b-4afd-8dcf-9a44b6ea1821","ios":"levelo://app?vid=081dc954-003b-4afd-8dcf-9a44b6ea1821"},"vehicle_type_id":"4","last_reported":1724515738,"current_range_meters":1200,"station_id":"ce4bgip2rcd13ifvqbb0","pricing_plan_id":"cebpf4jnsgd1na2vs0mg"},{"bike_id":"67b9519c-021d-45e6-ade7-177539f80439","system_id":"levelo_inurba_marseille","lat":43.296277,"lon":5.377108,"is_reserved":false,"is_disabled":false,"rental_uris":{"android":"levelo://app?vid=67b9519c-021d-45e6-ade7-177539f80439","ios":"levelo://app?vid=67b9519c-021d-45e6-ade7-177539f80439"},"vehicle_type_id":"4","last_reported":1724515738,"current_range_meters":23600,"station_id":"ce4bgi92rcd13ifvqb90","pricing_plan_id":"cebpf4jnsgd1na2vs0mg"},{"bike_id":"98361f13-f9d3-472e-b878-72e3f981e031","system_id":"levelo_inurba_marseille","lat":43.299707,"lon":5.384859,"is_reserved":false,"is_disabled":false,"rental_uris":{"android":"levelo://app?vid=98361f13-f9d3-472e-b878-72e3f981e031","ios":"levelo://app?vid=98361f13-f9d3-472e-b878-72e3f981e031"},"vehicle_type_id":"4","last_reported":1724515738,"current_range_meters":28400,"station_id":"ce4bgj92rcd13ifvqbd0","pricing_plan_id":"cebpf4jnsgd1na2vs0mg"},{"bike_id":"d672f8e2-f6e1-4890-aedc-e67b9fea9e6f","system_id":"levelo_inurba_marseille","lat":43.29981,"lon":5.38485,"is_reserved":false,"is_disabled":false,"rental_uris":{"android":"levelo://app?vid=d672f8e2-f6e1-4890-aedc-e67b9fea9e6f","ios":"levelo://app?vid=d672f8e2-f6e1-4890-aedc-e67b9fea9e6f"},"vehicle_type_id":"4","last_reported":1724515738,"current_range_meters":0,"station_id":"ce4bgj92rcd13ifvqbd0","pricing_plan_id":"cebpf4jnsgd1na2vs0mg"},{"bike_id":"2c487b04-319f-458b-bf67-69f305d70c55","system_id":"levelo_inurba_marseille","lat":43.301396,"lon":5.387812,"is_reserved":false,"is_disabled":false,"rental_uris":{"android":"levelo://app?vid=2c487b04-319f-458b-bf67-69f305d70c55","ios":"levelo://app?vid=2c487b04-319f-458b-bf67-69f305d70c55"},"vehicle_type_id":"4","last_reported":1724515738,"current_range_meters":4400,"station_id":"ce4bghh2rcd13ifvqb60","pricing_plan_id":"cebpf4jnsgd1na2vs0mg"},{"bike_id":"ab1366c0-2e04-46f9-8260-0675bf0cb3aa","system_id":"levelo_inurba_marseille","lat":43.301396,"lon":5.387812,"is_reserved":false,"is_disabled":false,"rental_uris":{"android":"levelo://app?vid=ab1366c0-2e04-46f9-8260-0675bf0cb3aa","ios":"levelo://app?vid=ab1366c0-2e04-46f9-8260-0675bf0cb3aa"},"vehicle_type_id":"4","last_reported":1724515738,"current_range_meters":0,"station_id":"ce4bghh2rcd13ifvqb60","pricing_plan_id":"cebpf4jnsgd1na2vs0mg"},{"bike_id":"75bc9a4e-b36a-4ca3-9de9-f16fef10a7b4","system_id":"levelo_inurba_marseille","lat":43.29601,"lon":5.381084,"is_reserved":false,"is_disabled":false,"rental_uris":{"android":"levelo://app?vid=75bc9a4e-b36a-4ca3-9de9-f16fef10a7b4","ios":"levelo://app?vid=75bc9a4e-b36a-4ca3-9de9-f16fef10a7b4"},"vehicle_type_id":"4","last_reported":1724515738,"current_range_meters":0,"station_id":"ce4bgl12rcd13ifvqbo0","pricing_plan_id":"cebpf4jnsgd1na2vs0mg"},{"bike_id":"26c47aaa-c26d-4f13-a83a-1413d2b97b26","system_id":"levelo_inurba_marseille","lat":43.293249,"lon":5.371578,"is_reserved":false,"is_disabled":false,"rental_uris":{"android":"levelo://app?vid=26c47aaa-c26d-4f13-a83a-1413d2b97b26","ios":"levelo://app?vid=26c47aaa-c26d-4f13-a83a-1413d2b97b26"},"vehicle_type_id":"4","last_reported":1724515738,"current_range_meters":0,"station_id":"ce4bgh92rcd13ifvqb40","pricing_plan_id":"cebpf4jnsgd1na2vs0mg"},{"bike_id":"488591de-7fb8-4ddd-a398-91cc6804e50b","system_id":"levelo_inurba_marseille","lat":43.292749,"lon":5.368402,"is_reserved":false,"is_disabled":false,"rental_uris":{"android":"levelo://app?vid=488591de-7fb8-4ddd-a398-91cc6804e50b","ios":"levelo://app?vid=488591de-7fb8-4ddd-a398-91cc6804e50b"},"vehicle_type_id":"4","last_reported":1724515738,"current_range_meters":28800,"station_id":"ce4bhbp2rcd13ifvqesg","pricing_plan_id":"cebpf4jnsgd1na2vs0mg"},{"bike_id":"dafafe1e-c138-4cc9-a6c4-2e3f71b50594","system_id":"levelo_inurba_marseille","lat":43.29271,"lon":5.36844,"is_reserved":false,"is_disabled":false,"rental_uris":{"android":"levelo://app?vid=dafafe1e-c138-4cc9-a6c4-2e3f71b50594","ios":"levelo://app?vid=dafafe1e-c138-4cc9-a6c4-2e3f71b50594"},"vehicle_type_id":"4","last_reported":1724515738,"current_range_meters":24400,"station_id":"ce4bhbp2rcd13ifvqesg","pricing_plan_id":"cebpf4jnsgd1na2vs0mg"},{"bike_id":"aadb7a59-0c56-49d7-9194-af352e668c8c","system_id":"levelo_inurba_marseille","lat":43.300241,"lon":5.388913,"is_reserved":false,"is_disabled":false,"rental_uris":{"android":"levelo://app?vid=aadb7a59-0c56-49d7-9194-af352e668c8c","ios":"levelo://app?vid=aadb7a59-0c56-49d7-9194-af352e668c8c"},"vehicle_type_id":"4","last_reported":1724515738,"current_range_meters":6000,"station_id":"","pricing_plan_id":"cebpf4jnsgd1na2vs0mg"},{"bike_id":"1cb787ef-6f8c-4113-8789-9e7b945135f4","system_id":"levelo_inurba_marseille","lat":43.29304,"lon":5.37459,"is_reserved":false,"is_disabled":false,"rental_uris":{"android":"levelo://app?vid=1cb787ef-6f8c-4113-8789-9e7b945135f4","ios":"levelo://app?vid=1cb787ef-6f8c-4113-8789-9e7b945135f4"},"vehicle_type_id":"4","last_reported":1724515738,"current_range_meters":16000,"station_id":"ce4bgi12rcd13ifvqb70","pricing_plan_id":"cebpf4jnsgd1na2vs0mg"},{"bike_id":"d638cf86-fbef-4d4c-9241-70b5e43bbb72","system_id":"levelo_inurba_marseille","lat":43.293009,"lon":5.374584,"is_reserved":false,"is_disabled":false,"rental_uris":{"android":"levelo://app?vid=d638cf86-fbef-4d4c-9241-70b5e43bbb72","ios":"levelo://app?vid=d638cf86-fbef-4d4c-9241-70b5e43bbb72"},"vehicle_type_id":"4","last_reported":1724515738,"current_range_meters":12000,"station_id":"ce4bgi12rcd13ifvqb70","pricing_plan_id":"cebpf4jnsgd1na2vs0mg"},{"bike_id":"5c44c8c7-a823-4678-a782-42cdca058640","system_id":"levelo_inurba_marseille","lat":43.293009,"lon":5.374584,"is_reserved":false,"is_disabled":false,"rental_uris":{"android":"levelo://app?vid=5c44c8c7-a823-4678-a782-42cdca058640","ios":"levelo://app?vid=5c44c8c7-a823-4678-a782-42cdca058640"},"vehicle_type_id":"4","last_reported":1724515738,"current_range_meters":29200,"station_id":"ce4bgi12rcd13ifvqb70","pricing_plan_id":"cebpf4jnsgd1na2vs0mg"},{"bike_id":"2b61f66d-f335-4037-9b8d-c6def187e203","system_id":"levelo_inurba_marseille","lat":43.293009,"lon":5.374584,"is_reserved":false,"is_disabled":false,"rental_uris":{"android":"levelo://app?vid=2b61f66d-f335-4037-9b8d-c6def187e203","ios":"levelo://app?vid=2b61f66d-f335-4037-9b8d-c6def187e203"},"vehicle_type_id":"4","last_reported":1724515738,"current_range_meters":25600,"station_id":"ce4bgi12rcd13ifvqb70","pricing_plan_id":"cebpf4jnsgd1na2vs0mg"},{"bike_id":"cbb21e9b-f425-4ba9-8ebd-39307b68b26f","system_id":"levelo_inurba_marseille","lat":43.293009,"lon":5.374584,"is_reserved":false,"is_disabled":false,"rental_uris":{"android":"levelo://app?vid=cbb21e9b-f425-4ba9-8ebd-39307b68b26f","ios":"levelo://app?vid=cbb21e9b-f425-4ba9-8ebd-39307b68b26f"},"vehicle_type_id":"4","last_reported":1724515738,"current_range_meters":14000,"station_id":"ce4bgi12rcd13ifvqb70","pricing_plan_id":"cebpf4jnsgd1na2vs0mg"},{"bike_id":"1036ec2d-521e-4467-a625-41c92c0f378c","system_id":"levelo_inurba_marseille","lat":43.293009,"lon":5.374584,"is_reserved":false,"is_disabled":false,"rental_uris":{"android":"levelo://app?vid=1036ec2d-521e-4467-a625-41c92c0f378c","ios":"levelo://app?vid=1036ec2d-521e-4467-a625-41c92c0f378c"},"vehicle_type_id":"4","last_reported":1724515738,"current_range_meters":13600,"station_id":"ce4bgi12rcd13ifvqb70","pricing_plan_id":"cebpf4jnsgd1na2vs0mg"},{"bike_id":"005560f9-7efa-452e-8803-215c978c518c","system_id":"levelo_inurba_marseille","lat":43.303002,"lon":5.392142,"is_reserved":false,"is_disabled":false,"rental_uris":{"android":"levelo://app?vid=005560f9-7efa-452e-8803-215c978c518c","ios":"levelo://app?vid=005560f9-7efa-452e-8803-215c978c518c"},"vehicle_type_id":"4","last_reported":1724515738,"current_range_meters":25200,"station_id":"ce4bgkh2rcd13ifvqbk0","pricing_plan_id":"cebpf4jnsgd1na2vs0mg"},{"bike_id":"4042b399-922a-4afc-9012-42dc27dc419d","system_id":"levelo_inurba_marseille","lat":43.30301,"lon":5.39207,"is_reserved":false,"is_disabled":false,"rental_uris":{"android":"levelo://app?vid=4042b399-922a-4afc-9012-42dc27dc419d","ios":"levelo://app?vid=4042b399-922a-4afc-9012-42dc27dc419d"},"vehicle_type_id":"4","last_reported":1724515738,"current_range_meters":18000,"station_id":"ce4bgkh2rcd13ifvqbk0","pricing_plan_id":"cebpf4jnsgd1na2vs0mg"},{"bike_id":"fbc2cd5a-a965-4d1a-9756-682d45751227","system_id":"levelo_inurba_marseille","lat":43.29236,"lon":5.36049,"is_reserved":false,"is_disabled":false,"rental_uris":{"android":"levelo://app?vid=fbc2cd5a-a965-4d1a-9756-682d45751227","ios":"levelo://app?vid=fbc2cd5a-a965-4d1a-9756-682d45751227"},"vehicle_type_id":"4","last_reported":1724515738,"current_range_meters":12000,"station_id":"ce4bhbh2rcd13ifvqeqg","pricing_plan_id":"cebpf4jnsgd1na2vs0mg"},{"bike_id":"f5d525ce-9752-44d6-919e-8439b4945176","system_id":"levelo_inurba_marseille","lat":43.292311,"lon":5.360731,"is_reserved":false,"is_disabled":false,"rental_uris":{"android":"levelo://app?vid=f5d525ce-9752-44d6-919e-8439b4945176","ios":"levelo://app?vid=f5d525ce-9752-44d6-919e-8439b4945176"},"vehicle_type_id":"4","last_reported":1724515738,"current_range_meters":27200,"station_id":"ce4bhbh2rcd13ifvqeqg","pricing_plan_id":"cebpf4jnsgd1na2vs0mg"},{"bike_id":"8c6f218a-ff27-4443-9316-c662483caa76","system_id":"levelo_inurba_marseille","lat":43.30085,"lon":5.390856,"is_reserved":false,"is_disabled":false,"rental_uris":{"android":"levelo://app?vid=8c6f218a-ff27-4443-9316-c662483caa76","ios":"levelo://app?vid=8c6f218a-ff27-4443-9316-c662483caa76"},"vehicle_type_id":"4","last_reported":1724515738,"current_range_meters":3600,"station_id":"ce4bh192rcd13ifvqdb0","pricing_plan_id":"cebpf4jnsgd1na2vs0mg"},{"bike_id":"1d7a4288-1c81-491c-b0af-2be532a6ce90","system_id":"levelo_inurba_marseille","lat":43.2923,"lon":5.3606,"is_reserved":false,"is_disabled":false,"rental_uris":{"android":"levelo://app?vid=1d7a4288-1c81-491c-b0af-2be532a6ce90","ios":"levelo://app?vid=1d7a4288-1c81-491c-b0af-2be532a6ce90"},"vehicle_type_id":"4","last_reported":1724515738,"current_range_meters":17600,"station_id":"ce4bhbh2rcd13ifvqeqg","pricing_plan_id":"cebpf4jnsgd1na2vs0mg"},{"bike_id":"f6549705-34d9-493e-a9f5-37b414b8c9be","system_id":"levelo_inurba_marseille","lat":43.300852,"lon":5.390859,"is_reserved":false,"is_disabled":false,"rental_uris":{"android":"levelo://app?vid=f6549705-34d9-493e-a9f5-37b414b8c9be","ios":"levelo://app?vid=f6549705-34d9-493e-a9f5-37b414b8c9be"},"vehicle_type_id":"4","last_reported":1724515738,"current_range_meters":12800,"station_id":"ce4bh192rcd13ifvqdb0","pricing_plan_id":"cebpf4jnsgd1na2vs0mg"},{"bike_id":"14576c07-4e41-47a9-b7a1-ebdf01d5d07c","system_id":"levelo_inurba_marseille","lat":43.2923,"lon":5.36059,"is_reserved":false,"is_disabled":false,"rental_uris":{"android":"levelo://app?vid=14576c07-4e41-47a9-b7a1-ebdf01d5d07c","ios":"levelo://app?vid=14576c07-4e41-47a9-b7a1-ebdf01d5d07c"},"vehicle_type_id":"4","last_reported":1724515738,"current_range_meters":13200,"station_id":"ce4bhbh2rcd13ifvqeqg","pricing_plan_id":"cebpf4jnsgd1na2vs0mg"},{"bike_id":"14b03555-2dda-4213-a0ac-fb30afbf7806","system_id":"levelo_inurba_marseille","lat":43.29227,"lon":5.36062,"is_reserved":false,"is_disabled":false,"rental_uris":{"android":"levelo://app?vid=14b03555-2dda-4213-a0ac-fb30afbf7806","ios":"levelo://app?vid=14b03555-2dda-4213-a0ac-fb30afbf7806"},"vehicle_type_id":"4","last_reported":1724515738,"current_range_meters":29200,"station_id":"ce4bhbh2rcd13ifvqeqg","pricing_plan_id":"cebpf4jnsgd1na2vs0mg"},{"bike_id":"48fd9fb6-c57a-46dd-8a8a-f47d6fa86942","system_id":"levelo_inurba_marseille","lat":43.292311,"lon":5.360731,"is_reserved":false,"is_disabled":false,"rental_uris":{"android":"levelo://app?vid=48fd9fb6-c57a-46dd-8a8a-f47d6fa86942","ios":"levelo://app?vid=48fd9fb6-c57a-46dd-8a8a-f47d6fa86942"},"vehicle_type_id":"4","last_reported":1724515738,"current_range_meters":19200,"station_id":"ce4bhbh2rcd13ifvqeqg","pricing_plan_id":"cebpf4jnsgd1na2vs0mg"},{"bike_id":"0b9bbaa6-bb87-4640-8a0f-c9821574537f","system_id":"levelo_inurba_marseille","lat":43.292311,"lon":5.360731,"is_reserved":false,"is_disabled":false,"rental_uris":{"android":"levelo://app?vid=0b9bbaa6-bb87-4640-8a0f-c9821574537f","ios":"levelo://app?vid=0b9bbaa6-bb87-4640-8a0f-c9821574537f"},"vehicle_type_id":"4","last_reported":1724515738,"current_range_meters":4800,"station_id":"ce4bhbh2rcd13ifvqeqg","pricing_plan_id":"cebpf4jnsgd1na2vs0mg"},{"bike_id":"e2e728c7-e6d9-42a1-bc78-dbf3fff94c34","system_id":"levelo_inurba_marseille","lat":43.29226,"lon":5.36052,"is_reserved":false,"is_disabled":false,"rental_uris":{"android":"levelo://app?vid=e2e728c7-e6d9-42a1-bc78-dbf3fff94c34","ios":"levelo://app?vid=e2e728c7-e6d9-42a1-bc78-dbf3fff94c34"},"vehicle_type_id":"4","last_reported":1724515738,"current_range_meters":20800,"station_id":"ce4bhbh2rcd13ifvqeqg","pricing_plan_id":"cebpf4jnsgd1na2vs0mg"},{"bike_id":"f525ea06-7991-47f4-8b91-a3dd7d89df04","system_id":"levelo_inurba_marseille","lat":43.29223,"lon":5.36053,"is_reserved":false,"is_disabled":false,"rental_uris":{"android":"levelo://app?vid=f525ea06-7991-47f4-8b91-a3dd7d89df04","ios":"levelo://app?vid=f525ea06-7991-47f4-8b91-a3dd7d89df04"},"vehicle_type_id":"4","last_reported":1724515738,"current_range_meters":1200,"station_id":"ce4bhbh2rcd13ifvqeqg","pricing_plan_id":"cebpf4jnsgd1na2vs0mg"},{"bike_id":"16efb021-d71e-416c-9d62-b436ed1230e4","system_id":"levelo_inurba_marseille","lat":43.292311,"lon":5.360731,"is_reserved":false,"is_disabled":false,"rental_uris":{"android":"levelo://app?vid=16efb021-d71e-416c-9d62-b436ed1230e4","ios":"levelo://app?vid=16efb021-d71e-416c-9d62-b436ed1230e4"},"vehicle_type_id":"4","last_reported":1724515738,"current_range_meters":19200,"station_id":"ce4bhbh2rcd13ifvqeqg","pricing_plan_id":"cebpf4jnsgd1na2vs0mg"},{"bike_id":"cc24c95c-5e5c-4b0d-8964-ed84b7d08391","system_id":"levelo_inurba_marseille","lat":43.292311,"lon":5.360731,"is_reserved":false,"is_disabled":false,"rental_uris":{"android":"levelo://app?vid=cc24c95c-5e5c-4b0d-8964-ed84b7d08391","ios":"levelo://app?vid=cc24c95c-5e5c-4b0d-8964-ed84b7d08391"},"vehicle_type_id":"4","last_reported":1724515738,"current_range_meters":23600,"station_id":"ce4bhbh2rcd13ifvqeqg","pricing_plan_id":"cebpf4jnsgd1na2vs0mg"},{"bike_id":"b20c7712-b1b8-4f3b-bd9b-c568718eb72e","system_id":"levelo_inurba_marseille","lat":43.292311,"lon":5.360731,"is_reserved":false,"is_disabled":false,"rental_uris":{"android":"levelo://app?vid=b20c7712-b1b8-4f3b-bd9b-c568718eb72e","ios":"levelo://app?vid=b20c7712-b1b8-4f3b-bd9b-c568718eb72e"},"vehicle_type_id":"4","last_reported":1724515738,"current_range_meters":28000,"station_id":"ce4bhbh2rcd13ifvqeqg","pricing_plan_id":"cebpf4jnsgd1na2vs0mg"},{"bike_id":"f0e51bbd-4d53-46c4-a399-41739f206ada","system_id":"levelo_inurba_marseille","lat":43.292311,"lon":5.360731,"is_reserved":false,"is_disabled":false,"rental_uris":{"android":"levelo://app?vid=f0e51bbd-4d53-46c4-a399-41739f206ada","ios":"levelo://app?vid=f0e51bbd-4d53-46c4-a399-41739f206ada"},"vehicle_type_id":"4","last_reported":1724515738,"current_range_meters":14000,"station_id":"ce4bhbh2rcd13ifvqeqg","pricing_plan_id":"cebpf4jnsgd1na2vs0mg"},{"bike_id":"2e03a3ee-d3c3-4bdd-8f00-facaa8b30eee","system_id":"levelo_inurba_marseille","lat":43.2922,"lon":5.36054,"is_reserved":false,"is_disabled":false,"rental_uris":{"android":"levelo://app?vid=2e03a3ee-d3c3-4bdd-8f00-facaa8b30eee","ios":"levelo://app?vid=2e03a3ee-d3c3-4bdd-8f00-facaa8b30eee"},"vehicle_type_id":"4","last_reported":1724515738,"current_range_meters":16400,"station_id":"ce4bhbh2rcd13ifvqeqg","pricing_plan_id":"cebpf4jnsgd1na2vs0mg"},{"bike_id":"5cdfb424-f3ba-4ed4-8dd1-f577a6acdbdb","system_id":"levelo_inurba_marseille","lat":43.302992,"lon":5.392136,"is_reserved":false,"is_disabled":false,"rental_uris":{"android":"levelo://app?vid=5cdfb424-f3ba-4ed4-8dd1-f577a6acdbdb","ios":"levelo://app?vid=5cdfb424-f3ba-4ed4-8dd1-f577a6acdbdb"},"vehicle_type_id":"4","last_reported":1724515738,"current_range_meters":1200,"station_id":"ce4bgkh2rcd13ifvqbk0","pricing_plan_id":"cebpf4jnsgd1na2vs0mg"},{"bike_id":"494af154-e7f9-455d-8899-4d35f1840e20","system_id":"levelo_inurba_marseille","lat":43.292311,"lon":5.360731,"is_reserved":false,"is_disabled":false,"rental_uris":{"android":"levelo://app?vid=494af154-e7f9-455d-8899-4d35f1840e20","ios":"levelo://app?vid=494af154-e7f9-455d-8899-4d35f1840e20"},"vehicle_type_id":"4","last_reported":1724515738,"current_range_meters":4400,"station_id":"ce4bhbh2rcd13ifvqeqg","pricing_plan_id":"cebpf4jnsgd1na2vs0mg"},{"bike_id":"b0769f0c-6802-4525-9ccf-2b1b261ca58b","system_id":"levelo_inurba_marseille","lat":43.292311,"lon":5.360731,"is_reserved":false,"is_disabled":false,"rental_uris":{"android":"levelo://app?vid=b0769f0c-6802-4525-9ccf-2b1b261ca58b","ios":"levelo://app?vid=b0769f0c-6802-4525-9ccf-2b1b261ca58b"},"vehicle_type_id":"4","last_reported":1724515738,"current_range_meters":30000,"station_id":"ce4bhbh2rcd13ifvqeqg","pricing_plan_id":"cebpf4jnsgd1na2vs0mg"},{"bike_id":"e9919a79-8041-4346-9b42-59dc322dd97f","system_id":"levelo_inurba_marseille","lat":43.292311,"lon":5.360731,"is_reserved":false,"is_disabled":false,"rental_uris":{"android":"levelo://app?vid=e9919a79-8041-4346-9b42-59dc322dd97f","ios":"levelo://app?vid=e9919a79-8041-4346-9b42-59dc322dd97f"},"vehicle_type_id":"4","last_reported":1724515738,"current_range_meters":21600,"station_id":"ce4bhbh2rcd13ifvqeqg","pricing_plan_id":"cebpf4jnsgd1na2vs0mg"},{"bike_id":"ce49daa7-87e4-4749-85e7-6dab91519271","system_id":"levelo_inurba_marseille","lat":43.292311,"lon":5.360731,"is_reserved":false,"is_disabled":false,"rental_uris":{"android":"levelo://app?vid=ce49daa7-87e4-4749-85e7-6dab91519271","ios":"levelo://app?vid=ce49daa7-87e4-4749-85e7-6dab91519271"},"vehicle_type_id":"4","last_reported":1724515738,"current_range_meters":26000,"station_id":"ce4bhbh2rcd13ifvqeqg","pricing_plan_id":"cebpf4jnsgd1na2vs0mg"},{"bike_id":"2d5a332a-1635-424a-8f42-9a6a4877f647","system_id":"levelo_inurba_marseille","lat":43.292005,"lon":5.357875,"is_reserved":false,"is_disabled":false,"rental_uris":{"android":"levelo://app?vid=2d5a332a-1635-424a-8f42-9a6a4877f647","ios":"levelo://app?vid=2d5a332a-1635-424a-8f42-9a6a4877f647"},"vehicle_type_id":"4","last_reported":1724515738,"current_range_meters":18400,"station_id":"ce4bhb12rcd13ifvqel0","pricing_plan_id":"cebpf4jnsgd1na2vs0mg"},{"bike_id":"ee49e0cd-284c-4b86-b984-28ff9ee1af6b","system_id":"levelo_inurba_marseille","lat":43.298764,"lon":5.388973,"is_reserved":false,"is_disabled":false,"rental_uris":{"android":"levelo://app?vid=ee49e0cd-284c-4b86-b984-28ff9ee1af6b","ios":"levelo://app?vid=ee49e0cd-284c-4b86-b984-28ff9ee1af6b"},"vehicle_type_id":"4","last_reported":1724515738,"current_range_meters":10400,"station_id":"ce4bh392rcd13ifvqdl0","pricing_plan_id":"cebpf4jnsgd1na2vs0mg"},{"bike_id":"5126b17f-76df-4c9d-835f-8e6aec70b469","system_id":"levelo_inurba_marseille","lat":43.298764,"lon":5.388973,"is_reserved":false,"is_disabled":false,"rental_uris":{"android":"levelo://app?vid=5126b17f-76df-4c9d-835f-8e6aec70b469","ios":"levelo://app?vid=5126b17f-76df-4c9d-835f-8e6aec70b469"},"vehicle_type_id":"4","last_reported":1724515738,"current_range_meters":0,"station_id":"ce4bh392rcd13ifvqdl0","pricing_plan_id":"cebpf4jnsgd1na2vs0mg"},{"bike_id":"efd282af-d633-499f-a3bd-ea1844aa0e78","system_id":"levelo_inurba_marseille","lat":43.292005,"lon":5.357875,"is_reserved":false,"is_disabled":false,"rental_uris":{"android":"levelo://app?vid=efd282af-d633-499f-a3bd-ea1844aa0e78","ios":"levelo://app?vid=efd282af-d633-499f-a3bd-ea1844aa0e78"},"vehicle_type_id":"4","last_reported":1724515738,"current_range_meters":30400,"station_id":"ce4bhb12rcd13ifvqel0","pricing_plan_id":"cebpf4jnsgd1na2vs0mg"},{"bike_id":"944913e5-7ff4-42a2-bdb9-59228011f6f2","system_id":"levelo_inurba_marseille","lat":43.292005,"lon":5.357875,"is_reserved":false,"is_disabled":false,"rental_uris":{"android":"levelo://app?vid=944913e5-7ff4-42a2-bdb9-59228011f6f2","ios":"levelo://app?vid=944913e5-7ff4-42a2-bdb9-59228011f6f2"},"vehicle_type_id":"4","last_reported":1724515738,"current_range_meters":2800,"station_id":"ce4bhb12rcd13ifvqel0","pricing_plan_id":"cebpf4jnsgd1na2vs0mg"},{"bike_id":"b3b91602-65ea-4150-9cc4-a1e4fc3116df","system_id":"levelo_inurba_marseille","lat":43.292005,"lon":5.357875,"is_reserved":false,"is_disabled":false,"rental_uris":{"android":"levelo://app?vid=b3b91602-65ea-4150-9cc4-a1e4fc3116df","ios":"levelo://app?vid=b3b91602-65ea-4150-9cc4-a1e4fc3116df"},"vehicle_type_id":"4","last_reported":1724515738,"current_range_meters":25600,"station_id":"ce4bhb12rcd13ifvqel0","pricing_plan_id":"cebpf4jnsgd1na2vs0mg"},{"bike_id":"2003fea7-79e2-42ed-888c-aaac84f5056e","system_id":"levelo_inurba_marseille","lat":43.292005,"lon":5.357875,"is_reserved":false,"is_disabled":false,"rental_uris":{"android":"levelo://app?vid=2003fea7-79e2-42ed-888c-aaac84f5056e","ios":"levelo://app?vid=2003fea7-79e2-42ed-888c-aaac84f5056e"},"vehicle_type_id":"4","last_reported":1724515738,"current_range_meters":29200,"station_id":"ce4bhb12rcd13ifvqel0","pricing_plan_id":"cebpf4jnsgd1na2vs0mg"},{"bike_id":"7ea37a9f-d9ba-4047-9476-82fb87cedea0","system_id":"levelo_inurba_marseille","lat":43.29196,"lon":5.35793,"is_reserved":false,"is_disabled":false,"rental_uris":{"android":"levelo://app?vid=7ea37a9f-d9ba-4047-9476-82fb87cedea0","ios":"levelo://app?vid=7ea37a9f-d9ba-4047-9476-82fb87cedea0"},"vehicle_type_id":"4","last_reported":1724515738,"current_range_meters":23600,"station_id":"ce4bhb12rcd13ifvqel0","pricing_plan_id":"cebpf4jnsgd1na2vs0mg"},{"bike_id":"f55e1397-6b7c-430f-a918-89811db7dd32","system_id":"levelo_inurba_marseille","lat":43.292005,"lon":5.357875,"is_reserved":false,"is_disabled":false,"rental_uris":{"android":"levelo://app?vid=f55e1397-6b7c-430f-a918-89811db7dd32","ios":"levelo://app?vid=f55e1397-6b7c-430f-a918-89811db7dd32"},"vehicle_type_id":"4","last_reported":1724515738,"current_range_meters":30000,"station_id":"ce4bhb12rcd13ifvqel0","pricing_plan_id":"cebpf4jnsgd1na2vs0mg"},{"bike_id":"c08a7d4e-7a00-4a10-bb7b-1c1d8e0e5435","system_id":"levelo_inurba_marseille","lat":43.292005,"lon":5.357875,"is_reserved":false,"is_disabled":false,"rental_uris":{"android":"levelo://app?vid=c08a7d4e-7a00-4a10-bb7b-1c1d8e0e5435","ios":"levelo://app?vid=c08a7d4e-7a00-4a10-bb7b-1c1d8e0e5435"},"vehicle_type_id":"4","last_reported":1724515738,"current_range_meters":18800,"station_id":"ce4bhb12rcd13ifvqel0","pricing_plan_id":"cebpf4jnsgd1na2vs0mg"},{"bike_id":"253bab22-96c5-459f-a79f-98a8ff7cd5b5","system_id":"levelo_inurba_marseille","lat":43.292005,"lon":5.357875,"is_reserved":false,"is_disabled":false,"rental_uris":{"android":"levelo://app?vid=253bab22-96c5-459f-a79f-98a8ff7cd5b5","ios":"levelo://app?vid=253bab22-96c5-459f-a79f-98a8ff7cd5b5"},"vehicle_type_id":"4","last_reported":1724515738,"current_range_meters":20800,"station_id":"ce4bhb12rcd13ifvqel0","pricing_plan_id":"cebpf4jnsgd1na2vs0mg"},{"bike_id":"fba3818e-6a8d-4006-90cb-5d1926384621","system_id":"levelo_inurba_marseille","lat":43.292005,"lon":5.357875,"is_reserved":false,"is_disabled":false,"rental_uris":{"android":"levelo://app?vid=fba3818e-6a8d-4006-90cb-5d1926384621","ios":"levelo://app?vid=fba3818e-6a8d-4006-90cb-5d1926384621"},"vehicle_type_id":"4","last_reported":1724515738,"current_range_meters":31600,"station_id":"ce4bhb12rcd13ifvqel0","pricing_plan_id":"cebpf4jnsgd1na2vs0mg"},{"bike_id":"2c1e18b2-9dfc-449e-b318-60599fec20b2","system_id":"levelo_inurba_marseille","lat":43.2919,"lon":5.35792,"is_reserved":false,"is_disabled":false,"rental_uris":{"android":"levelo://app?vid=2c1e18b2-9dfc-449e-b318-60599fec20b2","ios":"levelo://app?vid=2c1e18b2-9dfc-449e-b318-60599fec20b2"},"vehicle_type_id":"4","last_reported":1724515738,"current_range_meters":0,"station_id":"ce4bhb12rcd13ifvqel0","pricing_plan_id":"cebpf4jnsgd1na2vs0mg"},{"bike_id":"aa1a102c-4171-4c31-9c63-db1d79a61dde","system_id":"levelo_inurba_marseille","lat":43.29186,"lon":5.35794,"is_reserved":false,"is_disabled":false,"rental_uris":{"android":"levelo://app?vid=aa1a102c-4171-4c31-9c63-db1d79a61dde","ios":"levelo://app?vid=aa1a102c-4171-4c31-9c63-db1d79a61dde"},"vehicle_type_id":"4","last_reported":1724515738,"current_range_meters":30400,"station_id":"ce4bhb12rcd13ifvqel0","pricing_plan_id":"cebpf4jnsgd1na2vs0mg"},{"bike_id":"83b8da41-36eb-4ed2-9717-d3669b20c2fb","system_id":"levelo_inurba_marseille","lat":43.29538,"lon":5.38536,"is_reserved":false,"is_disabled":false,"rental_uris":{"android":"levelo://app?vid=83b8da41-36eb-4ed2-9717-d3669b20c2fb","ios":"levelo://app?vid=83b8da41-36eb-4ed2-9717-d3669b20c2fb"},"vehicle_type_id":"4","last_reported":1724515738,"current_range_meters":3600,"station_id":"ce4bgih2rcd13ifvqba0","pricing_plan_id":"cebpf4jnsgd1na2vs0mg"},{"bike_id":"a2e49e18-e501-43d1-bbd8-c01a42971786","system_id":"levelo_inurba_marseille","lat":43.2954,"lon":5.38544,"is_reserved":false,"is_disabled":false,"rental_uris":{"android":"levelo://app?vid=a2e49e18-e501-43d1-bbd8-c01a42971786","ios":"levelo://app?vid=a2e49e18-e501-43d1-bbd8-c01a42971786"},"vehicle_type_id":"4","last_reported":1724515738,"current_range_meters":0,"station_id":"ce4bgih2rcd13ifvqba0","pricing_plan_id":"cebpf4jnsgd1na2vs0mg"},{"bike_id":"b664602d-c0e0-47de-9c1e-31c78edf361b","system_id":"levelo_inurba_marseille","lat":43.290779,"lon":5.371482,"is_reserved":false,"is_disabled":false,"rental_uris":{"android":"levelo://app?vid=b664602d-c0e0-47de-9c1e-31c78edf361b","ios":"levelo://app?vid=b664602d-c0e0-47de-9c1e-31c78edf361b"},"vehicle_type_id":"4","last_reported":1724515738,"current_range_meters":5600,"station_id":"ce4bh5p2rcd13ifvqe4g","pricing_plan_id":"cebpf4jnsgd1na2vs0mg"},{"bike_id":"77ba4754-8d9f-4d00-8501-ffeb97fdebd8","system_id":"levelo_inurba_marseille","lat":43.29074,"lon":5.37162,"is_reserved":false,"is_disabled":false,"rental_uris":{"android":"levelo://app?vid=77ba4754-8d9f-4d00-8501-ffeb97fdebd8","ios":"levelo://app?vid=77ba4754-8d9f-4d00-8501-ffeb97fdebd8"},"vehicle_type_id":"4","last_reported":1724515738,"current_range_meters":0,"station_id":"ce4bh5p2rcd13ifvqe4g","pricing_plan_id":"cebpf4jnsgd1na2vs0mg"},{"bike_id":"caa1bd26-6333-4ecd-a59e-94a59d4d4fe4","system_id":"levelo_inurba_marseille","lat":43.290779,"lon":5.371482,"is_reserved":false,"is_disabled":false,"rental_uris":{"android":"levelo://app?vid=caa1bd26-6333-4ecd-a59e-94a59d4d4fe4","ios":"levelo://app?vid=caa1bd26-6333-4ecd-a59e-94a59d4d4fe4"},"vehicle_type_id":"4","last_reported":1724515738,"current_range_meters":30000,"station_id":"ce4bh5p2rcd13ifvqe4g","pricing_plan_id":"cebpf4jnsgd1na2vs0mg"},{"bike_id":"8a41513e-e620-4ffb-925a-1f5863c25fa7","system_id":"levelo_inurba_marseille","lat":43.290779,"lon":5.371482,"is_reserved":false,"is_disabled":false,"rental_uris":{"android":"levelo://app?vid=8a41513e-e620-4ffb-925a-1f5863c25fa7","ios":"levelo://app?vid=8a41513e-e620-4ffb-925a-1f5863c25fa7"},"vehicle_type_id":"4","last_reported":1724515738,"current_range_meters":31200,"station_id":"ce4bh5p2rcd13ifvqe4g","pricing_plan_id":"cebpf4jnsgd1na2vs0mg"},{"bike_id":"0e0e4104-006b-4d05-ba4f-155726901952","system_id":"levelo_inurba_marseille","lat":43.29059,"lon":5.37162,"is_reserved":false,"is_disabled":false,"rental_uris":{"android":"levelo://app?vid=0e0e4104-006b-4d05-ba4f-155726901952","ios":"levelo://app?vid=0e0e4104-006b-4d05-ba4f-155726901952"},"vehicle_type_id":"4","last_reported":1724515738,"current_range_meters":12400,"station_id":"ce4bh5p2rcd13ifvqe4g","pricing_plan_id":"cebpf4jnsgd1na2vs0mg"},{"bike_id":"0251c342-d95a-49cd-900e-e5671a65315e","system_id":"levelo_inurba_marseille","lat":43.31128,"lon":5.398126,"is_reserved":false,"is_disabled":false,"rental_uris":{"android":"levelo://app?vid=0251c342-d95a-49cd-900e-e5671a65315e","ios":"levelo://app?vid=0251c342-d95a-49cd-900e-e5671a65315e"},"vehicle_type_id":"4","last_reported":1724515738,"current_range_meters":17600,"station_id":"","pricing_plan_id":"cebpf4jnsgd1na2vs0mg"},{"bike_id":"9eafda97-e3c6-4026-bbdd-7db99d1673d3","system_id":"levelo_inurba_marseille","lat":43.290631,"lon":5.359244,"is_reserved":false,"is_disabled":false,"rental_uris":{"android":"levelo://app?vid=9eafda97-e3c6-4026-bbdd-7db99d1673d3","ios":"levelo://app?vid=9eafda97-e3c6-4026-bbdd-7db99d1673d3"},"vehicle_type_id":"4","last_reported":1724515738,"current_range_meters":22000,"station_id":"ce4bha92rcd13ifvqeg0","pricing_plan_id":"cebpf4jnsgd1na2vs0mg"},{"bike_id":"7c56328e-b437-4779-bdf8-82317e12b050","system_id":"levelo_inurba_marseille","lat":43.29051,"lon":5.35899,"is_reserved":false,"is_disabled":false,"rental_uris":{"android":"levelo://app?vid=7c56328e-b437-4779-bdf8-82317e12b050","ios":"levelo://app?vid=7c56328e-b437-4779-bdf8-82317e12b050"},"vehicle_type_id":"4","last_reported":1724515738,"current_range_meters":21600,"station_id":"ce4bha92rcd13ifvqeg0","pricing_plan_id":"cebpf4jnsgd1na2vs0mg"},{"bike_id":"85f609ef-bd31-48ab-9ca8-a29ddeacf876","system_id":"levelo_inurba_marseille","lat":43.290631,"lon":5.359244,"is_reserved":false,"is_disabled":false,"rental_uris":{"android":"levelo://app?vid=85f609ef-bd31-48ab-9ca8-a29ddeacf876","ios":"levelo://app?vid=85f609ef-bd31-48ab-9ca8-a29ddeacf876"},"vehicle_type_id":"4","last_reported":1724515738,"current_range_meters":31200,"station_id":"ce4bha92rcd13ifvqeg0","pricing_plan_id":"cebpf4jnsgd1na2vs0mg"},{"bike_id":"5ffc3c17-a66a-4910-9398-63a2c3d50023","system_id":"levelo_inurba_marseille","lat":43.290624,"lon":5.359245,"is_reserved":false,"is_disabled":false,"rental_uris":{"android":"levelo://app?vid=5ffc3c17-a66a-4910-9398-63a2c3d50023","ios":"levelo://app?vid=5ffc3c17-a66a-4910-9398-63a2c3d50023"},"vehicle_type_id":"4","last_reported":1724515738,"current_range_meters":7600,"station_id":"ce4bha92rcd13ifvqeg0","pricing_plan_id":"cebpf4jnsgd1na2vs0mg"},{"bike_id":"f5a8d40a-10bf-4a51-8c6b-f110d471305f","system_id":"levelo_inurba_marseille","lat":43.290624,"lon":5.359245,"is_reserved":false,"is_disabled":false,"rental_uris":{"android":"levelo://app?vid=f5a8d40a-10bf-4a51-8c6b-f110d471305f","ios":"levelo://app?vid=f5a8d40a-10bf-4a51-8c6b-f110d471305f"},"vehicle_type_id":"4","last_reported":1724515738,"current_range_meters":16800,"station_id":"ce4bha92rcd13ifvqeg0","pricing_plan_id":"cebpf4jnsgd1na2vs0mg"},{"bike_id":"f1655e05-2793-4a62-89e0-9e90ae21d47e","system_id":"levelo_inurba_marseille","lat":43.29423,"lon":5.38627,"is_reserved":false,"is_disabled":false,"rental_uris":{"android":"levelo://app?vid=f1655e05-2793-4a62-89e0-9e90ae21d47e","ios":"levelo://app?vid=f1655e05-2793-4a62-89e0-9e90ae21d47e"},"vehicle_type_id":"4","last_reported":1724515738,"current_range_meters":0,"station_id":"ce4bh2h2rcd13ifvqdh0","pricing_plan_id":"cebpf4jnsgd1na2vs0mg"},{"bike_id":"8d21928c-fc13-4fce-94ea-d61e8c0aee43","system_id":"levelo_inurba_marseille","lat":43.290319,"lon":5.375732,"is_reserved":false,"is_disabled":false,"rental_uris":{"android":"levelo://app?vid=8d21928c-fc13-4fce-94ea-d61e8c0aee43","ios":"levelo://app?vid=8d21928c-fc13-4fce-94ea-d61e8c0aee43"},"vehicle_type_id":"4","last_reported":1724515738,"current_range_meters":10800,"station_id":"ce4bh692rcd13ifvqe90","pricing_plan_id":"cebpf4jnsgd1na2vs0mg"},{"bike_id":"2abf1fbe-7c7e-49b5-89ec-a1569411b9ea","system_id":"levelo_inurba_marseille","lat":43.294162,"lon":5.386292,"is_reserved":false,"is_disabled":false,"rental_uris":{"android":"levelo://app?vid=2abf1fbe-7c7e-49b5-89ec-a1569411b9ea","ios":"levelo://app?vid=2abf1fbe-7c7e-49b5-89ec-a1569411b9ea"},"vehicle_type_id":"4","last_reported":1724515738,"current_range_meters":800,"station_id":"ce4bh2h2rcd13ifvqdh0","pricing_plan_id":"cebpf4jnsgd1na2vs0mg"},{"bike_id":"faa84a56-b412-4c94-9301-d7907d6a486e","system_id":"levelo_inurba_marseille","lat":43.28945,"lon":5.36644,"is_reserved":false,"is_disabled":false,"rental_uris":{"android":"levelo://app?vid=faa84a56-b412-4c94-9301-d7907d6a486e","ios":"levelo://app?vid=faa84a56-b412-4c94-9301-d7907d6a486e"},"vehicle_type_id":"4","last_reported":1724515738,"current_range_meters":10000,"station_id":"ce4bhap2rcd13ifvqek0","pricing_plan_id":"cebpf4jnsgd1na2vs0mg"},{"bike_id":"1322debc-cff0-4cd7-a247-88b581b0313e","system_id":"levelo_inurba_marseille","lat":43.289184,"lon":5.366408,"is_reserved":false,"is_disabled":false,"rental_uris":{"android":"levelo://app?vid=1322debc-cff0-4cd7-a247-88b581b0313e","ios":"levelo://app?vid=1322debc-cff0-4cd7-a247-88b581b0313e"},"vehicle_type_id":"4","last_reported":1724515738,"current_range_meters":8400,"station_id":"ce4bhap2rcd13ifvqek0","pricing_plan_id":"cebpf4jnsgd1na2vs0mg"},{"bike_id":"b5b79c39-93ad-41ae-bdb7-0493ea15a47e","system_id":"levelo_inurba_marseille","lat":43.28945,"lon":5.36636,"is_reserved":false,"is_disabled":false,"rental_uris":{"android":"levelo://app?vid=b5b79c39-93ad-41ae-bdb7-0493ea15a47e","ios":"levelo://app?vid=b5b79c39-93ad-41ae-bdb7-0493ea15a47e"},"vehicle_type_id":"4","last_reported":1724515738,"current_range_meters":12000,"station_id":"ce4bhap2rcd13ifvqek0","pricing_plan_id":"cebpf4jnsgd1na2vs0mg"},{"bike_id":"bf36f329-7ab3-4fb0-a33f-3d908be97d87","system_id":"levelo_inurba_marseille","lat":43.289184,"lon":5.366408,"is_reserved":false,"is_disabled":false,"rental_uris":{"android":"levelo://app?vid=bf36f329-7ab3-4fb0-a33f-3d908be97d87","ios":"levelo://app?vid=bf36f329-7ab3-4fb0-a33f-3d908be97d87"},"vehicle_type_id":"4","last_reported":1724515738,"current_range_meters":8400,"station_id":"ce4bhap2rcd13ifvqek0","pricing_plan_id":"cebpf4jnsgd1na2vs0mg"},{"bike_id":"1212bfe2-a7ee-4926-938f-76d847183330","system_id":"levelo_inurba_marseille","lat":43.28945,"lon":5.36629,"is_reserved":false,"is_disabled":false,"rental_uris":{"android":"levelo://app?vid=1212bfe2-a7ee-4926-938f-76d847183330","ios":"levelo://app?vid=1212bfe2-a7ee-4926-938f-76d847183330"},"vehicle_type_id":"4","last_reported":1724515738,"current_range_meters":8800,"station_id":"ce4bhap2rcd13ifvqek0","pricing_plan_id":"cebpf4jnsgd1na2vs0mg"},{"bike_id":"aaafa1ad-f108-4068-b327-6a61e7fd522b","system_id":"levelo_inurba_marseille","lat":43.28941,"lon":5.36625,"is_reserved":false,"is_disabled":false,"rental_uris":{"android":"levelo://app?vid=aaafa1ad-f108-4068-b327-6a61e7fd522b","ios":"levelo://app?vid=aaafa1ad-f108-4068-b327-6a61e7fd522b"},"vehicle_type_id":"4","last_reported":1724515738,"current_range_meters":24400,"station_id":"ce4bhap2rcd13ifvqek0","pricing_plan_id":"cebpf4jnsgd1na2vs0mg"},{"bike_id":"1ccf408e-9079-478a-adde-449c402342a0","system_id":"levelo_inurba_marseille","lat":43.289184,"lon":5.366408,"is_reserved":false,"is_disabled":false,"rental_uris":{"android":"levelo://app?vid=1ccf408e-9079-478a-adde-449c402342a0","ios":"levelo://app?vid=1ccf408e-9079-478a-adde-449c402342a0"},"vehicle_type_id":"4","last_reported":1724515738,"current_range_meters":4400,"station_id":"ce4bhap2rcd13ifvqek0","pricing_plan_id":"cebpf4jnsgd1na2vs0mg"},{"bike_id":"9bcfbb51-0c87-4a02-be80-7acaa5763f96","system_id":"levelo_inurba_marseille","lat":43.289184,"lon":5.366408,"is_reserved":false,"is_disabled":false,"rental_uris":{"android":"levelo://app?vid=9bcfbb51-0c87-4a02-be80-7acaa5763f96","ios":"levelo://app?vid=9bcfbb51-0c87-4a02-be80-7acaa5763f96"},"vehicle_type_id":"4","last_reported":1724515738,"current_range_meters":0,"station_id":"ce4bhap2rcd13ifvqek0","pricing_plan_id":"cebpf4jnsgd1na2vs0mg"},{"bike_id":"80396b81-adc2-40c7-ba28-36ce42e9151a","system_id":"levelo_inurba_marseille","lat":43.289184,"lon":5.366408,"is_reserved":false,"is_disabled":false,"rental_uris":{"android":"levelo://app?vid=80396b81-adc2-40c7-ba28-36ce42e9151a","ios":"levelo://app?vid=80396b81-adc2-40c7-ba28-36ce42e9151a"},"vehicle_type_id":"4","last_reported":1724515738,"current_range_meters":20000,"station_id":"ce4bhap2rcd13ifvqek0","pricing_plan_id":"cebpf4jnsgd1na2vs0mg"},{"bike_id":"a27f2c79-2475-4583-99f9-cf167d7f17a3","system_id":"levelo_inurba_marseille","lat":43.289184,"lon":5.366408,"is_reserved":false,"is_disabled":false,"rental_uris":{"android":"levelo://app?vid=a27f2c79-2475-4583-99f9-cf167d7f17a3","ios":"levelo://app?vid=a27f2c79-2475-4583-99f9-cf167d7f17a3"},"vehicle_type_id":"4","last_reported":1724515738,"current_range_meters":21200,"station_id":"ce4bhap2rcd13ifvqek0","pricing_plan_id":"cebpf4jnsgd1na2vs0mg"},{"bike_id":"0ca58cd2-697d-40c3-baee-3059b2a7399b","system_id":"levelo_inurba_marseille","lat":43.289184,"lon":5.366408,"is_reserved":false,"is_disabled":false,"rental_uris":{"android":"levelo://app?vid=0ca58cd2-697d-40c3-baee-3059b2a7399b","ios":"levelo://app?vid=0ca58cd2-697d-40c3-baee-3059b2a7399b"},"vehicle_type_id":"4","last_reported":1724515738,"current_range_meters":17600,"station_id":"ce4bhap2rcd13ifvqek0","pricing_plan_id":"cebpf4jnsgd1na2vs0mg"},{"bike_id":"9ebad44f-dcff-4974-8b6b-8a96f641cc5a","system_id":"levelo_inurba_marseille","lat":43.289184,"lon":5.366408,"is_reserved":false,"is_disabled":false,"rental_uris":{"android":"levelo://app?vid=9ebad44f-dcff-4974-8b6b-8a96f641cc5a","ios":"levelo://app?vid=9ebad44f-dcff-4974-8b6b-8a96f641cc5a"},"vehicle_type_id":"4","last_reported":1724515738,"current_range_meters":30000,"station_id":"ce4bhap2rcd13ifvqek0","pricing_plan_id":"cebpf4jnsgd1na2vs0mg"},{"bike_id":"1b2163a8-21a6-4b21-8b96-6b077e5cfc3f","system_id":"levelo_inurba_marseille","lat":43.289741,"lon":5.378306,"is_reserved":false,"is_disabled":false,"rental_uris":{"android":"levelo://app?vid=1b2163a8-21a6-4b21-8b96-6b077e5cfc3f","ios":"levelo://app?vid=1b2163a8-21a6-4b21-8b96-6b077e5cfc3f"},"vehicle_type_id":"4","last_reported":1724515738,"current_range_meters":1200,"station_id":"ce4bh9p2rcd13ifvqed0","pricing_plan_id":"cebpf4jnsgd1na2vs0mg"},{"bike_id":"42b0e938-d1c8-498b-a130-b31a27934fb1","system_id":"levelo_inurba_marseille","lat":43.292642,"lon":5.384254,"is_reserved":false,"is_disabled":false,"rental_uris":{"android":"levelo://app?vid=42b0e938-d1c8-498b-a130-b31a27934fb1","ios":"levelo://app?vid=42b0e938-d1c8-498b-a130-b31a27934fb1"},"vehicle_type_id":"4","last_reported":1724515738,"current_range_meters":8000,"station_id":"ce4bh692rcd13ifvqea0","pricing_plan_id":"cebpf4jnsgd1na2vs0mg"},{"bike_id":"cc08704a-71b3-4573-b60f-f91ee043f367","system_id":"levelo_inurba_marseille","lat":43.29263,"lon":5.38452,"is_reserved":false,"is_disabled":false,"rental_uris":{"android":"levelo://app?vid=cc08704a-71b3-4573-b60f-f91ee043f367","ios":"levelo://app?vid=cc08704a-71b3-4573-b60f-f91ee043f367"},"vehicle_type_id":"4","last_reported":1724515738,"current_range_meters":0,"station_id":"ce4bh692rcd13ifvqea0","pricing_plan_id":"cebpf4jnsgd1na2vs0mg"},{"bike_id":"62ef8c1c-e65c-46c9-b29c-32bb5939bf0a","system_id":"levelo_inurba_marseille","lat":43.290103,"lon":5.356114,"is_reserved":false,"is_disabled":false,"rental_uris":{"android":"levelo://app?vid=62ef8c1c-e65c-46c9-b29c-32bb5939bf0a","ios":"levelo://app?vid=62ef8c1c-e65c-46c9-b29c-32bb5939bf0a"},"vehicle_type_id":"4","last_reported":1724515738,"current_range_meters":19200,"station_id":"ce4bhb92rcd13ifvqen0","pricing_plan_id":"cebpf4jnsgd1na2vs0mg"},{"bike_id":"6d11985b-3543-4d10-a681-28c51dd7bc0b","system_id":"levelo_inurba_marseille","lat":43.29009,"lon":5.35606,"is_reserved":false,"is_disabled":false,"rental_uris":{"android":"levelo://app?vid=6d11985b-3543-4d10-a681-28c51dd7bc0b","ios":"levelo://app?vid=6d11985b-3543-4d10-a681-28c51dd7bc0b"},"vehicle_type_id":"4","last_reported":1724515738,"current_range_meters":4000,"station_id":"ce4bhb92rcd13ifvqen0","pricing_plan_id":"cebpf4jnsgd1na2vs0mg"},{"bike_id":"b41228d9-a592-4fd0-a1e0-3cad4c69cc3d","system_id":"levelo_inurba_marseille","lat":43.290103,"lon":5.356114,"is_reserved":false,"is_disabled":false,"rental_uris":{"android":"levelo://app?vid=b41228d9-a592-4fd0-a1e0-3cad4c69cc3d","ios":"levelo://app?vid=b41228d9-a592-4fd0-a1e0-3cad4c69cc3d"},"vehicle_type_id":"4","last_reported":1724515738,"current_range_meters":23200,"station_id":"ce4bhb92rcd13ifvqen0","pricing_plan_id":"cebpf4jnsgd1na2vs0mg"},{"bike_id":"b82e2b9b-3012-4b81-a72d-4795ad3e94d8","system_id":"levelo_inurba_marseille","lat":43.290104,"lon":5.356111,"is_reserved":false,"is_disabled":false,"rental_uris":{"android":"levelo://app?vid=b82e2b9b-3012-4b81-a72d-4795ad3e94d8","ios":"levelo://app?vid=b82e2b9b-3012-4b81-a72d-4795ad3e94d8"},"vehicle_type_id":"4","last_reported":1724515738,"current_range_meters":25600,"station_id":"ce4bhb92rcd13ifvqen0","pricing_plan_id":"cebpf4jnsgd1na2vs0mg"},{"bike_id":"adce6dee-bd23-44cd-8173-f90765db0dc3","system_id":"levelo_inurba_marseille","lat":43.29005,"lon":5.35616,"is_reserved":false,"is_disabled":false,"rental_uris":{"android":"levelo://app?vid=adce6dee-bd23-44cd-8173-f90765db0dc3","ios":"levelo://app?vid=adce6dee-bd23-44cd-8173-f90765db0dc3"},"vehicle_type_id":"4","last_reported":1724515738,"current_range_meters":18800,"station_id":"ce4bhb92rcd13ifvqen0","pricing_plan_id":"cebpf4jnsgd1na2vs0mg"},{"bike_id":"8f6ea5d5-d330-4d15-94fd-d88bd92f1ff1","system_id":"levelo_inurba_marseille","lat":43.290104,"lon":5.356111,"is_reserved":false,"is_disabled":false,"rental_uris":{"android":"levelo://app?vid=8f6ea5d5-d330-4d15-94fd-d88bd92f1ff1","ios":"levelo://app?vid=8f6ea5d5-d330-4d15-94fd-d88bd92f1ff1"},"vehicle_type_id":"4","last_reported":1724515738,"current_range_meters":19200,"station_id":"ce4bhb92rcd13ifvqen0","pricing_plan_id":"cebpf4jnsgd1na2vs0mg"},{"bike_id":"94c8019c-2f1d-4912-9de7-a84bd8c87712","system_id":"levelo_inurba_marseille","lat":43.290104,"lon":5.356111,"is_reserved":false,"is_disabled":false,"rental_uris":{"android":"levelo://app?vid=94c8019c-2f1d-4912-9de7-a84bd8c87712","ios":"levelo://app?vid=94c8019c-2f1d-4912-9de7-a84bd8c87712"},"vehicle_type_id":"4","last_reported":1724515738,"current_range_meters":29600,"station_id":"ce4bhb92rcd13ifvqen0","pricing_plan_id":"cebpf4jnsgd1na2vs0mg"},{"bike_id":"5b9e05bf-bb4e-41b6-950f-10789f4f34ed","system_id":"levelo_inurba_marseille","lat":43.290103,"lon":5.356114,"is_reserved":false,"is_disabled":false,"rental_uris":{"android":"levelo://app?vid=5b9e05bf-bb4e-41b6-950f-10789f4f34ed","ios":"levelo://app?vid=5b9e05bf-bb4e-41b6-950f-10789f4f34ed"},"vehicle_type_id":"4","last_reported":1724515738,"current_range_meters":14000,"station_id":"ce4bhb92rcd13ifvqen0","pricing_plan_id":"cebpf4jnsgd1na2vs0mg"},{"bike_id":"54b8e5ac-8741-4ff3-bdcc-1186355c4a3f","system_id":"levelo_inurba_marseille","lat":43.290104,"lon":5.356111,"is_reserved":false,"is_disabled":false,"rental_uris":{"android":"levelo://app?vid=54b8e5ac-8741-4ff3-bdcc-1186355c4a3f","ios":"levelo://app?vid=54b8e5ac-8741-4ff3-bdcc-1186355c4a3f"},"vehicle_type_id":"4","last_reported":1724515738,"current_range_meters":20800,"station_id":"ce4bhb92rcd13ifvqen0","pricing_plan_id":"cebpf4jnsgd1na2vs0mg"},{"bike_id":"a65740b3-f36e-4a12-aa61-d594957f39e9","system_id":"levelo_inurba_marseille","lat":43.290104,"lon":5.356111,"is_reserved":false,"is_disabled":false,"rental_uris":{"android":"levelo://app?vid=a65740b3-f36e-4a12-aa61-d594957f39e9","ios":"levelo://app?vid=a65740b3-f36e-4a12-aa61-d594957f39e9"},"vehicle_type_id":"4","last_reported":1724515738,"current_range_meters":31200,"station_id":"ce4bhb92rcd13ifvqen0","pricing_plan_id":"cebpf4jnsgd1na2vs0mg"},{"bike_id":"790ca154-306c-47da-95b4-083e7f2368f1","system_id":"levelo_inurba_marseille","lat":43.29004,"lon":5.35603,"is_reserved":false,"is_disabled":false,"rental_uris":{"android":"levelo://app?vid=790ca154-306c-47da-95b4-083e7f2368f1","ios":"levelo://app?vid=790ca154-306c-47da-95b4-083e7f2368f1"},"vehicle_type_id":"4","last_reported":1724515738,"current_range_meters":29600,"station_id":"ce4bhb92rcd13ifvqen0","pricing_plan_id":"cebpf4jnsgd1na2vs0mg"},{"bike_id":"56450ee8-3f8b-4a6c-940b-e5c2d3fbec61","system_id":"levelo_inurba_marseille","lat":43.29002,"lon":5.35608,"is_reserved":false,"is_disabled":false,"rental_uris":{"android":"levelo://app?vid=56450ee8-3f8b-4a6c-940b-e5c2d3fbec61","ios":"levelo://app?vid=56450ee8-3f8b-4a6c-940b-e5c2d3fbec61"},"vehicle_type_id":"4","last_reported":1724515738,"current_range_meters":31200,"station_id":"ce4bhb92rcd13ifvqen0","pricing_plan_id":"cebpf4jnsgd1na2vs0mg"},{"bike_id":"ba26b18e-b995-43dc-b8c5-7e977b625f83","system_id":"levelo_inurba_marseille","lat":43.290104,"lon":5.356111,"is_reserved":false,"is_disabled":false,"rental_uris":{"android":"levelo://app?vid=ba26b18e-b995-43dc-b8c5-7e977b625f83","ios":"levelo://app?vid=ba26b18e-b995-43dc-b8c5-7e977b625f83"},"vehicle_type_id":"4","last_reported":1724515738,"current_range_meters":25200,"station_id":"ce4bhb92rcd13ifvqen0","pricing_plan_id":"cebpf4jnsgd1na2vs0mg"},{"bike_id":"6e517f4d-a091-40ff-a3df-4553009d95d3","system_id":"levelo_inurba_marseille","lat":43.290995,"lon":5.381361,"is_reserved":false,"is_disabled":false,"rental_uris":{"android":"levelo://app?vid=6e517f4d-a091-40ff-a3df-4553009d95d3","ios":"levelo://app?vid=6e517f4d-a091-40ff-a3df-4553009d95d3"},"vehicle_type_id":"4","last_reported":1724515738,"current_range_meters":0,"station_id":"ce4bh512rcd13ifvqe2g","pricing_plan_id":"cebpf4jnsgd1na2vs0mg"},{"bike_id":"ba413f9a-a7fc-4c24-a209-0b571590baff","system_id":"levelo_inurba_marseille","lat":43.297807,"lon":5.393533,"is_reserved":false,"is_disabled":false,"rental_uris":{"android":"levelo://app?vid=ba413f9a-a7fc-4c24-a209-0b571590baff","ios":"levelo://app?vid=ba413f9a-a7fc-4c24-a209-0b571590baff"},"vehicle_type_id":"4","last_reported":1724515738,"current_range_meters":24000,"station_id":"chh1huq6cuj3fo74tm60","pricing_plan_id":"cebpf4jnsgd1na2vs0mg"},{"bike_id":"3a0b8746-2a99-401d-b0f4-fafe9e46d43a","system_id":"levelo_inurba_marseille","lat":43.297807,"lon":5.393533,"is_reserved":false,"is_disabled":false,"rental_uris":{"android":"levelo://app?vid=3a0b8746-2a99-401d-b0f4-fafe9e46d43a","ios":"levelo://app?vid=3a0b8746-2a99-401d-b0f4-fafe9e46d43a"},"vehicle_type_id":"4","last_reported":1724515738,"current_range_meters":19600,"station_id":"chh1huq6cuj3fo74tm60","pricing_plan_id":"cebpf4jnsgd1na2vs0mg"},{"bike_id":"db89464b-dac9-4a90-84d0-15df533c48ea","system_id":"levelo_inurba_marseille","lat":43.297807,"lon":5.393533,"is_reserved":false,"is_disabled":false,"rental_uris":{"android":"levelo://app?vid=db89464b-dac9-4a90-84d0-15df533c48ea","ios":"levelo://app?vid=db89464b-dac9-4a90-84d0-15df533c48ea"},"vehicle_type_id":"4","last_reported":1724515738,"current_range_meters":8000,"station_id":"chh1huq6cuj3fo74tm60","pricing_plan_id":"cebpf4jnsgd1na2vs0mg"},{"bike_id":"32c992fb-b627-49e7-860f-d653944557fd","system_id":"levelo_inurba_marseille","lat":43.330442,"lon":5.389148,"is_reserved":false,"is_disabled":false,"rental_uris":{"android":"levelo://app?vid=32c992fb-b627-49e7-860f-d653944557fd","ios":"levelo://app?vid=32c992fb-b627-49e7-860f-d653944557fd"},"vehicle_type_id":"4","last_reported":1724515738,"current_range_meters":4400,"station_id":"ce4bhr92rcd13ifvqhrg","pricing_plan_id":"cebpf4jnsgd1na2vs0mg"},{"bike_id":"19327b89-33b2-45ef-b28a-ace16310bf3f","system_id":"levelo_inurba_marseille","lat":43.2901,"lon":5.381269,"is_reserved":false,"is_disabled":false,"rental_uris":{"android":"levelo://app?vid=19327b89-33b2-45ef-b28a-ace16310bf3f","ios":"levelo://app?vid=19327b89-33b2-45ef-b28a-ace16310bf3f"},"vehicle_type_id":"4","last_reported":1724515738,"current_range_meters":9600,"station_id":"ce4bh4p2rcd13ifvqe1g","pricing_plan_id":"cebpf4jnsgd1na2vs0mg"},{"bike_id":"72889a8e-cf27-4d36-a862-916e3f07aa70","system_id":"levelo_inurba_marseille","lat":43.28856,"lon":5.358371,"is_reserved":false,"is_disabled":false,"rental_uris":{"android":"levelo://app?vid=72889a8e-cf27-4d36-a862-916e3f07aa70","ios":"levelo://app?vid=72889a8e-cf27-4d36-a862-916e3f07aa70"},"vehicle_type_id":"4","last_reported":1724515738,"current_range_meters":8800,"station_id":"ce4bhb12rcd13ifvqem0","pricing_plan_id":"cebpf4jnsgd1na2vs0mg"},{"bike_id":"d377c55e-34e9-477b-bfc8-42685089db0c","system_id":"levelo_inurba_marseille","lat":43.28856,"lon":5.358371,"is_reserved":false,"is_disabled":false,"rental_uris":{"android":"levelo://app?vid=d377c55e-34e9-477b-bfc8-42685089db0c","ios":"levelo://app?vid=d377c55e-34e9-477b-bfc8-42685089db0c"},"vehicle_type_id":"4","last_reported":1724515738,"current_range_meters":18000,"station_id":"ce4bhb12rcd13ifvqem0","pricing_plan_id":"cebpf4jnsgd1na2vs0mg"},{"bike_id":"7de307cf-a195-4ae5-8acf-c0203469878d","system_id":"levelo_inurba_marseille","lat":43.288514,"lon":5.358446,"is_reserved":false,"is_disabled":false,"rental_uris":{"android":"levelo://app?vid=7de307cf-a195-4ae5-8acf-c0203469878d","ios":"levelo://app?vid=7de307cf-a195-4ae5-8acf-c0203469878d"},"vehicle_type_id":"4","last_reported":1724515738,"current_range_meters":0,"station_id":"ce4bhb12rcd13ifvqem0","pricing_plan_id":"cebpf4jnsgd1na2vs0mg"},{"bike_id":"c594b3e3-1ba6-43b9-a1c1-be8533666e55","system_id":"levelo_inurba_marseille","lat":43.33749,"lon":5.37436,"is_reserved":false,"is_disabled":false,"rental_uris":{"android":"levelo://app?vid=c594b3e3-1ba6-43b9-a1c1-be8533666e55","ios":"levelo://app?vid=c594b3e3-1ba6-43b9-a1c1-be8533666e55"},"vehicle_type_id":"4","last_reported":1724515738,"current_range_meters":26800,"station_id":"","pricing_plan_id":"cebpf4jnsgd1na2vs0mg"},{"bike_id":"db399c75-49ad-4419-a288-38737e32025d","system_id":"levelo_inurba_marseille","lat":43.337552,"lon":5.374572,"is_reserved":false,"is_disabled":false,"rental_uris":{"android":"levelo://app?vid=db399c75-49ad-4419-a288-38737e32025d","ios":"levelo://app?vid=db399c75-49ad-4419-a288-38737e32025d"},"vehicle_type_id":"4","last_reported":1724515738,"current_range_meters":28400,"station_id":"","pricing_plan_id":"cebpf4jnsgd1na2vs0mg"},{"bike_id":"cdc35d34-57e9-43e1-ac36-c0218dd5a9e1","system_id":"levelo_inurba_marseille","lat":43.337517,"lon":5.374828,"is_reserved":false,"is_disabled":false,"rental_uris":{"android":"levelo://app?vid=cdc35d34-57e9-43e1-ac36-c0218dd5a9e1","ios":"levelo://app?vid=cdc35d34-57e9-43e1-ac36-c0218dd5a9e1"},"vehicle_type_id":"4","last_reported":1724515738,"current_range_meters":17600,"station_id":"","pricing_plan_id":"cebpf4jnsgd1na2vs0mg"},{"bike_id":"a6de0161-1a37-4484-af54-217f3b7611b4","system_id":"levelo_inurba_marseille","lat":43.3375,"lon":5.37493,"is_reserved":false,"is_disabled":false,"rental_uris":{"android":"levelo://app?vid=a6de0161-1a37-4484-af54-217f3b7611b4","ios":"levelo://app?vid=a6de0161-1a37-4484-af54-217f3b7611b4"},"vehicle_type_id":"4","last_reported":1724515738,"current_range_meters":30800,"station_id":"","pricing_plan_id":"cebpf4jnsgd1na2vs0mg"},{"bike_id":"e358a63e-204b-4bf9-a280-6d0c0f57da63","system_id":"levelo_inurba_marseille","lat":43.337621,"lon":5.374623,"is_reserved":false,"is_disabled":false,"rental_uris":{"android":"levelo://app?vid=e358a63e-204b-4bf9-a280-6d0c0f57da63","ios":"levelo://app?vid=e358a63e-204b-4bf9-a280-6d0c0f57da63"},"vehicle_type_id":"4","last_reported":1724515738,"current_range_meters":0,"station_id":"","pricing_plan_id":"cebpf4jnsgd1na2vs0mg"},{"bike_id":"1b635017-1f6d-4ccf-887c-5535d999fc49","system_id":"levelo_inurba_marseille","lat":43.33768,"lon":5.37436,"is_reserved":false,"is_disabled":false,"rental_uris":{"android":"levelo://app?vid=1b635017-1f6d-4ccf-887c-5535d999fc49","ios":"levelo://app?vid=1b635017-1f6d-4ccf-887c-5535d999fc49"},"vehicle_type_id":"4","last_reported":1724515738,"current_range_meters":14000,"station_id":"","pricing_plan_id":"cebpf4jnsgd1na2vs0mg"},{"bike_id":"7fdf5f31-b35c-472f-950a-e1e5ab29bcf9","system_id":"levelo_inurba_marseille","lat":43.301117,"lon":5.398795,"is_reserved":false,"is_disabled":false,"rental_uris":{"android":"levelo://app?vid=7fdf5f31-b35c-472f-950a-e1e5ab29bcf9","ios":"levelo://app?vid=7fdf5f31-b35c-472f-950a-e1e5ab29bcf9"},"vehicle_type_id":"4","last_reported":1724515738,"current_range_meters":11200,"station_id":"ce4bh0h2rcd13ifvqd40","pricing_plan_id":"cebpf4jnsgd1na2vs0mg"},{"bike_id":"e37db8e4-b706-4c46-bb0c-3b665382056b","system_id":"levelo_inurba_marseille","lat":43.301117,"lon":5.398795,"is_reserved":false,"is_disabled":false,"rental_uris":{"android":"levelo://app?vid=e37db8e4-b706-4c46-bb0c-3b665382056b","ios":"levelo://app?vid=e37db8e4-b706-4c46-bb0c-3b665382056b"},"vehicle_type_id":"4","last_reported":1724515738,"current_range_meters":24000,"station_id":"ce4bh0h2rcd13ifvqd40","pricing_plan_id":"cebpf4jnsgd1na2vs0mg"},{"bike_id":"d55cc5b5-fe9f-4db2-968d-c7ab9cac11fa","system_id":"levelo_inurba_marseille","lat":43.301117,"lon":5.398795,"is_reserved":false,"is_disabled":false,"rental_uris":{"android":"levelo://app?vid=d55cc5b5-fe9f-4db2-968d-c7ab9cac11fa","ios":"levelo://app?vid=d55cc5b5-fe9f-4db2-968d-c7ab9cac11fa"},"vehicle_type_id":"4","last_reported":1724515738,"current_range_meters":20800,"station_id":"ce4bh0h2rcd13ifvqd40","pricing_plan_id":"cebpf4jnsgd1na2vs0mg"},{"bike_id":"108d1df5-1f0a-4819-b058-d2e22a06f9dc","system_id":"levelo_inurba_marseille","lat":43.301117,"lon":5.398795,"is_reserved":false,"is_disabled":false,"rental_uris":{"android":"levelo://app?vid=108d1df5-1f0a-4819-b058-d2e22a06f9dc","ios":"levelo://app?vid=108d1df5-1f0a-4819-b058-d2e22a06f9dc"},"vehicle_type_id":"4","last_reported":1724515738,"current_range_meters":25600,"station_id":"ce4bh0h2rcd13ifvqd40","pricing_plan_id":"cebpf4jnsgd1na2vs0mg"},{"bike_id":"6705794a-2210-446f-9aa7-e51ffb28f9d6","system_id":"levelo_inurba_marseille","lat":43.287157,"lon":5.373883,"is_reserved":false,"is_disabled":false,"rental_uris":{"android":"levelo://app?vid=6705794a-2210-446f-9aa7-e51ffb28f9d6","ios":"levelo://app?vid=6705794a-2210-446f-9aa7-e51ffb28f9d6"},"vehicle_type_id":"4","last_reported":1724515738,"current_range_meters":0,"station_id":"ce4bh3p2rcd13ifvqdq0","pricing_plan_id":"cebpf4jnsgd1na2vs0mg"},{"bike_id":"a07d29df-2805-4993-bf8a-824613d43291","system_id":"levelo_inurba_marseille","lat":43.28666,"lon":5.36349,"is_reserved":false,"is_disabled":false,"rental_uris":{"android":"levelo://app?vid=a07d29df-2805-4993-bf8a-824613d43291","ios":"levelo://app?vid=a07d29df-2805-4993-bf8a-824613d43291"},"vehicle_type_id":"4","last_reported":1724515738,"current_range_meters":22400,"station_id":"","pricing_plan_id":"cebpf4jnsgd1na2vs0mg"},{"bike_id":"8003ae67-7458-4869-b658-084c976c1973","system_id":"levelo_inurba_marseille","lat":43.286961,"lon":5.373785,"is_reserved":false,"is_disabled":false,"rental_uris":{"android":"levelo://app?vid=8003ae67-7458-4869-b658-084c976c1973","ios":"levelo://app?vid=8003ae67-7458-4869-b658-084c976c1973"},"vehicle_type_id":"4","last_reported":1724515738,"current_range_meters":0,"station_id":"ce4bh3p2rcd13ifvqdq0","pricing_plan_id":"cebpf4jnsgd1na2vs0mg"},{"bike_id":"ea5f7e75-948b-4f67-be7e-7cf39de8f177","system_id":"levelo_inurba_marseille","lat":43.298681,"lon":5.397225,"is_reserved":false,"is_disabled":false,"rental_uris":{"android":"levelo://app?vid=ea5f7e75-948b-4f67-be7e-7cf39de8f177","ios":"levelo://app?vid=ea5f7e75-948b-4f67-be7e-7cf39de8f177"},"vehicle_type_id":"4","last_reported":1724515738,"current_range_meters":14000,"station_id":"ce4bh0h2rcd13ifvqd50","pricing_plan_id":"cebpf4jnsgd1na2vs0mg"},{"bike_id":"d9e126b4-fc40-4f27-9753-2537983dae63","system_id":"levelo_inurba_marseille","lat":43.289307,"lon":5.38406,"is_reserved":false,"is_disabled":false,"rental_uris":{"android":"levelo://app?vid=d9e126b4-fc40-4f27-9753-2537983dae63","ios":"levelo://app?vid=d9e126b4-fc40-4f27-9753-2537983dae63"},"vehicle_type_id":"4","last_reported":1724515738,"current_range_meters":19600,"station_id":"ce4bh612rcd13ifvqe6g","pricing_plan_id":"cebpf4jnsgd1na2vs0mg"},{"bike_id":"94ca84c1-e146-4777-85e5-859d77647ad9","system_id":"levelo_inurba_marseille","lat":43.289307,"lon":5.38406,"is_reserved":false,"is_disabled":false,"rental_uris":{"android":"levelo://app?vid=94ca84c1-e146-4777-85e5-859d77647ad9","ios":"levelo://app?vid=94ca84c1-e146-4777-85e5-859d77647ad9"},"vehicle_type_id":"4","last_reported":1724515738,"current_range_meters":5600,"station_id":"ce4bh612rcd13ifvqe6g","pricing_plan_id":"cebpf4jnsgd1na2vs0mg"},{"bike_id":"87672f04-80fb-4c63-ba87-b64f1eef74ee","system_id":"levelo_inurba_marseille","lat":43.290336,"lon":5.386425,"is_reserved":false,"is_disabled":false,"rental_uris":{"android":"levelo://app?vid=87672f04-80fb-4c63-ba87-b64f1eef74ee","ios":"levelo://app?vid=87672f04-80fb-4c63-ba87-b64f1eef74ee"},"vehicle_type_id":"4","last_reported":1724515738,"current_range_meters":12800,"station_id":"ce4bh4p2rcd13ifvqe0g","pricing_plan_id":"cebpf4jnsgd1na2vs0mg"},{"bike_id":"d7799140-3e73-4d3a-92c5-da5568c7978f","system_id":"levelo_inurba_marseille","lat":43.290336,"lon":5.386425,"is_reserved":false,"is_disabled":false,"rental_uris":{"android":"levelo://app?vid=d7799140-3e73-4d3a-92c5-da5568c7978f","ios":"levelo://app?vid=d7799140-3e73-4d3a-92c5-da5568c7978f"},"vehicle_type_id":"4","last_reported":1724515738,"current_range_meters":3200,"station_id":"ce4bh4p2rcd13ifvqe0g","pricing_plan_id":"cebpf4jnsgd1na2vs0mg"},{"bike_id":"f5a0833a-87f7-4043-85f8-51ef5461ab33","system_id":"levelo_inurba_marseille","lat":43.290336,"lon":5.386425,"is_reserved":false,"is_disabled":false,"rental_uris":{"android":"levelo://app?vid=f5a0833a-87f7-4043-85f8-51ef5461ab33","ios":"levelo://app?vid=f5a0833a-87f7-4043-85f8-51ef5461ab33"},"vehicle_type_id":"4","last_reported":1724515738,"current_range_meters":5600,"station_id":"ce4bh4p2rcd13ifvqe0g","pricing_plan_id":"cebpf4jnsgd1na2vs0mg"},{"bike_id":"7d23d0d3-5b53-42c4-8a5f-71f12f3c7f37","system_id":"levelo_inurba_marseille","lat":43.289307,"lon":5.38406,"is_reserved":false,"is_disabled":false,"rental_uris":{"android":"levelo://app?vid=7d23d0d3-5b53-42c4-8a5f-71f12f3c7f37","ios":"levelo://app?vid=7d23d0d3-5b53-42c4-8a5f-71f12f3c7f37"},"vehicle_type_id":"4","last_reported":1724515738,"current_range_meters":22000,"station_id":"ce4bh612rcd13ifvqe6g","pricing_plan_id":"cebpf4jnsgd1na2vs0mg"},{"bike_id":"f4210090-2ac7-441e-b703-464b7d1373e1","system_id":"levelo_inurba_marseille","lat":43.290336,"lon":5.386425,"is_reserved":false,"is_disabled":false,"rental_uris":{"android":"levelo://app?vid=f4210090-2ac7-441e-b703-464b7d1373e1","ios":"levelo://app?vid=f4210090-2ac7-441e-b703-464b7d1373e1"},"vehicle_type_id":"4","last_reported":1724515738,"current_range_meters":6000,"station_id":"ce4bh4p2rcd13ifvqe0g","pricing_plan_id":"cebpf4jnsgd1na2vs0mg"},{"bike_id":"f9b02337-9309-49a5-a137-acec0e8afabc","system_id":"levelo_inurba_marseille","lat":43.290336,"lon":5.386425,"is_reserved":false,"is_disabled":false,"rental_uris":{"android":"levelo://app?vid=f9b02337-9309-49a5-a137-acec0e8afabc","ios":"levelo://app?vid=f9b02337-9309-49a5-a137-acec0e8afabc"},"vehicle_type_id":"4","last_reported":1724515738,"current_range_meters":9600,"station_id":"ce4bh4p2rcd13ifvqe0g","pricing_plan_id":"cebpf4jnsgd1na2vs0mg"},{"bike_id":"80f5a8fb-3b50-418e-aa51-93ed22be8080","system_id":"levelo_inurba_marseille","lat":43.302759,"lon":5.400793,"is_reserved":false,"is_disabled":false,"rental_uris":{"android":"levelo://app?vid=80f5a8fb-3b50-418e-aa51-93ed22be8080","ios":"levelo://app?vid=80f5a8fb-3b50-418e-aa51-93ed22be8080"},"vehicle_type_id":"4","last_reported":1724515738,"current_range_meters":12400,"station_id":"ce4bgvh2rcd13ifvqcs0","pricing_plan_id":"cebpf4jnsgd1na2vs0mg"},{"bike_id":"c47cedb6-fcf2-45ba-a638-f1619ef73f42","system_id":"levelo_inurba_marseille","lat":43.302759,"lon":5.400793,"is_reserved":false,"is_disabled":false,"rental_uris":{"android":"levelo://app?vid=c47cedb6-fcf2-45ba-a638-f1619ef73f42","ios":"levelo://app?vid=c47cedb6-fcf2-45ba-a638-f1619ef73f42"},"vehicle_type_id":"4","last_reported":1724515738,"current_range_meters":17600,"station_id":"ce4bgvh2rcd13ifvqcs0","pricing_plan_id":"cebpf4jnsgd1na2vs0mg"},{"bike_id":"8145a67b-5d97-4e14-8187-a31be99553cc","system_id":"levelo_inurba_marseille","lat":43.287184,"lon":5.37937,"is_reserved":false,"is_disabled":false,"rental_uris":{"android":"levelo://app?vid=8145a67b-5d97-4e14-8187-a31be99553cc","ios":"levelo://app?vid=8145a67b-5d97-4e14-8187-a31be99553cc"},"vehicle_type_id":"4","last_reported":1724515738,"current_range_meters":4400,"station_id":"ce4bh9p2rcd13ifvqec0","pricing_plan_id":"cebpf4jnsgd1na2vs0mg"},{"bike_id":"647cf5fa-e047-41f4-90f3-e6ef0b1b4c1c","system_id":"levelo_inurba_marseille","lat":43.28717,"lon":5.37942,"is_reserved":false,"is_disabled":false,"rental_uris":{"android":"levelo://app?vid=647cf5fa-e047-41f4-90f3-e6ef0b1b4c1c","ios":"levelo://app?vid=647cf5fa-e047-41f4-90f3-e6ef0b1b4c1c"},"vehicle_type_id":"4","last_reported":1724515738,"current_range_meters":2400,"station_id":"ce4bh9p2rcd13ifvqec0","pricing_plan_id":"cebpf4jnsgd1na2vs0mg"},{"bike_id":"2aba7e45-7e4d-450f-ace5-b6c3f62d6589","system_id":"levelo_inurba_marseille","lat":43.283998,"lon":5.375062,"is_reserved":false,"is_disabled":false,"rental_uris":{"android":"levelo://app?vid=2aba7e45-7e4d-450f-ace5-b6c3f62d6589","ios":"levelo://app?vid=2aba7e45-7e4d-450f-ace5-b6c3f62d6589"},"vehicle_type_id":"4","last_reported":1724515738,"current_range_meters":8400,"station_id":"ce4bh412rcd13ifvqds0","pricing_plan_id":"cebpf4jnsgd1na2vs0mg"},{"bike_id":"37c20f54-ff89-4650-b58f-c3b8744d92c8","system_id":"levelo_inurba_marseille","lat":43.316821,"lon":5.404737,"is_reserved":false,"is_disabled":false,"rental_uris":{"android":"levelo://app?vid=37c20f54-ff89-4650-b58f-c3b8744d92c8","ios":"levelo://app?vid=37c20f54-ff89-4650-b58f-c3b8744d92c8"},"vehicle_type_id":"4","last_reported":1724515738,"current_range_meters":21200,"station_id":"ce4bh012rcd13ifvqd00","pricing_plan_id":"cebpf4jnsgd1na2vs0mg"},{"bike_id":"7339eea8-9a63-4971-af2d-768115b2e639","system_id":"levelo_inurba_marseille","lat":43.316828,"lon":5.404723,"is_reserved":false,"is_disabled":false,"rental_uris":{"android":"levelo://app?vid=7339eea8-9a63-4971-af2d-768115b2e639","ios":"levelo://app?vid=7339eea8-9a63-4971-af2d-768115b2e639"},"vehicle_type_id":"4","last_reported":1724515738,"current_range_meters":4400,"station_id":"ce4bh012rcd13ifvqd00","pricing_plan_id":"cebpf4jnsgd1na2vs0mg"},{"bike_id":"d667b457-a5f8-48c5-af8c-e136166e45d6","system_id":"levelo_inurba_marseille","lat":43.286227,"lon":5.379046,"is_reserved":false,"is_disabled":false,"rental_uris":{"android":"levelo://app?vid=d667b457-a5f8-48c5-af8c-e136166e45d6","ios":"levelo://app?vid=d667b457-a5f8-48c5-af8c-e136166e45d6"},"vehicle_type_id":"4","last_reported":1724515738,"current_range_meters":0,"station_id":"","pricing_plan_id":"cebpf4jnsgd1na2vs0mg"},{"bike_id":"ce2024ab-dea8-45f6-908b-bd645e46a1b6","system_id":"levelo_inurba_marseille","lat":43.32447,"lon":5.40282,"is_reserved":false,"is_disabled":false,"rental_uris":{"android":"levelo://app?vid=ce2024ab-dea8-45f6-908b-bd645e46a1b6","ios":"levelo://app?vid=ce2024ab-dea8-45f6-908b-bd645e46a1b6"},"vehicle_type_id":"4","last_reported":1724515738,"current_range_meters":9200,"station_id":"","pricing_plan_id":"cebpf4jnsgd1na2vs0mg"},{"bike_id":"7d798bcb-1ab0-423a-9e79-4c540e13bbbf","system_id":"levelo_inurba_marseille","lat":43.284538,"lon":5.358657,"is_reserved":false,"is_disabled":false,"rental_uris":{"android":"levelo://app?vid=7d798bcb-1ab0-423a-9e79-4c540e13bbbf","ios":"levelo://app?vid=7d798bcb-1ab0-423a-9e79-4c540e13bbbf"},"vehicle_type_id":"4","last_reported":1724515738,"current_range_meters":19600,"station_id":"ce4bhah2rcd13ifvqei0","pricing_plan_id":"cebpf4jnsgd1na2vs0mg"},{"bike_id":"77c1b909-5c58-4d7d-ace5-84755661eb6f","system_id":"levelo_inurba_marseille","lat":43.294314,"lon":5.397498,"is_reserved":false,"is_disabled":false,"rental_uris":{"android":"levelo://app?vid=77c1b909-5c58-4d7d-ace5-84755661eb6f","ios":"levelo://app?vid=77c1b909-5c58-4d7d-ace5-84755661eb6f"},"vehicle_type_id":"4","last_reported":1724515738,"current_range_meters":13600,"station_id":"ce4bh3h2rcd13ifvqdo0","pricing_plan_id":"cebpf4jnsgd1na2vs0mg"},{"bike_id":"c08b2c48-a425-4020-a014-b74ff84cfabb","system_id":"levelo_inurba_marseille","lat":43.2945,"lon":5.39759,"is_reserved":false,"is_disabled":false,"rental_uris":{"android":"levelo://app?vid=c08b2c48-a425-4020-a014-b74ff84cfabb","ios":"levelo://app?vid=c08b2c48-a425-4020-a014-b74ff84cfabb"},"vehicle_type_id":"4","last_reported":1724515738,"current_range_meters":0,"station_id":"ce4bh3h2rcd13ifvqdo0","pricing_plan_id":"cebpf4jnsgd1na2vs0mg"},{"bike_id":"b2258bd3-9f06-48aa-98af-112915370a0e","system_id":"levelo_inurba_marseille","lat":43.303256,"lon":5.404389,"is_reserved":false,"is_disabled":false,"rental_uris":{"android":"levelo://app?vid=b2258bd3-9f06-48aa-98af-112915370a0e","ios":"levelo://app?vid=b2258bd3-9f06-48aa-98af-112915370a0e"},"vehicle_type_id":"4","last_reported":1724515738,"current_range_meters":15600,"station_id":"ce4bh012rcd13ifvqd10","pricing_plan_id":"cebpf4jnsgd1na2vs0mg"},{"bike_id":"f12ac7a6-6efa-43e3-8415-81ec8435740b","system_id":"levelo_inurba_marseille","lat":43.28622,"lon":5.35111,"is_reserved":false,"is_disabled":false,"rental_uris":{"android":"levelo://app?vid=f12ac7a6-6efa-43e3-8415-81ec8435740b","ios":"levelo://app?vid=f12ac7a6-6efa-43e3-8415-81ec8435740b"},"vehicle_type_id":"4","last_reported":1724515738,"current_range_meters":15600,"station_id":"ce4bhch2rcd13ifvqeug","pricing_plan_id":"cebpf4jnsgd1na2vs0mg"},{"bike_id":"3e35b87a-e88f-4820-9ae1-65a6b5615d00","system_id":"levelo_inurba_marseille","lat":43.2862,"lon":5.3511,"is_reserved":false,"is_disabled":false,"rental_uris":{"android":"levelo://app?vid=3e35b87a-e88f-4820-9ae1-65a6b5615d00","ios":"levelo://app?vid=3e35b87a-e88f-4820-9ae1-65a6b5615d00"},"vehicle_type_id":"4","last_reported":1724515738,"current_range_meters":4000,"station_id":"ce4bhch2rcd13ifvqeug","pricing_plan_id":"cebpf4jnsgd1na2vs0mg"},{"bike_id":"82afacb9-bdbe-442d-ac62-c4264b756a81","system_id":"levelo_inurba_marseille","lat":43.28623,"lon":5.351,"is_reserved":false,"is_disabled":false,"rental_uris":{"android":"levelo://app?vid=82afacb9-bdbe-442d-ac62-c4264b756a81","ios":"levelo://app?vid=82afacb9-bdbe-442d-ac62-c4264b756a81"},"vehicle_type_id":"4","last_reported":1724515738,"current_range_meters":30800,"station_id":"ce4bhch2rcd13ifvqeug","pricing_plan_id":"cebpf4jnsgd1na2vs0mg"},{"bike_id":"3621e8a5-8683-44cd-9251-f4ce8368dff4","system_id":"levelo_inurba_marseille","lat":43.28619,"lon":5.35108,"is_reserved":false,"is_disabled":false,"rental_uris":{"android":"levelo://app?vid=3621e8a5-8683-44cd-9251-f4ce8368dff4","ios":"levelo://app?vid=3621e8a5-8683-44cd-9251-f4ce8368dff4"},"vehicle_type_id":"4","last_reported":1724515738,"current_range_meters":12000,"station_id":"ce4bhch2rcd13ifvqeug","pricing_plan_id":"cebpf4jnsgd1na2vs0mg"},{"bike_id":"f191db49-afea-4574-b031-521904c43c33","system_id":"levelo_inurba_marseille","lat":43.2862,"lon":5.35103,"is_reserved":false,"is_disabled":false,"rental_uris":{"android":"levelo://app?vid=f191db49-afea-4574-b031-521904c43c33","ios":"levelo://app?vid=f191db49-afea-4574-b031-521904c43c33"},"vehicle_type_id":"4","last_reported":1724515738,"current_range_meters":31200,"station_id":"ce4bhch2rcd13ifvqeug","pricing_plan_id":"cebpf4jnsgd1na2vs0mg"},