{"last_updated":1752404862,"ttl":60,"version":"2.2","data":{"bikes":[{"bike_id":"bfa68e15-1cd1-41b3-94d5-a9b098f6979f","system_id":"levelo_inurba_marseille","lat":43.24899,"lon":5.38752,"is_reserved":false,"is_disabled":false,"rental_uris":{"android":"levelo://app?vid=bfa68e15-1cd1-41b3-94d5-a9b098f6979f","ios":"levelo://app?vid=bfa68e15-1cd1-41b3-94d5-a9b098f6979f"},"vehicle_type_id":"4","last_reported":1752404863,"current_range_meters":3600,"station_id":"","pricing_plan_id":"cebpf4jnsgd1na2vs0mg"},{"bike_id":"ecabe22c-c48f-40e5-bb26-89d4b1270ede","system_id":"levelo_inurba_marseille","lat":43.21197,"lon":5.35079,"is_reserved":false,"is_disabled":false,"rental_uris":{"android":"levelo://app?vid=ecabe22c-c48f-40e5-bb26-89d4b1270ede","ios":"levelo://app?vid=ecabe22c-c48f-40e5-bb26-89d4b1270ede"},"vehicle_type_id":"4","last_reported":1752404863,"current_range_meters":3600,"station_id":"st_cvj6sg6p6f1abm77japg","pricing_plan_id":"cebpf4jnsgd1na2vs0mg"},{"bike_id":"cb9282c9-0a04-426f-af4a-9dc494a82650","system_id":"levelo_inurba_marseille","lat":43.225034,"lon":5.347868,"is_reserved":false,"is_disabled":false,"rental_uris":{"android":"levelo://app?vid=cb9282c9-0a04-426f-af4a-9dc494a82650","ios":"levelo://app?vid=cb9282c9-0a04-426f-af4a-9dc494a82650"},"vehicle_type_id":"4","last_reported":1752404863,"current_range_meters":3600,"station_id":"","pricing_plan_id":"cebpf4jnsgd1na2vs0mg"},{"bike_id":"e25a1371-fdcb-4ed2-992f-afe5be09800a","system_id":"levelo_inurba_marseille","lat":43.21192,"lon":5.35072,"is_reserved":false,"is_disabled":false,"rental_uris":{"android":"levelo://app?vid=e25a1371-fdcb-4ed2-992f-afe5be09800a","ios":"levelo://app?vid=e25a1371-fdcb-4ed2-992f-afe5be09800a"},"vehicle_type_id":"4","last_reported":1752404863,"current_range_meters":4000,"station_id":"st_cvj6sg6p6f1abm77japg","pricing_plan_id":"cebpf4jnsgd1na2vs0mg"},{"bike_id":"6f5e9084-558f-4d95-b458-678ee4399b06","system_id":"levelo_inurba_marseille","lat":43.25499,"lon":5.37664,"is_reserved":false,"is_disabled":true,"rental_uris":{"android":"levelo://app?vid=6f5e9084-558f-4d95-b458-678ee4399b06","ios":"levelo://app?vid=6f5e9084-558f-4d95-b458-678ee4399b06"},"vehicle_type_id":"4","last_reported":1752404863,"current_range_meters":4400,"station_id":"ce4bhh12rcd13ifvqff0","pricing_plan_id":"cebpf4jnsgd1na2vs0mg"},{"bike_id":"f05e18cf-3b3d-4fea-9ede-5be099a845c4","system_id":"levelo_inurba_marseille","lat":43.21733,"lon":5.34605,"is_reserved":false,"is_disabled":false,"rental_uris":{"android":"levelo://app?vid=f05e18cf-3b3d-4fea-9ede-5be099a845c4","ios":"levelo://app?vid=f05e18cf-3b3d-4fea-9ede-5be099a845c4"},"vehicle_type_id":"4","last_reported":1752404863,"current_range_meters":4400,"station_id":"st_cvj6r9ubvosntc0bgbag","pricing_plan_id":"cebpf4jnsgd1na2vs0mg"},{"bike_id":"84c3b176-6835-4560-867e-a4d062c4073c","system_id":"levelo_inurba_marseille","lat":43.3089,"lon":5.39665,"is_reserved":false,"is_disabled":false,"rental_uris":{"android":"levelo://app?vid=84c3b176-6835-4560-867e-a4d062c4073c","ios":"levelo://app?vid=84c3b176-6835-4560-867e-a4d062c4073c"},"vehicle_type_id":"4","last_reported":1752404863,"current_range_meters":4800,"station_id":"ce4bh012rcd13ifvqcv0","pricing_plan_id":"cebpf4jnsgd1na2vs0mg"},{"bike_id":"2f0ba75c-aff3-43f4-857b-fc7c66f4e426","system_id":"levelo_inurba_marseille","lat":43.30979,"lon":5.39045,"is_reserved":false,"is_disabled":true,"rental_uris":{"android":"levelo://app?vid=2f0ba75c-aff3-43f4-857b-fc7c66f4e426","ios":"levelo://app?vid=2f0ba75c-aff3-43f4-857b-fc7c66f4e426"},"vehicle_type_id":"4","last_reported":1752404863,"current_range_meters":5600,"station_id":"ce4bgup2rcd13ifvqco0","pricing_plan_id":"cebpf4jnsgd1na2vs0mg"},{"bike_id":"94940c9a-30d4-4e43-bec0-fc556b4da3ae","system_id":"levelo_inurba_marseille","lat":43.33607,"lon":5.41029,"is_reserved":false,"is_disabled":false,"rental_uris":{"android":"levelo://app?vid=94940c9a-30d4-4e43-bec0-fc556b4da3ae","ios":"levelo://app?vid=94940c9a-30d4-4e43-bec0-fc556b4da3ae"},"vehicle_type_id":"4","last_reported":1752404863,"current_range_meters":5600,"station_id":"ce4bhqh2rcd13ifvqhmg","pricing_plan_id":"cebpf4jnsgd1na2vs0mg"},{"bike_id":"e3a75ee9-c614-467b-8cc2-f813bcef2ab1","system_id":"levelo_inurba_marseille","lat":43.33743,"lon":5.3919,"is_reserved":false,"is_disabled":true,"rental_uris":{"android":"levelo://app?vid=e3a75ee9-c614-467b-8cc2-f813bcef2ab1","ios":"levelo://app?vid=e3a75ee9-c614-467b-8cc2-f813bcef2ab1"},"vehicle_type_id":"4","last_reported":1752404863,"current_range_meters":6000,"station_id":"ce4bhr92rcd13ifvqhsg","pricing_plan_id":"cebpf4jnsgd1na2vs0mg"},{"bike_id":"05f24eb2-daa3-4f0e-944e-3b9343d3d36a","system_id":"levelo_inurba_marseille","lat":43.295571,"lon":5.422846,"is_reserved":false,"is_disabled":false,"rental_uris":{"android":"levelo://app?vid=05f24eb2-daa3-4f0e-944e-3b9343d3d36a","ios":"levelo://app?vid=05f24eb2-daa3-4f0e-944e-3b9343d3d36a"},"vehicle_type_id":"4","last_reported":1752404863,"current_range_meters":6800,"station_id":"ce4bhph2rcd13ifvqhdg","pricing_plan_id":"cebpf4jnsgd1na2vs0mg"},{"bike_id":"df61839a-7a72-4634-9960-e8ea0d9a8d35","system_id":"levelo_inurba_marseille","lat":43.239474,"lon":5.366089,"is_reserved":false,"is_disabled":true,"rental_uris":{"android":"levelo://app?vid=df61839a-7a72-4634-9960-e8ea0d9a8d35","ios":"levelo://app?vid=df61839a-7a72-4634-9960-e8ea0d9a8d35"},"vehicle_type_id":"4","last_reported":1752404863,"current_range_meters":6800,"station_id":"","pricing_plan_id":"cebpf4jnsgd1na2vs0mg"},{"bike_id":"bf00daf4-86f1-4ff1-9864-d8e90f5cf96a","system_id":"levelo_inurba_marseille","lat":43.291798,"lon":5.385998,"is_reserved":false,"is_disabled":false,"rental_uris":{"android":"levelo://app?vid=bf00daf4-86f1-4ff1-9864-d8e90f5cf96a","ios":"levelo://app?vid=bf00daf4-86f1-4ff1-9864-d8e90f5cf96a"},"vehicle_type_id":"4","last_reported":1752404863,"current_range_meters":6800,"station_id":"","pricing_plan_id":"cebpf4jnsgd1na2vs0mg"},{"bike_id":"0f1287f9-390e-4629-ab8e-ad2d35ff61ae","system_id":"levelo_inurba_marseille","lat":43.25564,"lon":5.38254,"is_reserved":false,"is_disabled":true,"rental_uris":{"android":"levelo://app?vid=0f1287f9-390e-4629-ab8e-ad2d35ff61ae","ios":"levelo://app?vid=0f1287f9-390e-4629-ab8e-ad2d35ff61ae"},"vehicle_type_id":"4","last_reported":1752404863,"current_range_meters":7200,"station_id":"ce4bhih2rcd13ifvqfs0","pricing_plan_id":"cebpf4jnsgd1na2vs0mg"},{"bike_id":"03251f63-26eb-493f-9d65-8e11851ca687","system_id":"levelo_inurba_marseille","lat":43.28855,"lon":5.39332,"is_reserved":false,"is_disabled":true,"rental_uris":{"android":"levelo://app?vid=03251f63-26eb-493f-9d65-8e11851ca687","ios":"levelo://app?vid=03251f63-26eb-493f-9d65-8e11851ca687"},"vehicle_type_id":"4","last_reported":1752404863,"current_range_meters":7200,"station_id":"ce4bh2p2rcd13ifvqdi0","pricing_plan_id":"cebpf4jnsgd1na2vs0mg"},{"bike_id":"8929c1bf-fd4d-44e4-aa66-b3eb6538c998","system_id":"levelo_inurba_marseille","lat":43.28571,"lon":5.42961,"is_reserved":false,"is_disabled":false,"rental_uris":{"android":"levelo://app?vid=8929c1bf-fd4d-44e4-aa66-b3eb6538c998","ios":"levelo://app?vid=8929c1bf-fd4d-44e4-aa66-b3eb6538c998"},"vehicle_type_id":"4","last_reported":1752404863,"current_range_meters":8000,"station_id":"","pricing_plan_id":"cebpf4jnsgd1na2vs0mg"},{"bike_id":"989cadc1-b8d5-43b8-aca5-55b69edc9395","system_id":"levelo_inurba_marseille","lat":43.30727,"lon":5.42436,"is_reserved":false,"is_disabled":false,"rental_uris":{"android":"levelo://app?vid=989cadc1-b8d5-43b8-aca5-55b69edc9395","ios":"levelo://app?vid=989cadc1-b8d5-43b8-aca5-55b69edc9395"},"vehicle_type_id":"4","last_reported":1752404863,"current_range_meters":8000,"station_id":"st_cvj6ca6bvosntc0bfgr0","pricing_plan_id":"cebpf4jnsgd1na2vs0mg"},{"bike_id":"4f202c76-1f82-4598-9028-e14acde233dc","system_id":"levelo_inurba_marseille","lat":43.28661,"lon":5.36355,"is_reserved":false,"is_disabled":false,"rental_uris":{"android":"levelo://app?vid=4f202c76-1f82-4598-9028-e14acde233dc","ios":"levelo://app?vid=4f202c76-1f82-4598-9028-e14acde233dc"},"vehicle_type_id":"4","last_reported":1752404863,"current_range_meters":8000,"station_id":"ce4bhah2rcd13ifvqej0","pricing_plan_id":"cebpf4jnsgd1na2vs0mg"},{"bike_id":"3064d7db-7a51-4e85-bef4-6def601894cd","system_id":"levelo_inurba_marseille","lat":43.30953,"lon":5.39027,"is_reserved":false,"is_disabled":true,"rental_uris":{"android":"levelo://app?vid=3064d7db-7a51-4e85-bef4-6def601894cd","ios":"levelo://app?vid=3064d7db-7a51-4e85-bef4-6def601894cd"},"vehicle_type_id":"4","last_reported":1752404863,"current_range_meters":8400,"station_id":"ce4bgup2rcd13ifvqco0","pricing_plan_id":"cebpf4jnsgd1na2vs0mg"},{"bike_id":"b0ce064c-8ad3-4af4-94fc-33f03110a5d4","system_id":"levelo_inurba_marseille","lat":43.25872,"lon":5.39893,"is_reserved":false,"is_disabled":false,"rental_uris":{"android":"levelo://app?vid=b0ce064c-8ad3-4af4-94fc-33f03110a5d4","ios":"levelo://app?vid=b0ce064c-8ad3-4af4-94fc-33f03110a5d4"},"vehicle_type_id":"4","last_reported":1752404863,"current_range_meters":8400,"station_id":"ce4bhl92rcd13ifvqghg","pricing_plan_id":"cebpf4jnsgd1na2vs0mg"},{"bike_id":"5a71ab42-51f6-4d74-8942-e5c8339f2255","system_id":"levelo_inurba_marseille","lat":43.31763,"lon":5.3905,"is_reserved":false,"is_disabled":true,"rental_uris":{"android":"levelo://app?vid=5a71ab42-51f6-4d74-8942-e5c8339f2255","ios":"levelo://app?vid=5a71ab42-51f6-4d74-8942-e5c8339f2255"},"vehicle_type_id":"4","last_reported":1752404863,"current_range_meters":8400,"station_id":"ce4bhqp2rcd13ifvqhng","pricing_plan_id":"cebpf4jnsgd1na2vs0mg"},{"bike_id":"0dd1a828-677d-4de5-8790-1b54571cf003","system_id":"levelo_inurba_marseille","lat":43.30155,"lon":5.38083,"is_reserved":false,"is_disabled":false,"rental_uris":{"android":"levelo://app?vid=0dd1a828-677d-4de5-8790-1b54571cf003","ios":"levelo://app?vid=0dd1a828-677d-4de5-8790-1b54571cf003"},"vehicle_type_id":"4","last_reported":1752404863,"current_range_meters":8400,"station_id":"ce4bgjp2rcd13ifvqbh0","pricing_plan_id":"cebpf4jnsgd1na2vs0mg"},{"bike_id":"dbba3321-20c7-4989-a7b5-ea9ab2c4b3e8","system_id":"levelo_inurba_marseille","lat":43.261935,"lon":5.374477,"is_reserved":false,"is_disabled":true,"rental_uris":{"android":"levelo://app?vid=dbba3321-20c7-4989-a7b5-ea9ab2c4b3e8","ios":"levelo://app?vid=dbba3321-20c7-4989-a7b5-ea9ab2c4b3e8"},"vehicle_type_id":"4","last_reported":1752404863,"current_range_meters":8400,"station_id":"ce4bhgp2rcd13ifvqfc0","pricing_plan_id":"cebpf4jnsgd1na2vs0mg"},{"bike_id":"c453155a-5220-48fc-922b-600ca54f8ab5","system_id":"levelo_inurba_marseille","lat":43.286577,"lon":5.363468,"is_reserved":false,"is_disabled":true,"rental_uris":{"android":"levelo://app?vid=c453155a-5220-48fc-922b-600ca54f8ab5","ios":"levelo://app?vid=c453155a-5220-48fc-922b-600ca54f8ab5"},"vehicle_type_id":"4","last_reported":1752404863,"current_range_meters":8400,"station_id":"ce4bhah2rcd13ifvqej0","pricing_plan_id":"cebpf4jnsgd1na2vs0mg"},{"bike_id":"ccfe730e-133a-41d6-845d-6b6ea0930861","system_id":"levelo_inurba_marseille","lat":43.31121,"lon":5.37771,"is_reserved":false,"is_disabled":false,"rental_uris":{"android":"levelo://app?vid=ccfe730e-133a-41d6-845d-6b6ea0930861","ios":"levelo://app?vid=ccfe730e-133a-41d6-845d-6b6ea0930861"},"vehicle_type_id":"4","last_reported":1752404863,"current_range_meters":8400,"station_id":"ce4bgt92rcd13ifvqcg0","pricing_plan_id":"cebpf4jnsgd1na2vs0mg"},{"bike_id":"46cacac0-84b7-4c70-a453-a1cb8250fb4d","system_id":"levelo_inurba_marseille","lat":43.338,"lon":5.37477,"is_reserved":false,"is_disabled":false,"rental_uris":{"android":"levelo://app?vid=46cacac0-84b7-4c70-a453-a1cb8250fb4d","ios":"levelo://app?vid=46cacac0-84b7-4c70-a453-a1cb8250fb4d"},"vehicle_type_id":"4","last_reported":1752404863,"current_range_meters":8800,"station_id":"","pricing_plan_id":"cebpf4jnsgd1na2vs0mg"},{"bike_id":"696aca5a-f985-42f2-b5f7-74ca3a442dcb","system_id":"levelo_inurba_marseille","lat":43.3091,"lon":5.37151,"is_reserved":false,"is_disabled":false,"rental_uris":{"android":"levelo://app?vid=696aca5a-f985-42f2-b5f7-74ca3a442dcb","ios":"levelo://app?vid=696aca5a-f985-42f2-b5f7-74ca3a442dcb"},"vehicle_type_id":"4","last_reported":1752404863,"current_range_meters":9200,"station_id":"ce4bguh2rcd13ifvqckg","pricing_plan_id":"cebpf4jnsgd1na2vs0mg"},{"bike_id":"39b582f8-c37d-43ca-be13-b2ddc665675f","system_id":"levelo_inurba_marseille","lat":43.296279,"lon":5.405929,"is_reserved":false,"is_disabled":false,"rental_uris":{"android":"levelo://app?vid=39b582f8-c37d-43ca-be13-b2ddc665675f","ios":"levelo://app?vid=39b582f8-c37d-43ca-be13-b2ddc665675f"},"vehicle_type_id":"4","last_reported":1752404863,"current_range_meters":8800,"station_id":"ce4bh0h2rcd13ifvqd60","pricing_plan_id":"cebpf4jnsgd1na2vs0mg"},{"bike_id":"4e18f6a0-cf0a-4e54-823e-14d073e25d70","system_id":"levelo_inurba_marseille","lat":43.28029,"lon":5.36943,"is_reserved":false,"is_disabled":true,"rental_uris":{"android":"levelo://app?vid=4e18f6a0-cf0a-4e54-823e-14d073e25d70","ios":"levelo://app?vid=4e18f6a0-cf0a-4e54-823e-14d073e25d70"},"vehicle_type_id":"4","last_reported":1752404863,"current_range_meters":9200,"station_id":"ce4bha12rcd13ifvqef0","pricing_plan_id":"cebpf4jnsgd1na2vs0mg"},{"bike_id":"bb47416c-eac3-4587-968d-5be0944a5509","system_id":"levelo_inurba_marseille","lat":43.30147,"lon":5.37425,"is_reserved":false,"is_disabled":false,"rental_uris":{"android":"levelo://app?vid=bb47416c-eac3-4587-968d-5be0944a5509","ios":"levelo://app?vid=bb47416c-eac3-4587-968d-5be0944a5509"},"vehicle_type_id":"4","last_reported":1752404863,"current_range_meters":8800,"station_id":"ce4bgs92rcd13ifvqcc0","pricing_plan_id":"cebpf4jnsgd1na2vs0mg"},{"bike_id":"262c7e76-2e28-4d55-b6be-af79e74bb9c9","system_id":"levelo_inurba_marseille","lat":43.32284,"lon":5.36959,"is_reserved":false,"is_disabled":false,"rental_uris":{"android":"levelo://app?vid=262c7e76-2e28-4d55-b6be-af79e74bb9c9","ios":"levelo://app?vid=262c7e76-2e28-4d55-b6be-af79e74bb9c9"},"vehicle_type_id":"4","last_reported":1752404863,"current_range_meters":9600,"station_id":"","pricing_plan_id":"cebpf4jnsgd1na2vs0mg"},{"bike_id":"9692cbc0-f65d-4599-b1ca-c67ac2d0f05e","system_id":"levelo_inurba_marseille","lat":43.26041,"lon":5.37561,"is_reserved":false,"is_disabled":false,"rental_uris":{"android":"levelo://app?vid=9692cbc0-f65d-4599-b1ca-c67ac2d0f05e","ios":"levelo://app?vid=9692cbc0-f65d-4599-b1ca-c67ac2d0f05e"},"vehicle_type_id":"4","last_reported":1752404863,"current_range_meters":9200,"station_id":"ce4bhgh2rcd13ifvqfa0","pricing_plan_id":"cebpf4jnsgd1na2vs0mg"},{"bike_id":"ae10f37f-7428-4b54-8324-5bb5017a9fc4","system_id":"levelo_inurba_marseille","lat":43.317537,"lon":5.390139,"is_reserved":false,"is_disabled":false,"rental_uris":{"android":"levelo://app?vid=ae10f37f-7428-4b54-8324-5bb5017a9fc4","ios":"levelo://app?vid=ae10f37f-7428-4b54-8324-5bb5017a9fc4"},"vehicle_type_id":"4","last_reported":1752404863,"current_range_meters":9600,"station_id":"ce4bhqp2rcd13ifvqhng","pricing_plan_id":"cebpf4jnsgd1na2vs0mg"},{"bike_id":"7984279a-a155-49a4-856c-c8d4deffa956","system_id":"levelo_inurba_marseille","lat":43.21752,"lon":5.34598,"is_reserved":false,"is_disabled":false,"rental_uris":{"android":"levelo://app?vid=7984279a-a155-49a4-856c-c8d4deffa956","ios":"levelo://app?vid=7984279a-a155-49a4-856c-c8d4deffa956"},"vehicle_type_id":"4","last_reported":1752404863,"current_range_meters":9600,"station_id":"st_cvj6r9ubvosntc0bgbag","pricing_plan_id":"cebpf4jnsgd1na2vs0mg"},{"bike_id":"f14b2ae5-65a4-4780-b5ae-6026c1b8a7fc","system_id":"levelo_inurba_marseille","lat":43.32365,"lon":5.36755,"is_reserved":false,"is_disabled":false,"rental_uris":{"android":"levelo://app?vid=f14b2ae5-65a4-4780-b5ae-6026c1b8a7fc","ios":"levelo://app?vid=f14b2ae5-65a4-4780-b5ae-6026c1b8a7fc"},"vehicle_type_id":"4","last_reported":1752404863,"current_range_meters":10000,"station_id":"ce4bhsh2rcd13ifvqi2g","pricing_plan_id":"cebpf4jnsgd1na2vs0mg"},{"bike_id":"895c8c57-7b7e-4257-9d10-fd0f8d3bcb4c","system_id":"levelo_inurba_marseille","lat":43.241638,"lon":5.363945,"is_reserved":false,"is_disabled":false,"rental_uris":{"android":"levelo://app?vid=895c8c57-7b7e-4257-9d10-fd0f8d3bcb4c","ios":"levelo://app?vid=895c8c57-7b7e-4257-9d10-fd0f8d3bcb4c"},"vehicle_type_id":"4","last_reported":1752404863,"current_range_meters":10000,"station_id":"","pricing_plan_id":"cebpf4jnsgd1na2vs0mg"},{"bike_id":"7f02047d-a6cd-43f4-a617-996f2b9a8bc8","system_id":"levelo_inurba_marseille","lat":43.32368,"lon":5.36773,"is_reserved":false,"is_disabled":false,"rental_uris":{"android":"levelo://app?vid=7f02047d-a6cd-43f4-a617-996f2b9a8bc8","ios":"levelo://app?vid=7f02047d-a6cd-43f4-a617-996f2b9a8bc8"},"vehicle_type_id":"4","last_reported":1752404863,"current_range_meters":10000,"station_id":"ce4bhsh2rcd13ifvqi2g","pricing_plan_id":"cebpf4jnsgd1na2vs0mg"},{"bike_id":"ee5338dd-18a1-4b48-a5b0-f8c72f7b1319","system_id":"levelo_inurba_marseille","lat":43.31901,"lon":5.36806,"is_reserved":false,"is_disabled":false,"rental_uris":{"android":"levelo://app?vid=ee5338dd-18a1-4b48-a5b0-f8c72f7b1319","ios":"levelo://app?vid=ee5338dd-18a1-4b48-a5b0-f8c72f7b1319"},"vehicle_type_id":"4","last_reported":1752404863,"current_range_meters":10000,"station_id":"","pricing_plan_id":"cebpf4jnsgd1na2vs0mg"},{"bike_id":"231543cd-29ba-4201-8c63-1917dd3dd1b1","system_id":"levelo_inurba_marseille","lat":43.21747,"lon":5.34601,"is_reserved":false,"is_disabled":false,"rental_uris":{"android":"levelo://app?vid=231543cd-29ba-4201-8c63-1917dd3dd1b1","ios":"levelo://app?vid=231543cd-29ba-4201-8c63-1917dd3dd1b1"},"vehicle_type_id":"4","last_reported":1752404863,"current_range_meters":10000,"station_id":"st_cvj6r9ubvosntc0bgbag","pricing_plan_id":"cebpf4jnsgd1na2vs0mg"},{"bike_id":"68a6aa46-6eba-4ffa-bc48-4fa8ed0e1c71","system_id":"levelo_inurba_marseille","lat":43.293101,"lon":5.371805,"is_reserved":false,"is_disabled":false,"rental_uris":{"android":"levelo://app?vid=68a6aa46-6eba-4ffa-bc48-4fa8ed0e1c71","ios":"levelo://app?vid=68a6aa46-6eba-4ffa-bc48-4fa8ed0e1c71"},"vehicle_type_id":"4","last_reported":1752404863,"current_range_meters":10000,"station_id":"ce4bgh92rcd13ifvqb40","pricing_plan_id":"cebpf4jnsgd1na2vs0mg"},{"bike_id":"470d1e9d-8c05-40b8-a6b2-039f183b9f6a","system_id":"levelo_inurba_marseille","lat":43.23184,"lon":5.35556,"is_reserved":false,"is_disabled":true,"rental_uris":{"android":"levelo://app?vid=470d1e9d-8c05-40b8-a6b2-039f183b9f6a","ios":"levelo://app?vid=470d1e9d-8c05-40b8-a6b2-039f183b9f6a"},"vehicle_type_id":"4","last_reported":1752404863,"current_range_meters":10000,"station_id":"ce4bhu92rcd13ifvqi70","pricing_plan_id":"cebpf4jnsgd1na2vs0mg"},{"bike_id":"3534c062-2947-4f8b-a5d2-fd94335b9432","system_id":"levelo_inurba_marseille","lat":43.28621,"lon":5.35094,"is_reserved":false,"is_disabled":false,"rental_uris":{"android":"levelo://app?vid=3534c062-2947-4f8b-a5d2-fd94335b9432","ios":"levelo://app?vid=3534c062-2947-4f8b-a5d2-fd94335b9432"},"vehicle_type_id":"4","last_reported":1752404863,"current_range_meters":10000,"station_id":"ce4bhch2rcd13ifvqeug","pricing_plan_id":"cebpf4jnsgd1na2vs0mg"},{"bike_id":"0da461e3-e247-4b94-b09a-b0821bfd35ee","system_id":"levelo_inurba_marseille","lat":43.2963,"lon":5.40599,"is_reserved":false,"is_disabled":false,"rental_uris":{"android":"levelo://app?vid=0da461e3-e247-4b94-b09a-b0821bfd35ee","ios":"levelo://app?vid=0da461e3-e247-4b94-b09a-b0821bfd35ee"},"vehicle_type_id":"4","last_reported":1752404863,"current_range_meters":10800,"station_id":"ce4bh0h2rcd13ifvqd60","pricing_plan_id":"cebpf4jnsgd1na2vs0mg"},{"bike_id":"d8b7af91-d035-47ef-81a8-b871b77bd9d4","system_id":"levelo_inurba_marseille","lat":43.29892,"lon":5.43665,"is_reserved":false,"is_disabled":false,"rental_uris":{"android":"levelo://app?vid=d8b7af91-d035-47ef-81a8-b871b77bd9d4","ios":"levelo://app?vid=d8b7af91-d035-47ef-81a8-b871b77bd9d4"},"vehicle_type_id":"4","last_reported":1752404863,"current_range_meters":10800,"station_id":"ce4bhpp2rcd13ifvqhfg","pricing_plan_id":"cebpf4jnsgd1na2vs0mg"},{"bike_id":"aa69306c-bbb9-4bf1-9939-2488f6e4c175","system_id":"levelo_inurba_marseille","lat":43.28674,"lon":5.36357,"is_reserved":false,"is_disabled":false,"rental_uris":{"android":"levelo://app?vid=aa69306c-bbb9-4bf1-9939-2488f6e4c175","ios":"levelo://app?vid=aa69306c-bbb9-4bf1-9939-2488f6e4c175"},"vehicle_type_id":"4","last_reported":1752404863,"current_range_meters":10800,"station_id":"ce4bhah2rcd13ifvqej0","pricing_plan_id":"cebpf4jnsgd1na2vs0mg"},{"bike_id":"b8cd8c38-4d88-48b2-abb3-ece961dbda2a","system_id":"levelo_inurba_marseille","lat":43.30664,"lon":5.40035,"is_reserved":false,"is_disabled":false,"rental_uris":{"android":"levelo://app?vid=b8cd8c38-4d88-48b2-abb3-ece961dbda2a","ios":"levelo://app?vid=b8cd8c38-4d88-48b2-abb3-ece961dbda2a"},"vehicle_type_id":"4","last_reported":1752404863,"current_range_meters":10800,"station_id":"","pricing_plan_id":"cebpf4jnsgd1na2vs0mg"},{"bike_id":"944cfe61-8f4c-4637-82f4-38456b2918f7","system_id":"levelo_inurba_marseille","lat":43.28653,"lon":5.36348,"is_reserved":false,"is_disabled":false,"rental_uris":{"android":"levelo://app?vid=944cfe61-8f4c-4637-82f4-38456b2918f7","ios":"levelo://app?vid=944cfe61-8f4c-4637-82f4-38456b2918f7"},"vehicle_type_id":"4","last_reported":1752404863,"current_range_meters":10800,"station_id":"ce4bhah2rcd13ifvqej0","pricing_plan_id":"cebpf4jnsgd1na2vs0mg"},{"bike_id":"383a2485-518e-4235-b1cd-0ebf65ba74a5","system_id":"levelo_inurba_marseille","lat":43.295397,"lon":5.385477,"is_reserved":false,"is_disabled":true,"rental_uris":{"android":"levelo://app?vid=383a2485-518e-4235-b1cd-0ebf65ba74a5","ios":"levelo://app?vid=383a2485-518e-4235-b1cd-0ebf65ba74a5"},"vehicle_type_id":"4","last_reported":1752404863,"current_range_meters":10800,"station_id":"ce4bgih2rcd13ifvqba0","pricing_plan_id":"cebpf4jnsgd1na2vs0mg"},{"bike_id":"9d002852-5dba-4c52-ad2f-fe3a84cbdcfc","system_id":"levelo_inurba_marseille","lat":43.28029,"lon":5.4163,"is_reserved":false,"is_disabled":false,"rental_uris":{"android":"levelo://app?vid=9d002852-5dba-4c52-ad2f-fe3a84cbdcfc","ios":"levelo://app?vid=9d002852-5dba-4c52-ad2f-fe3a84cbdcfc"},"vehicle_type_id":"4","last_reported":1752404863,"current_range_meters":11200,"station_id":"ce4bho12rcd13ifvqh1g","pricing_plan_id":"cebpf4jnsgd1na2vs0mg"},{"bike_id":"9a46b9ab-a60b-45fc-88a3-caad63ae5b94","system_id":"levelo_inurba_marseille","lat":43.29276,"lon":5.36836,"is_reserved":false,"is_disabled":true,"rental_uris":{"android":"levelo://app?vid=9a46b9ab-a60b-45fc-88a3-caad63ae5b94","ios":"levelo://app?vid=9a46b9ab-a60b-45fc-88a3-caad63ae5b94"},"vehicle_type_id":"4","last_reported":1752404863,"current_range_meters":11200,"station_id":"ce4bhbp2rcd13ifvqesg","pricing_plan_id":"cebpf4jnsgd1na2vs0mg"},{"bike_id":"3d606fdc-f6da-4bfc-a559-196d7d7a114e","system_id":"levelo_inurba_marseille","lat":43.25002,"lon":5.38913,"is_reserved":false,"is_disabled":true,"rental_uris":{"android":"levelo://app?vid=3d606fdc-f6da-4bfc-a559-196d7d7a114e","ios":"levelo://app?vid=3d606fdc-f6da-4bfc-a559-196d7d7a114e"},"vehicle_type_id":"4","last_reported":1752404863,"current_range_meters":11200,"station_id":"ce4bhgp2rcd13ifvqfd0","pricing_plan_id":"cebpf4jnsgd1na2vs0mg"},{"bike_id":"94554e57-63a3-419c-bd1b-5661baeae923","system_id":"levelo_inurba_marseille","lat":43.26783,"lon":5.39416,"is_reserved":false,"is_disabled":false,"rental_uris":{"android":"levelo://app?vid=94554e57-63a3-419c-bd1b-5661baeae923","ios":"levelo://app?vid=94554e57-63a3-419c-bd1b-5661baeae923"},"vehicle_type_id":"4","last_reported":1752404863,"current_range_meters":11600,"station_id":"ce4bhh12rcd13ifvqfg0","pricing_plan_id":"cebpf4jnsgd1na2vs0mg"},{"bike_id":"23ecb19b-0cbc-4c11-a8b4-d8f5e11e95e2","system_id":"levelo_inurba_marseille","lat":43.30597,"lon":5.37216,"is_reserved":false,"is_disabled":false,"rental_uris":{"android":"levelo://app?vid=23ecb19b-0cbc-4c11-a8b4-d8f5e11e95e2","ios":"levelo://app?vid=23ecb19b-0cbc-4c11-a8b4-d8f5e11e95e2"},"vehicle_type_id":"4","last_reported":1752404863,"current_range_meters":11200,"station_id":"ce4bgqh2rcd13ifvqc4g","pricing_plan_id":"cebpf4jnsgd1na2vs0mg"},{"bike_id":"46ce7424-8151-41ba-a046-0c68273c2c8e","system_id":"levelo_inurba_marseille","lat":43.292292,"lon":5.365807,"is_reserved":false,"is_disabled":false,"rental_uris":{"android":"levelo://app?vid=46ce7424-8151-41ba-a046-0c68273c2c8e","ios":"levelo://app?vid=46ce7424-8151-41ba-a046-0c68273c2c8e"},"vehicle_type_id":"4","last_reported":1752404863,"current_range_meters":11600,"station_id":"","pricing_plan_id":"cebpf4jnsgd1na2vs0mg"},{"bike_id":"49801dc2-618a-44b8-84ae-416cd87fdbe9","system_id":"levelo_inurba_marseille","lat":43.33778,"lon":5.37497,"is_reserved":false,"is_disabled":false,"rental_uris":{"android":"levelo://app?vid=49801dc2-618a-44b8-84ae-416cd87fdbe9","ios":"levelo://app?vid=49801dc2-618a-44b8-84ae-416cd87fdbe9"},"vehicle_type_id":"4","last_reported":1752404863,"current_range_meters":11600,"station_id":"","pricing_plan_id":"cebpf4jnsgd1na2vs0mg"},{"bike_id":"31f76825-7b9f-439a-a66c-521eb63e58c1","system_id":"levelo_inurba_marseille","lat":43.29442,"lon":5.43849,"is_reserved":false,"is_disabled":false,"rental_uris":{"android":"levelo://app?vid=31f76825-7b9f-439a-a66c-521eb63e58c1","ios":"levelo://app?vid=31f76825-7b9f-439a-a66c-521eb63e58c1"},"vehicle_type_id":"4","last_reported":1752404863,"current_range_meters":11600,"station_id":"","pricing_plan_id":"cebpf4jnsgd1na2vs0mg"},{"bike_id":"84761d97-9b88-4141-8a33-ed6b0e0263fe","system_id":"levelo_inurba_marseille","lat":43.26222,"lon":5.40456,"is_reserved":false,"is_disabled":false,"rental_uris":{"android":"levelo://app?vid=84761d97-9b88-4141-8a33-ed6b0e0263fe","ios":"levelo://app?vid=84761d97-9b88-4141-8a33-ed6b0e0263fe"},"vehicle_type_id":"4","last_reported":1752404863,"current_range_meters":12000,"station_id":"ce4bhmh2rcd13ifvqgmg","pricing_plan_id":"cebpf4jnsgd1na2vs0mg"},{"bike_id":"11f46ca2-23ee-4f2a-83a5-008959742fbd","system_id":"levelo_inurba_marseille","lat":43.24671,"lon":5.38178,"is_reserved":false,"is_disabled":false,"rental_uris":{"android":"levelo://app?vid=11f46ca2-23ee-4f2a-83a5-008959742fbd","ios":"levelo://app?vid=11f46ca2-23ee-4f2a-83a5-008959742fbd"},"vehicle_type_id":"4","last_reported":1752404863,"current_range_meters":12000,"station_id":"ce4bhih2rcd13ifvqfr0","pricing_plan_id":"cebpf4jnsgd1na2vs0mg"},{"bike_id":"4ab460f6-2b13-462f-a8b8-8ee3ec6489ea","system_id":"levelo_inurba_marseille","lat":43.26227,"lon":5.40458,"is_reserved":false,"is_disabled":false,"rental_uris":{"android":"levelo://app?vid=4ab460f6-2b13-462f-a8b8-8ee3ec6489ea","ios":"levelo://app?vid=4ab460f6-2b13-462f-a8b8-8ee3ec6489ea"},"vehicle_type_id":"4","last_reported":1752404863,"current_range_meters":12000,"station_id":"ce4bhmh2rcd13ifvqgmg","pricing_plan_id":"cebpf4jnsgd1na2vs0mg"},{"bike_id":"f87f46cb-abbc-44cd-850b-3824dd30b7ab","system_id":"levelo_inurba_marseille","lat":43.305458,"lon":5.384263,"is_reserved":false,"is_disabled":false,"rental_uris":{"android":"levelo://app?vid=f87f46cb-abbc-44cd-850b-3824dd30b7ab","ios":"levelo://app?vid=f87f46cb-abbc-44cd-850b-3824dd30b7ab"},"vehicle_type_id":"4","last_reported":1752404863,"current_range_meters":12000,"station_id":"ce4bgg92rcd13ifvqb30","pricing_plan_id":"cebpf4jnsgd1na2vs0mg"},{"bike_id":"d9c0a6cf-38e4-4024-abc5-38788ea4fbf3","system_id":"levelo_inurba_marseille","lat":43.23068,"lon":5.35495,"is_reserved":false,"is_disabled":false,"rental_uris":{"android":"levelo://app?vid=d9c0a6cf-38e4-4024-abc5-38788ea4fbf3","ios":"levelo://app?vid=d9c0a6cf-38e4-4024-abc5-38788ea4fbf3"},"vehicle_type_id":"4","last_reported":1752404863,"current_range_meters":12400,"station_id":"cpo3342slgdg3j2ifvpg","pricing_plan_id":"cebpf4jnsgd1na2vs0mg"},{"bike_id":"9021397e-52e0-4d6e-be44-39c732f2bc3f","system_id":"levelo_inurba_marseille","lat":43.293069,"lon":5.371661,"is_reserved":false,"is_disabled":true,"rental_uris":{"android":"levelo://app?vid=9021397e-52e0-4d6e-be44-39c732f2bc3f","ios":"levelo://app?vid=9021397e-52e0-4d6e-be44-39c732f2bc3f"},"vehicle_type_id":"4","last_reported":1752404863,"current_range_meters":12800,"station_id":"","pricing_plan_id":"cebpf4jnsgd1na2vs0mg"},{"bike_id":"4b8da722-ee9e-48a4-a5e5-3a8a10364708","system_id":"levelo_inurba_marseille","lat":43.31254,"lon":5.37808,"is_reserved":false,"is_disabled":false,"rental_uris":{"android":"levelo://app?vid=4b8da722-ee9e-48a4-a5e5-3a8a10364708","ios":"levelo://app?vid=4b8da722-ee9e-48a4-a5e5-3a8a10364708"},"vehicle_type_id":"4","last_reported":1752404863,"current_range_meters":12800,"station_id":"","pricing_plan_id":"cebpf4jnsgd1na2vs0mg"},{"bike_id":"8b37f03f-f226-4bbc-8648-b109da7ba145","system_id":"levelo_inurba_marseille","lat":43.30536,"lon":5.366999,"is_reserved":false,"is_disabled":false,"rental_uris":{"android":"levelo://app?vid=8b37f03f-f226-4bbc-8648-b109da7ba145","ios":"levelo://app?vid=8b37f03f-f226-4bbc-8648-b109da7ba145"},"vehicle_type_id":"4","last_reported":1752404863,"current_range_meters":12800,"station_id":"","pricing_plan_id":"cebpf4jnsgd1na2vs0mg"},{"bike_id":"f23760ff-ab61-4853-aa67-28aac93822c1","system_id":"levelo_inurba_marseille","lat":43.337444,"lon":5.374475,"is_reserved":false,"is_disabled":false,"rental_uris":{"android":"levelo://app?vid=f23760ff-ab61-4853-aa67-28aac93822c1","ios":"levelo://app?vid=f23760ff-ab61-4853-aa67-28aac93822c1"},"vehicle_type_id":"4","last_reported":1752404863,"current_range_meters":12800,"station_id":"","pricing_plan_id":"cebpf4jnsgd1na2vs0mg"},{"bike_id":"b105f991-1563-4fc4-9371-7364ce9b8c80","system_id":"levelo_inurba_marseille","lat":43.287285,"lon":5.395579,"is_reserved":false,"is_disabled":false,"rental_uris":{"android":"levelo://app?vid=b105f991-1563-4fc4-9371-7364ce9b8c80","ios":"levelo://app?vid=b105f991-1563-4fc4-9371-7364ce9b8c80"},"vehicle_type_id":"4","last_reported":1752404863,"current_range_meters":12800,"station_id":"","pricing_plan_id":"cebpf4jnsgd1na2vs0mg"},{"bike_id":"9a72d1fd-ba0d-40b8-85c2-0a32bee82c5a","system_id":"levelo_inurba_marseille","lat":43.28561,"lon":5.40184,"is_reserved":false,"is_disabled":false,"rental_uris":{"android":"levelo://app?vid=9a72d1fd-ba0d-40b8-85c2-0a32bee82c5a","ios":"levelo://app?vid=9a72d1fd-ba0d-40b8-85c2-0a32bee82c5a"},"vehicle_type_id":"4","last_reported":1752404863,"current_range_meters":12800,"station_id":"","pricing_plan_id":"cebpf4jnsgd1na2vs0mg"},{"bike_id":"f70d4eb7-0483-4b22-b4af-6857c0805839","system_id":"levelo_inurba_marseille","lat":43.29901,"lon":5.38102,"is_reserved":false,"is_disabled":true,"rental_uris":{"android":"levelo://app?vid=f70d4eb7-0483-4b22-b4af-6857c0805839","ios":"levelo://app?vid=f70d4eb7-0483-4b22-b4af-6857c0805839"},"vehicle_type_id":"4","last_reported":1752404863,"current_range_meters":13600,"station_id":"ce4bgj12rcd13ifvqbc0","pricing_plan_id":"cebpf4jnsgd1na2vs0mg"},{"bike_id":"1246340e-7ba7-4d4f-989b-650db36f2055","system_id":"levelo_inurba_marseille","lat":43.29548,"lon":5.42309,"is_reserved":false,"is_disabled":false,"rental_uris":{"android":"levelo://app?vid=1246340e-7ba7-4d4f-989b-650db36f2055","ios":"levelo://app?vid=1246340e-7ba7-4d4f-989b-650db36f2055"},"vehicle_type_id":"4","last_reported":1752404863,"current_range_meters":13600,"station_id":"ce4bhph2rcd13ifvqhdg","pricing_plan_id":"cebpf4jnsgd1na2vs0mg"},{"bike_id":"05969d09-8747-4d1f-8db2-28f1a7f3ece1","system_id":"levelo_inurba_marseille","lat":43.30323,"lon":5.36908,"is_reserved":false,"is_disabled":false,"rental_uris":{"android":"levelo://app?vid=05969d09-8747-4d1f-8db2-28f1a7f3ece1","ios":"levelo://app?vid=05969d09-8747-4d1f-8db2-28f1a7f3ece1"},"vehicle_type_id":"4","last_reported":1752404863,"current_range_meters":13600,"station_id":"ce4bgqh2rcd13ifvqc5g","pricing_plan_id":"cebpf4jnsgd1na2vs0mg"},{"bike_id":"6e13a970-a2a9-4946-b3fd-aca4e18bd434","system_id":"levelo_inurba_marseille","lat":43.3128,"lon":5.40182,"is_reserved":false,"is_disabled":false,"rental_uris":{"android":"levelo://app?vid=6e13a970-a2a9-4946-b3fd-aca4e18bd434","ios":"levelo://app?vid=6e13a970-a2a9-4946-b3fd-aca4e18bd434"},"vehicle_type_id":"4","last_reported":1752404863,"current_range_meters":13600,"station_id":"ce4bh092rcd13ifvqd30","pricing_plan_id":"cebpf4jnsgd1na2vs0mg"},{"bike_id":"f17c947a-8a1b-42b0-a3d6-60286dc16ad2","system_id":"levelo_inurba_marseille","lat":43.24167,"lon":5.36411,"is_reserved":false,"is_disabled":false,"rental_uris":{"android":"levelo://app?vid=f17c947a-8a1b-42b0-a3d6-60286dc16ad2","ios":"levelo://app?vid=f17c947a-8a1b-42b0-a3d6-60286dc16ad2"},"vehicle_type_id":"4","last_reported":1752404863,"current_range_meters":14000,"station_id":"cpo36qri1sfpv3e86is0","pricing_plan_id":"cebpf4jnsgd1na2vs0mg"},{"bike_id":"b8c31bb8-e8f4-4036-8fa5-5b3756ba71ba","system_id":"levelo_inurba_marseille","lat":43.29565,"lon":5.37497,"is_reserved":false,"is_disabled":false,"rental_uris":{"android":"levelo://app?vid=b8c31bb8-e8f4-4036-8fa5-5b3756ba71ba","ios":"levelo://app?vid=b8c31bb8-e8f4-4036-8fa5-5b3756ba71ba"},"vehicle_type_id":"4","last_reported":1752404863,"current_range_meters":14000,"station_id":"","pricing_plan_id":"cebpf4jnsgd1na2vs0mg"},{"bike_id":"6d3f299a-d341-49bc-a1f9-7534528d9b67","system_id":"levelo_inurba_marseille","lat":43.23201,"lon":5.3556,"is_reserved":false,"is_disabled":false,"rental_uris":{"android":"levelo://app?vid=6d3f299a-d341-49bc-a1f9-7534528d9b67","ios":"levelo://app?vid=6d3f299a-d341-49bc-a1f9-7534528d9b67"},"vehicle_type_id":"4","last_reported":1752404863,"current_range_meters":14000,"station_id":"ce4bhu92rcd13ifvqi70","pricing_plan_id":"cebpf4jnsgd1na2vs0mg"},{"bike_id":"caf45c3e-79e5-4cec-8d20-f7fc120ff428","system_id":"levelo_inurba_marseille","lat":43.29627,"lon":5.37168,"is_reserved":false,"is_disabled":false,"rental_uris":{"android":"levelo://app?vid=caf45c3e-79e5-4cec-8d20-f7fc120ff428","ios":"levelo://app?vid=caf45c3e-79e5-4cec-8d20-f7fc120ff428"},"vehicle_type_id":"4","last_reported":1752404863,"current_range_meters":14400,"station_id":"ce4bgnh2rcd13ifvqc0g","pricing_plan_id":"cebpf4jnsgd1na2vs0mg"},{"bike_id":"c1d0629c-eaee-41e7-8c10-68b0ec1b077d","system_id":"levelo_inurba_marseille","lat":43.32767,"lon":5.39104,"is_reserved":false,"is_disabled":false,"rental_uris":{"android":"levelo://app?vid=c1d0629c-eaee-41e7-8c10-68b0ec1b077d","ios":"levelo://app?vid=c1d0629c-eaee-41e7-8c10-68b0ec1b077d"},"vehicle_type_id":"4","last_reported":1752404863,"current_range_meters":14000,"station_id":"","pricing_plan_id":"cebpf4jnsgd1na2vs0mg"},{"bike_id":"7a888645-4b0c-4379-98d8-380a5347b74c","system_id":"levelo_inurba_marseille","lat":43.27386,"lon":5.36272,"is_reserved":false,"is_disabled":true,"rental_uris":{"android":"levelo://app?vid=7a888645-4b0c-4379-98d8-380a5347b74c","ios":"levelo://app?vid=7a888645-4b0c-4379-98d8-380a5347b74c"},"vehicle_type_id":"4","last_reported":1752404863,"current_range_meters":14400,"station_id":"ce4bhbh2rcd13ifvqeo0","pricing_plan_id":"cebpf4jnsgd1na2vs0mg"},{"bike_id":"e2ce6e8a-ef9f-4211-8776-042780e4931d","system_id":"levelo_inurba_marseille","lat":43.28441,"lon":5.34995,"is_reserved":false,"is_disabled":true,"rental_uris":{"android":"levelo://app?vid=e2ce6e8a-ef9f-4211-8776-042780e4931d","ios":"levelo://app?vid=e2ce6e8a-ef9f-4211-8776-042780e4931d"},"vehicle_type_id":"4","last_reported":1752404863,"current_range_meters":14400,"station_id":"ce4bhbh2rcd13ifvqepg","pricing_plan_id":"cebpf4jnsgd1na2vs0mg"},{"bike_id":"5de9c717-1c57-4958-b7af-f3b1569b8f07","system_id":"levelo_inurba_marseille","lat":43.21749,"lon":5.34597,"is_reserved":false,"is_disabled":true,"rental_uris":{"android":"levelo://app?vid=5de9c717-1c57-4958-b7af-f3b1569b8f07","ios":"levelo://app?vid=5de9c717-1c57-4958-b7af-f3b1569b8f07"},"vehicle_type_id":"4","last_reported":1752404863,"current_range_meters":14400,"station_id":"st_cvj6r9ubvosntc0bgbag","pricing_plan_id":"cebpf4jnsgd1na2vs0mg"},{"bike_id":"8bcb3360-dbaa-4a6a-ae34-1ee8e5254ec4","system_id":"levelo_inurba_marseille","lat":43.24173,"lon":5.3974,"is_reserved":false,"is_disabled":false,"rental_uris":{"android":"levelo://app?vid=8bcb3360-dbaa-4a6a-ae34-1ee8e5254ec4","ios":"levelo://app?vid=8bcb3360-dbaa-4a6a-ae34-1ee8e5254ec4"},"vehicle_type_id":"4","last_reported":1752404863,"current_range_meters":14400,"station_id":"ce4bhn12rcd13ifvqgpg","pricing_plan_id":"cebpf4jnsgd1na2vs0mg"},{"bike_id":"c351afbd-1c25-4a25-bf07-5008c9b7676f","system_id":"levelo_inurba_marseille","lat":43.24684,"lon":5.3818,"is_reserved":false,"is_disabled":false,"rental_uris":{"android":"levelo://app?vid=c351afbd-1c25-4a25-bf07-5008c9b7676f","ios":"levelo://app?vid=c351afbd-1c25-4a25-bf07-5008c9b7676f"},"vehicle_type_id":"4","last_reported":1752404863,"current_range_meters":14400,"station_id":"ce4bhih2rcd13ifvqfr0","pricing_plan_id":"cebpf4jnsgd1na2vs0mg"},{"bike_id":"efdaf75a-6948-4bec-ada8-3ddaab357fd1","system_id":"levelo_inurba_marseille","lat":43.2957,"lon":5.37511,"is_reserved":false,"is_disabled":false,"rental_uris":{"android":"levelo://app?vid=efdaf75a-6948-4bec-ada8-3ddaab357fd1","ios":"levelo://app?vid=efdaf75a-6948-4bec-ada8-3ddaab357fd1"},"vehicle_type_id":"4","last_reported":1752404863,"current_range_meters":14800,"station_id":"ce4bgh92rcd13ifvqb50","pricing_plan_id":"cebpf4jnsgd1na2vs0mg"},{"bike_id":"aefbfc0a-725f-4a70-ae3a-82ca7999559f","system_id":"levelo_inurba_marseille","lat":43.24183,"lon":5.39715,"is_reserved":false,"is_disabled":false,"rental_uris":{"android":"levelo://app?vid=aefbfc0a-725f-4a70-ae3a-82ca7999559f","ios":"levelo://app?vid=aefbfc0a-725f-4a70-ae3a-82ca7999559f"},"vehicle_type_id":"4","last_reported":1752404863,"current_range_meters":14800,"station_id":"ce4bhn12rcd13ifvqgpg","pricing_plan_id":"cebpf4jnsgd1na2vs0mg"},{"bike_id":"b75419f9-0498-4890-95f9-846239aad7f8","system_id":"levelo_inurba_marseille","lat":43.2306,"lon":5.35493,"is_reserved":false,"is_disabled":false,"rental_uris":{"android":"levelo://app?vid=b75419f9-0498-4890-95f9-846239aad7f8","ios":"levelo://app?vid=b75419f9-0498-4890-95f9-846239aad7f8"},"vehicle_type_id":"4","last_reported":1752404863,"current_range_meters":14400,"station_id":"cpo3342slgdg3j2ifvpg","pricing_plan_id":"cebpf4jnsgd1na2vs0mg"},{"bike_id":"a44f68aa-b920-4eb6-845e-df1183944a6b","system_id":"levelo_inurba_marseille","lat":43.285675,"lon":5.350595,"is_reserved":false,"is_disabled":true,"rental_uris":{"android":"levelo://app?vid=a44f68aa-b920-4eb6-845e-df1183944a6b","ios":"levelo://app?vid=a44f68aa-b920-4eb6-845e-df1183944a6b"},"vehicle_type_id":"4","last_reported":1752404863,"current_range_meters":14800,"station_id":"","pricing_plan_id":"cebpf4jnsgd1na2vs0mg"},{"bike_id":"d5e5c126-1613-4640-841e-9eba668bc5fc","system_id":"levelo_inurba_marseille","lat":43.2985,"lon":5.3628,"is_reserved":false,"is_disabled":false,"rental_uris":{"android":"levelo://app?vid=d5e5c126-1613-4640-841e-9eba668bc5fc","ios":"levelo://app?vid=d5e5c126-1613-4640-841e-9eba668bc5fc"},"vehicle_type_id":"4","last_reported":1752404863,"current_range_meters":14800,"station_id":"ce4bgpp2rcd13ifvqc3g","pricing_plan_id":"cebpf4jnsgd1na2vs0mg"},{"bike_id":"2afd10ce-5f23-4122-9c7a-a3416be941b2","system_id":"levelo_inurba_marseille","lat":43.260198,"lon":5.375485,"is_reserved":false,"is_disabled":true,"rental_uris":{"android":"levelo://app?vid=2afd10ce-5f23-4122-9c7a-a3416be941b2","ios":"levelo://app?vid=2afd10ce-5f23-4122-9c7a-a3416be941b2"},"vehicle_type_id":"4","last_reported":1752404863,"current_range_meters":14800,"station_id":"ce4bhgh2rcd13ifvqfa0","pricing_plan_id":"cebpf4jnsgd1na2vs0mg"},{"bike_id":"87ca9723-0416-40be-828a-f3ffc10fd414","system_id":"levelo_inurba_marseille","lat":43.26555,"lon":5.37301,"is_reserved":false,"is_disabled":false,"rental_uris":{"android":"levelo://app?vid=87ca9723-0416-40be-828a-f3ffc10fd414","ios":"levelo://app?vid=87ca9723-0416-40be-828a-f3ffc10fd414"},"vehicle_type_id":"4","last_reported":1752404863,"current_range_meters":14800,"station_id":"ce4bhg12rcd13ifvqf70","pricing_plan_id":"cebpf4jnsgd1na2vs0mg"},{"bike_id":"a75bcac8-2486-4c81-8ec1-6ad109131fd5","system_id":"levelo_inurba_marseille","lat":43.27215,"lon":5.39182,"is_reserved":false,"is_disabled":false,"rental_uris":{"android":"levelo://app?vid=a75bcac8-2486-4c81-8ec1-6ad109131fd5","ios":"levelo://app?vid=a75bcac8-2486-4c81-8ec1-6ad109131fd5"},"vehicle_type_id":"4","last_reported":1752404863,"current_range_meters":14800,"station_id":"ce4bhhp2rcd13ifvqfm0","pricing_plan_id":"cebpf4jnsgd1na2vs0mg"},{"bike_id":"63310cfb-531f-4741-8727-73a65cfd38d3","system_id":"levelo_inurba_marseille","lat":43.25583,"lon":5.38241,"is_reserved":false,"is_disabled":false,"rental_uris":{"android":"levelo://app?vid=63310cfb-531f-4741-8727-73a65cfd38d3","ios":"levelo://app?vid=63310cfb-531f-4741-8727-73a65cfd38d3"},"vehicle_type_id":"4","last_reported":1752404863,"current_range_meters":15200,"station_id":"ce4bhih2rcd13ifvqfs0","pricing_plan_id":"cebpf4jnsgd1na2vs0mg"},{"bike_id":"3ba38c80-e71c-4a7b-8b1f-19f011ec29bb","system_id":"levelo_inurba_marseille","lat":43.303192,"lon":5.404397,"is_reserved":false,"is_disabled":false,"rental_uris":{"android":"levelo://app?vid=3ba38c80-e71c-4a7b-8b1f-19f011ec29bb","ios":"levelo://app?vid=3ba38c80-e71c-4a7b-8b1f-19f011ec29bb"},"vehicle_type_id":"4","last_reported":1752404863,"current_range_meters":15200,"station_id":"ce4bh012rcd13ifvqd10","pricing_plan_id":"cebpf4jnsgd1na2vs0mg"},{"bike_id":"dc849401-45da-4b31-a142-cd537a4347e8","system_id":"levelo_inurba_marseille","lat":43.273148,"lon":5.390836,"is_reserved":false,"is_disabled":false,"rental_uris":{"android":"levelo://app?vid=dc849401-45da-4b31-a142-cd537a4347e8","ios":"levelo://app?vid=dc849401-45da-4b31-a142-cd537a4347e8"},"vehicle_type_id":"4","last_reported":1752404863,"current_range_meters":15200,"station_id":"ce4bhgp2rcd13ifvqfe0","pricing_plan_id":"cebpf4jnsgd1na2vs0mg"},{"bike_id":"82064778-37b9-438b-b376-909fd880c387","system_id":"levelo_inurba_marseille","lat":43.29963,"lon":5.41327,"is_reserved":false,"is_disabled":false,"rental_uris":{"android":"levelo://app?vid=82064778-37b9-438b-b376-909fd880c387","ios":"levelo://app?vid=82064778-37b9-438b-b376-909fd880c387"},"vehicle_type_id":"4","last_reported":1752404863,"current_range_meters":15200,"station_id":"ce4bhp12rcd13ifvqh9g","pricing_plan_id":"cebpf4jnsgd1na2vs0mg"},{"bike_id":"7048b274-bb73-4f78-bd84-2dffe4927289","system_id":"levelo_inurba_marseille","lat":43.29777,"lon":5.39352,"is_reserved":false,"is_disabled":true,"rental_uris":{"android":"levelo://app?vid=7048b274-bb73-4f78-bd84-2dffe4927289","ios":"levelo://app?vid=7048b274-bb73-4f78-bd84-2dffe4927289"},"vehicle_type_id":"4","last_reported":1752404863,"current_range_meters":15200,"station_id":"chh1huq6cuj3fo74tm60","pricing_plan_id":"cebpf4jnsgd1na2vs0mg"},{"bike_id":"0cfe2a5a-3c82-491a-b988-70a0642db701","system_id":"levelo_inurba_marseille","lat":43.27974,"lon":5.36317,"is_reserved":false,"is_disabled":false,"rental_uris":{"android":"levelo://app?vid=0cfe2a5a-3c82-491a-b988-70a0642db701","ios":"levelo://app?vid=0cfe2a5a-3c82-491a-b988-70a0642db701"},"vehicle_type_id":"4","last_reported":1752404863,"current_range_meters":15200,"station_id":"ce4bguh2rcd13ifvqckg","pricing_plan_id":"cebpf4jnsgd1na2vs0mg"},{"bike_id":"718eafe4-1059-4d0b-9935-83404501b5b5","system_id":"levelo_inurba_marseille","lat":43.31761,"lon":5.37747,"is_reserved":false,"is_disabled":false,"rental_uris":{"android":"levelo://app?vid=718eafe4-1059-4d0b-9935-83404501b5b5","ios":"levelo://app?vid=718eafe4-1059-4d0b-9935-83404501b5b5"},"vehicle_type_id":"4","last_reported":1752404863,"current_range_meters":16000,"station_id":"","pricing_plan_id":"cebpf4jnsgd1na2vs0mg"},{"bike_id":"b1f8b228-2902-4b9a-8869-aa334d11c83b","system_id":"levelo_inurba_marseille","lat":43.32357,"lon":5.38899,"is_reserved":false,"is_disabled":false,"rental_uris":{"android":"levelo://app?vid=b1f8b228-2902-4b9a-8869-aa334d11c83b","ios":"levelo://app?vid=b1f8b228-2902-4b9a-8869-aa334d11c83b"},"vehicle_type_id":"4","last_reported":1752404863,"current_range_meters":16800,"station_id":"ce4bhqp2rcd13ifvqhog","pricing_plan_id":"cebpf4jnsgd1na2vs0mg"},{"bike_id":"63cc817e-6e08-4731-a8af-cf16ab38fe1a","system_id":"levelo_inurba_marseille","lat":43.28606,"lon":5.35109,"is_reserved":false,"is_disabled":false,"rental_uris":{"android":"levelo://app?vid=63cc817e-6e08-4731-a8af-cf16ab38fe1a","ios":"levelo://app?vid=63cc817e-6e08-4731-a8af-cf16ab38fe1a"},"vehicle_type_id":"4","last_reported":1752404863,"current_range_meters":16000,"station_id":"ce4bhch2rcd13ifvqeug","pricing_plan_id":"cebpf4jnsgd1na2vs0mg"},{"bike_id":"d9d63d91-160d-42d0-b9c6-42c216f308c7","system_id":"levelo_inurba_marseille","lat":43.30365,"lon":5.42476,"is_reserved":false,"is_disabled":false,"rental_uris":{"android":"levelo://app?vid=d9d63d91-160d-42d0-b9c6-42c216f308c7","ios":"levelo://app?vid=d9d63d91-160d-42d0-b9c6-42c216f308c7"},"vehicle_type_id":"4","last_reported":1752404863,"current_range_meters":16000,"station_id":"ce4bhoh2rcd13ifvqh6g","pricing_plan_id":"cebpf4jnsgd1na2vs0mg"},{"bike_id":"c3e3ac6f-9bdf-42be-94b7-108dfa8bf9d9","system_id":"levelo_inurba_marseille","lat":43.32477,"lon":5.36586,"is_reserved":false,"is_disabled":true,"rental_uris":{"android":"levelo://app?vid=c3e3ac6f-9bdf-42be-94b7-108dfa8bf9d9","ios":"levelo://app?vid=c3e3ac6f-9bdf-42be-94b7-108dfa8bf9d9"},"vehicle_type_id":"4","last_reported":1752404863,"current_range_meters":16000,"station_id":"ce4bhs12rcd13ifvqhvg","pricing_plan_id":"cebpf4jnsgd1na2vs0mg"},{"bike_id":"162ce9df-4c9f-40cd-bb86-4a8ca9d7a01d","system_id":"levelo_inurba_marseille","lat":43.25498,"lon":5.37649,"is_reserved":false,"is_disabled":false,"rental_uris":{"android":"levelo://app?vid=162ce9df-4c9f-40cd-bb86-4a8ca9d7a01d","ios":"levelo://app?vid=162ce9df-4c9f-40cd-bb86-4a8ca9d7a01d"},"vehicle_type_id":"4","last_reported":1752404863,"current_range_meters":16000,"station_id":"ce4bhh12rcd13ifvqff0","pricing_plan_id":"cebpf4jnsgd1na2vs0mg"},{"bike_id":"e1ad3ad8-9c88-48a9-9d22-5695b42c1f8b","system_id":"levelo_inurba_marseille","lat":43.30487,"lon":5.37911,"is_reserved":false,"is_disabled":false,"rental_uris":{"android":"levelo://app?vid=e1ad3ad8-9c88-48a9-9d22-5695b42c1f8b","ios":"levelo://app?vid=e1ad3ad8-9c88-48a9-9d22-5695b42c1f8b"},"vehicle_type_id":"4","last_reported":1752404863,"current_range_meters":16400,"station_id":"ce4bgup2rcd13ifvqcn0","pricing_plan_id":"cebpf4jnsgd1na2vs0mg"},{"bike_id":"adfe8be3-1e95-4a39-ba2c-619c92879657","system_id":"levelo_inurba_marseille","lat":43.23187,"lon":5.39989,"is_reserved":false,"is_disabled":false,"rental_uris":{"android":"levelo://app?vid=adfe8be3-1e95-4a39-ba2c-619c92879657","ios":"levelo://app?vid=adfe8be3-1e95-4a39-ba2c-619c92879657"},"vehicle_type_id":"4","last_reported":1752404863,"current_range_meters":16400,"station_id":"ce4bhn12rcd13ifvqgqg","pricing_plan_id":"cebpf4jnsgd1na2vs0mg"},{"bike_id":"3e1604a2-09ac-47d9-a437-6cb7914ad631","system_id":"levelo_inurba_marseille","lat":43.30547,"lon":5.36571,"is_reserved":false,"is_disabled":false,"rental_uris":{"android":"levelo://app?vid=3e1604a2-09ac-47d9-a437-6cb7914ad631","ios":"levelo://app?vid=3e1604a2-09ac-47d9-a437-6cb7914ad631"},"vehicle_type_id":"4","last_reported":1752404863,"current_range_meters":16400,"station_id":"ce4bgs12rcd13ifvqcag","pricing_plan_id":"cebpf4jnsgd1na2vs0mg"},{"bike_id":"94ccf81a-4929-4022-a983-045785e71c6d","system_id":"levelo_inurba_marseille","lat":43.276238,"lon":5.361081,"is_reserved":false,"is_disabled":false,"rental_uris":{"android":"levelo://app?vid=94ccf81a-4929-4022-a983-045785e71c6d","ios":"levelo://app?vid=94ccf81a-4929-4022-a983-045785e71c6d"},"vehicle_type_id":"4","last_reported":1752404863,"current_range_meters":16400,"station_id":"ce4bgj92rcd13ifvqbe0","pricing_plan_id":"cebpf4jnsgd1na2vs0mg"},{"bike_id":"d9f5802f-b85b-44ac-bb5d-e411c0bdfd0f","system_id":"levelo_inurba_marseille","lat":43.24163,"lon":5.36408,"is_reserved":false,"is_disabled":false,"rental_uris":{"android":"levelo://app?vid=d9f5802f-b85b-44ac-bb5d-e411c0bdfd0f","ios":"levelo://app?vid=d9f5802f-b85b-44ac-bb5d-e411c0bdfd0f"},"vehicle_type_id":"4","last_reported":1752404863,"current_range_meters":16400,"station_id":"cpo36qri1sfpv3e86is0","pricing_plan_id":"cebpf4jnsgd1na2vs0mg"},{"bike_id":"ee7b56d6-cbc0-471e-a0fe-901cf29e1c10","system_id":"levelo_inurba_marseille","lat":43.2558,"lon":5.38242,"is_reserved":false,"is_disabled":false,"rental_uris":{"android":"levelo://app?vid=ee7b56d6-cbc0-471e-a0fe-901cf29e1c10","ios":"levelo://app?vid=ee7b56d6-cbc0-471e-a0fe-901cf29e1c10"},"vehicle_type_id":"4","last_reported":1752404863,"current_range_meters":16400,"station_id":"ce4bhih2rcd13ifvqfs0","pricing_plan_id":"cebpf4jnsgd1na2vs0mg"},{"bike_id":"d5f9c5bb-1fa2-40ba-9e66-96086af89407","system_id":"levelo_inurba_marseille","lat":43.24161,"lon":5.36412,"is_reserved":false,"is_disabled":false,"rental_uris":{"android":"levelo://app?vid=d5f9c5bb-1fa2-40ba-9e66-96086af89407","ios":"levelo://app?vid=d5f9c5bb-1fa2-40ba-9e66-96086af89407"},"vehicle_type_id":"4","last_reported":1752404863,"current_range_meters":16400,"station_id":"cpo36qri1sfpv3e86is0","pricing_plan_id":"cebpf4jnsgd1na2vs0mg"},{"bike_id":"9bfc7d3d-4e60-4f8a-9c32-ef3d0e77ec5b","system_id":"levelo_inurba_marseille","lat":43.211985,"lon":5.350586,"is_reserved":false,"is_disabled":false,"rental_uris":{"android":"levelo://app?vid=9bfc7d3d-4e60-4f8a-9c32-ef3d0e77ec5b","ios":"levelo://app?vid=9bfc7d3d-4e60-4f8a-9c32-ef3d0e77ec5b"},"vehicle_type_id":"4","last_reported":1752404863,"current_range_meters":16400,"station_id":"st_cvj6sg6p6f1abm77japg","pricing_plan_id":"cebpf4jnsgd1na2vs0mg"},{"bike_id":"52750ed0-a5e5-4a03-b290-cf5ed5b65942","system_id":"levelo_inurba_marseille","lat":43.28673,"lon":5.36363,"is_reserved":false,"is_disabled":false,"rental_uris":{"android":"levelo://app?vid=52750ed0-a5e5-4a03-b290-cf5ed5b65942","ios":"levelo://app?vid=52750ed0-a5e5-4a03-b290-cf5ed5b65942"},"vehicle_type_id":"4","last_reported":1752404863,"current_range_meters":16800,"station_id":"ce4bhah2rcd13ifvqej0","pricing_plan_id":"cebpf4jnsgd1na2vs0mg"},{"bike_id":"7224891a-cbe4-4e83-8c30-5fbf1365e4e0","system_id":"levelo_inurba_marseille","lat":43.21753,"lon":5.34585,"is_reserved":false,"is_disabled":false,"rental_uris":{"android":"levelo://app?vid=7224891a-cbe4-4e83-8c30-5fbf1365e4e0","ios":"levelo://app?vid=7224891a-cbe4-4e83-8c30-5fbf1365e4e0"},"vehicle_type_id":"4","last_reported":1752404863,"current_range_meters":16800,"station_id":"st_cvj6r9ubvosntc0bgbag","pricing_plan_id":"cebpf4jnsgd1na2vs0mg"},{"bike_id":"2a70798a-94ea-48f1-80b7-5109f0e067eb","system_id":"levelo_inurba_marseille","lat":43.29561,"lon":5.42277,"is_reserved":false,"is_disabled":false,"rental_uris":{"android":"levelo://app?vid=2a70798a-94ea-48f1-80b7-5109f0e067eb","ios":"levelo://app?vid=2a70798a-94ea-48f1-80b7-5109f0e067eb"},"vehicle_type_id":"4","last_reported":1752404863,"current_range_meters":16800,"station_id":"ce4bhph2rcd13ifvqhdg","pricing_plan_id":"cebpf4jnsgd1na2vs0mg"},{"bike_id":"35eca55e-ce84-4949-8c23-fef88467ee91","system_id":"levelo_inurba_marseille","lat":43.29572,"lon":5.39959,"is_reserved":false,"is_disabled":false,"rental_uris":{"android":"levelo://app?vid=35eca55e-ce84-4949-8c23-fef88467ee91","ios":"levelo://app?vid=35eca55e-ce84-4949-8c23-fef88467ee91"},"vehicle_type_id":"4","last_reported":1752404863,"current_range_meters":16800,"station_id":"ce4bh312rcd13ifvqdj0","pricing_plan_id":"cebpf4jnsgd1na2vs0mg"},{"bike_id":"8e19074d-50a7-4832-9b54-205418594b91","system_id":"levelo_inurba_marseille","lat":43.29848,"lon":5.36278,"is_reserved":false,"is_disabled":false,"rental_uris":{"android":"levelo://app?vid=8e19074d-50a7-4832-9b54-205418594b91","ios":"levelo://app?vid=8e19074d-50a7-4832-9b54-205418594b91"},"vehicle_type_id":"4","last_reported":1752404863,"current_range_meters":17200,"station_id":"ce4bgpp2rcd13ifvqc3g","pricing_plan_id":"cebpf4jnsgd1na2vs0mg"},{"bike_id":"a5dd5f98-e456-4bd9-aa7e-4ef6bcdcb956","system_id":"levelo_inurba_marseille","lat":43.23196,"lon":5.35553,"is_reserved":false,"is_disabled":false,"rental_uris":{"android":"levelo://app?vid=a5dd5f98-e456-4bd9-aa7e-4ef6bcdcb956","ios":"levelo://app?vid=a5dd5f98-e456-4bd9-aa7e-4ef6bcdcb956"},"vehicle_type_id":"4","last_reported":1752404863,"current_range_meters":17200,"station_id":"ce4bhu92rcd13ifvqi70","pricing_plan_id":"cebpf4jnsgd1na2vs0mg"},{"bike_id":"c078f680-b722-4076-a9f9-b720acc6323c","system_id":"levelo_inurba_marseille","lat":43.28622,"lon":5.35114,"is_reserved":false,"is_disabled":false,"rental_uris":{"android":"levelo://app?vid=c078f680-b722-4076-a9f9-b720acc6323c","ios":"levelo://app?vid=c078f680-b722-4076-a9f9-b720acc6323c"},"vehicle_type_id":"4","last_reported":1752404863,"current_range_meters":17200,"station_id":"ce4bhch2rcd13ifvqeug","pricing_plan_id":"cebpf4jnsgd1na2vs0mg"},{"bike_id":"58375fde-ca97-4dab-be52-59caf98323d3","system_id":"levelo_inurba_marseille","lat":43.26546,"lon":5.37307,"is_reserved":false,"is_disabled":true,"rental_uris":{"android":"levelo://app?vid=58375fde-ca97-4dab-be52-59caf98323d3","ios":"levelo://app?vid=58375fde-ca97-4dab-be52-59caf98323d3"},"vehicle_type_id":"4","last_reported":1752404863,"current_range_meters":17200,"station_id":"ce4bhg12rcd13ifvqf70","pricing_plan_id":"cebpf4jnsgd1na2vs0mg"},{"bike_id":"79ac9d5c-87ca-42a3-a25e-34606432c125","system_id":"levelo_inurba_marseille","lat":43.2131,"lon":5.350265,"is_reserved":false,"is_disabled":false,"rental_uris":{"android":"levelo://app?vid=79ac9d5c-87ca-42a3-a25e-34606432c125","ios":"levelo://app?vid=79ac9d5c-87ca-42a3-a25e-34606432c125"},"vehicle_type_id":"4","last_reported":1752404863,"current_range_meters":17200,"station_id":"","pricing_plan_id":"cebpf4jnsgd1na2vs0mg"},{"bike_id":"cc6260c7-e588-42d7-afef-96c409802ccc","system_id":"levelo_inurba_marseille","lat":43.21188,"lon":5.35085,"is_reserved":false,"is_disabled":false,"rental_uris":{"android":"levelo://app?vid=cc6260c7-e588-42d7-afef-96c409802ccc","ios":"levelo://app?vid=cc6260c7-e588-42d7-afef-96c409802ccc"},"vehicle_type_id":"4","last_reported":1752404863,"current_range_meters":17200,"station_id":"st_cvj6sg6p6f1abm77japg","pricing_plan_id":"cebpf4jnsgd1na2vs0mg"},{"bike_id":"ece9d047-dc12-4ce6-82bf-fc7ad56a230c","system_id":"levelo_inurba_marseille","lat":43.286173,"lon":5.351119,"is_reserved":false,"is_disabled":true,"rental_uris":{"android":"levelo://app?vid=ece9d047-dc12-4ce6-82bf-fc7ad56a230c","ios":"levelo://app?vid=ece9d047-dc12-4ce6-82bf-fc7ad56a230c"},"vehicle_type_id":"4","last_reported":1752404863,"current_range_meters":17200,"station_id":"ce4bhch2rcd13ifvqeug","pricing_plan_id":"cebpf4jnsgd1na2vs0mg"},{"bike_id":"d438c437-0c60-41e5-a3d6-d73226271506","system_id":"levelo_inurba_marseille","lat":43.295636,"lon":5.422634,"is_reserved":false,"is_disabled":false,"rental_uris":{"android":"levelo://app?vid=d438c437-0c60-41e5-a3d6-d73226271506","ios":"levelo://app?vid=d438c437-0c60-41e5-a3d6-d73226271506"},"vehicle_type_id":"4","last_reported":1752404863,"current_range_meters":17200,"station_id":"ce4bhph2rcd13ifvqhdg","pricing_plan_id":"cebpf4jnsgd1na2vs0mg"},{"bike_id":"5c0448b2-8814-4934-b665-27ab2eac725a","system_id":"levelo_inurba_marseille","lat":43.264983,"lon":5.395374,"is_reserved":false,"is_disabled":false,"rental_uris":{"android":"levelo://app?vid=5c0448b2-8814-4934-b665-27ab2eac725a","ios":"levelo://app?vid=5c0448b2-8814-4934-b665-27ab2eac725a"},"vehicle_type_id":"4","last_reported":1752404863,"current_range_meters":17600,"station_id":"ce4bhi12rcd13ifvqfq0","pricing_plan_id":"cebpf4jnsgd1na2vs0mg"},{"bike_id":"7b60e2b3-fe60-4caf-8d3e-4c917054d448","system_id":"levelo_inurba_marseille","lat":43.284324,"lon":5.349959,"is_reserved":false,"is_disabled":true,"rental_uris":{"android":"levelo://app?vid=7b60e2b3-fe60-4caf-8d3e-4c917054d448","ios":"levelo://app?vid=7b60e2b3-fe60-4caf-8d3e-4c917054d448"},"vehicle_type_id":"4","last_reported":1752404863,"current_range_meters":17600,"station_id":"ce4bhbh2rcd13ifvqepg","pricing_plan_id":"cebpf4jnsgd1na2vs0mg"},{"bike_id":"31c710b8-59c4-4592-9629-b8ad795fae60","system_id":"levelo_inurba_marseille","lat":43.302388,"lon":5.40074,"is_reserved":false,"is_disabled":true,"rental_uris":{"android":"levelo://app?vid=31c710b8-59c4-4592-9629-b8ad795fae60","ios":"levelo://app?vid=31c710b8-59c4-4592-9629-b8ad795fae60"},"vehicle_type_id":"4","last_reported":1752404863,"current_range_meters":17600,"station_id":"ce4bgvh2rcd13ifvqcs0","pricing_plan_id":"cebpf4jnsgd1na2vs0mg"},{"bike_id":"0156d603-7079-4c24-837b-fb6f1fe951f1","system_id":"levelo_inurba_marseille","lat":43.26211,"lon":5.37445,"is_reserved":false,"is_disabled":false,"rental_uris":{"android":"levelo://app?vid=0156d603-7079-4c24-837b-fb6f1fe951f1","ios":"levelo://app?vid=0156d603-7079-4c24-837b-fb6f1fe951f1"},"vehicle_type_id":"4","last_reported":1752404863,"current_range_meters":17600,"station_id":"ce4bhgp2rcd13ifvqfc0","pricing_plan_id":"cebpf4jnsgd1na2vs0mg"},{"bike_id":"367a2c41-96cf-4f46-8227-293913dbba9a","system_id":"levelo_inurba_marseille","lat":43.21201,"lon":5.35074,"is_reserved":false,"is_disabled":false,"rental_uris":{"android":"levelo://app?vid=367a2c41-96cf-4f46-8227-293913dbba9a","ios":"levelo://app?vid=367a2c41-96cf-4f46-8227-293913dbba9a"},"vehicle_type_id":"4","last_reported":1752404863,"current_range_meters":17600,"station_id":"st_cvj6sg6p6f1abm77japg","pricing_plan_id":"cebpf4jnsgd1na2vs0mg"},{"bike_id":"f5a47db5-6fb2-46bd-a2de-efa4ad13bf60","system_id":"levelo_inurba_marseille","lat":43.2121,"lon":5.35073,"is_reserved":false,"is_disabled":false,"rental_uris":{"android":"levelo://app?vid=f5a47db5-6fb2-46bd-a2de-efa4ad13bf60","ios":"levelo://app?vid=f5a47db5-6fb2-46bd-a2de-efa4ad13bf60"},"vehicle_type_id":"4","last_reported":1752404863,"current_range_meters":17600,"station_id":"st_cvj6sg6p6f1abm77japg","pricing_plan_id":"cebpf4jnsgd1na2vs0mg"},{"bike_id":"8af9c5b9-33c6-49f1-b28a-3e8284d3f332","system_id":"levelo_inurba_marseille","lat":43.28273,"lon":5.35053,"is_reserved":false,"is_disabled":false,"rental_uris":{"android":"levelo://app?vid=8af9c5b9-33c6-49f1-b28a-3e8284d3f332","ios":"levelo://app?vid=8af9c5b9-33c6-49f1-b28a-3e8284d3f332"},"vehicle_type_id":"4","last_reported":1752404863,"current_range_meters":17600,"station_id":"ce4bhbp2rcd13ifvqerg","pricing_plan_id":"cebpf4jnsgd1na2vs0mg"},{"bike_id":"1aedaa42-1f03-48cc-8e38-d983e72f730b","system_id":"levelo_inurba_marseille","lat":43.27085,"lon":5.42298,"is_reserved":false,"is_disabled":false,"rental_uris":{"android":"levelo://app?vid=1aedaa42-1f03-48cc-8e38-d983e72f730b","ios":"levelo://app?vid=1aedaa42-1f03-48cc-8e38-d983e72f730b"},"vehicle_type_id":"4","last_reported":1752404863,"current_range_meters":17600,"station_id":"ce4bhk92rcd13ifvqgb0","pricing_plan_id":"cebpf4jnsgd1na2vs0mg"},{"bike_id":"e37d8eb0-d581-401b-aee8-91d7dbcf27ad","system_id":"levelo_inurba_marseille","lat":43.29562,"lon":5.42287,"is_reserved":false,"is_disabled":false,"rental_uris":{"android":"levelo://app?vid=e37d8eb0-d581-401b-aee8-91d7dbcf27ad","ios":"levelo://app?vid=e37d8eb0-d581-401b-aee8-91d7dbcf27ad"},"vehicle_type_id":"4","last_reported":1752404863,"current_range_meters":17600,"station_id":"ce4bhph2rcd13ifvqhdg","pricing_plan_id":"cebpf4jnsgd1na2vs0mg"},{"bike_id":"ad355764-c540-40b1-b0c2-8d3982bb492b","system_id":"levelo_inurba_marseille","lat":43.29932,"lon":5.3747,"is_reserved":false,"is_disabled":false,"rental_uris":{"android":"levelo://app?vid=ad355764-c540-40b1-b0c2-8d3982bb492b","ios":"levelo://app?vid=ad355764-c540-40b1-b0c2-8d3982bb492b"},"vehicle_type_id":"4","last_reported":1752404863,"current_range_meters":17600,"station_id":"ce4bgjh2rcd13ifvqbg0","pricing_plan_id":"cebpf4jnsgd1na2vs0mg"},{"bike_id":"313d5bb3-6535-4f46-ae83-33b92691b5ab","system_id":"levelo_inurba_marseille","lat":43.29854,"lon":5.36284,"is_reserved":false,"is_disabled":false,"rental_uris":{"android":"levelo://app?vid=313d5bb3-6535-4f46-ae83-33b92691b5ab","ios":"levelo://app?vid=313d5bb3-6535-4f46-ae83-33b92691b5ab"},"vehicle_type_id":"4","last_reported":1752404863,"current_range_meters":17600,"station_id":"ce4bgpp2rcd13ifvqc3g","pricing_plan_id":"cebpf4jnsgd1na2vs0mg"},{"bike_id":"048d2c6a-56b6-404e-846f-49e6f75d8ec0","system_id":"levelo_inurba_marseille","lat":43.26211,"lon":5.37441,"is_reserved":false,"is_disabled":false,"rental_uris":{"android":"levelo://app?vid=048d2c6a-56b6-404e-846f-49e6f75d8ec0","ios":"levelo://app?vid=048d2c6a-56b6-404e-846f-49e6f75d8ec0"},"vehicle_type_id":"4","last_reported":1752404863,"current_range_meters":17600,"station_id":"ce4bhgp2rcd13ifvqfc0","pricing_plan_id":"cebpf4jnsgd1na2vs0mg"},{"bike_id":"2ec427da-b403-4a7e-86be-3f48ba535d18","system_id":"levelo_inurba_marseille","lat":43.21216,"lon":5.35055,"is_reserved":false,"is_disabled":false,"rental_uris":{"android":"levelo://app?vid=2ec427da-b403-4a7e-86be-3f48ba535d18","ios":"levelo://app?vid=2ec427da-b403-4a7e-86be-3f48ba535d18"},"vehicle_type_id":"4","last_reported":1752404863,"current_range_meters":18000,"station_id":"st_cvj6sg6p6f1abm77japg","pricing_plan_id":"cebpf4jnsgd1na2vs0mg"},{"bike_id":"b6c2118d-3125-4dd4-a121-2b72dcc2ad49","system_id":"levelo_inurba_marseille","lat":43.26225,"lon":5.40451,"is_reserved":false,"is_disabled":false,"rental_uris":{"android":"levelo://app?vid=b6c2118d-3125-4dd4-a121-2b72dcc2ad49","ios":"levelo://app?vid=b6c2118d-3125-4dd4-a121-2b72dcc2ad49"},"vehicle_type_id":"4","last_reported":1752404863,"current_range_meters":18000,"station_id":"ce4bhmh2rcd13ifvqgmg","pricing_plan_id":"cebpf4jnsgd1na2vs0mg"},{"bike_id":"205cdb9d-7065-43c8-96c8-b6a1d413518d","system_id":"levelo_inurba_marseille","lat":43.30217,"lon":5.39466,"is_reserved":false,"is_disabled":false,"rental_uris":{"android":"levelo://app?vid=205cdb9d-7065-43c8-96c8-b6a1d413518d","ios":"levelo://app?vid=205cdb9d-7065-43c8-96c8-b6a1d413518d"},"vehicle_type_id":"4","last_reported":1752404863,"current_range_meters":18000,"station_id":"ce4bh0p2rcd13ifvqd70","pricing_plan_id":"cebpf4jnsgd1na2vs0mg"},{"bike_id":"7d0b72e4-dbcc-4344-a7d9-02d350a1c10a","system_id":"levelo_inurba_marseille","lat":43.21758,"lon":5.34629,"is_reserved":false,"is_disabled":false,"rental_uris":{"android":"levelo://app?vid=7d0b72e4-dbcc-4344-a7d9-02d350a1c10a","ios":"levelo://app?vid=7d0b72e4-dbcc-4344-a7d9-02d350a1c10a"},"vehicle_type_id":"4","last_reported":1752404863,"current_range_meters":18000,"station_id":"st_cvj6r9ubvosntc0bgbag","pricing_plan_id":"cebpf4jnsgd1na2vs0mg"},{"bike_id":"91e36618-f857-45af-ac89-91d909da2db3","system_id":"levelo_inurba_marseille","lat":43.29426,"lon":5.38619,"is_reserved":false,"is_disabled":true,"rental_uris":{"android":"levelo://app?vid=91e36618-f857-45af-ac89-91d909da2db3","ios":"levelo://app?vid=91e36618-f857-45af-ac89-91d909da2db3"},"vehicle_type_id":"4","last_reported":1752404863,"current_range_meters":18000,"station_id":"ce4bh2h2rcd13ifvqdh0","pricing_plan_id":"cebpf4jnsgd1na2vs0mg"},{"bike_id":"e91ced2f-2041-4b38-8446-0d5d97adec95","system_id":"levelo_inurba_marseille","lat":43.25579,"lon":5.38239,"is_reserved":false,"is_disabled":true,"rental_uris":{"android":"levelo://app?vid=e91ced2f-2041-4b38-8446-0d5d97adec95","ios":"levelo://app?vid=e91ced2f-2041-4b38-8446-0d5d97adec95"},"vehicle_type_id":"4","last_reported":1752404863,"current_range_meters":18000,"station_id":"ce4bhih2rcd13ifvqfs0","pricing_plan_id":"cebpf4jnsgd1na2vs0mg"},{"bike_id":"b053f929-7efb-49cd-9959-74ef096980bb","system_id":"levelo_inurba_marseille","lat":43.29269,"lon":5.36843,"is_reserved":false,"is_disabled":true,"rental_uris":{"android":"levelo://app?vid=b053f929-7efb-49cd-9959-74ef096980bb","ios":"levelo://app?vid=b053f929-7efb-49cd-9959-74ef096980bb"},"vehicle_type_id":"4","last_reported":1752404863,"current_range_meters":18000,"station_id":"ce4bhbp2rcd13ifvqesg","pricing_plan_id":"cebpf4jnsgd1na2vs0mg"},{"bike_id":"bcdd975c-eb4c-47ca-a31e-5a6cb5c7f923","system_id":"levelo_inurba_marseille","lat":43.28614,"lon":5.3707,"is_reserved":false,"is_disabled":false,"rental_uris":{"android":"levelo://app?vid=bcdd975c-eb4c-47ca-a31e-5a6cb5c7f923","ios":"levelo://app?vid=bcdd975c-eb4c-47ca-a31e-5a6cb5c7f923"},"vehicle_type_id":"4","last_reported":1752404863,"current_range_meters":18000,"station_id":"ce4bht12rcd13ifvqi60","pricing_plan_id":"cebpf4jnsgd1na2vs0mg"},{"bike_id":"3d3c44be-f0ad-45e5-96ed-c29f44764ec4","system_id":"levelo_inurba_marseille","lat":43.21751,"lon":5.34605,"is_reserved":false,"is_disabled":false,"rental_uris":{"android":"levelo://app?vid=3d3c44be-f0ad-45e5-96ed-c29f44764ec4","ios":"levelo://app?vid=3d3c44be-f0ad-45e5-96ed-c29f44764ec4"},"vehicle_type_id":"4","last_reported":1752404863,"current_range_meters":18000,"station_id":"st_cvj6r9ubvosntc0bgbag","pricing_plan_id":"cebpf4jnsgd1na2vs0mg"},{"bike_id":"eab9f2a0-ee49-4110-a9bf-1b4a45ecb8f7","system_id":"levelo_inurba_marseille","lat":43.301544,"lon":5.381027,"is_reserved":false,"is_disabled":false,"rental_uris":{"android":"levelo://app?vid=eab9f2a0-ee49-4110-a9bf-1b4a45ecb8f7","ios":"levelo://app?vid=eab9f2a0-ee49-4110-a9bf-1b4a45ecb8f7"},"vehicle_type_id":"4","last_reported":1752404863,"current_range_meters":18000,"station_id":"ce4bgjp2rcd13ifvqbh0","pricing_plan_id":"cebpf4jnsgd1na2vs0mg"},{"bike_id":"530df890-2447-4898-8ed5-0529ed2390ee","system_id":"levelo_inurba_marseille","lat":43.29745,"lon":5.38291,"is_reserved":false,"is_disabled":false,"rental_uris":{"android":"levelo://app?vid=530df890-2447-4898-8ed5-0529ed2390ee","ios":"levelo://app?vid=530df890-2447-4898-8ed5-0529ed2390ee"},"vehicle_type_id":"4","last_reported":1752404863,"current_range_meters":18000,"station_id":"","pricing_plan_id":"cebpf4jnsgd1na2vs0mg"},{"bike_id":"afc952d4-4d4e-4fcb-b624-3a40ce835915","system_id":"levelo_inurba_marseille","lat":43.28611,"lon":5.37071,"is_reserved":false,"is_disabled":false,"rental_uris":{"android":"levelo://app?vid=afc952d4-4d4e-4fcb-b624-3a40ce835915","ios":"levelo://app?vid=afc952d4-4d4e-4fcb-b624-3a40ce835915"},"vehicle_type_id":"4","last_reported":1752404863,"current_range_meters":18000,"station_id":"ce4bht12rcd13ifvqi60","pricing_plan_id":"cebpf4jnsgd1na2vs0mg"},{"bike_id":"2c8b55a0-7cee-45a1-85ed-4624a2d1076e","system_id":"levelo_inurba_marseille","lat":43.31439,"lon":5.3929,"is_reserved":false,"is_disabled":false,"rental_uris":{"android":"levelo://app?vid=2c8b55a0-7cee-45a1-85ed-4624a2d1076e","ios":"levelo://app?vid=2c8b55a0-7cee-45a1-85ed-4624a2d1076e"},"vehicle_type_id":"4","last_reported":1752404863,"current_range_meters":18000,"station_id":"","pricing_plan_id":"cebpf4jnsgd1na2vs0mg"},{"bike_id":"c8c4de1a-846f-4f5b-aace-9fb14bf7ad52","system_id":"levelo_inurba_marseille","lat":43.21197,"lon":5.35069,"is_reserved":false,"is_disabled":false,"rental_uris":{"android":"levelo://app?vid=c8c4de1a-846f-4f5b-aace-9fb14bf7ad52","ios":"levelo://app?vid=c8c4de1a-846f-4f5b-aace-9fb14bf7ad52"},"vehicle_type_id":"4","last_reported":1752404863,"current_range_meters":18000,"station_id":"st_cvj6sg6p6f1abm77japg","pricing_plan_id":"cebpf4jnsgd1na2vs0mg"},{"bike_id":"85d66f82-8967-49c9-b9e9-830c25cdbed3","system_id":"levelo_inurba_marseille","lat":43.26214,"lon":5.374344,"is_reserved":false,"is_disabled":false,"rental_uris":{"android":"levelo://app?vid=85d66f82-8967-49c9-b9e9-830c25cdbed3","ios":"levelo://app?vid=85d66f82-8967-49c9-b9e9-830c25cdbed3"},"vehicle_type_id":"4","last_reported":1752404863,"current_range_meters":18800,"station_id":"ce4bhgp2rcd13ifvqfc0","pricing_plan_id":"cebpf4jnsgd1na2vs0mg"},{"bike_id":"570cb15a-a61f-47fb-aaf3-b63fd97dbb24","system_id":"levelo_inurba_marseille","lat":43.296453,"lon":5.35999,"is_reserved":false,"is_disabled":false,"rental_uris":{"android":"levelo://app?vid=570cb15a-a61f-47fb-aaf3-b63fd97dbb24","ios":"levelo://app?vid=570cb15a-a61f-47fb-aaf3-b63fd97dbb24"},"vehicle_type_id":"4","last_reported":1752404863,"current_range_meters":18800,"station_id":"","pricing_plan_id":"cebpf4jnsgd1na2vs0mg"},{"bike_id":"e1442ff3-c767-4bb3-901d-e5f60873ad13","system_id":"levelo_inurba_marseille","lat":43.23192,"lon":5.39979,"is_reserved":false,"is_disabled":false,"rental_uris":{"android":"levelo://app?vid=e1442ff3-c767-4bb3-901d-e5f60873ad13","ios":"levelo://app?vid=e1442ff3-c767-4bb3-901d-e5f60873ad13"},"vehicle_type_id":"4","last_reported":1752404863,"current_range_meters":18800,"station_id":"ce4bhn12rcd13ifvqgqg","pricing_plan_id":"cebpf4jnsgd1na2vs0mg"},{"bike_id":"0186202f-a6cc-437c-b373-407b57a8b334","system_id":"levelo_inurba_marseille","lat":43.22515,"lon":5.3476,"is_reserved":false,"is_disabled":false,"rental_uris":{"android":"levelo://app?vid=0186202f-a6cc-437c-b373-407b57a8b334","ios":"levelo://app?vid=0186202f-a6cc-437c-b373-407b57a8b334"},"vehicle_type_id":"4","last_reported":1752404863,"current_range_meters":18800,"station_id":"st_cvj5dfep6f1abm77gieg","pricing_plan_id":"cebpf4jnsgd1na2vs0mg"},{"bike_id":"78e672a5-9dc9-429d-bd3c-788e581aec8e","system_id":"levelo_inurba_marseille","lat":43.30242,"lon":5.40039,"is_reserved":false,"is_disabled":false,"rental_uris":{"android":"levelo://app?vid=78e672a5-9dc9-429d-bd3c-788e581aec8e","ios":"levelo://app?vid=78e672a5-9dc9-429d-bd3c-788e581aec8e"},"vehicle_type_id":"4","last_reported":1752404863,"current_range_meters":18800,"station_id":"ce4bgvh2rcd13ifvqcs0","pricing_plan_id":"cebpf4jnsgd1na2vs0mg"},{"bike_id":"153b3aa6-9a0e-41f0-a137-bb8d792ba06e","system_id":"levelo_inurba_marseille","lat":43.285828,"lon":5.350881,"is_reserved":false,"is_disabled":false,"rental_uris":{"android":"levelo://app?vid=153b3aa6-9a0e-41f0-a137-bb8d792ba06e","ios":"levelo://app?vid=153b3aa6-9a0e-41f0-a137-bb8d792ba06e"},"vehicle_type_id":"4","last_reported":1752404863,"current_range_meters":18800,"station_id":"ce4bgi12rcd13ifvqb70","pricing_plan_id":"cebpf4jnsgd1na2vs0mg"},{"bike_id":"99ae43ef-9981-41ec-907c-f94f73cc9ad2","system_id":"levelo_inurba_marseille","lat":43.29985,"lon":5.38484,"is_reserved":false,"is_disabled":false,"rental_uris":{"android":"levelo://app?vid=99ae43ef-9981-41ec-907c-f94f73cc9ad2","ios":"levelo://app?vid=99ae43ef-9981-41ec-907c-f94f73cc9ad2"},"vehicle_type_id":"4","last_reported":1752404863,"current_range_meters":18800,"station_id":"ce4bgj92rcd13ifvqbd0","pricing_plan_id":"cebpf4jnsgd1na2vs0mg"},{"bike_id":"697d5fc4-b988-4a4e-8323-c1ce5ed61a61","system_id":"levelo_inurba_marseille","lat":43.211954,"lon":5.350704,"is_reserved":false,"is_disabled":false,"rental_uris":{"android":"levelo://app?vid=697d5fc4-b988-4a4e-8323-c1ce5ed61a61","ios":"levelo://app?vid=697d5fc4-b988-4a4e-8323-c1ce5ed61a61"},"vehicle_type_id":"4","last_reported":1752404863,"current_range_meters":19200,"station_id":"st_cvj6sg6p6f1abm77japg","pricing_plan_id":"cebpf4jnsgd1na2vs0mg"},{"bike_id":"c44e5c2a-1aae-434b-adef-c83ca3b68a1d","system_id":"levelo_inurba_marseille","lat":43.30236,"lon":5.40069,"is_reserved":false,"is_disabled":false,"rental_uris":{"android":"levelo://app?vid=c44e5c2a-1aae-434b-adef-c83ca3b68a1d","ios":"levelo://app?vid=c44e5c2a-1aae-434b-adef-c83ca3b68a1d"},"vehicle_type_id":"4","last_reported":1752404863,"current_range_meters":19200,"station_id":"ce4bgvh2rcd13ifvqcs0","pricing_plan_id":"cebpf4jnsgd1na2vs0mg"},{"bike_id":"21318a63-9bcf-4c84-9234-aec1a9747566","system_id":"levelo_inurba_marseille","lat":43.22082,"lon":5.34571,"is_reserved":false,"is_disabled":false,"rental_uris":{"android":"levelo://app?vid=21318a63-9bcf-4c84-9234-aec1a9747566","ios":"levelo://app?vid=21318a63-9bcf-4c84-9234-aec1a9747566"},"vehicle_type_id":"4","last_reported":1752404863,"current_range_meters":19200,"station_id":"","pricing_plan_id":"cebpf4jnsgd1na2vs0mg"},{"bike_id":"1cd657f6-f50d-4724-8a22-13111356d607","system_id":"levelo_inurba_marseille","lat":43.27074,"lon":5.42286,"is_reserved":false,"is_disabled":false,"rental_uris":{"android":"levelo://app?vid=1cd657f6-f50d-4724-8a22-13111356d607","ios":"levelo://app?vid=1cd657f6-f50d-4724-8a22-13111356d607"},"vehicle_type_id":"4","last_reported":1752404863,"current_range_meters":19200,"station_id":"ce4bhk92rcd13ifvqgb0","pricing_plan_id":"cebpf4jnsgd1na2vs0mg"},{"bike_id":"80955d0f-8669-4c02-b90f-c6fe20790c37","system_id":"levelo_inurba_marseille","lat":43.232012,"lon":5.350558,"is_reserved":false,"is_disabled":false,"rental_uris":{"android":"levelo://app?vid=80955d0f-8669-4c02-b90f-c6fe20790c37","ios":"levelo://app?vid=80955d0f-8669-4c02-b90f-c6fe20790c37"},"vehicle_type_id":"4","last_reported":1752404863,"current_range_meters":19200,"station_id":"","pricing_plan_id":"cebpf4jnsgd1na2vs0mg"},{"bike_id":"a8fd4a40-5f03-4bc5-9cf7-7220e59adc19","system_id":"levelo_inurba_marseille","lat":43.27377,"lon":5.36257,"is_reserved":false,"is_disabled":false,"rental_uris":{"android":"levelo://app?vid=a8fd4a40-5f03-4bc5-9cf7-7220e59adc19","ios":"levelo://app?vid=a8fd4a40-5f03-4bc5-9cf7-7220e59adc19"},"vehicle_type_id":"4","last_reported":1752404863,"current_range_meters":19200,"station_id":"ce4bhbh2rcd13ifvqeo0","pricing_plan_id":"cebpf4jnsgd1na2vs0mg"},{"bike_id":"f59f6657-f62a-42fc-a273-bf50a25645d6","system_id":"levelo_inurba_marseille","lat":43.27369,"lon":5.36252,"is_reserved":false,"is_disabled":false,"rental_uris":{"android":"levelo://app?vid=f59f6657-f62a-42fc-a273-bf50a25645d6","ios":"levelo://app?vid=f59f6657-f62a-42fc-a273-bf50a25645d6"},"vehicle_type_id":"4","last_reported":1752404863,"current_range_meters":19200,"station_id":"ce4bhbh2rcd13ifvqeo0","pricing_plan_id":"cebpf4jnsgd1na2vs0mg"},{"bike_id":"23a0fc67-4c39-4b74-8a86-2903d79b1606","system_id":"levelo_inurba_marseille","lat":43.23199,"lon":5.35553,"is_reserved":false,"is_disabled":true,"rental_uris":{"android":"levelo://app?vid=23a0fc67-4c39-4b74-8a86-2903d79b1606","ios":"levelo://app?vid=23a0fc67-4c39-4b74-8a86-2903d79b1606"},"vehicle_type_id":"4","last_reported":1752404863,"current_range_meters":19200,"station_id":"ce4bhu92rcd13ifvqi70","pricing_plan_id":"cebpf4jnsgd1na2vs0mg"},{"bike_id":"f7cf9aab-0ed3-4931-a48c-8d0743d0c0b9","system_id":"levelo_inurba_marseille","lat":43.22921,"lon":5.35381,"is_reserved":false,"is_disabled":true,"rental_uris":{"android":"levelo://app?vid=f7cf9aab-0ed3-4931-a48c-8d0743d0c0b9","ios":"levelo://app?vid=f7cf9aab-0ed3-4931-a48c-8d0743d0c0b9"},"vehicle_type_id":"4","last_reported":1752404863,"current_range_meters":19200,"station_id":"cpo3532slgdg3j2ikp40","pricing_plan_id":"cebpf4jnsgd1na2vs0mg"},{"bike_id":"bf67854a-fc75-4bbe-84b3-70a770694533","system_id":"levelo_inurba_marseille","lat":43.289379,"lon":5.396313,"is_reserved":false,"is_disabled":true,"rental_uris":{"android":"levelo://app?vid=bf67854a-fc75-4bbe-84b3-70a770694533","ios":"levelo://app?vid=bf67854a-fc75-4bbe-84b3-70a770694533"},"vehicle_type_id":"4","last_reported":1752404863,"current_range_meters":19200,"station_id":"ce4bh3h2rcd13ifvqdn0","pricing_plan_id":"cebpf4jnsgd1na2vs0mg"},{"bike_id":"8a01e88a-8371-4085-9838-47ae11897cd3","system_id":"levelo_inurba_marseille","lat":43.28149,"lon":5.42635,"is_reserved":false,"is_disabled":true,"rental_uris":{"android":"levelo://app?vid=8a01e88a-8371-4085-9838-47ae11897cd3","ios":"levelo://app?vid=8a01e88a-8371-4085-9838-47ae11897cd3"},"vehicle_type_id":"4","last_reported":1752404863,"current_range_meters":19200,"station_id":"ce4bhnh2rcd13ifvqgug","pricing_plan_id":"cebpf4jnsgd1na2vs0mg"},{"bike_id":"1f8dd362-3a15-4198-8d19-1bcc36e39872","system_id":"levelo_inurba_marseille","lat":43.21759,"lon":5.34579,"is_reserved":false,"is_disabled":false,"rental_uris":{"android":"levelo://app?vid=1f8dd362-3a15-4198-8d19-1bcc36e39872","ios":"levelo://app?vid=1f8dd362-3a15-4198-8d19-1bcc36e39872"},"vehicle_type_id":"4","last_reported":1752404863,"current_range_meters":19200,"station_id":"st_cvj6r9ubvosntc0bgbag","pricing_plan_id":"cebpf4jnsgd1na2vs0mg"},{"bike_id":"f4e5bf31-9e0f-4c5b-9f6f-5c04bb964514","system_id":"levelo_inurba_marseille","lat":43.21768,"lon":5.34581,"is_reserved":false,"is_disabled":false,"rental_uris":{"android":"levelo://app?vid=f4e5bf31-9e0f-4c5b-9f6f-5c04bb964514","ios":"levelo://app?vid=f4e5bf31-9e0f-4c5b-9f6f-5c04bb964514"},"vehicle_type_id":"4","last_reported":1752404863,"current_range_meters":19200,"station_id":"st_cvj6r9ubvosntc0bgbag","pricing_plan_id":"cebpf4jnsgd1na2vs0mg"},{"bike_id":"d8d4cd6b-d88f-4cc5-971c-93348e88d768","system_id":"levelo_inurba_marseille","lat":43.321119,"lon":5.367764,"is_reserved":false,"is_disabled":false,"rental_uris":{"android":"levelo://app?vid=d8d4cd6b-d88f-4cc5-971c-93348e88d768","ios":"levelo://app?vid=d8d4cd6b-d88f-4cc5-971c-93348e88d768"},"vehicle_type_id":"4","last_reported":1752404863,"current_range_meters":19200,"station_id":"ce4bhrh2rcd13ifvqhug","pricing_plan_id":"cebpf4jnsgd1na2vs0mg"},{"bike_id":"c3e84698-a8cd-4d1b-a918-c5ad56d98c77","system_id":"levelo_inurba_marseille","lat":43.27939,"lon":5.39581,"is_reserved":false,"is_disabled":true,"rental_uris":{"android":"levelo://app?vid=c3e84698-a8cd-4d1b-a918-c5ad56d98c77","ios":"levelo://app?vid=c3e84698-a8cd-4d1b-a918-c5ad56d98c77"},"vehicle_type_id":"4","last_reported":1752404863,"current_range_meters":19200,"station_id":"ce4bhf92rcd13ifvqf40","pricing_plan_id":"cebpf4jnsgd1na2vs0mg"},{"bike_id":"6807a824-61af-4807-98df-48b92b56d257","system_id":"levelo_inurba_marseille","lat":43.29904,"lon":5.43668,"is_reserved":false,"is_disabled":false,"rental_uris":{"android":"levelo://app?vid=6807a824-61af-4807-98df-48b92b56d257","ios":"levelo://app?vid=6807a824-61af-4807-98df-48b92b56d257"},"vehicle_type_id":"4","last_reported":1752404863,"current_range_meters":19600,"station_id":"ce4bhpp2rcd13ifvqhfg","pricing_plan_id":"cebpf4jnsgd1na2vs0mg"},{"bike_id":"6ac174d4-75c5-4a9c-9699-97cd631c6e65","system_id":"levelo_inurba_marseille","lat":43.25481,"lon":5.39927,"is_reserved":false,"is_disabled":false,"rental_uris":{"android":"levelo://app?vid=6ac174d4-75c5-4a9c-9699-97cd631c6e65","ios":"levelo://app?vid=6ac174d4-75c5-4a9c-9699-97cd631c6e65"},"vehicle_type_id":"4","last_reported":1752404863,"current_range_meters":19600,"station_id":"","pricing_plan_id":"cebpf4jnsgd1na2vs0mg"},{"bike_id":"5690ae43-bd9e-4af3-9ab6-b7fcfbf4e114","system_id":"levelo_inurba_marseille","lat":43.29271,"lon":5.38444,"is_reserved":false,"is_disabled":false,"rental_uris":{"android":"levelo://app?vid=5690ae43-bd9e-4af3-9ab6-b7fcfbf4e114","ios":"levelo://app?vid=5690ae43-bd9e-4af3-9ab6-b7fcfbf4e114"},"vehicle_type_id":"4","last_reported":1752404863,"current_range_meters":19600,"station_id":"ce4bh692rcd13ifvqea0","pricing_plan_id":"cebpf4jnsgd1na2vs0mg"},{"bike_id":"a4d07f45-19f9-4df9-9728-be6623530a64","system_id":"levelo_inurba_marseille","lat":43.23736,"lon":5.38872,"is_reserved":false,"is_disabled":false,"rental_uris":{"android":"levelo://app?vid=a4d07f45-19f9-4df9-9728-be6623530a64","ios":"levelo://app?vid=a4d07f45-19f9-4df9-9728-be6623530a64"},"vehicle_type_id":"4","last_reported":1752404863,"current_range_meters":19600,"station_id":"","pricing_plan_id":"cebpf4jnsgd1na2vs0mg"},{"bike_id":"e66ce31b-5bb2-4056-9cd1-34ed82c3f4d4","system_id":"levelo_inurba_marseille","lat":43.31336,"lon":5.39686,"is_reserved":false,"is_disabled":false,"rental_uris":{"android":"levelo://app?vid=e66ce31b-5bb2-4056-9cd1-34ed82c3f4d4","ios":"levelo://app?vid=e66ce31b-5bb2-4056-9cd1-34ed82c3f4d4"},"vehicle_type_id":"4","last_reported":1752404863,"current_range_meters":19600,"station_id":"ce4bgvp2rcd13ifvqcu0","pricing_plan_id":"cebpf4jnsgd1na2vs0mg"},{"bike_id":"f826ccc4-aeeb-49c5-8e5f-499e1ef3f22e","system_id":"levelo_inurba_marseille","lat":43.28271,"lon":5.35073,"is_reserved":false,"is_disabled":false,"rental_uris":{"android":"levelo://app?vid=f826ccc4-aeeb-49c5-8e5f-499e1ef3f22e","ios":"levelo://app?vid=f826ccc4-aeeb-49c5-8e5f-499e1ef3f22e"},"vehicle_type_id":"4","last_reported":1752404863,"current_range_meters":19600,"station_id":"ce4bhbp2rcd13ifvqerg","pricing_plan_id":"cebpf4jnsgd1na2vs0mg"},{"bike_id":"1afc84cc-faf6-4775-8fde-a11422459898","system_id":"levelo_inurba_marseille","lat":43.28206,"lon":5.42837,"is_reserved":false,"is_disabled":false,"rental_uris":{"android":"levelo://app?vid=1afc84cc-faf6-4775-8fde-a11422459898","ios":"levelo://app?vid=1afc84cc-faf6-4775-8fde-a11422459898"},"vehicle_type_id":"4","last_reported":1752404863,"current_range_meters":19600,"station_id":"","pricing_plan_id":"cebpf4jnsgd1na2vs0mg"},{"bike_id":"daad51a8-01bd-4cf8-b00f-f6cf2369bed9","system_id":"levelo_inurba_marseille","lat":43.28496,"lon":5.38572,"is_reserved":false,"is_disabled":false,"rental_uris":{"android":"levelo://app?vid=daad51a8-01bd-4cf8-b00f-f6cf2369bed9","ios":"levelo://app?vid=daad51a8-01bd-4cf8-b00f-f6cf2369bed9"},"vehicle_type_id":"4","last_reported":1752404863,"current_range_meters":19600,"station_id":"ce4bh8p2rcd13ifvqeb0","pricing_plan_id":"cebpf4jnsgd1na2vs0mg"},{"bike_id":"72d8d559-dfbb-4ccd-868a-212a51dd4732","system_id":"levelo_inurba_marseille","lat":43.29542,"lon":5.39042,"is_reserved":false,"is_disabled":false,"rental_uris":{"android":"levelo://app?vid=72d8d559-dfbb-4ccd-868a-212a51dd4732","ios":"levelo://app?vid=72d8d559-dfbb-4ccd-868a-212a51dd4732"},"vehicle_type_id":"4","last_reported":1752404863,"current_range_meters":20000,"station_id":"ce4bh3p2rcd13ifvqdp0","pricing_plan_id":"cebpf4jnsgd1na2vs0mg"},{"bike_id":"c540e229-81f0-42ef-8ca9-2bf04238231f","system_id":"levelo_inurba_marseille","lat":43.21748,"lon":5.34607,"is_reserved":false,"is_disabled":false,"rental_uris":{"android":"levelo://app?vid=c540e229-81f0-42ef-8ca9-2bf04238231f","ios":"levelo://app?vid=c540e229-81f0-42ef-8ca9-2bf04238231f"},"vehicle_type_id":"4","last_reported":1752404863,"current_range_meters":20000,"station_id":"st_cvj6r9ubvosntc0bgbag","pricing_plan_id":"cebpf4jnsgd1na2vs0mg"},{"bike_id":"eebac45b-165c-46da-8b53-09745d91c3f3","system_id":"levelo_inurba_marseille","lat":43.23196,"lon":5.35552,"is_reserved":false,"is_disabled":false,"rental_uris":{"android":"levelo://app?vid=eebac45b-165c-46da-8b53-09745d91c3f3","ios":"levelo://app?vid=eebac45b-165c-46da-8b53-09745d91c3f3"},"vehicle_type_id":"4","last_reported":1752404863,"current_range_meters":20000,"station_id":"ce4bhu92rcd13ifvqi70","pricing_plan_id":"cebpf4jnsgd1na2vs0mg"},{"bike_id":"10388035-8e57-4e34-8ec1-559555823a7c","system_id":"levelo_inurba_marseille","lat":43.31324,"lon":5.39687,"is_reserved":false,"is_disabled":false,"rental_uris":{"android":"levelo://app?vid=10388035-8e57-4e34-8ec1-559555823a7c","ios":"levelo://app?vid=10388035-8e57-4e34-8ec1-559555823a7c"},"vehicle_type_id":"4","last_reported":1752404863,"current_range_meters":20000,"station_id":"ce4bgvp2rcd13ifvqcu0","pricing_plan_id":"cebpf4jnsgd1na2vs0mg"},{"bike_id":"e32147e0-2c1a-4589-a67a-3853e29a2cab","system_id":"levelo_inurba_marseille","lat":43.28429,"lon":5.34999,"is_reserved":false,"is_disabled":false,"rental_uris":{"android":"levelo://app?vid=e32147e0-2c1a-4589-a67a-3853e29a2cab","ios":"levelo://app?vid=e32147e0-2c1a-4589-a67a-3853e29a2cab"},"vehicle_type_id":"4","last_reported":1752404863,"current_range_meters":20000,"station_id":"ce4bhbh2rcd13ifvqepg","pricing_plan_id":"cebpf4jnsgd1na2vs0mg"},{"bike_id":"de70fcd0-d357-4a03-bd6d-39512238f711","system_id":"levelo_inurba_marseille","lat":43.26784,"lon":5.39421,"is_reserved":false,"is_disabled":false,"rental_uris":{"android":"levelo://app?vid=de70fcd0-d357-4a03-bd6d-39512238f711","ios":"levelo://app?vid=de70fcd0-d357-4a03-bd6d-39512238f711"},"vehicle_type_id":"4","last_reported":1752404863,"current_range_meters":20000,"station_id":"ce4bhh12rcd13ifvqfg0","pricing_plan_id":"cebpf4jnsgd1na2vs0mg"},{"bike_id":"e4f60a7e-d35f-404e-924f-8496bc4bb84b","system_id":"levelo_inurba_marseille","lat":43.23193,"lon":5.39997,"is_reserved":false,"is_disabled":false,"rental_uris":{"android":"levelo://app?vid=e4f60a7e-d35f-404e-924f-8496bc4bb84b","ios":"levelo://app?vid=e4f60a7e-d35f-404e-924f-8496bc4bb84b"},"vehicle_type_id":"4","last_reported":1752404863,"current_range_meters":20000,"station_id":"ce4bhn12rcd13ifvqgqg","pricing_plan_id":"cebpf4jnsgd1na2vs0mg"},{"bike_id":"a751e653-bdca-487d-862c-f36643b66973","system_id":"levelo_inurba_marseille","lat":43.301467,"lon":5.380871,"is_reserved":false,"is_disabled":false,"rental_uris":{"android":"levelo://app?vid=a751e653-bdca-487d-862c-f36643b66973","ios":"levelo://app?vid=a751e653-bdca-487d-862c-f36643b66973"},"vehicle_type_id":"4","last_reported":1752404863,"current_range_meters":20000,"station_id":"ce4bgjp2rcd13ifvqbh0","pricing_plan_id":"cebpf4jnsgd1na2vs0mg"},{"bike_id":"68e37a8b-79df-46ae-964e-f72944db01eb","system_id":"levelo_inurba_marseille","lat":43.21744,"lon":5.34593,"is_reserved":false,"is_disabled":false,"rental_uris":{"android":"levelo://app?vid=68e37a8b-79df-46ae-964e-f72944db01eb","ios":"levelo://app?vid=68e37a8b-79df-46ae-964e-f72944db01eb"},"vehicle_type_id":"4","last_reported":1752404863,"current_range_meters":20000,"station_id":"st_cvj6r9ubvosntc0bgbag","pricing_plan_id":"cebpf4jnsgd1na2vs0mg"},{"bike_id":"be7496bc-b5b0-468e-8253-c37860a5a769","system_id":"levelo_inurba_marseille","lat":43.298936,"lon":5.436637,"is_reserved":false,"is_disabled":false,"rental_uris":{"android":"levelo://app?vid=be7496bc-b5b0-468e-8253-c37860a5a769","ios":"levelo://app?vid=be7496bc-b5b0-468e-8253-c37860a5a769"},"vehicle_type_id":"4","last_reported":1752404863,"current_range_meters":20000,"station_id":"ce4bhpp2rcd13ifvqhfg","pricing_plan_id":"cebpf4jnsgd1na2vs0mg"},{"bike_id":"b6c2eb53-74d9-42e2-9528-b906f2e47fcc","system_id":"levelo_inurba_marseille","lat":43.27378,"lon":5.36258,"is_reserved":false,"is_disabled":false,"rental_uris":{"android":"levelo://app?vid=b6c2eb53-74d9-42e2-9528-b906f2e47fcc","ios":"levelo://app?vid=b6c2eb53-74d9-42e2-9528-b906f2e47fcc"},"vehicle_type_id":"4","last_reported":1752404863,"current_range_meters":20000,"station_id":"ce4bhbh2rcd13ifvqeo0","pricing_plan_id":"cebpf4jnsgd1na2vs0mg"},{"bike_id":"f8293e10-0a64-48db-ae97-2008c359dc00","system_id":"levelo_inurba_marseille","lat":43.21765,"lon":5.34609,"is_reserved":false,"is_disabled":false,"rental_uris":{"android":"levelo://app?vid=f8293e10-0a64-48db-ae97-2008c359dc00","ios":"levelo://app?vid=f8293e10-0a64-48db-ae97-2008c359dc00"},"vehicle_type_id":"4","last_reported":1752404863,"current_range_meters":20000,"station_id":"st_cvj6r9ubvosntc0bgbag","pricing_plan_id":"cebpf4jnsgd1na2vs0mg"},{"bike_id":"57e96715-7859-45bb-80e6-0b1c41c6a02b","system_id":"levelo_inurba_marseille","lat":43.31994,"lon":5.38174,"is_reserved":false,"is_disabled":false,"rental_uris":{"android":"levelo://app?vid=57e96715-7859-45bb-80e6-0b1c41c6a02b","ios":"levelo://app?vid=57e96715-7859-45bb-80e6-0b1c41c6a02b"},"vehicle_type_id":"4","last_reported":1752404863,"current_range_meters":20000,"station_id":"ce4bhr12rcd13ifvqhpg","pricing_plan_id":"cebpf4jnsgd1na2vs0mg"},{"bike_id":"65779b1a-949d-462a-a181-850d4123044f","system_id":"levelo_inurba_marseille","lat":43.22924,"lon":5.35387,"is_reserved":false,"is_disabled":false,"rental_uris":{"android":"levelo://app?vid=65779b1a-949d-462a-a181-850d4123044f","ios":"levelo://app?vid=65779b1a-949d-462a-a181-850d4123044f"},"vehicle_type_id":"4","last_reported":1752404863,"current_range_meters":20400,"station_id":"cpo3532slgdg3j2ikp40","pricing_plan_id":"cebpf4jnsgd1na2vs0mg"},{"bike_id":"ebe25f3f-ea62-4073-947d-e6b0dca53b7e","system_id":"levelo_inurba_marseille","lat":43.30331,"lon":5.40445,"is_reserved":false,"is_disabled":false,"rental_uris":{"android":"levelo://app?vid=ebe25f3f-ea62-4073-947d-e6b0dca53b7e","ios":"levelo://app?vid=ebe25f3f-ea62-4073-947d-e6b0dca53b7e"},"vehicle_type_id":"4","last_reported":1752404863,"current_range_meters":20400,"station_id":"ce4bh012rcd13ifvqd10","pricing_plan_id":"cebpf4jnsgd1na2vs0mg"},{"bike_id":"3f698ac5-1976-4476-a4f6-5d123ff87b06","system_id":"levelo_inurba_marseille","lat":43.27073,"lon":5.42284,"is_reserved":false,"is_disabled":false,"rental_uris":{"android":"levelo://app?vid=3f698ac5-1976-4476-a4f6-5d123ff87b06","ios":"levelo://app?vid=3f698ac5-1976-4476-a4f6-5d123ff87b06"},"vehicle_type_id":"4","last_reported":1752404863,"current_range_meters":20400,"station_id":"ce4bhk92rcd13ifvqgb0","pricing_plan_id":"cebpf4jnsgd1na2vs0mg"},{"bike_id":"b37234ad-1329-4e78-9dd8-0e78c5ad9dae","system_id":"levelo_inurba_marseille","lat":43.30935,"lon":5.40152,"is_reserved":false,"is_disabled":false,"rental_uris":{"android":"levelo://app?vid=b37234ad-1329-4e78-9dd8-0e78c5ad9dae","ios":"levelo://app?vid=b37234ad-1329-4e78-9dd8-0e78c5ad9dae"},"vehicle_type_id":"4","last_reported":1752404863,"current_range_meters":20400,"station_id":"ce4bgvp2rcd13ifvqct0","pricing_plan_id":"cebpf4jnsgd1na2vs0mg"},{"bike_id":"9bd904e5-186d-4d80-85fe-a9bbdb85729a","system_id":"levelo_inurba_marseille","lat":43.2963,"lon":5.40597,"is_reserved":false,"is_disabled":false,"rental_uris":{"android":"levelo://app?vid=9bd904e5-186d-4d80-85fe-a9bbdb85729a","ios":"levelo://app?vid=9bd904e5-186d-4d80-85fe-a9bbdb85729a"},"vehicle_type_id":"4","last_reported":1752404863,"current_range_meters":20400,"station_id":"ce4bh0h2rcd13ifvqd60","pricing_plan_id":"cebpf4jnsgd1na2vs0mg"},{"bike_id":"11c1737e-f69c-4541-96a5-394601308243","system_id":"levelo_inurba_marseille","lat":43.29903,"lon":5.38102,"is_reserved":false,"is_disabled":false,"rental_uris":{"android":"levelo://app?vid=11c1737e-f69c-4541-96a5-394601308243","ios":"levelo://app?vid=11c1737e-f69c-4541-96a5-394601308243"},"vehicle_type_id":"4","last_reported":1752404863,"current_range_meters":20400,"station_id":"ce4bgj12rcd13ifvqbc0","pricing_plan_id":"cebpf4jnsgd1na2vs0mg"},{"bike_id":"38347e87-7b6b-48de-affc-44e53f6cf98f","system_id":"levelo_inurba_marseille","lat":43.22931,"lon":5.3538,"is_reserved":false,"is_disabled":false,"rental_uris":{"android":"levelo://app?vid=38347e87-7b6b-48de-affc-44e53f6cf98f","ios":"levelo://app?vid=38347e87-7b6b-48de-affc-44e53f6cf98f"},"vehicle_type_id":"4","last_reported":1752404863,"current_range_meters":20400,"station_id":"cpo3532slgdg3j2ikp40","pricing_plan_id":"cebpf4jnsgd1na2vs0mg"},{"bike_id":"26333ae4-2ca6-4315-9126-41f4031f1a5a","system_id":"levelo_inurba_marseille","lat":43.28407,"lon":5.34979,"is_reserved":false,"is_disabled":false,"rental_uris":{"android":"levelo://app?vid=26333ae4-2ca6-4315-9126-41f4031f1a5a","ios":"levelo://app?vid=26333ae4-2ca6-4315-9126-41f4031f1a5a"},"vehicle_type_id":"4","last_reported":1752404863,"current_range_meters":20400,"station_id":"ce4bhbh2rcd13ifvqepg","pricing_plan_id":"cebpf4jnsgd1na2vs0mg"},{"bike_id":"e818cedf-3e0c-4eb4-9db4-e02d9a4a21ab","system_id":"levelo_inurba_marseille","lat":43.284069,"lon":5.375165,"is_reserved":false,"is_disabled":false,"rental_uris":{"android":"levelo://app?vid=e818cedf-3e0c-4eb4-9db4-e02d9a4a21ab","ios":"levelo://app?vid=e818cedf-3e0c-4eb4-9db4-e02d9a4a21ab"},"vehicle_type_id":"4","last_reported":1752404863,"current_range_meters":20800,"station_id":"ce4bh412rcd13ifvqds0","pricing_plan_id":"cebpf4jnsgd1na2vs0mg"},{"bike_id":"45311e08-8eb0-43a2-b8a3-76cbe9328558","system_id":"levelo_inurba_marseille","lat":43.28612,"lon":5.35098,"is_reserved":false,"is_disabled":false,"rental_uris":{"android":"levelo://app?vid=45311e08-8eb0-43a2-b8a3-76cbe9328558","ios":"levelo://app?vid=45311e08-8eb0-43a2-b8a3-76cbe9328558"},"vehicle_type_id":"4","last_reported":1752404863,"current_range_meters":20800,"station_id":"ce4bhch2rcd13ifvqeug","pricing_plan_id":"cebpf4jnsgd1na2vs0mg"},{"bike_id":"7243aa4f-65c8-4092-af5d-03790197fb8a","system_id":"levelo_inurba_marseille","lat":43.2175,"lon":5.34618,"is_reserved":false,"is_disabled":false,"rental_uris":{"android":"levelo://app?vid=7243aa4f-65c8-4092-af5d-03790197fb8a","ios":"levelo://app?vid=7243aa4f-65c8-4092-af5d-03790197fb8a"},"vehicle_type_id":"4","last_reported":1752404863,"current_range_meters":20800,"station_id":"st_cvj6r9ubvosntc0bgbag","pricing_plan_id":"cebpf4jnsgd1na2vs0mg"},{"bike_id":"f0a49d28-1e27-4389-9c58-26bb976b95a7","system_id":"levelo_inurba_marseille","lat":43.26587,"lon":5.39483,"is_reserved":false,"is_disabled":false,"rental_uris":{"android":"levelo://app?vid=f0a49d28-1e27-4389-9c58-26bb976b95a7","ios":"levelo://app?vid=f0a49d28-1e27-4389-9c58-26bb976b95a7"},"vehicle_type_id":"4","last_reported":1752404863,"current_range_meters":20800,"station_id":"","pricing_plan_id":"cebpf4jnsgd1na2vs0mg"},{"bike_id":"12371b24-0c00-429a-8e43-557bb8c0cf67","system_id":"levelo_inurba_marseille","lat":43.301385,"lon":5.387673,"is_reserved":false,"is_disabled":false,"rental_uris":{"android":"levelo://app?vid=12371b24-0c00-429a-8e43-557bb8c0cf67","ios":"levelo://app?vid=12371b24-0c00-429a-8e43-557bb8c0cf67"},"vehicle_type_id":"4","last_reported":1752404863,"current_range_meters":20800,"station_id":"","pricing_plan_id":"cebpf4jnsgd1na2vs0mg"},{"bike_id":"04b9bbde-a145-41e7-a7b0-cd8d25714b9e","system_id":"levelo_inurba_marseille","lat":43.29214,"lon":5.35799,"is_reserved":false,"is_disabled":false,"rental_uris":{"android":"levelo://app?vid=04b9bbde-a145-41e7-a7b0-cd8d25714b9e","ios":"levelo://app?vid=04b9bbde-a145-41e7-a7b0-cd8d25714b9e"},"vehicle_type_id":"4","last_reported":1752404863,"current_range_meters":20800,"station_id":"ce4bhb12rcd13ifvqel0","pricing_plan_id":"cebpf4jnsgd1na2vs0mg"},{"bike_id":"cf070045-79b9-4bb5-83ea-ade964db42fa","system_id":"levelo_inurba_marseille","lat":43.29905,"lon":5.4365,"is_reserved":false,"is_disabled":false,"rental_uris":{"android":"levelo://app?vid=cf070045-79b9-4bb5-83ea-ade964db42fa","ios":"levelo://app?vid=cf070045-79b9-4bb5-83ea-ade964db42fa"},"vehicle_type_id":"4","last_reported":1752404863,"current_range_meters":20800,"station_id":"ce4bhpp2rcd13ifvqhfg","pricing_plan_id":"cebpf4jnsgd1na2vs0mg"},{"bike_id":"661015c8-5a56-4bde-8f86-eb746530b608","system_id":"levelo_inurba_marseille","lat":43.2176,"lon":5.34586,"is_reserved":false,"is_disabled":false,"rental_uris":{"android":"levelo://app?vid=661015c8-5a56-4bde-8f86-eb746530b608","ios":"levelo://app?vid=661015c8-5a56-4bde-8f86-eb746530b608"},"vehicle_type_id":"4","last_reported":1752404863,"current_range_meters":20800,"station_id":"st_cvj6r9ubvosntc0bgbag","pricing_plan_id":"cebpf4jnsgd1na2vs0mg"},{"bike_id":"a6eb6ac9-6fda-469c-a14b-36c911db2fc3","system_id":"levelo_inurba_marseille","lat":43.30549,"lon":5.36713,"is_reserved":false,"is_disabled":false,"rental_uris":{"android":"levelo://app?vid=a6eb6ac9-6fda-469c-a14b-36c911db2fc3","ios":"levelo://app?vid=a6eb6ac9-6fda-469c-a14b-36c911db2fc3"},"vehicle_type_id":"4","last_reported":1752404863,"current_range_meters":21600,"station_id":"ce4bgrp2rcd13ifvqc9g","pricing_plan_id":"cebpf4jnsgd1na2vs0mg"},{"bike_id":"93baad4f-3a83-40da-a6ff-6bc20db466ac","system_id":"levelo_inurba_marseille","lat":43.30944,"lon":5.39023,"is_reserved":false,"is_disabled":false,"rental_uris":{"android":"levelo://app?vid=93baad4f-3a83-40da-a6ff-6bc20db466ac","ios":"levelo://app?vid=93baad4f-3a83-40da-a6ff-6bc20db466ac"},"vehicle_type_id":"4","last_reported":1752404863,"current_range_meters":21600,"station_id":"ce4bgup2rcd13ifvqco0","pricing_plan_id":"cebpf4jnsgd1na2vs0mg"},{"bike_id":"71e479f4-838c-44c9-a19e-d1950cd099a6","system_id":"levelo_inurba_marseille","lat":43.27641,"lon":5.42364,"is_reserved":false,"is_disabled":false,"rental_uris":{"android":"levelo://app?vid=71e479f4-838c-44c9-a19e-d1950cd099a6","ios":"levelo://app?vid=71e479f4-838c-44c9-a19e-d1950cd099a6"},"vehicle_type_id":"4","last_reported":1752404863,"current_range_meters":21600,"station_id":"","pricing_plan_id":"cebpf4jnsgd1na2vs0mg"},{"bike_id":"0eabdcbf-7227-405e-ba6d-a34025e3f935","system_id":"levelo_inurba_marseille","lat":43.229356,"lon":5.353767,"is_reserved":false,"is_disabled":false,"rental_uris":{"android":"levelo://app?vid=0eabdcbf-7227-405e-ba6d-a34025e3f935","ios":"levelo://app?vid=0eabdcbf-7227-405e-ba6d-a34025e3f935"},"vehicle_type_id":"4","last_reported":1752404863,"current_range_meters":21600,"station_id":"cpo3532slgdg3j2ikp40","pricing_plan_id":"cebpf4jnsgd1na2vs0mg"},{"bike_id":"69a7f8c6-16dd-463e-b019-799717e8a508","system_id":"levelo_inurba_marseille","lat":43.305514,"lon":5.365492,"is_reserved":false,"is_disabled":false,"rental_uris":{"android":"levelo://app?vid=69a7f8c6-16dd-463e-b019-799717e8a508","ios":"levelo://app?vid=69a7f8c6-16dd-463e-b019-799717e8a508"},"vehicle_type_id":"4","last_reported":1752404863,"current_range_meters":21600,"station_id":"ce4bgs12rcd13ifvqcag","pricing_plan_id":"cebpf4jnsgd1na2vs0mg"},{"bike_id":"ce2033e2-2ddf-471d-a227-e43fb890eb2b","system_id":"levelo_inurba_marseille","lat":43.29571,"lon":5.42313,"is_reserved":false,"is_disabled":false,"rental_uris":{"android":"levelo://app?vid=ce2033e2-2ddf-471d-a227-e43fb890eb2b","ios":"levelo://app?vid=ce2033e2-2ddf-471d-a227-e43fb890eb2b"},"vehicle_type_id":"4","last_reported":1752404863,"current_range_meters":21600,"station_id":"ce4bhph2rcd13ifvqhdg","pricing_plan_id":"cebpf4jnsgd1na2vs0mg"},{"bike_id":"aa260077-cb0d-43c9-8e67-329c1b69779f","system_id":"levelo_inurba_marseille","lat":43.21197,"lon":5.35076,"is_reserved":false,"is_disabled":false,"rental_uris":{"android":"levelo://app?vid=aa260077-cb0d-43c9-8e67-329c1b69779f","ios":"levelo://app?vid=aa260077-cb0d-43c9-8e67-329c1b69779f"},"vehicle_type_id":"4","last_reported":1752404863,"current_range_meters":21600,"station_id":"st_cvj6sg6p6f1abm77japg","pricing_plan_id":"cebpf4jnsgd1na2vs0mg"},{"bike_id":"e92055f7-5ccb-4f17-9c8c-7e4a8d9c4cdd","system_id":"levelo_inurba_marseille","lat":43.301529,"lon":5.381063,"is_reserved":false,"is_disabled":false,"rental_uris":{"android":"levelo://app?vid=e92055f7-5ccb-4f17-9c8c-7e4a8d9c4cdd","ios":"levelo://app?vid=e92055f7-5ccb-4f17-9c8c-7e4a8d9c4cdd"},"vehicle_type_id":"4","last_reported":1752404863,"current_range_meters":21600,"station_id":"ce4bgjp2rcd13ifvqbh0","pricing_plan_id":"cebpf4jnsgd1na2vs0mg"},{"bike_id":"4aca1eb9-87f4-459c-87e4-66d8302d2088","system_id":"levelo_inurba_marseille","lat":43.23196,"lon":5.35552,"is_reserved":false,"is_disabled":false,"rental_uris":{"android":"levelo://app?vid=4aca1eb9-87f4-459c-87e4-66d8302d2088","ios":"levelo://app?vid=4aca1eb9-87f4-459c-87e4-66d8302d2088"},"vehicle_type_id":"4","last_reported":1752404863,"current_range_meters":21600,"station_id":"ce4bhu92rcd13ifvqi70","pricing_plan_id":"cebpf4jnsgd1na2vs0mg"},{"bike_id":"c2857b8a-2544-48ae-936c-90bab1dd6ab6","system_id":"levelo_inurba_marseille","lat":43.21203,"lon":5.35078,"is_reserved":false,"is_disabled":false,"rental_uris":{"android":"levelo://app?vid=c2857b8a-2544-48ae-936c-90bab1dd6ab6","ios":"levelo://app?vid=c2857b8a-2544-48ae-936c-90bab1dd6ab6"},"vehicle_type_id":"4","last_reported":1752404863,"current_range_meters":21600,"station_id":"st_cvj6sg6p6f1abm77japg","pricing_plan_id":"cebpf4jnsgd1na2vs0mg"},{"bike_id":"65a72e6d-33ab-468b-a8e2-f293f1ffd334","system_id":"levelo_inurba_marseille","lat":43.30151,"lon":5.38081,"is_reserved":false,"is_disabled":false,"rental_uris":{"android":"levelo://app?vid=65a72e6d-33ab-468b-a8e2-f293f1ffd334","ios":"levelo://app?vid=65a72e6d-33ab-468b-a8e2-f293f1ffd334"},"vehicle_type_id":"4","last_reported":1752404863,"current_range_meters":21600,"station_id":"ce4bgjp2rcd13ifvqbh0","pricing_plan_id":"cebpf4jnsgd1na2vs0mg"},{"bike_id":"0aa42407-e7b1-42ef-aeca-d87af7633fc6","system_id":"levelo_inurba_marseille","lat":43.23196,"lon":5.35556,"is_reserved":false,"is_disabled":false,"rental_uris":{"android":"levelo://app?vid=0aa42407-e7b1-42ef-aeca-d87af7633fc6","ios":"levelo://app?vid=0aa42407-e7b1-42ef-aeca-d87af7633fc6"},"vehicle_type_id":"4","last_reported":1752404863,"current_range_meters":21600,"station_id":"ce4bhu92rcd13ifvqi70","pricing_plan_id":"cebpf4jnsgd1na2vs0mg"},{"bike_id":"302c6760-4b26-41d8-991b-909900c10aeb","system_id":"levelo_inurba_marseille","lat":43.24662,"lon":5.38173,"is_reserved":false,"is_disabled":false,"rental_uris":{"android":"levelo://app?vid=302c6760-4b26-41d8-991b-909900c10aeb","ios":"levelo://app?vid=302c6760-4b26-41d8-991b-909900c10aeb"},"vehicle_type_id":"4","last_reported":1752404863,"current_range_meters":21600,"station_id":"ce4bhih2rcd13ifvqfr0","pricing_plan_id":"cebpf4jnsgd1na2vs0mg"},{"bike_id":"b641e4e0-38e8-4900-a70e-ec5d30a79e7d","system_id":"levelo_inurba_marseille","lat":43.29963,"lon":5.3852,"is_reserved":false,"is_disabled":true,"rental_uris":{"android":"levelo://app?vid=b641e4e0-38e8-4900-a70e-ec5d30a79e7d","ios":"levelo://app?vid=b641e4e0-38e8-4900-a70e-ec5d30a79e7d"},"vehicle_type_id":"4","last_reported":1752404863,"current_range_meters":21600,"station_id":"ce4bgj92rcd13ifvqbd0","pricing_plan_id":"cebpf4jnsgd1na2vs0mg"},