{"last_updated":1699999594,"ttl":30,"version":"2.2","data":{"bikes":[{"bike_id":"943dfc2f-eec4-44b8-ae3a-bf8f278b58c3","system_id":"levelo_inurba_marseille","lat":43.311539,"lon":5.368921,"is_reserved":false,"is_disabled":false,"rental_uris":{"android":"levelo://app?vid=943dfc2f-eec4-44b8-ae3a-bf8f278b58c3","ios":"levelo://app?vid=943dfc2f-eec4-44b8-ae3a-bf8f278b58c3"},"vehicle_type_id":"4","last_reported":1699999594,"current_range_meters":16800,"station_id":"","pricing_plan_id":"free"},{"bike_id":"b2817c5b-369e-401a-994e-bbd8cda45043","system_id":"levelo_inurba_marseille","lat":43.309135,"lon":5.36854,"is_reserved":false,"is_disabled":false,"rental_uris":{"android":"levelo://app?vid=b2817c5b-369e-401a-994e-bbd8cda45043","ios":"levelo://app?vid=b2817c5b-369e-401a-994e-bbd8cda45043"},"vehicle_type_id":"4","last_reported":1699999594,"current_range_meters":13200,"station_id":"ce4bgn92rcd13ifvqbvg","pricing_plan_id":"free"},{"bike_id":"96f20af6-cecc-4974-9304-e5cdf82c61c1","system_id":"levelo_inurba_marseille","lat":43.314811,"lon":5.373103,"is_reserved":false,"is_disabled":false,"rental_uris":{"android":"levelo://app?vid=96f20af6-cecc-4974-9304-e5cdf82c61c1","ios":"levelo://app?vid=96f20af6-cecc-4974-9304-e5cdf82c61c1"},"vehicle_type_id":"4","last_reported":1699999594,"current_range_meters":24400,"station_id":"ce4bgt12rcd13ifvqcd0","pricing_plan_id":"free"},{"bike_id":"981dd138-ade2-4320-ae3d-8e3fe29bb2de","system_id":"levelo_inurba_marseille","lat":43.31493,"lon":5.37315,"is_reserved":false,"is_disabled":false,"rental_uris":{"android":"levelo://app?vid=981dd138-ade2-4320-ae3d-8e3fe29bb2de","ios":"levelo://app?vid=981dd138-ade2-4320-ae3d-8e3fe29bb2de"},"vehicle_type_id":"4","last_reported":1699999594,"current_range_meters":4400,"station_id":"ce4bgt12rcd13ifvqcd0","pricing_plan_id":"free"},{"bike_id":"5f8dbe1c-b7b1-4c1c-8c12-f4a721eef3b2","system_id":"levelo_inurba_marseille","lat":43.309039,"lon":5.371797,"is_reserved":false,"is_disabled":false,"rental_uris":{"android":"levelo://app?vid=5f8dbe1c-b7b1-4c1c-8c12-f4a721eef3b2","ios":"levelo://app?vid=5f8dbe1c-b7b1-4c1c-8c12-f4a721eef3b2"},"vehicle_type_id":"4","last_reported":1699999594,"current_range_meters":30800,"station_id":"ce4bguh2rcd13ifvqckg","pricing_plan_id":"free"},{"bike_id":"de8b9e58-06d7-470a-a685-da6ab2d8a72a","system_id":"levelo_inurba_marseille","lat":43.309039,"lon":5.371797,"is_reserved":false,"is_disabled":false,"rental_uris":{"android":"levelo://app?vid=de8b9e58-06d7-470a-a685-da6ab2d8a72a","ios":"levelo://app?vid=de8b9e58-06d7-470a-a685-da6ab2d8a72a"},"vehicle_type_id":"4","last_reported":1699999594,"current_range_meters":4000,"station_id":"ce4bguh2rcd13ifvqckg","pricing_plan_id":"free"},{"bike_id":"69d016a5-d6e6-44f7-bbbc-2a1a2aad7318","system_id":"levelo_inurba_marseille","lat":43.31409,"lon":5.37635,"is_reserved":false,"is_disabled":false,"rental_uris":{"android":"levelo://app?vid=69d016a5-d6e6-44f7-bbbc-2a1a2aad7318","ios":"levelo://app?vid=69d016a5-d6e6-44f7-bbbc-2a1a2aad7318"},"vehicle_type_id":"4","last_reported":1699999594,"current_range_meters":11600,"station_id":"","pricing_plan_id":"free"},{"bike_id":"3475d204-43b6-43d9-b615-ca1d0d58200e","system_id":"levelo_inurba_marseille","lat":43.30539,"lon":5.36702,"is_reserved":false,"is_disabled":false,"rental_uris":{"android":"levelo://app?vid=3475d204-43b6-43d9-b615-ca1d0d58200e","ios":"levelo://app?vid=3475d204-43b6-43d9-b615-ca1d0d58200e"},"vehicle_type_id":"4","last_reported":1699999594,"current_range_meters":24400,"station_id":"ce4bgrp2rcd13ifvqc9g","pricing_plan_id":"free"},{"bike_id":"83e2a9a2-1c0b-4b83-aeee-c340636b15ff","system_id":"levelo_inurba_marseille","lat":43.305989,"lon":5.37225,"is_reserved":false,"is_disabled":false,"rental_uris":{"android":"levelo://app?vid=83e2a9a2-1c0b-4b83-aeee-c340636b15ff","ios":"levelo://app?vid=83e2a9a2-1c0b-4b83-aeee-c340636b15ff"},"vehicle_type_id":"4","last_reported":1699999594,"current_range_meters":10800,"station_id":"ce4bgqh2rcd13ifvqc4g","pricing_plan_id":"free"},{"bike_id":"47250bb0-796d-4d94-9e52-6c28e85b075c","system_id":"levelo_inurba_marseille","lat":43.311131,"lon":5.377651,"is_reserved":false,"is_disabled":false,"rental_uris":{"android":"levelo://app?vid=47250bb0-796d-4d94-9e52-6c28e85b075c","ios":"levelo://app?vid=47250bb0-796d-4d94-9e52-6c28e85b075c"},"vehicle_type_id":"4","last_reported":1699999594,"current_range_meters":26400,"station_id":"ce4bgt92rcd13ifvqcg0","pricing_plan_id":"free"},{"bike_id":"46a33e26-af1b-468e-91ae-435c8c338a25","system_id":"levelo_inurba_marseille","lat":43.311131,"lon":5.377651,"is_reserved":false,"is_disabled":false,"rental_uris":{"android":"levelo://app?vid=46a33e26-af1b-468e-91ae-435c8c338a25","ios":"levelo://app?vid=46a33e26-af1b-468e-91ae-435c8c338a25"},"vehicle_type_id":"4","last_reported":1699999594,"current_range_meters":20400,"station_id":"ce4bgt92rcd13ifvqcg0","pricing_plan_id":"free"},{"bike_id":"5a07f681-6135-47ef-a5a8-08524ac3a690","system_id":"levelo_inurba_marseille","lat":43.311125,"lon":5.377624,"is_reserved":false,"is_disabled":false,"rental_uris":{"android":"levelo://app?vid=5a07f681-6135-47ef-a5a8-08524ac3a690","ios":"levelo://app?vid=5a07f681-6135-47ef-a5a8-08524ac3a690"},"vehicle_type_id":"4","last_reported":1699999594,"current_range_meters":19200,"station_id":"ce4bgt92rcd13ifvqcg0","pricing_plan_id":"free"},{"bike_id":"23f67d3e-2636-4309-8003-a44e55eb9c56","system_id":"levelo_inurba_marseille","lat":43.308177,"lon":5.376383,"is_reserved":false,"is_disabled":false,"rental_uris":{"android":"levelo://app?vid=23f67d3e-2636-4309-8003-a44e55eb9c56","ios":"levelo://app?vid=23f67d3e-2636-4309-8003-a44e55eb9c56"},"vehicle_type_id":"4","last_reported":1699999594,"current_range_meters":16400,"station_id":"ce4bgv92rcd13ifvqcq0","pricing_plan_id":"free"},{"bike_id":"79022594-4418-47db-95e6-cc65013abc03","system_id":"levelo_inurba_marseille","lat":43.307945,"lon":5.376487,"is_reserved":false,"is_disabled":false,"rental_uris":{"android":"levelo://app?vid=79022594-4418-47db-95e6-cc65013abc03","ios":"levelo://app?vid=79022594-4418-47db-95e6-cc65013abc03"},"vehicle_type_id":"4","last_reported":1699999594,"current_range_meters":21600,"station_id":"ce4bgv92rcd13ifvqcq0","pricing_plan_id":"free"},{"bike_id":"55a03405-12ca-4133-9b20-10e4c9613edb","system_id":"levelo_inurba_marseille","lat":43.307945,"lon":5.376487,"is_reserved":false,"is_disabled":false,"rental_uris":{"android":"levelo://app?vid=55a03405-12ca-4133-9b20-10e4c9613edb","ios":"levelo://app?vid=55a03405-12ca-4133-9b20-10e4c9613edb"},"vehicle_type_id":"4","last_reported":1699999594,"current_range_meters":6800,"station_id":"ce4bgv92rcd13ifvqcq0","pricing_plan_id":"free"},{"bike_id":"7b826a42-b658-4684-a617-0d68a243ed80","system_id":"levelo_inurba_marseille","lat":43.307945,"lon":5.376487,"is_reserved":false,"is_disabled":false,"rental_uris":{"android":"levelo://app?vid=7b826a42-b658-4684-a617-0d68a243ed80","ios":"levelo://app?vid=7b826a42-b658-4684-a617-0d68a243ed80"},"vehicle_type_id":"4","last_reported":1699999594,"current_range_meters":6400,"station_id":"ce4bgv92rcd13ifvqcq0","pricing_plan_id":"free"},{"bike_id":"96fc1a34-9c12-41bb-beaf-80e4bf434619","system_id":"levelo_inurba_marseille","lat":43.307945,"lon":5.376487,"is_reserved":false,"is_disabled":false,"rental_uris":{"android":"levelo://app?vid=96fc1a34-9c12-41bb-beaf-80e4bf434619","ios":"levelo://app?vid=96fc1a34-9c12-41bb-beaf-80e4bf434619"},"vehicle_type_id":"4","last_reported":1699999594,"current_range_meters":27600,"station_id":"ce4bgv92rcd13ifvqcq0","pricing_plan_id":"free"},{"bike_id":"57053367-5328-4d78-8951-737f56b37ed9","system_id":"levelo_inurba_marseille","lat":43.319924,"lon":5.373389,"is_reserved":false,"is_disabled":false,"rental_uris":{"android":"levelo://app?vid=57053367-5328-4d78-8951-737f56b37ed9","ios":"levelo://app?vid=57053367-5328-4d78-8951-737f56b37ed9"},"vehicle_type_id":"4","last_reported":1699999594,"current_range_meters":5600,"station_id":"","pricing_plan_id":"free"},{"bike_id":"747f0a1b-dafe-4149-ac8a-fc6febaef904","system_id":"levelo_inurba_marseille","lat":43.317075,"lon":5.377367,"is_reserved":false,"is_disabled":false,"rental_uris":{"android":"levelo://app?vid=747f0a1b-dafe-4149-ac8a-fc6febaef904","ios":"levelo://app?vid=747f0a1b-dafe-4149-ac8a-fc6febaef904"},"vehicle_type_id":"4","last_reported":1699999594,"current_range_meters":800,"station_id":"ce4bgth2rcd13ifvqch0","pricing_plan_id":"free"},{"bike_id":"00e562cd-09ae-46b8-8c64-3766f647fbd6","system_id":"levelo_inurba_marseille","lat":43.315292,"lon":5.38022,"is_reserved":false,"is_disabled":false,"rental_uris":{"android":"levelo://app?vid=00e562cd-09ae-46b8-8c64-3766f647fbd6","ios":"levelo://app?vid=00e562cd-09ae-46b8-8c64-3766f647fbd6"},"vehicle_type_id":"4","last_reported":1699999594,"current_range_meters":14800,"station_id":"ce4bhsp2rcd13ifvqi50","pricing_plan_id":"free"},{"bike_id":"dd3bad96-8d0e-49c1-af17-51e47726d5ae","system_id":"levelo_inurba_marseille","lat":43.303183,"lon":5.37099,"is_reserved":false,"is_disabled":false,"rental_uris":{"android":"levelo://app?vid=dd3bad96-8d0e-49c1-af17-51e47726d5ae","ios":"levelo://app?vid=dd3bad96-8d0e-49c1-af17-51e47726d5ae"},"vehicle_type_id":"4","last_reported":1699999594,"current_range_meters":3600,"station_id":"","pricing_plan_id":"free"},{"bike_id":"420f857b-f98e-4477-8f56-9f5097b8f7c4","system_id":"levelo_inurba_marseille","lat":43.302572,"lon":5.368892,"is_reserved":false,"is_disabled":false,"rental_uris":{"android":"levelo://app?vid=420f857b-f98e-4477-8f56-9f5097b8f7c4","ios":"levelo://app?vid=420f857b-f98e-4477-8f56-9f5097b8f7c4"},"vehicle_type_id":"4","last_reported":1699999594,"current_range_meters":0,"station_id":"","pricing_plan_id":"free"},{"bike_id":"a26a672c-8f86-40f5-9e8e-9856cf399a24","system_id":"levelo_inurba_marseille","lat":43.30792,"lon":5.37966,"is_reserved":false,"is_disabled":false,"rental_uris":{"android":"levelo://app?vid=a26a672c-8f86-40f5-9e8e-9856cf399a24","ios":"levelo://app?vid=a26a672c-8f86-40f5-9e8e-9856cf399a24"},"vehicle_type_id":"4","last_reported":1699999594,"current_range_meters":12800,"station_id":"","pricing_plan_id":"free"},{"bike_id":"9a0b1890-0ba4-433a-a774-5df6bb90e193","system_id":"levelo_inurba_marseille","lat":43.301939,"lon":5.366286,"is_reserved":false,"is_disabled":false,"rental_uris":{"android":"levelo://app?vid=9a0b1890-0ba4-433a-a774-5df6bb90e193","ios":"levelo://app?vid=9a0b1890-0ba4-433a-a774-5df6bb90e193"},"vehicle_type_id":"4","last_reported":1699999594,"current_range_meters":3200,"station_id":"ce4bgrh2rcd13ifvqc8g","pricing_plan_id":"free"},{"bike_id":"03b91f82-2cfc-41c6-9b15-db5695e486be","system_id":"levelo_inurba_marseille","lat":43.316274,"lon":5.381864,"is_reserved":false,"is_disabled":false,"rental_uris":{"android":"levelo://app?vid=03b91f82-2cfc-41c6-9b15-db5695e486be","ios":"levelo://app?vid=03b91f82-2cfc-41c6-9b15-db5695e486be"},"vehicle_type_id":"4","last_reported":1699999594,"current_range_meters":0,"station_id":"","pricing_plan_id":"free"},{"bike_id":"b324cbda-422d-4a13-88fa-4a24a326bdc5","system_id":"levelo_inurba_marseille","lat":43.30797,"lon":5.38142,"is_reserved":false,"is_disabled":false,"rental_uris":{"android":"levelo://app?vid=b324cbda-422d-4a13-88fa-4a24a326bdc5","ios":"levelo://app?vid=b324cbda-422d-4a13-88fa-4a24a326bdc5"},"vehicle_type_id":"4","last_reported":1699999594,"current_range_meters":400,"station_id":"ce4bgt12rcd13ifvqce0","pricing_plan_id":"free"},{"bike_id":"a6b9b5a1-fd48-48fc-be70-cf1d1343302f","system_id":"levelo_inurba_marseille","lat":43.306956,"lon":5.380746,"is_reserved":false,"is_disabled":false,"rental_uris":{"android":"levelo://app?vid=a6b9b5a1-fd48-48fc-be70-cf1d1343302f","ios":"levelo://app?vid=a6b9b5a1-fd48-48fc-be70-cf1d1343302f"},"vehicle_type_id":"4","last_reported":1699999594,"current_range_meters":12000,"station_id":"","pricing_plan_id":"free"},{"bike_id":"064abefd-a170-41cf-b59e-3b2eed3abfb6","system_id":"levelo_inurba_marseille","lat":43.308012,"lon":5.381511,"is_reserved":false,"is_disabled":false,"rental_uris":{"android":"levelo://app?vid=064abefd-a170-41cf-b59e-3b2eed3abfb6","ios":"levelo://app?vid=064abefd-a170-41cf-b59e-3b2eed3abfb6"},"vehicle_type_id":"4","last_reported":1699999594,"current_range_meters":18800,"station_id":"ce4bgt12rcd13ifvqce0","pricing_plan_id":"free"},{"bike_id":"742e98e3-5d37-4dd5-ab5f-07b9294b729b","system_id":"levelo_inurba_marseille","lat":43.304606,"lon":5.379026,"is_reserved":false,"is_disabled":false,"rental_uris":{"android":"levelo://app?vid=742e98e3-5d37-4dd5-ab5f-07b9294b729b","ios":"levelo://app?vid=742e98e3-5d37-4dd5-ab5f-07b9294b729b"},"vehicle_type_id":"4","last_reported":1699999594,"current_range_meters":24400,"station_id":"ce4bgup2rcd13ifvqcn0","pricing_plan_id":"free"},{"bike_id":"0b9fd5fb-832f-4a05-93f0-c19c9dc18d80","system_id":"levelo_inurba_marseille","lat":43.304606,"lon":5.379026,"is_reserved":false,"is_disabled":false,"rental_uris":{"android":"levelo://app?vid=0b9fd5fb-832f-4a05-93f0-c19c9dc18d80","ios":"levelo://app?vid=0b9fd5fb-832f-4a05-93f0-c19c9dc18d80"},"vehicle_type_id":"4","last_reported":1699999594,"current_range_meters":29600,"station_id":"ce4bgup2rcd13ifvqcn0","pricing_plan_id":"free"},{"bike_id":"e05a1b9e-7062-4580-80c0-90ffe94f5963","system_id":"levelo_inurba_marseille","lat":43.304606,"lon":5.379026,"is_reserved":false,"is_disabled":false,"rental_uris":{"android":"levelo://app?vid=e05a1b9e-7062-4580-80c0-90ffe94f5963","ios":"levelo://app?vid=e05a1b9e-7062-4580-80c0-90ffe94f5963"},"vehicle_type_id":"4","last_reported":1699999594,"current_range_meters":21600,"station_id":"ce4bgup2rcd13ifvqcn0","pricing_plan_id":"free"},{"bike_id":"619bc9f3-fecd-4b9f-aed6-82a42690c764","system_id":"levelo_inurba_marseille","lat":43.304606,"lon":5.379026,"is_reserved":false,"is_disabled":false,"rental_uris":{"android":"levelo://app?vid=619bc9f3-fecd-4b9f-aed6-82a42690c764","ios":"levelo://app?vid=619bc9f3-fecd-4b9f-aed6-82a42690c764"},"vehicle_type_id":"4","last_reported":1699999594,"current_range_meters":28800,"station_id":"ce4bgup2rcd13ifvqcn0","pricing_plan_id":"free"},{"bike_id":"5b86d38d-bec0-4429-a10b-55efcae5c912","system_id":"levelo_inurba_marseille","lat":43.30143,"lon":5.37413,"is_reserved":false,"is_disabled":false,"rental_uris":{"android":"levelo://app?vid=5b86d38d-bec0-4429-a10b-55efcae5c912","ios":"levelo://app?vid=5b86d38d-bec0-4429-a10b-55efcae5c912"},"vehicle_type_id":"4","last_reported":1699999594,"current_range_meters":20400,"station_id":"ce4bgs92rcd13ifvqcc0","pricing_plan_id":"free"},{"bike_id":"c95e41bc-e660-46f3-982d-9d8d14b3a847","system_id":"levelo_inurba_marseille","lat":43.320337,"lon":5.380857,"is_reserved":false,"is_disabled":false,"rental_uris":{"android":"levelo://app?vid=c95e41bc-e660-46f3-982d-9d8d14b3a847","ios":"levelo://app?vid=c95e41bc-e660-46f3-982d-9d8d14b3a847"},"vehicle_type_id":"4","last_reported":1699999594,"current_range_meters":5600,"station_id":"","pricing_plan_id":"free"},{"bike_id":"69166d53-ec8e-4a0a-864c-7a29f7650dd8","system_id":"levelo_inurba_marseille","lat":43.321128,"lon":5.380037,"is_reserved":false,"is_disabled":false,"rental_uris":{"android":"levelo://app?vid=69166d53-ec8e-4a0a-864c-7a29f7650dd8","ios":"levelo://app?vid=69166d53-ec8e-4a0a-864c-7a29f7650dd8"},"vehicle_type_id":"4","last_reported":1699999594,"current_range_meters":3600,"station_id":"","pricing_plan_id":"free"},{"bike_id":"0f6061ec-01e1-475b-9c56-256ca5b7f0a0","system_id":"levelo_inurba_marseille","lat":43.319926,"lon":5.381498,"is_reserved":false,"is_disabled":false,"rental_uris":{"android":"levelo://app?vid=0f6061ec-01e1-475b-9c56-256ca5b7f0a0","ios":"levelo://app?vid=0f6061ec-01e1-475b-9c56-256ca5b7f0a0"},"vehicle_type_id":"4","last_reported":1699999594,"current_range_meters":400,"station_id":"ce4bhr12rcd13ifvqhpg","pricing_plan_id":"free"},{"bike_id":"7f17365f-0108-46d6-8a43-2862eb35a929","system_id":"levelo_inurba_marseille","lat":43.319935,"lon":5.38164,"is_reserved":false,"is_disabled":false,"rental_uris":{"android":"levelo://app?vid=7f17365f-0108-46d6-8a43-2862eb35a929","ios":"levelo://app?vid=7f17365f-0108-46d6-8a43-2862eb35a929"},"vehicle_type_id":"4","last_reported":1699999594,"current_range_meters":19600,"station_id":"ce4bhr12rcd13ifvqhpg","pricing_plan_id":"free"},{"bike_id":"603725a0-77a3-4214-945d-6576a06c586f","system_id":"levelo_inurba_marseille","lat":43.313571,"lon":5.384829,"is_reserved":false,"is_disabled":false,"rental_uris":{"android":"levelo://app?vid=603725a0-77a3-4214-945d-6576a06c586f","ios":"levelo://app?vid=603725a0-77a3-4214-945d-6576a06c586f"},"vehicle_type_id":"4","last_reported":1699999594,"current_range_meters":24000,"station_id":"ce4bgt92rcd13ifvqcf0","pricing_plan_id":"free"},{"bike_id":"ae0f1389-be5b-4458-ab95-05e74ffdd748","system_id":"levelo_inurba_marseille","lat":43.311908,"lon":5.385875,"is_reserved":false,"is_disabled":false,"rental_uris":{"android":"levelo://app?vid=ae0f1389-be5b-4458-ab95-05e74ffdd748","ios":"levelo://app?vid=ae0f1389-be5b-4458-ab95-05e74ffdd748"},"vehicle_type_id":"4","last_reported":1699999594,"current_range_meters":4400,"station_id":"","pricing_plan_id":"free"},{"bike_id":"5da9dea2-bd9f-4746-b637-56e44ea9e587","system_id":"levelo_inurba_marseille","lat":43.298489,"lon":5.362942,"is_reserved":false,"is_disabled":false,"rental_uris":{"android":"levelo://app?vid=5da9dea2-bd9f-4746-b637-56e44ea9e587","ios":"levelo://app?vid=5da9dea2-bd9f-4746-b637-56e44ea9e587"},"vehicle_type_id":"4","last_reported":1699999594,"current_range_meters":11600,"station_id":"ce4bgpp2rcd13ifvqc3g","pricing_plan_id":"free"},{"bike_id":"9a27e2a3-7d13-4fb5-86d4-bf3e315d580d","system_id":"levelo_inurba_marseille","lat":43.305364,"lon":5.384119,"is_reserved":false,"is_disabled":false,"rental_uris":{"android":"levelo://app?vid=9a27e2a3-7d13-4fb5-86d4-bf3e315d580d","ios":"levelo://app?vid=9a27e2a3-7d13-4fb5-86d4-bf3e315d580d"},"vehicle_type_id":"4","last_reported":1699999594,"current_range_meters":26000,"station_id":"ce4bgg92rcd13ifvqb30","pricing_plan_id":"free"},{"bike_id":"59b4bd3e-66db-4077-bdcd-500b4f823ebd","system_id":"levelo_inurba_marseille","lat":43.305364,"lon":5.384119,"is_reserved":false,"is_disabled":false,"rental_uris":{"android":"levelo://app?vid=59b4bd3e-66db-4077-bdcd-500b4f823ebd","ios":"levelo://app?vid=59b4bd3e-66db-4077-bdcd-500b4f823ebd"},"vehicle_type_id":"4","last_reported":1699999594,"current_range_meters":1200,"station_id":"ce4bgg92rcd13ifvqb30","pricing_plan_id":"free"},{"bike_id":"8950f55a-e75d-4fac-9a7c-f529bc0580a5","system_id":"levelo_inurba_marseille","lat":43.320464,"lon":5.384144,"is_reserved":false,"is_disabled":false,"rental_uris":{"android":"levelo://app?vid=8950f55a-e75d-4fac-9a7c-f529bc0580a5","ios":"levelo://app?vid=8950f55a-e75d-4fac-9a7c-f529bc0580a5"},"vehicle_type_id":"4","last_reported":1699999594,"current_range_meters":400,"station_id":"","pricing_plan_id":"free"},{"bike_id":"00f377ec-bc36-4133-a2d0-f4d9cda099e6","system_id":"levelo_inurba_marseille","lat":43.31173,"lon":5.38713,"is_reserved":false,"is_disabled":false,"rental_uris":{"android":"levelo://app?vid=00f377ec-bc36-4133-a2d0-f4d9cda099e6","ios":"levelo://app?vid=00f377ec-bc36-4133-a2d0-f4d9cda099e6"},"vehicle_type_id":"4","last_reported":1699999594,"current_range_meters":0,"station_id":"ce4bgv12rcd13ifvqcp0","pricing_plan_id":"free"},{"bike_id":"9f280dc3-4fec-4a1b-a045-8fc0631b593d","system_id":"levelo_inurba_marseille","lat":43.320864,"lon":5.384347,"is_reserved":false,"is_disabled":false,"rental_uris":{"android":"levelo://app?vid=9f280dc3-4fec-4a1b-a045-8fc0631b593d","ios":"levelo://app?vid=9f280dc3-4fec-4a1b-a045-8fc0631b593d"},"vehicle_type_id":"4","last_reported":1699999594,"current_range_meters":13600,"station_id":"","pricing_plan_id":"free"},{"bike_id":"0cdef2d4-41ee-4a9d-9847-5f9e0d8a286d","system_id":"levelo_inurba_marseille","lat":43.322872,"lon":5.382756,"is_reserved":false,"is_disabled":false,"rental_uris":{"android":"levelo://app?vid=0cdef2d4-41ee-4a9d-9847-5f9e0d8a286d","ios":"levelo://app?vid=0cdef2d4-41ee-4a9d-9847-5f9e0d8a286d"},"vehicle_type_id":"4","last_reported":1699999594,"current_range_meters":5600,"station_id":"ce4bhr12rcd13ifvqhqg","pricing_plan_id":"free"},{"bike_id":"73f5e759-a33e-4afe-ad6a-de1957c99c0a","system_id":"levelo_inurba_marseille","lat":43.322872,"lon":5.382756,"is_reserved":false,"is_disabled":false,"rental_uris":{"android":"levelo://app?vid=73f5e759-a33e-4afe-ad6a-de1957c99c0a","ios":"levelo://app?vid=73f5e759-a33e-4afe-ad6a-de1957c99c0a"},"vehicle_type_id":"4","last_reported":1699999594,"current_range_meters":23600,"station_id":"ce4bhr12rcd13ifvqhqg","pricing_plan_id":"free"},{"bike_id":"2da71f6c-8490-46d0-a5da-f69ded06ce96","system_id":"levelo_inurba_marseille","lat":43.322872,"lon":5.382756,"is_reserved":false,"is_disabled":false,"rental_uris":{"android":"levelo://app?vid=2da71f6c-8490-46d0-a5da-f69ded06ce96","ios":"levelo://app?vid=2da71f6c-8490-46d0-a5da-f69ded06ce96"},"vehicle_type_id":"4","last_reported":1699999594,"current_range_meters":25600,"station_id":"ce4bhr12rcd13ifvqhqg","pricing_plan_id":"free"},{"bike_id":"8e3fd396-47be-487d-b4d9-52f77c7b8984","system_id":"levelo_inurba_marseille","lat":43.32828,"lon":5.36691,"is_reserved":false,"is_disabled":false,"rental_uris":{"android":"levelo://app?vid=8e3fd396-47be-487d-b4d9-52f77c7b8984","ios":"levelo://app?vid=8e3fd396-47be-487d-b4d9-52f77c7b8984"},"vehicle_type_id":"4","last_reported":1699999594,"current_range_meters":4800,"station_id":"ce4bhs92rcd13ifvqi0g","pricing_plan_id":"free"},{"bike_id":"53d5ff0e-8e21-41c9-a410-1186a9d5d0fe","system_id":"levelo_inurba_marseille","lat":43.328357,"lon":5.36688,"is_reserved":false,"is_disabled":false,"rental_uris":{"android":"levelo://app?vid=53d5ff0e-8e21-41c9-a410-1186a9d5d0fe","ios":"levelo://app?vid=53d5ff0e-8e21-41c9-a410-1186a9d5d0fe"},"vehicle_type_id":"4","last_reported":1699999594,"current_range_meters":16000,"station_id":"ce4bhs92rcd13ifvqi0g","pricing_plan_id":"free"},{"bike_id":"21ef66fc-f849-4436-a784-addc98d58662","system_id":"levelo_inurba_marseille","lat":43.321544,"lon":5.386546,"is_reserved":false,"is_disabled":false,"rental_uris":{"android":"levelo://app?vid=21ef66fc-f849-4436-a784-addc98d58662","ios":"levelo://app?vid=21ef66fc-f849-4436-a784-addc98d58662"},"vehicle_type_id":"4","last_reported":1699999594,"current_range_meters":18800,"station_id":"","pricing_plan_id":"free"},{"bike_id":"8ad5b057-ca9d-4b1c-9362-846d7880963e","system_id":"levelo_inurba_marseille","lat":43.29591,"lon":5.36742,"is_reserved":false,"is_disabled":false,"rental_uris":{"android":"levelo://app?vid=8ad5b057-ca9d-4b1c-9362-846d7880963e","ios":"levelo://app?vid=8ad5b057-ca9d-4b1c-9362-846d7880963e"},"vehicle_type_id":"4","last_reported":1699999594,"current_range_meters":24800,"station_id":"ce4bgph2rcd13ifvqc2g","pricing_plan_id":"free"},{"bike_id":"9d5f46d1-6820-49d7-bb76-4c5037c89965","system_id":"levelo_inurba_marseille","lat":43.296131,"lon":5.370791,"is_reserved":false,"is_disabled":false,"rental_uris":{"android":"levelo://app?vid=9d5f46d1-6820-49d7-bb76-4c5037c89965","ios":"levelo://app?vid=9d5f46d1-6820-49d7-bb76-4c5037c89965"},"vehicle_type_id":"4","last_reported":1699999594,"current_range_meters":20800,"station_id":"ce4bgnh2rcd13ifvqc0g","pricing_plan_id":"free"},{"bike_id":"30563eeb-bac8-4439-a5bd-8c0a3323e5fc","system_id":"levelo_inurba_marseille","lat":43.296131,"lon":5.370791,"is_reserved":false,"is_disabled":false,"rental_uris":{"android":"levelo://app?vid=30563eeb-bac8-4439-a5bd-8c0a3323e5fc","ios":"levelo://app?vid=30563eeb-bac8-4439-a5bd-8c0a3323e5fc"},"vehicle_type_id":"4","last_reported":1699999594,"current_range_meters":20400,"station_id":"ce4bgnh2rcd13ifvqc0g","pricing_plan_id":"free"},{"bike_id":"b694797a-5036-42a3-8147-2ddb4009f15b","system_id":"levelo_inurba_marseille","lat":43.296131,"lon":5.370791,"is_reserved":false,"is_disabled":false,"rental_uris":{"android":"levelo://app?vid=b694797a-5036-42a3-8147-2ddb4009f15b","ios":"levelo://app?vid=b694797a-5036-42a3-8147-2ddb4009f15b"},"vehicle_type_id":"4","last_reported":1699999594,"current_range_meters":30000,"station_id":"ce4bgnh2rcd13ifvqc0g","pricing_plan_id":"free"},{"bike_id":"0fa9a4a1-22d3-49ee-b90c-d97704d08441","system_id":"levelo_inurba_marseille","lat":43.296131,"lon":5.370791,"is_reserved":false,"is_disabled":false,"rental_uris":{"android":"levelo://app?vid=0fa9a4a1-22d3-49ee-b90c-d97704d08441","ios":"levelo://app?vid=0fa9a4a1-22d3-49ee-b90c-d97704d08441"},"vehicle_type_id":"4","last_reported":1699999594,"current_range_meters":18800,"station_id":"ce4bgnh2rcd13ifvqc0g","pricing_plan_id":"free"},{"bike_id":"616f9ff2-7db0-4cf8-80ec-662084ab4008","system_id":"levelo_inurba_marseille","lat":43.296131,"lon":5.370791,"is_reserved":false,"is_disabled":false,"rental_uris":{"android":"levelo://app?vid=616f9ff2-7db0-4cf8-80ec-662084ab4008","ios":"levelo://app?vid=616f9ff2-7db0-4cf8-80ec-662084ab4008"},"vehicle_type_id":"4","last_reported":1699999594,"current_range_meters":29600,"station_id":"ce4bgnh2rcd13ifvqc0g","pricing_plan_id":"free"},{"bike_id":"d447991a-59b4-4778-a190-7d2b0920a414","system_id":"levelo_inurba_marseille","lat":43.32215,"lon":5.38613,"is_reserved":false,"is_disabled":false,"rental_uris":{"android":"levelo://app?vid=d447991a-59b4-4778-a190-7d2b0920a414","ios":"levelo://app?vid=d447991a-59b4-4778-a190-7d2b0920a414"},"vehicle_type_id":"4","last_reported":1699999594,"current_range_meters":7600,"station_id":"","pricing_plan_id":"free"},{"bike_id":"450cf0f9-d5af-4bb2-abc1-442c432f6f91","system_id":"levelo_inurba_marseille","lat":43.296131,"lon":5.370791,"is_reserved":false,"is_disabled":false,"rental_uris":{"android":"levelo://app?vid=450cf0f9-d5af-4bb2-abc1-442c432f6f91","ios":"levelo://app?vid=450cf0f9-d5af-4bb2-abc1-442c432f6f91"},"vehicle_type_id":"4","last_reported":1699999594,"current_range_meters":30800,"station_id":"ce4bgnh2rcd13ifvqc0g","pricing_plan_id":"free"},{"bike_id":"5c57c653-32e2-466b-96c4-6b1fae1aa88f","system_id":"levelo_inurba_marseille","lat":43.296131,"lon":5.370791,"is_reserved":false,"is_disabled":false,"rental_uris":{"android":"levelo://app?vid=5c57c653-32e2-466b-96c4-6b1fae1aa88f","ios":"levelo://app?vid=5c57c653-32e2-466b-96c4-6b1fae1aa88f"},"vehicle_type_id":"4","last_reported":1699999594,"current_range_meters":29600,"station_id":"ce4bgnh2rcd13ifvqc0g","pricing_plan_id":"free"},{"bike_id":"75e6f94b-842e-42c4-be4d-e04c8291a0b0","system_id":"levelo_inurba_marseille","lat":43.296129,"lon":5.370777,"is_reserved":false,"is_disabled":false,"rental_uris":{"android":"levelo://app?vid=75e6f94b-842e-42c4-be4d-e04c8291a0b0","ios":"levelo://app?vid=75e6f94b-842e-42c4-be4d-e04c8291a0b0"},"vehicle_type_id":"4","last_reported":1699999594,"current_range_meters":29600,"station_id":"ce4bgnh2rcd13ifvqc0g","pricing_plan_id":"free"},{"bike_id":"fdc0ff17-efb7-454b-8d75-319a22f9f750","system_id":"levelo_inurba_marseille","lat":43.296129,"lon":5.370777,"is_reserved":false,"is_disabled":false,"rental_uris":{"android":"levelo://app?vid=fdc0ff17-efb7-454b-8d75-319a22f9f750","ios":"levelo://app?vid=fdc0ff17-efb7-454b-8d75-319a22f9f750"},"vehicle_type_id":"4","last_reported":1699999594,"current_range_meters":26400,"station_id":"ce4bgnh2rcd13ifvqc0g","pricing_plan_id":"free"},{"bike_id":"3189edc2-795a-46d3-a20b-b93f21c762f3","system_id":"levelo_inurba_marseille","lat":43.296129,"lon":5.370777,"is_reserved":false,"is_disabled":false,"rental_uris":{"android":"levelo://app?vid=3189edc2-795a-46d3-a20b-b93f21c762f3","ios":"levelo://app?vid=3189edc2-795a-46d3-a20b-b93f21c762f3"},"vehicle_type_id":"4","last_reported":1699999594,"current_range_meters":28400,"station_id":"ce4bgnh2rcd13ifvqc0g","pricing_plan_id":"free"},{"bike_id":"c46d3e59-c44b-4fa0-8350-e117c5424461","system_id":"levelo_inurba_marseille","lat":43.296131,"lon":5.370791,"is_reserved":false,"is_disabled":false,"rental_uris":{"android":"levelo://app?vid=c46d3e59-c44b-4fa0-8350-e117c5424461","ios":"levelo://app?vid=c46d3e59-c44b-4fa0-8350-e117c5424461"},"vehicle_type_id":"4","last_reported":1699999594,"current_range_meters":30400,"station_id":"ce4bgnh2rcd13ifvqc0g","pricing_plan_id":"free"},{"bike_id":"408e1bba-ac1b-479c-ad30-32026784c873","system_id":"levelo_inurba_marseille","lat":43.2966,"lon":5.37463,"is_reserved":false,"is_disabled":false,"rental_uris":{"android":"levelo://app?vid=408e1bba-ac1b-479c-ad30-32026784c873","ios":"levelo://app?vid=408e1bba-ac1b-479c-ad30-32026784c873"},"vehicle_type_id":"4","last_reported":1699999594,"current_range_meters":1200,"station_id":"","pricing_plan_id":"free"},{"bike_id":"9d89bf5c-a6af-499e-b4c1-6566fabde1dd","system_id":"levelo_inurba_marseille","lat":43.299028,"lon":5.381509,"is_reserved":false,"is_disabled":false,"rental_uris":{"android":"levelo://app?vid=9d89bf5c-a6af-499e-b4c1-6566fabde1dd","ios":"levelo://app?vid=9d89bf5c-a6af-499e-b4c1-6566fabde1dd"},"vehicle_type_id":"4","last_reported":1699999594,"current_range_meters":22000,"station_id":"ce4bgj12rcd13ifvqbc0","pricing_plan_id":"free"},{"bike_id":"19d1a879-7d36-4cc8-a9d8-82ed564d9e4c","system_id":"levelo_inurba_marseille","lat":43.31759,"lon":5.39009,"is_reserved":false,"is_disabled":false,"rental_uris":{"android":"levelo://app?vid=19d1a879-7d36-4cc8-a9d8-82ed564d9e4c","ios":"levelo://app?vid=19d1a879-7d36-4cc8-a9d8-82ed564d9e4c"},"vehicle_type_id":"4","last_reported":1699999594,"current_range_meters":3200,"station_id":"ce4bhqp2rcd13ifvqhng","pricing_plan_id":"free"},{"bike_id":"1d945bb6-56d4-4a84-9cce-ad7a5c62a608","system_id":"levelo_inurba_marseille","lat":43.317557,"lon":5.390173,"is_reserved":false,"is_disabled":false,"rental_uris":{"android":"levelo://app?vid=1d945bb6-56d4-4a84-9cce-ad7a5c62a608","ios":"levelo://app?vid=1d945bb6-56d4-4a84-9cce-ad7a5c62a608"},"vehicle_type_id":"4","last_reported":1699999594,"current_range_meters":10800,"station_id":"ce4bhqp2rcd13ifvqhng","pricing_plan_id":"free"},{"bike_id":"ae676c39-b477-4aaa-8288-0e70147614e7","system_id":"levelo_inurba_marseille","lat":43.317557,"lon":5.390173,"is_reserved":false,"is_disabled":false,"rental_uris":{"android":"levelo://app?vid=ae676c39-b477-4aaa-8288-0e70147614e7","ios":"levelo://app?vid=ae676c39-b477-4aaa-8288-0e70147614e7"},"vehicle_type_id":"4","last_reported":1699999594,"current_range_meters":28000,"station_id":"ce4bhqp2rcd13ifvqhng","pricing_plan_id":"free"},{"bike_id":"4fd8d12f-f0ac-4647-a275-05c49dd61be1","system_id":"levelo_inurba_marseille","lat":43.317545,"lon":5.39015,"is_reserved":false,"is_disabled":false,"rental_uris":{"android":"levelo://app?vid=4fd8d12f-f0ac-4647-a275-05c49dd61be1","ios":"levelo://app?vid=4fd8d12f-f0ac-4647-a275-05c49dd61be1"},"vehicle_type_id":"4","last_reported":1699999594,"current_range_meters":0,"station_id":"ce4bhqp2rcd13ifvqhng","pricing_plan_id":"free"},{"bike_id":"feff7d8e-9456-4b4b-b917-4f91bb23e023","system_id":"levelo_inurba_marseille","lat":43.3175,"lon":5.39022,"is_reserved":false,"is_disabled":false,"rental_uris":{"android":"levelo://app?vid=feff7d8e-9456-4b4b-b917-4f91bb23e023","ios":"levelo://app?vid=feff7d8e-9456-4b4b-b917-4f91bb23e023"},"vehicle_type_id":"4","last_reported":1699999594,"current_range_meters":5600,"station_id":"","pricing_plan_id":"free"},{"bike_id":"d2dced52-b7fb-4d11-ad33-56be009e3364","system_id":"levelo_inurba_marseille","lat":43.32207,"lon":5.3875,"is_reserved":false,"is_disabled":false,"rental_uris":{"android":"levelo://app?vid=d2dced52-b7fb-4d11-ad33-56be009e3364","ios":"levelo://app?vid=d2dced52-b7fb-4d11-ad33-56be009e3364"},"vehicle_type_id":"4","last_reported":1699999594,"current_range_meters":28400,"station_id":"","pricing_plan_id":"free"},{"bike_id":"4eef38cc-64cf-4f4d-8d5b-99bd9d3b1b37","system_id":"levelo_inurba_marseille","lat":43.295748,"lon":5.37522,"is_reserved":false,"is_disabled":false,"rental_uris":{"android":"levelo://app?vid=4eef38cc-64cf-4f4d-8d5b-99bd9d3b1b37","ios":"levelo://app?vid=4eef38cc-64cf-4f4d-8d5b-99bd9d3b1b37"},"vehicle_type_id":"4","last_reported":1699999594,"current_range_meters":24800,"station_id":"ce4bgh92rcd13ifvqb50","pricing_plan_id":"free"},{"bike_id":"7fe9dd76-9d1f-4932-bd49-65632d1e9f28","system_id":"levelo_inurba_marseille","lat":43.304278,"lon":5.388868,"is_reserved":false,"is_disabled":false,"rental_uris":{"android":"levelo://app?vid=7fe9dd76-9d1f-4932-bd49-65632d1e9f28","ios":"levelo://app?vid=7fe9dd76-9d1f-4932-bd49-65632d1e9f28"},"vehicle_type_id":"4","last_reported":1699999594,"current_range_meters":9600,"station_id":"ce4bgk12rcd13ifvqbi0","pricing_plan_id":"free"},{"bike_id":"9caec048-a3aa-428b-9d1e-66ad6c2d8e58","system_id":"levelo_inurba_marseille","lat":43.324371,"lon":5.386085,"is_reserved":false,"is_disabled":false,"rental_uris":{"android":"levelo://app?vid=9caec048-a3aa-428b-9d1e-66ad6c2d8e58","ios":"levelo://app?vid=9caec048-a3aa-428b-9d1e-66ad6c2d8e58"},"vehicle_type_id":"4","last_reported":1699999594,"current_range_meters":20000,"station_id":"","pricing_plan_id":"free"},{"bike_id":"3e3e92fe-39b7-4933-99ff-3747b28b5d69","system_id":"levelo_inurba_marseille","lat":43.32823,"lon":5.380038,"is_reserved":false,"is_disabled":false,"rental_uris":{"android":"levelo://app?vid=3e3e92fe-39b7-4933-99ff-3747b28b5d69","ios":"levelo://app?vid=3e3e92fe-39b7-4933-99ff-3747b28b5d69"},"vehicle_type_id":"4","last_reported":1699999594,"current_range_meters":12800,"station_id":"","pricing_plan_id":"free"},{"bike_id":"37e3db77-388d-4a13-92f4-e4555804736b","system_id":"levelo_inurba_marseille","lat":43.29743,"lon":5.38093,"is_reserved":false,"is_disabled":false,"rental_uris":{"android":"levelo://app?vid=37e3db77-388d-4a13-92f4-e4555804736b","ios":"levelo://app?vid=37e3db77-388d-4a13-92f4-e4555804736b"},"vehicle_type_id":"4","last_reported":1699999594,"current_range_meters":0,"station_id":"","pricing_plan_id":"free"},{"bike_id":"141586ac-7843-4d16-b031-486995a3d1d8","system_id":"levelo_inurba_marseille","lat":43.32376,"lon":5.38868,"is_reserved":false,"is_disabled":false,"rental_uris":{"android":"levelo://app?vid=141586ac-7843-4d16-b031-486995a3d1d8","ios":"levelo://app?vid=141586ac-7843-4d16-b031-486995a3d1d8"},"vehicle_type_id":"4","last_reported":1699999594,"current_range_meters":26000,"station_id":"ce4bhqp2rcd13ifvqhog","pricing_plan_id":"free"},{"bike_id":"71246d6e-cbb1-4d4f-977a-e01a81058e58","system_id":"levelo_inurba_marseille","lat":43.32367,"lon":5.388836,"is_reserved":false,"is_disabled":false,"rental_uris":{"android":"levelo://app?vid=71246d6e-cbb1-4d4f-977a-e01a81058e58","ios":"levelo://app?vid=71246d6e-cbb1-4d4f-977a-e01a81058e58"},"vehicle_type_id":"4","last_reported":1699999594,"current_range_meters":12000,"station_id":"ce4bhqp2rcd13ifvqhog","pricing_plan_id":"free"},{"bike_id":"49445a4a-2be5-43fb-9f8c-330e5348e5af","system_id":"levelo_inurba_marseille","lat":43.32369,"lon":5.38883,"is_reserved":false,"is_disabled":false,"rental_uris":{"android":"levelo://app?vid=49445a4a-2be5-43fb-9f8c-330e5348e5af","ios":"levelo://app?vid=49445a4a-2be5-43fb-9f8c-330e5348e5af"},"vehicle_type_id":"4","last_reported":1699999594,"current_range_meters":3600,"station_id":"ce4bhqp2rcd13ifvqhog","pricing_plan_id":"free"},{"bike_id":"5a65d6b4-98ab-4fa9-bdf3-f5c15792fdb1","system_id":"levelo_inurba_marseille","lat":43.31659,"lon":5.39463,"is_reserved":false,"is_disabled":false,"rental_uris":{"android":"levelo://app?vid=5a65d6b4-98ab-4fa9-bdf3-f5c15792fdb1","ios":"levelo://app?vid=5a65d6b4-98ab-4fa9-bdf3-f5c15792fdb1"},"vehicle_type_id":"4","last_reported":1699999594,"current_range_meters":27600,"station_id":"","pricing_plan_id":"free"},{"bike_id":"23fd9167-ab5f-4e1f-9b6c-7d05e06c6c11","system_id":"levelo_inurba_marseille","lat":43.292311,"lon":5.360731,"is_reserved":false,"is_disabled":false,"rental_uris":{"android":"levelo://app?vid=23fd9167-ab5f-4e1f-9b6c-7d05e06c6c11","ios":"levelo://app?vid=23fd9167-ab5f-4e1f-9b6c-7d05e06c6c11"},"vehicle_type_id":"4","last_reported":1699999594,"current_range_meters":0,"station_id":"ce4bhbh2rcd13ifvqeqg","pricing_plan_id":"free"},{"bike_id":"aad4a822-fefd-43a4-bc1a-5d43bbe5ea7f","system_id":"levelo_inurba_marseille","lat":43.29165,"lon":5.371465,"is_reserved":false,"is_disabled":false,"rental_uris":{"android":"levelo://app?vid=aad4a822-fefd-43a4-bc1a-5d43bbe5ea7f","ios":"levelo://app?vid=aad4a822-fefd-43a4-bc1a-5d43bbe5ea7f"},"vehicle_type_id":"4","last_reported":1699999594,"current_range_meters":0,"station_id":"ce4bha92rcd13ifvqeh0","pricing_plan_id":"free"},{"bike_id":"d4c76331-dff4-481c-90db-7bb4adc567d4","system_id":"levelo_inurba_marseille","lat":43.309038,"lon":5.396546,"is_reserved":false,"is_disabled":false,"rental_uris":{"android":"levelo://app?vid=d4c76331-dff4-481c-90db-7bb4adc567d4","ios":"levelo://app?vid=d4c76331-dff4-481c-90db-7bb4adc567d4"},"vehicle_type_id":"4","last_reported":1699999594,"current_range_meters":0,"station_id":"ce4bh012rcd13ifvqcv0","pricing_plan_id":"free"},{"bike_id":"985513df-8f0f-4424-aceb-f767bbf3fd07","system_id":"levelo_inurba_marseille","lat":43.309038,"lon":5.396546,"is_reserved":false,"is_disabled":false,"rental_uris":{"android":"levelo://app?vid=985513df-8f0f-4424-aceb-f767bbf3fd07","ios":"levelo://app?vid=985513df-8f0f-4424-aceb-f767bbf3fd07"},"vehicle_type_id":"4","last_reported":1699999594,"current_range_meters":17600,"station_id":"ce4bh012rcd13ifvqcv0","pricing_plan_id":"free"},{"bike_id":"11622721-6e58-42bd-9d5d-153ee1abaceb","system_id":"levelo_inurba_marseille","lat":43.31328,"lon":5.3969,"is_reserved":false,"is_disabled":false,"rental_uris":{"android":"levelo://app?vid=11622721-6e58-42bd-9d5d-153ee1abaceb","ios":"levelo://app?vid=11622721-6e58-42bd-9d5d-153ee1abaceb"},"vehicle_type_id":"4","last_reported":1699999594,"current_range_meters":22000,"station_id":"ce4bgvp2rcd13ifvqcu0","pricing_plan_id":"free"},{"bike_id":"06685bb2-c13c-47b8-9d03-aa9fe1e3bcb4","system_id":"levelo_inurba_marseille","lat":43.31334,"lon":5.39693,"is_reserved":false,"is_disabled":false,"rental_uris":{"android":"levelo://app?vid=06685bb2-c13c-47b8-9d03-aa9fe1e3bcb4","ios":"levelo://app?vid=06685bb2-c13c-47b8-9d03-aa9fe1e3bcb4"},"vehicle_type_id":"4","last_reported":1699999594,"current_range_meters":14000,"station_id":"ce4bgvp2rcd13ifvqcu0","pricing_plan_id":"free"},{"bike_id":"448d01e6-7fbc-4f00-92cd-22772e360f39","system_id":"levelo_inurba_marseille","lat":43.313291,"lon":5.396838,"is_reserved":false,"is_disabled":false,"rental_uris":{"android":"levelo://app?vid=448d01e6-7fbc-4f00-92cd-22772e360f39","ios":"levelo://app?vid=448d01e6-7fbc-4f00-92cd-22772e360f39"},"vehicle_type_id":"4","last_reported":1699999594,"current_range_meters":19600,"station_id":"ce4bgvp2rcd13ifvqcu0","pricing_plan_id":"free"},{"bike_id":"8ac62e3f-3100-4a44-afeb-8379a2b21f2f","system_id":"levelo_inurba_marseille","lat":43.309038,"lon":5.396546,"is_reserved":false,"is_disabled":false,"rental_uris":{"android":"levelo://app?vid=8ac62e3f-3100-4a44-afeb-8379a2b21f2f","ios":"levelo://app?vid=8ac62e3f-3100-4a44-afeb-8379a2b21f2f"},"vehicle_type_id":"4","last_reported":1699999594,"current_range_meters":10400,"station_id":"ce4bh012rcd13ifvqcv0","pricing_plan_id":"free"},{"bike_id":"6b94e33f-de98-4321-80ea-30a8d7cb0ccb","system_id":"levelo_inurba_marseille","lat":43.309038,"lon":5.396546,"is_reserved":false,"is_disabled":false,"rental_uris":{"android":"levelo://app?vid=6b94e33f-de98-4321-80ea-30a8d7cb0ccb","ios":"levelo://app?vid=6b94e33f-de98-4321-80ea-30a8d7cb0ccb"},"vehicle_type_id":"4","last_reported":1699999594,"current_range_meters":4800,"station_id":"ce4bh012rcd13ifvqcv0","pricing_plan_id":"free"},{"bike_id":"e1e76634-65a1-45bb-b471-64cfa952df4a","system_id":"levelo_inurba_marseille","lat":43.309038,"lon":5.396546,"is_reserved":false,"is_disabled":false,"rental_uris":{"android":"levelo://app?vid=e1e76634-65a1-45bb-b471-64cfa952df4a","ios":"levelo://app?vid=e1e76634-65a1-45bb-b471-64cfa952df4a"},"vehicle_type_id":"4","last_reported":1699999594,"current_range_meters":8400,"station_id":"ce4bh012rcd13ifvqcv0","pricing_plan_id":"free"},{"bike_id":"54e21424-01e5-4bfa-8647-be1d19c58768","system_id":"levelo_inurba_marseille","lat":43.309047,"lon":5.396551,"is_reserved":false,"is_disabled":false,"rental_uris":{"android":"levelo://app?vid=54e21424-01e5-4bfa-8647-be1d19c58768","ios":"levelo://app?vid=54e21424-01e5-4bfa-8647-be1d19c58768"},"vehicle_type_id":"4","last_reported":1699999594,"current_range_meters":14800,"station_id":"ce4bh012rcd13ifvqcv0","pricing_plan_id":"free"},{"bike_id":"1136a4c8-2520-430c-ba03-80582281e8b0","system_id":"levelo_inurba_marseille","lat":43.29529,"lon":5.385581,"is_reserved":false,"is_disabled":false,"rental_uris":{"android":"levelo://app?vid=1136a4c8-2520-430c-ba03-80582281e8b0","ios":"levelo://app?vid=1136a4c8-2520-430c-ba03-80582281e8b0"},"vehicle_type_id":"4","last_reported":1699999594,"current_range_meters":20400,"station_id":"ce4bgih2rcd13ifvqba0","pricing_plan_id":"free"},{"bike_id":"bf342329-ffcb-4a6b-bb91-5d827ddaf595","system_id":"levelo_inurba_marseille","lat":43.290672,"lon":5.371665,"is_reserved":false,"is_disabled":false,"rental_uris":{"android":"levelo://app?vid=bf342329-ffcb-4a6b-bb91-5d827ddaf595","ios":"levelo://app?vid=bf342329-ffcb-4a6b-bb91-5d827ddaf595"},"vehicle_type_id":"4","last_reported":1699999594,"current_range_meters":29200,"station_id":"ce4bh5p2rcd13ifvqe4g","pricing_plan_id":"free"},{"bike_id":"b548d4dd-ae40-4631-96f5-59aea6249c22","system_id":"levelo_inurba_marseille","lat":43.296231,"lon":5.388263,"is_reserved":false,"is_disabled":false,"rental_uris":{"android":"levelo://app?vid=b548d4dd-ae40-4631-96f5-59aea6249c22","ios":"levelo://app?vid=b548d4dd-ae40-4631-96f5-59aea6249c22"},"vehicle_type_id":"4","last_reported":1699999594,"current_range_meters":15200,"station_id":"","pricing_plan_id":"free"},{"bike_id":"108a91fa-2651-4abe-b2cc-cc13bb2174ed","system_id":"levelo_inurba_marseille","lat":43.302008,"lon":5.394694,"is_reserved":false,"is_disabled":false,"rental_uris":{"android":"levelo://app?vid=108a91fa-2651-4abe-b2cc-cc13bb2174ed","ios":"levelo://app?vid=108a91fa-2651-4abe-b2cc-cc13bb2174ed"},"vehicle_type_id":"4","last_reported":1699999594,"current_range_meters":28400,"station_id":"ce4bh0p2rcd13ifvqd70","pricing_plan_id":"free"},{"bike_id":"67ffd28a-0325-489b-a10f-d90500122751","system_id":"levelo_inurba_marseille","lat":43.290624,"lon":5.359245,"is_reserved":false,"is_disabled":false,"rental_uris":{"android":"levelo://app?vid=67ffd28a-0325-489b-a10f-d90500122751","ios":"levelo://app?vid=67ffd28a-0325-489b-a10f-d90500122751"},"vehicle_type_id":"4","last_reported":1699999594,"current_range_meters":31200,"station_id":"ce4bha92rcd13ifvqeg0","pricing_plan_id":"free"},{"bike_id":"47e21bbb-5a04-4935-ac2a-02b6b0aa9e59","system_id":"levelo_inurba_marseille","lat":43.290327,"lon":5.375711,"is_reserved":false,"is_disabled":false,"rental_uris":{"android":"levelo://app?vid=47e21bbb-5a04-4935-ac2a-02b6b0aa9e59","ios":"levelo://app?vid=47e21bbb-5a04-4935-ac2a-02b6b0aa9e59"},"vehicle_type_id":"4","last_reported":1699999594,"current_range_meters":5600,"station_id":"ce4bh692rcd13ifvqe90","pricing_plan_id":"free"},{"bike_id":"b0efba15-a8f3-4ee7-b0fb-89291e758285","system_id":"levelo_inurba_marseille","lat":43.289184,"lon":5.366408,"is_reserved":false,"is_disabled":false,"rental_uris":{"android":"levelo://app?vid=b0efba15-a8f3-4ee7-b0fb-89291e758285","ios":"levelo://app?vid=b0efba15-a8f3-4ee7-b0fb-89291e758285"},"vehicle_type_id":"4","last_reported":1699999594,"current_range_meters":22800,"station_id":"ce4bhap2rcd13ifvqek0","pricing_plan_id":"free"},{"bike_id":"b449661c-bc10-4011-9e41-b764af379f42","system_id":"levelo_inurba_marseille","lat":43.28941,"lon":5.36631,"is_reserved":false,"is_disabled":false,"rental_uris":{"android":"levelo://app?vid=b449661c-bc10-4011-9e41-b764af379f42","ios":"levelo://app?vid=b449661c-bc10-4011-9e41-b764af379f42"},"vehicle_type_id":"4","last_reported":1699999594,"current_range_meters":0,"station_id":"ce4bhap2rcd13ifvqek0","pricing_plan_id":"free"},{"bike_id":"7ee607b4-d923-41b2-af45-10ceb758d800","system_id":"levelo_inurba_marseille","lat":43.289184,"lon":5.366408,"is_reserved":false,"is_disabled":false,"rental_uris":{"android":"levelo://app?vid=7ee607b4-d923-41b2-af45-10ceb758d800","ios":"levelo://app?vid=7ee607b4-d923-41b2-af45-10ceb758d800"},"vehicle_type_id":"4","last_reported":1699999594,"current_range_meters":19600,"station_id":"ce4bhap2rcd13ifvqek0","pricing_plan_id":"free"},{"bike_id":"cadbe03b-67b9-4f80-83cb-aa48d1397c92","system_id":"levelo_inurba_marseille","lat":43.28944,"lon":5.363902,"is_reserved":false,"is_disabled":false,"rental_uris":{"android":"levelo://app?vid=cadbe03b-67b9-4f80-83cb-aa48d1397c92","ios":"levelo://app?vid=cadbe03b-67b9-4f80-83cb-aa48d1397c92"},"vehicle_type_id":"4","last_reported":1699999594,"current_range_meters":31200,"station_id":"ce4bhc92rcd13ifvqetg","pricing_plan_id":"free"},{"bike_id":"34bec086-3080-4bc5-a5ab-9d8214d065ac","system_id":"levelo_inurba_marseille","lat":43.2894,"lon":5.363904,"is_reserved":false,"is_disabled":false,"rental_uris":{"android":"levelo://app?vid=34bec086-3080-4bc5-a5ab-9d8214d065ac","ios":"levelo://app?vid=34bec086-3080-4bc5-a5ab-9d8214d065ac"},"vehicle_type_id":"4","last_reported":1699999594,"current_range_meters":30800,"station_id":"ce4bhc92rcd13ifvqetg","pricing_plan_id":"free"},{"bike_id":"ea0a7762-ac74-4284-9ece-3dd41928cd6a","system_id":"levelo_inurba_marseille","lat":43.289332,"lon":5.363962,"is_reserved":false,"is_disabled":false,"rental_uris":{"android":"levelo://app?vid=ea0a7762-ac74-4284-9ece-3dd41928cd6a","ios":"levelo://app?vid=ea0a7762-ac74-4284-9ece-3dd41928cd6a"},"vehicle_type_id":"4","last_reported":1699999594,"current_range_meters":31200,"station_id":"ce4bhc92rcd13ifvqetg","pricing_plan_id":"free"},{"bike_id":"18138a82-9bf3-4c86-bf4c-dc7819d85ebd","system_id":"levelo_inurba_marseille","lat":43.304274,"lon":5.397513,"is_reserved":false,"is_disabled":false,"rental_uris":{"android":"levelo://app?vid=18138a82-9bf3-4c86-bf4c-dc7819d85ebd","ios":"levelo://app?vid=18138a82-9bf3-4c86-bf4c-dc7819d85ebd"},"vehicle_type_id":"4","last_reported":1699999594,"current_range_meters":6000,"station_id":"ce4bh092rcd13ifvqd20","pricing_plan_id":"free"},{"bike_id":"3fbbd2bf-9c47-4f1f-bd49-1bd94f6d8db0","system_id":"levelo_inurba_marseille","lat":43.330442,"lon":5.389148,"is_reserved":false,"is_disabled":false,"rental_uris":{"android":"levelo://app?vid=3fbbd2bf-9c47-4f1f-bd49-1bd94f6d8db0","ios":"levelo://app?vid=3fbbd2bf-9c47-4f1f-bd49-1bd94f6d8db0"},"vehicle_type_id":"4","last_reported":1699999594,"current_range_meters":1200,"station_id":"ce4bhr92rcd13ifvqhrg","pricing_plan_id":"free"},{"bike_id":"e89fb297-ae3b-4a00-8417-082acf0b93bb","system_id":"levelo_inurba_marseille","lat":43.330442,"lon":5.389148,"is_reserved":false,"is_disabled":false,"rental_uris":{"android":"levelo://app?vid=e89fb297-ae3b-4a00-8417-082acf0b93bb","ios":"levelo://app?vid=e89fb297-ae3b-4a00-8417-082acf0b93bb"},"vehicle_type_id":"4","last_reported":1699999594,"current_range_meters":18000,"station_id":"ce4bhr92rcd13ifvqhrg","pricing_plan_id":"free"},{"bike_id":"6b721cd9-9ba0-4c89-8a70-15da853bc052","system_id":"levelo_inurba_marseille","lat":43.33039,"lon":5.38924,"is_reserved":false,"is_disabled":false,"rental_uris":{"android":"levelo://app?vid=6b721cd9-9ba0-4c89-8a70-15da853bc052","ios":"levelo://app?vid=6b721cd9-9ba0-4c89-8a70-15da853bc052"},"vehicle_type_id":"4","last_reported":1699999594,"current_range_meters":7200,"station_id":"ce4bhr92rcd13ifvqhrg","pricing_plan_id":"free"},{"bike_id":"aee096e5-440f-47da-ad12-1e3c64b6f28a","system_id":"levelo_inurba_marseille","lat":43.30245,"lon":5.39674,"is_reserved":false,"is_disabled":false,"rental_uris":{"android":"levelo://app?vid=aee096e5-440f-47da-ad12-1e3c64b6f28a","ios":"levelo://app?vid=aee096e5-440f-47da-ad12-1e3c64b6f28a"},"vehicle_type_id":"4","last_reported":1699999594,"current_range_meters":12400,"station_id":"","pricing_plan_id":"free"},{"bike_id":"8fcb3794-fcdb-4b73-b5c7-e9e97297529b","system_id":"levelo_inurba_marseille","lat":43.290104,"lon":5.356111,"is_reserved":false,"is_disabled":false,"rental_uris":{"android":"levelo://app?vid=8fcb3794-fcdb-4b73-b5c7-e9e97297529b","ios":"levelo://app?vid=8fcb3794-fcdb-4b73-b5c7-e9e97297529b"},"vehicle_type_id":"4","last_reported":1699999594,"current_range_meters":16000,"station_id":"ce4bhb92rcd13ifvqen0","pricing_plan_id":"free"},{"bike_id":"288e4dd2-192b-4294-b53c-73a9cd8fe972","system_id":"levelo_inurba_marseille","lat":43.290104,"lon":5.356111,"is_reserved":false,"is_disabled":false,"rental_uris":{"android":"levelo://app?vid=288e4dd2-192b-4294-b53c-73a9cd8fe972","ios":"levelo://app?vid=288e4dd2-192b-4294-b53c-73a9cd8fe972"},"vehicle_type_id":"4","last_reported":1699999594,"current_range_meters":8400,"station_id":"ce4bhb92rcd13ifvqen0","pricing_plan_id":"free"},{"bike_id":"92f3155d-77d4-4b68-9cf3-e655477ce1c7","system_id":"levelo_inurba_marseille","lat":43.29788,"lon":5.393333,"is_reserved":false,"is_disabled":false,"rental_uris":{"android":"levelo://app?vid=92f3155d-77d4-4b68-9cf3-e655477ce1c7","ios":"levelo://app?vid=92f3155d-77d4-4b68-9cf3-e655477ce1c7"},"vehicle_type_id":"4","last_reported":1699999594,"current_range_meters":9600,"station_id":"chh1huq6cuj3fo74tm60","pricing_plan_id":"free"},{"bike_id":"6ee474b3-559a-418a-a5aa-8fca19fa387e","system_id":"levelo_inurba_marseille","lat":43.2979,"lon":5.39338,"is_reserved":false,"is_disabled":false,"rental_uris":{"android":"levelo://app?vid=6ee474b3-559a-418a-a5aa-8fca19fa387e","ios":"levelo://app?vid=6ee474b3-559a-418a-a5aa-8fca19fa387e"},"vehicle_type_id":"4","last_reported":1699999594,"current_range_meters":0,"station_id":"chh1huq6cuj3fo74tm60","pricing_plan_id":"free"},{"bike_id":"a3eb9686-a145-4dec-9b4a-887161ae4b69","system_id":"levelo_inurba_marseille","lat":43.29787,"lon":5.39337,"is_reserved":false,"is_disabled":false,"rental_uris":{"android":"levelo://app?vid=a3eb9686-a145-4dec-9b4a-887161ae4b69","ios":"levelo://app?vid=a3eb9686-a145-4dec-9b4a-887161ae4b69"},"vehicle_type_id":"4","last_reported":1699999594,"current_range_meters":22800,"station_id":"chh1huq6cuj3fo74tm60","pricing_plan_id":"free"},{"bike_id":"e44a6034-b203-4dfe-966c-16aa5fe8c471","system_id":"levelo_inurba_marseille","lat":43.33059,"lon":5.39056,"is_reserved":false,"is_disabled":false,"rental_uris":{"android":"levelo://app?vid=e44a6034-b203-4dfe-966c-16aa5fe8c471","ios":"levelo://app?vid=e44a6034-b203-4dfe-966c-16aa5fe8c471"},"vehicle_type_id":"4","last_reported":1699999594,"current_range_meters":8000,"station_id":"","pricing_plan_id":"free"},{"bike_id":"7a1356b5-2437-4bfa-bb34-cf55b7f00bb1","system_id":"levelo_inurba_marseille","lat":43.33063,"lon":5.39051,"is_reserved":false,"is_disabled":false,"rental_uris":{"android":"levelo://app?vid=7a1356b5-2437-4bfa-bb34-cf55b7f00bb1","ios":"levelo://app?vid=7a1356b5-2437-4bfa-bb34-cf55b7f00bb1"},"vehicle_type_id":"4","last_reported":1699999594,"current_range_meters":1600,"station_id":"","pricing_plan_id":"free"},{"bike_id":"3ef01ae3-e9c6-451e-a807-142dc8d73b48","system_id":"levelo_inurba_marseille","lat":43.288143,"lon":5.361577,"is_reserved":false,"is_disabled":false,"rental_uris":{"android":"levelo://app?vid=3ef01ae3-e9c6-451e-a807-142dc8d73b48","ios":"levelo://app?vid=3ef01ae3-e9c6-451e-a807-142dc8d73b48"},"vehicle_type_id":"4","last_reported":1699999594,"current_range_meters":11200,"station_id":"","pricing_plan_id":"free"},{"bike_id":"0ac7dcd5-875b-41d1-8f7d-cae9f736d48f","system_id":"levelo_inurba_marseille","lat":43.28856,"lon":5.358371,"is_reserved":false,"is_disabled":false,"rental_uris":{"android":"levelo://app?vid=0ac7dcd5-875b-41d1-8f7d-cae9f736d48f","ios":"levelo://app?vid=0ac7dcd5-875b-41d1-8f7d-cae9f736d48f"},"vehicle_type_id":"4","last_reported":1699999594,"current_range_meters":15600,"station_id":"ce4bhb12rcd13ifvqem0","pricing_plan_id":"free"},{"bike_id":"eb8974dc-b5ef-423e-bbbf-085f5fa32170","system_id":"levelo_inurba_marseille","lat":43.28856,"lon":5.358371,"is_reserved":false,"is_disabled":false,"rental_uris":{"android":"levelo://app?vid=eb8974dc-b5ef-423e-bbbf-085f5fa32170","ios":"levelo://app?vid=eb8974dc-b5ef-423e-bbbf-085f5fa32170"},"vehicle_type_id":"4","last_reported":1699999594,"current_range_meters":24400,"station_id":"ce4bhb12rcd13ifvqem0","pricing_plan_id":"free"},{"bike_id":"b84d37e7-9356-4082-9aa2-a53b3ef0bb78","system_id":"levelo_inurba_marseille","lat":43.337263,"lon":5.37454,"is_reserved":false,"is_disabled":false,"rental_uris":{"android":"levelo://app?vid=b84d37e7-9356-4082-9aa2-a53b3ef0bb78","ios":"levelo://app?vid=b84d37e7-9356-4082-9aa2-a53b3ef0bb78"},"vehicle_type_id":"4","last_reported":1699999594,"current_range_meters":27200,"station_id":"","pricing_plan_id":"free"},{"bike_id":"b2b611ab-cd2e-4cbd-880d-3f6f85acc45e","system_id":"levelo_inurba_marseille","lat":43.32682,"lon":5.39572,"is_reserved":false,"is_disabled":false,"rental_uris":{"android":"levelo://app?vid=b2b611ab-cd2e-4cbd-880d-3f6f85acc45e","ios":"levelo://app?vid=b2b611ab-cd2e-4cbd-880d-3f6f85acc45e"},"vehicle_type_id":"4","last_reported":1699999594,"current_range_meters":2000,"station_id":"","pricing_plan_id":"free"},{"bike_id":"3f703ece-e06b-4341-beb5-c5a6f7e0ac9f","system_id":"levelo_inurba_marseille","lat":43.330727,"lon":5.391266,"is_reserved":false,"is_disabled":false,"rental_uris":{"android":"levelo://app?vid=3f703ece-e06b-4341-beb5-c5a6f7e0ac9f","ios":"levelo://app?vid=3f703ece-e06b-4341-beb5-c5a6f7e0ac9f"},"vehicle_type_id":"4","last_reported":1699999594,"current_range_meters":0,"station_id":"","pricing_plan_id":"free"},{"bike_id":"ddbc9471-a87d-4141-beee-44971cd7c683","system_id":"levelo_inurba_marseille","lat":43.309371,"lon":5.401449,"is_reserved":false,"is_disabled":false,"rental_uris":{"android":"levelo://app?vid=ddbc9471-a87d-4141-beee-44971cd7c683","ios":"levelo://app?vid=ddbc9471-a87d-4141-beee-44971cd7c683"},"vehicle_type_id":"4","last_reported":1699999594,"current_range_meters":30400,"station_id":"ce4bgvp2rcd13ifvqct0","pricing_plan_id":"free"},{"bike_id":"42a69044-7e7b-41cd-99c7-a4081086e0f5","system_id":"levelo_inurba_marseille","lat":43.306412,"lon":5.401035,"is_reserved":false,"is_disabled":false,"rental_uris":{"android":"levelo://app?vid=42a69044-7e7b-41cd-99c7-a4081086e0f5","ios":"levelo://app?vid=42a69044-7e7b-41cd-99c7-a4081086e0f5"},"vehicle_type_id":"4","last_reported":1699999594,"current_range_meters":9600,"station_id":"ce4bh112rcd13ifvqda0","pricing_plan_id":"free"},{"bike_id":"846e0d05-8c88-4c22-bd55-4daef72e07c8","system_id":"levelo_inurba_marseille","lat":43.337596,"lon":5.374462,"is_reserved":false,"is_disabled":false,"rental_uris":{"android":"levelo://app?vid=846e0d05-8c88-4c22-bd55-4daef72e07c8","ios":"levelo://app?vid=846e0d05-8c88-4c22-bd55-4daef72e07c8"},"vehicle_type_id":"4","last_reported":1699999594,"current_range_meters":0,"station_id":"","pricing_plan_id":"free"},{"bike_id":"1927a4f9-3bf3-4b10-ac7e-c076409348d3","system_id":"levelo_inurba_marseille","lat":43.33758,"lon":5.37486,"is_reserved":false,"is_disabled":false,"rental_uris":{"android":"levelo://app?vid=1927a4f9-3bf3-4b10-ac7e-c076409348d3","ios":"levelo://app?vid=1927a4f9-3bf3-4b10-ac7e-c076409348d3"},"vehicle_type_id":"4","last_reported":1699999594,"current_range_meters":25200,"station_id":"","pricing_plan_id":"free"},{"bike_id":"342cf571-a2f7-409e-8e4b-e4cfc3886465","system_id":"levelo_inurba_marseille","lat":43.33769,"lon":5.37495,"is_reserved":false,"is_disabled":false,"rental_uris":{"android":"levelo://app?vid=342cf571-a2f7-409e-8e4b-e4cfc3886465","ios":"levelo://app?vid=342cf571-a2f7-409e-8e4b-e4cfc3886465"},"vehicle_type_id":"4","last_reported":1699999594,"current_range_meters":11600,"station_id":"","pricing_plan_id":"free"},{"bike_id":"5e08ce05-022d-45f1-b924-26e4d92c03ca","system_id":"levelo_inurba_marseille","lat":43.28727,"lon":5.36078,"is_reserved":false,"is_disabled":false,"rental_uris":{"android":"levelo://app?vid=5e08ce05-022d-45f1-b924-26e4d92c03ca","ios":"levelo://app?vid=5e08ce05-022d-45f1-b924-26e4d92c03ca"},"vehicle_type_id":"4","last_reported":1699999594,"current_range_meters":18000,"station_id":"cki0cbj6b192h4jlfktg","pricing_plan_id":"free"},{"bike_id":"7308b703-3498-43fd-9cc7-54184ae724a5","system_id":"levelo_inurba_marseille","lat":43.298572,"lon":5.39665,"is_reserved":false,"is_disabled":false,"rental_uris":{"android":"levelo://app?vid=7308b703-3498-43fd-9cc7-54184ae724a5","ios":"levelo://app?vid=7308b703-3498-43fd-9cc7-54184ae724a5"},"vehicle_type_id":"4","last_reported":1699999594,"current_range_meters":0,"station_id":"ce4bh0h2rcd13ifvqd50","pricing_plan_id":"free"},{"bike_id":"6acc216b-3244-4374-b3ff-73624749372c","system_id":"levelo_inurba_marseille","lat":43.28727,"lon":5.36078,"is_reserved":false,"is_disabled":false,"rental_uris":{"android":"levelo://app?vid=6acc216b-3244-4374-b3ff-73624749372c","ios":"levelo://app?vid=6acc216b-3244-4374-b3ff-73624749372c"},"vehicle_type_id":"4","last_reported":1699999594,"current_range_meters":30000,"station_id":"cki0cbj6b192h4jlfktg","pricing_plan_id":"free"},{"bike_id":"fc43170d-2f35-45cb-9d96-8491c6bbc34e","system_id":"levelo_inurba_marseille","lat":43.28727,"lon":5.36078,"is_reserved":false,"is_disabled":false,"rental_uris":{"android":"levelo://app?vid=fc43170d-2f35-45cb-9d96-8491c6bbc34e","ios":"levelo://app?vid=fc43170d-2f35-45cb-9d96-8491c6bbc34e"},"vehicle_type_id":"4","last_reported":1699999594,"current_range_meters":1600,"station_id":"cki0cbj6b192h4jlfktg","pricing_plan_id":"free"},{"bike_id":"e4aa31ba-9d62-488d-ada3-7f143f70a255","system_id":"levelo_inurba_marseille","lat":43.28727,"lon":5.36078,"is_reserved":false,"is_disabled":false,"rental_uris":{"android":"levelo://app?vid=e4aa31ba-9d62-488d-ada3-7f143f70a255","ios":"levelo://app?vid=e4aa31ba-9d62-488d-ada3-7f143f70a255"},"vehicle_type_id":"4","last_reported":1699999594,"current_range_meters":12000,"station_id":"cki0cbj6b192h4jlfktg","pricing_plan_id":"free"},{"bike_id":"b698d5a4-82e6-4add-85f5-746a179b6490","system_id":"levelo_inurba_marseille","lat":43.28727,"lon":5.36078,"is_reserved":false,"is_disabled":false,"rental_uris":{"android":"levelo://app?vid=b698d5a4-82e6-4add-85f5-746a179b6490","ios":"levelo://app?vid=b698d5a4-82e6-4add-85f5-746a179b6490"},"vehicle_type_id":"4","last_reported":1699999594,"current_range_meters":8800,"station_id":"cki0cbj6b192h4jlfktg","pricing_plan_id":"free"},{"bike_id":"2b3e76ea-787b-43ac-b362-59d17111798b","system_id":"levelo_inurba_marseille","lat":43.28727,"lon":5.36078,"is_reserved":false,"is_disabled":false,"rental_uris":{"android":"levelo://app?vid=2b3e76ea-787b-43ac-b362-59d17111798b","ios":"levelo://app?vid=2b3e76ea-787b-43ac-b362-59d17111798b"},"vehicle_type_id":"4","last_reported":1699999594,"current_range_meters":17600,"station_id":"cki0cbj6b192h4jlfktg","pricing_plan_id":"free"},{"bike_id":"8d53a32c-39e7-49ad-aad0-b7fae3b62fe4","system_id":"levelo_inurba_marseille","lat":43.28727,"lon":5.36078,"is_reserved":false,"is_disabled":false,"rental_uris":{"android":"levelo://app?vid=8d53a32c-39e7-49ad-aad0-b7fae3b62fe4","ios":"levelo://app?vid=8d53a32c-39e7-49ad-aad0-b7fae3b62fe4"},"vehicle_type_id":"4","last_reported":1699999594,"current_range_meters":12800,"station_id":"cki0cbj6b192h4jlfktg","pricing_plan_id":"free"},{"bike_id":"b02e849b-1191-42f8-8d2c-fefa44e1b622","system_id":"levelo_inurba_marseille","lat":43.29872,"lon":5.3974,"is_reserved":false,"is_disabled":false,"rental_uris":{"android":"levelo://app?vid=b02e849b-1191-42f8-8d2c-fefa44e1b622","ios":"levelo://app?vid=b02e849b-1191-42f8-8d2c-fefa44e1b622"},"vehicle_type_id":"4","last_reported":1699999594,"current_range_meters":0,"station_id":"ce4bh0h2rcd13ifvqd50","pricing_plan_id":"free"},{"bike_id":"87ffb047-e84a-4ef2-82d8-bf49b9a3b6d8","system_id":"levelo_inurba_marseille","lat":43.286961,"lon":5.373785,"is_reserved":false,"is_disabled":false,"rental_uris":{"android":"levelo://app?vid=87ffb047-e84a-4ef2-82d8-bf49b9a3b6d8","ios":"levelo://app?vid=87ffb047-e84a-4ef2-82d8-bf49b9a3b6d8"},"vehicle_type_id":"4","last_reported":1699999594,"current_range_meters":12400,"station_id":"ce4bh3p2rcd13ifvqdq0","pricing_plan_id":"free"},{"bike_id":"32534edc-b04c-4275-95e7-c4a8f53bb790","system_id":"levelo_inurba_marseille","lat":43.286593,"lon":5.363346,"is_reserved":false,"is_disabled":false,"rental_uris":{"android":"levelo://app?vid=32534edc-b04c-4275-95e7-c4a8f53bb790","ios":"levelo://app?vid=32534edc-b04c-4275-95e7-c4a8f53bb790"},"vehicle_type_id":"4","last_reported":1699999594,"current_range_meters":31600,"station_id":"ce4bhah2rcd13ifvqej0","pricing_plan_id":"free"},{"bike_id":"6c058a6b-1c9a-4508-bcf0-196b87f5b48f","system_id":"levelo_inurba_marseille","lat":43.286961,"lon":5.373785,"is_reserved":false,"is_disabled":false,"rental_uris":{"android":"levelo://app?vid=6c058a6b-1c9a-4508-bcf0-196b87f5b48f","ios":"levelo://app?vid=6c058a6b-1c9a-4508-bcf0-196b87f5b48f"},"vehicle_type_id":"4","last_reported":1699999594,"current_range_meters":10800,"station_id":"ce4bh3p2rcd13ifvqdq0","pricing_plan_id":"free"},{"bike_id":"2b6b6a49-3bdc-4811-9881-af81d3f8f629","system_id":"levelo_inurba_marseille","lat":43.286593,"lon":5.363346,"is_reserved":false,"is_disabled":false,"rental_uris":{"android":"levelo://app?vid=2b6b6a49-3bdc-4811-9881-af81d3f8f629","ios":"levelo://app?vid=2b6b6a49-3bdc-4811-9881-af81d3f8f629"},"vehicle_type_id":"4","last_reported":1699999594,"current_range_meters":10800,"station_id":"ce4bhah2rcd13ifvqej0","pricing_plan_id":"free"},{"bike_id":"69e623a5-5ec8-446c-81c9-12a5daebcdb6","system_id":"levelo_inurba_marseille","lat":43.295194,"lon":5.39397,"is_reserved":false,"is_disabled":false,"rental_uris":{"android":"levelo://app?vid=69e623a5-5ec8-446c-81c9-12a5daebcdb6","ios":"levelo://app?vid=69e623a5-5ec8-446c-81c9-12a5daebcdb6"},"vehicle_type_id":"4","last_reported":1699999594,"current_range_meters":20800,"station_id":"ce4bh292rcd13ifvqdf0","pricing_plan_id":"free"},{"bike_id":"331933b2-f479-4058-a9a2-4d159b8d497c","system_id":"levelo_inurba_marseille","lat":43.290287,"lon":5.38647,"is_reserved":false,"is_disabled":false,"rental_uris":{"android":"levelo://app?vid=331933b2-f479-4058-a9a2-4d159b8d497c","ios":"levelo://app?vid=331933b2-f479-4058-a9a2-4d159b8d497c"},"vehicle_type_id":"4","last_reported":1699999594,"current_range_meters":16400,"station_id":"","pricing_plan_id":"free"},{"bike_id":"6dd65673-22a6-4243-bfc7-90696669a737","system_id":"levelo_inurba_marseille","lat":43.290289,"lon":5.386474,"is_reserved":false,"is_disabled":false,"rental_uris":{"android":"levelo://app?vid=6dd65673-22a6-4243-bfc7-90696669a737","ios":"levelo://app?vid=6dd65673-22a6-4243-bfc7-90696669a737"},"vehicle_type_id":"4","last_reported":1699999594,"current_range_meters":12000,"station_id":"","pricing_plan_id":"free"},{"bike_id":"9c6ff90a-a8ff-441c-8a65-68144c4b5761","system_id":"levelo_inurba_marseille","lat":43.29027,"lon":5.38644,"is_reserved":false,"is_disabled":false,"rental_uris":{"android":"levelo://app?vid=9c6ff90a-a8ff-441c-8a65-68144c4b5761","ios":"levelo://app?vid=9c6ff90a-a8ff-441c-8a65-68144c4b5761"},"vehicle_type_id":"4","last_reported":1699999594,"current_range_meters":7600,"station_id":"ce4bh4p2rcd13ifvqe0g","pricing_plan_id":"free"},{"bike_id":"6e79b97f-d738-4a5c-a431-1ed89a589240","system_id":"levelo_inurba_marseille","lat":43.29018,"lon":5.3863,"is_reserved":false,"is_disabled":false,"rental_uris":{"android":"levelo://app?vid=6e79b97f-d738-4a5c-a431-1ed89a589240","ios":"levelo://app?vid=6e79b97f-d738-4a5c-a431-1ed89a589240"},"vehicle_type_id":"4","last_reported":1699999594,"current_range_meters":0,"station_id":"","pricing_plan_id":"free"},{"bike_id":"d963f31b-1c05-4946-8690-c2e3aa17cd85","system_id":"levelo_inurba_marseille","lat":43.290196,"lon":5.386481,"is_reserved":false,"is_disabled":false,"rental_uris":{"android":"levelo://app?vid=d963f31b-1c05-4946-8690-c2e3aa17cd85","ios":"levelo://app?vid=d963f31b-1c05-4946-8690-c2e3aa17cd85"},"vehicle_type_id":"4","last_reported":1699999594,"current_range_meters":14800,"station_id":"","pricing_plan_id":"free"},{"bike_id":"832f07a6-75f0-4654-9b69-500ea4c928b4","system_id":"levelo_inurba_marseille","lat":43.287184,"lon":5.37937,"is_reserved":false,"is_disabled":false,"rental_uris":{"android":"levelo://app?vid=832f07a6-75f0-4654-9b69-500ea4c928b4","ios":"levelo://app?vid=832f07a6-75f0-4654-9b69-500ea4c928b4"},"vehicle_type_id":"4","last_reported":1699999594,"current_range_meters":29600,"station_id":"ce4bh9p2rcd13ifvqec0","pricing_plan_id":"free"},{"bike_id":"e57449c2-d088-47cf-8bf2-271593713c89","system_id":"levelo_inurba_marseille","lat":43.328576,"lon":5.398841,"is_reserved":false,"is_disabled":false,"rental_uris":{"android":"levelo://app?vid=e57449c2-d088-47cf-8bf2-271593713c89","ios":"levelo://app?vid=e57449c2-d088-47cf-8bf2-271593713c89"},"vehicle_type_id":"4","last_reported":1699999594,"current_range_meters":0,"station_id":"","pricing_plan_id":"free"},{"bike_id":"230daa79-b2fe-4260-a9b0-ee786d7bc064","system_id":"levelo_inurba_marseille","lat":43.291994,"lon":5.392907,"is_reserved":false,"is_disabled":false,"rental_uris":{"android":"levelo://app?vid=230daa79-b2fe-4260-a9b0-ee786d7bc064","ios":"levelo://app?vid=230daa79-b2fe-4260-a9b0-ee786d7bc064"},"vehicle_type_id":"4","last_reported":1699999594,"current_range_meters":9600,"station_id":"ce4bh192rcd13ifvqdd0","pricing_plan_id":"free"},{"bike_id":"b1b89fdd-526e-4637-9483-8b92690ddb2d","system_id":"levelo_inurba_marseille","lat":43.284538,"lon":5.358657,"is_reserved":false,"is_disabled":false,"rental_uris":{"android":"levelo://app?vid=b1b89fdd-526e-4637-9483-8b92690ddb2d","ios":"levelo://app?vid=b1b89fdd-526e-4637-9483-8b92690ddb2d"},"vehicle_type_id":"4","last_reported":1699999594,"current_range_meters":10800,"station_id":"ce4bhah2rcd13ifvqei0","pricing_plan_id":"free"},{"bike_id":"460513db-0454-4f03-bdcd-0577c9750a9f","system_id":"levelo_inurba_marseille","lat":43.284534,"lon":5.358662,"is_reserved":false,"is_disabled":false,"rental_uris":{"android":"levelo://app?vid=460513db-0454-4f03-bdcd-0577c9750a9f","ios":"levelo://app?vid=460513db-0454-4f03-bdcd-0577c9750a9f"},"vehicle_type_id":"4","last_reported":1699999594,"current_range_meters":31200,"station_id":"ce4bhah2rcd13ifvqei0","pricing_plan_id":"free"},{"bike_id":"12738dbd-e7ed-49cf-a43a-37cd1f42f870","system_id":"levelo_inurba_marseille","lat":43.284534,"lon":5.358662,"is_reserved":false,"is_disabled":false,"rental_uris":{"android":"levelo://app?vid=12738dbd-e7ed-49cf-a43a-37cd1f42f870","ios":"levelo://app?vid=12738dbd-e7ed-49cf-a43a-37cd1f42f870"},"vehicle_type_id":"4","last_reported":1699999594,"current_range_meters":10400,"station_id":"ce4bhah2rcd13ifvqei0","pricing_plan_id":"free"},{"bike_id":"2ad672dc-1db2-4c1f-83bb-18f4e44ce5a0","system_id":"levelo_inurba_marseille","lat":43.284534,"lon":5.358662,"is_reserved":false,"is_disabled":false,"rental_uris":{"android":"levelo://app?vid=2ad672dc-1db2-4c1f-83bb-18f4e44ce5a0","ios":"levelo://app?vid=2ad672dc-1db2-4c1f-83bb-18f4e44ce5a0"},"vehicle_type_id":"4","last_reported":1699999594,"current_range_meters":31200,"station_id":"ce4bhah2rcd13ifvqei0","pricing_plan_id":"free"},{"bike_id":"af82994f-9836-4e88-a6c5-ce5f3b6fba19","system_id":"levelo_inurba_marseille","lat":43.284534,"lon":5.358662,"is_reserved":false,"is_disabled":false,"rental_uris":{"android":"levelo://app?vid=af82994f-9836-4e88-a6c5-ce5f3b6fba19","ios":"levelo://app?vid=af82994f-9836-4e88-a6c5-ce5f3b6fba19"},"vehicle_type_id":"4","last_reported":1699999594,"current_range_meters":28400,"station_id":"ce4bhah2rcd13ifvqei0","pricing_plan_id":"free"},{"bike_id":"ac588e47-4772-4348-b9f5-a50b182533d0","system_id":"levelo_inurba_marseille","lat":43.284534,"lon":5.358662,"is_reserved":false,"is_disabled":false,"rental_uris":{"android":"levelo://app?vid=ac588e47-4772-4348-b9f5-a50b182533d0","ios":"levelo://app?vid=ac588e47-4772-4348-b9f5-a50b182533d0"},"vehicle_type_id":"4","last_reported":1699999594,"current_range_meters":20800,"station_id":"ce4bhah2rcd13ifvqei0","pricing_plan_id":"free"},{"bike_id":"44c974ee-9c54-4db0-8b80-29a605cdc40e","system_id":"levelo_inurba_marseille","lat":43.284534,"lon":5.358662,"is_reserved":false,"is_disabled":false,"rental_uris":{"android":"levelo://app?vid=44c974ee-9c54-4db0-8b80-29a605cdc40e","ios":"levelo://app?vid=44c974ee-9c54-4db0-8b80-29a605cdc40e"},"vehicle_type_id":"4","last_reported":1699999594,"current_range_meters":30000,"station_id":"ce4bhah2rcd13ifvqei0","pricing_plan_id":"free"},{"bike_id":"1f8b535d-d8d6-4414-b515-5810f291e39b","system_id":"levelo_inurba_marseille","lat":43.294314,"lon":5.397498,"is_reserved":false,"is_disabled":false,"rental_uris":{"android":"levelo://app?vid=1f8b535d-d8d6-4414-b515-5810f291e39b","ios":"levelo://app?vid=1f8b535d-d8d6-4414-b515-5810f291e39b"},"vehicle_type_id":"4","last_reported":1699999594,"current_range_meters":31200,"station_id":"ce4bh3h2rcd13ifvqdo0","pricing_plan_id":"free"},{"bike_id":"faeb3636-0b8a-4caa-97dd-c7ef280e100b","system_id":"levelo_inurba_marseille","lat":43.284534,"lon":5.358662,"is_reserved":false,"is_disabled":false,"rental_uris":{"android":"levelo://app?vid=faeb3636-0b8a-4caa-97dd-c7ef280e100b","ios":"levelo://app?vid=faeb3636-0b8a-4caa-97dd-c7ef280e100b"},"vehicle_type_id":"4","last_reported":1699999594,"current_range_meters":19200,"station_id":"ce4bhah2rcd13ifvqei0","pricing_plan_id":"free"},{"bike_id":"d3f15cf0-5b6c-4a4d-931b-a52a097f7350","system_id":"levelo_inurba_marseille","lat":43.29433,"lon":5.397615,"is_reserved":false,"is_disabled":false,"rental_uris":{"android":"levelo://app?vid=d3f15cf0-5b6c-4a4d-931b-a52a097f7350","ios":"levelo://app?vid=d3f15cf0-5b6c-4a4d-931b-a52a097f7350"},"vehicle_type_id":"4","last_reported":1699999594,"current_range_meters":17200,"station_id":"ce4bh3h2rcd13ifvqdo0","pricing_plan_id":"free"},{"bike_id":"4e07ffb1-43fa-4c89-bbab-e9eb6aca340a","system_id":"levelo_inurba_marseille","lat":43.285856,"lon":5.350771,"is_reserved":false,"is_disabled":false,"rental_uris":{"android":"levelo://app?vid=4e07ffb1-43fa-4c89-bbab-e9eb6aca340a","ios":"levelo://app?vid=4e07ffb1-43fa-4c89-bbab-e9eb6aca340a"},"vehicle_type_id":"4","last_reported":1699999594,"current_range_meters":18000,"station_id":"ce4bhch2rcd13ifvqeug","pricing_plan_id":"free"},{"bike_id":"d497887f-c147-4a37-8b6e-1bba2c41d1b4","system_id":"levelo_inurba_marseille","lat":43.285856,"lon":5.350771,"is_reserved":false,"is_disabled":false,"rental_uris":{"android":"levelo://app?vid=d497887f-c147-4a37-8b6e-1bba2c41d1b4","ios":"levelo://app?vid=d497887f-c147-4a37-8b6e-1bba2c41d1b4"},"vehicle_type_id":"4","last_reported":1699999594,"current_range_meters":30400,"station_id":"ce4bhch2rcd13ifvqeug","pricing_plan_id":"free"},{"bike_id":"2d1167e5-8fe1-4a86-bc8b-66b1d5489e6e","system_id":"levelo_inurba_marseille","lat":43.28417,"lon":5.37522,"is_reserved":false,"is_disabled":false,"rental_uris":{"android":"levelo://app?vid=2d1167e5-8fe1-4a86-bc8b-66b1d5489e6e","ios":"levelo://app?vid=2d1167e5-8fe1-4a86-bc8b-66b1d5489e6e"},"vehicle_type_id":"4","last_reported":1699999594,"current_range_meters":30400,"station_id":"ce4bh412rcd13ifvqds0","pricing_plan_id":"free"},{"bike_id":"17121e23-4f53-42de-af49-ee79ab96707a","system_id":"levelo_inurba_marseille","lat":43.28415,"lon":5.37511,"is_reserved":false,"is_disabled":false,"rental_uris":{"android":"levelo://app?vid=17121e23-4f53-42de-af49-ee79ab96707a","ios":"levelo://app?vid=17121e23-4f53-42de-af49-ee79ab96707a"},"vehicle_type_id":"4","last_reported":1699999594,"current_range_meters":31200,"station_id":"ce4bh412rcd13ifvqds0","pricing_plan_id":"free"},{"bike_id":"c5417399-b309-40c4-8fc7-b8b1fa8aa458","system_id":"levelo_inurba_marseille","lat":43.283998,"lon":5.375062,"is_reserved":false,"is_disabled":false,"rental_uris":{"android":"levelo://app?vid=c5417399-b309-40c4-8fc7-b8b1fa8aa458","ios":"levelo://app?vid=c5417399-b309-40c4-8fc7-b8b1fa8aa458"},"vehicle_type_id":"4","last_reported":1699999594,"current_range_meters":13600,"station_id":"ce4bh412rcd13ifvqds0","pricing_plan_id":"free"},{"bike_id":"401a893a-3a39-4cdb-a67a-d89775c0a116","system_id":"levelo_inurba_marseille","lat":43.28413,"lon":5.37517,"is_reserved":false,"is_disabled":false,"rental_uris":{"android":"levelo://app?vid=401a893a-3a39-4cdb-a67a-d89775c0a116","ios":"levelo://app?vid=401a893a-3a39-4cdb-a67a-d89775c0a116"},"vehicle_type_id":"4","last_reported":1699999594,"current_range_meters":4400,"station_id":"ce4bh412rcd13ifvqds0","pricing_plan_id":"free"},{"bike_id":"d83cc9dc-89a8-4a2d-b056-ca3ba362280b","system_id":"levelo_inurba_marseille","lat":43.283998,"lon":5.375062,"is_reserved":false,"is_disabled":false,"rental_uris":{"android":"levelo://app?vid=d83cc9dc-89a8-4a2d-b056-ca3ba362280b","ios":"levelo://app?vid=d83cc9dc-89a8-4a2d-b056-ca3ba362280b"},"vehicle_type_id":"4","last_reported":1699999594,"current_range_meters":4400,"station_id":"ce4bh412rcd13ifvqds0","pricing_plan_id":"free"},{"bike_id":"fac25208-0a51-456f-ab70-22ca8528ae77","system_id":"levelo_inurba_marseille","lat":43.284074,"lon":5.375,"is_reserved":false,"is_disabled":false,"rental_uris":{"android":"levelo://app?vid=fac25208-0a51-456f-ab70-22ca8528ae77","ios":"levelo://app?vid=fac25208-0a51-456f-ab70-22ca8528ae77"},"vehicle_type_id":"4","last_reported":1699999594,"current_range_meters":24000,"station_id":"ce4bh412rcd13ifvqds0","pricing_plan_id":"free"},{"bike_id":"453f8eb2-7981-41ad-b791-3f9a4d246786","system_id":"levelo_inurba_marseille","lat":43.283998,"lon":5.375062,"is_reserved":false,"is_disabled":false,"rental_uris":{"android":"levelo://app?vid=453f8eb2-7981-41ad-b791-3f9a4d246786","ios":"levelo://app?vid=453f8eb2-7981-41ad-b791-3f9a4d246786"},"vehicle_type_id":"4","last_reported":1699999594,"current_range_meters":24000,"station_id":"ce4bh412rcd13ifvqds0","pricing_plan_id":"free"},{"bike_id":"67bc0a1e-ac2f-4447-bc18-3086dc5a3a55","system_id":"levelo_inurba_marseille","lat":43.28407,"lon":5.37521,"is_reserved":false,"is_disabled":false,"rental_uris":{"android":"levelo://app?vid=67bc0a1e-ac2f-4447-bc18-3086dc5a3a55","ios":"levelo://app?vid=67bc0a1e-ac2f-4447-bc18-3086dc5a3a55"},"vehicle_type_id":"4","last_reported":1699999594,"current_range_meters":31200,"station_id":"ce4bh412rcd13ifvqds0","pricing_plan_id":"free"},{"bike_id":"9ca62ba2-c3c4-435c-b1d1-b8980f4f5dbd","system_id":"levelo_inurba_marseille","lat":43.283998,"lon":5.375062,"is_reserved":false,"is_disabled":false,"rental_uris":{"android":"levelo://app?vid=9ca62ba2-c3c4-435c-b1d1-b8980f4f5dbd","ios":"levelo://app?vid=9ca62ba2-c3c4-435c-b1d1-b8980f4f5dbd"},"vehicle_type_id":"4","last_reported":1699999594,"current_range_meters":31200,"station_id":"ce4bh412rcd13ifvqds0","pricing_plan_id":"free"},{"bike_id":"bed230ca-f016-44be-adb1-86e33e0aac54","system_id":"levelo_inurba_marseille","lat":43.295713,"lon":5.399639,"is_reserved":false,"is_disabled":false,"rental_uris":{"android":"levelo://app?vid=bed230ca-f016-44be-adb1-86e33e0aac54","ios":"levelo://app?vid=bed230ca-f016-44be-adb1-86e33e0aac54"},"vehicle_type_id":"4","last_reported":1699999594,"current_range_meters":12400,"station_id":"ce4bh312rcd13ifvqdj0","pricing_plan_id":"free"},{"bike_id":"7b055dff-a3d2-4cc0-adb5-28c107534f8f","system_id":"levelo_inurba_marseille","lat":43.295713,"lon":5.399639,"is_reserved":false,"is_disabled":false,"rental_uris":{"android":"levelo://app?vid=7b055dff-a3d2-4cc0-adb5-28c107534f8f","ios":"levelo://app?vid=7b055dff-a3d2-4cc0-adb5-28c107534f8f"},"vehicle_type_id":"4","last_reported":1699999594,"current_range_meters":26400,"station_id":"ce4bh312rcd13ifvqdj0","pricing_plan_id":"free"},{"bike_id":"69cd910c-bfdd-42cf-96b8-08ceddd4982b","system_id":"levelo_inurba_marseille","lat":43.28399,"lon":5.37518,"is_reserved":false,"is_disabled":false,"rental_uris":{"android":"levelo://app?vid=69cd910c-bfdd-42cf-96b8-08ceddd4982b","ios":"levelo://app?vid=69cd910c-bfdd-42cf-96b8-08ceddd4982b"},"vehicle_type_id":"4","last_reported":1699999594,"current_range_meters":10400,"station_id":"ce4bh412rcd13ifvqds0","pricing_plan_id":"free"},{"bike_id":"20e12f09-6393-42b2-bfad-a56150772b0b","system_id":"levelo_inurba_marseille","lat":43.286595,"lon":5.386795,"is_reserved":false,"is_disabled":false,"rental_uris":{"android":"levelo://app?vid=20e12f09-6393-42b2-bfad-a56150772b0b","ios":"levelo://app?vid=20e12f09-6393-42b2-bfad-a56150772b0b"},"vehicle_type_id":"4","last_reported":1699999594,"current_range_meters":28800,"station_id":"ce4bh492rcd13ifvqdug","pricing_plan_id":"free"},{"bike_id":"38defe82-f57f-4e88-9122-c40d7bee3620","system_id":"levelo_inurba_marseille","lat":43.319179,"lon":5.407725,"is_reserved":false,"is_disabled":false,"rental_uris":{"android":"levelo://app?vid=38defe82-f57f-4e88-9122-c40d7bee3620","ios":"levelo://app?vid=38defe82-f57f-4e88-9122-c40d7bee3620"},"vehicle_type_id":"4","last_reported":1699999594,"current_range_meters":15200,"station_id":"ce4bhq12rcd13ifvqhig","pricing_plan_id":"free"},{"bike_id":"316e4d5b-2894-4537-bd8b-0e04319e8ccf","system_id":"levelo_inurba_marseille","lat":43.323464,"lon":5.406297,"is_reserved":false,"is_disabled":false,"rental_uris":{"android":"levelo://app?vid=316e4d5b-2894-4537-bd8b-0e04319e8ccf","ios":"levelo://app?vid=316e4d5b-2894-4537-bd8b-0e04319e8ccf"},"vehicle_type_id":"4","last_reported":1699999594,"current_range_meters":19200,"station_id":"ce4bhq92rcd13ifvqhjg","pricing_plan_id":"free"},{"bike_id":"897d0067-ed1a-4109-80d1-20c5f1c6d38e","system_id":"levelo_inurba_marseille","lat":43.297946,"lon":5.404063,"is_reserved":false,"is_disabled":false,"rental_uris":{"android":"levelo://app?vid=897d0067-ed1a-4109-80d1-20c5f1c6d38e","ios":"levelo://app?vid=897d0067-ed1a-4109-80d1-20c5f1c6d38e"},"vehicle_type_id":"4","last_reported":1699999594,"current_range_meters":4000,"station_id":"ce4bh112rcd13ifvqd90","pricing_plan_id":"free"},{"bike_id":"03761af7-f18f-45af-9917-473aeed9c83f","system_id":"levelo_inurba_marseille","lat":43.288497,"lon":5.393089,"is_reserved":false,"is_disabled":false,"rental_uris":{"android":"levelo://app?vid=03761af7-f18f-45af-9917-473aeed9c83f","ios":"levelo://app?vid=03761af7-f18f-45af-9917-473aeed9c83f"},"vehicle_type_id":"4","last_reported":1699999594,"current_range_meters":26400,"station_id":"ce4bh2p2rcd13ifvqdi0","pricing_plan_id":"free"},{"bike_id":"f12943ed-83c7-43c3-a4f2-6f059c1159c1","system_id":"levelo_inurba_marseille","lat":43.288497,"lon":5.393089,"is_reserved":false,"is_disabled":false,"rental_uris":{"android":"levelo://app?vid=f12943ed-83c7-43c3-a4f2-6f059c1159c1","ios":"levelo://app?vid=f12943ed-83c7-43c3-a4f2-6f059c1159c1"},"vehicle_type_id":"4","last_reported":1699999594,"current_range_meters":3200,"station_id":"ce4bh2p2rcd13ifvqdi0","pricing_plan_id":"free"},{"bike_id":"0e8de700-7947-405e-a78d-c7bf7d63bb01","system_id":"levelo_inurba_marseille","lat":43.283498,"lon":5.380948,"is_reserved":false,"is_disabled":false,"rental_uris":{"android":"levelo://app?vid=0e8de700-7947-405e-a78d-c7bf7d63bb01","ios":"levelo://app?vid=0e8de700-7947-405e-a78d-c7bf7d63bb01"},"vehicle_type_id":"4","last_reported":1699999594,"current_range_meters":27600,"station_id":"ce4bh412rcd13ifvqdr0","pricing_plan_id":"free"},{"bike_id":"5d072e1b-2051-4c20-abc4-7e7bec36410e","system_id":"levelo_inurba_marseille","lat":43.284217,"lon":5.349697,"is_reserved":false,"is_disabled":false,"rental_uris":{"android":"levelo://app?vid=5d072e1b-2051-4c20-abc4-7e7bec36410e","ios":"levelo://app?vid=5d072e1b-2051-4c20-abc4-7e7bec36410e"},"vehicle_type_id":"4","last_reported":1699999594,"current_range_meters":30000,"station_id":"ce4bhbh2rcd13ifvqepg","pricing_plan_id":"free"},{"bike_id":"c4f11d51-500a-4d38-9716-93f6e3aa3efb","system_id":"levelo_inurba_marseille","lat":43.284217,"lon":5.349697,"is_reserved":false,"is_disabled":false,"rental_uris":{"android":"levelo://app?vid=c4f11d51-500a-4d38-9716-93f6e3aa3efb","ios":"levelo://app?vid=c4f11d51-500a-4d38-9716-93f6e3aa3efb"},"vehicle_type_id":"4","last_reported":1699999594,"current_range_meters":29600,"station_id":"ce4bhbh2rcd13ifvqepg","pricing_plan_id":"free"},{"bike_id":"ffde9f03-4cfd-491a-884c-94205feec565","system_id":"levelo_inurba_marseille","lat":43.289363,"lon":5.396322,"is_reserved":false,"is_disabled":false,"rental_uris":{"android":"levelo://app?vid=ffde9f03-4cfd-491a-884c-94205feec565","ios":"levelo://app?vid=ffde9f03-4cfd-491a-884c-94205feec565"},"vehicle_type_id":"4","last_reported":1699999594,"current_range_meters":21200,"station_id":"ce4bh3h2rcd13ifvqdn0","pricing_plan_id":"free"},{"bike_id":"5a587a2a-2122-41b9-9fad-8a84ea626a52","system_id":"levelo_inurba_marseille","lat":43.292724,"lon":5.401131,"is_reserved":false,"is_disabled":false,"rental_uris":{"android":"levelo://app?vid=5a587a2a-2122-41b9-9fad-8a84ea626a52","ios":"levelo://app?vid=5a587a2a-2122-41b9-9fad-8a84ea626a52"},"vehicle_type_id":"4","last_reported":1699999594,"current_range_meters":3600,"station_id":"ce4bh312rcd13ifvqdk0","pricing_plan_id":"free"},{"bike_id":"29d96359-4298-4ce1-99ea-a573a00259d5","system_id":"levelo_inurba_marseille","lat":43.282744,"lon":5.350533,"is_reserved":false,"is_disabled":false,"rental_uris":{"android":"levelo://app?vid=29d96359-4298-4ce1-99ea-a573a00259d5","ios":"levelo://app?vid=29d96359-4298-4ce1-99ea-a573a00259d5"},"vehicle_type_id":"4","last_reported":1699999594,"current_range_meters":18800,"station_id":"ce4bhbp2rcd13ifvqerg","pricing_plan_id":"free"},{"bike_id":"a745fdfe-ca71-4525-a746-19a75f30eb71","system_id":"levelo_inurba_marseille","lat":43.282744,"lon":5.350533,"is_reserved":false,"is_disabled":false,"rental_uris":{"android":"levelo://app?vid=a745fdfe-ca71-4525-a746-19a75f30eb71","ios":"levelo://app?vid=a745fdfe-ca71-4525-a746-19a75f30eb71"},"vehicle_type_id":"4","last_reported":1699999594,"current_range_meters":21200,"station_id":"ce4bhbp2rcd13ifvqerg","pricing_plan_id":"free"},{"bike_id":"da16c76c-fded-4aaa-94e9-00a4f8c7637c","system_id":"levelo_inurba_marseille","lat":43.283502,"lon":5.386471,"is_reserved":false,"is_disabled":false,"rental_uris":{"android":"levelo://app?vid=da16c76c-fded-4aaa-94e9-00a4f8c7637c","ios":"levelo://app?vid=da16c76c-fded-4aaa-94e9-00a4f8c7637c"},"vehicle_type_id":"4","last_reported":1699999594,"current_range_meters":18800,"station_id":"ce4bh492rcd13ifvqdvg","pricing_plan_id":"free"},{"bike_id":"9203f3cd-ec70-48aa-bc07-4ba8a6da7fce","system_id":"levelo_inurba_marseille","lat":43.282744,"lon":5.350533,"is_reserved":false,"is_disabled":false,"rental_uris":{"android":"levelo://app?vid=9203f3cd-ec70-48aa-bc07-4ba8a6da7fce","ios":"levelo://app?vid=9203f3cd-ec70-48aa-bc07-4ba8a6da7fce"},"vehicle_type_id":"4","last_reported":1699999594,"current_range_meters":14000,"station_id":"ce4bhbp2rcd13ifvqerg","pricing_plan_id":"free"},{"bike_id":"6dd66825-d788-4f2c-9624-5af5808e485d","system_id":"levelo_inurba_marseille","lat":43.282744,"lon":5.350533,"is_reserved":false,"is_disabled":false,"rental_uris":{"android":"levelo://app?vid=6dd66825-d788-4f2c-9624-5af5808e485d","ios":"levelo://app?vid=6dd66825-d788-4f2c-9624-5af5808e485d"},"vehicle_type_id":"4","last_reported":1699999594,"current_range_meters":25600,"station_id":"ce4bhbp2rcd13ifvqerg","pricing_plan_id":"free"},{"bike_id":"021c2f29-6a21-4234-8799-3adbb9d64bfe","system_id":"levelo_inurba_marseille","lat":43.282754,"lon":5.350519,"is_reserved":false,"is_disabled":false,"rental_uris":{"android":"levelo://app?vid=021c2f29-6a21-4234-8799-3adbb9d64bfe","ios":"levelo://app?vid=021c2f29-6a21-4234-8799-3adbb9d64bfe"},"vehicle_type_id":"4","last_reported":1699999594,"current_range_meters":12400,"station_id":"ce4bhbp2rcd13ifvqerg","pricing_plan_id":"free"},{"bike_id":"f529d999-af20-4c19-8752-753eccb9b1cc","system_id":"levelo_inurba_marseille","lat":43.282754,"lon":5.350519,"is_reserved":false,"is_disabled":false,"rental_uris":{"android":"levelo://app?vid=f529d999-af20-4c19-8752-753eccb9b1cc","ios":"levelo://app?vid=f529d999-af20-4c19-8752-753eccb9b1cc"},"vehicle_type_id":"4","last_reported":1699999594,"current_range_meters":3600,"station_id":"ce4bhbp2rcd13ifvqerg","pricing_plan_id":"free"},{"bike_id":"fda80465-8416-4d79-9b94-829b9a0fa44d","system_id":"levelo_inurba_marseille","lat":43.282754,"lon":5.350519,"is_reserved":false,"is_disabled":false,"rental_uris":{"android":"levelo://app?vid=fda80465-8416-4d79-9b94-829b9a0fa44d","ios":"levelo://app?vid=fda80465-8416-4d79-9b94-829b9a0fa44d"},"vehicle_type_id":"4","last_reported":1699999594,"current_range_meters":13600,"station_id":"ce4bhbp2rcd13ifvqerg","pricing_plan_id":"free"},{"bike_id":"f6733a68-c223-49f5-80ef-025c135cdedd","system_id":"levelo_inurba_marseille","lat":43.28039,"lon":5.369297,"is_reserved":false,"is_disabled":false,"rental_uris":{"android":"levelo://app?vid=f6733a68-c223-49f5-80ef-025c135cdedd","ios":"levelo://app?vid=f6733a68-c223-49f5-80ef-025c135cdedd"},"vehicle_type_id":"4","last_reported":1699999594,"current_range_meters":29200,"station_id":"ce4bha12rcd13ifvqef0","pricing_plan_id":"free"},{"bike_id":"836395bc-b0fb-4922-94a6-c339fbe1e7f5","system_id":"levelo_inurba_marseille","lat":43.280382,"lon":5.369291,"is_reserved":false,"is_disabled":false,"rental_uris":{"android":"levelo://app?vid=836395bc-b0fb-4922-94a6-c339fbe1e7f5","ios":"levelo://app?vid=836395bc-b0fb-4922-94a6-c339fbe1e7f5"},"vehicle_type_id":"4","last_reported":1699999594,"current_range_meters":27600,"station_id":"ce4bha12rcd13ifvqef0","pricing_plan_id":"free"},{"bike_id":"2b2ad00d-ab7d-4ca6-851d-102936636d39","system_id":"levelo_inurba_marseille","lat":43.29633,"lon":5.40598,"is_reserved":false,"is_disabled":false,"rental_uris":{"android":"levelo://app?vid=2b2ad00d-ab7d-4ca6-851d-102936636d39","ios":"levelo://app?vid=2b2ad00d-ab7d-4ca6-851d-102936636d39"},"vehicle_type_id":"4","last_reported":1699999594,"current_range_meters":0,"station_id":"ce4bh0h2rcd13ifvqd60","pricing_plan_id":"free"},{"bike_id":"292fce2f-0214-4b42-96a1-d4e49fecf529","system_id":"levelo_inurba_marseille","lat":43.28098,"lon":5.37833,"is_reserved":false,"is_disabled":false,"rental_uris":{"android":"levelo://app?vid=292fce2f-0214-4b42-96a1-d4e49fecf529","ios":"levelo://app?vid=292fce2f-0214-4b42-96a1-d4e49fecf529"},"vehicle_type_id":"4","last_reported":1699999594,"current_range_meters":0,"station_id":"ce4bha12rcd13ifvqee0","pricing_plan_id":"free"},{"bike_id":"2cf319d7-01cf-4d39-82a9-a4b1b7a60b4e","system_id":"levelo_inurba_marseille","lat":43.296263,"lon":5.40601,"is_reserved":false,"is_disabled":false,"rental_uris":{"android":"levelo://app?vid=2cf319d7-01cf-4d39-82a9-a4b1b7a60b4e","ios":"levelo://app?vid=2cf319d7-01cf-4d39-82a9-a4b1b7a60b4e"},"vehicle_type_id":"4","last_reported":1699999594,"current_range_meters":29600,"station_id":"ce4bh0h2rcd13ifvqd60","pricing_plan_id":"free"},{"bike_id":"c5269fde-c094-4163-a2ac-a6350e774e3c","system_id":"levelo_inurba_marseille","lat":43.323447,"lon":5.41003,"is_reserved":false,"is_disabled":false,"rental_uris":{"android":"levelo://app?vid=c5269fde-c094-4163-a2ac-a6350e774e3c","ios":"levelo://app?vid=c5269fde-c094-4163-a2ac-a6350e774e3c"},"vehicle_type_id":"4","last_reported":1699999594,"current_range_meters":0,"station_id":"","pricing_plan_id":"free"},{"bike_id":"287e6413-af30-4b6c-9b08-e650955f519a","system_id":"levelo_inurba_marseille","lat":43.284462,"lon":5.392121,"is_reserved":false,"is_disabled":false,"rental_uris":{"android":"levelo://app?vid=287e6413-af30-4b6c-9b08-e650955f519a","ios":"levelo://app?vid=287e6413-af30-4b6c-9b08-e650955f519a"},"vehicle_type_id":"4","last_reported":1699999594,"current_range_meters":26400,"station_id":"ce4bhoh2rcd13ifvqh5g","pricing_plan_id":"free"},{"bike_id":"22a75a08-7ec7-4bd2-a56f-ae97b2444516","system_id":"levelo_inurba_marseille","lat":43.285742,"lon":5.395004,"is_reserved":false,"is_disabled":false,"rental_uris":{"android":"levelo://app?vid=22a75a08-7ec7-4bd2-a56f-ae97b2444516","ios":"levelo://app?vid=22a75a08-7ec7-4bd2-a56f-ae97b2444516"},"vehicle_type_id":"4","last_reported":1699999594,"current_range_meters":15200,"station_id":"ce4bh292rcd13ifvqdg0","pricing_plan_id":"free"},{"bike_id":"ccf9b17e-2fb6-47d5-b5cb-73ea08fcb6e5","system_id":"levelo_inurba_marseille","lat":43.28575,"lon":5.39498,"is_reserved":false,"is_disabled":false,"rental_uris":{"android":"levelo://app?vid=ccf9b17e-2fb6-47d5-b5cb-73ea08fcb6e5","ios":"levelo://app?vid=ccf9b17e-2fb6-47d5-b5cb-73ea08fcb6e5"},"vehicle_type_id":"4","last_reported":1699999594,"current_range_meters":14800,"station_id":"ce4bh292rcd13ifvqdg0","pricing_plan_id":"free"},{"bike_id":"4fdc05f1-cf2c-4d94-8802-691924781a33","system_id":"levelo_inurba_marseille","lat":43.285742,"lon":5.395004,"is_reserved":false,"is_disabled":false,"rental_uris":{"android":"levelo://app?vid=4fdc05f1-cf2c-4d94-8802-691924781a33","ios":"levelo://app?vid=4fdc05f1-cf2c-4d94-8802-691924781a33"},"vehicle_type_id":"4","last_reported":1699999594,"current_range_meters":25600,"station_id":"ce4bh292rcd13ifvqdg0","pricing_plan_id":"free"},{"bike_id":"57c80962-9cf8-46ec-8f8e-c59af28b5563","system_id":"levelo_inurba_marseille","lat":43.28573,"lon":5.394992,"is_reserved":false,"is_disabled":false,"rental_uris":{"android":"levelo://app?vid=57c80962-9cf8-46ec-8f8e-c59af28b5563","ios":"levelo://app?vid=57c80962-9cf8-46ec-8f8e-c59af28b5563"},"vehicle_type_id":"4","last_reported":1699999594,"current_range_meters":14800,"station_id":"ce4bh292rcd13ifvqdg0","pricing_plan_id":"free"},{"bike_id":"994e254f-8aa2-481d-af89-6176763580d2","system_id":"levelo_inurba_marseille","lat":43.28573,"lon":5.394992,"is_reserved":false,"is_disabled":false,"rental_uris":{"android":"levelo://app?vid=994e254f-8aa2-481d-af89-6176763580d2","ios":"levelo://app?vid=994e254f-8aa2-481d-af89-6176763580d2"},"vehicle_type_id":"4","last_reported":1699999594,"current_range_meters":8400,"station_id":"ce4bh292rcd13ifvqdg0","pricing_plan_id":"free"},{"bike_id":"29fdda1c-ec74-4f79-93d4-56ca50b70f99","system_id":"levelo_inurba_marseille","lat":43.28573,"lon":5.394992,"is_reserved":false,"is_disabled":false,"rental_uris":{"android":"levelo://app?vid=29fdda1c-ec74-4f79-93d4-56ca50b70f99","ios":"levelo://app?vid=29fdda1c-ec74-4f79-93d4-56ca50b70f99"},"vehicle_type_id":"4","last_reported":1699999594,"current_range_meters":19600,"station_id":"ce4bh292rcd13ifvqdg0","pricing_plan_id":"free"},{"bike_id":"b9123203-783f-4269-ba72-fcb69bbdb479","system_id":"levelo_inurba_marseille","lat":43.285742,"lon":5.395004,"is_reserved":false,"is_disabled":false,"rental_uris":{"android":"levelo://app?vid=b9123203-783f-4269-ba72-fcb69bbdb479","ios":"levelo://app?vid=b9123203-783f-4269-ba72-fcb69bbdb479"},"vehicle_type_id":"4","last_reported":1699999594,"current_range_meters":2800,"station_id":"ce4bh292rcd13ifvqdg0","pricing_plan_id":"free"},{"bike_id":"4d584e96-40bd-4d8a-bc1a-0b58a02e18fb","system_id":"levelo_inurba_marseille","lat":43.304188,"lon":5.412904,"is_reserved":false,"is_disabled":false,"rental_uris":{"android":"levelo://app?vid=4d584e96-40bd-4d8a-bc1a-0b58a02e18fb","ios":"levelo://app?vid=4d584e96-40bd-4d8a-bc1a-0b58a02e18fb"},"vehicle_type_id":"4","last_reported":1699999594,"current_range_meters":30000,"station_id":"ce4bhop2rcd13ifvqh8g","pricing_plan_id":"free"},{"bike_id":"96c702fc-83dd-4c1d-ab44-f863c24a8788","system_id":"levelo_inurba_marseille","lat":43.304188,"lon":5.412904,"is_reserved":false,"is_disabled":false,"rental_uris":{"android":"levelo://app?vid=96c702fc-83dd-4c1d-ab44-f863c24a8788","ios":"levelo://app?vid=96c702fc-83dd-4c1d-ab44-f863c24a8788"},"vehicle_type_id":"4","last_reported":1699999594,"current_range_meters":28400,"station_id":"ce4bhop2rcd13ifvqh8g","pricing_plan_id":"free"},{"bike_id":"ea45ab02-cf3e-49ff-9f3f-5ae455ac7cbd","system_id":"levelo_inurba_marseille","lat":43.304188,"lon":5.412904,"is_reserved":false,"is_disabled":false,"rental_uris":{"android":"levelo://app?vid=ea45ab02-cf3e-49ff-9f3f-5ae455ac7cbd","ios":"levelo://app?vid=ea45ab02-cf3e-49ff-9f3f-5ae455ac7cbd"},"vehicle_type_id":"4","last_reported":1699999594,"current_range_meters":27600,"station_id":"ce4bhop2rcd13ifvqh8g","pricing_plan_id":"free"},{"bike_id":"0cc71c3d-de01-470c-ac78-20c28b82c08f","system_id":"levelo_inurba_marseille","lat":43.287154,"lon":5.399979,"is_reserved":false,"is_disabled":false,"rental_uris":{"android":"levelo://app?vid=0cc71c3d-de01-470c-ac78-20c28b82c08f","ios":"levelo://app?vid=0cc71c3d-de01-470c-ac78-20c28b82c08f"},"vehicle_type_id":"4","last_reported":1699999594,"current_range_meters":31200,"station_id":"ce4bho92rcd13ifvqh3g","pricing_plan_id":"free"},{"bike_id":"d9218f98-4e74-4d22-a9a7-c271060c3344","system_id":"levelo_inurba_marseille","lat":43.287139,"lon":5.399891,"is_reserved":false,"is_disabled":false,"rental_uris":{"android":"levelo://app?vid=d9218f98-4e74-4d22-a9a7-c271060c3344","ios":"levelo://app?vid=d9218f98-4e74-4d22-a9a7-c271060c3344"},"vehicle_type_id":"4","last_reported":1699999594,"current_range_meters":25200,"station_id":"","pricing_plan_id":"free"},{"bike_id":"9336d857-fe72-4732-9b1d-e58badc6b87e","system_id":"levelo_inurba_marseille","lat":43.287126,"lon":5.399903,"is_reserved":false,"is_disabled":false,"rental_uris":{"android":"levelo://app?vid=9336d857-fe72-4732-9b1d-e58badc6b87e","ios":"levelo://app?vid=9336d857-fe72-4732-9b1d-e58badc6b87e"},"vehicle_type_id":"4","last_reported":1699999594,"current_range_meters":29200,"station_id":"ce4bho92rcd13ifvqh3g","pricing_plan_id":"free"},{"bike_id":"4c166e9f-91f8-4667-aca4-18e867023487","system_id":"levelo_inurba_marseille","lat":43.287154,"lon":5.399979,"is_reserved":false,"is_disabled":false,"rental_uris":{"android":"levelo://app?vid=4c166e9f-91f8-4667-aca4-18e867023487","ios":"levelo://app?vid=4c166e9f-91f8-4667-aca4-18e867023487"},"vehicle_type_id":"4","last_reported":1699999594,"current_range_meters":29200,"station_id":"ce4bho92rcd13ifvqh3g","pricing_plan_id":"free"},{"bike_id":"2db116f1-ef22-49fa-bfcc-1da462d041d6","system_id":"levelo_inurba_marseille","lat":43.287154,"lon":5.399979,"is_reserved":false,"is_disabled":false,"rental_uris":{"android":"levelo://app?vid=2db116f1-ef22-49fa-bfcc-1da462d041d6","ios":"levelo://app?vid=2db116f1-ef22-49fa-bfcc-1da462d041d6"},"vehicle_type_id":"4","last_reported":1699999594,"current_range_meters":29600,"station_id":"ce4bho92rcd13ifvqh3g","pricing_plan_id":"free"},{"bike_id":"4494699a-1550-4bf8-a600-ad378fd1605d","system_id":"levelo_inurba_marseille","lat":43.287154,"lon":5.399979,"is_reserved":false,"is_disabled":false,"rental_uris":{"android":"levelo://app?vid=4494699a-1550-4bf8-a600-ad378fd1605d","ios":"levelo://app?vid=4494699a-1550-4bf8-a600-ad378fd1605d"},"vehicle_type_id":"4","last_reported":1699999594,"current_range_meters":3600,"station_id":"ce4bho92rcd13ifvqh3g","pricing_plan_id":"free"},{"bike_id":"397d7eb7-c421-4875-8c1c-0889699a44f5","system_id":"levelo_inurba_marseille","lat":43.287154,"lon":5.399979,"is_reserved":false,"is_disabled":false,"rental_uris":{"android":"levelo://app?vid=397d7eb7-c421-4875-8c1c-0889699a44f5","ios":"levelo://app?vid=397d7eb7-c421-4875-8c1c-0889699a44f5"},"vehicle_type_id":"4","last_reported":1699999594,"current_range_meters":30400,"station_id":"ce4bho92rcd13ifvqh3g","pricing_plan_id":"free"},{"bike_id":"a5224fba-b7e1-4133-b800-26c0c7c843e6","system_id":"levelo_inurba_marseille","lat":43.28697,"lon":5.39982,"is_reserved":false,"is_disabled":false,"rental_uris":{"android":"levelo://app?vid=a5224fba-b7e1-4133-b800-26c0c7c843e6","ios":"levelo://app?vid=a5224fba-b7e1-4133-b800-26c0c7c843e6"},"vehicle_type_id":"4","last_reported":1699999594,"current_range_meters":21600,"station_id":"ce4bho92rcd13ifvqh3g","pricing_plan_id":"free"},{"bike_id":"0b1c5540-7f13-4f37-a119-cb5e2fe30a98","system_id":"levelo_inurba_marseille","lat":43.287011,"lon":5.399913,"is_reserved":false,"is_disabled":false,"rental_uris":{"android":"levelo://app?vid=0b1c5540-7f13-4f37-a119-cb5e2fe30a98","ios":"levelo://app?vid=0b1c5540-7f13-4f37-a119-cb5e2fe30a98"},"vehicle_type_id":"4","last_reported":1699999594,"current_range_meters":22000,"station_id":"ce4bho92rcd13ifvqh3g","pricing_plan_id":"free"},{"bike_id":"30c11bb6-759e-43a8-b1bd-8bd01910d06f","system_id":"levelo_inurba_marseille","lat":43.287014,"lon":5.399928,"is_reserved":false,"is_disabled":false,"rental_uris":{"android":"levelo://app?vid=30c11bb6-759e-43a8-b1bd-8bd01910d06f","ios":"levelo://app?vid=30c11bb6-759e-43a8-b1bd-8bd01910d06f"},"vehicle_type_id":"4","last_reported":1699999594,"current_range_meters":28000,"station_id":"ce4bho92rcd13ifvqh3g","pricing_plan_id":"free"},{"bike_id":"7a12bff1-8414-4186-b59c-af26e4bc4596","system_id":"levelo_inurba_marseille","lat":43.286985,"lon":5.399907,"is_reserved":false,"is_disabled":false,"rental_uris":{"android":"levelo://app?vid=7a12bff1-8414-4186-b59c-af26e4bc4596","ios":"levelo://app?vid=7a12bff1-8414-4186-b59c-af26e4bc4596"},"vehicle_type_id":"4","last_reported":1699999594,"current_range_meters":28000,"station_id":"ce4bho92rcd13ifvqh3g","pricing_plan_id":"free"},{"bike_id":"3e1ca8a4-8a3f-4cc5-97bf-5718e39e8448","system_id":"levelo_inurba_marseille","lat":43.28697,"lon":5.399902,"is_reserved":false,"is_disabled":false,"rental_uris":{"android":"levelo://app?vid=3e1ca8a4-8a3f-4cc5-97bf-5718e39e8448","ios":"levelo://app?vid=3e1ca8a4-8a3f-4cc5-97bf-5718e39e8448"},"vehicle_type_id":"4","last_reported":1699999594,"current_range_meters":31200,"station_id":"ce4bho92rcd13ifvqh3g","pricing_plan_id":"free"},{"bike_id":"feca28d2-7019-4e39-96be-d7938cc29597","system_id":"levelo_inurba_marseille","lat":43.32435,"lon":5.4137,"is_reserved":false,"is_disabled":false,"rental_uris":{"android":"levelo://app?vid=feca28d2-7019-4e39-96be-d7938cc29597","ios":"levelo://app?vid=feca28d2-7019-4e39-96be-d7938cc29597"},"vehicle_type_id":"4","last_reported":1699999594,"current_range_meters":8400,"station_id":"","pricing_plan_id":"free"},{"bike_id":"b800eac4-2acc-460d-af09-375f6d402d81","system_id":"levelo_inurba_marseille","lat":43.298768,"lon":5.43643,"is_reserved":false,"is_disabled":false,"rental_uris":{"android":"levelo://app?vid=b800eac4-2acc-460d-af09-375f6d402d81","ios":"levelo://app?vid=b800eac4-2acc-460d-af09-375f6d402d81"},"vehicle_type_id":"4","last_reported":1699999594,"current_range_meters":17600,"station_id":"ce4bhpp2rcd13ifvqhfg","pricing_plan_id":"free"},{"bike_id":"56067e6f-f2e1-495d-865f-62f64030320c","system_id":"levelo_inurba_marseille","lat":43.28163,"lon":5.3922,"is_reserved":false,"is_disabled":false,"rental_uris":{"android":"levelo://app?vid=56067e6f-f2e1-495d-865f-62f64030320c","ios":"levelo://app?vid=56067e6f-f2e1-495d-865f-62f64030320c"},"vehicle_type_id":"4","last_reported":1699999594,"current_range_meters":0,"station_id":"","pricing_plan_id":"free"},{"bike_id":"98d5da0c-4212-48da-a7bf-ebac8c3782d6","system_id":"levelo_inurba_marseille","lat":43.320045,"lon":5.415046,"is_reserved":false,"is_disabled":false,"rental_uris":{"android":"levelo://app?vid=98d5da0c-4212-48da-a7bf-ebac8c3782d6","ios":"levelo://app?vid=98d5da0c-4212-48da-a7bf-ebac8c3782d6"},"vehicle_type_id":"4","last_reported":1699999594,"current_range_meters":14800,"station_id":"ce4bhq92rcd13ifvqhkg","pricing_plan_id":"free"},{"bike_id":"e3315812-bbf1-450b-ba47-fe7709ae3464","system_id":"levelo_inurba_marseille","lat":43.29255,"lon":5.40911,"is_reserved":false,"is_disabled":false,"rental_uris":{"android":"levelo://app?vid=e3315812-bbf1-450b-ba47-fe7709ae3464","ios":"levelo://app?vid=e3315812-bbf1-450b-ba47-fe7709ae3464"},"vehicle_type_id":"4","last_reported":1699999594,"current_range_meters":4000,"station_id":"ce4bh192rcd13ifvqdc0","pricing_plan_id":"free"},{"bike_id":"56ec4631-19f2-458f-ae42-97a9d89ae45b","system_id":"levelo_inurba_marseille","lat":43.331253,"lon":5.410687,"is_reserved":false,"is_disabled":false,"rental_uris":{"android":"levelo://app?vid=56ec4631-19f2-458f-ae42-97a9d89ae45b","ios":"levelo://app?vid=56ec4631-19f2-458f-ae42-97a9d89ae45b"},"vehicle_type_id":"4","last_reported":1699999594,"current_range_meters":0,"station_id":"","pricing_plan_id":"free"},{"bike_id":"78313f07-b628-486f-b4fe-83bb790e2f13","system_id":"levelo_inurba_marseille","lat":43.32531,"lon":5.41586,"is_reserved":false,"is_disabled":false,"rental_uris":{"android":"levelo://app?vid=78313f07-b628-486f-b4fe-83bb790e2f13","ios":"levelo://app?vid=78313f07-b628-486f-b4fe-83bb790e2f13"},"vehicle_type_id":"4","last_reported":1699999594,"current_range_meters":14800,"station_id":"","pricing_plan_id":"free"},