{"last_updated":1752059359,"ttl":60,"version":"2.2","data":{"bikes":[{"bike_id":"cd20cfea-2f2f-444d-a882-a49b6cf370eb","system_id":"levelo_inurba_marseille","lat":43.337444,"lon":5.374475,"is_reserved":false,"is_disabled":true,"rental_uris":{"android":"levelo://app?vid=cd20cfea-2f2f-444d-a882-a49b6cf370eb","ios":"levelo://app?vid=cd20cfea-2f2f-444d-a882-a49b6cf370eb"},"vehicle_type_id":"4","last_reported":1752059359,"current_range_meters":0,"station_id":"","pricing_plan_id":"cebpf4jnsgd1na2vs0mg"},{"bike_id":"3da29fb8-fc97-44c6-b9ac-31dd456b2fd4","system_id":"levelo_inurba_marseille","lat":43.33771,"lon":5.37424,"is_reserved":false,"is_disabled":true,"rental_uris":{"android":"levelo://app?vid=3da29fb8-fc97-44c6-b9ac-31dd456b2fd4","ios":"levelo://app?vid=3da29fb8-fc97-44c6-b9ac-31dd456b2fd4"},"vehicle_type_id":"4","last_reported":1752059359,"current_range_meters":0,"station_id":"","pricing_plan_id":"cebpf4jnsgd1na2vs0mg"},{"bike_id":"01861ad8-a8d7-4be6-816e-651927c87584","system_id":"levelo_inurba_marseille","lat":43.33751,"lon":5.37456,"is_reserved":false,"is_disabled":true,"rental_uris":{"android":"levelo://app?vid=01861ad8-a8d7-4be6-816e-651927c87584","ios":"levelo://app?vid=01861ad8-a8d7-4be6-816e-651927c87584"},"vehicle_type_id":"4","last_reported":1752059359,"current_range_meters":0,"station_id":"","pricing_plan_id":"cebpf4jnsgd1na2vs0mg"},{"bike_id":"53b1a31e-8ada-40c0-8d64-113a81233c84","system_id":"levelo_inurba_marseille","lat":43.364136,"lon":5.319299,"is_reserved":false,"is_disabled":true,"rental_uris":{"android":"levelo://app?vid=53b1a31e-8ada-40c0-8d64-113a81233c84","ios":"levelo://app?vid=53b1a31e-8ada-40c0-8d64-113a81233c84"},"vehicle_type_id":"4","last_reported":1752059359,"current_range_meters":0,"station_id":"","pricing_plan_id":"cebpf4jnsgd1na2vs0mg"},{"bike_id":"0af08b83-db05-434d-8446-bb0bbb88d748","system_id":"levelo_inurba_marseille","lat":43.27948,"lon":5.41052,"is_reserved":false,"is_disabled":true,"rental_uris":{"android":"levelo://app?vid=0af08b83-db05-434d-8446-bb0bbb88d748","ios":"levelo://app?vid=0af08b83-db05-434d-8446-bb0bbb88d748"},"vehicle_type_id":"4","last_reported":1752059359,"current_range_meters":0,"station_id":"ce4bhnp2rcd13ifvqh0g","pricing_plan_id":"cebpf4jnsgd1na2vs0mg"},{"bike_id":"6661cbd2-6ba2-4b46-b15e-1188df0f29d7","system_id":"levelo_inurba_marseille","lat":43.21203,"lon":5.35069,"is_reserved":false,"is_disabled":true,"rental_uris":{"android":"levelo://app?vid=6661cbd2-6ba2-4b46-b15e-1188df0f29d7","ios":"levelo://app?vid=6661cbd2-6ba2-4b46-b15e-1188df0f29d7"},"vehicle_type_id":"4","last_reported":1752059359,"current_range_meters":0,"station_id":"st_cvj6sg6p6f1abm77japg","pricing_plan_id":"cebpf4jnsgd1na2vs0mg"},{"bike_id":"4ed5fca6-3c44-493d-b4ff-f28352227cdf","system_id":"levelo_inurba_marseille","lat":43.27986,"lon":5.38769,"is_reserved":false,"is_disabled":true,"rental_uris":{"android":"levelo://app?vid=4ed5fca6-3c44-493d-b4ff-f28352227cdf","ios":"levelo://app?vid=4ed5fca6-3c44-493d-b4ff-f28352227cdf"},"vehicle_type_id":"4","last_reported":1752059359,"current_range_meters":400,"station_id":"","pricing_plan_id":"cebpf4jnsgd1na2vs0mg"},{"bike_id":"cef03ba1-bfe1-4492-b9ec-f1ba3ab96f5d","system_id":"levelo_inurba_marseille","lat":43.31279,"lon":5.40196,"is_reserved":false,"is_disabled":true,"rental_uris":{"android":"levelo://app?vid=cef03ba1-bfe1-4492-b9ec-f1ba3ab96f5d","ios":"levelo://app?vid=cef03ba1-bfe1-4492-b9ec-f1ba3ab96f5d"},"vehicle_type_id":"4","last_reported":1752059359,"current_range_meters":400,"station_id":"ce4bh092rcd13ifvqd30","pricing_plan_id":"cebpf4jnsgd1na2vs0mg"},{"bike_id":"e562ad4e-a577-4b7b-a74e-7e00b9c0f52f","system_id":"levelo_inurba_marseille","lat":43.225027,"lon":5.347812,"is_reserved":false,"is_disabled":true,"rental_uris":{"android":"levelo://app?vid=e562ad4e-a577-4b7b-a74e-7e00b9c0f52f","ios":"levelo://app?vid=e562ad4e-a577-4b7b-a74e-7e00b9c0f52f"},"vehicle_type_id":"4","last_reported":1752059359,"current_range_meters":400,"station_id":"st_cvj5dfep6f1abm77gieg","pricing_plan_id":"cebpf4jnsgd1na2vs0mg"},{"bike_id":"1a064c7a-7b02-4b2a-a64c-86752d641175","system_id":"levelo_inurba_marseille","lat":43.277974,"lon":5.399308,"is_reserved":false,"is_disabled":true,"rental_uris":{"android":"levelo://app?vid=1a064c7a-7b02-4b2a-a64c-86752d641175","ios":"levelo://app?vid=1a064c7a-7b02-4b2a-a64c-86752d641175"},"vehicle_type_id":"4","last_reported":1752059359,"current_range_meters":800,"station_id":"ce4bhk92rcd13ifvqgc0","pricing_plan_id":"cebpf4jnsgd1na2vs0mg"},{"bike_id":"204dc247-51a9-4a49-91fc-9d4d0c8ac883","system_id":"levelo_inurba_marseille","lat":43.243896,"lon":5.370602,"is_reserved":false,"is_disabled":true,"rental_uris":{"android":"levelo://app?vid=204dc247-51a9-4a49-91fc-9d4d0c8ac883","ios":"levelo://app?vid=204dc247-51a9-4a49-91fc-9d4d0c8ac883"},"vehicle_type_id":"4","last_reported":1752059359,"current_range_meters":1200,"station_id":"ce4bhhh2rcd13ifvqfk0","pricing_plan_id":"cebpf4jnsgd1na2vs0mg"},{"bike_id":"d6345578-0085-4e29-81bd-da6805087935","system_id":"levelo_inurba_marseille","lat":43.28694,"lon":5.39992,"is_reserved":false,"is_disabled":true,"rental_uris":{"android":"levelo://app?vid=d6345578-0085-4e29-81bd-da6805087935","ios":"levelo://app?vid=d6345578-0085-4e29-81bd-da6805087935"},"vehicle_type_id":"4","last_reported":1752059359,"current_range_meters":1200,"station_id":"ce4bho92rcd13ifvqh3g","pricing_plan_id":"cebpf4jnsgd1na2vs0mg"},{"bike_id":"0650d222-8a61-4821-88f3-8eb8a5502644","system_id":"levelo_inurba_marseille","lat":43.29086,"lon":5.37959,"is_reserved":false,"is_disabled":true,"rental_uris":{"android":"levelo://app?vid=0650d222-8a61-4821-88f3-8eb8a5502644","ios":"levelo://app?vid=0650d222-8a61-4821-88f3-8eb8a5502644"},"vehicle_type_id":"4","last_reported":1752059359,"current_range_meters":1600,"station_id":"","pricing_plan_id":"cebpf4jnsgd1na2vs0mg"},{"bike_id":"aed88cf2-3fd6-42d9-84f4-62ab7a8ade76","system_id":"levelo_inurba_marseille","lat":43.28948,"lon":5.36409,"is_reserved":false,"is_disabled":true,"rental_uris":{"android":"levelo://app?vid=aed88cf2-3fd6-42d9-84f4-62ab7a8ade76","ios":"levelo://app?vid=aed88cf2-3fd6-42d9-84f4-62ab7a8ade76"},"vehicle_type_id":"4","last_reported":1752059359,"current_range_meters":1600,"station_id":"ce4bhc92rcd13ifvqetg","pricing_plan_id":"cebpf4jnsgd1na2vs0mg"},{"bike_id":"956e4c4c-92d8-4481-8166-acc4e37389ba","system_id":"levelo_inurba_marseille","lat":43.24803,"lon":5.37435,"is_reserved":false,"is_disabled":true,"rental_uris":{"android":"levelo://app?vid=956e4c4c-92d8-4481-8166-acc4e37389ba","ios":"levelo://app?vid=956e4c4c-92d8-4481-8166-acc4e37389ba"},"vehicle_type_id":"4","last_reported":1752059359,"current_range_meters":2000,"station_id":"ce4bhgh2rcd13ifvqfb0","pricing_plan_id":"cebpf4jnsgd1na2vs0mg"},{"bike_id":"19c552da-55bc-46d8-97cb-d1fbabdad01a","system_id":"levelo_inurba_marseille","lat":43.21192,"lon":5.35078,"is_reserved":false,"is_disabled":true,"rental_uris":{"android":"levelo://app?vid=19c552da-55bc-46d8-97cb-d1fbabdad01a","ios":"levelo://app?vid=19c552da-55bc-46d8-97cb-d1fbabdad01a"},"vehicle_type_id":"4","last_reported":1752059359,"current_range_meters":2000,"station_id":"st_cvj6sg6p6f1abm77japg","pricing_plan_id":"cebpf4jnsgd1na2vs0mg"},{"bike_id":"1ea80817-2611-4184-956b-f07623c25234","system_id":"levelo_inurba_marseille","lat":43.3047,"lon":5.3791,"is_reserved":false,"is_disabled":true,"rental_uris":{"android":"levelo://app?vid=1ea80817-2611-4184-956b-f07623c25234","ios":"levelo://app?vid=1ea80817-2611-4184-956b-f07623c25234"},"vehicle_type_id":"4","last_reported":1752059359,"current_range_meters":2800,"station_id":"ce4bgup2rcd13ifvqcn0","pricing_plan_id":"cebpf4jnsgd1na2vs0mg"},{"bike_id":"3b0aa1f7-8104-4684-bacf-c3a99977512f","system_id":"levelo_inurba_marseille","lat":43.28277,"lon":5.43318,"is_reserved":false,"is_disabled":false,"rental_uris":{"android":"levelo://app?vid=3b0aa1f7-8104-4684-bacf-c3a99977512f","ios":"levelo://app?vid=3b0aa1f7-8104-4684-bacf-c3a99977512f"},"vehicle_type_id":"4","last_reported":1752059359,"current_range_meters":3200,"station_id":"","pricing_plan_id":"cebpf4jnsgd1na2vs0mg"},{"bike_id":"14e7b21f-6a49-4bd8-adcb-9e2a34f46350","system_id":"levelo_inurba_marseille","lat":43.28115,"lon":5.3989,"is_reserved":false,"is_disabled":false,"rental_uris":{"android":"levelo://app?vid=14e7b21f-6a49-4bd8-adcb-9e2a34f46350","ios":"levelo://app?vid=14e7b21f-6a49-4bd8-adcb-9e2a34f46350"},"vehicle_type_id":"4","last_reported":1752059359,"current_range_meters":3200,"station_id":"","pricing_plan_id":"cebpf4jnsgd1na2vs0mg"},{"bike_id":"c98d0307-3157-4a39-9409-864e8e505802","system_id":"levelo_inurba_marseille","lat":43.241595,"lon":5.393598,"is_reserved":false,"is_disabled":false,"rental_uris":{"android":"levelo://app?vid=c98d0307-3157-4a39-9409-864e8e505802","ios":"levelo://app?vid=c98d0307-3157-4a39-9409-864e8e505802"},"vehicle_type_id":"4","last_reported":1752059359,"current_range_meters":3200,"station_id":"","pricing_plan_id":"cebpf4jnsgd1na2vs0mg"},{"bike_id":"3b22f952-d0bc-4c00-8fd3-7e27b88aea23","system_id":"levelo_inurba_marseille","lat":43.29659,"lon":5.36245,"is_reserved":false,"is_disabled":false,"rental_uris":{"android":"levelo://app?vid=3b22f952-d0bc-4c00-8fd3-7e27b88aea23","ios":"levelo://app?vid=3b22f952-d0bc-4c00-8fd3-7e27b88aea23"},"vehicle_type_id":"4","last_reported":1752059359,"current_range_meters":3200,"station_id":"","pricing_plan_id":"cebpf4jnsgd1na2vs0mg"},{"bike_id":"37f2becd-23f9-4f13-a711-38b8024eeec7","system_id":"levelo_inurba_marseille","lat":43.33768,"lon":5.37516,"is_reserved":false,"is_disabled":false,"rental_uris":{"android":"levelo://app?vid=37f2becd-23f9-4f13-a711-38b8024eeec7","ios":"levelo://app?vid=37f2becd-23f9-4f13-a711-38b8024eeec7"},"vehicle_type_id":"4","last_reported":1752059359,"current_range_meters":3600,"station_id":"","pricing_plan_id":"cebpf4jnsgd1na2vs0mg"},{"bike_id":"b8de4260-d6f3-4d4c-b10a-4a126bf007b8","system_id":"levelo_inurba_marseille","lat":43.31077,"lon":5.37706,"is_reserved":false,"is_disabled":false,"rental_uris":{"android":"levelo://app?vid=b8de4260-d6f3-4d4c-b10a-4a126bf007b8","ios":"levelo://app?vid=b8de4260-d6f3-4d4c-b10a-4a126bf007b8"},"vehicle_type_id":"4","last_reported":1752059359,"current_range_meters":3600,"station_id":"","pricing_plan_id":"cebpf4jnsgd1na2vs0mg"},{"bike_id":"5f6781b2-b062-4d60-b8f4-0ff165e81d6b","system_id":"levelo_inurba_marseille","lat":43.29915,"lon":5.37477,"is_reserved":false,"is_disabled":false,"rental_uris":{"android":"levelo://app?vid=5f6781b2-b062-4d60-b8f4-0ff165e81d6b","ios":"levelo://app?vid=5f6781b2-b062-4d60-b8f4-0ff165e81d6b"},"vehicle_type_id":"4","last_reported":1752059359,"current_range_meters":3600,"station_id":"ce4bgjh2rcd13ifvqbg0","pricing_plan_id":"cebpf4jnsgd1na2vs0mg"},{"bike_id":"2c423baa-ecca-420a-87d7-ad0b7e0b9ebb","system_id":"levelo_inurba_marseille","lat":43.28031,"lon":5.35367,"is_reserved":false,"is_disabled":false,"rental_uris":{"android":"levelo://app?vid=2c423baa-ecca-420a-87d7-ad0b7e0b9ebb","ios":"levelo://app?vid=2c423baa-ecca-420a-87d7-ad0b7e0b9ebb"},"vehicle_type_id":"4","last_reported":1752059359,"current_range_meters":4400,"station_id":"","pricing_plan_id":"cebpf4jnsgd1na2vs0mg"},{"bike_id":"303615e2-b645-47aa-b8dc-d69233e50c42","system_id":"levelo_inurba_marseille","lat":43.29907,"lon":5.43674,"is_reserved":false,"is_disabled":false,"rental_uris":{"android":"levelo://app?vid=303615e2-b645-47aa-b8dc-d69233e50c42","ios":"levelo://app?vid=303615e2-b645-47aa-b8dc-d69233e50c42"},"vehicle_type_id":"4","last_reported":1752059359,"current_range_meters":4400,"station_id":"ce4bhpp2rcd13ifvqhfg","pricing_plan_id":"cebpf4jnsgd1na2vs0mg"},{"bike_id":"e81d10c7-0e24-42d2-99b0-f377f29121bf","system_id":"levelo_inurba_marseille","lat":43.29851,"lon":5.36287,"is_reserved":false,"is_disabled":false,"rental_uris":{"android":"levelo://app?vid=e81d10c7-0e24-42d2-99b0-f377f29121bf","ios":"levelo://app?vid=e81d10c7-0e24-42d2-99b0-f377f29121bf"},"vehicle_type_id":"4","last_reported":1752059359,"current_range_meters":4800,"station_id":"ce4bgpp2rcd13ifvqc3g","pricing_plan_id":"cebpf4jnsgd1na2vs0mg"},{"bike_id":"49b79b67-745b-4aa1-9625-dc3b01a3986e","system_id":"levelo_inurba_marseille","lat":43.27811,"lon":5.4071,"is_reserved":false,"is_disabled":false,"rental_uris":{"android":"levelo://app?vid=49b79b67-745b-4aa1-9625-dc3b01a3986e","ios":"levelo://app?vid=49b79b67-745b-4aa1-9625-dc3b01a3986e"},"vehicle_type_id":"4","last_reported":1752059359,"current_range_meters":5600,"station_id":"ce4bhnh2rcd13ifvqgtg","pricing_plan_id":"cebpf4jnsgd1na2vs0mg"},{"bike_id":"b1c6612c-cfcf-4cb4-b0ec-18ae0f073cc2","system_id":"levelo_inurba_marseille","lat":43.30127,"lon":5.39839,"is_reserved":false,"is_disabled":false,"rental_uris":{"android":"levelo://app?vid=b1c6612c-cfcf-4cb4-b0ec-18ae0f073cc2","ios":"levelo://app?vid=b1c6612c-cfcf-4cb4-b0ec-18ae0f073cc2"},"vehicle_type_id":"4","last_reported":1752059359,"current_range_meters":6400,"station_id":"ce4bh0h2rcd13ifvqd40","pricing_plan_id":"cebpf4jnsgd1na2vs0mg"},{"bike_id":"bef7a3ea-56d6-4af9-b1f9-97d51c77bf3b","system_id":"levelo_inurba_marseille","lat":43.26557,"lon":5.37293,"is_reserved":false,"is_disabled":false,"rental_uris":{"android":"levelo://app?vid=bef7a3ea-56d6-4af9-b1f9-97d51c77bf3b","ios":"levelo://app?vid=bef7a3ea-56d6-4af9-b1f9-97d51c77bf3b"},"vehicle_type_id":"4","last_reported":1752059359,"current_range_meters":6400,"station_id":"ce4bhg12rcd13ifvqf70","pricing_plan_id":"cebpf4jnsgd1na2vs0mg"},{"bike_id":"8e0067d4-bc95-4b0f-a998-6d4e5387fa94","system_id":"levelo_inurba_marseille","lat":43.31488,"lon":5.37309,"is_reserved":false,"is_disabled":false,"rental_uris":{"android":"levelo://app?vid=8e0067d4-bc95-4b0f-a998-6d4e5387fa94","ios":"levelo://app?vid=8e0067d4-bc95-4b0f-a998-6d4e5387fa94"},"vehicle_type_id":"4","last_reported":1752059359,"current_range_meters":6800,"station_id":"ce4bgt12rcd13ifvqcd0","pricing_plan_id":"cebpf4jnsgd1na2vs0mg"},{"bike_id":"4f5f2edf-4f15-4ecb-9f5b-d604b5b2d0dc","system_id":"levelo_inurba_marseille","lat":43.2908,"lon":5.37182,"is_reserved":false,"is_disabled":false,"rental_uris":{"android":"levelo://app?vid=4f5f2edf-4f15-4ecb-9f5b-d604b5b2d0dc","ios":"levelo://app?vid=4f5f2edf-4f15-4ecb-9f5b-d604b5b2d0dc"},"vehicle_type_id":"4","last_reported":1752059359,"current_range_meters":6800,"station_id":"ce4bh5p2rcd13ifvqe4g","pricing_plan_id":"cebpf4jnsgd1na2vs0mg"},{"bike_id":"dc018916-c91a-4769-b482-0cc676e53a88","system_id":"levelo_inurba_marseille","lat":43.29006,"lon":5.35613,"is_reserved":false,"is_disabled":false,"rental_uris":{"android":"levelo://app?vid=dc018916-c91a-4769-b482-0cc676e53a88","ios":"levelo://app?vid=dc018916-c91a-4769-b482-0cc676e53a88"},"vehicle_type_id":"4","last_reported":1752059359,"current_range_meters":6800,"station_id":"ce4bhb92rcd13ifvqen0","pricing_plan_id":"cebpf4jnsgd1na2vs0mg"},{"bike_id":"4af3a0be-d46a-424b-80c1-79f0522505e0","system_id":"levelo_inurba_marseille","lat":43.29279,"lon":5.36845,"is_reserved":false,"is_disabled":false,"rental_uris":{"android":"levelo://app?vid=4af3a0be-d46a-424b-80c1-79f0522505e0","ios":"levelo://app?vid=4af3a0be-d46a-424b-80c1-79f0522505e0"},"vehicle_type_id":"4","last_reported":1752059359,"current_range_meters":6800,"station_id":"ce4bhbp2rcd13ifvqesg","pricing_plan_id":"cebpf4jnsgd1na2vs0mg"},{"bike_id":"4e3695ed-9142-4281-8b46-844b37b8e2dc","system_id":"levelo_inurba_marseille","lat":43.31704,"lon":5.40501,"is_reserved":false,"is_disabled":false,"rental_uris":{"android":"levelo://app?vid=4e3695ed-9142-4281-8b46-844b37b8e2dc","ios":"levelo://app?vid=4e3695ed-9142-4281-8b46-844b37b8e2dc"},"vehicle_type_id":"4","last_reported":1752059359,"current_range_meters":7200,"station_id":"ce4bh012rcd13ifvqd00","pricing_plan_id":"cebpf4jnsgd1na2vs0mg"},{"bike_id":"3f669b8e-38ce-406c-b9c7-08191c55958c","system_id":"levelo_inurba_marseille","lat":43.28618,"lon":5.35106,"is_reserved":false,"is_disabled":false,"rental_uris":{"android":"levelo://app?vid=3f669b8e-38ce-406c-b9c7-08191c55958c","ios":"levelo://app?vid=3f669b8e-38ce-406c-b9c7-08191c55958c"},"vehicle_type_id":"4","last_reported":1752059359,"current_range_meters":7200,"station_id":"ce4bhch2rcd13ifvqeug","pricing_plan_id":"cebpf4jnsgd1na2vs0mg"},{"bike_id":"8d355ab6-4461-49e0-aadf-54d1296aa083","system_id":"levelo_inurba_marseille","lat":43.21747,"lon":5.346,"is_reserved":false,"is_disabled":false,"rental_uris":{"android":"levelo://app?vid=8d355ab6-4461-49e0-aadf-54d1296aa083","ios":"levelo://app?vid=8d355ab6-4461-49e0-aadf-54d1296aa083"},"vehicle_type_id":"4","last_reported":1752059359,"current_range_meters":7200,"station_id":"st_cvj6r9ubvosntc0bgbag","pricing_plan_id":"cebpf4jnsgd1na2vs0mg"},{"bike_id":"1feae4ee-fd71-4944-b803-e8674db172e0","system_id":"levelo_inurba_marseille","lat":43.30155,"lon":5.3808,"is_reserved":false,"is_disabled":false,"rental_uris":{"android":"levelo://app?vid=1feae4ee-fd71-4944-b803-e8674db172e0","ios":"levelo://app?vid=1feae4ee-fd71-4944-b803-e8674db172e0"},"vehicle_type_id":"4","last_reported":1752059359,"current_range_meters":8000,"station_id":"ce4bgjp2rcd13ifvqbh0","pricing_plan_id":"cebpf4jnsgd1na2vs0mg"},{"bike_id":"44f26f35-64a1-4c89-a1e7-a4dae1cf9621","system_id":"levelo_inurba_marseille","lat":43.30321,"lon":5.36905,"is_reserved":false,"is_disabled":false,"rental_uris":{"android":"levelo://app?vid=44f26f35-64a1-4c89-a1e7-a4dae1cf9621","ios":"levelo://app?vid=44f26f35-64a1-4c89-a1e7-a4dae1cf9621"},"vehicle_type_id":"4","last_reported":1752059359,"current_range_meters":8000,"station_id":"ce4bgqh2rcd13ifvqc5g","pricing_plan_id":"cebpf4jnsgd1na2vs0mg"},{"bike_id":"979d49bf-fc42-4a82-9540-bab46839ea01","system_id":"levelo_inurba_marseille","lat":43.31122,"lon":5.37762,"is_reserved":false,"is_disabled":false,"rental_uris":{"android":"levelo://app?vid=979d49bf-fc42-4a82-9540-bab46839ea01","ios":"levelo://app?vid=979d49bf-fc42-4a82-9540-bab46839ea01"},"vehicle_type_id":"4","last_reported":1752059359,"current_range_meters":8000,"station_id":"ce4bgt92rcd13ifvqcg0","pricing_plan_id":"cebpf4jnsgd1na2vs0mg"},{"bike_id":"8e873a41-714a-4bb7-abfa-0166e5f744da","system_id":"levelo_inurba_marseille","lat":43.31689,"lon":5.40476,"is_reserved":false,"is_disabled":false,"rental_uris":{"android":"levelo://app?vid=8e873a41-714a-4bb7-abfa-0166e5f744da","ios":"levelo://app?vid=8e873a41-714a-4bb7-abfa-0166e5f744da"},"vehicle_type_id":"4","last_reported":1752059359,"current_range_meters":8000,"station_id":"ce4bh012rcd13ifvqd00","pricing_plan_id":"cebpf4jnsgd1na2vs0mg"},{"bike_id":"373f7154-05e4-4923-8d21-eb4b99691656","system_id":"levelo_inurba_marseille","lat":43.31512,"lon":5.38676,"is_reserved":false,"is_disabled":false,"rental_uris":{"android":"levelo://app?vid=373f7154-05e4-4923-8d21-eb4b99691656","ios":"levelo://app?vid=373f7154-05e4-4923-8d21-eb4b99691656"},"vehicle_type_id":"4","last_reported":1752059359,"current_range_meters":8400,"station_id":"","pricing_plan_id":"cebpf4jnsgd1na2vs0mg"},{"bike_id":"888522e3-39b6-4ff3-ad74-ff6c6f771157","system_id":"levelo_inurba_marseille","lat":43.29513,"lon":5.40288,"is_reserved":false,"is_disabled":false,"rental_uris":{"android":"levelo://app?vid=888522e3-39b6-4ff3-ad74-ff6c6f771157","ios":"levelo://app?vid=888522e3-39b6-4ff3-ad74-ff6c6f771157"},"vehicle_type_id":"4","last_reported":1752059359,"current_range_meters":8400,"station_id":"","pricing_plan_id":"cebpf4jnsgd1na2vs0mg"},{"bike_id":"952730f8-1666-4cb0-af37-9666cf0370eb","system_id":"levelo_inurba_marseille","lat":43.26028,"lon":5.37552,"is_reserved":false,"is_disabled":false,"rental_uris":{"android":"levelo://app?vid=952730f8-1666-4cb0-af37-9666cf0370eb","ios":"levelo://app?vid=952730f8-1666-4cb0-af37-9666cf0370eb"},"vehicle_type_id":"4","last_reported":1752059359,"current_range_meters":8400,"station_id":"ce4bhgh2rcd13ifvqfa0","pricing_plan_id":"cebpf4jnsgd1na2vs0mg"},{"bike_id":"d0b64534-1b05-447f-a929-92f0fcfbd85d","system_id":"levelo_inurba_marseille","lat":43.32109,"lon":5.36771,"is_reserved":false,"is_disabled":false,"rental_uris":{"android":"levelo://app?vid=d0b64534-1b05-447f-a929-92f0fcfbd85d","ios":"levelo://app?vid=d0b64534-1b05-447f-a929-92f0fcfbd85d"},"vehicle_type_id":"4","last_reported":1752059359,"current_range_meters":8400,"station_id":"ce4bhrh2rcd13ifvqhug","pricing_plan_id":"cebpf4jnsgd1na2vs0mg"},{"bike_id":"cc17e2d1-06af-4be0-997a-1fae9d357e3d","system_id":"levelo_inurba_marseille","lat":43.282623,"lon":5.350626,"is_reserved":false,"is_disabled":true,"rental_uris":{"android":"levelo://app?vid=cc17e2d1-06af-4be0-997a-1fae9d357e3d","ios":"levelo://app?vid=cc17e2d1-06af-4be0-997a-1fae9d357e3d"},"vehicle_type_id":"4","last_reported":1752059359,"current_range_meters":8800,"station_id":"ce4bhbp2rcd13ifvqerg","pricing_plan_id":"cebpf4jnsgd1na2vs0mg"},{"bike_id":"069759f3-8488-4973-b337-5e447fc27e24","system_id":"levelo_inurba_marseille","lat":43.21194,"lon":5.35079,"is_reserved":false,"is_disabled":false,"rental_uris":{"android":"levelo://app?vid=069759f3-8488-4973-b337-5e447fc27e24","ios":"levelo://app?vid=069759f3-8488-4973-b337-5e447fc27e24"},"vehicle_type_id":"4","last_reported":1752059359,"current_range_meters":8800,"station_id":"st_cvj6sg6p6f1abm77japg","pricing_plan_id":"cebpf4jnsgd1na2vs0mg"},{"bike_id":"6cde8caf-1756-453c-88e0-a2cf34da7410","system_id":"levelo_inurba_marseille","lat":43.31373,"lon":5.36766,"is_reserved":false,"is_disabled":false,"rental_uris":{"android":"levelo://app?vid=6cde8caf-1756-453c-88e0-a2cf34da7410","ios":"levelo://app?vid=6cde8caf-1756-453c-88e0-a2cf34da7410"},"vehicle_type_id":"4","last_reported":1752059359,"current_range_meters":9200,"station_id":"","pricing_plan_id":"cebpf4jnsgd1na2vs0mg"},{"bike_id":"63a29694-4af7-4a38-a698-5b65cb87714a","system_id":"levelo_inurba_marseille","lat":43.32018,"lon":5.408306,"is_reserved":false,"is_disabled":false,"rental_uris":{"android":"levelo://app?vid=63a29694-4af7-4a38-a698-5b65cb87714a","ios":"levelo://app?vid=63a29694-4af7-4a38-a698-5b65cb87714a"},"vehicle_type_id":"4","last_reported":1752059359,"current_range_meters":9200,"station_id":"","pricing_plan_id":"cebpf4jnsgd1na2vs0mg"},{"bike_id":"4ac06cd8-ff54-487d-9cf0-dae6ab1dcfbd","system_id":"levelo_inurba_marseille","lat":43.29973,"lon":5.38489,"is_reserved":false,"is_disabled":false,"rental_uris":{"android":"levelo://app?vid=4ac06cd8-ff54-487d-9cf0-dae6ab1dcfbd","ios":"levelo://app?vid=4ac06cd8-ff54-487d-9cf0-dae6ab1dcfbd"},"vehicle_type_id":"4","last_reported":1752059359,"current_range_meters":9600,"station_id":"ce4bgj92rcd13ifvqbd0","pricing_plan_id":"cebpf4jnsgd1na2vs0mg"},{"bike_id":"5dd31c92-dccb-4c98-bf89-618bd17ccc43","system_id":"levelo_inurba_marseille","lat":43.31714,"lon":5.40453,"is_reserved":false,"is_disabled":false,"rental_uris":{"android":"levelo://app?vid=5dd31c92-dccb-4c98-bf89-618bd17ccc43","ios":"levelo://app?vid=5dd31c92-dccb-4c98-bf89-618bd17ccc43"},"vehicle_type_id":"4","last_reported":1752059359,"current_range_meters":9600,"station_id":"ce4bh012rcd13ifvqd00","pricing_plan_id":"cebpf4jnsgd1na2vs0mg"},{"bike_id":"786d1f8e-48d7-45a6-98f0-0a0695f005c7","system_id":"levelo_inurba_marseille","lat":43.23964,"lon":5.3663,"is_reserved":false,"is_disabled":false,"rental_uris":{"android":"levelo://app?vid=786d1f8e-48d7-45a6-98f0-0a0695f005c7","ios":"levelo://app?vid=786d1f8e-48d7-45a6-98f0-0a0695f005c7"},"vehicle_type_id":"4","last_reported":1752059359,"current_range_meters":9600,"station_id":"ce4bhi12rcd13ifvqfp0","pricing_plan_id":"cebpf4jnsgd1na2vs0mg"},{"bike_id":"d5ef770d-9759-47e3-b3a5-7d2785ef76db","system_id":"levelo_inurba_marseille","lat":43.32929,"lon":5.39031,"is_reserved":false,"is_disabled":false,"rental_uris":{"android":"levelo://app?vid=d5ef770d-9759-47e3-b3a5-7d2785ef76db","ios":"levelo://app?vid=d5ef770d-9759-47e3-b3a5-7d2785ef76db"},"vehicle_type_id":"4","last_reported":1752059359,"current_range_meters":10000,"station_id":"","pricing_plan_id":"cebpf4jnsgd1na2vs0mg"},{"bike_id":"3030cb07-c041-4d87-a253-8c849c24aa85","system_id":"levelo_inurba_marseille","lat":43.3267,"lon":5.36232,"is_reserved":false,"is_disabled":false,"rental_uris":{"android":"levelo://app?vid=3030cb07-c041-4d87-a253-8c849c24aa85","ios":"levelo://app?vid=3030cb07-c041-4d87-a253-8c849c24aa85"},"vehicle_type_id":"4","last_reported":1752059359,"current_range_meters":10000,"station_id":"","pricing_plan_id":"cebpf4jnsgd1na2vs0mg"},{"bike_id":"87c2d236-4978-4760-be77-27d7f5a212e4","system_id":"levelo_inurba_marseille","lat":43.29644,"lon":5.36205,"is_reserved":false,"is_disabled":false,"rental_uris":{"android":"levelo://app?vid=87c2d236-4978-4760-be77-27d7f5a212e4","ios":"levelo://app?vid=87c2d236-4978-4760-be77-27d7f5a212e4"},"vehicle_type_id":"4","last_reported":1752059359,"current_range_meters":10800,"station_id":"","pricing_plan_id":"cebpf4jnsgd1na2vs0mg"},{"bike_id":"78e63012-7eac-48e2-ab8a-ca1d31c598c8","system_id":"levelo_inurba_marseille","lat":43.2987,"lon":5.39747,"is_reserved":false,"is_disabled":false,"rental_uris":{"android":"levelo://app?vid=78e63012-7eac-48e2-ab8a-ca1d31c598c8","ios":"levelo://app?vid=78e63012-7eac-48e2-ab8a-ca1d31c598c8"},"vehicle_type_id":"4","last_reported":1752059359,"current_range_meters":10800,"station_id":"ce4bh0h2rcd13ifvqd50","pricing_plan_id":"cebpf4jnsgd1na2vs0mg"},{"bike_id":"69709d11-c04f-4c9b-b3c8-4ad90492fea3","system_id":"levelo_inurba_marseille","lat":43.26198,"lon":5.37922,"is_reserved":false,"is_disabled":false,"rental_uris":{"android":"levelo://app?vid=69709d11-c04f-4c9b-b3c8-4ad90492fea3","ios":"levelo://app?vid=69709d11-c04f-4c9b-b3c8-4ad90492fea3"},"vehicle_type_id":"4","last_reported":1752059359,"current_range_meters":10800,"station_id":"ce4bhjp2rcd13ifvqg90","pricing_plan_id":"cebpf4jnsgd1na2vs0mg"},{"bike_id":"c7aefbf6-d429-4417-9b42-28596189db33","system_id":"levelo_inurba_marseille","lat":43.284128,"lon":5.349958,"is_reserved":false,"is_disabled":false,"rental_uris":{"android":"levelo://app?vid=c7aefbf6-d429-4417-9b42-28596189db33","ios":"levelo://app?vid=c7aefbf6-d429-4417-9b42-28596189db33"},"vehicle_type_id":"4","last_reported":1752059359,"current_range_meters":11200,"station_id":"ce4bhbh2rcd13ifvqepg","pricing_plan_id":"cebpf4jnsgd1na2vs0mg"},{"bike_id":"20904a9f-6955-47a0-a760-4d70dd099470","system_id":"levelo_inurba_marseille","lat":43.23302,"lon":5.40053,"is_reserved":false,"is_disabled":false,"rental_uris":{"android":"levelo://app?vid=20904a9f-6955-47a0-a760-4d70dd099470","ios":"levelo://app?vid=20904a9f-6955-47a0-a760-4d70dd099470"},"vehicle_type_id":"4","last_reported":1752059359,"current_range_meters":11600,"station_id":"","pricing_plan_id":"cebpf4jnsgd1na2vs0mg"},{"bike_id":"cd1196aa-2423-4797-ac17-6f5a7a5c0564","system_id":"levelo_inurba_marseille","lat":43.31202,"lon":5.36836,"is_reserved":false,"is_disabled":false,"rental_uris":{"android":"levelo://app?vid=cd1196aa-2423-4797-ac17-6f5a7a5c0564","ios":"levelo://app?vid=cd1196aa-2423-4797-ac17-6f5a7a5c0564"},"vehicle_type_id":"4","last_reported":1752059359,"current_range_meters":11600,"station_id":"ce4bgl92rcd13ifvqbq0","pricing_plan_id":"cebpf4jnsgd1na2vs0mg"},{"bike_id":"a74d1421-7a37-499b-b1c4-5e1394842b7e","system_id":"levelo_inurba_marseille","lat":43.337166,"lon":5.391751,"is_reserved":false,"is_disabled":false,"rental_uris":{"android":"levelo://app?vid=a74d1421-7a37-499b-b1c4-5e1394842b7e","ios":"levelo://app?vid=a74d1421-7a37-499b-b1c4-5e1394842b7e"},"vehicle_type_id":"4","last_reported":1752059359,"current_range_meters":11600,"station_id":"ce4bhr92rcd13ifvqhsg","pricing_plan_id":"cebpf4jnsgd1na2vs0mg"},{"bike_id":"16e3a4d1-f83f-45c5-8ae5-14ee1cfb1e06","system_id":"levelo_inurba_marseille","lat":43.28494,"lon":5.38574,"is_reserved":false,"is_disabled":false,"rental_uris":{"android":"levelo://app?vid=16e3a4d1-f83f-45c5-8ae5-14ee1cfb1e06","ios":"levelo://app?vid=16e3a4d1-f83f-45c5-8ae5-14ee1cfb1e06"},"vehicle_type_id":"4","last_reported":1752059359,"current_range_meters":12000,"station_id":"ce4bh8p2rcd13ifvqeb0","pricing_plan_id":"cebpf4jnsgd1na2vs0mg"},{"bike_id":"3bd8b8a3-512e-4c45-8839-c2f9349ff4ec","system_id":"levelo_inurba_marseille","lat":43.21754,"lon":5.34602,"is_reserved":false,"is_disabled":false,"rental_uris":{"android":"levelo://app?vid=3bd8b8a3-512e-4c45-8839-c2f9349ff4ec","ios":"levelo://app?vid=3bd8b8a3-512e-4c45-8839-c2f9349ff4ec"},"vehicle_type_id":"4","last_reported":1752059359,"current_range_meters":12400,"station_id":"","pricing_plan_id":"cebpf4jnsgd1na2vs0mg"},{"bike_id":"a7ed6100-ae67-4fc3-ba1a-853a0dd09bed","system_id":"levelo_inurba_marseille","lat":43.27502,"lon":5.42448,"is_reserved":false,"is_disabled":false,"rental_uris":{"android":"levelo://app?vid=a7ed6100-ae67-4fc3-ba1a-853a0dd09bed","ios":"levelo://app?vid=a7ed6100-ae67-4fc3-ba1a-853a0dd09bed"},"vehicle_type_id":"4","last_reported":1752059359,"current_range_meters":12400,"station_id":"ce4bhn92rcd13ifvqgrg","pricing_plan_id":"cebpf4jnsgd1na2vs0mg"},{"bike_id":"ca2bab86-416f-413e-81b0-5002099ee069","system_id":"levelo_inurba_marseille","lat":43.2759,"lon":5.42034,"is_reserved":false,"is_disabled":false,"rental_uris":{"android":"levelo://app?vid=ca2bab86-416f-413e-81b0-5002099ee069","ios":"levelo://app?vid=ca2bab86-416f-413e-81b0-5002099ee069"},"vehicle_type_id":"4","last_reported":1752059359,"current_range_meters":12800,"station_id":"","pricing_plan_id":"cebpf4jnsgd1na2vs0mg"},{"bike_id":"840281e7-03cf-4e27-8ab0-ed5dcfb45157","system_id":"levelo_inurba_marseille","lat":43.30903,"lon":5.36862,"is_reserved":false,"is_disabled":false,"rental_uris":{"android":"levelo://app?vid=840281e7-03cf-4e27-8ab0-ed5dcfb45157","ios":"levelo://app?vid=840281e7-03cf-4e27-8ab0-ed5dcfb45157"},"vehicle_type_id":"4","last_reported":1752059359,"current_range_meters":12800,"station_id":"ce4bgn92rcd13ifvqbvg","pricing_plan_id":"cebpf4jnsgd1na2vs0mg"},{"bike_id":"f72779da-b375-4796-a119-0dbd4deb15ea","system_id":"levelo_inurba_marseille","lat":43.29957,"lon":5.41319,"is_reserved":false,"is_disabled":false,"rental_uris":{"android":"levelo://app?vid=f72779da-b375-4796-a119-0dbd4deb15ea","ios":"levelo://app?vid=f72779da-b375-4796-a119-0dbd4deb15ea"},"vehicle_type_id":"4","last_reported":1752059359,"current_range_meters":12800,"station_id":"ce4bhp12rcd13ifvqh9g","pricing_plan_id":"cebpf4jnsgd1na2vs0mg"},{"bike_id":"84e7e709-4e4f-4764-818c-af719435bfca","system_id":"levelo_inurba_marseille","lat":43.3177,"lon":5.37367,"is_reserved":false,"is_disabled":false,"rental_uris":{"android":"levelo://app?vid=84e7e709-4e4f-4764-818c-af719435bfca","ios":"levelo://app?vid=84e7e709-4e4f-4764-818c-af719435bfca"},"vehicle_type_id":"4","last_reported":1752059359,"current_range_meters":13600,"station_id":"","pricing_plan_id":"cebpf4jnsgd1na2vs0mg"},{"bike_id":"bde08aa5-d32a-402e-bf7b-be86cc9d17bb","system_id":"levelo_inurba_marseille","lat":43.27614,"lon":5.36121,"is_reserved":false,"is_disabled":false,"rental_uris":{"android":"levelo://app?vid=bde08aa5-d32a-402e-bf7b-be86cc9d17bb","ios":"levelo://app?vid=bde08aa5-d32a-402e-bf7b-be86cc9d17bb"},"vehicle_type_id":"4","last_reported":1752059359,"current_range_meters":13600,"station_id":"ce4bgj92rcd13ifvqbe0","pricing_plan_id":"cebpf4jnsgd1na2vs0mg"},{"bike_id":"694a64a1-eff6-450b-9afd-a750de52907d","system_id":"levelo_inurba_marseille","lat":43.29581,"lon":5.36736,"is_reserved":false,"is_disabled":false,"rental_uris":{"android":"levelo://app?vid=694a64a1-eff6-450b-9afd-a750de52907d","ios":"levelo://app?vid=694a64a1-eff6-450b-9afd-a750de52907d"},"vehicle_type_id":"4","last_reported":1752059359,"current_range_meters":13600,"station_id":"ce4bgph2rcd13ifvqc2g","pricing_plan_id":"cebpf4jnsgd1na2vs0mg"},{"bike_id":"0818bffc-8329-40b4-975d-b89bc0e88ee0","system_id":"levelo_inurba_marseille","lat":43.30317,"lon":5.36904,"is_reserved":false,"is_disabled":false,"rental_uris":{"android":"levelo://app?vid=0818bffc-8329-40b4-975d-b89bc0e88ee0","ios":"levelo://app?vid=0818bffc-8329-40b4-975d-b89bc0e88ee0"},"vehicle_type_id":"4","last_reported":1752059359,"current_range_meters":13600,"station_id":"ce4bgqh2rcd13ifvqc5g","pricing_plan_id":"cebpf4jnsgd1na2vs0mg"},{"bike_id":"10a22b60-1e4f-48f4-9350-53b15caaed4a","system_id":"levelo_inurba_marseille","lat":43.305374,"lon":5.365592,"is_reserved":false,"is_disabled":false,"rental_uris":{"android":"levelo://app?vid=10a22b60-1e4f-48f4-9350-53b15caaed4a","ios":"levelo://app?vid=10a22b60-1e4f-48f4-9350-53b15caaed4a"},"vehicle_type_id":"4","last_reported":1752059359,"current_range_meters":13600,"station_id":"ce4bgs12rcd13ifvqcag","pricing_plan_id":"cebpf4jnsgd1na2vs0mg"},{"bike_id":"a5a1db4c-4dcc-46e5-a84f-c0fb8283b97a","system_id":"levelo_inurba_marseille","lat":43.24071,"lon":5.37756,"is_reserved":false,"is_disabled":false,"rental_uris":{"android":"levelo://app?vid=a5a1db4c-4dcc-46e5-a84f-c0fb8283b97a","ios":"levelo://app?vid=a5a1db4c-4dcc-46e5-a84f-c0fb8283b97a"},"vehicle_type_id":"4","last_reported":1752059359,"current_range_meters":13600,"station_id":"ce4bhnp2rcd13ifvqgvg","pricing_plan_id":"cebpf4jnsgd1na2vs0mg"},{"bike_id":"34b55799-542c-46b7-822d-1daf5f1fbae9","system_id":"levelo_inurba_marseille","lat":43.24179,"lon":5.39739,"is_reserved":false,"is_disabled":false,"rental_uris":{"android":"levelo://app?vid=34b55799-542c-46b7-822d-1daf5f1fbae9","ios":"levelo://app?vid=34b55799-542c-46b7-822d-1daf5f1fbae9"},"vehicle_type_id":"4","last_reported":1752059359,"current_range_meters":14000,"station_id":"ce4bhn12rcd13ifvqgpg","pricing_plan_id":"cebpf4jnsgd1na2vs0mg"},{"bike_id":"28120893-200c-45ab-8213-7c6edd218e47","system_id":"levelo_inurba_marseille","lat":43.28613,"lon":5.35103,"is_reserved":false,"is_disabled":false,"rental_uris":{"android":"levelo://app?vid=28120893-200c-45ab-8213-7c6edd218e47","ios":"levelo://app?vid=28120893-200c-45ab-8213-7c6edd218e47"},"vehicle_type_id":"4","last_reported":1752059359,"current_range_meters":14400,"station_id":"ce4bhch2rcd13ifvqeug","pricing_plan_id":"cebpf4jnsgd1na2vs0mg"},{"bike_id":"78144b5a-9ed1-4d00-94db-9cefda8b0ea8","system_id":"levelo_inurba_marseille","lat":43.3269,"lon":5.41004,"is_reserved":false,"is_disabled":false,"rental_uris":{"android":"levelo://app?vid=78144b5a-9ed1-4d00-94db-9cefda8b0ea8","ios":"levelo://app?vid=78144b5a-9ed1-4d00-94db-9cefda8b0ea8"},"vehicle_type_id":"4","last_reported":1752059359,"current_range_meters":14400,"station_id":"ce4bhpp2rcd13ifvqhgg","pricing_plan_id":"cebpf4jnsgd1na2vs0mg"},{"bike_id":"ac39d365-5643-4610-bf4b-0e5167a77f88","system_id":"levelo_inurba_marseille","lat":43.33719,"lon":5.39177,"is_reserved":false,"is_disabled":false,"rental_uris":{"android":"levelo://app?vid=ac39d365-5643-4610-bf4b-0e5167a77f88","ios":"levelo://app?vid=ac39d365-5643-4610-bf4b-0e5167a77f88"},"vehicle_type_id":"4","last_reported":1752059359,"current_range_meters":14400,"station_id":"ce4bhr92rcd13ifvqhsg","pricing_plan_id":"cebpf4jnsgd1na2vs0mg"},{"bike_id":"92723143-8968-4bee-b587-2124763e96cc","system_id":"levelo_inurba_marseille","lat":43.23201,"lon":5.35565,"is_reserved":false,"is_disabled":false,"rental_uris":{"android":"levelo://app?vid=92723143-8968-4bee-b587-2124763e96cc","ios":"levelo://app?vid=92723143-8968-4bee-b587-2124763e96cc"},"vehicle_type_id":"4","last_reported":1752059359,"current_range_meters":14400,"station_id":"ce4bhu92rcd13ifvqi70","pricing_plan_id":"cebpf4jnsgd1na2vs0mg"},{"bike_id":"4975b22d-8c48-452f-bd19-7a9d3ed7c378","system_id":"levelo_inurba_marseille","lat":43.29676,"lon":5.37424,"is_reserved":false,"is_disabled":false,"rental_uris":{"android":"levelo://app?vid=4975b22d-8c48-452f-bd19-7a9d3ed7c378","ios":"levelo://app?vid=4975b22d-8c48-452f-bd19-7a9d3ed7c378"},"vehicle_type_id":"4","last_reported":1752059359,"current_range_meters":14800,"station_id":"","pricing_plan_id":"cebpf4jnsgd1na2vs0mg"},{"bike_id":"f573a8fb-f1f8-47c4-901e-ddf2739a5cca","system_id":"levelo_inurba_marseille","lat":43.360077,"lon":5.324917,"is_reserved":false,"is_disabled":false,"rental_uris":{"android":"levelo://app?vid=f573a8fb-f1f8-47c4-901e-ddf2739a5cca","ios":"levelo://app?vid=f573a8fb-f1f8-47c4-901e-ddf2739a5cca"},"vehicle_type_id":"4","last_reported":1752059359,"current_range_meters":14800,"station_id":"","pricing_plan_id":"cebpf4jnsgd1na2vs0mg"},{"bike_id":"c2b72fe0-bae6-4c7b-ad48-9e771b203dc8","system_id":"levelo_inurba_marseille","lat":43.313662,"lon":5.384726,"is_reserved":false,"is_disabled":false,"rental_uris":{"android":"levelo://app?vid=c2b72fe0-bae6-4c7b-ad48-9e771b203dc8","ios":"levelo://app?vid=c2b72fe0-bae6-4c7b-ad48-9e771b203dc8"},"vehicle_type_id":"4","last_reported":1752059359,"current_range_meters":14800,"station_id":"ce4bgt92rcd13ifvqcf0","pricing_plan_id":"cebpf4jnsgd1na2vs0mg"},{"bike_id":"2b361729-3518-412b-a4b4-84305b7ae057","system_id":"levelo_inurba_marseille","lat":43.27317,"lon":5.39086,"is_reserved":false,"is_disabled":false,"rental_uris":{"android":"levelo://app?vid=2b361729-3518-412b-a4b4-84305b7ae057","ios":"levelo://app?vid=2b361729-3518-412b-a4b4-84305b7ae057"},"vehicle_type_id":"4","last_reported":1752059359,"current_range_meters":14800,"station_id":"ce4bhgp2rcd13ifvqfe0","pricing_plan_id":"cebpf4jnsgd1na2vs0mg"},{"bike_id":"e3b1ce06-2eb1-4464-bdfe-b6547a23d4a6","system_id":"levelo_inurba_marseille","lat":43.26549,"lon":5.37298,"is_reserved":false,"is_disabled":false,"rental_uris":{"android":"levelo://app?vid=e3b1ce06-2eb1-4464-bdfe-b6547a23d4a6","ios":"levelo://app?vid=e3b1ce06-2eb1-4464-bdfe-b6547a23d4a6"},"vehicle_type_id":"4","last_reported":1752059359,"current_range_meters":15200,"station_id":"ce4bhg12rcd13ifvqf70","pricing_plan_id":"cebpf4jnsgd1na2vs0mg"},{"bike_id":"b2caa530-bb19-4cc6-a6bd-61e3e1d7432e","system_id":"levelo_inurba_marseille","lat":43.33763,"lon":5.37461,"is_reserved":false,"is_disabled":false,"rental_uris":{"android":"levelo://app?vid=b2caa530-bb19-4cc6-a6bd-61e3e1d7432e","ios":"levelo://app?vid=b2caa530-bb19-4cc6-a6bd-61e3e1d7432e"},"vehicle_type_id":"4","last_reported":1752059359,"current_range_meters":16000,"station_id":"","pricing_plan_id":"cebpf4jnsgd1na2vs0mg"},{"bike_id":"8b52e051-4e83-4103-a98d-28f12690ba46","system_id":"levelo_inurba_marseille","lat":43.305,"lon":5.3947,"is_reserved":false,"is_disabled":false,"rental_uris":{"android":"levelo://app?vid=8b52e051-4e83-4103-a98d-28f12690ba46","ios":"levelo://app?vid=8b52e051-4e83-4103-a98d-28f12690ba46"},"vehicle_type_id":"4","last_reported":1752059359,"current_range_meters":16000,"station_id":"","pricing_plan_id":"cebpf4jnsgd1na2vs0mg"},{"bike_id":"f5c16f07-bc6f-4121-91a7-5ad90eec4f34","system_id":"levelo_inurba_marseille","lat":43.31226,"lon":5.37333,"is_reserved":false,"is_disabled":false,"rental_uris":{"android":"levelo://app?vid=f5c16f07-bc6f-4121-91a7-5ad90eec4f34","ios":"levelo://app?vid=f5c16f07-bc6f-4121-91a7-5ad90eec4f34"},"vehicle_type_id":"4","last_reported":1752059359,"current_range_meters":16000,"station_id":"","pricing_plan_id":"cebpf4jnsgd1na2vs0mg"},{"bike_id":"051587ea-875b-403d-86d2-9ba3e6dd3d64","system_id":"levelo_inurba_marseille","lat":43.31076,"lon":5.38353,"is_reserved":false,"is_disabled":false,"rental_uris":{"android":"levelo://app?vid=051587ea-875b-403d-86d2-9ba3e6dd3d64","ios":"levelo://app?vid=051587ea-875b-403d-86d2-9ba3e6dd3d64"},"vehicle_type_id":"4","last_reported":1752059359,"current_range_meters":16000,"station_id":"ce4bgv92rcd13ifvqcr0","pricing_plan_id":"cebpf4jnsgd1na2vs0mg"},{"bike_id":"10ea023d-f40b-46c4-b5fd-f95447fe3331","system_id":"levelo_inurba_marseille","lat":43.31333,"lon":5.39708,"is_reserved":false,"is_disabled":false,"rental_uris":{"android":"levelo://app?vid=10ea023d-f40b-46c4-b5fd-f95447fe3331","ios":"levelo://app?vid=10ea023d-f40b-46c4-b5fd-f95447fe3331"},"vehicle_type_id":"4","last_reported":1752059359,"current_range_meters":16000,"station_id":"ce4bgvp2rcd13ifvqcu0","pricing_plan_id":"cebpf4jnsgd1na2vs0mg"},{"bike_id":"787512f5-7d91-4e8f-abdc-6333f6ccf085","system_id":"levelo_inurba_marseille","lat":43.27944,"lon":5.41049,"is_reserved":false,"is_disabled":false,"rental_uris":{"android":"levelo://app?vid=787512f5-7d91-4e8f-abdc-6333f6ccf085","ios":"levelo://app?vid=787512f5-7d91-4e8f-abdc-6333f6ccf085"},"vehicle_type_id":"4","last_reported":1752059359,"current_range_meters":16000,"station_id":"ce4bhnp2rcd13ifvqh0g","pricing_plan_id":"cebpf4jnsgd1na2vs0mg"},{"bike_id":"b6d9b946-f66a-4c6f-96e5-5d23e176360c","system_id":"levelo_inurba_marseille","lat":43.31315,"lon":5.38172,"is_reserved":false,"is_disabled":false,"rental_uris":{"android":"levelo://app?vid=b6d9b946-f66a-4c6f-96e5-5d23e176360c","ios":"levelo://app?vid=b6d9b946-f66a-4c6f-96e5-5d23e176360c"},"vehicle_type_id":"4","last_reported":1752059359,"current_range_meters":16400,"station_id":"","pricing_plan_id":"cebpf4jnsgd1na2vs0mg"},{"bike_id":"b757ffbb-2b71-4330-9f60-5f8a9d46d16e","system_id":"levelo_inurba_marseille","lat":43.29665,"lon":5.37117,"is_reserved":false,"is_disabled":false,"rental_uris":{"android":"levelo://app?vid=b757ffbb-2b71-4330-9f60-5f8a9d46d16e","ios":"levelo://app?vid=b757ffbb-2b71-4330-9f60-5f8a9d46d16e"},"vehicle_type_id":"4","last_reported":1752059359,"current_range_meters":16400,"station_id":"","pricing_plan_id":"cebpf4jnsgd1na2vs0mg"},{"bike_id":"93d6be08-2471-48d7-9948-c35dc9626201","system_id":"levelo_inurba_marseille","lat":43.31714,"lon":5.37647,"is_reserved":false,"is_disabled":false,"rental_uris":{"android":"levelo://app?vid=93d6be08-2471-48d7-9948-c35dc9626201","ios":"levelo://app?vid=93d6be08-2471-48d7-9948-c35dc9626201"},"vehicle_type_id":"4","last_reported":1752059359,"current_range_meters":16400,"station_id":"","pricing_plan_id":"cebpf4jnsgd1na2vs0mg"},{"bike_id":"65ad5f56-9134-4f81-8739-8a81249ab227","system_id":"levelo_inurba_marseille","lat":43.31326,"lon":5.39701,"is_reserved":false,"is_disabled":false,"rental_uris":{"android":"levelo://app?vid=65ad5f56-9134-4f81-8739-8a81249ab227","ios":"levelo://app?vid=65ad5f56-9134-4f81-8739-8a81249ab227"},"vehicle_type_id":"4","last_reported":1752059359,"current_range_meters":16400,"station_id":"ce4bgvp2rcd13ifvqcu0","pricing_plan_id":"cebpf4jnsgd1na2vs0mg"},{"bike_id":"9a1756b5-8f95-4c08-ace0-742d57de3952","system_id":"levelo_inurba_marseille","lat":43.28858,"lon":5.35852,"is_reserved":false,"is_disabled":false,"rental_uris":{"android":"levelo://app?vid=9a1756b5-8f95-4c08-ace0-742d57de3952","ios":"levelo://app?vid=9a1756b5-8f95-4c08-ace0-742d57de3952"},"vehicle_type_id":"4","last_reported":1752059359,"current_range_meters":16400,"station_id":"ce4bhb12rcd13ifvqem0","pricing_plan_id":"cebpf4jnsgd1na2vs0mg"},{"bike_id":"2d1ba069-148e-4afe-8998-8823c6bfbb09","system_id":"levelo_inurba_marseille","lat":43.28274,"lon":5.3508,"is_reserved":false,"is_disabled":false,"rental_uris":{"android":"levelo://app?vid=2d1ba069-148e-4afe-8998-8823c6bfbb09","ios":"levelo://app?vid=2d1ba069-148e-4afe-8998-8823c6bfbb09"},"vehicle_type_id":"4","last_reported":1752059359,"current_range_meters":16400,"station_id":"ce4bhbp2rcd13ifvqerg","pricing_plan_id":"cebpf4jnsgd1na2vs0mg"},{"bike_id":"7dc48cb7-b742-4446-8d3e-f56bc6d6cf97","system_id":"levelo_inurba_marseille","lat":43.26183,"lon":5.37476,"is_reserved":false,"is_disabled":false,"rental_uris":{"android":"levelo://app?vid=7dc48cb7-b742-4446-8d3e-f56bc6d6cf97","ios":"levelo://app?vid=7dc48cb7-b742-4446-8d3e-f56bc6d6cf97"},"vehicle_type_id":"4","last_reported":1752059359,"current_range_meters":16400,"station_id":"ce4bhgp2rcd13ifvqfc0","pricing_plan_id":"cebpf4jnsgd1na2vs0mg"},{"bike_id":"aceeef74-f20c-4a2f-a75a-700f0d805a9b","system_id":"levelo_inurba_marseille","lat":43.2681,"lon":5.4027,"is_reserved":false,"is_disabled":false,"rental_uris":{"android":"levelo://app?vid=aceeef74-f20c-4a2f-a75a-700f0d805a9b","ios":"levelo://app?vid=aceeef74-f20c-4a2f-a75a-700f0d805a9b"},"vehicle_type_id":"4","last_reported":1752059359,"current_range_meters":16400,"station_id":"ce501612rcd8frsf0b60","pricing_plan_id":"cebpf4jnsgd1na2vs0mg"},{"bike_id":"6e5c2657-ccb8-4153-8b94-2143bc427a03","system_id":"levelo_inurba_marseille","lat":43.22506,"lon":5.34796,"is_reserved":false,"is_disabled":false,"rental_uris":{"android":"levelo://app?vid=6e5c2657-ccb8-4153-8b94-2143bc427a03","ios":"levelo://app?vid=6e5c2657-ccb8-4153-8b94-2143bc427a03"},"vehicle_type_id":"4","last_reported":1752059359,"current_range_meters":16400,"station_id":"st_cvj5dfep6f1abm77gieg","pricing_plan_id":"cebpf4jnsgd1na2vs0mg"},{"bike_id":"b28aa0a0-791c-4a08-9a16-c7bf6ea0ed5a","system_id":"levelo_inurba_marseille","lat":43.22495,"lon":5.34829,"is_reserved":false,"is_disabled":false,"rental_uris":{"android":"levelo://app?vid=b28aa0a0-791c-4a08-9a16-c7bf6ea0ed5a","ios":"levelo://app?vid=b28aa0a0-791c-4a08-9a16-c7bf6ea0ed5a"},"vehicle_type_id":"4","last_reported":1752059359,"current_range_meters":16400,"station_id":"st_cvj5dfep6f1abm77gieg","pricing_plan_id":"cebpf4jnsgd1na2vs0mg"},{"bike_id":"e258ced5-853f-40b2-b1a6-3244e6edf0da","system_id":"levelo_inurba_marseille","lat":43.295375,"lon":5.385423,"is_reserved":false,"is_disabled":false,"rental_uris":{"android":"levelo://app?vid=e258ced5-853f-40b2-b1a6-3244e6edf0da","ios":"levelo://app?vid=e258ced5-853f-40b2-b1a6-3244e6edf0da"},"vehicle_type_id":"4","last_reported":1752059359,"current_range_meters":16800,"station_id":"ce4bgih2rcd13ifvqba0","pricing_plan_id":"cebpf4jnsgd1na2vs0mg"},{"bike_id":"95812410-c4e8-49ab-982f-ce11af1fbbc7","system_id":"levelo_inurba_marseille","lat":43.29632,"lon":5.40596,"is_reserved":false,"is_disabled":false,"rental_uris":{"android":"levelo://app?vid=95812410-c4e8-49ab-982f-ce11af1fbbc7","ios":"levelo://app?vid=95812410-c4e8-49ab-982f-ce11af1fbbc7"},"vehicle_type_id":"4","last_reported":1752059359,"current_range_meters":16800,"station_id":"ce4bh0h2rcd13ifvqd60","pricing_plan_id":"cebpf4jnsgd1na2vs0mg"},{"bike_id":"8e91adc0-5419-476b-9505-4a2ef9f05354","system_id":"levelo_inurba_marseille","lat":43.26932,"lon":5.38924,"is_reserved":false,"is_disabled":false,"rental_uris":{"android":"levelo://app?vid=8e91adc0-5419-476b-9505-4a2ef9f05354","ios":"levelo://app?vid=8e91adc0-5419-476b-9505-4a2ef9f05354"},"vehicle_type_id":"4","last_reported":1752059359,"current_range_meters":16800,"station_id":"ce4bhhh2rcd13ifvqfl0","pricing_plan_id":"cebpf4jnsgd1na2vs0mg"},{"bike_id":"1be39311-cfa5-4cbb-b93d-fb0870d6e611","system_id":"levelo_inurba_marseille","lat":43.21196,"lon":5.35072,"is_reserved":false,"is_disabled":false,"rental_uris":{"android":"levelo://app?vid=1be39311-cfa5-4cbb-b93d-fb0870d6e611","ios":"levelo://app?vid=1be39311-cfa5-4cbb-b93d-fb0870d6e611"},"vehicle_type_id":"4","last_reported":1752059359,"current_range_meters":16800,"station_id":"st_cvj6sg6p6f1abm77japg","pricing_plan_id":"cebpf4jnsgd1na2vs0mg"},{"bike_id":"999f2a33-af15-4ca0-853a-d2550f2d6574","system_id":"levelo_inurba_marseille","lat":43.234394,"lon":5.359198,"is_reserved":false,"is_disabled":false,"rental_uris":{"android":"levelo://app?vid=999f2a33-af15-4ca0-853a-d2550f2d6574","ios":"levelo://app?vid=999f2a33-af15-4ca0-853a-d2550f2d6574"},"vehicle_type_id":"4","last_reported":1752059359,"current_range_meters":17200,"station_id":"","pricing_plan_id":"cebpf4jnsgd1na2vs0mg"},{"bike_id":"320f2a33-deaa-4e0a-a3d5-c39ce8ad680a","system_id":"levelo_inurba_marseille","lat":43.31555,"lon":5.37453,"is_reserved":false,"is_disabled":false,"rental_uris":{"android":"levelo://app?vid=320f2a33-deaa-4e0a-a3d5-c39ce8ad680a","ios":"levelo://app?vid=320f2a33-deaa-4e0a-a3d5-c39ce8ad680a"},"vehicle_type_id":"4","last_reported":1752059359,"current_range_meters":17200,"station_id":"","pricing_plan_id":"cebpf4jnsgd1na2vs0mg"},{"bike_id":"f5f72cf7-89f3-483e-9ffc-5d8503031c3a","system_id":"levelo_inurba_marseille","lat":43.29766,"lon":5.37107,"is_reserved":false,"is_disabled":false,"rental_uris":{"android":"levelo://app?vid=f5f72cf7-89f3-483e-9ffc-5d8503031c3a","ios":"levelo://app?vid=f5f72cf7-89f3-483e-9ffc-5d8503031c3a"},"vehicle_type_id":"4","last_reported":1752059359,"current_range_meters":17200,"station_id":"ce4bgop2rcd13ifvqc1g","pricing_plan_id":"cebpf4jnsgd1na2vs0mg"},{"bike_id":"31da1e31-e3d4-40a3-97a0-a72348b26613","system_id":"levelo_inurba_marseille","lat":43.28417,"lon":5.34994,"is_reserved":false,"is_disabled":false,"rental_uris":{"android":"levelo://app?vid=31da1e31-e3d4-40a3-97a0-a72348b26613","ios":"levelo://app?vid=31da1e31-e3d4-40a3-97a0-a72348b26613"},"vehicle_type_id":"4","last_reported":1752059359,"current_range_meters":17200,"station_id":"ce4bhbh2rcd13ifvqepg","pricing_plan_id":"cebpf4jnsgd1na2vs0mg"},{"bike_id":"32627a74-63b2-471e-90a2-51042b61c507","system_id":"levelo_inurba_marseille","lat":43.27189,"lon":5.41005,"is_reserved":false,"is_disabled":false,"rental_uris":{"android":"levelo://app?vid=32627a74-63b2-471e-90a2-51042b61c507","ios":"levelo://app?vid=32627a74-63b2-471e-90a2-51042b61c507"},"vehicle_type_id":"4","last_reported":1752059359,"current_range_meters":17200,"station_id":"ce4bhl12rcd13ifvqgf0","pricing_plan_id":"cebpf4jnsgd1na2vs0mg"},{"bike_id":"04e7b77f-3ec2-407c-9a46-7e17b706e799","system_id":"levelo_inurba_marseille","lat":43.241776,"lon":5.397144,"is_reserved":false,"is_disabled":false,"rental_uris":{"android":"levelo://app?vid=04e7b77f-3ec2-407c-9a46-7e17b706e799","ios":"levelo://app?vid=04e7b77f-3ec2-407c-9a46-7e17b706e799"},"vehicle_type_id":"4","last_reported":1752059359,"current_range_meters":17200,"station_id":"ce4bhn12rcd13ifvqgpg","pricing_plan_id":"cebpf4jnsgd1na2vs0mg"},{"bike_id":"57698598-17d2-4895-9ebc-edd8a1a13f51","system_id":"levelo_inurba_marseille","lat":43.323527,"lon":5.367488,"is_reserved":false,"is_disabled":false,"rental_uris":{"android":"levelo://app?vid=57698598-17d2-4895-9ebc-edd8a1a13f51","ios":"levelo://app?vid=57698598-17d2-4895-9ebc-edd8a1a13f51"},"vehicle_type_id":"4","last_reported":1752059359,"current_range_meters":17200,"station_id":"ce4bhsh2rcd13ifvqi2g","pricing_plan_id":"cebpf4jnsgd1na2vs0mg"},{"bike_id":"a443e824-b364-4874-850c-3d51c9448eb3","system_id":"levelo_inurba_marseille","lat":43.30894,"lon":5.36863,"is_reserved":false,"is_disabled":false,"rental_uris":{"android":"levelo://app?vid=a443e824-b364-4874-850c-3d51c9448eb3","ios":"levelo://app?vid=a443e824-b364-4874-850c-3d51c9448eb3"},"vehicle_type_id":"4","last_reported":1752059359,"current_range_meters":17600,"station_id":"ce4bgn92rcd13ifvqbvg","pricing_plan_id":"cebpf4jnsgd1na2vs0mg"},{"bike_id":"646b5392-1b50-4a68-839b-47031736a27f","system_id":"levelo_inurba_marseille","lat":43.28482,"lon":5.38431,"is_reserved":false,"is_disabled":false,"rental_uris":{"android":"levelo://app?vid=646b5392-1b50-4a68-839b-47031736a27f","ios":"levelo://app?vid=646b5392-1b50-4a68-839b-47031736a27f"},"vehicle_type_id":"4","last_reported":1752059359,"current_range_meters":17600,"station_id":"ce4bh512rcd13ifvqe3g","pricing_plan_id":"cebpf4jnsgd1na2vs0mg"},{"bike_id":"191da7b9-bed7-4843-89f5-6df19e076b49","system_id":"levelo_inurba_marseille","lat":43.2863,"lon":5.3513,"is_reserved":false,"is_disabled":false,"rental_uris":{"android":"levelo://app?vid=191da7b9-bed7-4843-89f5-6df19e076b49","ios":"levelo://app?vid=191da7b9-bed7-4843-89f5-6df19e076b49"},"vehicle_type_id":"4","last_reported":1752059359,"current_range_meters":17600,"station_id":"ce4bhch2rcd13ifvqeug","pricing_plan_id":"cebpf4jnsgd1na2vs0mg"},{"bike_id":"a21a1ef5-4bf5-48f8-9c15-f46ff462ebe8","system_id":"levelo_inurba_marseille","lat":43.21746,"lon":5.346,"is_reserved":false,"is_disabled":false,"rental_uris":{"android":"levelo://app?vid=a21a1ef5-4bf5-48f8-9c15-f46ff462ebe8","ios":"levelo://app?vid=a21a1ef5-4bf5-48f8-9c15-f46ff462ebe8"},"vehicle_type_id":"4","last_reported":1752059359,"current_range_meters":17600,"station_id":"st_cvj6r9ubvosntc0bgbag","pricing_plan_id":"cebpf4jnsgd1na2vs0mg"},{"bike_id":"03a57c0f-5735-408d-a37d-b33505fbf860","system_id":"levelo_inurba_marseille","lat":43.30165,"lon":5.36641,"is_reserved":false,"is_disabled":false,"rental_uris":{"android":"levelo://app?vid=03a57c0f-5735-408d-a37d-b33505fbf860","ios":"levelo://app?vid=03a57c0f-5735-408d-a37d-b33505fbf860"},"vehicle_type_id":"4","last_reported":1752059359,"current_range_meters":18000,"station_id":"ce4bgrh2rcd13ifvqc8g","pricing_plan_id":"cebpf4jnsgd1na2vs0mg"},{"bike_id":"c594f5c5-2506-407b-8dc1-21afbdddcd0c","system_id":"levelo_inurba_marseille","lat":43.310751,"lon":5.383615,"is_reserved":false,"is_disabled":false,"rental_uris":{"android":"levelo://app?vid=c594f5c5-2506-407b-8dc1-21afbdddcd0c","ios":"levelo://app?vid=c594f5c5-2506-407b-8dc1-21afbdddcd0c"},"vehicle_type_id":"4","last_reported":1752059359,"current_range_meters":18000,"station_id":"ce4bgv92rcd13ifvqcr0","pricing_plan_id":"cebpf4jnsgd1na2vs0mg"},{"bike_id":"9d2622e2-85f8-479a-86b1-db3ed800d6e1","system_id":"levelo_inurba_marseille","lat":43.31705,"lon":5.40458,"is_reserved":false,"is_disabled":false,"rental_uris":{"android":"levelo://app?vid=9d2622e2-85f8-479a-86b1-db3ed800d6e1","ios":"levelo://app?vid=9d2622e2-85f8-479a-86b1-db3ed800d6e1"},"vehicle_type_id":"4","last_reported":1752059359,"current_range_meters":18000,"station_id":"ce4bh012rcd13ifvqd00","pricing_plan_id":"cebpf4jnsgd1na2vs0mg"},{"bike_id":"33089584-174c-4f43-8d3c-27bbb718ba0d","system_id":"levelo_inurba_marseille","lat":43.28699,"lon":5.37387,"is_reserved":false,"is_disabled":false,"rental_uris":{"android":"levelo://app?vid=33089584-174c-4f43-8d3c-27bbb718ba0d","ios":"levelo://app?vid=33089584-174c-4f43-8d3c-27bbb718ba0d"},"vehicle_type_id":"4","last_reported":1752059359,"current_range_meters":18000,"station_id":"ce4bh3p2rcd13ifvqdq0","pricing_plan_id":"cebpf4jnsgd1na2vs0mg"},{"bike_id":"3c2be974-f10a-47a0-ae30-b9e120db49ce","system_id":"levelo_inurba_marseille","lat":43.25492,"lon":5.37647,"is_reserved":false,"is_disabled":false,"rental_uris":{"android":"levelo://app?vid=3c2be974-f10a-47a0-ae30-b9e120db49ce","ios":"levelo://app?vid=3c2be974-f10a-47a0-ae30-b9e120db49ce"},"vehicle_type_id":"4","last_reported":1752059359,"current_range_meters":18000,"station_id":"ce4bhh12rcd13ifvqff0","pricing_plan_id":"cebpf4jnsgd1na2vs0mg"},{"bike_id":"032a14ce-e367-40e6-a795-74d0ad4487ac","system_id":"levelo_inurba_marseille","lat":43.25948,"lon":5.40917,"is_reserved":false,"is_disabled":false,"rental_uris":{"android":"levelo://app?vid=032a14ce-e367-40e6-a795-74d0ad4487ac","ios":"levelo://app?vid=032a14ce-e367-40e6-a795-74d0ad4487ac"},"vehicle_type_id":"4","last_reported":1752059359,"current_range_meters":18000,"station_id":"ce4bhm92rcd13ifvqglg","pricing_plan_id":"cebpf4jnsgd1na2vs0mg"},{"bike_id":"0dde599a-9e49-4424-bf17-46b64f156432","system_id":"levelo_inurba_marseille","lat":43.24089,"lon":5.37777,"is_reserved":false,"is_disabled":false,"rental_uris":{"android":"levelo://app?vid=0dde599a-9e49-4424-bf17-46b64f156432","ios":"levelo://app?vid=0dde599a-9e49-4424-bf17-46b64f156432"},"vehicle_type_id":"4","last_reported":1752059359,"current_range_meters":18000,"station_id":"ce4bhnp2rcd13ifvqgvg","pricing_plan_id":"cebpf4jnsgd1na2vs0mg"},{"bike_id":"e9c52e2e-1391-4329-8438-e4f2c2348935","system_id":"levelo_inurba_marseille","lat":43.25227,"lon":5.39442,"is_reserved":false,"is_disabled":false,"rental_uris":{"android":"levelo://app?vid=e9c52e2e-1391-4329-8438-e4f2c2348935","ios":"levelo://app?vid=e9c52e2e-1391-4329-8438-e4f2c2348935"},"vehicle_type_id":"4","last_reported":1752059359,"current_range_meters":18800,"station_id":"","pricing_plan_id":"cebpf4jnsgd1na2vs0mg"},{"bike_id":"749370c6-54e1-4cc8-942a-7921a4b8fb09","system_id":"levelo_inurba_marseille","lat":43.28268,"lon":5.35078,"is_reserved":false,"is_disabled":false,"rental_uris":{"android":"levelo://app?vid=749370c6-54e1-4cc8-942a-7921a4b8fb09","ios":"levelo://app?vid=749370c6-54e1-4cc8-942a-7921a4b8fb09"},"vehicle_type_id":"4","last_reported":1752059359,"current_range_meters":18800,"station_id":"ce4bhbp2rcd13ifvqerg","pricing_plan_id":"cebpf4jnsgd1na2vs0mg"},{"bike_id":"7c1ac00f-9550-4218-9ee5-dd9d8cb43880","system_id":"levelo_inurba_marseille","lat":43.24389,"lon":5.37058,"is_reserved":false,"is_disabled":false,"rental_uris":{"android":"levelo://app?vid=7c1ac00f-9550-4218-9ee5-dd9d8cb43880","ios":"levelo://app?vid=7c1ac00f-9550-4218-9ee5-dd9d8cb43880"},"vehicle_type_id":"4","last_reported":1752059359,"current_range_meters":18800,"station_id":"ce4bhhh2rcd13ifvqfk0","pricing_plan_id":"cebpf4jnsgd1na2vs0mg"},{"bike_id":"ff1f8117-8a3b-46bb-8357-a9733f3f138e","system_id":"levelo_inurba_marseille","lat":43.32486,"lon":5.36589,"is_reserved":false,"is_disabled":false,"rental_uris":{"android":"levelo://app?vid=ff1f8117-8a3b-46bb-8357-a9733f3f138e","ios":"levelo://app?vid=ff1f8117-8a3b-46bb-8357-a9733f3f138e"},"vehicle_type_id":"4","last_reported":1752059359,"current_range_meters":18800,"station_id":"ce4bhs12rcd13ifvqhvg","pricing_plan_id":"cebpf4jnsgd1na2vs0mg"},{"bike_id":"a6f2a6ab-39fc-418e-8ac4-d3adf360ab85","system_id":"levelo_inurba_marseille","lat":43.23196,"lon":5.35548,"is_reserved":false,"is_disabled":false,"rental_uris":{"android":"levelo://app?vid=a6f2a6ab-39fc-418e-8ac4-d3adf360ab85","ios":"levelo://app?vid=a6f2a6ab-39fc-418e-8ac4-d3adf360ab85"},"vehicle_type_id":"4","last_reported":1752059359,"current_range_meters":18800,"station_id":"ce4bhu92rcd13ifvqi70","pricing_plan_id":"cebpf4jnsgd1na2vs0mg"},{"bike_id":"bc79cf22-9600-43f9-855f-d2516f160b65","system_id":"levelo_inurba_marseille","lat":43.31366,"lon":5.37654,"is_reserved":false,"is_disabled":false,"rental_uris":{"android":"levelo://app?vid=bc79cf22-9600-43f9-855f-d2516f160b65","ios":"levelo://app?vid=bc79cf22-9600-43f9-855f-d2516f160b65"},"vehicle_type_id":"4","last_reported":1752059359,"current_range_meters":19200,"station_id":"","pricing_plan_id":"cebpf4jnsgd1na2vs0mg"},{"bike_id":"36c387ea-be50-4028-8ecc-21605fe3e879","system_id":"levelo_inurba_marseille","lat":43.29357,"lon":5.42834,"is_reserved":false,"is_disabled":false,"rental_uris":{"android":"levelo://app?vid=36c387ea-be50-4028-8ecc-21605fe3e879","ios":"levelo://app?vid=36c387ea-be50-4028-8ecc-21605fe3e879"},"vehicle_type_id":"4","last_reported":1752059359,"current_range_meters":19200,"station_id":"","pricing_plan_id":"cebpf4jnsgd1na2vs0mg"},{"bike_id":"feaa7e3a-cbe4-4489-be11-8a12d7eec173","system_id":"levelo_inurba_marseille","lat":43.25023,"lon":5.42618,"is_reserved":false,"is_disabled":false,"rental_uris":{"android":"levelo://app?vid=feaa7e3a-cbe4-4489-be11-8a12d7eec173","ios":"levelo://app?vid=feaa7e3a-cbe4-4489-be11-8a12d7eec173"},"vehicle_type_id":"4","last_reported":1752059359,"current_range_meters":19200,"station_id":"","pricing_plan_id":"cebpf4jnsgd1na2vs0mg"},{"bike_id":"c7b25214-e785-4cd1-a30d-6df30d28c089","system_id":"levelo_inurba_marseille","lat":43.21758,"lon":5.34629,"is_reserved":false,"is_disabled":false,"rental_uris":{"android":"levelo://app?vid=c7b25214-e785-4cd1-a30d-6df30d28c089","ios":"levelo://app?vid=c7b25214-e785-4cd1-a30d-6df30d28c089"},"vehicle_type_id":"4","last_reported":1752059359,"current_range_meters":19200,"station_id":"st_cvj6r9ubvosntc0bgbag","pricing_plan_id":"cebpf4jnsgd1na2vs0mg"},{"bike_id":"87d13c3c-9453-4492-8a8f-f2b4c8e828c6","system_id":"levelo_inurba_marseille","lat":43.26177,"lon":5.37049,"is_reserved":false,"is_disabled":false,"rental_uris":{"android":"levelo://app?vid=87d13c3c-9453-4492-8a8f-f2b4c8e828c6","ios":"levelo://app?vid=87d13c3c-9453-4492-8a8f-f2b4c8e828c6"},"vehicle_type_id":"4","last_reported":1752059359,"current_range_meters":19600,"station_id":"","pricing_plan_id":"cebpf4jnsgd1na2vs0mg"},{"bike_id":"9f5e74ce-2459-4c6f-a171-f6d1e8a1ed83","system_id":"levelo_inurba_marseille","lat":43.31859,"lon":5.37564,"is_reserved":false,"is_disabled":false,"rental_uris":{"android":"levelo://app?vid=9f5e74ce-2459-4c6f-a171-f6d1e8a1ed83","ios":"levelo://app?vid=9f5e74ce-2459-4c6f-a171-f6d1e8a1ed83"},"vehicle_type_id":"4","last_reported":1752059359,"current_range_meters":19600,"station_id":"","pricing_plan_id":"cebpf4jnsgd1na2vs0mg"},{"bike_id":"178620b3-e80f-4c11-90fe-b0c778968faa","system_id":"levelo_inurba_marseille","lat":43.27606,"lon":5.36137,"is_reserved":false,"is_disabled":false,"rental_uris":{"android":"levelo://app?vid=178620b3-e80f-4c11-90fe-b0c778968faa","ios":"levelo://app?vid=178620b3-e80f-4c11-90fe-b0c778968faa"},"vehicle_type_id":"4","last_reported":1752059359,"current_range_meters":19600,"station_id":"ce4bgj92rcd13ifvqbe0","pricing_plan_id":"cebpf4jnsgd1na2vs0mg"},{"bike_id":"934a8840-2b96-4b51-9567-cf58ff0d7ff2","system_id":"levelo_inurba_marseille","lat":43.29032,"lon":5.38647,"is_reserved":false,"is_disabled":false,"rental_uris":{"android":"levelo://app?vid=934a8840-2b96-4b51-9567-cf58ff0d7ff2","ios":"levelo://app?vid=934a8840-2b96-4b51-9567-cf58ff0d7ff2"},"vehicle_type_id":"4","last_reported":1752059359,"current_range_meters":19600,"station_id":"ce4bh4p2rcd13ifvqe0g","pricing_plan_id":"cebpf4jnsgd1na2vs0mg"},{"bike_id":"fe393e70-3017-4f74-9643-ce2ab31a2adc","system_id":"levelo_inurba_marseille","lat":43.286184,"lon":5.351016,"is_reserved":false,"is_disabled":false,"rental_uris":{"android":"levelo://app?vid=fe393e70-3017-4f74-9643-ce2ab31a2adc","ios":"levelo://app?vid=fe393e70-3017-4f74-9643-ce2ab31a2adc"},"vehicle_type_id":"4","last_reported":1752059359,"current_range_meters":19600,"station_id":"ce4bhch2rcd13ifvqeug","pricing_plan_id":"cebpf4jnsgd1na2vs0mg"},{"bike_id":"c3a1af5d-683a-4452-b3ea-95f67ae19767","system_id":"levelo_inurba_marseille","lat":43.2621,"lon":5.37444,"is_reserved":false,"is_disabled":false,"rental_uris":{"android":"levelo://app?vid=c3a1af5d-683a-4452-b3ea-95f67ae19767","ios":"levelo://app?vid=c3a1af5d-683a-4452-b3ea-95f67ae19767"},"vehicle_type_id":"4","last_reported":1752059359,"current_range_meters":19600,"station_id":"ce4bhgp2rcd13ifvqfc0","pricing_plan_id":"cebpf4jnsgd1na2vs0mg"},{"bike_id":"ef6311b9-c394-4e85-b3f2-bf62d7fa6877","system_id":"levelo_inurba_marseille","lat":43.245477,"lon":5.395235,"is_reserved":false,"is_disabled":false,"rental_uris":{"android":"levelo://app?vid=ef6311b9-c394-4e85-b3f2-bf62d7fa6877","ios":"levelo://app?vid=ef6311b9-c394-4e85-b3f2-bf62d7fa6877"},"vehicle_type_id":"4","last_reported":1752059359,"current_range_meters":19600,"station_id":"ce4bhlp2rcd13ifvqgjg","pricing_plan_id":"cebpf4jnsgd1na2vs0mg"},{"bike_id":"e704c01a-5fb7-4541-861b-7f153f9b6454","system_id":"levelo_inurba_marseille","lat":43.32076,"lon":5.3685,"is_reserved":false,"is_disabled":false,"rental_uris":{"android":"levelo://app?vid=e704c01a-5fb7-4541-861b-7f153f9b6454","ios":"levelo://app?vid=e704c01a-5fb7-4541-861b-7f153f9b6454"},"vehicle_type_id":"4","last_reported":1752059359,"current_range_meters":19600,"station_id":"ce4bhrh2rcd13ifvqhug","pricing_plan_id":"cebpf4jnsgd1na2vs0mg"},{"bike_id":"8ebb497b-b3a2-4680-a7f5-4618f43cbe1b","system_id":"levelo_inurba_marseille","lat":43.29836,"lon":5.36265,"is_reserved":false,"is_disabled":false,"rental_uris":{"android":"levelo://app?vid=8ebb497b-b3a2-4680-a7f5-4618f43cbe1b","ios":"levelo://app?vid=8ebb497b-b3a2-4680-a7f5-4618f43cbe1b"},"vehicle_type_id":"4","last_reported":1752059359,"current_range_meters":20000,"station_id":"ce4bgpp2rcd13ifvqc3g","pricing_plan_id":"cebpf4jnsgd1na2vs0mg"},{"bike_id":"30de9787-1651-44c2-be7f-f2b9b2b8362d","system_id":"levelo_inurba_marseille","lat":43.25571,"lon":5.38247,"is_reserved":false,"is_disabled":false,"rental_uris":{"android":"levelo://app?vid=30de9787-1651-44c2-be7f-f2b9b2b8362d","ios":"levelo://app?vid=30de9787-1651-44c2-be7f-f2b9b2b8362d"},"vehicle_type_id":"4","last_reported":1752059359,"current_range_meters":20000,"station_id":"ce4bhih2rcd13ifvqfs0","pricing_plan_id":"cebpf4jnsgd1na2vs0mg"},{"bike_id":"7725683b-3883-4cb7-b23c-591c9a76b7b2","system_id":"levelo_inurba_marseille","lat":43.25566,"lon":5.3824,"is_reserved":false,"is_disabled":false,"rental_uris":{"android":"levelo://app?vid=7725683b-3883-4cb7-b23c-591c9a76b7b2","ios":"levelo://app?vid=7725683b-3883-4cb7-b23c-591c9a76b7b2"},"vehicle_type_id":"4","last_reported":1752059359,"current_range_meters":20000,"station_id":"ce4bhih2rcd13ifvqfs0","pricing_plan_id":"cebpf4jnsgd1na2vs0mg"},{"bike_id":"fde530d0-eeed-4692-bb9c-2c65ba0cdd9f","system_id":"levelo_inurba_marseille","lat":43.30859,"lon":5.42607,"is_reserved":false,"is_disabled":false,"rental_uris":{"android":"levelo://app?vid=fde530d0-eeed-4692-bb9c-2c65ba0cdd9f","ios":"levelo://app?vid=fde530d0-eeed-4692-bb9c-2c65ba0cdd9f"},"vehicle_type_id":"4","last_reported":1752059359,"current_range_meters":20400,"station_id":"","pricing_plan_id":"cebpf4jnsgd1na2vs0mg"},{"bike_id":"1320a52e-75b3-4b5f-a0bd-2c6da2cf8122","system_id":"levelo_inurba_marseille","lat":43.30313,"lon":5.39212,"is_reserved":false,"is_disabled":false,"rental_uris":{"android":"levelo://app?vid=1320a52e-75b3-4b5f-a0bd-2c6da2cf8122","ios":"levelo://app?vid=1320a52e-75b3-4b5f-a0bd-2c6da2cf8122"},"vehicle_type_id":"4","last_reported":1752059359,"current_range_meters":20400,"station_id":"ce4bgkh2rcd13ifvqbk0","pricing_plan_id":"cebpf4jnsgd1na2vs0mg"},{"bike_id":"3f1e9d59-ce0c-4e36-b34c-4d1bfacdc625","system_id":"levelo_inurba_marseille","lat":43.29845,"lon":5.3629,"is_reserved":false,"is_disabled":false,"rental_uris":{"android":"levelo://app?vid=3f1e9d59-ce0c-4e36-b34c-4d1bfacdc625","ios":"levelo://app?vid=3f1e9d59-ce0c-4e36-b34c-4d1bfacdc625"},"vehicle_type_id":"4","last_reported":1752059359,"current_range_meters":20400,"station_id":"ce4bgpp2rcd13ifvqc3g","pricing_plan_id":"cebpf4jnsgd1na2vs0mg"},{"bike_id":"373ac157-9b1c-4583-adbe-521fc30054b9","system_id":"levelo_inurba_marseille","lat":43.30187,"lon":5.36615,"is_reserved":false,"is_disabled":false,"rental_uris":{"android":"levelo://app?vid=373ac157-9b1c-4583-adbe-521fc30054b9","ios":"levelo://app?vid=373ac157-9b1c-4583-adbe-521fc30054b9"},"vehicle_type_id":"4","last_reported":1752059359,"current_range_meters":20400,"station_id":"ce4bgrh2rcd13ifvqc8g","pricing_plan_id":"cebpf4jnsgd1na2vs0mg"},{"bike_id":"92be7e9f-0c62-4241-ba9b-8185c68d5343","system_id":"levelo_inurba_marseille","lat":43.24197,"lon":5.39739,"is_reserved":false,"is_disabled":false,"rental_uris":{"android":"levelo://app?vid=92be7e9f-0c62-4241-ba9b-8185c68d5343","ios":"levelo://app?vid=92be7e9f-0c62-4241-ba9b-8185c68d5343"},"vehicle_type_id":"4","last_reported":1752059359,"current_range_meters":20400,"station_id":"ce4bhn12rcd13ifvqgpg","pricing_plan_id":"cebpf4jnsgd1na2vs0mg"},{"bike_id":"f8441ac5-384c-4d39-b4b3-2bcd24cd9619","system_id":"levelo_inurba_marseille","lat":43.31462,"lon":5.36577,"is_reserved":false,"is_disabled":false,"rental_uris":{"android":"levelo://app?vid=f8441ac5-384c-4d39-b4b3-2bcd24cd9619","ios":"levelo://app?vid=f8441ac5-384c-4d39-b4b3-2bcd24cd9619"},"vehicle_type_id":"4","last_reported":1752059359,"current_range_meters":20800,"station_id":"","pricing_plan_id":"cebpf4jnsgd1na2vs0mg"},{"bike_id":"d6ccf0b1-3fcc-4a6a-883f-25257c08898d","system_id":"levelo_inurba_marseille","lat":43.224976,"lon":5.348346,"is_reserved":false,"is_disabled":false,"rental_uris":{"android":"levelo://app?vid=d6ccf0b1-3fcc-4a6a-883f-25257c08898d","ios":"levelo://app?vid=d6ccf0b1-3fcc-4a6a-883f-25257c08898d"},"vehicle_type_id":"4","last_reported":1752059359,"current_range_meters":20800,"station_id":"","pricing_plan_id":"cebpf4jnsgd1na2vs0mg"},{"bike_id":"fa87fcb5-aacb-41a1-a789-0296bbd02085","system_id":"levelo_inurba_marseille","lat":43.24585,"lon":5.37375,"is_reserved":false,"is_disabled":false,"rental_uris":{"android":"levelo://app?vid=fa87fcb5-aacb-41a1-a789-0296bbd02085","ios":"levelo://app?vid=fa87fcb5-aacb-41a1-a789-0296bbd02085"},"vehicle_type_id":"4","last_reported":1752059359,"current_range_meters":20800,"station_id":"","pricing_plan_id":"cebpf4jnsgd1na2vs0mg"},{"bike_id":"4e209b0c-855f-4b51-8120-2faef8673853","system_id":"levelo_inurba_marseille","lat":43.30605,"lon":5.369203,"is_reserved":false,"is_disabled":false,"rental_uris":{"android":"levelo://app?vid=4e209b0c-855f-4b51-8120-2faef8673853","ios":"levelo://app?vid=4e209b0c-855f-4b51-8120-2faef8673853"},"vehicle_type_id":"4","last_reported":1752059359,"current_range_meters":20800,"station_id":"","pricing_plan_id":"cebpf4jnsgd1na2vs0mg"},{"bike_id":"51d3cab3-3bb3-4357-a3a5-f7dd39edc0c5","system_id":"levelo_inurba_marseille","lat":43.25451,"lon":5.37946,"is_reserved":false,"is_disabled":false,"rental_uris":{"android":"levelo://app?vid=51d3cab3-3bb3-4357-a3a5-f7dd39edc0c5","ios":"levelo://app?vid=51d3cab3-3bb3-4357-a3a5-f7dd39edc0c5"},"vehicle_type_id":"4","last_reported":1752059359,"current_range_meters":21600,"station_id":"","pricing_plan_id":"cebpf4jnsgd1na2vs0mg"},{"bike_id":"da2d4369-ad85-4e80-b710-66659271e846","system_id":"levelo_inurba_marseille","lat":43.29572,"lon":5.3752,"is_reserved":false,"is_disabled":false,"rental_uris":{"android":"levelo://app?vid=da2d4369-ad85-4e80-b710-66659271e846","ios":"levelo://app?vid=da2d4369-ad85-4e80-b710-66659271e846"},"vehicle_type_id":"4","last_reported":1752059359,"current_range_meters":21600,"station_id":"ce4bgh92rcd13ifvqb50","pricing_plan_id":"cebpf4jnsgd1na2vs0mg"},{"bike_id":"1d8d3c56-330c-4edd-8ac3-3af31b11a3ae","system_id":"levelo_inurba_marseille","lat":43.27568,"lon":5.3844,"is_reserved":false,"is_disabled":false,"rental_uris":{"android":"levelo://app?vid=1d8d3c56-330c-4edd-8ac3-3af31b11a3ae","ios":"levelo://app?vid=1d8d3c56-330c-4edd-8ac3-3af31b11a3ae"},"vehicle_type_id":"4","last_reported":1752059359,"current_range_meters":21600,"station_id":"ce4bhh92rcd13ifvqfi0","pricing_plan_id":"cebpf4jnsgd1na2vs0mg"},{"bike_id":"1300fc66-ca4d-4458-b575-775662c44530","system_id":"levelo_inurba_marseille","lat":43.21766,"lon":5.34598,"is_reserved":false,"is_disabled":false,"rental_uris":{"android":"levelo://app?vid=1300fc66-ca4d-4458-b575-775662c44530","ios":"levelo://app?vid=1300fc66-ca4d-4458-b575-775662c44530"},"vehicle_type_id":"4","last_reported":1752059359,"current_range_meters":21600,"station_id":"st_cvj6r9ubvosntc0bgbag","pricing_plan_id":"cebpf4jnsgd1na2vs0mg"},{"bike_id":"b761de55-2383-4dba-a47a-e5f1f3e2e4a3","system_id":"levelo_inurba_marseille","lat":43.27997,"lon":5.40037,"is_reserved":false,"is_disabled":false,"rental_uris":{"android":"levelo://app?vid=b761de55-2383-4dba-a47a-e5f1f3e2e4a3","ios":"levelo://app?vid=b761de55-2383-4dba-a47a-e5f1f3e2e4a3"},"vehicle_type_id":"4","last_reported":1752059359,"current_range_meters":22000,"station_id":"","pricing_plan_id":"cebpf4jnsgd1na2vs0mg"},{"bike_id":"62aa348c-f92a-4864-8c7f-e18095f4a647","system_id":"levelo_inurba_marseille","lat":43.31177,"lon":5.38715,"is_reserved":false,"is_disabled":false,"rental_uris":{"android":"levelo://app?vid=62aa348c-f92a-4864-8c7f-e18095f4a647","ios":"levelo://app?vid=62aa348c-f92a-4864-8c7f-e18095f4a647"},"vehicle_type_id":"4","last_reported":1752059359,"current_range_meters":22000,"station_id":"ce4bgv12rcd13ifvqcp0","pricing_plan_id":"cebpf4jnsgd1na2vs0mg"},{"bike_id":"55eb3ee3-207d-45c9-a356-7e275a6ee08e","system_id":"levelo_inurba_marseille","lat":43.322208,"lon":5.407363,"is_reserved":false,"is_disabled":false,"rental_uris":{"android":"levelo://app?vid=55eb3ee3-207d-45c9-a356-7e275a6ee08e","ios":"levelo://app?vid=55eb3ee3-207d-45c9-a356-7e275a6ee08e"},"vehicle_type_id":"4","last_reported":1752059359,"current_range_meters":22000,"station_id":"ce4bh092rcd13ifvqd30","pricing_plan_id":"cebpf4jnsgd1na2vs0mg"},{"bike_id":"c0718b69-32ea-49c1-9014-a3d7b76d2c33","system_id":"levelo_inurba_marseille","lat":43.28932,"lon":5.38411,"is_reserved":false,"is_disabled":false,"rental_uris":{"android":"levelo://app?vid=c0718b69-32ea-49c1-9014-a3d7b76d2c33","ios":"levelo://app?vid=c0718b69-32ea-49c1-9014-a3d7b76d2c33"},"vehicle_type_id":"4","last_reported":1752059359,"current_range_meters":22000,"station_id":"ce4bh612rcd13ifvqe6g","pricing_plan_id":"cebpf4jnsgd1na2vs0mg"},{"bike_id":"10c59449-1e22-41d8-be57-73de9f1e8e96","system_id":"levelo_inurba_marseille","lat":43.28415,"lon":5.3499,"is_reserved":false,"is_disabled":false,"rental_uris":{"android":"levelo://app?vid=10c59449-1e22-41d8-be57-73de9f1e8e96","ios":"levelo://app?vid=10c59449-1e22-41d8-be57-73de9f1e8e96"},"vehicle_type_id":"4","last_reported":1752059359,"current_range_meters":22000,"station_id":"ce4bhbh2rcd13ifvqepg","pricing_plan_id":"cebpf4jnsgd1na2vs0mg"},{"bike_id":"7405c651-a868-4f97-b0fd-445de387662c","system_id":"levelo_inurba_marseille","lat":43.21759,"lon":5.34589,"is_reserved":false,"is_disabled":false,"rental_uris":{"android":"levelo://app?vid=7405c651-a868-4f97-b0fd-445de387662c","ios":"levelo://app?vid=7405c651-a868-4f97-b0fd-445de387662c"},"vehicle_type_id":"4","last_reported":1752059359,"current_range_meters":22000,"station_id":"st_cvj6r9ubvosntc0bgbag","pricing_plan_id":"cebpf4jnsgd1na2vs0mg"},{"bike_id":"ee1ac907-8623-4d00-ac01-d41dd90be9fe","system_id":"levelo_inurba_marseille","lat":43.21194,"lon":5.35076,"is_reserved":false,"is_disabled":false,"rental_uris":{"android":"levelo://app?vid=ee1ac907-8623-4d00-ac01-d41dd90be9fe","ios":"levelo://app?vid=ee1ac907-8623-4d00-ac01-d41dd90be9fe"},"vehicle_type_id":"4","last_reported":1752059359,"current_range_meters":22000,"station_id":"st_cvj6sg6p6f1abm77japg","pricing_plan_id":"cebpf4jnsgd1na2vs0mg"},{"bike_id":"12671aaf-df30-48df-969a-0e8ba311c0d9","system_id":"levelo_inurba_marseille","lat":43.299257,"lon":5.374755,"is_reserved":false,"is_disabled":false,"rental_uris":{"android":"levelo://app?vid=12671aaf-df30-48df-969a-0e8ba311c0d9","ios":"levelo://app?vid=12671aaf-df30-48df-969a-0e8ba311c0d9"},"vehicle_type_id":"4","last_reported":1752059359,"current_range_meters":22400,"station_id":"","pricing_plan_id":"cebpf4jnsgd1na2vs0mg"},{"bike_id":"24b17f7b-dff1-4936-b27a-7c2c6813a894","system_id":"levelo_inurba_marseille","lat":43.24583,"lon":5.37377,"is_reserved":false,"is_disabled":false,"rental_uris":{"android":"levelo://app?vid=24b17f7b-dff1-4936-b27a-7c2c6813a894","ios":"levelo://app?vid=24b17f7b-dff1-4936-b27a-7c2c6813a894"},"vehicle_type_id":"4","last_reported":1752059359,"current_range_meters":22400,"station_id":"","pricing_plan_id":"cebpf4jnsgd1na2vs0mg"},{"bike_id":"028e7536-ff24-45e8-8c89-eba3eba25969","system_id":"levelo_inurba_marseille","lat":43.29375,"lon":5.37856,"is_reserved":false,"is_disabled":false,"rental_uris":{"android":"levelo://app?vid=028e7536-ff24-45e8-8c89-eba3eba25969","ios":"levelo://app?vid=028e7536-ff24-45e8-8c89-eba3eba25969"},"vehicle_type_id":"4","last_reported":1752059359,"current_range_meters":22400,"station_id":"ce4bgjh2rcd13ifvqbf0","pricing_plan_id":"cebpf4jnsgd1na2vs0mg"},{"bike_id":"541d3dfd-b285-48f2-806c-f92e677eff00","system_id":"levelo_inurba_marseille","lat":43.29587,"lon":5.36741,"is_reserved":false,"is_disabled":false,"rental_uris":{"android":"levelo://app?vid=541d3dfd-b285-48f2-806c-f92e677eff00","ios":"levelo://app?vid=541d3dfd-b285-48f2-806c-f92e677eff00"},"vehicle_type_id":"4","last_reported":1752059359,"current_range_meters":22400,"station_id":"ce4bgph2rcd13ifvqc2g","pricing_plan_id":"cebpf4jnsgd1na2vs0mg"},{"bike_id":"2676d6ed-392e-4888-a2f9-53392870d491","system_id":"levelo_inurba_marseille","lat":43.313582,"lon":5.366914,"is_reserved":false,"is_disabled":false,"rental_uris":{"android":"levelo://app?vid=2676d6ed-392e-4888-a2f9-53392870d491","ios":"levelo://app?vid=2676d6ed-392e-4888-a2f9-53392870d491"},"vehicle_type_id":"4","last_reported":1752059359,"current_range_meters":22400,"station_id":"ce4bgr92rcd13ifvqc6g","pricing_plan_id":"cebpf4jnsgd1na2vs0mg"},{"bike_id":"43ef28e7-4568-480b-b2fe-84a6b7c911e4","system_id":"levelo_inurba_marseille","lat":43.292063,"lon":5.36066,"is_reserved":false,"is_disabled":false,"rental_uris":{"android":"levelo://app?vid=43ef28e7-4568-480b-b2fe-84a6b7c911e4","ios":"levelo://app?vid=43ef28e7-4568-480b-b2fe-84a6b7c911e4"},"vehicle_type_id":"4","last_reported":1752059359,"current_range_meters":22400,"station_id":"ce4bhbh2rcd13ifvqeqg","pricing_plan_id":"cebpf4jnsgd1na2vs0mg"},{"bike_id":"ceb8c83c-821b-40d7-b62e-8a848b52130a","system_id":"levelo_inurba_marseille","lat":43.25106,"lon":5.40324,"is_reserved":false,"is_disabled":false,"rental_uris":{"android":"levelo://app?vid=ceb8c83c-821b-40d7-b62e-8a848b52130a","ios":"levelo://app?vid=ceb8c83c-821b-40d7-b62e-8a848b52130a"},"vehicle_type_id":"4","last_reported":1752059359,"current_range_meters":22400,"station_id":"ce4bhlh2rcd13ifvqgig","pricing_plan_id":"cebpf4jnsgd1na2vs0mg"},{"bike_id":"b580033c-292e-4237-8d63-184a25c6910d","system_id":"levelo_inurba_marseille","lat":43.23198,"lon":5.35556,"is_reserved":false,"is_disabled":false,"rental_uris":{"android":"levelo://app?vid=b580033c-292e-4237-8d63-184a25c6910d","ios":"levelo://app?vid=b580033c-292e-4237-8d63-184a25c6910d"},"vehicle_type_id":"4","last_reported":1752059359,"current_range_meters":22400,"station_id":"ce4bhu92rcd13ifvqi70","pricing_plan_id":"cebpf4jnsgd1na2vs0mg"},{"bike_id":"130ee6ae-a873-41ac-8ada-b38840fa57cd","system_id":"levelo_inurba_marseille","lat":43.30144,"lon":5.38065,"is_reserved":false,"is_disabled":false,"rental_uris":{"android":"levelo://app?vid=130ee6ae-a873-41ac-8ada-b38840fa57cd","ios":"levelo://app?vid=130ee6ae-a873-41ac-8ada-b38840fa57cd"},"vehicle_type_id":"4","last_reported":1752059359,"current_range_meters":22800,"station_id":"ce4bgjp2rcd13ifvqbh0","pricing_plan_id":"cebpf4jnsgd1na2vs0mg"},{"bike_id":"5a47dbc3-259f-405b-aae5-eb27140bbe63","system_id":"levelo_inurba_marseille","lat":43.3126,"lon":5.36844,"is_reserved":false,"is_disabled":false,"rental_uris":{"android":"levelo://app?vid=5a47dbc3-259f-405b-aae5-eb27140bbe63","ios":"levelo://app?vid=5a47dbc3-259f-405b-aae5-eb27140bbe63"},"vehicle_type_id":"4","last_reported":1752059359,"current_range_meters":22800,"station_id":"ce4bgl92rcd13ifvqbq0","pricing_plan_id":"cebpf4jnsgd1na2vs0mg"},{"bike_id":"6f5604c0-f54b-40b9-918a-b8484ed1880a","system_id":"levelo_inurba_marseille","lat":43.310372,"lon":5.380624,"is_reserved":false,"is_disabled":false,"rental_uris":{"android":"levelo://app?vid=6f5604c0-f54b-40b9-918a-b8484ed1880a","ios":"levelo://app?vid=6f5604c0-f54b-40b9-918a-b8484ed1880a"},"vehicle_type_id":"4","last_reported":1752059359,"current_range_meters":22800,"station_id":"ce4bgt12rcd13ifvqce0","pricing_plan_id":"cebpf4jnsgd1na2vs0mg"},{"bike_id":"60df73f1-7c0e-44a9-80ab-fcd22e4fc644","system_id":"levelo_inurba_marseille","lat":43.28421,"lon":5.35001,"is_reserved":false,"is_disabled":false,"rental_uris":{"android":"levelo://app?vid=60df73f1-7c0e-44a9-80ab-fcd22e4fc644","ios":"levelo://app?vid=60df73f1-7c0e-44a9-80ab-fcd22e4fc644"},"vehicle_type_id":"4","last_reported":1752059359,"current_range_meters":22800,"station_id":"ce4bhbh2rcd13ifvqepg","pricing_plan_id":"cebpf4jnsgd1na2vs0mg"},{"bike_id":"6006a9aa-40e9-4dd0-9916-778076e2eaee","system_id":"levelo_inurba_marseille","lat":43.28433,"lon":5.34985,"is_reserved":false,"is_disabled":false,"rental_uris":{"android":"levelo://app?vid=6006a9aa-40e9-4dd0-9916-778076e2eaee","ios":"levelo://app?vid=6006a9aa-40e9-4dd0-9916-778076e2eaee"},"vehicle_type_id":"4","last_reported":1752059359,"current_range_meters":22800,"station_id":"ce4bhbh2rcd13ifvqepg","pricing_plan_id":"cebpf4jnsgd1na2vs0mg"},{"bike_id":"b92edd36-c6f2-4168-aa30-d48dca8f2cd7","system_id":"levelo_inurba_marseille","lat":43.2792,"lon":5.39582,"is_reserved":false,"is_disabled":false,"rental_uris":{"android":"levelo://app?vid=b92edd36-c6f2-4168-aa30-d48dca8f2cd7","ios":"levelo://app?vid=b92edd36-c6f2-4168-aa30-d48dca8f2cd7"},"vehicle_type_id":"4","last_reported":1752059359,"current_range_meters":22800,"station_id":"ce4bhf92rcd13ifvqf40","pricing_plan_id":"cebpf4jnsgd1na2vs0mg"},{"bike_id":"78bdf2ae-c0c8-4941-9fc5-53a11457f747","system_id":"levelo_inurba_marseille","lat":43.26199,"lon":5.3744,"is_reserved":false,"is_disabled":false,"rental_uris":{"android":"levelo://app?vid=78bdf2ae-c0c8-4941-9fc5-53a11457f747","ios":"levelo://app?vid=78bdf2ae-c0c8-4941-9fc5-53a11457f747"},"vehicle_type_id":"4","last_reported":1752059359,"current_range_meters":22800,"station_id":"ce4bhgp2rcd13ifvqfc0","pricing_plan_id":"cebpf4jnsgd1na2vs0mg"},{"bike_id":"3b935dfc-179a-4512-b00d-bb8fa978bd14","system_id":"levelo_inurba_marseille","lat":43.29911,"lon":5.43673,"is_reserved":false,"is_disabled":false,"rental_uris":{"android":"levelo://app?vid=3b935dfc-179a-4512-b00d-bb8fa978bd14","ios":"levelo://app?vid=3b935dfc-179a-4512-b00d-bb8fa978bd14"},"vehicle_type_id":"4","last_reported":1752059359,"current_range_meters":22800,"station_id":"ce4bhpp2rcd13ifvqhfg","pricing_plan_id":"cebpf4jnsgd1na2vs0mg"},{"bike_id":"8f89e4f3-495a-4317-bd6d-37a19186d65b","system_id":"levelo_inurba_marseille","lat":43.33726,"lon":5.391966,"is_reserved":false,"is_disabled":false,"rental_uris":{"android":"levelo://app?vid=8f89e4f3-495a-4317-bd6d-37a19186d65b","ios":"levelo://app?vid=8f89e4f3-495a-4317-bd6d-37a19186d65b"},"vehicle_type_id":"4","last_reported":1752059359,"current_range_meters":22800,"station_id":"ce4bhr92rcd13ifvqhsg","pricing_plan_id":"cebpf4jnsgd1na2vs0mg"},{"bike_id":"d08500b9-de3a-48ff-91b8-a1d08ec3b455","system_id":"levelo_inurba_marseille","lat":43.30119,"lon":5.36438,"is_reserved":false,"is_disabled":false,"rental_uris":{"android":"levelo://app?vid=d08500b9-de3a-48ff-91b8-a1d08ec3b455","ios":"levelo://app?vid=d08500b9-de3a-48ff-91b8-a1d08ec3b455"},"vehicle_type_id":"4","last_reported":1752059359,"current_range_meters":23200,"station_id":"","pricing_plan_id":"cebpf4jnsgd1na2vs0mg"},{"bike_id":"3b29e9d9-bce6-477a-9983-2e52f6d8b70f","system_id":"levelo_inurba_marseille","lat":43.30093,"lon":5.39092,"is_reserved":false,"is_disabled":false,"rental_uris":{"android":"levelo://app?vid=3b29e9d9-bce6-477a-9983-2e52f6d8b70f","ios":"levelo://app?vid=3b29e9d9-bce6-477a-9983-2e52f6d8b70f"},"vehicle_type_id":"4","last_reported":1752059359,"current_range_meters":23200,"station_id":"ce4bh192rcd13ifvqdb0","pricing_plan_id":"cebpf4jnsgd1na2vs0mg"},{"bike_id":"e1bcc6e2-7aaf-47f2-ac8f-c8af6176769b","system_id":"levelo_inurba_marseille","lat":43.28414,"lon":5.37497,"is_reserved":false,"is_disabled":false,"rental_uris":{"android":"levelo://app?vid=e1bcc6e2-7aaf-47f2-ac8f-c8af6176769b","ios":"levelo://app?vid=e1bcc6e2-7aaf-47f2-ac8f-c8af6176769b"},"vehicle_type_id":"4","last_reported":1752059359,"current_range_meters":23200,"station_id":"ce4bh412rcd13ifvqds0","pricing_plan_id":"cebpf4jnsgd1na2vs0mg"},{"bike_id":"b2cc774c-111d-431a-a78d-6f2941cab797","system_id":"levelo_inurba_marseille","lat":43.2886,"lon":5.35874,"is_reserved":false,"is_disabled":false,"rental_uris":{"android":"levelo://app?vid=b2cc774c-111d-431a-a78d-6f2941cab797","ios":"levelo://app?vid=b2cc774c-111d-431a-a78d-6f2941cab797"},"vehicle_type_id":"4","last_reported":1752059359,"current_range_meters":23200,"station_id":"ce4bhb12rcd13ifvqem0","pricing_plan_id":"cebpf4jnsgd1na2vs0mg"},{"bike_id":"e510ade2-3bf1-4e76-bfa8-7ebe6d4288a2","system_id":"levelo_inurba_marseille","lat":43.28419,"lon":5.34986,"is_reserved":false,"is_disabled":false,"rental_uris":{"android":"levelo://app?vid=e510ade2-3bf1-4e76-bfa8-7ebe6d4288a2","ios":"levelo://app?vid=e510ade2-3bf1-4e76-bfa8-7ebe6d4288a2"},"vehicle_type_id":"4","last_reported":1752059359,"current_range_meters":23200,"station_id":"ce4bhbh2rcd13ifvqepg","pricing_plan_id":"cebpf4jnsgd1na2vs0mg"},{"bike_id":"a5a6c2c1-2d48-4581-8647-6eab6c0bbb54","system_id":"levelo_inurba_marseille","lat":43.268998,"lon":5.369166,"is_reserved":false,"is_disabled":false,"rental_uris":{"android":"levelo://app?vid=a5a6c2c1-2d48-4581-8647-6eab6c0bbb54","ios":"levelo://app?vid=a5a6c2c1-2d48-4581-8647-6eab6c0bbb54"},"vehicle_type_id":"4","last_reported":1752059359,"current_range_meters":24000,"station_id":"","pricing_plan_id":"cebpf4jnsgd1na2vs0mg"},{"bike_id":"f64ea80f-2d40-46f6-af68-55052b037017","system_id":"levelo_inurba_marseille","lat":43.31928,"lon":5.37291,"is_reserved":false,"is_disabled":false,"rental_uris":{"android":"levelo://app?vid=f64ea80f-2d40-46f6-af68-55052b037017","ios":"levelo://app?vid=f64ea80f-2d40-46f6-af68-55052b037017"},"vehicle_type_id":"4","last_reported":1752059359,"current_range_meters":24000,"station_id":"","pricing_plan_id":"cebpf4jnsgd1na2vs0mg"},{"bike_id":"4d8942c7-0e64-4b67-b6b6-d1a5c3d08cfb","system_id":"levelo_inurba_marseille","lat":43.22466,"lon":5.34697,"is_reserved":false,"is_disabled":false,"rental_uris":{"android":"levelo://app?vid=4d8942c7-0e64-4b67-b6b6-d1a5c3d08cfb","ios":"levelo://app?vid=4d8942c7-0e64-4b67-b6b6-d1a5c3d08cfb"},"vehicle_type_id":"4","last_reported":1752059359,"current_range_meters":24000,"station_id":"","pricing_plan_id":"cebpf4jnsgd1na2vs0mg"},{"bike_id":"868ff21b-92b6-4e16-976a-3d8d3a0619b6","system_id":"levelo_inurba_marseille","lat":43.29697,"lon":5.37306,"is_reserved":false,"is_disabled":false,"rental_uris":{"android":"levelo://app?vid=868ff21b-92b6-4e16-976a-3d8d3a0619b6","ios":"levelo://app?vid=868ff21b-92b6-4e16-976a-3d8d3a0619b6"},"vehicle_type_id":"4","last_reported":1752059359,"current_range_meters":24000,"station_id":"ce4bgk12rcd13ifvqbj0","pricing_plan_id":"cebpf4jnsgd1na2vs0mg"},{"bike_id":"642cd0fc-86ac-4960-ba5b-712cef92e6d9","system_id":"levelo_inurba_marseille","lat":43.29854,"lon":5.36277,"is_reserved":false,"is_disabled":false,"rental_uris":{"android":"levelo://app?vid=642cd0fc-86ac-4960-ba5b-712cef92e6d9","ios":"levelo://app?vid=642cd0fc-86ac-4960-ba5b-712cef92e6d9"},"vehicle_type_id":"4","last_reported":1752059359,"current_range_meters":24000,"station_id":"ce4bgpp2rcd13ifvqc3g","pricing_plan_id":"cebpf4jnsgd1na2vs0mg"},{"bike_id":"0a225275-cd83-4669-b5bb-3c64d6a04caf","system_id":"levelo_inurba_marseille","lat":43.28398,"lon":5.3496,"is_reserved":false,"is_disabled":false,"rental_uris":{"android":"levelo://app?vid=0a225275-cd83-4669-b5bb-3c64d6a04caf","ios":"levelo://app?vid=0a225275-cd83-4669-b5bb-3c64d6a04caf"},"vehicle_type_id":"4","last_reported":1752059359,"current_range_meters":24000,"station_id":"ce4bhbh2rcd13ifvqepg","pricing_plan_id":"cebpf4jnsgd1na2vs0mg"},{"bike_id":"919288ba-3ba6-4558-8fe3-96ccfbd3d0f2","system_id":"levelo_inurba_marseille","lat":43.28624,"lon":5.35106,"is_reserved":false,"is_disabled":false,"rental_uris":{"android":"levelo://app?vid=919288ba-3ba6-4558-8fe3-96ccfbd3d0f2","ios":"levelo://app?vid=919288ba-3ba6-4558-8fe3-96ccfbd3d0f2"},"vehicle_type_id":"4","last_reported":1752059359,"current_range_meters":24000,"station_id":"ce4bhch2rcd13ifvqeug","pricing_plan_id":"cebpf4jnsgd1na2vs0mg"},{"bike_id":"ecf3dbd8-ebd4-439f-a4b9-b62a07833bb5","system_id":"levelo_inurba_marseille","lat":43.26205,"lon":5.37481,"is_reserved":false,"is_disabled":false,"rental_uris":{"android":"levelo://app?vid=ecf3dbd8-ebd4-439f-a4b9-b62a07833bb5","ios":"levelo://app?vid=ecf3dbd8-ebd4-439f-a4b9-b62a07833bb5"},"vehicle_type_id":"4","last_reported":1752059359,"current_range_meters":24000,"station_id":"ce4bhgp2rcd13ifvqfc0","pricing_plan_id":"cebpf4jnsgd1na2vs0mg"},{"bike_id":"6df3f360-f475-4c28-9d83-66e97816f4ec","system_id":"levelo_inurba_marseille","lat":43.268272,"lon":5.388941,"is_reserved":false,"is_disabled":false,"rental_uris":{"android":"levelo://app?vid=6df3f360-f475-4c28-9d83-66e97816f4ec","ios":"levelo://app?vid=6df3f360-f475-4c28-9d83-66e97816f4ec"},"vehicle_type_id":"4","last_reported":1752059359,"current_range_meters":24000,"station_id":"ce4bhh92rcd13ifvqfj0","pricing_plan_id":"cebpf4jnsgd1na2vs0mg"},{"bike_id":"a37c81c5-d096-4e6d-b1b3-5bbb8251fbd0","system_id":"levelo_inurba_marseille","lat":43.24399,"lon":5.3705,"is_reserved":false,"is_disabled":false,"rental_uris":{"android":"levelo://app?vid=a37c81c5-d096-4e6d-b1b3-5bbb8251fbd0","ios":"levelo://app?vid=a37c81c5-d096-4e6d-b1b3-5bbb8251fbd0"},"vehicle_type_id":"4","last_reported":1752059359,"current_range_meters":24000,"station_id":"ce4bhhh2rcd13ifvqfk0","pricing_plan_id":"cebpf4jnsgd1na2vs0mg"},{"bike_id":"627bee97-4673-4aee-9c8d-55c9c430f254","system_id":"levelo_inurba_marseille","lat":43.25943,"lon":5.40923,"is_reserved":false,"is_disabled":false,"rental_uris":{"android":"levelo://app?vid=627bee97-4673-4aee-9c8d-55c9c430f254","ios":"levelo://app?vid=627bee97-4673-4aee-9c8d-55c9c430f254"},"vehicle_type_id":"4","last_reported":1752059359,"current_range_meters":24000,"station_id":"ce4bhm92rcd13ifvqglg","pricing_plan_id":"cebpf4jnsgd1na2vs0mg"},{"bike_id":"2d48fbb9-0c32-4ed6-b521-f646ce448557","system_id":"levelo_inurba_marseille","lat":43.27948,"lon":5.41044,"is_reserved":false,"is_disabled":false,"rental_uris":{"android":"levelo://app?vid=2d48fbb9-0c32-4ed6-b521-f646ce448557","ios":"levelo://app?vid=2d48fbb9-0c32-4ed6-b521-f646ce448557"},"vehicle_type_id":"4","last_reported":1752059359,"current_range_meters":24000,"station_id":"ce4bhnp2rcd13ifvqh0g","pricing_plan_id":"cebpf4jnsgd1na2vs0mg"},{"bike_id":"6a3704ac-19c4-46e3-8c3c-550faad28cd0","system_id":"levelo_inurba_marseille","lat":43.279892,"lon":5.400111,"is_reserved":false,"is_disabled":false,"rental_uris":{"android":"levelo://app?vid=6a3704ac-19c4-46e3-8c3c-550faad28cd0","ios":"levelo://app?vid=6a3704ac-19c4-46e3-8c3c-550faad28cd0"},"vehicle_type_id":"4","last_reported":1752059359,"current_range_meters":24000,"station_id":"ce4bho92rcd13ifvqh4g","pricing_plan_id":"cebpf4jnsgd1na2vs0mg"},{"bike_id":"e3a75ee9-c614-467b-8cc2-f813bcef2ab1","system_id":"levelo_inurba_marseille","lat":43.33743,"lon":5.3919,"is_reserved":false,"is_disabled":false,"rental_uris":{"android":"levelo://app?vid=e3a75ee9-c614-467b-8cc2-f813bcef2ab1","ios":"levelo://app?vid=e3a75ee9-c614-467b-8cc2-f813bcef2ab1"},"vehicle_type_id":"4","last_reported":1752059359,"current_range_meters":24000,"station_id":"ce4bhr92rcd13ifvqhsg","pricing_plan_id":"cebpf4jnsgd1na2vs0mg"},{"bike_id":"ca82af78-77e6-4092-9d8e-80a6b4175624","system_id":"levelo_inurba_marseille","lat":43.29772,"lon":5.4601,"is_reserved":false,"is_disabled":false,"rental_uris":{"android":"levelo://app?vid=ca82af78-77e6-4092-9d8e-80a6b4175624","ios":"levelo://app?vid=ca82af78-77e6-4092-9d8e-80a6b4175624"},"vehicle_type_id":"4","last_reported":1752059359,"current_range_meters":24400,"station_id":"","pricing_plan_id":"cebpf4jnsgd1na2vs0mg"},{"bike_id":"222b8d00-92e7-4cc8-ac9d-5d6a2d360ec5","system_id":"levelo_inurba_marseille","lat":43.30537,"lon":5.36547,"is_reserved":false,"is_disabled":false,"rental_uris":{"android":"levelo://app?vid=222b8d00-92e7-4cc8-ac9d-5d6a2d360ec5","ios":"levelo://app?vid=222b8d00-92e7-4cc8-ac9d-5d6a2d360ec5"},"vehicle_type_id":"4","last_reported":1752059359,"current_range_meters":24400,"station_id":"ce4bgs12rcd13ifvqcag","pricing_plan_id":"cebpf4jnsgd1na2vs0mg"},{"bike_id":"e55ba0ce-9557-442c-87a1-c6a53808b5cd","system_id":"levelo_inurba_marseille","lat":43.28374,"lon":5.38636,"is_reserved":false,"is_disabled":false,"rental_uris":{"android":"levelo://app?vid=e55ba0ce-9557-442c-87a1-c6a53808b5cd","ios":"levelo://app?vid=e55ba0ce-9557-442c-87a1-c6a53808b5cd"},"vehicle_type_id":"4","last_reported":1752059359,"current_range_meters":24400,"station_id":"ce4bh492rcd13ifvqdvg","pricing_plan_id":"cebpf4jnsgd1na2vs0mg"},{"bike_id":"a53fb2ec-28c0-422f-8182-761e408da4f1","system_id":"levelo_inurba_marseille","lat":43.28129,"lon":5.37844,"is_reserved":false,"is_disabled":false,"rental_uris":{"android":"levelo://app?vid=a53fb2ec-28c0-422f-8182-761e408da4f1","ios":"levelo://app?vid=a53fb2ec-28c0-422f-8182-761e408da4f1"},"vehicle_type_id":"4","last_reported":1752059359,"current_range_meters":24400,"station_id":"ce4bha12rcd13ifvqee0","pricing_plan_id":"cebpf4jnsgd1na2vs0mg"},{"bike_id":"89ac6bdf-0444-4a2d-be98-145924d8858b","system_id":"levelo_inurba_marseille","lat":43.29168,"lon":5.37166,"is_reserved":false,"is_disabled":false,"rental_uris":{"android":"levelo://app?vid=89ac6bdf-0444-4a2d-be98-145924d8858b","ios":"levelo://app?vid=89ac6bdf-0444-4a2d-be98-145924d8858b"},"vehicle_type_id":"4","last_reported":1752059359,"current_range_meters":24400,"station_id":"ce4bha92rcd13ifvqeh0","pricing_plan_id":"cebpf4jnsgd1na2vs0mg"},{"bike_id":"3e017a38-9a20-4013-9bac-ee785f5060be","system_id":"levelo_inurba_marseille","lat":43.2842,"lon":5.34976,"is_reserved":false,"is_disabled":false,"rental_uris":{"android":"levelo://app?vid=3e017a38-9a20-4013-9bac-ee785f5060be","ios":"levelo://app?vid=3e017a38-9a20-4013-9bac-ee785f5060be"},"vehicle_type_id":"4","last_reported":1752059359,"current_range_meters":24400,"station_id":"ce4bhbh2rcd13ifvqepg","pricing_plan_id":"cebpf4jnsgd1na2vs0mg"},{"bike_id":"eba7a11c-5b7a-491e-9c02-9ea9abf869de","system_id":"levelo_inurba_marseille","lat":43.28274,"lon":5.3507,"is_reserved":false,"is_disabled":false,"rental_uris":{"android":"levelo://app?vid=eba7a11c-5b7a-491e-9c02-9ea9abf869de","ios":"levelo://app?vid=eba7a11c-5b7a-491e-9c02-9ea9abf869de"},"vehicle_type_id":"4","last_reported":1752059359,"current_range_meters":24400,"station_id":"ce4bhbp2rcd13ifvqerg","pricing_plan_id":"cebpf4jnsgd1na2vs0mg"},{"bike_id":"0a4af62e-fb4c-4310-8d4e-00f12b8210f4","system_id":"levelo_inurba_marseille","lat":43.25829,"lon":5.3944,"is_reserved":false,"is_disabled":false,"rental_uris":{"android":"levelo://app?vid=0a4af62e-fb4c-4310-8d4e-00f12b8210f4","ios":"levelo://app?vid=0a4af62e-fb4c-4310-8d4e-00f12b8210f4"},"vehicle_type_id":"4","last_reported":1752059359,"current_range_meters":24400,"station_id":"ce4bhip2rcd13ifvqft0","pricing_plan_id":"cebpf4jnsgd1na2vs0mg"},{"bike_id":"caf11116-68e4-4652-ae18-4fe4b20da076","system_id":"levelo_inurba_marseille","lat":43.259516,"lon":5.409397,"is_reserved":false,"is_disabled":false,"rental_uris":{"android":"levelo://app?vid=caf11116-68e4-4652-ae18-4fe4b20da076","ios":"levelo://app?vid=caf11116-68e4-4652-ae18-4fe4b20da076"},"vehicle_type_id":"4","last_reported":1752059359,"current_range_meters":24400,"station_id":"ce4bhm92rcd13ifvqglg","pricing_plan_id":"cebpf4jnsgd1na2vs0mg"},{"bike_id":"b546ea33-b957-480f-88ac-07263bf49779","system_id":"levelo_inurba_marseille","lat":43.23158,"lon":5.43706,"is_reserved":false,"is_disabled":false,"rental_uris":{"android":"levelo://app?vid=b546ea33-b957-480f-88ac-07263bf49779","ios":"levelo://app?vid=b546ea33-b957-480f-88ac-07263bf49779"},"vehicle_type_id":"4","last_reported":1752059359,"current_range_meters":24400,"station_id":"ce4bhmp2rcd13ifvqgog","pricing_plan_id":"cebpf4jnsgd1na2vs0mg"},{"bike_id":"28aa341b-d775-4bdf-a8b4-820e8ea6e66f","system_id":"levelo_inurba_marseille","lat":43.31278,"lon":5.37395,"is_reserved":false,"is_disabled":false,"rental_uris":{"android":"levelo://app?vid=28aa341b-d775-4bdf-a8b4-820e8ea6e66f","ios":"levelo://app?vid=28aa341b-d775-4bdf-a8b4-820e8ea6e66f"},"vehicle_type_id":"4","last_reported":1752059359,"current_range_meters":24800,"station_id":"","pricing_plan_id":"cebpf4jnsgd1na2vs0mg"},{"bike_id":"f596e946-0d94-4ca4-85f6-9872f4fbb815","system_id":"levelo_inurba_marseille","lat":43.29031,"lon":5.38656,"is_reserved":false,"is_disabled":false,"rental_uris":{"android":"levelo://app?vid=f596e946-0d94-4ca4-85f6-9872f4fbb815","ios":"levelo://app?vid=f596e946-0d94-4ca4-85f6-9872f4fbb815"},"vehicle_type_id":"4","last_reported":1752059359,"current_range_meters":24800,"station_id":"ce4bh4p2rcd13ifvqe0g","pricing_plan_id":"cebpf4jnsgd1na2vs0mg"},{"bike_id":"9d1a1862-d55d-482b-84dc-ae0b309b3ddf","system_id":"levelo_inurba_marseille","lat":43.28413,"lon":5.3499,"is_reserved":false,"is_disabled":false,"rental_uris":{"android":"levelo://app?vid=9d1a1862-d55d-482b-84dc-ae0b309b3ddf","ios":"levelo://app?vid=9d1a1862-d55d-482b-84dc-ae0b309b3ddf"},"vehicle_type_id":"4","last_reported":1752059359,"current_range_meters":24800,"station_id":"ce4bhbh2rcd13ifvqepg","pricing_plan_id":"cebpf4jnsgd1na2vs0mg"},{"bike_id":"55d10285-bffd-4525-a469-f4f39d1b7347","system_id":"levelo_inurba_marseille","lat":43.28614,"lon":5.35113,"is_reserved":false,"is_disabled":false,"rental_uris":{"android":"levelo://app?vid=55d10285-bffd-4525-a469-f4f39d1b7347","ios":"levelo://app?vid=55d10285-bffd-4525-a469-f4f39d1b7347"},"vehicle_type_id":"4","last_reported":1752059359,"current_range_meters":24800,"station_id":"ce4bhch2rcd13ifvqeug","pricing_plan_id":"cebpf4jnsgd1na2vs0mg"},{"bike_id":"d45d7fc6-bfec-4581-8679-9c78600e288e","system_id":"levelo_inurba_marseille","lat":43.262071,"lon":5.379337,"is_reserved":false,"is_disabled":false,"rental_uris":{"android":"levelo://app?vid=d45d7fc6-bfec-4581-8679-9c78600e288e","ios":"levelo://app?vid=d45d7fc6-bfec-4581-8679-9c78600e288e"},"vehicle_type_id":"4","last_reported":1752059359,"current_range_meters":24800,"station_id":"ce4bhjp2rcd13ifvqg90","pricing_plan_id":"cebpf4jnsgd1na2vs0mg"},{"bike_id":"f775c35c-1a3a-4b08-9eed-f0304d0eaf60","system_id":"levelo_inurba_marseille","lat":43.23155,"lon":5.43724,"is_reserved":false,"is_disabled":false,"rental_uris":{"android":"levelo://app?vid=f775c35c-1a3a-4b08-9eed-f0304d0eaf60","ios":"levelo://app?vid=f775c35c-1a3a-4b08-9eed-f0304d0eaf60"},"vehicle_type_id":"4","last_reported":1752059359,"current_range_meters":24800,"station_id":"ce4bhmp2rcd13ifvqgog","pricing_plan_id":"cebpf4jnsgd1na2vs0mg"},{"bike_id":"bda5bb46-2fc0-43f7-bbea-1485281ee796","system_id":"levelo_inurba_marseille","lat":43.24174,"lon":5.39732,"is_reserved":false,"is_disabled":false,"rental_uris":{"android":"levelo://app?vid=bda5bb46-2fc0-43f7-bbea-1485281ee796","ios":"levelo://app?vid=bda5bb46-2fc0-43f7-bbea-1485281ee796"},"vehicle_type_id":"4","last_reported":1752059359,"current_range_meters":24800,"station_id":"ce4bhn12rcd13ifvqgpg","pricing_plan_id":"cebpf4jnsgd1na2vs0mg"},{"bike_id":"eb22f00e-358c-4188-aa1f-1f3f6fcedcd2","system_id":"levelo_inurba_marseille","lat":43.310754,"lon":5.424435,"is_reserved":false,"is_disabled":false,"rental_uris":{"android":"levelo://app?vid=eb22f00e-358c-4188-aa1f-1f3f6fcedcd2","ios":"levelo://app?vid=eb22f00e-358c-4188-aa1f-1f3f6fcedcd2"},"vehicle_type_id":"4","last_reported":1752059359,"current_range_meters":24800,"station_id":"ce4bhp92rcd13ifvqhag","pricing_plan_id":"cebpf4jnsgd1na2vs0mg"},{"bike_id":"f178f10a-d6dd-4a23-b600-03bc788b8eb3","system_id":"levelo_inurba_marseille","lat":43.21746,"lon":5.34607,"is_reserved":false,"is_disabled":false,"rental_uris":{"android":"levelo://app?vid=f178f10a-d6dd-4a23-b600-03bc788b8eb3","ios":"levelo://app?vid=f178f10a-d6dd-4a23-b600-03bc788b8eb3"},"vehicle_type_id":"4","last_reported":1752059359,"current_range_meters":24800,"station_id":"st_cvj6r9ubvosntc0bgbag","pricing_plan_id":"cebpf4jnsgd1na2vs0mg"},{"bike_id":"37b84a38-055a-4a6e-a56a-8ff3d0c1b2ec","system_id":"levelo_inurba_marseille","lat":43.211906,"lon":5.350791,"is_reserved":false,"is_disabled":false,"rental_uris":{"android":"levelo://app?vid=37b84a38-055a-4a6e-a56a-8ff3d0c1b2ec","ios":"levelo://app?vid=37b84a38-055a-4a6e-a56a-8ff3d0c1b2ec"},"vehicle_type_id":"4","last_reported":1752059359,"current_range_meters":24800,"station_id":"st_cvj6sg6p6f1abm77japg","pricing_plan_id":"cebpf4jnsgd1na2vs0mg"},{"bike_id":"55fe33d5-a635-4806-9b11-1e5731f16b58","system_id":"levelo_inurba_marseille","lat":43.229309,"lon":5.353759,"is_reserved":false,"is_disabled":false,"rental_uris":{"android":"levelo://app?vid=55fe33d5-a635-4806-9b11-1e5731f16b58","ios":"levelo://app?vid=55fe33d5-a635-4806-9b11-1e5731f16b58"},"vehicle_type_id":"4","last_reported":1752059359,"current_range_meters":25200,"station_id":"","pricing_plan_id":"cebpf4jnsgd1na2vs0mg"},{"bike_id":"67a45585-930f-4a51-b5c7-db1585564219","system_id":"levelo_inurba_marseille","lat":43.30909,"lon":5.36873,"is_reserved":false,"is_disabled":false,"rental_uris":{"android":"levelo://app?vid=67a45585-930f-4a51-b5c7-db1585564219","ios":"levelo://app?vid=67a45585-930f-4a51-b5c7-db1585564219"},"vehicle_type_id":"4","last_reported":1752059359,"current_range_meters":25200,"station_id":"ce4bgn92rcd13ifvqbvg","pricing_plan_id":"cebpf4jnsgd1na2vs0mg"},{"bike_id":"ebe469dc-1d38-433d-87ed-d93e3a053115","system_id":"levelo_inurba_marseille","lat":43.3032,"lon":5.36905,"is_reserved":false,"is_disabled":false,"rental_uris":{"android":"levelo://app?vid=ebe469dc-1d38-433d-87ed-d93e3a053115","ios":"levelo://app?vid=ebe469dc-1d38-433d-87ed-d93e3a053115"},"vehicle_type_id":"4","last_reported":1752059359,"current_range_meters":25200,"station_id":"ce4bgqh2rcd13ifvqc5g","pricing_plan_id":"cebpf4jnsgd1na2vs0mg"},{"bike_id":"f45991bb-1001-4310-8c08-a4bb1131b156","system_id":"levelo_inurba_marseille","lat":43.29084,"lon":5.37159,"is_reserved":false,"is_disabled":false,"rental_uris":{"android":"levelo://app?vid=f45991bb-1001-4310-8c08-a4bb1131b156","ios":"levelo://app?vid=f45991bb-1001-4310-8c08-a4bb1131b156"},"vehicle_type_id":"4","last_reported":1752059359,"current_range_meters":25200,"station_id":"ce4bh5p2rcd13ifvqe4g","pricing_plan_id":"cebpf4jnsgd1na2vs0mg"},