{"last_updated":1728364125,"ttl":60,"version":"2.2","data":{"bikes":[{"bike_id":"57553b10-65c5-4902-93ea-d1debdf4f122","system_id":"levelo_inurba_marseille","lat":43.28266,"lon":5.35073,"is_reserved":false,"is_disabled":false,"rental_uris":{"android":"levelo://app?vid=57553b10-65c5-4902-93ea-d1debdf4f122","ios":"levelo://app?vid=57553b10-65c5-4902-93ea-d1debdf4f122"},"vehicle_type_id":"4","last_reported":1728364126,"current_range_meters":36800,"station_id":"ce4bhbp2rcd13ifvqerg","pricing_plan_id":"cebpf4jnsgd1na2vs0mg"},{"bike_id":"f388f7a0-ce81-424e-81ff-f56071b4276d","system_id":"levelo_inurba_marseille","lat":43.257262,"lon":5.411067,"is_reserved":false,"is_disabled":false,"rental_uris":{"android":"levelo://app?vid=f388f7a0-ce81-424e-81ff-f56071b4276d","ios":"levelo://app?vid=f388f7a0-ce81-424e-81ff-f56071b4276d"},"vehicle_type_id":"4","last_reported":1728364126,"current_range_meters":28400,"station_id":"ce4bhkp2rcd13ifvqgd0","pricing_plan_id":"cebpf4jnsgd1na2vs0mg"},{"bike_id":"ad551fe2-a533-482b-bad0-b2aaf54414d6","system_id":"levelo_inurba_marseille","lat":43.30141,"lon":5.37416,"is_reserved":false,"is_disabled":false,"rental_uris":{"android":"levelo://app?vid=ad551fe2-a533-482b-bad0-b2aaf54414d6","ios":"levelo://app?vid=ad551fe2-a533-482b-bad0-b2aaf54414d6"},"vehicle_type_id":"4","last_reported":1728364126,"current_range_meters":20800,"station_id":"ce4bgs92rcd13ifvqcc0","pricing_plan_id":"cebpf4jnsgd1na2vs0mg"},{"bike_id":"6ea71e61-0162-482a-8abc-aba97e9028bf","system_id":"levelo_inurba_marseille","lat":43.28153,"lon":5.42641,"is_reserved":false,"is_disabled":false,"rental_uris":{"android":"levelo://app?vid=6ea71e61-0162-482a-8abc-aba97e9028bf","ios":"levelo://app?vid=6ea71e61-0162-482a-8abc-aba97e9028bf"},"vehicle_type_id":"4","last_reported":1728364126,"current_range_meters":38400,"station_id":"ce4bhnh2rcd13ifvqgug","pricing_plan_id":"cebpf4jnsgd1na2vs0mg"},{"bike_id":"9c4c72c6-a204-4ec6-b60f-4072f9a90ddd","system_id":"levelo_inurba_marseille","lat":43.287,"lon":5.37393,"is_reserved":false,"is_disabled":false,"rental_uris":{"android":"levelo://app?vid=9c4c72c6-a204-4ec6-b60f-4072f9a90ddd","ios":"levelo://app?vid=9c4c72c6-a204-4ec6-b60f-4072f9a90ddd"},"vehicle_type_id":"4","last_reported":1728364126,"current_range_meters":38000,"station_id":"ce4bh3p2rcd13ifvqdq0","pricing_plan_id":"cebpf4jnsgd1na2vs0mg"},{"bike_id":"66e2e7d1-daec-4bcd-bd63-1d4dfbdaeb38","system_id":"levelo_inurba_marseille","lat":43.26064,"lon":5.39397,"is_reserved":false,"is_disabled":false,"rental_uris":{"android":"levelo://app?vid=66e2e7d1-daec-4bcd-bd63-1d4dfbdaeb38","ios":"levelo://app?vid=66e2e7d1-daec-4bcd-bd63-1d4dfbdaeb38"},"vehicle_type_id":"4","last_reported":1728364126,"current_range_meters":39200,"station_id":"ce4bhh92rcd13ifvqfj0","pricing_plan_id":"cebpf4jnsgd1na2vs0mg"},{"bike_id":"85f4d94a-d9e1-420b-a431-e0beddf3d432","system_id":"levelo_inurba_marseille","lat":43.27565,"lon":5.38416,"is_reserved":false,"is_disabled":false,"rental_uris":{"android":"levelo://app?vid=85f4d94a-d9e1-420b-a431-e0beddf3d432","ios":"levelo://app?vid=85f4d94a-d9e1-420b-a431-e0beddf3d432"},"vehicle_type_id":"4","last_reported":1728364126,"current_range_meters":38400,"station_id":"ce4bhh92rcd13ifvqfi0","pricing_plan_id":"cebpf4jnsgd1na2vs0mg"},{"bike_id":"b439fff5-cbbc-4cd9-a0e5-659f779678d9","system_id":"levelo_inurba_marseille","lat":43.29045,"lon":5.35917,"is_reserved":false,"is_disabled":false,"rental_uris":{"android":"levelo://app?vid=b439fff5-cbbc-4cd9-a0e5-659f779678d9","ios":"levelo://app?vid=b439fff5-cbbc-4cd9-a0e5-659f779678d9"},"vehicle_type_id":"4","last_reported":1728364126,"current_range_meters":38000,"station_id":"ce4bha92rcd13ifvqeg0","pricing_plan_id":"cebpf4jnsgd1na2vs0mg"},{"bike_id":"3edccbad-c604-40df-acb2-6e9d91b67298","system_id":"levelo_inurba_marseille","lat":43.23053,"lon":5.35491,"is_reserved":false,"is_disabled":false,"rental_uris":{"android":"levelo://app?vid=3edccbad-c604-40df-acb2-6e9d91b67298","ios":"levelo://app?vid=3edccbad-c604-40df-acb2-6e9d91b67298"},"vehicle_type_id":"4","last_reported":1728364126,"current_range_meters":16400,"station_id":"cpo3342slgdg3j2ifvpg","pricing_plan_id":"cebpf4jnsgd1na2vs0mg"},{"bike_id":"a989dcd4-4f7f-42a6-b472-767b8e02677c","system_id":"levelo_inurba_marseille","lat":43.28447,"lon":5.35878,"is_reserved":false,"is_disabled":false,"rental_uris":{"android":"levelo://app?vid=a989dcd4-4f7f-42a6-b472-767b8e02677c","ios":"levelo://app?vid=a989dcd4-4f7f-42a6-b472-767b8e02677c"},"vehicle_type_id":"4","last_reported":1728364126,"current_range_meters":26800,"station_id":"ce4bhah2rcd13ifvqei0","pricing_plan_id":"cebpf4jnsgd1na2vs0mg"},{"bike_id":"56d3a2c1-cbab-4447-a367-83dfb2dbdacd","system_id":"levelo_inurba_marseille","lat":43.30881,"lon":5.396583,"is_reserved":false,"is_disabled":false,"rental_uris":{"android":"levelo://app?vid=56d3a2c1-cbab-4447-a367-83dfb2dbdacd","ios":"levelo://app?vid=56d3a2c1-cbab-4447-a367-83dfb2dbdacd"},"vehicle_type_id":"4","last_reported":1728364126,"current_range_meters":8800,"station_id":"ce4bh012rcd13ifvqcv0","pricing_plan_id":"cebpf4jnsgd1na2vs0mg"},{"bike_id":"6f011674-22a2-48c6-9f3c-a4692e4becfb","system_id":"levelo_inurba_marseille","lat":43.313665,"lon":5.384978,"is_reserved":false,"is_disabled":false,"rental_uris":{"android":"levelo://app?vid=6f011674-22a2-48c6-9f3c-a4692e4becfb","ios":"levelo://app?vid=6f011674-22a2-48c6-9f3c-a4692e4becfb"},"vehicle_type_id":"4","last_reported":1728364126,"current_range_meters":19600,"station_id":"ce4bgt92rcd13ifvqcf0","pricing_plan_id":"cebpf4jnsgd1na2vs0mg"},{"bike_id":"79f4c1e9-f463-464a-a6d1-9bda4de9e697","system_id":"levelo_inurba_marseille","lat":43.27941,"lon":5.4104,"is_reserved":false,"is_disabled":false,"rental_uris":{"android":"levelo://app?vid=79f4c1e9-f463-464a-a6d1-9bda4de9e697","ios":"levelo://app?vid=79f4c1e9-f463-464a-a6d1-9bda4de9e697"},"vehicle_type_id":"4","last_reported":1728364126,"current_range_meters":20000,"station_id":"ce4bhnp2rcd13ifvqh0g","pricing_plan_id":"cebpf4jnsgd1na2vs0mg"},{"bike_id":"52f0b8b5-6eaf-4c1c-bebf-564bf53fe900","system_id":"levelo_inurba_marseille","lat":43.29617,"lon":5.40592,"is_reserved":false,"is_disabled":false,"rental_uris":{"android":"levelo://app?vid=52f0b8b5-6eaf-4c1c-bebf-564bf53fe900","ios":"levelo://app?vid=52f0b8b5-6eaf-4c1c-bebf-564bf53fe900"},"vehicle_type_id":"4","last_reported":1728364126,"current_range_meters":26000,"station_id":"ce4bh0h2rcd13ifvqd60","pricing_plan_id":"cebpf4jnsgd1na2vs0mg"},{"bike_id":"194545a4-9a17-410e-84e8-f3516539e740","system_id":"levelo_inurba_marseille","lat":43.2826,"lon":5.35063,"is_reserved":false,"is_disabled":false,"rental_uris":{"android":"levelo://app?vid=194545a4-9a17-410e-84e8-f3516539e740","ios":"levelo://app?vid=194545a4-9a17-410e-84e8-f3516539e740"},"vehicle_type_id":"4","last_reported":1728364126,"current_range_meters":38800,"station_id":"ce4bhbp2rcd13ifvqerg","pricing_plan_id":"cebpf4jnsgd1na2vs0mg"},{"bike_id":"4a2aa11a-a153-469f-88fd-3adfadc9f5b1","system_id":"levelo_inurba_marseille","lat":43.3176,"lon":5.39009,"is_reserved":false,"is_disabled":false,"rental_uris":{"android":"levelo://app?vid=4a2aa11a-a153-469f-88fd-3adfadc9f5b1","ios":"levelo://app?vid=4a2aa11a-a153-469f-88fd-3adfadc9f5b1"},"vehicle_type_id":"4","last_reported":1728364126,"current_range_meters":35200,"station_id":"ce4bhqp2rcd13ifvqhng","pricing_plan_id":"cebpf4jnsgd1na2vs0mg"},{"bike_id":"300fb82e-5c0c-4397-9e80-d64db571e663","system_id":"levelo_inurba_marseille","lat":43.33603,"lon":5.41024,"is_reserved":false,"is_disabled":false,"rental_uris":{"android":"levelo://app?vid=300fb82e-5c0c-4397-9e80-d64db571e663","ios":"levelo://app?vid=300fb82e-5c0c-4397-9e80-d64db571e663"},"vehicle_type_id":"4","last_reported":1728364126,"current_range_meters":37600,"station_id":"ce4bhqh2rcd13ifvqhmg","pricing_plan_id":"cebpf4jnsgd1na2vs0mg"},{"bike_id":"09c86d2a-7e11-4c9e-bec7-62f912b5a3ed","system_id":"levelo_inurba_marseille","lat":43.30641,"lon":5.40083,"is_reserved":false,"is_disabled":false,"rental_uris":{"android":"levelo://app?vid=09c86d2a-7e11-4c9e-bec7-62f912b5a3ed","ios":"levelo://app?vid=09c86d2a-7e11-4c9e-bec7-62f912b5a3ed"},"vehicle_type_id":"4","last_reported":1728364126,"current_range_meters":9200,"station_id":"ce4bh112rcd13ifvqda0","pricing_plan_id":"cebpf4jnsgd1na2vs0mg"},{"bike_id":"5cbc9c45-d090-40f0-bf46-98bb0454ae1f","system_id":"levelo_inurba_marseille","lat":43.29199,"lon":5.39305,"is_reserved":false,"is_disabled":false,"rental_uris":{"android":"levelo://app?vid=5cbc9c45-d090-40f0-bf46-98bb0454ae1f","ios":"levelo://app?vid=5cbc9c45-d090-40f0-bf46-98bb0454ae1f"},"vehicle_type_id":"4","last_reported":1728364126,"current_range_meters":37600,"station_id":"ce4bh192rcd13ifvqdd0","pricing_plan_id":"cebpf4jnsgd1na2vs0mg"},{"bike_id":"7f8896c9-e044-4169-ba02-75989da632b5","system_id":"levelo_inurba_marseille","lat":43.24812,"lon":5.37463,"is_reserved":false,"is_disabled":false,"rental_uris":{"android":"levelo://app?vid=7f8896c9-e044-4169-ba02-75989da632b5","ios":"levelo://app?vid=7f8896c9-e044-4169-ba02-75989da632b5"},"vehicle_type_id":"4","last_reported":1728364126,"current_range_meters":38800,"station_id":"ce4bhgh2rcd13ifvqfb0","pricing_plan_id":"cebpf4jnsgd1na2vs0mg"},{"bike_id":"d1e7cdbb-8f34-477b-bab3-56be2bc28d90","system_id":"levelo_inurba_marseille","lat":43.31361,"lon":5.38495,"is_reserved":false,"is_disabled":false,"rental_uris":{"android":"levelo://app?vid=d1e7cdbb-8f34-477b-bab3-56be2bc28d90","ios":"levelo://app?vid=d1e7cdbb-8f34-477b-bab3-56be2bc28d90"},"vehicle_type_id":"4","last_reported":1728364126,"current_range_meters":36000,"station_id":"ce4bgt92rcd13ifvqcf0","pricing_plan_id":"cebpf4jnsgd1na2vs0mg"},{"bike_id":"f1fcf759-323f-47ed-8065-17977692e5a8","system_id":"levelo_inurba_marseille","lat":43.33611,"lon":5.41016,"is_reserved":false,"is_disabled":false,"rental_uris":{"android":"levelo://app?vid=f1fcf759-323f-47ed-8065-17977692e5a8","ios":"levelo://app?vid=f1fcf759-323f-47ed-8065-17977692e5a8"},"vehicle_type_id":"4","last_reported":1728364126,"current_range_meters":32800,"station_id":"ce4bhqh2rcd13ifvqhmg","pricing_plan_id":"cebpf4jnsgd1na2vs0mg"},{"bike_id":"090d217f-272c-4dde-b079-22a5da880bb2","system_id":"levelo_inurba_marseille","lat":43.32658,"lon":5.40991,"is_reserved":false,"is_disabled":false,"rental_uris":{"android":"levelo://app?vid=090d217f-272c-4dde-b079-22a5da880bb2","ios":"levelo://app?vid=090d217f-272c-4dde-b079-22a5da880bb2"},"vehicle_type_id":"4","last_reported":1728364126,"current_range_meters":31200,"station_id":"ce4bhpp2rcd13ifvqhgg","pricing_plan_id":"cebpf4jnsgd1na2vs0mg"},{"bike_id":"11b35691-6b69-4e44-9896-778a89c5f594","system_id":"levelo_inurba_marseille","lat":43.28845,"lon":5.35848,"is_reserved":false,"is_disabled":false,"rental_uris":{"android":"levelo://app?vid=11b35691-6b69-4e44-9896-778a89c5f594","ios":"levelo://app?vid=11b35691-6b69-4e44-9896-778a89c5f594"},"vehicle_type_id":"4","last_reported":1728364126,"current_range_meters":38800,"station_id":"ce4bhb12rcd13ifvqem0","pricing_plan_id":"cebpf4jnsgd1na2vs0mg"},{"bike_id":"81b07a05-4c57-4e76-99d6-5f6e3acbb201","system_id":"levelo_inurba_marseille","lat":43.23062,"lon":5.35496,"is_reserved":false,"is_disabled":false,"rental_uris":{"android":"levelo://app?vid=81b07a05-4c57-4e76-99d6-5f6e3acbb201","ios":"levelo://app?vid=81b07a05-4c57-4e76-99d6-5f6e3acbb201"},"vehicle_type_id":"4","last_reported":1728364126,"current_range_meters":8800,"station_id":"cpo3342slgdg3j2ifvpg","pricing_plan_id":"cebpf4jnsgd1na2vs0mg"},{"bike_id":"f6f735b2-2c7f-4bda-80c2-a88a32bd651a","system_id":"levelo_inurba_marseille","lat":43.28464,"lon":5.35874,"is_reserved":false,"is_disabled":false,"rental_uris":{"android":"levelo://app?vid=f6f735b2-2c7f-4bda-80c2-a88a32bd651a","ios":"levelo://app?vid=f6f735b2-2c7f-4bda-80c2-a88a32bd651a"},"vehicle_type_id":"4","last_reported":1728364126,"current_range_meters":39200,"station_id":"ce4bhah2rcd13ifvqei0","pricing_plan_id":"cebpf4jnsgd1na2vs0mg"},{"bike_id":"e04bac3b-3017-4264-87e3-39689488fd05","system_id":"levelo_inurba_marseille","lat":43.284642,"lon":5.358908,"is_reserved":false,"is_disabled":false,"rental_uris":{"android":"levelo://app?vid=e04bac3b-3017-4264-87e3-39689488fd05","ios":"levelo://app?vid=e04bac3b-3017-4264-87e3-39689488fd05"},"vehicle_type_id":"4","last_reported":1728364126,"current_range_meters":28000,"station_id":"ce4bhah2rcd13ifvqei0","pricing_plan_id":"cebpf4jnsgd1na2vs0mg"},{"bike_id":"b014f02c-99bd-498f-a572-9a513a2b9a99","system_id":"levelo_inurba_marseille","lat":43.28713,"lon":5.39986,"is_reserved":false,"is_disabled":false,"rental_uris":{"android":"levelo://app?vid=b014f02c-99bd-498f-a572-9a513a2b9a99","ios":"levelo://app?vid=b014f02c-99bd-498f-a572-9a513a2b9a99"},"vehicle_type_id":"4","last_reported":1728364126,"current_range_meters":38800,"station_id":"ce4bho92rcd13ifvqh3g","pricing_plan_id":"cebpf4jnsgd1na2vs0mg"},{"bike_id":"0a71d2d5-51be-4e35-9f3b-c2edfb317aef","system_id":"levelo_inurba_marseille","lat":43.31354,"lon":5.38486,"is_reserved":false,"is_disabled":false,"rental_uris":{"android":"levelo://app?vid=0a71d2d5-51be-4e35-9f3b-c2edfb317aef","ios":"levelo://app?vid=0a71d2d5-51be-4e35-9f3b-c2edfb317aef"},"vehicle_type_id":"4","last_reported":1728364126,"current_range_meters":28000,"station_id":"ce4bgt92rcd13ifvqcf0","pricing_plan_id":"cebpf4jnsgd1na2vs0mg"},{"bike_id":"3ef37b24-db49-4571-8903-257e514e9f58","system_id":"levelo_inurba_marseille","lat":43.28726,"lon":5.36081,"is_reserved":false,"is_disabled":false,"rental_uris":{"android":"levelo://app?vid=3ef37b24-db49-4571-8903-257e514e9f58","ios":"levelo://app?vid=3ef37b24-db49-4571-8903-257e514e9f58"},"vehicle_type_id":"4","last_reported":1728364126,"current_range_meters":39200,"station_id":"cki0cbj6b192h4jlfktg","pricing_plan_id":"cebpf4jnsgd1na2vs0mg"},{"bike_id":"97859cce-2739-4870-920f-9160c684d214","system_id":"levelo_inurba_marseille","lat":43.29554,"lon":5.42287,"is_reserved":false,"is_disabled":false,"rental_uris":{"android":"levelo://app?vid=97859cce-2739-4870-920f-9160c684d214","ios":"levelo://app?vid=97859cce-2739-4870-920f-9160c684d214"},"vehicle_type_id":"4","last_reported":1728364126,"current_range_meters":38000,"station_id":"ce4bhph2rcd13ifvqhdg","pricing_plan_id":"cebpf4jnsgd1na2vs0mg"},{"bike_id":"1353961b-833b-4034-9c64-7bda01fbcbcd","system_id":"levelo_inurba_marseille","lat":43.30805,"lon":5.38155,"is_reserved":false,"is_disabled":false,"rental_uris":{"android":"levelo://app?vid=1353961b-833b-4034-9c64-7bda01fbcbcd","ios":"levelo://app?vid=1353961b-833b-4034-9c64-7bda01fbcbcd"},"vehicle_type_id":"4","last_reported":1728364126,"current_range_meters":39200,"station_id":"ce4bgt12rcd13ifvqce0","pricing_plan_id":"cebpf4jnsgd1na2vs0mg"},{"bike_id":"19d6cb89-6086-42b7-a719-7b7459264d89","system_id":"levelo_inurba_marseille","lat":43.2827,"lon":5.3508,"is_reserved":false,"is_disabled":false,"rental_uris":{"android":"levelo://app?vid=19d6cb89-6086-42b7-a719-7b7459264d89","ios":"levelo://app?vid=19d6cb89-6086-42b7-a719-7b7459264d89"},"vehicle_type_id":"4","last_reported":1728364126,"current_range_meters":38800,"station_id":"ce4bhbp2rcd13ifvqerg","pricing_plan_id":"cebpf4jnsgd1na2vs0mg"},{"bike_id":"c2dbe9fe-42fc-49ee-8f65-625ce0153505","system_id":"levelo_inurba_marseille","lat":43.28726,"lon":5.36075,"is_reserved":false,"is_disabled":false,"rental_uris":{"android":"levelo://app?vid=c2dbe9fe-42fc-49ee-8f65-625ce0153505","ios":"levelo://app?vid=c2dbe9fe-42fc-49ee-8f65-625ce0153505"},"vehicle_type_id":"4","last_reported":1728364126,"current_range_meters":38800,"station_id":"cki0cbj6b192h4jlfktg","pricing_plan_id":"cebpf4jnsgd1na2vs0mg"},{"bike_id":"663d807d-5236-4795-8907-d41427101515","system_id":"levelo_inurba_marseille","lat":43.33019,"lon":5.39033,"is_reserved":false,"is_disabled":false,"rental_uris":{"android":"levelo://app?vid=663d807d-5236-4795-8907-d41427101515","ios":"levelo://app?vid=663d807d-5236-4795-8907-d41427101515"},"vehicle_type_id":"4","last_reported":1728364126,"current_range_meters":38800,"station_id":"ce4bhr92rcd13ifvqhrg","pricing_plan_id":"cebpf4jnsgd1na2vs0mg"},{"bike_id":"0190a491-52c0-46a5-be20-b72d156a36de","system_id":"levelo_inurba_marseille","lat":43.31275,"lon":5.40166,"is_reserved":false,"is_disabled":false,"rental_uris":{"android":"levelo://app?vid=0190a491-52c0-46a5-be20-b72d156a36de","ios":"levelo://app?vid=0190a491-52c0-46a5-be20-b72d156a36de"},"vehicle_type_id":"4","last_reported":1728364126,"current_range_meters":34000,"station_id":"ce4bh092rcd13ifvqd30","pricing_plan_id":"cebpf4jnsgd1na2vs0mg"},{"bike_id":"066ccb90-6b9a-4302-bde4-9c97dfce747d","system_id":"levelo_inurba_marseille","lat":43.337253,"lon":5.391945,"is_reserved":false,"is_disabled":false,"rental_uris":{"android":"levelo://app?vid=066ccb90-6b9a-4302-bde4-9c97dfce747d","ios":"levelo://app?vid=066ccb90-6b9a-4302-bde4-9c97dfce747d"},"vehicle_type_id":"4","last_reported":1728364126,"current_range_meters":38000,"station_id":"ce4bhr92rcd13ifvqhsg","pricing_plan_id":"cebpf4jnsgd1na2vs0mg"},{"bike_id":"2166293a-ca41-41e5-b612-6009b96752c8","system_id":"levelo_inurba_marseille","lat":43.29446,"lon":5.39757,"is_reserved":false,"is_disabled":false,"rental_uris":{"android":"levelo://app?vid=2166293a-ca41-41e5-b612-6009b96752c8","ios":"levelo://app?vid=2166293a-ca41-41e5-b612-6009b96752c8"},"vehicle_type_id":"4","last_reported":1728364126,"current_range_meters":16400,"station_id":"ce4bh3h2rcd13ifvqdo0","pricing_plan_id":"cebpf4jnsgd1na2vs0mg"},{"bike_id":"7a5b25a2-fca8-4b70-9437-eb559f1dd99b","system_id":"levelo_inurba_marseille","lat":43.24806,"lon":5.37452,"is_reserved":false,"is_disabled":false,"rental_uris":{"android":"levelo://app?vid=7a5b25a2-fca8-4b70-9437-eb559f1dd99b","ios":"levelo://app?vid=7a5b25a2-fca8-4b70-9437-eb559f1dd99b"},"vehicle_type_id":"4","last_reported":1728364126,"current_range_meters":6800,"station_id":"ce4bhgh2rcd13ifvqfb0","pricing_plan_id":"cebpf4jnsgd1na2vs0mg"},{"bike_id":"33a45c5c-7ac4-4df1-b0b5-744e7c0489fa","system_id":"levelo_inurba_marseille","lat":43.292242,"lon":5.36071,"is_reserved":false,"is_disabled":false,"rental_uris":{"android":"levelo://app?vid=33a45c5c-7ac4-4df1-b0b5-744e7c0489fa","ios":"levelo://app?vid=33a45c5c-7ac4-4df1-b0b5-744e7c0489fa"},"vehicle_type_id":"4","last_reported":1728364126,"current_range_meters":24800,"station_id":"ce4bhbh2rcd13ifvqeqg","pricing_plan_id":"cebpf4jnsgd1na2vs0mg"},{"bike_id":"12974a0f-2544-4d26-91a5-435eae1a2365","system_id":"levelo_inurba_marseille","lat":43.31693,"lon":5.40475,"is_reserved":false,"is_disabled":false,"rental_uris":{"android":"levelo://app?vid=12974a0f-2544-4d26-91a5-435eae1a2365","ios":"levelo://app?vid=12974a0f-2544-4d26-91a5-435eae1a2365"},"vehicle_type_id":"4","last_reported":1728364126,"current_range_meters":37600,"station_id":"ce4bh012rcd13ifvqd00","pricing_plan_id":"cebpf4jnsgd1na2vs0mg"},{"bike_id":"f44a0142-05f1-4a99-80bf-c703ade1ad74","system_id":"levelo_inurba_marseille","lat":43.28664,"lon":5.36344,"is_reserved":false,"is_disabled":false,"rental_uris":{"android":"levelo://app?vid=f44a0142-05f1-4a99-80bf-c703ade1ad74","ios":"levelo://app?vid=f44a0142-05f1-4a99-80bf-c703ade1ad74"},"vehicle_type_id":"4","last_reported":1728364126,"current_range_meters":28000,"station_id":"ce4bhah2rcd13ifvqej0","pricing_plan_id":"cebpf4jnsgd1na2vs0mg"},{"bike_id":"9db10845-0140-40c9-a114-97a358f96a2e","system_id":"levelo_inurba_marseille","lat":43.288555,"lon":5.393146,"is_reserved":false,"is_disabled":false,"rental_uris":{"android":"levelo://app?vid=9db10845-0140-40c9-a114-97a358f96a2e","ios":"levelo://app?vid=9db10845-0140-40c9-a114-97a358f96a2e"},"vehicle_type_id":"4","last_reported":1728364126,"current_range_meters":37600,"station_id":"ce4bh2p2rcd13ifvqdi0","pricing_plan_id":"cebpf4jnsgd1na2vs0mg"},{"bike_id":"acc98aff-5149-4b47-9960-d6248e233e6c","system_id":"levelo_inurba_marseille","lat":43.30885,"lon":5.39634,"is_reserved":false,"is_disabled":false,"rental_uris":{"android":"levelo://app?vid=acc98aff-5149-4b47-9960-d6248e233e6c","ios":"levelo://app?vid=acc98aff-5149-4b47-9960-d6248e233e6c"},"vehicle_type_id":"4","last_reported":1728364126,"current_range_meters":8400,"station_id":"ce4bh012rcd13ifvqcv0","pricing_plan_id":"cebpf4jnsgd1na2vs0mg"},{"bike_id":"a8ce887c-a758-454e-9c1a-6b6577112135","system_id":"levelo_inurba_marseille","lat":43.27188,"lon":5.40995,"is_reserved":false,"is_disabled":false,"rental_uris":{"android":"levelo://app?vid=a8ce887c-a758-454e-9c1a-6b6577112135","ios":"levelo://app?vid=a8ce887c-a758-454e-9c1a-6b6577112135"},"vehicle_type_id":"4","last_reported":1728364126,"current_range_meters":38000,"station_id":"ce4bhl12rcd13ifvqgf0","pricing_plan_id":"cebpf4jnsgd1na2vs0mg"},{"bike_id":"35db5aab-a536-4286-87d7-90ec43783f24","system_id":"levelo_inurba_marseille","lat":43.23189,"lon":5.35547,"is_reserved":false,"is_disabled":false,"rental_uris":{"android":"levelo://app?vid=35db5aab-a536-4286-87d7-90ec43783f24","ios":"levelo://app?vid=35db5aab-a536-4286-87d7-90ec43783f24"},"vehicle_type_id":"4","last_reported":1728364126,"current_range_meters":32400,"station_id":"ce4bhu92rcd13ifvqi70","pricing_plan_id":"cebpf4jnsgd1na2vs0mg"},{"bike_id":"af5317ea-de29-4cfc-ab27-6363076a4af0","system_id":"levelo_inurba_marseille","lat":43.30802,"lon":5.38145,"is_reserved":false,"is_disabled":false,"rental_uris":{"android":"levelo://app?vid=af5317ea-de29-4cfc-ab27-6363076a4af0","ios":"levelo://app?vid=af5317ea-de29-4cfc-ab27-6363076a4af0"},"vehicle_type_id":"4","last_reported":1728364126,"current_range_meters":38800,"station_id":"ce4bgt12rcd13ifvqce0","pricing_plan_id":"cebpf4jnsgd1na2vs0mg"},{"bike_id":"860c37f5-ffde-4aa9-95ed-4f2ed1f0a5e2","system_id":"levelo_inurba_marseille","lat":43.25116,"lon":5.40318,"is_reserved":false,"is_disabled":false,"rental_uris":{"android":"levelo://app?vid=860c37f5-ffde-4aa9-95ed-4f2ed1f0a5e2","ios":"levelo://app?vid=860c37f5-ffde-4aa9-95ed-4f2ed1f0a5e2"},"vehicle_type_id":"4","last_reported":1728364126,"current_range_meters":39200,"station_id":"ce4bhlh2rcd13ifvqgig","pricing_plan_id":"cebpf4jnsgd1na2vs0mg"},{"bike_id":"62dfd99c-f976-4937-b2d0-5b50f5ae699f","system_id":"levelo_inurba_marseille","lat":43.24168,"lon":5.36398,"is_reserved":false,"is_disabled":false,"rental_uris":{"android":"levelo://app?vid=62dfd99c-f976-4937-b2d0-5b50f5ae699f","ios":"levelo://app?vid=62dfd99c-f976-4937-b2d0-5b50f5ae699f"},"vehicle_type_id":"4","last_reported":1728364126,"current_range_meters":7200,"station_id":"cpo36qri1sfpv3e86is0","pricing_plan_id":"cebpf4jnsgd1na2vs0mg"},{"bike_id":"f76e7ecd-1ce9-4ad7-a3e6-7c720fed9b5f","system_id":"levelo_inurba_marseille","lat":43.32292,"lon":5.38278,"is_reserved":false,"is_disabled":false,"rental_uris":{"android":"levelo://app?vid=f76e7ecd-1ce9-4ad7-a3e6-7c720fed9b5f","ios":"levelo://app?vid=f76e7ecd-1ce9-4ad7-a3e6-7c720fed9b5f"},"vehicle_type_id":"4","last_reported":1728364126,"current_range_meters":38800,"station_id":"ce4bhr12rcd13ifvqhqg","pricing_plan_id":"cebpf4jnsgd1na2vs0mg"},{"bike_id":"d5b8bfb4-409c-4850-a69d-4732b5060224","system_id":"levelo_inurba_marseille","lat":43.31362,"lon":5.36716,"is_reserved":false,"is_disabled":false,"rental_uris":{"android":"levelo://app?vid=d5b8bfb4-409c-4850-a69d-4732b5060224","ios":"levelo://app?vid=d5b8bfb4-409c-4850-a69d-4732b5060224"},"vehicle_type_id":"4","last_reported":1728364126,"current_range_meters":38000,"station_id":"ce4bgr92rcd13ifvqc6g","pricing_plan_id":"cebpf4jnsgd1na2vs0mg"},{"bike_id":"f4793b99-7728-4628-8857-6672386d2140","system_id":"levelo_inurba_marseille","lat":43.30195,"lon":5.3662,"is_reserved":false,"is_disabled":false,"rental_uris":{"android":"levelo://app?vid=f4793b99-7728-4628-8857-6672386d2140","ios":"levelo://app?vid=f4793b99-7728-4628-8857-6672386d2140"},"vehicle_type_id":"4","last_reported":1728364126,"current_range_meters":38400,"station_id":"ce4bgrh2rcd13ifvqc8g","pricing_plan_id":"cebpf4jnsgd1na2vs0mg"},{"bike_id":"10d57e38-0a3c-416b-900c-ae70d494698e","system_id":"levelo_inurba_marseille","lat":43.31061,"lon":5.38343,"is_reserved":false,"is_disabled":false,"rental_uris":{"android":"levelo://app?vid=10d57e38-0a3c-416b-900c-ae70d494698e","ios":"levelo://app?vid=10d57e38-0a3c-416b-900c-ae70d494698e"},"vehicle_type_id":"4","last_reported":1728364126,"current_range_meters":32400,"station_id":"ce4bgv92rcd13ifvqcr0","pricing_plan_id":"cebpf4jnsgd1na2vs0mg"},{"bike_id":"74e3cf56-2968-4ce7-bb1a-6073197f7427","system_id":"levelo_inurba_marseille","lat":43.28407,"lon":5.37495,"is_reserved":false,"is_disabled":false,"rental_uris":{"android":"levelo://app?vid=74e3cf56-2968-4ce7-bb1a-6073197f7427","ios":"levelo://app?vid=74e3cf56-2968-4ce7-bb1a-6073197f7427"},"vehicle_type_id":"4","last_reported":1728364126,"current_range_meters":17200,"station_id":"ce4bh412rcd13ifvqds0","pricing_plan_id":"cebpf4jnsgd1na2vs0mg"},{"bike_id":"e2ccf4a1-3a30-455f-aee7-06171700f2b9","system_id":"levelo_inurba_marseille","lat":43.32659,"lon":5.40997,"is_reserved":false,"is_disabled":false,"rental_uris":{"android":"levelo://app?vid=e2ccf4a1-3a30-455f-aee7-06171700f2b9","ios":"levelo://app?vid=e2ccf4a1-3a30-455f-aee7-06171700f2b9"},"vehicle_type_id":"4","last_reported":1728364126,"current_range_meters":39200,"station_id":"ce4bhpp2rcd13ifvqhgg","pricing_plan_id":"cebpf4jnsgd1na2vs0mg"},{"bike_id":"e2ccd035-e2f6-4b13-8c3b-407f63e2c6d1","system_id":"levelo_inurba_marseille","lat":43.33028,"lon":5.39037,"is_reserved":false,"is_disabled":false,"rental_uris":{"android":"levelo://app?vid=e2ccd035-e2f6-4b13-8c3b-407f63e2c6d1","ios":"levelo://app?vid=e2ccd035-e2f6-4b13-8c3b-407f63e2c6d1"},"vehicle_type_id":"4","last_reported":1728364126,"current_range_meters":3200,"station_id":"ce4bhr92rcd13ifvqhrg","pricing_plan_id":"cebpf4jnsgd1na2vs0mg"},{"bike_id":"51ea515d-944c-489c-8a74-b1f09acd3971","system_id":"levelo_inurba_marseille","lat":43.25579,"lon":5.38235,"is_reserved":false,"is_disabled":false,"rental_uris":{"android":"levelo://app?vid=51ea515d-944c-489c-8a74-b1f09acd3971","ios":"levelo://app?vid=51ea515d-944c-489c-8a74-b1f09acd3971"},"vehicle_type_id":"4","last_reported":1728364126,"current_range_meters":39200,"station_id":"ce4bhih2rcd13ifvqfs0","pricing_plan_id":"cebpf4jnsgd1na2vs0mg"},{"bike_id":"5809b552-aeb4-4660-8222-01a555ad230d","system_id":"levelo_inurba_marseille","lat":43.30322,"lon":5.40441,"is_reserved":false,"is_disabled":false,"rental_uris":{"android":"levelo://app?vid=5809b552-aeb4-4660-8222-01a555ad230d","ios":"levelo://app?vid=5809b552-aeb4-4660-8222-01a555ad230d"},"vehicle_type_id":"4","last_reported":1728364126,"current_range_meters":9200,"station_id":"ce4bh012rcd13ifvqd10","pricing_plan_id":"cebpf4jnsgd1na2vs0mg"},{"bike_id":"677f605d-69c8-4382-98b6-5ffff180ce39","system_id":"levelo_inurba_marseille","lat":43.26929,"lon":5.40312,"is_reserved":false,"is_disabled":false,"rental_uris":{"android":"levelo://app?vid=677f605d-69c8-4382-98b6-5ffff180ce39","ios":"levelo://app?vid=677f605d-69c8-4382-98b6-5ffff180ce39"},"vehicle_type_id":"4","last_reported":1728364126,"current_range_meters":22800,"station_id":"cjm6bp8fraef2m0cb0m0","pricing_plan_id":"cebpf4jnsgd1na2vs0mg"},{"bike_id":"ab2e7db6-1366-40c3-b136-07e1da890ca1","system_id":"levelo_inurba_marseille","lat":43.2985,"lon":5.38323,"is_reserved":false,"is_disabled":false,"rental_uris":{"android":"levelo://app?vid=ab2e7db6-1366-40c3-b136-07e1da890ca1","ios":"levelo://app?vid=ab2e7db6-1366-40c3-b136-07e1da890ca1"},"vehicle_type_id":"4","last_reported":1728364126,"current_range_meters":9200,"station_id":"","pricing_plan_id":"cebpf4jnsgd1na2vs0mg"},{"bike_id":"b8f42f5e-5297-48bb-901f-68b928d70285","system_id":"levelo_inurba_marseille","lat":43.284696,"lon":5.358812,"is_reserved":false,"is_disabled":false,"rental_uris":{"android":"levelo://app?vid=b8f42f5e-5297-48bb-901f-68b928d70285","ios":"levelo://app?vid=b8f42f5e-5297-48bb-901f-68b928d70285"},"vehicle_type_id":"4","last_reported":1728364126,"current_range_meters":27200,"station_id":"ce4bhah2rcd13ifvqei0","pricing_plan_id":"cebpf4jnsgd1na2vs0mg"},{"bike_id":"e7ca1121-dfae-49ab-95f7-00c35a3a4f04","system_id":"levelo_inurba_marseille","lat":43.30783,"lon":5.37652,"is_reserved":false,"is_disabled":false,"rental_uris":{"android":"levelo://app?vid=e7ca1121-dfae-49ab-95f7-00c35a3a4f04","ios":"levelo://app?vid=e7ca1121-dfae-49ab-95f7-00c35a3a4f04"},"vehicle_type_id":"4","last_reported":1728364126,"current_range_meters":38000,"station_id":"ce4bgv92rcd13ifvqcq0","pricing_plan_id":"cebpf4jnsgd1na2vs0mg"},{"bike_id":"a854f9eb-d697-4507-b33a-9376691b2f9b","system_id":"levelo_inurba_marseille","lat":43.27993,"lon":5.40015,"is_reserved":false,"is_disabled":false,"rental_uris":{"android":"levelo://app?vid=a854f9eb-d697-4507-b33a-9376691b2f9b","ios":"levelo://app?vid=a854f9eb-d697-4507-b33a-9376691b2f9b"},"vehicle_type_id":"4","last_reported":1728364126,"current_range_meters":38800,"station_id":"ce4bho92rcd13ifvqh4g","pricing_plan_id":"cebpf4jnsgd1na2vs0mg"},{"bike_id":"7fd04196-1030-48af-92be-2c88e1062b03","system_id":"levelo_inurba_marseille","lat":43.30433,"lon":5.3975,"is_reserved":false,"is_disabled":false,"rental_uris":{"android":"levelo://app?vid=7fd04196-1030-48af-92be-2c88e1062b03","ios":"levelo://app?vid=7fd04196-1030-48af-92be-2c88e1062b03"},"vehicle_type_id":"4","last_reported":1728364126,"current_range_meters":38000,"station_id":"ce4bh092rcd13ifvqd20","pricing_plan_id":"cebpf4jnsgd1na2vs0mg"},{"bike_id":"71557b2f-0cba-4338-83db-d8c00bdfcacb","system_id":"levelo_inurba_marseille","lat":43.3171,"lon":5.37762,"is_reserved":false,"is_disabled":false,"rental_uris":{"android":"levelo://app?vid=71557b2f-0cba-4338-83db-d8c00bdfcacb","ios":"levelo://app?vid=71557b2f-0cba-4338-83db-d8c00bdfcacb"},"vehicle_type_id":"4","last_reported":1728364126,"current_range_meters":23200,"station_id":"ce4bgth2rcd13ifvqch0","pricing_plan_id":"cebpf4jnsgd1na2vs0mg"},{"bike_id":"e94f3760-34b3-4503-bb94-a753f8233f74","system_id":"levelo_inurba_marseille","lat":43.31327,"lon":5.39698,"is_reserved":false,"is_disabled":false,"rental_uris":{"android":"levelo://app?vid=e94f3760-34b3-4503-bb94-a753f8233f74","ios":"levelo://app?vid=e94f3760-34b3-4503-bb94-a753f8233f74"},"vehicle_type_id":"4","last_reported":1728364126,"current_range_meters":22800,"station_id":"ce4bgvp2rcd13ifvqcu0","pricing_plan_id":"cebpf4jnsgd1na2vs0mg"},{"bike_id":"3e1d0942-6577-476b-971c-b0a91ff7c57b","system_id":"levelo_inurba_marseille","lat":43.27188,"lon":5.40994,"is_reserved":false,"is_disabled":false,"rental_uris":{"android":"levelo://app?vid=3e1d0942-6577-476b-971c-b0a91ff7c57b","ios":"levelo://app?vid=3e1d0942-6577-476b-971c-b0a91ff7c57b"},"vehicle_type_id":"4","last_reported":1728364126,"current_range_meters":36800,"station_id":"ce4bhl12rcd13ifvqgf0","pricing_plan_id":"cebpf4jnsgd1na2vs0mg"},{"bike_id":"72f390d6-8036-4225-a9fd-bbdc6e34eeea","system_id":"levelo_inurba_marseille","lat":43.23188,"lon":5.39986,"is_reserved":false,"is_disabled":false,"rental_uris":{"android":"levelo://app?vid=72f390d6-8036-4225-a9fd-bbdc6e34eeea","ios":"levelo://app?vid=72f390d6-8036-4225-a9fd-bbdc6e34eeea"},"vehicle_type_id":"4","last_reported":1728364126,"current_range_meters":38400,"station_id":"ce4bhn12rcd13ifvqgqg","pricing_plan_id":"cebpf4jnsgd1na2vs0mg"},{"bike_id":"4af55307-045f-4c66-a045-a91d88bb4c16","system_id":"levelo_inurba_marseille","lat":43.22933,"lon":5.3538,"is_reserved":false,"is_disabled":false,"rental_uris":{"android":"levelo://app?vid=4af55307-045f-4c66-a045-a91d88bb4c16","ios":"levelo://app?vid=4af55307-045f-4c66-a045-a91d88bb4c16"},"vehicle_type_id":"4","last_reported":1728364126,"current_range_meters":23200,"station_id":"cpo3532slgdg3j2ikp40","pricing_plan_id":"cebpf4jnsgd1na2vs0mg"},{"bike_id":"aa598db1-3c3a-48c0-acd0-1929a2b13407","system_id":"levelo_inurba_marseille","lat":43.31714,"lon":5.43706,"is_reserved":false,"is_disabled":false,"rental_uris":{"android":"levelo://app?vid=aa598db1-3c3a-48c0-acd0-1929a2b13407","ios":"levelo://app?vid=aa598db1-3c3a-48c0-acd0-1929a2b13407"},"vehicle_type_id":"4","last_reported":1728364126,"current_range_meters":38800,"station_id":"ce4bhp92rcd13ifvqhcg","pricing_plan_id":"cebpf4jnsgd1na2vs0mg"},{"bike_id":"47efe985-66e3-4fb1-a00d-60851f779f19","system_id":"levelo_inurba_marseille","lat":43.32546,"lon":5.41432,"is_reserved":false,"is_disabled":false,"rental_uris":{"android":"levelo://app?vid=47efe985-66e3-4fb1-a00d-60851f779f19","ios":"levelo://app?vid=47efe985-66e3-4fb1-a00d-60851f779f19"},"vehicle_type_id":"4","last_reported":1728364126,"current_range_meters":27600,"station_id":"ce4bhq12rcd13ifvqhhg","pricing_plan_id":"cebpf4jnsgd1na2vs0mg"},{"bike_id":"d854484a-6e20-4d4b-8405-8a49db0e9fa7","system_id":"levelo_inurba_marseille","lat":43.2549,"lon":5.37647,"is_reserved":false,"is_disabled":false,"rental_uris":{"android":"levelo://app?vid=d854484a-6e20-4d4b-8405-8a49db0e9fa7","ios":"levelo://app?vid=d854484a-6e20-4d4b-8405-8a49db0e9fa7"},"vehicle_type_id":"4","last_reported":1728364126,"current_range_meters":38400,"station_id":"ce4bhh12rcd13ifvqff0","pricing_plan_id":"cebpf4jnsgd1na2vs0mg"},{"bike_id":"5252fed1-452c-4c8e-88a8-b98c3ec44db4","system_id":"levelo_inurba_marseille","lat":43.25718,"lon":5.41113,"is_reserved":false,"is_disabled":false,"rental_uris":{"android":"levelo://app?vid=5252fed1-452c-4c8e-88a8-b98c3ec44db4","ios":"levelo://app?vid=5252fed1-452c-4c8e-88a8-b98c3ec44db4"},"vehicle_type_id":"4","last_reported":1728364126,"current_range_meters":28800,"station_id":"ce4bhkp2rcd13ifvqgd0","pricing_plan_id":"cebpf4jnsgd1na2vs0mg"},{"bike_id":"294882e4-04ea-4ba9-8d89-0381ed6bba4d","system_id":"levelo_inurba_marseille","lat":43.31332,"lon":5.39696,"is_reserved":false,"is_disabled":false,"rental_uris":{"android":"levelo://app?vid=294882e4-04ea-4ba9-8d89-0381ed6bba4d","ios":"levelo://app?vid=294882e4-04ea-4ba9-8d89-0381ed6bba4d"},"vehicle_type_id":"4","last_reported":1728364126,"current_range_meters":39200,"station_id":"ce4bgvp2rcd13ifvqcu0","pricing_plan_id":"cebpf4jnsgd1na2vs0mg"},{"bike_id":"480eecf8-5d47-4f93-815e-826c050e484c","system_id":"levelo_inurba_marseille","lat":43.31324,"lon":5.3969,"is_reserved":false,"is_disabled":false,"rental_uris":{"android":"levelo://app?vid=480eecf8-5d47-4f93-815e-826c050e484c","ios":"levelo://app?vid=480eecf8-5d47-4f93-815e-826c050e484c"},"vehicle_type_id":"4","last_reported":1728364126,"current_range_meters":39200,"station_id":"ce4bgvp2rcd13ifvqcu0","pricing_plan_id":"cebpf4jnsgd1na2vs0mg"},{"bike_id":"c12c46a4-bd86-493d-803e-5d507cd7924b","system_id":"levelo_inurba_marseille","lat":43.23186,"lon":5.35543,"is_reserved":false,"is_disabled":false,"rental_uris":{"android":"levelo://app?vid=c12c46a4-bd86-493d-803e-5d507cd7924b","ios":"levelo://app?vid=c12c46a4-bd86-493d-803e-5d507cd7924b"},"vehicle_type_id":"4","last_reported":1728364126,"current_range_meters":20800,"station_id":"ce4bhu92rcd13ifvqi70","pricing_plan_id":"cebpf4jnsgd1na2vs0mg"},{"bike_id":"1e22ea5d-d406-4b63-92d6-06a783dc0af8","system_id":"levelo_inurba_marseille","lat":43.23185,"lon":5.39978,"is_reserved":false,"is_disabled":false,"rental_uris":{"android":"levelo://app?vid=1e22ea5d-d406-4b63-92d6-06a783dc0af8","ios":"levelo://app?vid=1e22ea5d-d406-4b63-92d6-06a783dc0af8"},"vehicle_type_id":"4","last_reported":1728364126,"current_range_meters":20800,"station_id":"ce4bhn12rcd13ifvqgqg","pricing_plan_id":"cebpf4jnsgd1na2vs0mg"},{"bike_id":"e0ef52ca-c7fa-41d7-a3ea-c3e5235a2597","system_id":"levelo_inurba_marseille","lat":43.25087,"lon":5.39513,"is_reserved":false,"is_disabled":false,"rental_uris":{"android":"levelo://app?vid=e0ef52ca-c7fa-41d7-a3ea-c3e5235a2597","ios":"levelo://app?vid=e0ef52ca-c7fa-41d7-a3ea-c3e5235a2597"},"vehicle_type_id":"4","last_reported":1728364126,"current_range_meters":24400,"station_id":"ce4bhm12rcd13ifvqgkg","pricing_plan_id":"cebpf4jnsgd1na2vs0mg"},{"bike_id":"7d2c5b8a-0476-4cf1-9489-ad31c7c4b033","system_id":"levelo_inurba_marseille","lat":43.26559,"lon":5.37279,"is_reserved":false,"is_disabled":false,"rental_uris":{"android":"levelo://app?vid=7d2c5b8a-0476-4cf1-9489-ad31c7c4b033","ios":"levelo://app?vid=7d2c5b8a-0476-4cf1-9489-ad31c7c4b033"},"vehicle_type_id":"4","last_reported":1728364126,"current_range_meters":35600,"station_id":"ce4bhg12rcd13ifvqf70","pricing_plan_id":"cebpf4jnsgd1na2vs0mg"},{"bike_id":"e08e0dc7-fac2-4a94-9d86-28d2527fb12f","system_id":"levelo_inurba_marseille","lat":43.28416,"lon":5.37508,"is_reserved":false,"is_disabled":false,"rental_uris":{"android":"levelo://app?vid=e08e0dc7-fac2-4a94-9d86-28d2527fb12f","ios":"levelo://app?vid=e08e0dc7-fac2-4a94-9d86-28d2527fb12f"},"vehicle_type_id":"4","last_reported":1728364126,"current_range_meters":38800,"station_id":"ce4bh412rcd13ifvqds0","pricing_plan_id":"cebpf4jnsgd1na2vs0mg"},{"bike_id":"85a8b07e-682b-4725-800e-b0749654fba5","system_id":"levelo_inurba_marseille","lat":43.241678,"lon":5.363929,"is_reserved":false,"is_disabled":false,"rental_uris":{"android":"levelo://app?vid=85a8b07e-682b-4725-800e-b0749654fba5","ios":"levelo://app?vid=85a8b07e-682b-4725-800e-b0749654fba5"},"vehicle_type_id":"4","last_reported":1728364126,"current_range_meters":19200,"station_id":"cpo36qri1sfpv3e86is0","pricing_plan_id":"cebpf4jnsgd1na2vs0mg"},{"bike_id":"19c6dacc-bcb8-4e79-b8b4-d18a54cc1928","system_id":"levelo_inurba_marseille","lat":43.2799,"lon":5.41649,"is_reserved":false,"is_disabled":false,"rental_uris":{"android":"levelo://app?vid=19c6dacc-bcb8-4e79-b8b4-d18a54cc1928","ios":"levelo://app?vid=19c6dacc-bcb8-4e79-b8b4-d18a54cc1928"},"vehicle_type_id":"4","last_reported":1728364126,"current_range_meters":38400,"station_id":"ce4bho12rcd13ifvqh1g","pricing_plan_id":"cebpf4jnsgd1na2vs0mg"},{"bike_id":"eb8fc8ee-c5fc-4298-a869-d0284f45a890","system_id":"levelo_inurba_marseille","lat":43.32366,"lon":5.38884,"is_reserved":false,"is_disabled":false,"rental_uris":{"android":"levelo://app?vid=eb8fc8ee-c5fc-4298-a869-d0284f45a890","ios":"levelo://app?vid=eb8fc8ee-c5fc-4298-a869-d0284f45a890"},"vehicle_type_id":"4","last_reported":1728364126,"current_range_meters":36000,"station_id":"ce4bhqp2rcd13ifvqhog","pricing_plan_id":"cebpf4jnsgd1na2vs0mg"},{"bike_id":"b6640f17-7ab3-4932-bbd1-5fe22e83845e","system_id":"levelo_inurba_marseille","lat":43.32291,"lon":5.38271,"is_reserved":false,"is_disabled":false,"rental_uris":{"android":"levelo://app?vid=b6640f17-7ab3-4932-bbd1-5fe22e83845e","ios":"levelo://app?vid=b6640f17-7ab3-4932-bbd1-5fe22e83845e"},"vehicle_type_id":"4","last_reported":1728364126,"current_range_meters":38800,"station_id":"ce4bhr12rcd13ifvqhqg","pricing_plan_id":"cebpf4jnsgd1na2vs0mg"},{"bike_id":"b5d0d5d7-5971-4c5e-bed9-a155ed94b0cf","system_id":"levelo_inurba_marseille","lat":43.30645,"lon":5.40066,"is_reserved":false,"is_disabled":false,"rental_uris":{"android":"levelo://app?vid=b5d0d5d7-5971-4c5e-bed9-a155ed94b0cf","ios":"levelo://app?vid=b5d0d5d7-5971-4c5e-bed9-a155ed94b0cf"},"vehicle_type_id":"4","last_reported":1728364126,"current_range_meters":38800,"station_id":"ce4bh112rcd13ifvqda0","pricing_plan_id":"cebpf4jnsgd1na2vs0mg"},{"bike_id":"24ce1b9c-cf40-4c42-b29e-098624cb9c14","system_id":"levelo_inurba_marseille","lat":43.29874,"lon":5.397347,"is_reserved":false,"is_disabled":false,"rental_uris":{"android":"levelo://app?vid=24ce1b9c-cf40-4c42-b29e-098624cb9c14","ios":"levelo://app?vid=24ce1b9c-cf40-4c42-b29e-098624cb9c14"},"vehicle_type_id":"4","last_reported":1728364126,"current_range_meters":20400,"station_id":"ce4bh0h2rcd13ifvqd50","pricing_plan_id":"cebpf4jnsgd1na2vs0mg"},{"bike_id":"4304b638-a3b5-4504-a887-cacf1e55d551","system_id":"levelo_inurba_marseille","lat":43.29573,"lon":5.39974,"is_reserved":false,"is_disabled":false,"rental_uris":{"android":"levelo://app?vid=4304b638-a3b5-4504-a887-cacf1e55d551","ios":"levelo://app?vid=4304b638-a3b5-4504-a887-cacf1e55d551"},"vehicle_type_id":"4","last_reported":1728364126,"current_range_meters":39200,"station_id":"ce4bh312rcd13ifvqdj0","pricing_plan_id":"cebpf4jnsgd1na2vs0mg"},{"bike_id":"aa77d5fb-8989-4713-80a5-2c3ab7ee1a19","system_id":"levelo_inurba_marseille","lat":43.29253,"lon":5.40902,"is_reserved":false,"is_disabled":false,"rental_uris":{"android":"levelo://app?vid=aa77d5fb-8989-4713-80a5-2c3ab7ee1a19","ios":"levelo://app?vid=aa77d5fb-8989-4713-80a5-2c3ab7ee1a19"},"vehicle_type_id":"4","last_reported":1728364126,"current_range_meters":38400,"station_id":"ce4bh192rcd13ifvqdc0","pricing_plan_id":"cebpf4jnsgd1na2vs0mg"},{"bike_id":"bc884bab-7cdf-4100-874d-71d6c86a7840","system_id":"levelo_inurba_marseille","lat":43.28278,"lon":5.35075,"is_reserved":false,"is_disabled":false,"rental_uris":{"android":"levelo://app?vid=bc884bab-7cdf-4100-874d-71d6c86a7840","ios":"levelo://app?vid=bc884bab-7cdf-4100-874d-71d6c86a7840"},"vehicle_type_id":"4","last_reported":1728364126,"current_range_meters":38400,"station_id":"ce4bhbp2rcd13ifvqerg","pricing_plan_id":"cebpf4jnsgd1na2vs0mg"},{"bike_id":"1d8a8722-9820-4f3d-a130-18024aaa2b06","system_id":"levelo_inurba_marseille","lat":43.2694,"lon":5.40249,"is_reserved":false,"is_disabled":false,"rental_uris":{"android":"levelo://app?vid=1d8a8722-9820-4f3d-a130-18024aaa2b06","ios":"levelo://app?vid=1d8a8722-9820-4f3d-a130-18024aaa2b06"},"vehicle_type_id":"4","last_reported":1728364126,"current_range_meters":38800,"station_id":"cjm6bp8fraef2m0cb0m0","pricing_plan_id":"cebpf4jnsgd1na2vs0mg"},{"bike_id":"f87c1dd0-d204-4a41-ae92-687c3cddfed1","system_id":"levelo_inurba_marseille","lat":43.24667,"lon":5.38167,"is_reserved":false,"is_disabled":false,"rental_uris":{"android":"levelo://app?vid=f87c1dd0-d204-4a41-ae92-687c3cddfed1","ios":"levelo://app?vid=f87c1dd0-d204-4a41-ae92-687c3cddfed1"},"vehicle_type_id":"4","last_reported":1728364126,"current_range_meters":38400,"station_id":"ce4bhih2rcd13ifvqfr0","pricing_plan_id":"cebpf4jnsgd1na2vs0mg"},{"bike_id":"80771c91-a7e6-46c5-8168-115408374db8","system_id":"levelo_inurba_marseille","lat":43.279974,"lon":5.400125,"is_reserved":false,"is_disabled":false,"rental_uris":{"android":"levelo://app?vid=80771c91-a7e6-46c5-8168-115408374db8","ios":"levelo://app?vid=80771c91-a7e6-46c5-8168-115408374db8"},"vehicle_type_id":"4","last_reported":1728364126,"current_range_meters":37600,"station_id":"ce4bho92rcd13ifvqh4g","pricing_plan_id":"cebpf4jnsgd1na2vs0mg"},{"bike_id":"75a7966e-2e77-4c56-bf96-348df569eed9","system_id":"levelo_inurba_marseille","lat":43.24677,"lon":5.38171,"is_reserved":false,"is_disabled":false,"rental_uris":{"android":"levelo://app?vid=75a7966e-2e77-4c56-bf96-348df569eed9","ios":"levelo://app?vid=75a7966e-2e77-4c56-bf96-348df569eed9"},"vehicle_type_id":"4","last_reported":1728364126,"current_range_meters":30400,"station_id":"ce4bhih2rcd13ifvqfr0","pricing_plan_id":"cebpf4jnsgd1na2vs0mg"},{"bike_id":"62c20907-37b0-4a30-9212-04239ba69697","system_id":"levelo_inurba_marseille","lat":43.3133,"lon":5.39693,"is_reserved":false,"is_disabled":false,"rental_uris":{"android":"levelo://app?vid=62c20907-37b0-4a30-9212-04239ba69697","ios":"levelo://app?vid=62c20907-37b0-4a30-9212-04239ba69697"},"vehicle_type_id":"4","last_reported":1728364126,"current_range_meters":38800,"station_id":"ce4bgvp2rcd13ifvqcu0","pricing_plan_id":"cebpf4jnsgd1na2vs0mg"},{"bike_id":"d00a3477-782a-4de0-b711-15ed9dd434f4","system_id":"levelo_inurba_marseille","lat":43.23053,"lon":5.35487,"is_reserved":false,"is_disabled":false,"rental_uris":{"android":"levelo://app?vid=d00a3477-782a-4de0-b711-15ed9dd434f4","ios":"levelo://app?vid=d00a3477-782a-4de0-b711-15ed9dd434f4"},"vehicle_type_id":"4","last_reported":1728364126,"current_range_meters":6800,"station_id":"cpo3342slgdg3j2ifvpg","pricing_plan_id":"cebpf4jnsgd1na2vs0mg"},{"bike_id":"723a9ecd-2170-48ac-aed2-47ee1acfbf4e","system_id":"levelo_inurba_marseille","lat":43.30932,"lon":5.40148,"is_reserved":false,"is_disabled":false,"rental_uris":{"android":"levelo://app?vid=723a9ecd-2170-48ac-aed2-47ee1acfbf4e","ios":"levelo://app?vid=723a9ecd-2170-48ac-aed2-47ee1acfbf4e"},"vehicle_type_id":"4","last_reported":1728364126,"current_range_meters":38800,"station_id":"ce4bgvp2rcd13ifvqct0","pricing_plan_id":"cebpf4jnsgd1na2vs0mg"},{"bike_id":"9c5d863a-5a7e-4174-aa67-2817a0e74f57","system_id":"levelo_inurba_marseille","lat":43.28455,"lon":5.3588,"is_reserved":false,"is_disabled":false,"rental_uris":{"android":"levelo://app?vid=9c5d863a-5a7e-4174-aa67-2817a0e74f57","ios":"levelo://app?vid=9c5d863a-5a7e-4174-aa67-2817a0e74f57"},"vehicle_type_id":"4","last_reported":1728364126,"current_range_meters":39200,"station_id":"ce4bhah2rcd13ifvqei0","pricing_plan_id":"cebpf4jnsgd1na2vs0mg"},{"bike_id":"c41645cc-9ca8-4599-a273-1dfae7017ffb","system_id":"levelo_inurba_marseille","lat":43.31262,"lon":5.4017,"is_reserved":false,"is_disabled":false,"rental_uris":{"android":"levelo://app?vid=c41645cc-9ca8-4599-a273-1dfae7017ffb","ios":"levelo://app?vid=c41645cc-9ca8-4599-a273-1dfae7017ffb"},"vehicle_type_id":"4","last_reported":1728364126,"current_range_meters":9600,"station_id":"ce4bh092rcd13ifvqd30","pricing_plan_id":"cebpf4jnsgd1na2vs0mg"},{"bike_id":"0addcf89-f5f6-4899-92b3-5cd2981eb4de","system_id":"levelo_inurba_marseille","lat":43.31709,"lon":5.3776,"is_reserved":false,"is_disabled":false,"rental_uris":{"android":"levelo://app?vid=0addcf89-f5f6-4899-92b3-5cd2981eb4de","ios":"levelo://app?vid=0addcf89-f5f6-4899-92b3-5cd2981eb4de"},"vehicle_type_id":"4","last_reported":1728364126,"current_range_meters":37600,"station_id":"ce4bgth2rcd13ifvqch0","pricing_plan_id":"cebpf4jnsgd1na2vs0mg"},{"bike_id":"383e6238-5106-499a-8e26-d16b81b00a77","system_id":"levelo_inurba_marseille","lat":43.299626,"lon":5.413329,"is_reserved":false,"is_disabled":false,"rental_uris":{"android":"levelo://app?vid=383e6238-5106-499a-8e26-d16b81b00a77","ios":"levelo://app?vid=383e6238-5106-499a-8e26-d16b81b00a77"},"vehicle_type_id":"4","last_reported":1728364126,"current_range_meters":18800,"station_id":"ce4bhp12rcd13ifvqh9g","pricing_plan_id":"cebpf4jnsgd1na2vs0mg"},{"bike_id":"e8f38f77-6572-42be-9296-0cbe6e7cb972","system_id":"levelo_inurba_marseille","lat":43.23054,"lon":5.35492,"is_reserved":false,"is_disabled":false,"rental_uris":{"android":"levelo://app?vid=e8f38f77-6572-42be-9296-0cbe6e7cb972","ios":"levelo://app?vid=e8f38f77-6572-42be-9296-0cbe6e7cb972"},"vehicle_type_id":"4","last_reported":1728364126,"current_range_meters":33600,"station_id":"cpo3342slgdg3j2ifvpg","pricing_plan_id":"cebpf4jnsgd1na2vs0mg"},{"bike_id":"da2bef50-9604-4ee2-b6fe-7fbad7a1e331","system_id":"levelo_inurba_marseille","lat":43.3171,"lon":5.37757,"is_reserved":false,"is_disabled":false,"rental_uris":{"android":"levelo://app?vid=da2bef50-9604-4ee2-b6fe-7fbad7a1e331","ios":"levelo://app?vid=da2bef50-9604-4ee2-b6fe-7fbad7a1e331"},"vehicle_type_id":"4","last_reported":1728364126,"current_range_meters":38400,"station_id":"ce4bgth2rcd13ifvqch0","pricing_plan_id":"cebpf4jnsgd1na2vs0mg"},{"bike_id":"c82e04e9-ad0b-4de0-a926-3716c1e83d6c","system_id":"levelo_inurba_marseille","lat":43.28407,"lon":5.3752,"is_reserved":false,"is_disabled":false,"rental_uris":{"android":"levelo://app?vid=c82e04e9-ad0b-4de0-a926-3716c1e83d6c","ios":"levelo://app?vid=c82e04e9-ad0b-4de0-a926-3716c1e83d6c"},"vehicle_type_id":"4","last_reported":1728364126,"current_range_meters":38800,"station_id":"ce4bh412rcd13ifvqds0","pricing_plan_id":"cebpf4jnsgd1na2vs0mg"},{"bike_id":"6383107e-a90b-48e5-ad67-a00f3da06e6b","system_id":"levelo_inurba_marseille","lat":43.28078,"lon":5.39659,"is_reserved":false,"is_disabled":false,"rental_uris":{"android":"levelo://app?vid=6383107e-a90b-48e5-ad67-a00f3da06e6b","ios":"levelo://app?vid=6383107e-a90b-48e5-ad67-a00f3da06e6b"},"vehicle_type_id":"4","last_reported":1728364126,"current_range_meters":12400,"station_id":"ce4bho12rcd13ifvqh2g","pricing_plan_id":"cebpf4jnsgd1na2vs0mg"},{"bike_id":"a8a49a1e-e355-4c00-a15e-72bc8ea4727f","system_id":"levelo_inurba_marseille","lat":43.29791,"lon":5.39343,"is_reserved":false,"is_disabled":false,"rental_uris":{"android":"levelo://app?vid=a8a49a1e-e355-4c00-a15e-72bc8ea4727f","ios":"levelo://app?vid=a8a49a1e-e355-4c00-a15e-72bc8ea4727f"},"vehicle_type_id":"4","last_reported":1728364126,"current_range_meters":30000,"station_id":"chh1huq6cuj3fo74tm60","pricing_plan_id":"cebpf4jnsgd1na2vs0mg"},{"bike_id":"aba7126a-32fe-4f2d-8597-35f362949104","system_id":"levelo_inurba_marseille","lat":43.2811,"lon":5.37834,"is_reserved":false,"is_disabled":false,"rental_uris":{"android":"levelo://app?vid=aba7126a-32fe-4f2d-8597-35f362949104","ios":"levelo://app?vid=aba7126a-32fe-4f2d-8597-35f362949104"},"vehicle_type_id":"4","last_reported":1728364126,"current_range_meters":38400,"station_id":"ce4bha12rcd13ifvqee0","pricing_plan_id":"cebpf4jnsgd1na2vs0mg"},{"bike_id":"485bc90e-76e5-4ef0-8a60-6695dcc5102a","system_id":"levelo_inurba_marseille","lat":43.32482,"lon":5.36568,"is_reserved":false,"is_disabled":false,"rental_uris":{"android":"levelo://app?vid=485bc90e-76e5-4ef0-8a60-6695dcc5102a","ios":"levelo://app?vid=485bc90e-76e5-4ef0-8a60-6695dcc5102a"},"vehicle_type_id":"4","last_reported":1728364126,"current_range_meters":14000,"station_id":"ce4bhs12rcd13ifvqhvg","pricing_plan_id":"cebpf4jnsgd1na2vs0mg"},{"bike_id":"2af27945-11b6-45fa-8d48-511a67589ce6","system_id":"levelo_inurba_marseille","lat":43.24666,"lon":5.38155,"is_reserved":false,"is_disabled":false,"rental_uris":{"android":"levelo://app?vid=2af27945-11b6-45fa-8d48-511a67589ce6","ios":"levelo://app?vid=2af27945-11b6-45fa-8d48-511a67589ce6"},"vehicle_type_id":"4","last_reported":1728364126,"current_range_meters":16800,"station_id":"ce4bhih2rcd13ifvqfr0","pricing_plan_id":"cebpf4jnsgd1na2vs0mg"},{"bike_id":"daf4cb02-43e6-40b1-af02-6448d898b1e4","system_id":"levelo_inurba_marseille","lat":43.28155,"lon":5.42632,"is_reserved":false,"is_disabled":false,"rental_uris":{"android":"levelo://app?vid=daf4cb02-43e6-40b1-af02-6448d898b1e4","ios":"levelo://app?vid=daf4cb02-43e6-40b1-af02-6448d898b1e4"},"vehicle_type_id":"4","last_reported":1728364126,"current_range_meters":29600,"station_id":"ce4bhnh2rcd13ifvqgug","pricing_plan_id":"cebpf4jnsgd1na2vs0mg"},{"bike_id":"26b10502-c168-4dc5-b070-1f18ddc4f76e","system_id":"levelo_inurba_marseille","lat":43.33026,"lon":5.39034,"is_reserved":false,"is_disabled":false,"rental_uris":{"android":"levelo://app?vid=26b10502-c168-4dc5-b070-1f18ddc4f76e","ios":"levelo://app?vid=26b10502-c168-4dc5-b070-1f18ddc4f76e"},"vehicle_type_id":"4","last_reported":1728364126,"current_range_meters":34000,"station_id":"ce4bhr92rcd13ifvqhrg","pricing_plan_id":"cebpf4jnsgd1na2vs0mg"},{"bike_id":"2fe9a872-9d35-432b-917d-ada3867c3c80","system_id":"levelo_inurba_marseille","lat":43.31534,"lon":5.38019,"is_reserved":false,"is_disabled":false,"rental_uris":{"android":"levelo://app?vid=2fe9a872-9d35-432b-917d-ada3867c3c80","ios":"levelo://app?vid=2fe9a872-9d35-432b-917d-ada3867c3c80"},"vehicle_type_id":"4","last_reported":1728364126,"current_range_meters":27200,"station_id":"ce4bhsp2rcd13ifvqi50","pricing_plan_id":"cebpf4jnsgd1na2vs0mg"},{"bike_id":"dd5b359d-c28a-4db5-873b-21a402cb2156","system_id":"levelo_inurba_marseille","lat":43.30798,"lon":5.38158,"is_reserved":false,"is_disabled":false,"rental_uris":{"android":"levelo://app?vid=dd5b359d-c28a-4db5-873b-21a402cb2156","ios":"levelo://app?vid=dd5b359d-c28a-4db5-873b-21a402cb2156"},"vehicle_type_id":"4","last_reported":1728364126,"current_range_meters":36000,"station_id":"ce4bgt12rcd13ifvqce0","pricing_plan_id":"cebpf4jnsgd1na2vs0mg"},{"bike_id":"dbadaf10-9af6-4ade-8424-2dcda895a9af","system_id":"levelo_inurba_marseille","lat":43.30153,"lon":5.38082,"is_reserved":false,"is_disabled":false,"rental_uris":{"android":"levelo://app?vid=dbadaf10-9af6-4ade-8424-2dcda895a9af","ios":"levelo://app?vid=dbadaf10-9af6-4ade-8424-2dcda895a9af"},"vehicle_type_id":"4","last_reported":1728364126,"current_range_meters":28400,"station_id":"ce4bgjp2rcd13ifvqbh0","pricing_plan_id":"cebpf4jnsgd1na2vs0mg"},{"bike_id":"1d458ef6-e087-49c9-a1c6-43605559605c","system_id":"levelo_inurba_marseille","lat":43.31275,"lon":5.4017,"is_reserved":false,"is_disabled":false,"rental_uris":{"android":"levelo://app?vid=1d458ef6-e087-49c9-a1c6-43605559605c","ios":"levelo://app?vid=1d458ef6-e087-49c9-a1c6-43605559605c"},"vehicle_type_id":"4","last_reported":1728364126,"current_range_meters":28400,"station_id":"ce4bh092rcd13ifvqd30","pricing_plan_id":"cebpf4jnsgd1na2vs0mg"},{"bike_id":"2f4b888d-5c74-4153-900e-18576b429381","system_id":"levelo_inurba_marseille","lat":43.31689,"lon":5.40466,"is_reserved":false,"is_disabled":false,"rental_uris":{"android":"levelo://app?vid=2f4b888d-5c74-4153-900e-18576b429381","ios":"levelo://app?vid=2f4b888d-5c74-4153-900e-18576b429381"},"vehicle_type_id":"4","last_reported":1728364126,"current_range_meters":37600,"station_id":"ce4bh012rcd13ifvqd00","pricing_plan_id":"cebpf4jnsgd1na2vs0mg"},{"bike_id":"49244ba5-d85f-432a-9dcc-80e7eaef97ac","system_id":"levelo_inurba_marseille","lat":43.31333,"lon":5.39693,"is_reserved":false,"is_disabled":false,"rental_uris":{"android":"levelo://app?vid=49244ba5-d85f-432a-9dcc-80e7eaef97ac","ios":"levelo://app?vid=49244ba5-d85f-432a-9dcc-80e7eaef97ac"},"vehicle_type_id":"4","last_reported":1728364126,"current_range_meters":6400,"station_id":"ce4bgvp2rcd13ifvqcu0","pricing_plan_id":"cebpf4jnsgd1na2vs0mg"},{"bike_id":"2215708e-2d91-4446-a766-2c1c6abd8843","system_id":"levelo_inurba_marseille","lat":43.27069,"lon":5.42275,"is_reserved":false,"is_disabled":false,"rental_uris":{"android":"levelo://app?vid=2215708e-2d91-4446-a766-2c1c6abd8843","ios":"levelo://app?vid=2215708e-2d91-4446-a766-2c1c6abd8843"},"vehicle_type_id":"4","last_reported":1728364126,"current_range_meters":24800,"station_id":"ce4bhk92rcd13ifvqgb0","pricing_plan_id":"cebpf4jnsgd1na2vs0mg"},{"bike_id":"b5142c12-3f3f-452c-853c-bcb33ce12fbf","system_id":"levelo_inurba_marseille","lat":43.23197,"lon":5.35553,"is_reserved":false,"is_disabled":false,"rental_uris":{"android":"levelo://app?vid=b5142c12-3f3f-452c-853c-bcb33ce12fbf","ios":"levelo://app?vid=b5142c12-3f3f-452c-853c-bcb33ce12fbf"},"vehicle_type_id":"4","last_reported":1728364126,"current_range_meters":38400,"station_id":"ce4bhu92rcd13ifvqi70","pricing_plan_id":"cebpf4jnsgd1na2vs0mg"},{"bike_id":"5da612b1-e6a7-4e48-aca2-03dc3887bcb6","system_id":"levelo_inurba_marseille","lat":43.29524,"lon":5.39035,"is_reserved":false,"is_disabled":false,"rental_uris":{"android":"levelo://app?vid=5da612b1-e6a7-4e48-aca2-03dc3887bcb6","ios":"levelo://app?vid=5da612b1-e6a7-4e48-aca2-03dc3887bcb6"},"vehicle_type_id":"4","last_reported":1728364126,"current_range_meters":38000,"station_id":"ce4bh3p2rcd13ifvqdp0","pricing_plan_id":"cebpf4jnsgd1na2vs0mg"},{"bike_id":"743b2a23-ccaa-44e2-810e-ba9784bf4280","system_id":"levelo_inurba_marseille","lat":43.30928,"lon":5.40133,"is_reserved":false,"is_disabled":false,"rental_uris":{"android":"levelo://app?vid=743b2a23-ccaa-44e2-810e-ba9784bf4280","ios":"levelo://app?vid=743b2a23-ccaa-44e2-810e-ba9784bf4280"},"vehicle_type_id":"4","last_reported":1728364126,"current_range_meters":35200,"station_id":"ce4bgvp2rcd13ifvqct0","pricing_plan_id":"cebpf4jnsgd1na2vs0mg"},{"bike_id":"285b25de-39a9-476e-b0a1-77f2594c2a5e","system_id":"levelo_inurba_marseille","lat":43.30932,"lon":5.40144,"is_reserved":false,"is_disabled":false,"rental_uris":{"android":"levelo://app?vid=285b25de-39a9-476e-b0a1-77f2594c2a5e","ios":"levelo://app?vid=285b25de-39a9-476e-b0a1-77f2594c2a5e"},"vehicle_type_id":"4","last_reported":1728364126,"current_range_meters":38000,"station_id":"ce4bgvp2rcd13ifvqct0","pricing_plan_id":"cebpf4jnsgd1na2vs0mg"},{"bike_id":"513184d9-4a6b-49fd-81e0-1b13bcd19fd6","system_id":"levelo_inurba_marseille","lat":43.28419,"lon":5.400418,"is_reserved":false,"is_disabled":false,"rental_uris":{"android":"levelo://app?vid=513184d9-4a6b-49fd-81e0-1b13bcd19fd6","ios":"levelo://app?vid=513184d9-4a6b-49fd-81e0-1b13bcd19fd6"},"vehicle_type_id":"4","last_reported":1728364126,"current_range_meters":24400,"station_id":"","pricing_plan_id":"cebpf4jnsgd1na2vs0mg"},{"bike_id":"8f3512de-0892-48e3-a95f-9aeea6512f82","system_id":"levelo_inurba_marseille","lat":43.31359,"lon":5.38492,"is_reserved":false,"is_disabled":false,"rental_uris":{"android":"levelo://app?vid=8f3512de-0892-48e3-a95f-9aeea6512f82","ios":"levelo://app?vid=8f3512de-0892-48e3-a95f-9aeea6512f82"},"vehicle_type_id":"4","last_reported":1728364126,"current_range_meters":32800,"station_id":"ce4bgt92rcd13ifvqcf0","pricing_plan_id":"cebpf4jnsgd1na2vs0mg"},{"bike_id":"f15e7e2e-a7e1-47b2-877a-c595706545c7","system_id":"levelo_inurba_marseille","lat":43.28154,"lon":5.42646,"is_reserved":false,"is_disabled":false,"rental_uris":{"android":"levelo://app?vid=f15e7e2e-a7e1-47b2-877a-c595706545c7","ios":"levelo://app?vid=f15e7e2e-a7e1-47b2-877a-c595706545c7"},"vehicle_type_id":"4","last_reported":1728364126,"current_range_meters":38800,"station_id":"ce4bhnh2rcd13ifvqgug","pricing_plan_id":"cebpf4jnsgd1na2vs0mg"},{"bike_id":"529413b5-3e58-41ef-a18c-8f3ba1b334a4","system_id":"levelo_inurba_marseille","lat":43.317636,"lon":5.390095,"is_reserved":false,"is_disabled":false,"rental_uris":{"android":"levelo://app?vid=529413b5-3e58-41ef-a18c-8f3ba1b334a4","ios":"levelo://app?vid=529413b5-3e58-41ef-a18c-8f3ba1b334a4"},"vehicle_type_id":"4","last_reported":1728364126,"current_range_meters":38800,"station_id":"ce4bhqp2rcd13ifvqhng","pricing_plan_id":"cebpf4jnsgd1na2vs0mg"},{"bike_id":"93d45870-2e1c-4ed1-9664-7b219a4ed443","system_id":"levelo_inurba_marseille","lat":43.22933,"lon":5.35381,"is_reserved":false,"is_disabled":false,"rental_uris":{"android":"levelo://app?vid=93d45870-2e1c-4ed1-9664-7b219a4ed443","ios":"levelo://app?vid=93d45870-2e1c-4ed1-9664-7b219a4ed443"},"vehicle_type_id":"4","last_reported":1728364126,"current_range_meters":32800,"station_id":"cpo3532slgdg3j2ikp40","pricing_plan_id":"cebpf4jnsgd1na2vs0mg"},{"bike_id":"d4dfa52e-76b8-410b-b129-46d068df677c","system_id":"levelo_inurba_marseille","lat":43.3153,"lon":5.38032,"is_reserved":false,"is_disabled":false,"rental_uris":{"android":"levelo://app?vid=d4dfa52e-76b8-410b-b129-46d068df677c","ios":"levelo://app?vid=d4dfa52e-76b8-410b-b129-46d068df677c"},"vehicle_type_id":"4","last_reported":1728364126,"current_range_meters":26800,"station_id":"ce4bhsp2rcd13ifvqi50","pricing_plan_id":"cebpf4jnsgd1na2vs0mg"},{"bike_id":"897de76e-ad41-4185-9858-0e43dec53069","system_id":"levelo_inurba_marseille","lat":43.32546,"lon":5.41441,"is_reserved":false,"is_disabled":false,"rental_uris":{"android":"levelo://app?vid=897de76e-ad41-4185-9858-0e43dec53069","ios":"levelo://app?vid=897de76e-ad41-4185-9858-0e43dec53069"},"vehicle_type_id":"4","last_reported":1728364126,"current_range_meters":16000,"station_id":"ce4bhq12rcd13ifvqhhg","pricing_plan_id":"cebpf4jnsgd1na2vs0mg"},{"bike_id":"0e3bfff6-2bee-4be5-8568-766c0160a493","system_id":"levelo_inurba_marseille","lat":43.31719,"lon":5.43702,"is_reserved":false,"is_disabled":false,"rental_uris":{"android":"levelo://app?vid=0e3bfff6-2bee-4be5-8568-766c0160a493","ios":"levelo://app?vid=0e3bfff6-2bee-4be5-8568-766c0160a493"},"vehicle_type_id":"4","last_reported":1728364126,"current_range_meters":9200,"station_id":"ce4bhp92rcd13ifvqhcg","pricing_plan_id":"cebpf4jnsgd1na2vs0mg"},{"bike_id":"6e512044-ef12-457b-bcca-26bd86c5618a","system_id":"levelo_inurba_marseille","lat":43.23062,"lon":5.35489,"is_reserved":false,"is_disabled":false,"rental_uris":{"android":"levelo://app?vid=6e512044-ef12-457b-bcca-26bd86c5618a","ios":"levelo://app?vid=6e512044-ef12-457b-bcca-26bd86c5618a"},"vehicle_type_id":"4","last_reported":1728364126,"current_range_meters":33200,"station_id":"cpo3342slgdg3j2ifvpg","pricing_plan_id":"cebpf4jnsgd1na2vs0mg"},{"bike_id":"414a9a51-bf1f-44e9-bc05-c846ee304d6c","system_id":"levelo_inurba_marseille","lat":43.27892,"lon":5.37991,"is_reserved":false,"is_disabled":false,"rental_uris":{"android":"levelo://app?vid=414a9a51-bf1f-44e9-bc05-c846ee304d6c","ios":"levelo://app?vid=414a9a51-bf1f-44e9-bc05-c846ee304d6c"},"vehicle_type_id":"4","last_reported":1728364126,"current_range_meters":38800,"station_id":"ce4bhf92rcd13ifvqf50","pricing_plan_id":"cebpf4jnsgd1na2vs0mg"},{"bike_id":"57ae9464-16f1-4a34-bb0f-09c5f47023cd","system_id":"levelo_inurba_marseille","lat":43.29282,"lon":5.40122,"is_reserved":false,"is_disabled":false,"rental_uris":{"android":"levelo://app?vid=57ae9464-16f1-4a34-bb0f-09c5f47023cd","ios":"levelo://app?vid=57ae9464-16f1-4a34-bb0f-09c5f47023cd"},"vehicle_type_id":"4","last_reported":1728364126,"current_range_meters":25600,"station_id":"ce4bh312rcd13ifvqdk0","pricing_plan_id":"cebpf4jnsgd1na2vs0mg"},{"bike_id":"baba4cb0-5224-4c87-9a3d-c3e70a3aff74","system_id":"levelo_inurba_marseille","lat":43.28406,"lon":5.37515,"is_reserved":false,"is_disabled":false,"rental_uris":{"android":"levelo://app?vid=baba4cb0-5224-4c87-9a3d-c3e70a3aff74","ios":"levelo://app?vid=baba4cb0-5224-4c87-9a3d-c3e70a3aff74"},"vehicle_type_id":"4","last_reported":1728364126,"current_range_meters":38800,"station_id":"ce4bh412rcd13ifvqds0","pricing_plan_id":"cebpf4jnsgd1na2vs0mg"},{"bike_id":"05cdd18b-31f3-485d-a57c-ec63823a912c","system_id":"levelo_inurba_marseille","lat":43.26564,"lon":5.38987,"is_reserved":false,"is_disabled":false,"rental_uris":{"android":"levelo://app?vid=05cdd18b-31f3-485d-a57c-ec63823a912c","ios":"levelo://app?vid=05cdd18b-31f3-485d-a57c-ec63823a912c"},"vehicle_type_id":"4","last_reported":1728364126,"current_range_meters":38400,"station_id":"ce4bhe12rcd13ifvqf30","pricing_plan_id":"cebpf4jnsgd1na2vs0mg"},{"bike_id":"e6ab60de-b30f-4fa2-bbca-871c80cef6fd","system_id":"levelo_inurba_marseille","lat":43.28961,"lon":5.37825,"is_reserved":false,"is_disabled":false,"rental_uris":{"android":"levelo://app?vid=e6ab60de-b30f-4fa2-bbca-871c80cef6fd","ios":"levelo://app?vid=e6ab60de-b30f-4fa2-bbca-871c80cef6fd"},"vehicle_type_id":"4","last_reported":1728364126,"current_range_meters":37600,"station_id":"ce4bh9p2rcd13ifvqed0","pricing_plan_id":"cebpf4jnsgd1na2vs0mg"},{"bike_id":"93a538e2-33d2-44e2-ac66-feb42e05dfad","system_id":"levelo_inurba_marseille","lat":43.24165,"lon":5.36391,"is_reserved":false,"is_disabled":false,"rental_uris":{"android":"levelo://app?vid=93a538e2-33d2-44e2-ac66-feb42e05dfad","ios":"levelo://app?vid=93a538e2-33d2-44e2-ac66-feb42e05dfad"},"vehicle_type_id":"4","last_reported":1728364126,"current_range_meters":26000,"station_id":"cpo36qri1sfpv3e86is0","pricing_plan_id":"cebpf4jnsgd1na2vs0mg"},{"bike_id":"1483a7e5-09c9-4fdc-83b6-d874310e7a94","system_id":"levelo_inurba_marseille","lat":43.2862,"lon":5.351,"is_reserved":false,"is_disabled":false,"rental_uris":{"android":"levelo://app?vid=1483a7e5-09c9-4fdc-83b6-d874310e7a94","ios":"levelo://app?vid=1483a7e5-09c9-4fdc-83b6-d874310e7a94"},"vehicle_type_id":"4","last_reported":1728364126,"current_range_meters":38800,"station_id":"ce4bhch2rcd13ifvqeug","pricing_plan_id":"cebpf4jnsgd1na2vs0mg"},{"bike_id":"06b328cc-c61b-400e-9ea7-addd5f197d12","system_id":"levelo_inurba_marseille","lat":43.30213,"lon":5.39469,"is_reserved":false,"is_disabled":false,"rental_uris":{"android":"levelo://app?vid=06b328cc-c61b-400e-9ea7-addd5f197d12","ios":"levelo://app?vid=06b328cc-c61b-400e-9ea7-addd5f197d12"},"vehicle_type_id":"4","last_reported":1728364126,"current_range_meters":30400,"station_id":"ce4bh0p2rcd13ifvqd70","pricing_plan_id":"cebpf4jnsgd1na2vs0mg"},{"bike_id":"b8c34910-bedb-4fbe-8bb0-a9baebff9f55","system_id":"levelo_inurba_marseille","lat":43.30595,"lon":5.39358,"is_reserved":false,"is_disabled":false,"rental_uris":{"android":"levelo://app?vid=b8c34910-bedb-4fbe-8bb0-a9baebff9f55","ios":"levelo://app?vid=b8c34910-bedb-4fbe-8bb0-a9baebff9f55"},"vehicle_type_id":"4","last_reported":1728364126,"current_range_meters":38800,"station_id":"ce4bh0p2rcd13ifvqd80","pricing_plan_id":"cebpf4jnsgd1na2vs0mg"},{"bike_id":"dbe99237-60a3-406a-a961-ce0f26ed3702","system_id":"levelo_inurba_marseille","lat":43.27175,"lon":5.40988,"is_reserved":false,"is_disabled":false,"rental_uris":{"android":"levelo://app?vid=dbe99237-60a3-406a-a961-ce0f26ed3702","ios":"levelo://app?vid=dbe99237-60a3-406a-a961-ce0f26ed3702"},"vehicle_type_id":"4","last_reported":1728364126,"current_range_meters":39200,"station_id":"ce4bhl12rcd13ifvqgf0","pricing_plan_id":"cebpf4jnsgd1na2vs0mg"},{"bike_id":"da914677-fa1e-416d-9a8f-2c91e3a6414d","system_id":"levelo_inurba_marseille","lat":43.274319,"lon":5.394097,"is_reserved":false,"is_disabled":false,"rental_uris":{"android":"levelo://app?vid=da914677-fa1e-416d-9a8f-2c91e3a6414d","ios":"levelo://app?vid=da914677-fa1e-416d-9a8f-2c91e3a6414d"},"vehicle_type_id":"4","last_reported":1728364126,"current_range_meters":32400,"station_id":"ce4bhdp2rcd13ifvqf20","pricing_plan_id":"cebpf4jnsgd1na2vs0mg"},{"bike_id":"2a9899af-5714-4404-b731-ffd6243bebc6","system_id":"levelo_inurba_marseille","lat":43.28417,"lon":5.34973,"is_reserved":false,"is_disabled":false,"rental_uris":{"android":"levelo://app?vid=2a9899af-5714-4404-b731-ffd6243bebc6","ios":"levelo://app?vid=2a9899af-5714-4404-b731-ffd6243bebc6"},"vehicle_type_id":"4","last_reported":1728364126,"current_range_meters":29600,"station_id":"ce4bhbh2rcd13ifvqepg","pricing_plan_id":"cebpf4jnsgd1na2vs0mg"},{"bike_id":"29966f94-93ce-4253-868a-a618db9926bb","system_id":"levelo_inurba_marseille","lat":43.25118,"lon":5.40318,"is_reserved":false,"is_disabled":false,"rental_uris":{"android":"levelo://app?vid=29966f94-93ce-4253-868a-a618db9926bb","ios":"levelo://app?vid=29966f94-93ce-4253-868a-a618db9926bb"},"vehicle_type_id":"4","last_reported":1728364126,"current_range_meters":37600,"station_id":"ce4bhlh2rcd13ifvqgig","pricing_plan_id":"cebpf4jnsgd1na2vs0mg"},{"bike_id":"51252150-6263-4793-9b8b-46506e295cb3","system_id":"levelo_inurba_marseille","lat":43.31685,"lon":5.40466,"is_reserved":false,"is_disabled":false,"rental_uris":{"android":"levelo://app?vid=51252150-6263-4793-9b8b-46506e295cb3","ios":"levelo://app?vid=51252150-6263-4793-9b8b-46506e295cb3"},"vehicle_type_id":"4","last_reported":1728364126,"current_range_meters":38000,"station_id":"ce4bh012rcd13ifvqd00","pricing_plan_id":"cebpf4jnsgd1na2vs0mg"},{"bike_id":"fcf10dee-7ff3-4f9e-bcbd-f97b3340a290","system_id":"levelo_inurba_marseille","lat":43.28703,"lon":5.39983,"is_reserved":false,"is_disabled":false,"rental_uris":{"android":"levelo://app?vid=fcf10dee-7ff3-4f9e-bcbd-f97b3340a290","ios":"levelo://app?vid=fcf10dee-7ff3-4f9e-bcbd-f97b3340a290"},"vehicle_type_id":"4","last_reported":1728364126,"current_range_meters":32400,"station_id":"ce4bho92rcd13ifvqh3g","pricing_plan_id":"cebpf4jnsgd1na2vs0mg"},{"bike_id":"f72a7e61-6a77-4ec8-baa6-83065951bb84","system_id":"levelo_inurba_marseille","lat":43.25866,"lon":5.399,"is_reserved":false,"is_disabled":false,"rental_uris":{"android":"levelo://app?vid=f72a7e61-6a77-4ec8-baa6-83065951bb84","ios":"levelo://app?vid=f72a7e61-6a77-4ec8-baa6-83065951bb84"},"vehicle_type_id":"4","last_reported":1728364126,"current_range_meters":38000,"station_id":"ce4bhl92rcd13ifvqghg","pricing_plan_id":"cebpf4jnsgd1na2vs0mg"},{"bike_id":"5860f3b2-f051-4a4c-8c56-9c5e6381f8e9","system_id":"levelo_inurba_marseille","lat":43.2846,"lon":5.35885,"is_reserved":false,"is_disabled":false,"rental_uris":{"android":"levelo://app?vid=5860f3b2-f051-4a4c-8c56-9c5e6381f8e9","ios":"levelo://app?vid=5860f3b2-f051-4a4c-8c56-9c5e6381f8e9"},"vehicle_type_id":"4","last_reported":1728364126,"current_range_meters":38400,"station_id":"ce4bhah2rcd13ifvqei0","pricing_plan_id":"cebpf4jnsgd1na2vs0mg"},{"bike_id":"d8423ceb-ab39-4641-959d-007170ecd69d","system_id":"levelo_inurba_marseille","lat":43.2963,"lon":5.40602,"is_reserved":false,"is_disabled":false,"rental_uris":{"android":"levelo://app?vid=d8423ceb-ab39-4641-959d-007170ecd69d","ios":"levelo://app?vid=d8423ceb-ab39-4641-959d-007170ecd69d"},"vehicle_type_id":"4","last_reported":1728364126,"current_range_meters":39200,"station_id":"ce4bh0h2rcd13ifvqd60","pricing_plan_id":"cebpf4jnsgd1na2vs0mg"},{"bike_id":"72f40ed7-a504-4daf-b024-071eeacd5158","system_id":"levelo_inurba_marseille","lat":43.27376,"lon":5.3627,"is_reserved":false,"is_disabled":false,"rental_uris":{"android":"levelo://app?vid=72f40ed7-a504-4daf-b024-071eeacd5158","ios":"levelo://app?vid=72f40ed7-a504-4daf-b024-071eeacd5158"},"vehicle_type_id":"4","last_reported":1728364126,"current_range_meters":36800,"station_id":"ce4bhbh2rcd13ifvqeo0","pricing_plan_id":"cebpf4jnsgd1na2vs0mg"},{"bike_id":"17dbb085-5164-41ed-87e1-785561e83a63","system_id":"levelo_inurba_marseille","lat":43.30644,"lon":5.40073,"is_reserved":false,"is_disabled":false,"rental_uris":{"android":"levelo://app?vid=17dbb085-5164-41ed-87e1-785561e83a63","ios":"levelo://app?vid=17dbb085-5164-41ed-87e1-785561e83a63"},"vehicle_type_id":"4","last_reported":1728364126,"current_range_meters":38800,"station_id":"ce4bh112rcd13ifvqda0","pricing_plan_id":"cebpf4jnsgd1na2vs0mg"},{"bike_id":"f1988fd3-c19f-4737-89f0-61132baf5697","system_id":"levelo_inurba_marseille","lat":43.31326,"lon":5.39695,"is_reserved":false,"is_disabled":false,"rental_uris":{"android":"levelo://app?vid=f1988fd3-c19f-4737-89f0-61132baf5697","ios":"levelo://app?vid=f1988fd3-c19f-4737-89f0-61132baf5697"},"vehicle_type_id":"4","last_reported":1728364126,"current_range_meters":11200,"station_id":"ce4bgvp2rcd13ifvqcu0","pricing_plan_id":"cebpf4jnsgd1na2vs0mg"},{"bike_id":"7ad06205-868a-4802-a1e3-0dc7e4c673d2","system_id":"levelo_inurba_marseille","lat":43.32486,"lon":5.36569,"is_reserved":false,"is_disabled":false,"rental_uris":{"android":"levelo://app?vid=7ad06205-868a-4802-a1e3-0dc7e4c673d2","ios":"levelo://app?vid=7ad06205-868a-4802-a1e3-0dc7e4c673d2"},"vehicle_type_id":"4","last_reported":1728364126,"current_range_meters":32400,"station_id":"ce4bhs12rcd13ifvqhvg","pricing_plan_id":"cebpf4jnsgd1na2vs0mg"},{"bike_id":"ab0ef8f6-2d64-477f-ab35-7e54daa51f0f","system_id":"levelo_inurba_marseille","lat":43.31714,"lon":5.43707,"is_reserved":false,"is_disabled":false,"rental_uris":{"android":"levelo://app?vid=ab0ef8f6-2d64-477f-ab35-7e54daa51f0f","ios":"levelo://app?vid=ab0ef8f6-2d64-477f-ab35-7e54daa51f0f"},"vehicle_type_id":"4","last_reported":1728364126,"current_range_meters":22400,"station_id":"ce4bhp92rcd13ifvqhcg","pricing_plan_id":"cebpf4jnsgd1na2vs0mg"},{"bike_id":"c45340a7-5257-408a-897a-01994bd38219","system_id":"levelo_inurba_marseille","lat":43.28458,"lon":5.35876,"is_reserved":false,"is_disabled":false,"rental_uris":{"android":"levelo://app?vid=c45340a7-5257-408a-897a-01994bd38219","ios":"levelo://app?vid=c45340a7-5257-408a-897a-01994bd38219"},"vehicle_type_id":"4","last_reported":1728364126,"current_range_meters":38800,"station_id":"ce4bhah2rcd13ifvqei0","pricing_plan_id":"cebpf4jnsgd1na2vs0mg"},{"bike_id":"22e357fa-c099-46f6-b123-0f532103db8c","system_id":"levelo_inurba_marseille","lat":43.31327,"lon":5.39694,"is_reserved":false,"is_disabled":false,"rental_uris":{"android":"levelo://app?vid=22e357fa-c099-46f6-b123-0f532103db8c","ios":"levelo://app?vid=22e357fa-c099-46f6-b123-0f532103db8c"},"vehicle_type_id":"4","last_reported":1728364126,"current_range_meters":17600,"station_id":"ce4bgvp2rcd13ifvqcu0","pricing_plan_id":"cebpf4jnsgd1na2vs0mg"},{"bike_id":"94d08d79-dc69-4adc-91aa-bfcdcdb819c1","system_id":"levelo_inurba_marseille","lat":43.29247,"lon":5.40909,"is_reserved":false,"is_disabled":false,"rental_uris":{"android":"levelo://app?vid=94d08d79-dc69-4adc-91aa-bfcdcdb819c1","ios":"levelo://app?vid=94d08d79-dc69-4adc-91aa-bfcdcdb819c1"},"vehicle_type_id":"4","last_reported":1728364126,"current_range_meters":38800,"station_id":"ce4bh192rcd13ifvqdc0","pricing_plan_id":"cebpf4jnsgd1na2vs0mg"},{"bike_id":"4526df6c-0078-42f2-bc72-7ff84f74591b","system_id":"levelo_inurba_marseille","lat":43.3093,"lon":5.40142,"is_reserved":false,"is_disabled":false,"rental_uris":{"android":"levelo://app?vid=4526df6c-0078-42f2-bc72-7ff84f74591b","ios":"levelo://app?vid=4526df6c-0078-42f2-bc72-7ff84f74591b"},"vehicle_type_id":"4","last_reported":1728364126,"current_range_meters":38000,"station_id":"ce4bgvp2rcd13ifvqct0","pricing_plan_id":"cebpf4jnsgd1na2vs0mg"},{"bike_id":"f7612392-4f4b-453b-a64c-499de3c2600f","system_id":"levelo_inurba_marseille","lat":43.2417,"lon":5.3639,"is_reserved":false,"is_disabled":false,"rental_uris":{"android":"levelo://app?vid=f7612392-4f4b-453b-a64c-499de3c2600f","ios":"levelo://app?vid=f7612392-4f4b-453b-a64c-499de3c2600f"},"vehicle_type_id":"4","last_reported":1728364126,"current_range_meters":33200,"station_id":"cpo36qri1sfpv3e86is0","pricing_plan_id":"cebpf4jnsgd1na2vs0mg"},{"bike_id":"c4e56026-ef99-4078-aa9f-f2e4e78fcabe","system_id":"levelo_inurba_marseille","lat":43.26215,"lon":5.3744,"is_reserved":false,"is_disabled":false,"rental_uris":{"android":"levelo://app?vid=c4e56026-ef99-4078-aa9f-f2e4e78fcabe","ios":"levelo://app?vid=c4e56026-ef99-4078-aa9f-f2e4e78fcabe"},"vehicle_type_id":"4","last_reported":1728364126,"current_range_meters":38400,"station_id":"ce4bhgp2rcd13ifvqfc0","pricing_plan_id":"cebpf4jnsgd1na2vs0mg"},{"bike_id":"b9f7e217-2396-4f17-99e6-316574934f3f","system_id":"levelo_inurba_marseille","lat":43.28464,"lon":5.35876,"is_reserved":false,"is_disabled":false,"rental_uris":{"android":"levelo://app?vid=b9f7e217-2396-4f17-99e6-316574934f3f","ios":"levelo://app?vid=b9f7e217-2396-4f17-99e6-316574934f3f"},"vehicle_type_id":"4","last_reported":1728364126,"current_range_meters":39200,"station_id":"ce4bhah2rcd13ifvqei0","pricing_plan_id":"cebpf4jnsgd1na2vs0mg"},{"bike_id":"a0a650e6-c87c-4eea-a629-fe9b6c5d380b","system_id":"levelo_inurba_marseille","lat":43.25578,"lon":5.38243,"is_reserved":false,"is_disabled":false,"rental_uris":{"android":"levelo://app?vid=a0a650e6-c87c-4eea-a629-fe9b6c5d380b","ios":"levelo://app?vid=a0a650e6-c87c-4eea-a629-fe9b6c5d380b"},"vehicle_type_id":"4","last_reported":1728364126,"current_range_meters":38000,"station_id":"ce4bhih2rcd13ifvqfs0","pricing_plan_id":"cebpf4jnsgd1na2vs0mg"},{"bike_id":"339512ef-7688-486d-8525-73a5818b3689","system_id":"levelo_inurba_marseille","lat":43.26955,"lon":5.38626,"is_reserved":false,"is_disabled":false,"rental_uris":{"android":"levelo://app?vid=339512ef-7688-486d-8525-73a5818b3689","ios":"levelo://app?vid=339512ef-7688-486d-8525-73a5818b3689"},"vehicle_type_id":"4","last_reported":1728364126,"current_range_meters":30400,"station_id":"ce4bhh92rcd13ifvqfh0","pricing_plan_id":"cebpf4jnsgd1na2vs0mg"},{"bike_id":"e7244c4d-5cb8-439c-ad7b-ed13b630c5ff","system_id":"levelo_inurba_marseille","lat":43.32289,"lon":5.38266,"is_reserved":false,"is_disabled":false,"rental_uris":{"android":"levelo://app?vid=e7244c4d-5cb8-439c-ad7b-ed13b630c5ff","ios":"levelo://app?vid=e7244c4d-5cb8-439c-ad7b-ed13b630c5ff"},"vehicle_type_id":"4","last_reported":1728364126,"current_range_meters":38800,"station_id":"ce4bhr12rcd13ifvqhqg","pricing_plan_id":"cebpf4jnsgd1na2vs0mg"},{"bike_id":"c1eabd8c-fe5d-45fc-a2f1-735f8b49b934","system_id":"levelo_inurba_marseille","lat":43.30926,"lon":5.4014,"is_reserved":false,"is_disabled":false,"rental_uris":{"android":"levelo://app?vid=c1eabd8c-fe5d-45fc-a2f1-735f8b49b934","ios":"levelo://app?vid=c1eabd8c-fe5d-45fc-a2f1-735f8b49b934"},"vehicle_type_id":"4","last_reported":1728364126,"current_range_meters":32400,"station_id":"ce4bgvp2rcd13ifvqct0","pricing_plan_id":"cebpf4jnsgd1na2vs0mg"},{"bike_id":"62ffd9a6-6954-4d30-82e9-c6d501fe541b","system_id":"levelo_inurba_marseille","lat":43.31326,"lon":5.39685,"is_reserved":false,"is_disabled":false,"rental_uris":{"android":"levelo://app?vid=62ffd9a6-6954-4d30-82e9-c6d501fe541b","ios":"levelo://app?vid=62ffd9a6-6954-4d30-82e9-c6d501fe541b"},"vehicle_type_id":"4","last_reported":1728364126,"current_range_meters":8400,"station_id":"ce4bgvp2rcd13ifvqcu0","pricing_plan_id":"cebpf4jnsgd1na2vs0mg"},{"bike_id":"e592fa8f-aa5a-46f1-b2f4-aa0aa5f30808","system_id":"levelo_inurba_marseille","lat":43.24648,"lon":5.38157,"is_reserved":false,"is_disabled":false,"rental_uris":{"android":"levelo://app?vid=e592fa8f-aa5a-46f1-b2f4-aa0aa5f30808","ios":"levelo://app?vid=e592fa8f-aa5a-46f1-b2f4-aa0aa5f30808"},"vehicle_type_id":"4","last_reported":1728364126,"current_range_meters":16400,"station_id":"ce4bhih2rcd13ifvqfr0","pricing_plan_id":"cebpf4jnsgd1na2vs0mg"},{"bike_id":"b36e8b1f-bc79-47f3-b875-c65c4943f06f","system_id":"levelo_inurba_marseille","lat":43.25819,"lon":5.39427,"is_reserved":false,"is_disabled":false,"rental_uris":{"android":"levelo://app?vid=b36e8b1f-bc79-47f3-b875-c65c4943f06f","ios":"levelo://app?vid=b36e8b1f-bc79-47f3-b875-c65c4943f06f"},"vehicle_type_id":"4","last_reported":1728364126,"current_range_meters":38000,"station_id":"ce4bhip2rcd13ifvqft0","pricing_plan_id":"cebpf4jnsgd1na2vs0mg"},{"bike_id":"5005bbdf-c11c-46c5-8e2f-61b3caedfbd1","system_id":"levelo_inurba_marseille","lat":43.27816,"lon":5.40706,"is_reserved":false,"is_disabled":false,"rental_uris":{"android":"levelo://app?vid=5005bbdf-c11c-46c5-8e2f-61b3caedfbd1","ios":"levelo://app?vid=5005bbdf-c11c-46c5-8e2f-61b3caedfbd1"},"vehicle_type_id":"4","last_reported":1728364126,"current_range_meters":38800,"station_id":"ce4bhnh2rcd13ifvqgtg","pricing_plan_id":"cebpf4jnsgd1na2vs0mg"},{"bike_id":"32ed69b5-31f5-4aee-823a-e0992119be27","system_id":"levelo_inurba_marseille","lat":43.28346,"lon":5.38104,"is_reserved":false,"is_disabled":false,"rental_uris":{"android":"levelo://app?vid=32ed69b5-31f5-4aee-823a-e0992119be27","ios":"levelo://app?vid=32ed69b5-31f5-4aee-823a-e0992119be27"},"vehicle_type_id":"4","last_reported":1728364126,"current_range_meters":6800,"station_id":"ce4bh412rcd13ifvqdr0","pricing_plan_id":"cebpf4jnsgd1na2vs0mg"},{"bike_id":"56db9344-a034-485c-ae82-57c3e91166bb","system_id":"levelo_inurba_marseille","lat":43.27059,"lon":5.40259,"is_reserved":false,"is_disabled":false,"rental_uris":{"android":"levelo://app?vid=56db9344-a034-485c-ae82-57c3e91166bb","ios":"levelo://app?vid=56db9344-a034-485c-ae82-57c3e91166bb"},"vehicle_type_id":"4","last_reported":1728364126,"current_range_meters":38800,"station_id":"ce4bhk92rcd13ifvqgc0","pricing_plan_id":"cebpf4jnsgd1na2vs0mg"},{"bike_id":"d4756bff-098e-426b-9b09-6966fd77254d","system_id":"levelo_inurba_marseille","lat":43.31074,"lon":5.38346,"is_reserved":false,"is_disabled":false,"rental_uris":{"android":"levelo://app?vid=d4756bff-098e-426b-9b09-6966fd77254d","ios":"levelo://app?vid=d4756bff-098e-426b-9b09-6966fd77254d"},"vehicle_type_id":"4","last_reported":1728364126,"current_range_meters":27200,"station_id":"ce4bgv92rcd13ifvqcr0","pricing_plan_id":"cebpf4jnsgd1na2vs0mg"},{"bike_id":"c5c92b30-a4fd-4638-95c2-adacabee43d1","system_id":"levelo_inurba_marseille","lat":43.25579,"lon":5.38235,"is_reserved":false,"is_disabled":false,"rental_uris":{"android":"levelo://app?vid=c5c92b30-a4fd-4638-95c2-adacabee43d1","ios":"levelo://app?vid=c5c92b30-a4fd-4638-95c2-adacabee43d1"},"vehicle_type_id":"4","last_reported":1728364126,"current_range_meters":17200,"station_id":"ce4bhih2rcd13ifvqfs0","pricing_plan_id":"cebpf4jnsgd1na2vs0mg"},{"bike_id":"908a6a8f-fe51-456d-8950-79ae85ea5537","system_id":"levelo_inurba_marseille","lat":43.25115,"lon":5.40326,"is_reserved":false,"is_disabled":false,"rental_uris":{"android":"levelo://app?vid=908a6a8f-fe51-456d-8950-79ae85ea5537","ios":"levelo://app?vid=908a6a8f-fe51-456d-8950-79ae85ea5537"},"vehicle_type_id":"4","last_reported":1728364126,"current_range_meters":26000,"station_id":"ce4bhlh2rcd13ifvqgig","pricing_plan_id":"cebpf4jnsgd1na2vs0mg"},{"bike_id":"253fce75-32cf-4485-8260-9403bf4e3f76","system_id":"levelo_inurba_marseille","lat":43.2757,"lon":5.38419,"is_reserved":false,"is_disabled":false,"rental_uris":{"android":"levelo://app?vid=253fce75-32cf-4485-8260-9403bf4e3f76","ios":"levelo://app?vid=253fce75-32cf-4485-8260-9403bf4e3f76"},"vehicle_type_id":"4","last_reported":1728364126,"current_range_meters":38000,"station_id":"ce4bhh92rcd13ifvqfi0","pricing_plan_id":"cebpf4jnsgd1na2vs0mg"},{"bike_id":"d0c27835-2cc9-45f7-b009-ddcb789e0339","system_id":"levelo_inurba_marseille","lat":43.30599,"lon":5.37208,"is_reserved":false,"is_disabled":false,"rental_uris":{"android":"levelo://app?vid=d0c27835-2cc9-45f7-b009-ddcb789e0339","ios":"levelo://app?vid=d0c27835-2cc9-45f7-b009-ddcb789e0339"},"vehicle_type_id":"4","last_reported":1728364126,"current_range_meters":39200,"station_id":"ce4bgqh2rcd13ifvqc4g","pricing_plan_id":"cebpf4jnsgd1na2vs0mg"},{"bike_id":"cf927195-cafe-4fe6-8a9b-b503bf9be2b0","system_id":"levelo_inurba_marseille","lat":43.23187,"lon":5.39985,"is_reserved":false,"is_disabled":false,"rental_uris":{"android":"levelo://app?vid=cf927195-cafe-4fe6-8a9b-b503bf9be2b0","ios":"levelo://app?vid=cf927195-cafe-4fe6-8a9b-b503bf9be2b0"},"vehicle_type_id":"4","last_reported":1728364126,"current_range_meters":38400,"station_id":"ce4bhn12rcd13ifvqgqg","pricing_plan_id":"cebpf4jnsgd1na2vs0mg"},{"bike_id":"c99142a8-9bc4-4fda-b727-c3f121942b33","system_id":"levelo_inurba_marseille","lat":43.29805,"lon":5.40401,"is_reserved":false,"is_disabled":false,"rental_uris":{"android":"levelo://app?vid=c99142a8-9bc4-4fda-b727-c3f121942b33","ios":"levelo://app?vid=c99142a8-9bc4-4fda-b727-c3f121942b33"},"vehicle_type_id":"4","last_reported":1728364126,"current_range_meters":38000,"station_id":"ce4bh112rcd13ifvqd90","pricing_plan_id":"cebpf4jnsgd1na2vs0mg"},{"bike_id":"12cfbe49-322e-4e6e-8e64-3f34de285b4f","system_id":"levelo_inurba_marseille","lat":43.31325,"lon":5.39687,"is_reserved":false,"is_disabled":false,"rental_uris":{"android":"levelo://app?vid=12cfbe49-322e-4e6e-8e64-3f34de285b4f","ios":"levelo://app?vid=12cfbe49-322e-4e6e-8e64-3f34de285b4f"},"vehicle_type_id":"4","last_reported":1728364126,"current_range_meters":39200,"station_id":"ce4bgvp2rcd13ifvqcu0","pricing_plan_id":"cebpf4jnsgd1na2vs0mg"},{"bike_id":"58506dee-3109-4c79-bef3-67aff9cedcff","system_id":"levelo_inurba_marseille","lat":43.25577,"lon":5.38248,"is_reserved":false,"is_disabled":false,"rental_uris":{"android":"levelo://app?vid=58506dee-3109-4c79-bef3-67aff9cedcff","ios":"levelo://app?vid=58506dee-3109-4c79-bef3-67aff9cedcff"},"vehicle_type_id":"4","last_reported":1728364126,"current_range_meters":24800,"station_id":"ce4bhih2rcd13ifvqfs0","pricing_plan_id":"cebpf4jnsgd1na2vs0mg"},{"bike_id":"5bbd9fbf-0a34-4c84-9565-c74fc9338573","system_id":"levelo_inurba_marseille","lat":43.26945,"lon":5.40251,"is_reserved":false,"is_disabled":false,"rental_uris":{"android":"levelo://app?vid=5bbd9fbf-0a34-4c84-9565-c74fc9338573","ios":"levelo://app?vid=5bbd9fbf-0a34-4c84-9565-c74fc9338573"},"vehicle_type_id":"4","last_reported":1728364126,"current_range_meters":38800,"station_id":"cjm6bp8fraef2m0cb0m0","pricing_plan_id":"cebpf4jnsgd1na2vs0mg"},{"bike_id":"2e6ceb57-f2d6-46b3-bdc7-30a7314840db","system_id":"levelo_inurba_marseille","lat":43.2794,"lon":5.41043,"is_reserved":false,"is_disabled":false,"rental_uris":{"android":"levelo://app?vid=2e6ceb57-f2d6-46b3-bdc7-30a7314840db","ios":"levelo://app?vid=2e6ceb57-f2d6-46b3-bdc7-30a7314840db"},"vehicle_type_id":"4","last_reported":1728364126,"current_range_meters":23200,"station_id":"ce4bhnp2rcd13ifvqh0g","pricing_plan_id":"cebpf4jnsgd1na2vs0mg"},{"bike_id":"550b9f1b-76f2-4979-a430-35bd0d1101bd","system_id":"levelo_inurba_marseille","lat":43.32369,"lon":5.38877,"is_reserved":false,"is_disabled":false,"rental_uris":{"android":"levelo://app?vid=550b9f1b-76f2-4979-a430-35bd0d1101bd","ios":"levelo://app?vid=550b9f1b-76f2-4979-a430-35bd0d1101bd"},"vehicle_type_id":"4","last_reported":1728364126,"current_range_meters":38400,"station_id":"ce4bhqp2rcd13ifvqhog","pricing_plan_id":"cebpf4jnsgd1na2vs0mg"},{"bike_id":"46f61ffa-0839-4e80-9455-9d0e912c2852","system_id":"levelo_inurba_marseille","lat":43.29007,"lon":5.35611,"is_reserved":false,"is_disabled":false,"rental_uris":{"android":"levelo://app?vid=46f61ffa-0839-4e80-9455-9d0e912c2852","ios":"levelo://app?vid=46f61ffa-0839-4e80-9455-9d0e912c2852"},"vehicle_type_id":"4","last_reported":1728364126,"current_range_meters":28400,"station_id":"ce4bhb92rcd13ifvqen0","pricing_plan_id":"cebpf4jnsgd1na2vs0mg"},{"bike_id":"542404d0-7ad8-4d88-9837-14b7ea9cdc5a","system_id":"levelo_inurba_marseille","lat":43.31716,"lon":5.43707,"is_reserved":false,"is_disabled":false,"rental_uris":{"android":"levelo://app?vid=542404d0-7ad8-4d88-9837-14b7ea9cdc5a","ios":"levelo://app?vid=542404d0-7ad8-4d88-9837-14b7ea9cdc5a"},"vehicle_type_id":"4","last_reported":1728364126,"current_range_meters":38400,"station_id":"ce4bhp92rcd13ifvqhcg","pricing_plan_id":"cebpf4jnsgd1na2vs0mg"},{"bike_id":"0d5796fb-87ef-472d-940f-653fb21948cf","system_id":"levelo_inurba_marseille","lat":43.29551,"lon":5.42277,"is_reserved":false,"is_disabled":false,"rental_uris":{"android":"levelo://app?vid=0d5796fb-87ef-472d-940f-653fb21948cf","ios":"levelo://app?vid=0d5796fb-87ef-472d-940f-653fb21948cf"},"vehicle_type_id":"4","last_reported":1728364126,"current_range_meters":38800,"station_id":"ce4bhph2rcd13ifvqhdg","pricing_plan_id":"cebpf4jnsgd1na2vs0mg"},{"bike_id":"a774f550-3ce3-43eb-9d80-b5fdc228d567","system_id":"levelo_inurba_marseille","lat":43.31075,"lon":5.38346,"is_reserved":false,"is_disabled":false,"rental_uris":{"android":"levelo://app?vid=a774f550-3ce3-43eb-9d80-b5fdc228d567","ios":"levelo://app?vid=a774f550-3ce3-43eb-9d80-b5fdc228d567"},"vehicle_type_id":"4","last_reported":1728364126,"current_range_meters":37600,"station_id":"ce4bgv92rcd13ifvqcr0","pricing_plan_id":"cebpf4jnsgd1na2vs0mg"},{"bike_id":"6731d1b1-b391-47f7-84a2-e5222ded00d2","system_id":"levelo_inurba_marseille","lat":43.33025,"lon":5.39035,"is_reserved":false,"is_disabled":false,"rental_uris":{"android":"levelo://app?vid=6731d1b1-b391-47f7-84a2-e5222ded00d2","ios":"levelo://app?vid=6731d1b1-b391-47f7-84a2-e5222ded00d2"},"vehicle_type_id":"4","last_reported":1728364126,"current_range_meters":26800,"station_id":"ce4bhr92rcd13ifvqhrg","pricing_plan_id":"cebpf4jnsgd1na2vs0mg"},{"bike_id":"c88a4e1d-33de-4278-8f45-0d7bf16a2cfa","system_id":"levelo_inurba_marseille","lat":43.29529,"lon":5.39386,"is_reserved":false,"is_disabled":false,"rental_uris":{"android":"levelo://app?vid=c88a4e1d-33de-4278-8f45-0d7bf16a2cfa","ios":"levelo://app?vid=c88a4e1d-33de-4278-8f45-0d7bf16a2cfa"},"vehicle_type_id":"4","last_reported":1728364126,"current_range_meters":38800,"station_id":"ce4bh292rcd13ifvqdf0","pricing_plan_id":"cebpf4jnsgd1na2vs0mg"},{"bike_id":"efe63f53-1625-4db0-9257-be14059d9f4d","system_id":"levelo_inurba_marseille","lat":43.30933,"lon":5.40146,"is_reserved":false,"is_disabled":false,"rental_uris":{"android":"levelo://app?vid=efe63f53-1625-4db0-9257-be14059d9f4d","ios":"levelo://app?vid=efe63f53-1625-4db0-9257-be14059d9f4d"},"vehicle_type_id":"4","last_reported":1728364126,"current_range_meters":32400,"station_id":"ce4bgvp2rcd13ifvqct0","pricing_plan_id":"cebpf4jnsgd1na2vs0mg"},{"bike_id":"425ad34d-1308-4c8a-87b5-4d7a0298e097","system_id":"levelo_inurba_marseille","lat":43.28468,"lon":5.38411,"is_reserved":false,"is_disabled":false,"rental_uris":{"android":"levelo://app?vid=425ad34d-1308-4c8a-87b5-4d7a0298e097","ios":"levelo://app?vid=425ad34d-1308-4c8a-87b5-4d7a0298e097"},"vehicle_type_id":"4","last_reported":1728364126,"current_range_meters":38000,"station_id":"ce4bh512rcd13ifvqe3g","pricing_plan_id":"cebpf4jnsgd1na2vs0mg"},{"bike_id":"bbbd13b6-ea15-4495-bfdc-94e30fe3abb0","system_id":"levelo_inurba_marseille","lat":43.30351,"lon":5.418723,"is_reserved":false,"is_disabled":false,"rental_uris":{"android":"levelo://app?vid=bbbd13b6-ea15-4495-bfdc-94e30fe3abb0","ios":"levelo://app?vid=bbbd13b6-ea15-4495-bfdc-94e30fe3abb0"},"vehicle_type_id":"4","last_reported":1728364126,"current_range_meters":38000,"station_id":"ce4bhop2rcd13ifvqh7g","pricing_plan_id":"cebpf4jnsgd1na2vs0mg"},{"bike_id":"091a8093-e261-4858-89cf-6f7eb7b0192a","system_id":"levelo_inurba_marseille","lat":43.3136,"lon":5.38496,"is_reserved":false,"is_disabled":false,"rental_uris":{"android":"levelo://app?vid=091a8093-e261-4858-89cf-6f7eb7b0192a","ios":"levelo://app?vid=091a8093-e261-4858-89cf-6f7eb7b0192a"},"vehicle_type_id":"4","last_reported":1728364126,"current_range_meters":32800,"station_id":"ce4bgt92rcd13ifvqcf0","pricing_plan_id":"cebpf4jnsgd1na2vs0mg"},{"bike_id":"b6b37a85-100e-4f61-9c80-2ee673c17617","system_id":"levelo_inurba_marseille","lat":43.28102,"lon":5.37852,"is_reserved":false,"is_disabled":false,"rental_uris":{"android":"levelo://app?vid=b6b37a85-100e-4f61-9c80-2ee673c17617","ios":"levelo://app?vid=b6b37a85-100e-4f61-9c80-2ee673c17617"},"vehicle_type_id":"4","last_reported":1728364126,"current_range_meters":5600,"station_id":"ce4bha12rcd13ifvqee0","pricing_plan_id":"cebpf4jnsgd1na2vs0mg"},{"bike_id":"2d543eca-c8bf-427c-a3fa-e17e301f5c9b","system_id":"levelo_inurba_marseille","lat":43.26084,"lon":5.40321,"is_reserved":false,"is_disabled":false,"rental_uris":{"android":"levelo://app?vid=2d543eca-c8bf-427c-a3fa-e17e301f5c9b","ios":"levelo://app?vid=2d543eca-c8bf-427c-a3fa-e17e301f5c9b"},"vehicle_type_id":"4","last_reported":1728364126,"current_range_meters":3200,"station_id":"","pricing_plan_id":"cebpf4jnsgd1na2vs0mg"},{"bike_id":"9a81026c-2e29-49a6-9df9-c06033bddde4","system_id":"levelo_inurba_marseille","lat":43.25001,"lon":5.38928,"is_reserved":false,"is_disabled":false,"rental_uris":{"android":"levelo://app?vid=9a81026c-2e29-49a6-9df9-c06033bddde4","ios":"levelo://app?vid=9a81026c-2e29-49a6-9df9-c06033bddde4"},"vehicle_type_id":"4","last_reported":1728364126,"current_range_meters":38800,"station_id":"ce4bhgp2rcd13ifvqfd0","pricing_plan_id":"cebpf4jnsgd1na2vs0mg"},{"bike_id":"89bbdcb0-0d4b-45a3-ae3e-b367660213be","system_id":"levelo_inurba_marseille","lat":43.29548,"lon":5.42279,"is_reserved":false,"is_disabled":false,"rental_uris":{"android":"levelo://app?vid=89bbdcb0-0d4b-45a3-ae3e-b367660213be","ios":"levelo://app?vid=89bbdcb0-0d4b-45a3-ae3e-b367660213be"},"vehicle_type_id":"4","last_reported":1728364126,"current_range_meters":37600,"station_id":"ce4bhph2rcd13ifvqhdg","pricing_plan_id":"cebpf4jnsgd1na2vs0mg"},{"bike_id":"0000013c-f7e1-437d-be89-b08d28875586","system_id":"levelo_inurba_marseille","lat":43.28406,"lon":5.37506,"is_reserved":false,"is_disabled":false,"rental_uris":{"android":"levelo://app?vid=0000013c-f7e1-437d-be89-b08d28875586","ios":"levelo://app?vid=0000013c-f7e1-437d-be89-b08d28875586"},"vehicle_type_id":"4","last_reported":1728364126,"current_range_meters":36800,"station_id":"ce4bh412rcd13ifvqds0","pricing_plan_id":"cebpf4jnsgd1na2vs0mg"},{"bike_id":"c1975eeb-029e-4d79-92b5-3c802b1901e0","system_id":"levelo_inurba_marseille","lat":43.2846,"lon":5.35882,"is_reserved":false,"is_disabled":false,"rental_uris":{"android":"levelo://app?vid=c1975eeb-029e-4d79-92b5-3c802b1901e0","ios":"levelo://app?vid=c1975eeb-029e-4d79-92b5-3c802b1901e0"},"vehicle_type_id":"4","last_reported":1728364126,"current_range_meters":31200,"station_id":"ce4bhah2rcd13ifvqei0","pricing_plan_id":"cebpf4jnsgd1na2vs0mg"},{"bike_id":"1e988290-55c9-424f-98ec-3e019277f83d","system_id":"levelo_inurba_marseille","lat":43.26063,"lon":5.39392,"is_reserved":false,"is_disabled":false,"rental_uris":{"android":"levelo://app?vid=1e988290-55c9-424f-98ec-3e019277f83d","ios":"levelo://app?vid=1e988290-55c9-424f-98ec-3e019277f83d"},"vehicle_type_id":"4","last_reported":1728364126,"current_range_meters":38800,"station_id":"ce4bhh92rcd13ifvqfj0","pricing_plan_id":"cebpf4jnsgd1na2vs0mg"},{"bike_id":"f1510c6a-ec9a-4cb6-ba53-8ced3616703a","system_id":"levelo_inurba_marseille","lat":43.32484,"lon":5.36563,"is_reserved":false,"is_disabled":false,"rental_uris":{"android":"levelo://app?vid=f1510c6a-ec9a-4cb6-ba53-8ced3616703a","ios":"levelo://app?vid=f1510c6a-ec9a-4cb6-ba53-8ced3616703a"},"vehicle_type_id":"4","last_reported":1728364126,"current_range_meters":38800,"station_id":"ce4bhs12rcd13ifvqhvg","pricing_plan_id":"cebpf4jnsgd1na2vs0mg"},{"bike_id":"26601fe3-5781-42d0-be0e-03429f9be85f","system_id":"levelo_inurba_marseille","lat":43.33606,"lon":5.4103,"is_reserved":false,"is_disabled":false,"rental_uris":{"android":"levelo://app?vid=26601fe3-5781-42d0-be0e-03429f9be85f","ios":"levelo://app?vid=26601fe3-5781-42d0-be0e-03429f9be85f"},"vehicle_type_id":"4","last_reported":1728364126,"current_range_meters":39200,"station_id":"ce4bhqh2rcd13ifvqhmg","pricing_plan_id":"cebpf4jnsgd1na2vs0mg"},{"bike_id":"09ef71aa-0817-4eb5-83ac-bde0ebd31387","system_id":"levelo_inurba_marseille","lat":43.32365,"lon":5.38884,"is_reserved":false,"is_disabled":false,"rental_uris":{"android":"levelo://app?vid=09ef71aa-0817-4eb5-83ac-bde0ebd31387","ios":"levelo://app?vid=09ef71aa-0817-4eb5-83ac-bde0ebd31387"},"vehicle_type_id":"4","last_reported":1728364126,"current_range_meters":38400,"station_id":"ce4bhqp2rcd13ifvqhog","pricing_plan_id":"cebpf4jnsgd1na2vs0mg"},{"bike_id":"7089137b-32aa-4ec0-8d3a-91b2f33208ca","system_id":"levelo_inurba_marseille","lat":43.24672,"lon":5.38153,"is_reserved":false,"is_disabled":false,"rental_uris":{"android":"levelo://app?vid=7089137b-32aa-4ec0-8d3a-91b2f33208ca","ios":"levelo://app?vid=7089137b-32aa-4ec0-8d3a-91b2f33208ca"},"vehicle_type_id":"4","last_reported":1728364126,"current_range_meters":38400,"station_id":"ce4bhih2rcd13ifvqfr0","pricing_plan_id":"cebpf4jnsgd1na2vs0mg"},{"bike_id":"6e14ac97-d5ce-4f91-b9ed-3d3c9175f77d","system_id":"levelo_inurba_marseille","lat":43.30658,"lon":5.40081,"is_reserved":false,"is_disabled":false,"rental_uris":{"android":"levelo://app?vid=6e14ac97-d5ce-4f91-b9ed-3d3c9175f77d","ios":"levelo://app?vid=6e14ac97-d5ce-4f91-b9ed-3d3c9175f77d"},"vehicle_type_id":"4","last_reported":1728364126,"current_range_meters":30000,"station_id":"ce4bh112rcd13ifvqda0","pricing_plan_id":"cebpf4jnsgd1na2vs0mg"},{"bike_id":"6826c930-8aa2-4db5-96a6-4b67fd5214fe","system_id":"levelo_inurba_marseille","lat":43.28272,"lon":5.35065,"is_reserved":false,"is_disabled":false,"rental_uris":{"android":"levelo://app?vid=6826c930-8aa2-4db5-96a6-4b67fd5214fe","ios":"levelo://app?vid=6826c930-8aa2-4db5-96a6-4b67fd5214fe"},"vehicle_type_id":"4","last_reported":1728364126,"current_range_meters":38800,"station_id":"ce4bhbp2rcd13ifvqerg","pricing_plan_id":"cebpf4jnsgd1na2vs0mg"},{"bike_id":"c7c933ea-453c-4444-a304-2fa069327739","system_id":"levelo_inurba_marseille","lat":43.23067,"lon":5.35491,"is_reserved":false,"is_disabled":false,"rental_uris":{"android":"levelo://app?vid=c7c933ea-453c-4444-a304-2fa069327739","ios":"levelo://app?vid=c7c933ea-453c-4444-a304-2fa069327739"},"vehicle_type_id":"4","last_reported":1728364126,"current_range_meters":8400,"station_id":"cpo3342slgdg3j2ifvpg","pricing_plan_id":"cebpf4jnsgd1na2vs0mg"},{"bike_id":"a6d70310-27ce-49a4-a3c6-5ed786684119","system_id":"levelo_inurba_marseille","lat":43.28452,"lon":5.35882,"is_reserved":false,"is_disabled":false,"rental_uris":{"android":"levelo://app?vid=a6d70310-27ce-49a4-a3c6-5ed786684119","ios":"levelo://app?vid=a6d70310-27ce-49a4-a3c6-5ed786684119"},"vehicle_type_id":"4","last_reported":1728364126,"current_range_meters":39200,"station_id":"ce4bhah2rcd13ifvqei0","pricing_plan_id":"cebpf4jnsgd1na2vs0mg"},{"bike_id":"589f1824-3363-4ff3-be43-92e81d3f7ccb","system_id":"levelo_inurba_marseille","lat":43.28271,"lon":5.35068,"is_reserved":false,"is_disabled":false,"rental_uris":{"android":"levelo://app?vid=589f1824-3363-4ff3-be43-92e81d3f7ccb","ios":"levelo://app?vid=589f1824-3363-4ff3-be43-92e81d3f7ccb"},"vehicle_type_id":"4","last_reported":1728364126,"current_range_meters":26800,"station_id":"ce4bhbp2rcd13ifvqerg","pricing_plan_id":"cebpf4jnsgd1na2vs0mg"},{"bike_id":"1e89ff62-86ea-4d9b-83e6-20ce97cfea76","system_id":"levelo_inurba_marseille","lat":43.28458,"lon":5.35879,"is_reserved":false,"is_disabled":false,"rental_uris":{"android":"levelo://app?vid=1e89ff62-86ea-4d9b-83e6-20ce97cfea76","ios":"levelo://app?vid=1e89ff62-86ea-4d9b-83e6-20ce97cfea76"},"vehicle_type_id":"4","last_reported":1728364126,"current_range_meters":39200,"station_id":"ce4bhah2rcd13ifvqei0","pricing_plan_id":"cebpf4jnsgd1na2vs0mg"},{"bike_id":"4879615c-2d5e-4343-ab04-3f2ddbe64e10","system_id":"levelo_inurba_marseille","lat":43.25004,"lon":5.38921,"is_reserved":false,"is_disabled":false,"rental_uris":{"android":"levelo://app?vid=4879615c-2d5e-4343-ab04-3f2ddbe64e10","ios":"levelo://app?vid=4879615c-2d5e-4343-ab04-3f2ddbe64e10"},"vehicle_type_id":"4","last_reported":1728364126,"current_range_meters":37600,"station_id":"ce4bhgp2rcd13ifvqfd0","pricing_plan_id":"cebpf4jnsgd1na2vs0mg"},{"bike_id":"282fd314-a587-400e-9604-92e306a21a11","system_id":"levelo_inurba_marseille","lat":43.275695,"lon":5.384163,"is_reserved":false,"is_disabled":false,"rental_uris":{"android":"levelo://app?vid=282fd314-a587-400e-9604-92e306a21a11","ios":"levelo://app?vid=282fd314-a587-400e-9604-92e306a21a11"},"vehicle_type_id":"4","last_reported":1728364126,"current_range_meters":37600,"station_id":"ce4bhh92rcd13ifvqfi0","pricing_plan_id":"cebpf4jnsgd1na2vs0mg"},{"bike_id":"7a284141-427f-4b3a-b279-a9138bc649ca","system_id":"levelo_inurba_marseille","lat":43.3302,"lon":5.3904,"is_reserved":false,"is_disabled":false,"rental_uris":{"android":"levelo://app?vid=7a284141-427f-4b3a-b279-a9138bc649ca","ios":"levelo://app?vid=7a284141-427f-4b3a-b279-a9138bc649ca"},"vehicle_type_id":"4","last_reported":1728364126,"current_range_meters":38000,"station_id":"ce4bhr92rcd13ifvqhrg","pricing_plan_id":"cebpf4jnsgd1na2vs0mg"},{"bike_id":"c190b4a1-ea1d-47e2-b2e8-eefa3099f9cc","system_id":"levelo_inurba_marseille","lat":43.23192,"lon":5.35552,"is_reserved":false,"is_disabled":false,"rental_uris":{"android":"levelo://app?vid=c190b4a1-ea1d-47e2-b2e8-eefa3099f9cc","ios":"levelo://app?vid=c190b4a1-ea1d-47e2-b2e8-eefa3099f9cc"},"vehicle_type_id":"4","last_reported":1728364126,"current_range_meters":36800,"station_id":"ce4bhu92rcd13ifvqi70","pricing_plan_id":"cebpf4jnsgd1na2vs0mg"},{"bike_id":"38a20d7a-dae1-4df2-949c-4c41da90639b","system_id":"levelo_inurba_marseille","lat":43.282713,"lon":5.350624,"is_reserved":false,"is_disabled":false,"rental_uris":{"android":"levelo://app?vid=38a20d7a-dae1-4df2-949c-4c41da90639b","ios":"levelo://app?vid=38a20d7a-dae1-4df2-949c-4c41da90639b"},"vehicle_type_id":"4","last_reported":1728364126,"current_range_meters":12400,"station_id":"ce4bhbp2rcd13ifvqerg","pricing_plan_id":"cebpf4jnsgd1na2vs0mg"},{"bike_id":"6f34ba66-dc7e-4580-ad03-13f9f6e9f96e","system_id":"levelo_inurba_marseille","lat":43.303264,"lon":5.404382,"is_reserved":false,"is_disabled":false,"rental_uris":{"android":"levelo://app?vid=6f34ba66-dc7e-4580-ad03-13f9f6e9f96e","ios":"levelo://app?vid=6f34ba66-dc7e-4580-ad03-13f9f6e9f96e"},"vehicle_type_id":"4","last_reported":1728364126,"current_range_meters":19600,"station_id":"ce4bhs12rcd13ifvqhvg","pricing_plan_id":"cebpf4jnsgd1na2vs0mg"},{"bike_id":"ff5ba5ff-b9bc-44eb-9be7-e35bd733d917","system_id":"levelo_inurba_marseille","lat":43.241698,"lon":5.36396,"is_reserved":false,"is_disabled":false,"rental_uris":{"android":"levelo://app?vid=ff5ba5ff-b9bc-44eb-9be7-e35bd733d917","ios":"levelo://app?vid=ff5ba5ff-b9bc-44eb-9be7-e35bd733d917"},"vehicle_type_id":"4","last_reported":1728364126,"current_range_meters":38000,"station_id":"cpo36qri1sfpv3e86is0","pricing_plan_id":"cebpf4jnsgd1na2vs0mg"},{"bike_id":"fce0682f-45d4-4f2f-945f-00fcd9ebed5f","system_id":"levelo_inurba_marseille","lat":43.28706,"lon":5.39982,"is_reserved":false,"is_disabled":false,"rental_uris":{"android":"levelo://app?vid=fce0682f-45d4-4f2f-945f-00fcd9ebed5f","ios":"levelo://app?vid=fce0682f-45d4-4f2f-945f-00fcd9ebed5f"},"vehicle_type_id":"4","last_reported":1728364126,"current_range_meters":39200,"station_id":"ce4bho92rcd13ifvqh3g","pricing_plan_id":"cebpf4jnsgd1na2vs0mg"},{"bike_id":"3332939d-bc6d-4b61-8518-fe8d6ac2b691","system_id":"levelo_inurba_marseille","lat":43.3136,"lon":5.38496,"is_reserved":false,"is_disabled":false,"rental_uris":{"android":"levelo://app?vid=3332939d-bc6d-4b61-8518-fe8d6ac2b691","ios":"levelo://app?vid=3332939d-bc6d-4b61-8518-fe8d6ac2b691"},"vehicle_type_id":"4","last_reported":1728364126,"current_range_meters":36400,"station_id":"ce4bgt92rcd13ifvqcf0","pricing_plan_id":"cebpf4jnsgd1na2vs0mg"},{"bike_id":"1350fd2c-b9e9-43cd-9325-cd67b9835ac5","system_id":"levelo_inurba_marseille","lat":43.2846,"lon":5.35872,"is_reserved":false,"is_disabled":false,"rental_uris":{"android":"levelo://app?vid=1350fd2c-b9e9-43cd-9325-cd67b9835ac5","ios":"levelo://app?vid=1350fd2c-b9e9-43cd-9325-cd67b9835ac5"},