{"last_updated":1761491355,"ttl":60,"version":"2.2","data":{"bikes":[{"bike_id":"cd3a2f4d-c675-4ab6-8c32-24f42a46f2b6","system_id":"levelo_inurba_marseille","lat":43.29934,"lon":5.36553,"is_reserved":false,"is_disabled":false,"rental_uris":{"android":"levelo://app?vid=cd3a2f4d-c675-4ab6-8c32-24f42a46f2b6","ios":"levelo://app?vid=cd3a2f4d-c675-4ab6-8c32-24f42a46f2b6"},"vehicle_type_id":"4","last_reported":1761491355,"current_range_meters":2800,"station_id":"ce4bgm92rcd13ifvqbr0","pricing_plan_id":"cebpf4jnsgd1na2vs0mg"},{"bike_id":"062150b3-3576-42e2-a6cd-0d87271cb5d5","system_id":"levelo_inurba_marseille","lat":43.284706,"lon":5.384227,"is_reserved":false,"is_disabled":false,"rental_uris":{"android":"levelo://app?vid=062150b3-3576-42e2-a6cd-0d87271cb5d5","ios":"levelo://app?vid=062150b3-3576-42e2-a6cd-0d87271cb5d5"},"vehicle_type_id":"4","last_reported":1761491355,"current_range_meters":2800,"station_id":"ce4bh512rcd13ifvqe3g","pricing_plan_id":"cebpf4jnsgd1na2vs0mg"},{"bike_id":"098e914d-7635-4c28-b5cf-2dc569f6bba3","system_id":"levelo_inurba_marseille","lat":43.24656,"lon":5.38159,"is_reserved":false,"is_disabled":false,"rental_uris":{"android":"levelo://app?vid=098e914d-7635-4c28-b5cf-2dc569f6bba3","ios":"levelo://app?vid=098e914d-7635-4c28-b5cf-2dc569f6bba3"},"vehicle_type_id":"4","last_reported":1761491355,"current_range_meters":2800,"station_id":"ce4bhih2rcd13ifvqfr0","pricing_plan_id":"cebpf4jnsgd1na2vs0mg"},{"bike_id":"ef221118-3ff3-4268-86bc-2a75730c45c2","system_id":"levelo_inurba_marseille","lat":43.30805,"lon":5.37642,"is_reserved":false,"is_disabled":false,"rental_uris":{"android":"levelo://app?vid=ef221118-3ff3-4268-86bc-2a75730c45c2","ios":"levelo://app?vid=ef221118-3ff3-4268-86bc-2a75730c45c2"},"vehicle_type_id":"4","last_reported":1761491355,"current_range_meters":2800,"station_id":"ce4bgv92rcd13ifvqcq0","pricing_plan_id":"cebpf4jnsgd1na2vs0mg"},{"bike_id":"860fc644-b15c-40c9-a5f5-deb0c42f55d0","system_id":"levelo_inurba_marseille","lat":43.256227,"lon":5.382399,"is_reserved":false,"is_disabled":false,"rental_uris":{"android":"levelo://app?vid=860fc644-b15c-40c9-a5f5-deb0c42f55d0","ios":"levelo://app?vid=860fc644-b15c-40c9-a5f5-deb0c42f55d0"},"vehicle_type_id":"4","last_reported":1761491355,"current_range_meters":3200,"station_id":"ce4bhih2rcd13ifvqfs0","pricing_plan_id":"cebpf4jnsgd1na2vs0mg"},{"bike_id":"441939cb-5e57-4a50-a775-6bb0c489d2d2","system_id":"levelo_inurba_marseille","lat":43.28685,"lon":5.37395,"is_reserved":false,"is_disabled":true,"rental_uris":{"android":"levelo://app?vid=441939cb-5e57-4a50-a775-6bb0c489d2d2","ios":"levelo://app?vid=441939cb-5e57-4a50-a775-6bb0c489d2d2"},"vehicle_type_id":"4","last_reported":1761491355,"current_range_meters":3200,"station_id":"ce4bh3p2rcd13ifvqdq0","pricing_plan_id":"cebpf4jnsgd1na2vs0mg"},{"bike_id":"4cc0edfc-ff46-4c96-9438-209e9afb380b","system_id":"levelo_inurba_marseille","lat":43.28257,"lon":5.37287,"is_reserved":false,"is_disabled":false,"rental_uris":{"android":"levelo://app?vid=4cc0edfc-ff46-4c96-9438-209e9afb380b","ios":"levelo://app?vid=4cc0edfc-ff46-4c96-9438-209e9afb380b"},"vehicle_type_id":"4","last_reported":1761491355,"current_range_meters":3200,"station_id":"","pricing_plan_id":"cebpf4jnsgd1na2vs0mg"},{"bike_id":"e35e1247-2ec0-4206-a360-6aaa534a130f","system_id":"levelo_inurba_marseille","lat":43.28432,"lon":5.4839,"is_reserved":false,"is_disabled":false,"rental_uris":{"android":"levelo://app?vid=e35e1247-2ec0-4206-a360-6aaa534a130f","ios":"levelo://app?vid=e35e1247-2ec0-4206-a360-6aaa534a130f"},"vehicle_type_id":"4","last_reported":1761491355,"current_range_meters":3200,"station_id":"st_d3svhcjqgbts73a3dn0g","pricing_plan_id":"cebpf4jnsgd1na2vs0mg"},{"bike_id":"bf2660fc-75d2-4985-9ba9-1556c02a9f23","system_id":"levelo_inurba_marseille","lat":43.231896,"lon":5.355533,"is_reserved":false,"is_disabled":false,"rental_uris":{"android":"levelo://app?vid=bf2660fc-75d2-4985-9ba9-1556c02a9f23","ios":"levelo://app?vid=bf2660fc-75d2-4985-9ba9-1556c02a9f23"},"vehicle_type_id":"4","last_reported":1761491355,"current_range_meters":3200,"station_id":"ce4bhu92rcd13ifvqi70","pricing_plan_id":"cebpf4jnsgd1na2vs0mg"},{"bike_id":"c97e2da3-f938-4bb6-a99e-7041ad969b33","system_id":"levelo_inurba_marseille","lat":43.28583,"lon":5.39918,"is_reserved":false,"is_disabled":false,"rental_uris":{"android":"levelo://app?vid=c97e2da3-f938-4bb6-a99e-7041ad969b33","ios":"levelo://app?vid=c97e2da3-f938-4bb6-a99e-7041ad969b33"},"vehicle_type_id":"4","last_reported":1761491355,"current_range_meters":4000,"station_id":"","pricing_plan_id":"cebpf4jnsgd1na2vs0mg"},{"bike_id":"5f9debc0-c360-4a2e-b517-592e9a0c2818","system_id":"levelo_inurba_marseille","lat":43.32933,"lon":5.4277,"is_reserved":false,"is_disabled":false,"rental_uris":{"android":"levelo://app?vid=5f9debc0-c360-4a2e-b517-592e9a0c2818","ios":"levelo://app?vid=5f9debc0-c360-4a2e-b517-592e9a0c2818"},"vehicle_type_id":"4","last_reported":1761491355,"current_range_meters":4000,"station_id":"","pricing_plan_id":"cebpf4jnsgd1na2vs0mg"},{"bike_id":"41721be1-f9d5-49ed-b7ef-0a5032b9afd1","system_id":"levelo_inurba_marseille","lat":43.23162,"lon":5.43698,"is_reserved":false,"is_disabled":false,"rental_uris":{"android":"levelo://app?vid=41721be1-f9d5-49ed-b7ef-0a5032b9afd1","ios":"levelo://app?vid=41721be1-f9d5-49ed-b7ef-0a5032b9afd1"},"vehicle_type_id":"4","last_reported":1761491355,"current_range_meters":4000,"station_id":"ce4bhmp2rcd13ifvqgog","pricing_plan_id":"cebpf4jnsgd1na2vs0mg"},{"bike_id":"f656ea2f-fbf7-4f5b-b240-84d80cd3e081","system_id":"levelo_inurba_marseille","lat":43.25084,"lon":5.39526,"is_reserved":false,"is_disabled":false,"rental_uris":{"android":"levelo://app?vid=f656ea2f-fbf7-4f5b-b240-84d80cd3e081","ios":"levelo://app?vid=f656ea2f-fbf7-4f5b-b240-84d80cd3e081"},"vehicle_type_id":"4","last_reported":1761491355,"current_range_meters":4400,"station_id":"ce4bhm12rcd13ifvqgkg","pricing_plan_id":"cebpf4jnsgd1na2vs0mg"},{"bike_id":"61c81ee8-ac52-438e-a2da-c954e80a6b9a","system_id":"levelo_inurba_marseille","lat":43.315613,"lon":5.380086,"is_reserved":false,"is_disabled":false,"rental_uris":{"android":"levelo://app?vid=61c81ee8-ac52-438e-a2da-c954e80a6b9a","ios":"levelo://app?vid=61c81ee8-ac52-438e-a2da-c954e80a6b9a"},"vehicle_type_id":"4","last_reported":1761491355,"current_range_meters":4400,"station_id":"ce4bhsp2rcd13ifvqi50","pricing_plan_id":"cebpf4jnsgd1na2vs0mg"},{"bike_id":"5254d545-f008-4d80-a1bc-082d24584926","system_id":"levelo_inurba_marseille","lat":43.28412,"lon":5.35,"is_reserved":false,"is_disabled":false,"rental_uris":{"android":"levelo://app?vid=5254d545-f008-4d80-a1bc-082d24584926","ios":"levelo://app?vid=5254d545-f008-4d80-a1bc-082d24584926"},"vehicle_type_id":"4","last_reported":1761491355,"current_range_meters":4400,"station_id":"ce4bhbh2rcd13ifvqepg","pricing_plan_id":"cebpf4jnsgd1na2vs0mg"},{"bike_id":"498ca1ad-56df-4dd0-bf10-623820872248","system_id":"levelo_inurba_marseille","lat":43.313576,"lon":5.36713,"is_reserved":false,"is_disabled":false,"rental_uris":{"android":"levelo://app?vid=498ca1ad-56df-4dd0-bf10-623820872248","ios":"levelo://app?vid=498ca1ad-56df-4dd0-bf10-623820872248"},"vehicle_type_id":"4","last_reported":1761491355,"current_range_meters":4400,"station_id":"ce4bgr92rcd13ifvqc6g","pricing_plan_id":"cebpf4jnsgd1na2vs0mg"},{"bike_id":"ab224a81-bed0-4886-a15f-8990b4319851","system_id":"levelo_inurba_marseille","lat":43.302094,"lon":5.397517,"is_reserved":false,"is_disabled":false,"rental_uris":{"android":"levelo://app?vid=ab224a81-bed0-4886-a15f-8990b4319851","ios":"levelo://app?vid=ab224a81-bed0-4886-a15f-8990b4319851"},"vehicle_type_id":"4","last_reported":1761491355,"current_range_meters":4400,"station_id":"ce4bh0h2rcd13ifvqd40","pricing_plan_id":"cebpf4jnsgd1na2vs0mg"},{"bike_id":"78242953-cc09-408d-9c8e-23b69f5350c9","system_id":"levelo_inurba_marseille","lat":43.30949,"lon":5.39071,"is_reserved":false,"is_disabled":false,"rental_uris":{"android":"levelo://app?vid=78242953-cc09-408d-9c8e-23b69f5350c9","ios":"levelo://app?vid=78242953-cc09-408d-9c8e-23b69f5350c9"},"vehicle_type_id":"4","last_reported":1761491355,"current_range_meters":4800,"station_id":"ce4bgup2rcd13ifvqco0","pricing_plan_id":"cebpf4jnsgd1na2vs0mg"},{"bike_id":"3c68b102-7aee-45f4-913a-cfd84d70eac3","system_id":"levelo_inurba_marseille","lat":43.292603,"lon":5.384447,"is_reserved":false,"is_disabled":false,"rental_uris":{"android":"levelo://app?vid=3c68b102-7aee-45f4-913a-cfd84d70eac3","ios":"levelo://app?vid=3c68b102-7aee-45f4-913a-cfd84d70eac3"},"vehicle_type_id":"4","last_reported":1761491355,"current_range_meters":4800,"station_id":"","pricing_plan_id":"cebpf4jnsgd1na2vs0mg"},{"bike_id":"ac00a898-6dd6-4d75-ab9b-eb7420f33284","system_id":"levelo_inurba_marseille","lat":43.284103,"lon":5.37507,"is_reserved":false,"is_disabled":false,"rental_uris":{"android":"levelo://app?vid=ac00a898-6dd6-4d75-ab9b-eb7420f33284","ios":"levelo://app?vid=ac00a898-6dd6-4d75-ab9b-eb7420f33284"},"vehicle_type_id":"4","last_reported":1761491355,"current_range_meters":4800,"station_id":"","pricing_plan_id":"cebpf4jnsgd1na2vs0mg"},{"bike_id":"8126cef1-f746-4615-b294-abfad0419602","system_id":"levelo_inurba_marseille","lat":43.2253,"lon":5.34835,"is_reserved":false,"is_disabled":false,"rental_uris":{"android":"levelo://app?vid=8126cef1-f746-4615-b294-abfad0419602","ios":"levelo://app?vid=8126cef1-f746-4615-b294-abfad0419602"},"vehicle_type_id":"4","last_reported":1761491355,"current_range_meters":4800,"station_id":"","pricing_plan_id":"cebpf4jnsgd1na2vs0mg"},{"bike_id":"8b485030-1201-44ce-b70b-2ffb1a0ef8f0","system_id":"levelo_inurba_marseille","lat":43.31486,"lon":5.37309,"is_reserved":false,"is_disabled":false,"rental_uris":{"android":"levelo://app?vid=8b485030-1201-44ce-b70b-2ffb1a0ef8f0","ios":"levelo://app?vid=8b485030-1201-44ce-b70b-2ffb1a0ef8f0"},"vehicle_type_id":"4","last_reported":1761491355,"current_range_meters":4800,"station_id":"ce4bgt12rcd13ifvqcd0","pricing_plan_id":"cebpf4jnsgd1na2vs0mg"},{"bike_id":"3b3368d6-a45a-46e2-9a8f-0139efc09034","system_id":"levelo_inurba_marseille","lat":43.27373,"lon":5.36255,"is_reserved":false,"is_disabled":false,"rental_uris":{"android":"levelo://app?vid=3b3368d6-a45a-46e2-9a8f-0139efc09034","ios":"levelo://app?vid=3b3368d6-a45a-46e2-9a8f-0139efc09034"},"vehicle_type_id":"4","last_reported":1761491355,"current_range_meters":5600,"station_id":"ce4bhbh2rcd13ifvqeo0","pricing_plan_id":"cebpf4jnsgd1na2vs0mg"},{"bike_id":"4f5c5045-2f2c-4ab7-ad8b-eeba1d52fe66","system_id":"levelo_inurba_marseille","lat":43.31066,"lon":5.37465,"is_reserved":false,"is_disabled":false,"rental_uris":{"android":"levelo://app?vid=4f5c5045-2f2c-4ab7-ad8b-eeba1d52fe66","ios":"levelo://app?vid=4f5c5045-2f2c-4ab7-ad8b-eeba1d52fe66"},"vehicle_type_id":"4","last_reported":1761491355,"current_range_meters":5600,"station_id":"","pricing_plan_id":"cebpf4jnsgd1na2vs0mg"},{"bike_id":"fe492db0-eda6-486a-9390-7a8d08ce5d96","system_id":"levelo_inurba_marseille","lat":43.29961,"lon":5.38504,"is_reserved":false,"is_disabled":false,"rental_uris":{"android":"levelo://app?vid=fe492db0-eda6-486a-9390-7a8d08ce5d96","ios":"levelo://app?vid=fe492db0-eda6-486a-9390-7a8d08ce5d96"},"vehicle_type_id":"4","last_reported":1761491355,"current_range_meters":5600,"station_id":"ce4bgj92rcd13ifvqbd0","pricing_plan_id":"cebpf4jnsgd1na2vs0mg"},{"bike_id":"da4be0f6-6eb4-4354-b00e-2fbe2f6a7c65","system_id":"levelo_inurba_marseille","lat":43.29937,"lon":5.36555,"is_reserved":false,"is_disabled":false,"rental_uris":{"android":"levelo://app?vid=da4be0f6-6eb4-4354-b00e-2fbe2f6a7c65","ios":"levelo://app?vid=da4be0f6-6eb4-4354-b00e-2fbe2f6a7c65"},"vehicle_type_id":"4","last_reported":1761491355,"current_range_meters":5600,"station_id":"ce4bgm92rcd13ifvqbr0","pricing_plan_id":"cebpf4jnsgd1na2vs0mg"},{"bike_id":"19389e62-2bed-4144-b6ea-0246764bb949","system_id":"levelo_inurba_marseille","lat":43.225323,"lon":5.34838,"is_reserved":false,"is_disabled":false,"rental_uris":{"android":"levelo://app?vid=19389e62-2bed-4144-b6ea-0246764bb949","ios":"levelo://app?vid=19389e62-2bed-4144-b6ea-0246764bb949"},"vehicle_type_id":"4","last_reported":1761491355,"current_range_meters":5600,"station_id":"","pricing_plan_id":"cebpf4jnsgd1na2vs0mg"},{"bike_id":"bb43c5e2-0c0d-415f-806f-f53c0deac6ae","system_id":"levelo_inurba_marseille","lat":43.29528,"lon":5.38546,"is_reserved":false,"is_disabled":false,"rental_uris":{"android":"levelo://app?vid=bb43c5e2-0c0d-415f-806f-f53c0deac6ae","ios":"levelo://app?vid=bb43c5e2-0c0d-415f-806f-f53c0deac6ae"},"vehicle_type_id":"4","last_reported":1761491355,"current_range_meters":6000,"station_id":"ce4bgih2rcd13ifvqba0","pricing_plan_id":"cebpf4jnsgd1na2vs0mg"},{"bike_id":"a5edc0cf-0f74-49d3-937c-75d7d5cfb72b","system_id":"levelo_inurba_marseille","lat":43.24184,"lon":5.39718,"is_reserved":false,"is_disabled":false,"rental_uris":{"android":"levelo://app?vid=a5edc0cf-0f74-49d3-937c-75d7d5cfb72b","ios":"levelo://app?vid=a5edc0cf-0f74-49d3-937c-75d7d5cfb72b"},"vehicle_type_id":"4","last_reported":1761491355,"current_range_meters":6000,"station_id":"ce4bhn12rcd13ifvqgpg","pricing_plan_id":"cebpf4jnsgd1na2vs0mg"},{"bike_id":"fa063608-29c2-42ab-95b5-2fc82231eea9","system_id":"levelo_inurba_marseille","lat":43.21188,"lon":5.35085,"is_reserved":false,"is_disabled":false,"rental_uris":{"android":"levelo://app?vid=fa063608-29c2-42ab-95b5-2fc82231eea9","ios":"levelo://app?vid=fa063608-29c2-42ab-95b5-2fc82231eea9"},"vehicle_type_id":"4","last_reported":1761491355,"current_range_meters":6000,"station_id":"st_cvj6sg6p6f1abm77japg","pricing_plan_id":"cebpf4jnsgd1na2vs0mg"},{"bike_id":"ced1868d-88eb-4cce-bbc2-876ab867bbf7","system_id":"levelo_inurba_marseille","lat":43.246316,"lon":5.38714,"is_reserved":false,"is_disabled":false,"rental_uris":{"android":"levelo://app?vid=ced1868d-88eb-4cce-bbc2-876ab867bbf7","ios":"levelo://app?vid=ced1868d-88eb-4cce-bbc2-876ab867bbf7"},"vehicle_type_id":"4","last_reported":1761491355,"current_range_meters":6000,"station_id":"ce4bhg12rcd13ifvqf60","pricing_plan_id":"cebpf4jnsgd1na2vs0mg"},{"bike_id":"3ceb5144-9b9a-46d9-816c-321d47f3dfb5","system_id":"levelo_inurba_marseille","lat":43.30361,"lon":5.42497,"is_reserved":false,"is_disabled":false,"rental_uris":{"android":"levelo://app?vid=3ceb5144-9b9a-46d9-816c-321d47f3dfb5","ios":"levelo://app?vid=3ceb5144-9b9a-46d9-816c-321d47f3dfb5"},"vehicle_type_id":"4","last_reported":1761491355,"current_range_meters":6400,"station_id":"ce4bhoh2rcd13ifvqh6g","pricing_plan_id":"cebpf4jnsgd1na2vs0mg"},{"bike_id":"a65d739c-f514-4d4f-9a65-ff0bd29da41d","system_id":"levelo_inurba_marseille","lat":43.29257,"lon":5.36848,"is_reserved":false,"is_disabled":false,"rental_uris":{"android":"levelo://app?vid=a65d739c-f514-4d4f-9a65-ff0bd29da41d","ios":"levelo://app?vid=a65d739c-f514-4d4f-9a65-ff0bd29da41d"},"vehicle_type_id":"4","last_reported":1761491355,"current_range_meters":6400,"station_id":"ce4bhbp2rcd13ifvqesg","pricing_plan_id":"cebpf4jnsgd1na2vs0mg"},{"bike_id":"e856af2d-20ce-4b47-accc-092fc81ad093","system_id":"levelo_inurba_marseille","lat":43.29193,"lon":5.35779,"is_reserved":false,"is_disabled":true,"rental_uris":{"android":"levelo://app?vid=e856af2d-20ce-4b47-accc-092fc81ad093","ios":"levelo://app?vid=e856af2d-20ce-4b47-accc-092fc81ad093"},"vehicle_type_id":"4","last_reported":1761491355,"current_range_meters":6400,"station_id":"ce4bhb12rcd13ifvqel0","pricing_plan_id":"cebpf4jnsgd1na2vs0mg"},{"bike_id":"e94f57f2-601c-4cad-a187-6e953770aa25","system_id":"levelo_inurba_marseille","lat":43.312228,"lon":5.3783,"is_reserved":false,"is_disabled":false,"rental_uris":{"android":"levelo://app?vid=e94f57f2-601c-4cad-a187-6e953770aa25","ios":"levelo://app?vid=e94f57f2-601c-4cad-a187-6e953770aa25"},"vehicle_type_id":"4","last_reported":1761491355,"current_range_meters":6400,"station_id":"","pricing_plan_id":"cebpf4jnsgd1na2vs0mg"},{"bike_id":"1889c664-d184-4e26-b427-9d2578ec7b1f","system_id":"levelo_inurba_marseille","lat":43.292668,"lon":5.384295,"is_reserved":false,"is_disabled":false,"rental_uris":{"android":"levelo://app?vid=1889c664-d184-4e26-b427-9d2578ec7b1f","ios":"levelo://app?vid=1889c664-d184-4e26-b427-9d2578ec7b1f"},"vehicle_type_id":"4","last_reported":1761491355,"current_range_meters":6400,"station_id":"ce4bh692rcd13ifvqea0","pricing_plan_id":"cebpf4jnsgd1na2vs0mg"},{"bike_id":"2b08430f-3826-4249-8325-53b3985c5d73","system_id":"levelo_inurba_marseille","lat":43.278305,"lon":5.41482,"is_reserved":false,"is_disabled":false,"rental_uris":{"android":"levelo://app?vid=2b08430f-3826-4249-8325-53b3985c5d73","ios":"levelo://app?vid=2b08430f-3826-4249-8325-53b3985c5d73"},"vehicle_type_id":"4","last_reported":1761491355,"current_range_meters":6800,"station_id":"","pricing_plan_id":"cebpf4jnsgd1na2vs0mg"},{"bike_id":"9887b574-954e-49a6-99e2-3a975508de1b","system_id":"levelo_inurba_marseille","lat":43.29372,"lon":5.37865,"is_reserved":false,"is_disabled":true,"rental_uris":{"android":"levelo://app?vid=9887b574-954e-49a6-99e2-3a975508de1b","ios":"levelo://app?vid=9887b574-954e-49a6-99e2-3a975508de1b"},"vehicle_type_id":"4","last_reported":1761491355,"current_range_meters":6800,"station_id":"ce4bgjh2rcd13ifvqbf0","pricing_plan_id":"cebpf4jnsgd1na2vs0mg"},{"bike_id":"a85a1a15-e5b5-472d-86f0-40e34d623fb6","system_id":"levelo_inurba_marseille","lat":43.26028,"lon":5.37546,"is_reserved":false,"is_disabled":false,"rental_uris":{"android":"levelo://app?vid=a85a1a15-e5b5-472d-86f0-40e34d623fb6","ios":"levelo://app?vid=a85a1a15-e5b5-472d-86f0-40e34d623fb6"},"vehicle_type_id":"4","last_reported":1761491355,"current_range_meters":6800,"station_id":"ce4bhgh2rcd13ifvqfa0","pricing_plan_id":"cebpf4jnsgd1na2vs0mg"},{"bike_id":"447fe258-1143-4215-91fa-8a8095fbef03","system_id":"levelo_inurba_marseille","lat":43.27304,"lon":5.3915,"is_reserved":false,"is_disabled":false,"rental_uris":{"android":"levelo://app?vid=447fe258-1143-4215-91fa-8a8095fbef03","ios":"levelo://app?vid=447fe258-1143-4215-91fa-8a8095fbef03"},"vehicle_type_id":"4","last_reported":1761491355,"current_range_meters":7200,"station_id":"","pricing_plan_id":"cebpf4jnsgd1na2vs0mg"},{"bike_id":"51b614d1-6dfe-4e67-9a5e-bfd8acf52d94","system_id":"levelo_inurba_marseille","lat":43.30132,"lon":5.38783,"is_reserved":false,"is_disabled":true,"rental_uris":{"android":"levelo://app?vid=51b614d1-6dfe-4e67-9a5e-bfd8acf52d94","ios":"levelo://app?vid=51b614d1-6dfe-4e67-9a5e-bfd8acf52d94"},"vehicle_type_id":"4","last_reported":1761491355,"current_range_meters":7200,"station_id":"ce4bghh2rcd13ifvqb60","pricing_plan_id":"cebpf4jnsgd1na2vs0mg"},{"bike_id":"a35a4922-b803-4cd9-8623-7e895c294787","system_id":"levelo_inurba_marseille","lat":43.298126,"lon":5.382261,"is_reserved":false,"is_disabled":true,"rental_uris":{"android":"levelo://app?vid=a35a4922-b803-4cd9-8623-7e895c294787","ios":"levelo://app?vid=a35a4922-b803-4cd9-8623-7e895c294787"},"vehicle_type_id":"4","last_reported":1761491355,"current_range_meters":7200,"station_id":"","pricing_plan_id":"cebpf4jnsgd1na2vs0mg"},{"bike_id":"6ef9d05b-de2d-4e84-8ab3-0752d01ee3e8","system_id":"levelo_inurba_marseille","lat":43.31358,"lon":5.38497,"is_reserved":false,"is_disabled":false,"rental_uris":{"android":"levelo://app?vid=6ef9d05b-de2d-4e84-8ab3-0752d01ee3e8","ios":"levelo://app?vid=6ef9d05b-de2d-4e84-8ab3-0752d01ee3e8"},"vehicle_type_id":"4","last_reported":1761491355,"current_range_meters":7200,"station_id":"ce4bgt92rcd13ifvqcf0","pricing_plan_id":"cebpf4jnsgd1na2vs0mg"},{"bike_id":"a72ce1f9-bf92-4121-9f58-9c26cbae0f22","system_id":"levelo_inurba_marseille","lat":43.26689,"lon":5.3827,"is_reserved":false,"is_disabled":false,"rental_uris":{"android":"levelo://app?vid=a72ce1f9-bf92-4121-9f58-9c26cbae0f22","ios":"levelo://app?vid=a72ce1f9-bf92-4121-9f58-9c26cbae0f22"},"vehicle_type_id":"4","last_reported":1761491355,"current_range_meters":8000,"station_id":"ce4bhg92rcd13ifvqf90","pricing_plan_id":"cebpf4jnsgd1na2vs0mg"},{"bike_id":"8be6a47c-9542-4fed-8109-f6d91a0f2b3f","system_id":"levelo_inurba_marseille","lat":43.29174,"lon":5.37161,"is_reserved":false,"is_disabled":false,"rental_uris":{"android":"levelo://app?vid=8be6a47c-9542-4fed-8109-f6d91a0f2b3f","ios":"levelo://app?vid=8be6a47c-9542-4fed-8109-f6d91a0f2b3f"},"vehicle_type_id":"4","last_reported":1761491355,"current_range_meters":8000,"station_id":"ce4bha92rcd13ifvqeh0","pricing_plan_id":"cebpf4jnsgd1na2vs0mg"},{"bike_id":"9d964ec4-c537-4f1d-b21c-451d3f46b1bf","system_id":"levelo_inurba_marseille","lat":43.299,"lon":5.37898,"is_reserved":false,"is_disabled":false,"rental_uris":{"android":"levelo://app?vid=9d964ec4-c537-4f1d-b21c-451d3f46b1bf","ios":"levelo://app?vid=9d964ec4-c537-4f1d-b21c-451d3f46b1bf"},"vehicle_type_id":"4","last_reported":1761491355,"current_range_meters":8000,"station_id":"","pricing_plan_id":"cebpf4jnsgd1na2vs0mg"},{"bike_id":"0dc3daf3-ee66-45e0-a5eb-ed3984c5b76f","system_id":"levelo_inurba_marseille","lat":43.27964,"lon":5.38715,"is_reserved":false,"is_disabled":false,"rental_uris":{"android":"levelo://app?vid=0dc3daf3-ee66-45e0-a5eb-ed3984c5b76f","ios":"levelo://app?vid=0dc3daf3-ee66-45e0-a5eb-ed3984c5b76f"},"vehicle_type_id":"4","last_reported":1761491355,"current_range_meters":8000,"station_id":"ce4bhg12rcd13ifvqf80","pricing_plan_id":"cebpf4jnsgd1na2vs0mg"},{"bike_id":"b271dec7-e9c0-4031-a78b-d3a50b11d54a","system_id":"levelo_inurba_marseille","lat":43.28686,"lon":5.4126,"is_reserved":false,"is_disabled":false,"rental_uris":{"android":"levelo://app?vid=b271dec7-e9c0-4031-a78b-d3a50b11d54a","ios":"levelo://app?vid=b271dec7-e9c0-4031-a78b-d3a50b11d54a"},"vehicle_type_id":"4","last_reported":1761491355,"current_range_meters":8000,"station_id":"","pricing_plan_id":"cebpf4jnsgd1na2vs0mg"},{"bike_id":"dab36927-4328-48fa-bffb-145a737de07e","system_id":"levelo_inurba_marseille","lat":43.307963,"lon":5.435301,"is_reserved":false,"is_disabled":true,"rental_uris":{"android":"levelo://app?vid=dab36927-4328-48fa-bffb-145a737de07e","ios":"levelo://app?vid=dab36927-4328-48fa-bffb-145a737de07e"},"vehicle_type_id":"4","last_reported":1761491355,"current_range_meters":8400,"station_id":"ce4bhph2rcd13ifvqheg","pricing_plan_id":"cebpf4jnsgd1na2vs0mg"},{"bike_id":"8e85e0b4-1d5e-4059-938e-f4c16ba4c8ab","system_id":"levelo_inurba_marseille","lat":43.2416,"lon":5.3639,"is_reserved":false,"is_disabled":false,"rental_uris":{"android":"levelo://app?vid=8e85e0b4-1d5e-4059-938e-f4c16ba4c8ab","ios":"levelo://app?vid=8e85e0b4-1d5e-4059-938e-f4c16ba4c8ab"},"vehicle_type_id":"4","last_reported":1761491355,"current_range_meters":8400,"station_id":"cpo36qri1sfpv3e86is0","pricing_plan_id":"cebpf4jnsgd1na2vs0mg"},{"bike_id":"f60b6c3a-8878-463c-a2f4-bb476de96a22","system_id":"levelo_inurba_marseille","lat":43.24175,"lon":5.39718,"is_reserved":false,"is_disabled":false,"rental_uris":{"android":"levelo://app?vid=f60b6c3a-8878-463c-a2f4-bb476de96a22","ios":"levelo://app?vid=f60b6c3a-8878-463c-a2f4-bb476de96a22"},"vehicle_type_id":"4","last_reported":1761491355,"current_range_meters":8400,"station_id":"ce4bhn12rcd13ifvqgpg","pricing_plan_id":"cebpf4jnsgd1na2vs0mg"},{"bike_id":"d093c925-9248-49e3-a52b-1ca749f2e353","system_id":"levelo_inurba_marseille","lat":43.297875,"lon":5.371059,"is_reserved":false,"is_disabled":false,"rental_uris":{"android":"levelo://app?vid=d093c925-9248-49e3-a52b-1ca749f2e353","ios":"levelo://app?vid=d093c925-9248-49e3-a52b-1ca749f2e353"},"vehicle_type_id":"4","last_reported":1761491355,"current_range_meters":8800,"station_id":"ce4bgop2rcd13ifvqc1g","pricing_plan_id":"cebpf4jnsgd1na2vs0mg"},{"bike_id":"43117888-69d1-4bc6-a73a-697554e4a08e","system_id":"levelo_inurba_marseille","lat":43.252544,"lon":5.378067,"is_reserved":false,"is_disabled":false,"rental_uris":{"android":"levelo://app?vid=43117888-69d1-4bc6-a73a-697554e4a08e","ios":"levelo://app?vid=43117888-69d1-4bc6-a73a-697554e4a08e"},"vehicle_type_id":"4","last_reported":1761491355,"current_range_meters":8800,"station_id":"","pricing_plan_id":"cebpf4jnsgd1na2vs0mg"},{"bike_id":"69880247-38f2-48e7-ab49-326f3d5eca30","system_id":"levelo_inurba_marseille","lat":43.21178,"lon":5.35111,"is_reserved":false,"is_disabled":true,"rental_uris":{"android":"levelo://app?vid=69880247-38f2-48e7-ab49-326f3d5eca30","ios":"levelo://app?vid=69880247-38f2-48e7-ab49-326f3d5eca30"},"vehicle_type_id":"4","last_reported":1761491355,"current_range_meters":8800,"station_id":"","pricing_plan_id":"cebpf4jnsgd1na2vs0mg"},{"bike_id":"11ed3229-da96-464f-bee1-15ff06dff35a","system_id":"levelo_inurba_marseille","lat":43.21188,"lon":5.35075,"is_reserved":false,"is_disabled":false,"rental_uris":{"android":"levelo://app?vid=11ed3229-da96-464f-bee1-15ff06dff35a","ios":"levelo://app?vid=11ed3229-da96-464f-bee1-15ff06dff35a"},"vehicle_type_id":"4","last_reported":1761491355,"current_range_meters":8800,"station_id":"st_cvj6sg6p6f1abm77japg","pricing_plan_id":"cebpf4jnsgd1na2vs0mg"},{"bike_id":"ba18d13e-d020-4a72-921a-2b0907efd755","system_id":"levelo_inurba_marseille","lat":43.273685,"lon":5.362584,"is_reserved":false,"is_disabled":false,"rental_uris":{"android":"levelo://app?vid=ba18d13e-d020-4a72-921a-2b0907efd755","ios":"levelo://app?vid=ba18d13e-d020-4a72-921a-2b0907efd755"},"vehicle_type_id":"4","last_reported":1761491355,"current_range_meters":8800,"station_id":"ce4bhbh2rcd13ifvqeo0","pricing_plan_id":"cebpf4jnsgd1na2vs0mg"},{"bike_id":"8ccfbb85-30a5-4745-96f0-a706b72218a1","system_id":"levelo_inurba_marseille","lat":43.31424,"lon":5.38882,"is_reserved":false,"is_disabled":false,"rental_uris":{"android":"levelo://app?vid=8ccfbb85-30a5-4745-96f0-a706b72218a1","ios":"levelo://app?vid=8ccfbb85-30a5-4745-96f0-a706b72218a1"},"vehicle_type_id":"4","last_reported":1761491355,"current_range_meters":9200,"station_id":"","pricing_plan_id":"cebpf4jnsgd1na2vs0mg"},{"bike_id":"724f4bca-f28f-4833-bff3-9f0884f2b641","system_id":"levelo_inurba_marseille","lat":43.28696,"lon":5.39981,"is_reserved":false,"is_disabled":false,"rental_uris":{"android":"levelo://app?vid=724f4bca-f28f-4833-bff3-9f0884f2b641","ios":"levelo://app?vid=724f4bca-f28f-4833-bff3-9f0884f2b641"},"vehicle_type_id":"4","last_reported":1761491355,"current_range_meters":9200,"station_id":"ce4bho92rcd13ifvqh3g","pricing_plan_id":"cebpf4jnsgd1na2vs0mg"},{"bike_id":"b8c52303-c303-40a6-9847-945f91a06135","system_id":"levelo_inurba_marseille","lat":43.312307,"lon":5.368196,"is_reserved":false,"is_disabled":false,"rental_uris":{"android":"levelo://app?vid=b8c52303-c303-40a6-9847-945f91a06135","ios":"levelo://app?vid=b8c52303-c303-40a6-9847-945f91a06135"},"vehicle_type_id":"4","last_reported":1761491355,"current_range_meters":9200,"station_id":"ce4bgl92rcd13ifvqbq0","pricing_plan_id":"cebpf4jnsgd1na2vs0mg"},{"bike_id":"81997a91-a130-432e-a002-7366676cb8f0","system_id":"levelo_inurba_marseille","lat":43.27069,"lon":5.42282,"is_reserved":false,"is_disabled":false,"rental_uris":{"android":"levelo://app?vid=81997a91-a130-432e-a002-7366676cb8f0","ios":"levelo://app?vid=81997a91-a130-432e-a002-7366676cb8f0"},"vehicle_type_id":"4","last_reported":1761491355,"current_range_meters":9600,"station_id":"ce4bhk92rcd13ifvqgb0","pricing_plan_id":"cebpf4jnsgd1na2vs0mg"},{"bike_id":"a2967cc5-fa25-4d7b-a9d6-5c0392bb804f","system_id":"levelo_inurba_marseille","lat":43.303361,"lon":5.40447,"is_reserved":false,"is_disabled":false,"rental_uris":{"android":"levelo://app?vid=a2967cc5-fa25-4d7b-a9d6-5c0392bb804f","ios":"levelo://app?vid=a2967cc5-fa25-4d7b-a9d6-5c0392bb804f"},"vehicle_type_id":"4","last_reported":1761491355,"current_range_meters":9600,"station_id":"ce4bh012rcd13ifvqd10","pricing_plan_id":"cebpf4jnsgd1na2vs0mg"},{"bike_id":"d3145067-3ca0-4e72-b01a-ef78c0959aad","system_id":"levelo_inurba_marseille","lat":43.30235,"lon":5.40093,"is_reserved":false,"is_disabled":true,"rental_uris":{"android":"levelo://app?vid=d3145067-3ca0-4e72-b01a-ef78c0959aad","ios":"levelo://app?vid=d3145067-3ca0-4e72-b01a-ef78c0959aad"},"vehicle_type_id":"4","last_reported":1761491355,"current_range_meters":9600,"station_id":"ce4bgvh2rcd13ifvqcs0","pricing_plan_id":"cebpf4jnsgd1na2vs0mg"},{"bike_id":"5dd04910-101f-4654-853d-341f84b98945","system_id":"levelo_inurba_marseille","lat":43.289993,"lon":5.37198,"is_reserved":false,"is_disabled":false,"rental_uris":{"android":"levelo://app?vid=5dd04910-101f-4654-853d-341f84b98945","ios":"levelo://app?vid=5dd04910-101f-4654-853d-341f84b98945"},"vehicle_type_id":"4","last_reported":1761491355,"current_range_meters":10000,"station_id":"","pricing_plan_id":"cebpf4jnsgd1na2vs0mg"},{"bike_id":"4e0d61f6-2e9e-47e0-a87b-8aaed781c8f5","system_id":"levelo_inurba_marseille","lat":43.32994,"lon":5.3903,"is_reserved":false,"is_disabled":false,"rental_uris":{"android":"levelo://app?vid=4e0d61f6-2e9e-47e0-a87b-8aaed781c8f5","ios":"levelo://app?vid=4e0d61f6-2e9e-47e0-a87b-8aaed781c8f5"},"vehicle_type_id":"4","last_reported":1761491355,"current_range_meters":10800,"station_id":"ce4bhr92rcd13ifvqhrg","pricing_plan_id":"cebpf4jnsgd1na2vs0mg"},{"bike_id":"0a7b5d0f-c4db-4004-8684-e7f57cab39da","system_id":"levelo_inurba_marseille","lat":43.28992,"lon":5.3716,"is_reserved":false,"is_disabled":false,"rental_uris":{"android":"levelo://app?vid=0a7b5d0f-c4db-4004-8684-e7f57cab39da","ios":"levelo://app?vid=0a7b5d0f-c4db-4004-8684-e7f57cab39da"},"vehicle_type_id":"4","last_reported":1761491355,"current_range_meters":10800,"station_id":"","pricing_plan_id":"cebpf4jnsgd1na2vs0mg"},{"bike_id":"9e249963-7d44-4429-936b-0ee5affbd7e5","system_id":"levelo_inurba_marseille","lat":43.27484,"lon":5.40802,"is_reserved":false,"is_disabled":false,"rental_uris":{"android":"levelo://app?vid=9e249963-7d44-4429-936b-0ee5affbd7e5","ios":"levelo://app?vid=9e249963-7d44-4429-936b-0ee5affbd7e5"},"vehicle_type_id":"4","last_reported":1761491355,"current_range_meters":10800,"station_id":"","pricing_plan_id":"cebpf4jnsgd1na2vs0mg"},{"bike_id":"7f35850d-e972-40c0-b8aa-d8dde462a749","system_id":"levelo_inurba_marseille","lat":43.31568,"lon":5.38771,"is_reserved":false,"is_disabled":false,"rental_uris":{"android":"levelo://app?vid=7f35850d-e972-40c0-b8aa-d8dde462a749","ios":"levelo://app?vid=7f35850d-e972-40c0-b8aa-d8dde462a749"},"vehicle_type_id":"4","last_reported":1761491355,"current_range_meters":10800,"station_id":"","pricing_plan_id":"cebpf4jnsgd1na2vs0mg"},{"bike_id":"f4afbfe1-2b31-4b1d-80d5-406c9442ddc6","system_id":"levelo_inurba_marseille","lat":43.28687,"lon":5.38646,"is_reserved":false,"is_disabled":false,"rental_uris":{"android":"levelo://app?vid=f4afbfe1-2b31-4b1d-80d5-406c9442ddc6","ios":"levelo://app?vid=f4afbfe1-2b31-4b1d-80d5-406c9442ddc6"},"vehicle_type_id":"4","last_reported":1761491355,"current_range_meters":11200,"station_id":"ce4bh492rcd13ifvqdug","pricing_plan_id":"cebpf4jnsgd1na2vs0mg"},{"bike_id":"4049abb6-d14e-43c8-ae57-81f6b077a3d2","system_id":"levelo_inurba_marseille","lat":43.21201,"lon":5.35072,"is_reserved":false,"is_disabled":false,"rental_uris":{"android":"levelo://app?vid=4049abb6-d14e-43c8-ae57-81f6b077a3d2","ios":"levelo://app?vid=4049abb6-d14e-43c8-ae57-81f6b077a3d2"},"vehicle_type_id":"4","last_reported":1761491355,"current_range_meters":11200,"station_id":"st_cvj6sg6p6f1abm77japg","pricing_plan_id":"cebpf4jnsgd1na2vs0mg"},{"bike_id":"8e9d8f53-1724-42d3-858c-96eb22148e8b","system_id":"levelo_inurba_marseille","lat":43.3058,"lon":5.39362,"is_reserved":false,"is_disabled":false,"rental_uris":{"android":"levelo://app?vid=8e9d8f53-1724-42d3-858c-96eb22148e8b","ios":"levelo://app?vid=8e9d8f53-1724-42d3-858c-96eb22148e8b"},"vehicle_type_id":"4","last_reported":1761491355,"current_range_meters":11200,"station_id":"ce4bh0p2rcd13ifvqd80","pricing_plan_id":"cebpf4jnsgd1na2vs0mg"},{"bike_id":"5947034f-19ea-4d71-bc4b-92db934cd50e","system_id":"levelo_inurba_marseille","lat":43.21195,"lon":5.35074,"is_reserved":false,"is_disabled":true,"rental_uris":{"android":"levelo://app?vid=5947034f-19ea-4d71-bc4b-92db934cd50e","ios":"levelo://app?vid=5947034f-19ea-4d71-bc4b-92db934cd50e"},"vehicle_type_id":"4","last_reported":1761491355,"current_range_meters":11200,"station_id":"","pricing_plan_id":"cebpf4jnsgd1na2vs0mg"},{"bike_id":"c08c864d-bf93-492d-a199-05fb4d670e18","system_id":"levelo_inurba_marseille","lat":43.30545,"lon":5.36557,"is_reserved":false,"is_disabled":false,"rental_uris":{"android":"levelo://app?vid=c08c864d-bf93-492d-a199-05fb4d670e18","ios":"levelo://app?vid=c08c864d-bf93-492d-a199-05fb4d670e18"},"vehicle_type_id":"4","last_reported":1761491355,"current_range_meters":11600,"station_id":"ce4bgs12rcd13ifvqcag","pricing_plan_id":"cebpf4jnsgd1na2vs0mg"},{"bike_id":"b8f009a7-0a3d-4467-8d9a-f71b82ca2784","system_id":"levelo_inurba_marseille","lat":43.22568,"lon":5.41638,"is_reserved":false,"is_disabled":false,"rental_uris":{"android":"levelo://app?vid=b8f009a7-0a3d-4467-8d9a-f71b82ca2784","ios":"levelo://app?vid=b8f009a7-0a3d-4467-8d9a-f71b82ca2784"},"vehicle_type_id":"4","last_reported":1761491355,"current_range_meters":11600,"station_id":"st_d2o4gvlbi1j2169b742g","pricing_plan_id":"cebpf4jnsgd1na2vs0mg"},{"bike_id":"90775127-c694-40d7-bdc0-11f68e797f8e","system_id":"levelo_inurba_marseille","lat":43.2621,"lon":5.37439,"is_reserved":false,"is_disabled":false,"rental_uris":{"android":"levelo://app?vid=90775127-c694-40d7-bdc0-11f68e797f8e","ios":"levelo://app?vid=90775127-c694-40d7-bdc0-11f68e797f8e"},"vehicle_type_id":"4","last_reported":1761491355,"current_range_meters":11600,"station_id":"ce4bhgp2rcd13ifvqfc0","pricing_plan_id":"cebpf4jnsgd1na2vs0mg"},{"bike_id":"12cefd40-c26f-402c-b50f-33cfb17b8e9f","system_id":"levelo_inurba_marseille","lat":43.300149,"lon":5.376574,"is_reserved":false,"is_disabled":false,"rental_uris":{"android":"levelo://app?vid=12cefd40-c26f-402c-b50f-33cfb17b8e9f","ios":"levelo://app?vid=12cefd40-c26f-402c-b50f-33cfb17b8e9f"},"vehicle_type_id":"4","last_reported":1761491355,"current_range_meters":12000,"station_id":"","pricing_plan_id":"cebpf4jnsgd1na2vs0mg"},{"bike_id":"86bb99a4-3bed-453c-bdfd-4fd969cec0ce","system_id":"levelo_inurba_marseille","lat":43.26074,"lon":5.39378,"is_reserved":false,"is_disabled":false,"rental_uris":{"android":"levelo://app?vid=86bb99a4-3bed-453c-bdfd-4fd969cec0ce","ios":"levelo://app?vid=86bb99a4-3bed-453c-bdfd-4fd969cec0ce"},"vehicle_type_id":"4","last_reported":1761491355,"current_range_meters":12000,"station_id":"ce4bhh92rcd13ifvqfj0","pricing_plan_id":"cebpf4jnsgd1na2vs0mg"},{"bike_id":"81858322-e059-42cb-958d-3242c8aec9ff","system_id":"levelo_inurba_marseille","lat":43.28257,"lon":5.35081,"is_reserved":false,"is_disabled":false,"rental_uris":{"android":"levelo://app?vid=81858322-e059-42cb-958d-3242c8aec9ff","ios":"levelo://app?vid=81858322-e059-42cb-958d-3242c8aec9ff"},"vehicle_type_id":"4","last_reported":1761491355,"current_range_meters":12000,"station_id":"ce4bhbp2rcd13ifvqerg","pricing_plan_id":"cebpf4jnsgd1na2vs0mg"},{"bike_id":"9d93b8f9-8038-415c-a354-86f5c4ca238c","system_id":"levelo_inurba_marseille","lat":43.29268,"lon":5.38461,"is_reserved":false,"is_disabled":false,"rental_uris":{"android":"levelo://app?vid=9d93b8f9-8038-415c-a354-86f5c4ca238c","ios":"levelo://app?vid=9d93b8f9-8038-415c-a354-86f5c4ca238c"},"vehicle_type_id":"4","last_reported":1761491355,"current_range_meters":12000,"station_id":"ce4bh692rcd13ifvqea0","pricing_plan_id":"cebpf4jnsgd1na2vs0mg"},{"bike_id":"231548a1-8513-4cc2-815b-681367315f5d","system_id":"levelo_inurba_marseille","lat":43.24601,"lon":5.43353,"is_reserved":false,"is_disabled":false,"rental_uris":{"android":"levelo://app?vid=231548a1-8513-4cc2-815b-681367315f5d","ios":"levelo://app?vid=231548a1-8513-4cc2-815b-681367315f5d"},"vehicle_type_id":"4","last_reported":1761491355,"current_range_meters":12000,"station_id":"","pricing_plan_id":"cebpf4jnsgd1na2vs0mg"},{"bike_id":"45590a6b-966e-4533-b809-efc51cc9687d","system_id":"levelo_inurba_marseille","lat":43.31084,"lon":5.42423,"is_reserved":false,"is_disabled":false,"rental_uris":{"android":"levelo://app?vid=45590a6b-966e-4533-b809-efc51cc9687d","ios":"levelo://app?vid=45590a6b-966e-4533-b809-efc51cc9687d"},"vehicle_type_id":"4","last_reported":1761491355,"current_range_meters":12400,"station_id":"ce4bhp92rcd13ifvqhag","pricing_plan_id":"cebpf4jnsgd1na2vs0mg"},{"bike_id":"32f6063a-c078-4a82-917d-8721edad31dc","system_id":"levelo_inurba_marseille","lat":43.30381,"lon":5.4249,"is_reserved":false,"is_disabled":false,"rental_uris":{"android":"levelo://app?vid=32f6063a-c078-4a82-917d-8721edad31dc","ios":"levelo://app?vid=32f6063a-c078-4a82-917d-8721edad31dc"},"vehicle_type_id":"4","last_reported":1761491355,"current_range_meters":12400,"station_id":"ce4bhoh2rcd13ifvqh6g","pricing_plan_id":"cebpf4jnsgd1na2vs0mg"},{"bike_id":"41d45b45-3a52-4b5a-b2b3-1e62d5490ada","system_id":"levelo_inurba_marseille","lat":43.28531,"lon":5.44106,"is_reserved":false,"is_disabled":false,"rental_uris":{"android":"levelo://app?vid=41d45b45-3a52-4b5a-b2b3-1e62d5490ada","ios":"levelo://app?vid=41d45b45-3a52-4b5a-b2b3-1e62d5490ada"},"vehicle_type_id":"4","last_reported":1761491355,"current_range_meters":12400,"station_id":"st_d3j3df2ikq2c7380ej80","pricing_plan_id":"cebpf4jnsgd1na2vs0mg"},{"bike_id":"c0b81f28-bbba-4247-a74b-c55a34b31846","system_id":"levelo_inurba_marseille","lat":43.33258,"lon":5.41086,"is_reserved":false,"is_disabled":false,"rental_uris":{"android":"levelo://app?vid=c0b81f28-bbba-4247-a74b-c55a34b31846","ios":"levelo://app?vid=c0b81f28-bbba-4247-a74b-c55a34b31846"},"vehicle_type_id":"4","last_reported":1761491355,"current_range_meters":12800,"station_id":"","pricing_plan_id":"cebpf4jnsgd1na2vs0mg"},{"bike_id":"2971a04d-380d-4862-ad9c-010590bef799","system_id":"levelo_inurba_marseille","lat":43.28409,"lon":5.37523,"is_reserved":false,"is_disabled":false,"rental_uris":{"android":"levelo://app?vid=2971a04d-380d-4862-ad9c-010590bef799","ios":"levelo://app?vid=2971a04d-380d-4862-ad9c-010590bef799"},"vehicle_type_id":"4","last_reported":1761491355,"current_range_meters":12800,"station_id":"ce4bh412rcd13ifvqds0","pricing_plan_id":"cebpf4jnsgd1na2vs0mg"},{"bike_id":"9e83dc36-0288-47ce-863a-762352d61e9d","system_id":"levelo_inurba_marseille","lat":43.26947,"lon":5.40273,"is_reserved":false,"is_disabled":false,"rental_uris":{"android":"levelo://app?vid=9e83dc36-0288-47ce-863a-762352d61e9d","ios":"levelo://app?vid=9e83dc36-0288-47ce-863a-762352d61e9d"},"vehicle_type_id":"4","last_reported":1761491355,"current_range_meters":12800,"station_id":"cjm6bp8fraef2m0cb0m0","pricing_plan_id":"cebpf4jnsgd1na2vs0mg"},{"bike_id":"da53deab-b37f-4bff-8d08-f9ed6194ab10","system_id":"levelo_inurba_marseille","lat":43.24321,"lon":5.38329,"is_reserved":false,"is_disabled":false,"rental_uris":{"android":"levelo://app?vid=da53deab-b37f-4bff-8d08-f9ed6194ab10","ios":"levelo://app?vid=da53deab-b37f-4bff-8d08-f9ed6194ab10"},"vehicle_type_id":"4","last_reported":1761491355,"current_range_meters":12800,"station_id":"","pricing_plan_id":"cebpf4jnsgd1na2vs0mg"},{"bike_id":"519e0b3d-7937-453d-b258-eaf4c8651077","system_id":"levelo_inurba_marseille","lat":43.29788,"lon":5.38547,"is_reserved":false,"is_disabled":false,"rental_uris":{"android":"levelo://app?vid=519e0b3d-7937-453d-b258-eaf4c8651077","ios":"levelo://app?vid=519e0b3d-7937-453d-b258-eaf4c8651077"},"vehicle_type_id":"4","last_reported":1761491355,"current_range_meters":12800,"station_id":"","pricing_plan_id":"cebpf4jnsgd1na2vs0mg"},{"bike_id":"3da36b46-32f0-4723-8f3b-8cba39a84287","system_id":"levelo_inurba_marseille","lat":43.2439,"lon":5.37065,"is_reserved":false,"is_disabled":false,"rental_uris":{"android":"levelo://app?vid=3da36b46-32f0-4723-8f3b-8cba39a84287","ios":"levelo://app?vid=3da36b46-32f0-4723-8f3b-8cba39a84287"},"vehicle_type_id":"4","last_reported":1761491355,"current_range_meters":12800,"station_id":"ce4bhhh2rcd13ifvqfk0","pricing_plan_id":"cebpf4jnsgd1na2vs0mg"},{"bike_id":"311c0ca6-a879-4ab8-8890-7fb1b4aad2f6","system_id":"levelo_inurba_marseille","lat":43.31716,"lon":5.42395,"is_reserved":false,"is_disabled":false,"rental_uris":{"android":"levelo://app?vid=311c0ca6-a879-4ab8-8890-7fb1b4aad2f6","ios":"levelo://app?vid=311c0ca6-a879-4ab8-8890-7fb1b4aad2f6"},"vehicle_type_id":"4","last_reported":1761491355,"current_range_meters":12800,"station_id":"ce4bhp92rcd13ifvqhbg","pricing_plan_id":"cebpf4jnsgd1na2vs0mg"},{"bike_id":"79128d6f-9ae5-4420-8922-eab5ce40e69e","system_id":"levelo_inurba_marseille","lat":43.272034,"lon":5.391892,"is_reserved":false,"is_disabled":false,"rental_uris":{"android":"levelo://app?vid=79128d6f-9ae5-4420-8922-eab5ce40e69e","ios":"levelo://app?vid=79128d6f-9ae5-4420-8922-eab5ce40e69e"},"vehicle_type_id":"4","last_reported":1761491355,"current_range_meters":12800,"station_id":"","pricing_plan_id":"cebpf4jnsgd1na2vs0mg"},{"bike_id":"c4e6c704-f8af-4f7f-b93c-99fd6b898b50","system_id":"levelo_inurba_marseille","lat":43.284056,"lon":5.349902,"is_reserved":false,"is_disabled":false,"rental_uris":{"android":"levelo://app?vid=c4e6c704-f8af-4f7f-b93c-99fd6b898b50","ios":"levelo://app?vid=c4e6c704-f8af-4f7f-b93c-99fd6b898b50"},"vehicle_type_id":"4","last_reported":1761491355,"current_range_meters":13600,"station_id":"ce4bhbh2rcd13ifvqepg","pricing_plan_id":"cebpf4jnsgd1na2vs0mg"},{"bike_id":"f6004240-874f-492e-a1b0-7de2da4eab95","system_id":"levelo_inurba_marseille","lat":43.2737,"lon":5.36266,"is_reserved":false,"is_disabled":false,"rental_uris":{"android":"levelo://app?vid=f6004240-874f-492e-a1b0-7de2da4eab95","ios":"levelo://app?vid=f6004240-874f-492e-a1b0-7de2da4eab95"},"vehicle_type_id":"4","last_reported":1761491355,"current_range_meters":13600,"station_id":"ce4bhbh2rcd13ifvqeo0","pricing_plan_id":"cebpf4jnsgd1na2vs0mg"},{"bike_id":"46b0db6c-35c8-470b-a45d-db7e7afa9bfd","system_id":"levelo_inurba_marseille","lat":43.28357,"lon":5.37547,"is_reserved":false,"is_disabled":true,"rental_uris":{"android":"levelo://app?vid=46b0db6c-35c8-470b-a45d-db7e7afa9bfd","ios":"levelo://app?vid=46b0db6c-35c8-470b-a45d-db7e7afa9bfd"},"vehicle_type_id":"4","last_reported":1761491355,"current_range_meters":13600,"station_id":"ce4bh412rcd13ifvqds0","pricing_plan_id":"cebpf4jnsgd1na2vs0mg"},{"bike_id":"b2dff107-65e4-4c5d-b5a1-3182cb763090","system_id":"levelo_inurba_marseille","lat":43.29916,"lon":5.36529,"is_reserved":false,"is_disabled":false,"rental_uris":{"android":"levelo://app?vid=b2dff107-65e4-4c5d-b5a1-3182cb763090","ios":"levelo://app?vid=b2dff107-65e4-4c5d-b5a1-3182cb763090"},"vehicle_type_id":"4","last_reported":1761491355,"current_range_meters":13600,"station_id":"ce4bgm92rcd13ifvqbr0","pricing_plan_id":"cebpf4jnsgd1na2vs0mg"},{"bike_id":"67f8857f-0853-46d2-b9ef-96c5ce2639bc","system_id":"levelo_inurba_marseille","lat":43.23045,"lon":5.35498,"is_reserved":false,"is_disabled":false,"rental_uris":{"android":"levelo://app?vid=67f8857f-0853-46d2-b9ef-96c5ce2639bc","ios":"levelo://app?vid=67f8857f-0853-46d2-b9ef-96c5ce2639bc"},"vehicle_type_id":"4","last_reported":1761491355,"current_range_meters":13600,"station_id":"cpo3342slgdg3j2ifvpg","pricing_plan_id":"cebpf4jnsgd1na2vs0mg"},{"bike_id":"e4ccce50-4824-4895-aa8c-033835526f23","system_id":"levelo_inurba_marseille","lat":43.31875,"lon":5.3998,"is_reserved":false,"is_disabled":false,"rental_uris":{"android":"levelo://app?vid=e4ccce50-4824-4895-aa8c-033835526f23","ios":"levelo://app?vid=e4ccce50-4824-4895-aa8c-033835526f23"},"vehicle_type_id":"4","last_reported":1761491355,"current_range_meters":13600,"station_id":"","pricing_plan_id":"cebpf4jnsgd1na2vs0mg"},{"bike_id":"fc3a01d2-48d4-4d0b-956d-960ce8ffe553","system_id":"levelo_inurba_marseille","lat":43.28413,"lon":5.3502,"is_reserved":false,"is_disabled":false,"rental_uris":{"android":"levelo://app?vid=fc3a01d2-48d4-4d0b-956d-960ce8ffe553","ios":"levelo://app?vid=fc3a01d2-48d4-4d0b-956d-960ce8ffe553"},"vehicle_type_id":"4","last_reported":1761491355,"current_range_meters":13600,"station_id":"ce4bhbh2rcd13ifvqepg","pricing_plan_id":"cebpf4jnsgd1na2vs0mg"},{"bike_id":"ca772d75-34f2-4f9d-a5b0-630f8e1a3fbb","system_id":"levelo_inurba_marseille","lat":43.24164,"lon":5.36388,"is_reserved":false,"is_disabled":false,"rental_uris":{"android":"levelo://app?vid=ca772d75-34f2-4f9d-a5b0-630f8e1a3fbb","ios":"levelo://app?vid=ca772d75-34f2-4f9d-a5b0-630f8e1a3fbb"},"vehicle_type_id":"4","last_reported":1761491355,"current_range_meters":13600,"station_id":"cpo36qri1sfpv3e86is0","pricing_plan_id":"cebpf4jnsgd1na2vs0mg"},{"bike_id":"de5cece4-6186-4ccb-b70e-a25e8bd3fc86","system_id":"levelo_inurba_marseille","lat":43.337444,"lon":5.374475,"is_reserved":false,"is_disabled":false,"rental_uris":{"android":"levelo://app?vid=de5cece4-6186-4ccb-b70e-a25e8bd3fc86","ios":"levelo://app?vid=de5cece4-6186-4ccb-b70e-a25e8bd3fc86"},"vehicle_type_id":"4","last_reported":1761491355,"current_range_meters":13600,"station_id":"","pricing_plan_id":"cebpf4jnsgd1na2vs0mg"},{"bike_id":"a097a8c4-aa93-4c78-9dd9-0b36205ed11a","system_id":"levelo_inurba_marseille","lat":43.211929,"lon":5.350701,"is_reserved":false,"is_disabled":false,"rental_uris":{"android":"levelo://app?vid=a097a8c4-aa93-4c78-9dd9-0b36205ed11a","ios":"levelo://app?vid=a097a8c4-aa93-4c78-9dd9-0b36205ed11a"},"vehicle_type_id":"4","last_reported":1761491355,"current_range_meters":13600,"station_id":"","pricing_plan_id":"cebpf4jnsgd1na2vs0mg"},{"bike_id":"f3597904-1999-4d39-8e1f-4b77d2350aaf","system_id":"levelo_inurba_marseille","lat":43.29712,"lon":5.36599,"is_reserved":false,"is_disabled":false,"rental_uris":{"android":"levelo://app?vid=f3597904-1999-4d39-8e1f-4b77d2350aaf","ios":"levelo://app?vid=f3597904-1999-4d39-8e1f-4b77d2350aaf"},"vehicle_type_id":"4","last_reported":1761491355,"current_range_meters":14000,"station_id":"ce4bgn12rcd13ifvqbt0","pricing_plan_id":"cebpf4jnsgd1na2vs0mg"},{"bike_id":"e5aafa61-e384-4c69-800b-fe726c41fdc6","system_id":"levelo_inurba_marseille","lat":43.29961,"lon":5.38509,"is_reserved":false,"is_disabled":true,"rental_uris":{"android":"levelo://app?vid=e5aafa61-e384-4c69-800b-fe726c41fdc6","ios":"levelo://app?vid=e5aafa61-e384-4c69-800b-fe726c41fdc6"},"vehicle_type_id":"4","last_reported":1761491355,"current_range_meters":14000,"station_id":"ce4bgj92rcd13ifvqbd0","pricing_plan_id":"cebpf4jnsgd1na2vs0mg"},{"bike_id":"c124d4a0-9e47-48ec-ad7a-ea36eb6e5d35","system_id":"levelo_inurba_marseille","lat":43.24392,"lon":5.37042,"is_reserved":false,"is_disabled":false,"rental_uris":{"android":"levelo://app?vid=c124d4a0-9e47-48ec-ad7a-ea36eb6e5d35","ios":"levelo://app?vid=c124d4a0-9e47-48ec-ad7a-ea36eb6e5d35"},"vehicle_type_id":"4","last_reported":1761491355,"current_range_meters":14000,"station_id":"ce4bhhh2rcd13ifvqfk0","pricing_plan_id":"cebpf4jnsgd1na2vs0mg"},{"bike_id":"3735683c-5cef-4095-9929-4cd27d51325d","system_id":"levelo_inurba_marseille","lat":43.29931,"lon":5.36546,"is_reserved":false,"is_disabled":false,"rental_uris":{"android":"levelo://app?vid=3735683c-5cef-4095-9929-4cd27d51325d","ios":"levelo://app?vid=3735683c-5cef-4095-9929-4cd27d51325d"},"vehicle_type_id":"4","last_reported":1761491355,"current_range_meters":14000,"station_id":"ce4bgm92rcd13ifvqbr0","pricing_plan_id":"cebpf4jnsgd1na2vs0mg"},{"bike_id":"476ede32-cfdc-42f2-8cc1-233e266f9923","system_id":"levelo_inurba_marseille","lat":43.295699,"lon":5.37555,"is_reserved":false,"is_disabled":false,"rental_uris":{"android":"levelo://app?vid=476ede32-cfdc-42f2-8cc1-233e266f9923","ios":"levelo://app?vid=476ede32-cfdc-42f2-8cc1-233e266f9923"},"vehicle_type_id":"4","last_reported":1761491355,"current_range_meters":14400,"station_id":"","pricing_plan_id":"cebpf4jnsgd1na2vs0mg"},{"bike_id":"30554b26-973a-497a-895f-688567d1f87f","system_id":"levelo_inurba_marseille","lat":43.2319,"lon":5.39978,"is_reserved":false,"is_disabled":false,"rental_uris":{"android":"levelo://app?vid=30554b26-973a-497a-895f-688567d1f87f","ios":"levelo://app?vid=30554b26-973a-497a-895f-688567d1f87f"},"vehicle_type_id":"4","last_reported":1761491355,"current_range_meters":14400,"station_id":"ce4bhn12rcd13ifvqgqg","pricing_plan_id":"cebpf4jnsgd1na2vs0mg"},{"bike_id":"6ee611b3-bf13-495e-a0dc-dfd1a8718271","system_id":"levelo_inurba_marseille","lat":43.29815,"lon":5.4406,"is_reserved":false,"is_disabled":false,"rental_uris":{"android":"levelo://app?vid=6ee611b3-bf13-495e-a0dc-dfd1a8718271","ios":"levelo://app?vid=6ee611b3-bf13-495e-a0dc-dfd1a8718271"},"vehicle_type_id":"4","last_reported":1761491355,"current_range_meters":14400,"station_id":"st_d3jp68qikq2c7381ktn0","pricing_plan_id":"cebpf4jnsgd1na2vs0mg"},{"bike_id":"ee63d3c4-f9ad-48dd-a91b-8e565e473a00","system_id":"levelo_inurba_marseille","lat":43.30112,"lon":5.43116,"is_reserved":false,"is_disabled":false,"rental_uris":{"android":"levelo://app?vid=ee63d3c4-f9ad-48dd-a91b-8e565e473a00","ios":"levelo://app?vid=ee63d3c4-f9ad-48dd-a91b-8e565e473a00"},"vehicle_type_id":"4","last_reported":1761491355,"current_range_meters":14400,"station_id":"st_d3js3co5814s73ftftug","pricing_plan_id":"cebpf4jnsgd1na2vs0mg"},{"bike_id":"8847af5d-c1ad-4d8d-a5c1-273c3b41c105","system_id":"levelo_inurba_marseille","lat":43.322482,"lon":5.419623,"is_reserved":false,"is_disabled":false,"rental_uris":{"android":"levelo://app?vid=8847af5d-c1ad-4d8d-a5c1-273c3b41c105","ios":"levelo://app?vid=8847af5d-c1ad-4d8d-a5c1-273c3b41c105"},"vehicle_type_id":"4","last_reported":1761491355,"current_range_meters":14400,"station_id":"","pricing_plan_id":"cebpf4jnsgd1na2vs0mg"},{"bike_id":"d85011cb-7d6b-4b15-a412-59816da2b5c2","system_id":"levelo_inurba_marseille","lat":43.23188,"lon":5.35552,"is_reserved":false,"is_disabled":true,"rental_uris":{"android":"levelo://app?vid=d85011cb-7d6b-4b15-a412-59816da2b5c2","ios":"levelo://app?vid=d85011cb-7d6b-4b15-a412-59816da2b5c2"},"vehicle_type_id":"4","last_reported":1761491355,"current_range_meters":14400,"station_id":"ce4bhu92rcd13ifvqi70","pricing_plan_id":"cebpf4jnsgd1na2vs0mg"},{"bike_id":"64b75b4a-3497-4861-8cc2-90dd62cd9f5e","system_id":"levelo_inurba_marseille","lat":43.29473,"lon":5.43311,"is_reserved":false,"is_disabled":false,"rental_uris":{"android":"levelo://app?vid=64b75b4a-3497-4861-8cc2-90dd62cd9f5e","ios":"levelo://app?vid=64b75b4a-3497-4861-8cc2-90dd62cd9f5e"},"vehicle_type_id":"4","last_reported":1761491355,"current_range_meters":14400,"station_id":"st_d3j5ugp08ojc73fj9d10","pricing_plan_id":"cebpf4jnsgd1na2vs0mg"},{"bike_id":"8d922c2e-fd1c-4861-a7c8-82dfdd23c009","system_id":"levelo_inurba_marseille","lat":43.24172,"lon":5.36378,"is_reserved":false,"is_disabled":false,"rental_uris":{"android":"levelo://app?vid=8d922c2e-fd1c-4861-a7c8-82dfdd23c009","ios":"levelo://app?vid=8d922c2e-fd1c-4861-a7c8-82dfdd23c009"},"vehicle_type_id":"4","last_reported":1761491355,"current_range_meters":14400,"station_id":"cpo36qri1sfpv3e86is0","pricing_plan_id":"cebpf4jnsgd1na2vs0mg"},{"bike_id":"d0d46be4-8c65-4c86-94e1-23f57b6a855b","system_id":"levelo_inurba_marseille","lat":43.2978,"lon":5.37091,"is_reserved":false,"is_disabled":false,"rental_uris":{"android":"levelo://app?vid=d0d46be4-8c65-4c86-94e1-23f57b6a855b","ios":"levelo://app?vid=d0d46be4-8c65-4c86-94e1-23f57b6a855b"},"vehicle_type_id":"4","last_reported":1761491355,"current_range_meters":14400,"station_id":"ce4bgop2rcd13ifvqc1g","pricing_plan_id":"cebpf4jnsgd1na2vs0mg"},{"bike_id":"afc2df18-bbee-4c07-a345-2466adaf439d","system_id":"levelo_inurba_marseille","lat":43.25818,"lon":5.39437,"is_reserved":false,"is_disabled":false,"rental_uris":{"android":"levelo://app?vid=afc2df18-bbee-4c07-a345-2466adaf439d","ios":"levelo://app?vid=afc2df18-bbee-4c07-a345-2466adaf439d"},"vehicle_type_id":"4","last_reported":1761491355,"current_range_meters":14400,"station_id":"ce4bhip2rcd13ifvqft0","pricing_plan_id":"cebpf4jnsgd1na2vs0mg"},{"bike_id":"d4f50ddc-6163-45a3-80f3-267c8f931017","system_id":"levelo_inurba_marseille","lat":43.312221,"lon":5.368577,"is_reserved":false,"is_disabled":false,"rental_uris":{"android":"levelo://app?vid=d4f50ddc-6163-45a3-80f3-267c8f931017","ios":"levelo://app?vid=d4f50ddc-6163-45a3-80f3-267c8f931017"},"vehicle_type_id":"4","last_reported":1761491355,"current_range_meters":14400,"station_id":"ce4bgl92rcd13ifvqbq0","pricing_plan_id":"cebpf4jnsgd1na2vs0mg"},{"bike_id":"f4c68f92-bd44-4f83-af3e-a1540c3b8713","system_id":"levelo_inurba_marseille","lat":43.30417,"lon":5.4128,"is_reserved":false,"is_disabled":false,"rental_uris":{"android":"levelo://app?vid=f4c68f92-bd44-4f83-af3e-a1540c3b8713","ios":"levelo://app?vid=f4c68f92-bd44-4f83-af3e-a1540c3b8713"},"vehicle_type_id":"4","last_reported":1761491355,"current_range_meters":14400,"station_id":"ce4bhop2rcd13ifvqh8g","pricing_plan_id":"cebpf4jnsgd1na2vs0mg"},{"bike_id":"6f36a359-fa50-49f5-98a5-a2b2c4892adc","system_id":"levelo_inurba_marseille","lat":43.231995,"lon":5.355491,"is_reserved":false,"is_disabled":false,"rental_uris":{"android":"levelo://app?vid=6f36a359-fa50-49f5-98a5-a2b2c4892adc","ios":"levelo://app?vid=6f36a359-fa50-49f5-98a5-a2b2c4892adc"},"vehicle_type_id":"4","last_reported":1761491355,"current_range_meters":14800,"station_id":"ce4bhu92rcd13ifvqi70","pricing_plan_id":"cebpf4jnsgd1na2vs0mg"},{"bike_id":"0d6a088f-ad58-4503-b0d8-231a519e77da","system_id":"levelo_inurba_marseille","lat":43.26028,"lon":5.37548,"is_reserved":false,"is_disabled":false,"rental_uris":{"android":"levelo://app?vid=0d6a088f-ad58-4503-b0d8-231a519e77da","ios":"levelo://app?vid=0d6a088f-ad58-4503-b0d8-231a519e77da"},"vehicle_type_id":"4","last_reported":1761491355,"current_range_meters":14800,"station_id":"ce4bhgh2rcd13ifvqfa0","pricing_plan_id":"cebpf4jnsgd1na2vs0mg"},{"bike_id":"71f3c7fe-d263-4795-8c5d-72902f4b02bf","system_id":"levelo_inurba_marseille","lat":43.297988,"lon":5.381482,"is_reserved":false,"is_disabled":false,"rental_uris":{"android":"levelo://app?vid=71f3c7fe-d263-4795-8c5d-72902f4b02bf","ios":"levelo://app?vid=71f3c7fe-d263-4795-8c5d-72902f4b02bf"},"vehicle_type_id":"4","last_reported":1761491355,"current_range_meters":14800,"station_id":"ce4bgjp2rcd13ifvqbh0","pricing_plan_id":"cebpf4jnsgd1na2vs0mg"},{"bike_id":"ea9e850f-fd77-4e05-8137-4d2d9e1a30e4","system_id":"levelo_inurba_marseille","lat":43.29196,"lon":5.39318,"is_reserved":false,"is_disabled":false,"rental_uris":{"android":"levelo://app?vid=ea9e850f-fd77-4e05-8137-4d2d9e1a30e4","ios":"levelo://app?vid=ea9e850f-fd77-4e05-8137-4d2d9e1a30e4"},"vehicle_type_id":"4","last_reported":1761491355,"current_range_meters":14800,"station_id":"ce4bh192rcd13ifvqdd0","pricing_plan_id":"cebpf4jnsgd1na2vs0mg"},{"bike_id":"ffd13ce5-8f79-40f7-bfc8-0243e89f122b","system_id":"levelo_inurba_marseille","lat":43.243897,"lon":5.370622,"is_reserved":false,"is_disabled":false,"rental_uris":{"android":"levelo://app?vid=ffd13ce5-8f79-40f7-bfc8-0243e89f122b","ios":"levelo://app?vid=ffd13ce5-8f79-40f7-bfc8-0243e89f122b"},"vehicle_type_id":"4","last_reported":1761491355,"current_range_meters":15200,"station_id":"ce4bhhh2rcd13ifvqfk0","pricing_plan_id":"cebpf4jnsgd1na2vs0mg"},{"bike_id":"317107fa-306d-4b8d-9380-a16cd06486ce","system_id":"levelo_inurba_marseille","lat":43.284552,"lon":5.358906,"is_reserved":false,"is_disabled":true,"rental_uris":{"android":"levelo://app?vid=317107fa-306d-4b8d-9380-a16cd06486ce","ios":"levelo://app?vid=317107fa-306d-4b8d-9380-a16cd06486ce"},"vehicle_type_id":"4","last_reported":1761491355,"current_range_meters":15200,"station_id":"ce4bhah2rcd13ifvqei0","pricing_plan_id":"cebpf4jnsgd1na2vs0mg"},{"bike_id":"ca8c5fef-8841-4e27-bf56-b75f84bec5da","system_id":"levelo_inurba_marseille","lat":43.237824,"lon":5.366433,"is_reserved":false,"is_disabled":false,"rental_uris":{"android":"levelo://app?vid=ca8c5fef-8841-4e27-bf56-b75f84bec5da","ios":"levelo://app?vid=ca8c5fef-8841-4e27-bf56-b75f84bec5da"},"vehicle_type_id":"4","last_reported":1761491355,"current_range_meters":15200,"station_id":"st_d3nk18o9ro0c73en2l3g","pricing_plan_id":"cebpf4jnsgd1na2vs0mg"},{"bike_id":"86e7851a-d26b-4dd2-a79a-5c0b676cd8a4","system_id":"levelo_inurba_marseille","lat":43.28415,"lon":5.349698,"is_reserved":false,"is_disabled":false,"rental_uris":{"android":"levelo://app?vid=86e7851a-d26b-4dd2-a79a-5c0b676cd8a4","ios":"levelo://app?vid=86e7851a-d26b-4dd2-a79a-5c0b676cd8a4"},"vehicle_type_id":"4","last_reported":1761491355,"current_range_meters":16000,"station_id":"ce4bhbh2rcd13ifvqepg","pricing_plan_id":"cebpf4jnsgd1na2vs0mg"},{"bike_id":"7a1877e8-1310-4142-900d-3cea9a2ef65f","system_id":"levelo_inurba_marseille","lat":43.29506,"lon":5.43307,"is_reserved":false,"is_disabled":false,"rental_uris":{"android":"levelo://app?vid=7a1877e8-1310-4142-900d-3cea9a2ef65f","ios":"levelo://app?vid=7a1877e8-1310-4142-900d-3cea9a2ef65f"},"vehicle_type_id":"4","last_reported":1761491355,"current_range_meters":16000,"station_id":"st_d3j5ugp08ojc73fj9d10","pricing_plan_id":"cebpf4jnsgd1na2vs0mg"},{"bike_id":"a100fbc0-a18b-4350-8b9b-67f14f56ea4c","system_id":"levelo_inurba_marseille","lat":43.22566,"lon":5.41661,"is_reserved":false,"is_disabled":false,"rental_uris":{"android":"levelo://app?vid=a100fbc0-a18b-4350-8b9b-67f14f56ea4c","ios":"levelo://app?vid=a100fbc0-a18b-4350-8b9b-67f14f56ea4c"},"vehicle_type_id":"4","last_reported":1761491355,"current_range_meters":16000,"station_id":"st_d2o4gvlbi1j2169b742g","pricing_plan_id":"cebpf4jnsgd1na2vs0mg"},{"bike_id":"526cddf7-e629-4e01-a3fa-d060ef7dfdd4","system_id":"levelo_inurba_marseille","lat":43.246518,"lon":5.388907,"is_reserved":false,"is_disabled":false,"rental_uris":{"android":"levelo://app?vid=526cddf7-e629-4e01-a3fa-d060ef7dfdd4","ios":"levelo://app?vid=526cddf7-e629-4e01-a3fa-d060ef7dfdd4"},"vehicle_type_id":"4","last_reported":1761491355,"current_range_meters":16000,"station_id":"ce4bhg12rcd13ifvqf60","pricing_plan_id":"cebpf4jnsgd1na2vs0mg"},{"bike_id":"9f7db6ae-1132-4baa-9abe-f328e9010814","system_id":"levelo_inurba_marseille","lat":43.27173,"lon":5.41,"is_reserved":false,"is_disabled":false,"rental_uris":{"android":"levelo://app?vid=9f7db6ae-1132-4baa-9abe-f328e9010814","ios":"levelo://app?vid=9f7db6ae-1132-4baa-9abe-f328e9010814"},"vehicle_type_id":"4","last_reported":1761491355,"current_range_meters":16000,"station_id":"ce4bhl12rcd13ifvqgf0","pricing_plan_id":"cebpf4jnsgd1na2vs0mg"},{"bike_id":"ad166e8d-320f-47c2-bfd9-9e014a946d21","system_id":"levelo_inurba_marseille","lat":43.27797,"lon":5.40753,"is_reserved":false,"is_disabled":true,"rental_uris":{"android":"levelo://app?vid=ad166e8d-320f-47c2-bfd9-9e014a946d21","ios":"levelo://app?vid=ad166e8d-320f-47c2-bfd9-9e014a946d21"},"vehicle_type_id":"4","last_reported":1761491355,"current_range_meters":16000,"station_id":"ce4bhnh2rcd13ifvqgtg","pricing_plan_id":"cebpf4jnsgd1na2vs0mg"},{"bike_id":"aa28d59f-4175-4c4e-a734-3a61bafb2214","system_id":"levelo_inurba_marseille","lat":43.23151,"lon":5.43707,"is_reserved":false,"is_disabled":false,"rental_uris":{"android":"levelo://app?vid=aa28d59f-4175-4c4e-a734-3a61bafb2214","ios":"levelo://app?vid=aa28d59f-4175-4c4e-a734-3a61bafb2214"},"vehicle_type_id":"4","last_reported":1761491355,"current_range_meters":16000,"station_id":"ce4bhmp2rcd13ifvqgog","pricing_plan_id":"cebpf4jnsgd1na2vs0mg"},{"bike_id":"baa93571-061d-4d98-a7c4-ab842c53f2f8","system_id":"levelo_inurba_marseille","lat":43.30136,"lon":5.38511,"is_reserved":false,"is_disabled":false,"rental_uris":{"android":"levelo://app?vid=baa93571-061d-4d98-a7c4-ab842c53f2f8","ios":"levelo://app?vid=baa93571-061d-4d98-a7c4-ab842c53f2f8"},"vehicle_type_id":"4","last_reported":1761491355,"current_range_meters":16400,"station_id":"","pricing_plan_id":"cebpf4jnsgd1na2vs0mg"},{"bike_id":"cc9d6509-2455-4a36-82c2-a6a52746a70c","system_id":"levelo_inurba_marseille","lat":43.29273,"lon":5.40141,"is_reserved":false,"is_disabled":false,"rental_uris":{"android":"levelo://app?vid=cc9d6509-2455-4a36-82c2-a6a52746a70c","ios":"levelo://app?vid=cc9d6509-2455-4a36-82c2-a6a52746a70c"},"vehicle_type_id":"4","last_reported":1761491355,"current_range_meters":16400,"station_id":"ce4bh312rcd13ifvqdk0","pricing_plan_id":"cebpf4jnsgd1na2vs0mg"},{"bike_id":"de0ca7a8-116a-46c8-8c50-6b445a473423","system_id":"levelo_inurba_marseille","lat":43.28856,"lon":5.42517,"is_reserved":false,"is_disabled":false,"rental_uris":{"android":"levelo://app?vid=de0ca7a8-116a-46c8-8c50-6b445a473423","ios":"levelo://app?vid=de0ca7a8-116a-46c8-8c50-6b445a473423"},"vehicle_type_id":"4","last_reported":1761491355,"current_range_meters":16400,"station_id":"st_d3b462108ojc7389ooeg","pricing_plan_id":"cebpf4jnsgd1na2vs0mg"},{"bike_id":"d290b727-6836-4e17-bb70-fa6919fa7378","system_id":"levelo_inurba_marseille","lat":43.255183,"lon":5.376498,"is_reserved":false,"is_disabled":false,"rental_uris":{"android":"levelo://app?vid=d290b727-6836-4e17-bb70-fa6919fa7378","ios":"levelo://app?vid=d290b727-6836-4e17-bb70-fa6919fa7378"},"vehicle_type_id":"4","last_reported":1761491355,"current_range_meters":16400,"station_id":"ce4bhh12rcd13ifvqff0","pricing_plan_id":"cebpf4jnsgd1na2vs0mg"},{"bike_id":"87578ce7-70d9-46b0-9453-e71fca95c783","system_id":"levelo_inurba_marseille","lat":43.28269,"lon":5.350622,"is_reserved":false,"is_disabled":false,"rental_uris":{"android":"levelo://app?vid=87578ce7-70d9-46b0-9453-e71fca95c783","ios":"levelo://app?vid=87578ce7-70d9-46b0-9453-e71fca95c783"},"vehicle_type_id":"4","last_reported":1761491355,"current_range_meters":16400,"station_id":"ce4bhbp2rcd13ifvqerg","pricing_plan_id":"cebpf4jnsgd1na2vs0mg"},{"bike_id":"8e3d0e08-b97d-4968-869d-5fbe6eb8c3f7","system_id":"levelo_inurba_marseille","lat":43.248133,"lon":5.374613,"is_reserved":false,"is_disabled":false,"rental_uris":{"android":"levelo://app?vid=8e3d0e08-b97d-4968-869d-5fbe6eb8c3f7","ios":"levelo://app?vid=8e3d0e08-b97d-4968-869d-5fbe6eb8c3f7"},"vehicle_type_id":"4","last_reported":1761491355,"current_range_meters":16400,"station_id":"ce4bhgh2rcd13ifvqfb0","pricing_plan_id":"cebpf4jnsgd1na2vs0mg"},{"bike_id":"ea8b34dd-0c58-44f0-9a89-bc2f04875322","system_id":"levelo_inurba_marseille","lat":43.28414,"lon":5.34991,"is_reserved":false,"is_disabled":false,"rental_uris":{"android":"levelo://app?vid=ea8b34dd-0c58-44f0-9a89-bc2f04875322","ios":"levelo://app?vid=ea8b34dd-0c58-44f0-9a89-bc2f04875322"},"vehicle_type_id":"4","last_reported":1761491355,"current_range_meters":16800,"station_id":"ce4bhbh2rcd13ifvqepg","pricing_plan_id":"cebpf4jnsgd1na2vs0mg"},{"bike_id":"b35f3e1c-9c25-4f13-98b2-1c7e1858271c","system_id":"levelo_inurba_marseille","lat":43.22568,"lon":5.4162,"is_reserved":false,"is_disabled":false,"rental_uris":{"android":"levelo://app?vid=b35f3e1c-9c25-4f13-98b2-1c7e1858271c","ios":"levelo://app?vid=b35f3e1c-9c25-4f13-98b2-1c7e1858271c"},"vehicle_type_id":"4","last_reported":1761491355,"current_range_meters":16800,"station_id":"st_d2o4gvlbi1j2169b742g","pricing_plan_id":"cebpf4jnsgd1na2vs0mg"},{"bike_id":"52ceec00-721a-4f69-ae61-d61731c377ae","system_id":"levelo_inurba_marseille","lat":43.24175,"lon":5.39727,"is_reserved":false,"is_disabled":false,"rental_uris":{"android":"levelo://app?vid=52ceec00-721a-4f69-ae61-d61731c377ae","ios":"levelo://app?vid=52ceec00-721a-4f69-ae61-d61731c377ae"},"vehicle_type_id":"4","last_reported":1761491355,"current_range_meters":16800,"station_id":"ce4bhn12rcd13ifvqgpg","pricing_plan_id":"cebpf4jnsgd1na2vs0mg"},{"bike_id":"80048da8-d67b-4ca5-82cb-39b53916828b","system_id":"levelo_inurba_marseille","lat":43.28606,"lon":5.35102,"is_reserved":false,"is_disabled":false,"rental_uris":{"android":"levelo://app?vid=80048da8-d67b-4ca5-82cb-39b53916828b","ios":"levelo://app?vid=80048da8-d67b-4ca5-82cb-39b53916828b"},"vehicle_type_id":"4","last_reported":1761491355,"current_range_meters":16800,"station_id":"ce4bhch2rcd13ifvqeug","pricing_plan_id":"cebpf4jnsgd1na2vs0mg"},{"bike_id":"e3d3140d-2efa-4b82-8574-e6a4a3059176","system_id":"levelo_inurba_marseille","lat":43.30155,"lon":5.39825,"is_reserved":false,"is_disabled":false,"rental_uris":{"android":"levelo://app?vid=e3d3140d-2efa-4b82-8574-e6a4a3059176","ios":"levelo://app?vid=e3d3140d-2efa-4b82-8574-e6a4a3059176"},"vehicle_type_id":"4","last_reported":1761491355,"current_range_meters":16800,"station_id":"ce4bh0h2rcd13ifvqd40","pricing_plan_id":"cebpf4jnsgd1na2vs0mg"},{"bike_id":"82db378c-61a3-4881-a18f-2059499df93c","system_id":"levelo_inurba_marseille","lat":43.305395,"lon":5.365401,"is_reserved":false,"is_disabled":false,"rental_uris":{"android":"levelo://app?vid=82db378c-61a3-4881-a18f-2059499df93c","ios":"levelo://app?vid=82db378c-61a3-4881-a18f-2059499df93c"},"vehicle_type_id":"4","last_reported":1761491355,"current_range_meters":16800,"station_id":"ce4bgs12rcd13ifvqcag","pricing_plan_id":"cebpf4jnsgd1na2vs0mg"},{"bike_id":"53619b52-f6a4-4a36-9715-aa47e9e64dbc","system_id":"levelo_inurba_marseille","lat":43.29242,"lon":5.38443,"is_reserved":false,"is_disabled":true,"rental_uris":{"android":"levelo://app?vid=53619b52-f6a4-4a36-9715-aa47e9e64dbc","ios":"levelo://app?vid=53619b52-f6a4-4a36-9715-aa47e9e64dbc"},"vehicle_type_id":"4","last_reported":1761491355,"current_range_meters":16800,"station_id":"ce4bh692rcd13ifvqea0","pricing_plan_id":"cebpf4jnsgd1na2vs0mg"},{"bike_id":"ce15d64c-7bd4-4017-a01a-0dc353c2995b","system_id":"levelo_inurba_marseille","lat":43.2813,"lon":5.35029,"is_reserved":false,"is_disabled":false,"rental_uris":{"android":"levelo://app?vid=ce15d64c-7bd4-4017-a01a-0dc353c2995b","ios":"levelo://app?vid=ce15d64c-7bd4-4017-a01a-0dc353c2995b"},"vehicle_type_id":"4","last_reported":1761491355,"current_range_meters":16800,"station_id":"","pricing_plan_id":"cebpf4jnsgd1na2vs0mg"},{"bike_id":"9d37c9ff-a214-4bbe-9c6f-3d3826aca7b7","system_id":"levelo_inurba_marseille","lat":43.27896,"lon":5.38012,"is_reserved":false,"is_disabled":false,"rental_uris":{"android":"levelo://app?vid=9d37c9ff-a214-4bbe-9c6f-3d3826aca7b7","ios":"levelo://app?vid=9d37c9ff-a214-4bbe-9c6f-3d3826aca7b7"},"vehicle_type_id":"4","last_reported":1761491355,"current_range_meters":17200,"station_id":"ce4bhf92rcd13ifvqf50","pricing_plan_id":"cebpf4jnsgd1na2vs0mg"},{"bike_id":"0d5ef766-6e47-4f69-856c-8a775183b070","system_id":"levelo_inurba_marseille","lat":43.270518,"lon":5.402542,"is_reserved":false,"is_disabled":false,"rental_uris":{"android":"levelo://app?vid=0d5ef766-6e47-4f69-856c-8a775183b070","ios":"levelo://app?vid=0d5ef766-6e47-4f69-856c-8a775183b070"},"vehicle_type_id":"4","last_reported":1761491355,"current_range_meters":17200,"station_id":"ce4bhk92rcd13ifvqgc0","pricing_plan_id":"cebpf4jnsgd1na2vs0mg"},{"bike_id":"73e3d00c-eed9-4474-8470-2701da8f5335","system_id":"levelo_inurba_marseille","lat":43.257354,"lon":5.410347,"is_reserved":false,"is_disabled":false,"rental_uris":{"android":"levelo://app?vid=73e3d00c-eed9-4474-8470-2701da8f5335","ios":"levelo://app?vid=73e3d00c-eed9-4474-8470-2701da8f5335"},"vehicle_type_id":"4","last_reported":1761491355,"current_range_meters":17200,"station_id":"","pricing_plan_id":"cebpf4jnsgd1na2vs0mg"},{"bike_id":"a507e789-f440-40a8-85cf-09841d81676c","system_id":"levelo_inurba_marseille","lat":43.225254,"lon":5.348334,"is_reserved":false,"is_disabled":false,"rental_uris":{"android":"levelo://app?vid=a507e789-f440-40a8-85cf-09841d81676c","ios":"levelo://app?vid=a507e789-f440-40a8-85cf-09841d81676c"},"vehicle_type_id":"4","last_reported":1761491355,"current_range_meters":17200,"station_id":"","pricing_plan_id":"cebpf4jnsgd1na2vs0mg"},{"bike_id":"9eadefda-879f-4336-94c3-71ae806aba41","system_id":"levelo_inurba_marseille","lat":43.286158,"lon":5.351031,"is_reserved":false,"is_disabled":false,"rental_uris":{"android":"levelo://app?vid=9eadefda-879f-4336-94c3-71ae806aba41","ios":"levelo://app?vid=9eadefda-879f-4336-94c3-71ae806aba41"},"vehicle_type_id":"4","last_reported":1761491355,"current_range_meters":17200,"station_id":"ce4bhb92rcd13ifvqen0","pricing_plan_id":"cebpf4jnsgd1na2vs0mg"},{"bike_id":"90da450c-6b08-483a-b0f4-234837b9a25f","system_id":"levelo_inurba_marseille","lat":43.262086,"lon":5.374388,"is_reserved":false,"is_disabled":false,"rental_uris":{"android":"levelo://app?vid=90da450c-6b08-483a-b0f4-234837b9a25f","ios":"levelo://app?vid=90da450c-6b08-483a-b0f4-234837b9a25f"},"vehicle_type_id":"4","last_reported":1761491355,"current_range_meters":17200,"station_id":"ce4bhbh2rcd13ifvqeqg","pricing_plan_id":"cebpf4jnsgd1na2vs0mg"},{"bike_id":"fe455bb7-4580-4b56-9402-fb028d8459e3","system_id":"levelo_inurba_marseille","lat":43.3122,"lon":5.36857,"is_reserved":false,"is_disabled":false,"rental_uris":{"android":"levelo://app?vid=fe455bb7-4580-4b56-9402-fb028d8459e3","ios":"levelo://app?vid=fe455bb7-4580-4b56-9402-fb028d8459e3"},"vehicle_type_id":"4","last_reported":1761491355,"current_range_meters":17200,"station_id":"ce4bgl92rcd13ifvqbq0","pricing_plan_id":"cebpf4jnsgd1na2vs0mg"},{"bike_id":"9e295193-5f47-4ff6-97b4-117b89dc6eda","system_id":"levelo_inurba_marseille","lat":43.281163,"lon":5.37826,"is_reserved":false,"is_disabled":false,"rental_uris":{"android":"levelo://app?vid=9e295193-5f47-4ff6-97b4-117b89dc6eda","ios":"levelo://app?vid=9e295193-5f47-4ff6-97b4-117b89dc6eda"},"vehicle_type_id":"4","last_reported":1761491355,"current_range_meters":17200,"station_id":"ce4bha12rcd13ifvqee0","pricing_plan_id":"cebpf4jnsgd1na2vs0mg"},{"bike_id":"3b7d112f-a9d7-47cb-82bc-6cbd8acfd5af","system_id":"levelo_inurba_marseille","lat":43.27203,"lon":5.39185,"is_reserved":false,"is_disabled":false,"rental_uris":{"android":"levelo://app?vid=3b7d112f-a9d7-47cb-82bc-6cbd8acfd5af","ios":"levelo://app?vid=3b7d112f-a9d7-47cb-82bc-6cbd8acfd5af"},"vehicle_type_id":"4","last_reported":1761491355,"current_range_meters":17600,"station_id":"ce4bhhp2rcd13ifvqfm0","pricing_plan_id":"cebpf4jnsgd1na2vs0mg"},{"bike_id":"7165d414-e8a5-415f-8a72-9e3295be2a67","system_id":"levelo_inurba_marseille","lat":43.31048,"lon":5.37888,"is_reserved":false,"is_disabled":false,"rental_uris":{"android":"levelo://app?vid=7165d414-e8a5-415f-8a72-9e3295be2a67","ios":"levelo://app?vid=7165d414-e8a5-415f-8a72-9e3295be2a67"},"vehicle_type_id":"4","last_reported":1761491355,"current_range_meters":17600,"station_id":"","pricing_plan_id":"cebpf4jnsgd1na2vs0mg"},{"bike_id":"b9ae3ff8-1fd5-421b-a8a3-72ad80cdae9e","system_id":"levelo_inurba_marseille","lat":43.265625,"lon":5.390293,"is_reserved":false,"is_disabled":false,"rental_uris":{"android":"levelo://app?vid=b9ae3ff8-1fd5-421b-a8a3-72ad80cdae9e","ios":"levelo://app?vid=b9ae3ff8-1fd5-421b-a8a3-72ad80cdae9e"},"vehicle_type_id":"4","last_reported":1761491355,"current_range_meters":17600,"station_id":"ce4bhe12rcd13ifvqf30","pricing_plan_id":"cebpf4jnsgd1na2vs0mg"},{"bike_id":"0fb4e27e-b17f-4ae0-a0e7-5a32b869e1d0","system_id":"levelo_inurba_marseille","lat":43.31363,"lon":5.38497,"is_reserved":false,"is_disabled":false,"rental_uris":{"android":"levelo://app?vid=0fb4e27e-b17f-4ae0-a0e7-5a32b869e1d0","ios":"levelo://app?vid=0fb4e27e-b17f-4ae0-a0e7-5a32b869e1d0"},"vehicle_type_id":"4","last_reported":1761491355,"current_range_meters":17600,"station_id":"ce4bgt92rcd13ifvqcf0","pricing_plan_id":"cebpf4jnsgd1na2vs0mg"},{"bike_id":"15162063-33d8-427d-9ee0-3c531343326d","system_id":"levelo_inurba_marseille","lat":43.292572,"lon":5.384386,"is_reserved":false,"is_disabled":false,"rental_uris":{"android":"levelo://app?vid=15162063-33d8-427d-9ee0-3c531343326d","ios":"levelo://app?vid=15162063-33d8-427d-9ee0-3c531343326d"},"vehicle_type_id":"4","last_reported":1761491355,"current_range_meters":17600,"station_id":"ce4bh692rcd13ifvqea0","pricing_plan_id":"cebpf4jnsgd1na2vs0mg"},{"bike_id":"f6f41915-49e3-4fb8-8c5c-96d42e084e15","system_id":"levelo_inurba_marseille","lat":43.32037,"lon":5.37115,"is_reserved":false,"is_disabled":false,"rental_uris":{"android":"levelo://app?vid=f6f41915-49e3-4fb8-8c5c-96d42e084e15","ios":"levelo://app?vid=f6f41915-49e3-4fb8-8c5c-96d42e084e15"},"vehicle_type_id":"4","last_reported":1761491355,"current_range_meters":17600,"station_id":"","pricing_plan_id":"cebpf4jnsgd1na2vs0mg"},{"bike_id":"04e9e3fc-eba9-41b7-874f-404468f403b7","system_id":"levelo_inurba_marseille","lat":43.299316,"lon":5.365594,"is_reserved":false,"is_disabled":false,"rental_uris":{"android":"levelo://app?vid=04e9e3fc-eba9-41b7-874f-404468f403b7","ios":"levelo://app?vid=04e9e3fc-eba9-41b7-874f-404468f403b7"},"vehicle_type_id":"4","last_reported":1761491355,"current_range_meters":17600,"station_id":"ce4bgm92rcd13ifvqbr0","pricing_plan_id":"cebpf4jnsgd1na2vs0mg"},{"bike_id":"81eac856-46ff-415f-8ffc-aa5d7c5d16f8","system_id":"levelo_inurba_marseille","lat":43.24811,"lon":5.37456,"is_reserved":false,"is_disabled":false,"rental_uris":{"android":"levelo://app?vid=81eac856-46ff-415f-8ffc-aa5d7c5d16f8","ios":"levelo://app?vid=81eac856-46ff-415f-8ffc-aa5d7c5d16f8"},"vehicle_type_id":"4","last_reported":1761491355,"current_range_meters":17600,"station_id":"ce4bhgh2rcd13ifvqfb0","pricing_plan_id":"cebpf4jnsgd1na2vs0mg"},{"bike_id":"79f9cde6-2fc1-438e-a896-83f6555a03e6","system_id":"levelo_inurba_marseille","lat":43.32076,"lon":5.36809,"is_reserved":false,"is_disabled":false,"rental_uris":{"android":"levelo://app?vid=79f9cde6-2fc1-438e-a896-83f6555a03e6","ios":"levelo://app?vid=79f9cde6-2fc1-438e-a896-83f6555a03e6"},"vehicle_type_id":"4","last_reported":1761491355,"current_range_meters":18000,"station_id":"ce4bhrh2rcd13ifvqhug","pricing_plan_id":"cebpf4jnsgd1na2vs0mg"},{"bike_id":"94aaf935-55ff-4431-b612-265a39fb330c","system_id":"levelo_inurba_marseille","lat":43.29019,"lon":5.38632,"is_reserved":false,"is_disabled":true,"rental_uris":{"android":"levelo://app?vid=94aaf935-55ff-4431-b612-265a39fb330c","ios":"levelo://app?vid=94aaf935-55ff-4431-b612-265a39fb330c"},"vehicle_type_id":"4","last_reported":1761491355,"current_range_meters":18000,"station_id":"ce4bh4p2rcd13ifvqe0g","pricing_plan_id":"cebpf4jnsgd1na2vs0mg"},{"bike_id":"8ce4acf9-3cce-4a2c-80a0-2e9ba0bb1c6c","system_id":"levelo_inurba_marseille","lat":43.24184,"lon":5.39724,"is_reserved":false,"is_disabled":false,"rental_uris":{"android":"levelo://app?vid=8ce4acf9-3cce-4a2c-80a0-2e9ba0bb1c6c","ios":"levelo://app?vid=8ce4acf9-3cce-4a2c-80a0-2e9ba0bb1c6c"},"vehicle_type_id":"4","last_reported":1761491355,"current_range_meters":18000,"station_id":"ce4bhn12rcd13ifvqgpg","pricing_plan_id":"cebpf4jnsgd1na2vs0mg"},{"bike_id":"e5a2ac9d-0ae2-4078-a781-9bc8a9834179","system_id":"levelo_inurba_marseille","lat":43.302501,"lon":5.400816,"is_reserved":false,"is_disabled":true,"rental_uris":{"android":"levelo://app?vid=e5a2ac9d-0ae2-4078-a781-9bc8a9834179","ios":"levelo://app?vid=e5a2ac9d-0ae2-4078-a781-9bc8a9834179"},"vehicle_type_id":"4","last_reported":1761491355,"current_range_meters":18000,"station_id":"ce4bgvh2rcd13ifvqcs0","pricing_plan_id":"cebpf4jnsgd1na2vs0mg"},{"bike_id":"b22ea661-a7e9-43be-b7c6-fa1600d7403b","system_id":"levelo_inurba_marseille","lat":43.3153,"lon":5.38021,"is_reserved":false,"is_disabled":false,"rental_uris":{"android":"levelo://app?vid=b22ea661-a7e9-43be-b7c6-fa1600d7403b","ios":"levelo://app?vid=b22ea661-a7e9-43be-b7c6-fa1600d7403b"},"vehicle_type_id":"4","last_reported":1761491355,"current_range_meters":18000,"station_id":"ce4bhsp2rcd13ifvqi50","pricing_plan_id":"cebpf4jnsgd1na2vs0mg"},{"bike_id":"7cd06c8e-20e0-4a7b-bdd0-d1a902d0086a","system_id":"levelo_inurba_marseille","lat":43.26181,"lon":5.4052,"is_reserved":false,"is_disabled":false,"rental_uris":{"android":"levelo://app?vid=7cd06c8e-20e0-4a7b-bdd0-d1a902d0086a","ios":"levelo://app?vid=7cd06c8e-20e0-4a7b-bdd0-d1a902d0086a"},"vehicle_type_id":"4","last_reported":1761491355,"current_range_meters":18000,"station_id":"ce4bhmh2rcd13ifvqgmg","pricing_plan_id":"cebpf4jnsgd1na2vs0mg"},{"bike_id":"441ac4f8-457e-402c-8884-722d9ed8028b","system_id":"levelo_inurba_marseille","lat":43.32362,"lon":5.38907,"is_reserved":false,"is_disabled":false,"rental_uris":{"android":"levelo://app?vid=441ac4f8-457e-402c-8884-722d9ed8028b","ios":"levelo://app?vid=441ac4f8-457e-402c-8884-722d9ed8028b"},"vehicle_type_id":"4","last_reported":1761491355,"current_range_meters":18000,"station_id":"ce4bhqp2rcd13ifvqhog","pricing_plan_id":"cebpf4jnsgd1na2vs0mg"},{"bike_id":"83106217-f024-4381-9607-50194d3370ce","system_id":"levelo_inurba_marseille","lat":43.241671,"lon":5.36387,"is_reserved":false,"is_disabled":false,"rental_uris":{"android":"levelo://app?vid=83106217-f024-4381-9607-50194d3370ce","ios":"levelo://app?vid=83106217-f024-4381-9607-50194d3370ce"},"vehicle_type_id":"4","last_reported":1761491355,"current_range_meters":18800,"station_id":"cpo36qri1sfpv3e86is0","pricing_plan_id":"cebpf4jnsgd1na2vs0mg"},{"bike_id":"a8fad160-0c27-4c26-aac4-5372839fdd97","system_id":"levelo_inurba_marseille","lat":43.31717,"lon":5.37748,"is_reserved":false,"is_disabled":false,"rental_uris":{"android":"levelo://app?vid=a8fad160-0c27-4c26-aac4-5372839fdd97","ios":"levelo://app?vid=a8fad160-0c27-4c26-aac4-5372839fdd97"},"vehicle_type_id":"4","last_reported":1761491355,"current_range_meters":18800,"station_id":"ce4bgth2rcd13ifvqch0","pricing_plan_id":"cebpf4jnsgd1na2vs0mg"},{"bike_id":"26c48375-1e6e-43b2-9750-bd0ef6e16469","system_id":"levelo_inurba_marseille","lat":43.225587,"lon":5.416272,"is_reserved":false,"is_disabled":false,"rental_uris":{"android":"levelo://app?vid=26c48375-1e6e-43b2-9750-bd0ef6e16469","ios":"levelo://app?vid=26c48375-1e6e-43b2-9750-bd0ef6e16469"},"vehicle_type_id":"4","last_reported":1761491355,"current_range_meters":18800,"station_id":"st_d2o4gvlbi1j2169b742g","pricing_plan_id":"cebpf4jnsgd1na2vs0mg"},{"bike_id":"e92a5181-3093-4535-adde-2230374de0aa","system_id":"levelo_inurba_marseille","lat":43.31363,"lon":5.37687,"is_reserved":false,"is_disabled":false,"rental_uris":{"android":"levelo://app?vid=e92a5181-3093-4535-adde-2230374de0aa","ios":"levelo://app?vid=e92a5181-3093-4535-adde-2230374de0aa"},"vehicle_type_id":"4","last_reported":1761491355,"current_range_meters":18800,"station_id":"","pricing_plan_id":"cebpf4jnsgd1na2vs0mg"},{"bike_id":"da945370-32c7-4765-8b8c-dadee680d38e","system_id":"levelo_inurba_marseille","lat":43.34058,"lon":5.40415,"is_reserved":false,"is_disabled":false,"rental_uris":{"android":"levelo://app?vid=da945370-32c7-4765-8b8c-dadee680d38e","ios":"levelo://app?vid=da945370-32c7-4765-8b8c-dadee680d38e"},"vehicle_type_id":"4","last_reported":1761491355,"current_range_meters":18800,"station_id":"","pricing_plan_id":"cebpf4jnsgd1na2vs0mg"},{"bike_id":"c68b30a6-4707-4372-93f6-2bed2bc02cd0","system_id":"levelo_inurba_marseille","lat":43.24808,"lon":5.37451,"is_reserved":false,"is_disabled":false,"rental_uris":{"android":"levelo://app?vid=c68b30a6-4707-4372-93f6-2bed2bc02cd0","ios":"levelo://app?vid=c68b30a6-4707-4372-93f6-2bed2bc02cd0"},"vehicle_type_id":"4","last_reported":1761491355,"current_range_meters":18800,"station_id":"ce4bhgh2rcd13ifvqfb0","pricing_plan_id":"cebpf4jnsgd1na2vs0mg"},{"bike_id":"b83891d3-7971-45ae-9af3-651a6e6209e2","system_id":"levelo_inurba_marseille","lat":43.23191,"lon":5.35572,"is_reserved":false,"is_disabled":false,"rental_uris":{"android":"levelo://app?vid=b83891d3-7971-45ae-9af3-651a6e6209e2","ios":"levelo://app?vid=b83891d3-7971-45ae-9af3-651a6e6209e2"},"vehicle_type_id":"4","last_reported":1761491355,"current_range_meters":19200,"station_id":"ce4bhu92rcd13ifvqi70","pricing_plan_id":"cebpf4jnsgd1na2vs0mg"},{"bike_id":"1880ebb9-7edb-463e-976b-226e958b9ebe","system_id":"levelo_inurba_marseille","lat":43.31097,"lon":5.37487,"is_reserved":false,"is_disabled":false,"rental_uris":{"android":"levelo://app?vid=1880ebb9-7edb-463e-976b-226e958b9ebe","ios":"levelo://app?vid=1880ebb9-7edb-463e-976b-226e958b9ebe"},"vehicle_type_id":"4","last_reported":1761491355,"current_range_meters":19200,"station_id":"ce4bgt12rcd13ifvqce0","pricing_plan_id":"cebpf4jnsgd1na2vs0mg"},{"bike_id":"93ef566c-0909-48d1-8deb-d11c9c5aea5b","system_id":"levelo_inurba_marseille","lat":43.32347,"lon":5.36645,"is_reserved":false,"is_disabled":false,"rental_uris":{"android":"levelo://app?vid=93ef566c-0909-48d1-8deb-d11c9c5aea5b","ios":"levelo://app?vid=93ef566c-0909-48d1-8deb-d11c9c5aea5b"},"vehicle_type_id":"4","last_reported":1761491355,"current_range_meters":19200,"station_id":"","pricing_plan_id":"cebpf4jnsgd1na2vs0mg"},{"bike_id":"26a33dcf-50de-4561-a5e9-8254886f89ed","system_id":"levelo_inurba_marseille","lat":43.24296,"lon":5.39157,"is_reserved":false,"is_disabled":false,"rental_uris":{"android":"levelo://app?vid=26a33dcf-50de-4561-a5e9-8254886f89ed","ios":"levelo://app?vid=26a33dcf-50de-4561-a5e9-8254886f89ed"},"vehicle_type_id":"4","last_reported":1761491355,"current_range_meters":19200,"station_id":"","pricing_plan_id":"cebpf4jnsgd1na2vs0mg"},{"bike_id":"12d4801c-572c-4049-8232-8e968415618c","system_id":"levelo_inurba_marseille","lat":43.28153,"lon":5.42643,"is_reserved":false,"is_disabled":false,"rental_uris":{"android":"levelo://app?vid=12d4801c-572c-4049-8232-8e968415618c","ios":"levelo://app?vid=12d4801c-572c-4049-8232-8e968415618c"},"vehicle_type_id":"4","last_reported":1761491355,"current_range_meters":19200,"station_id":"ce4bhnh2rcd13ifvqgug","pricing_plan_id":"cebpf4jnsgd1na2vs0mg"},{"bike_id":"1a17ca6c-2b9b-4e73-b76d-539b00005301","system_id":"levelo_inurba_marseille","lat":43.2439,"lon":5.37061,"is_reserved":false,"is_disabled":false,"rental_uris":{"android":"levelo://app?vid=1a17ca6c-2b9b-4e73-b76d-539b00005301","ios":"levelo://app?vid=1a17ca6c-2b9b-4e73-b76d-539b00005301"},"vehicle_type_id":"4","last_reported":1761491355,"current_range_meters":19200,"station_id":"ce4bhhh2rcd13ifvqfk0","pricing_plan_id":"cebpf4jnsgd1na2vs0mg"},{"bike_id":"74440bb7-72c3-4ad8-9dec-9a57ed6d17c9","system_id":"levelo_inurba_marseille","lat":43.323706,"lon":5.388814,"is_reserved":false,"is_disabled":false,"rental_uris":{"android":"levelo://app?vid=74440bb7-72c3-4ad8-9dec-9a57ed6d17c9","ios":"levelo://app?vid=74440bb7-72c3-4ad8-9dec-9a57ed6d17c9"},"vehicle_type_id":"4","last_reported":1761491355,"current_range_meters":19200,"station_id":"ce4bhqp2rcd13ifvqhog","pricing_plan_id":"cebpf4jnsgd1na2vs0mg"},{"bike_id":"b934001f-c922-472e-9b88-81fa6ba6a01a","system_id":"levelo_inurba_marseille","lat":43.21188,"lon":5.3508,"is_reserved":false,"is_disabled":false,"rental_uris":{"android":"levelo://app?vid=b934001f-c922-472e-9b88-81fa6ba6a01a","ios":"levelo://app?vid=b934001f-c922-472e-9b88-81fa6ba6a01a"},"vehicle_type_id":"4","last_reported":1761491355,"current_range_meters":19200,"station_id":"st_cvj6sg6p6f1abm77japg","pricing_plan_id":"cebpf4jnsgd1na2vs0mg"},{"bike_id":"fdc43030-5704-454e-ad42-cd94061c06a1","system_id":"levelo_inurba_marseille","lat":43.321005,"lon":5.367696,"is_reserved":false,"is_disabled":false,"rental_uris":{"android":"levelo://app?vid=fdc43030-5704-454e-ad42-cd94061c06a1","ios":"levelo://app?vid=fdc43030-5704-454e-ad42-cd94061c06a1"},"vehicle_type_id":"4","last_reported":1761491355,"current_range_meters":19200,"station_id":"ce4bhrh2rcd13ifvqhug","pricing_plan_id":"cebpf4jnsgd1na2vs0mg"},{"bike_id":"4cded9ba-a27a-4028-a6ba-63d934225c30","system_id":"levelo_inurba_marseille","lat":43.241654,"lon":5.363921,"is_reserved":false,"is_disabled":false,"rental_uris":{"android":"levelo://app?vid=4cded9ba-a27a-4028-a6ba-63d934225c30","ios":"levelo://app?vid=4cded9ba-a27a-4028-a6ba-63d934225c30"},"vehicle_type_id":"4","last_reported":1761491355,"current_range_meters":19600,"station_id":"ce4bhgh2rcd13ifvqfb0","pricing_plan_id":"cebpf4jnsgd1na2vs0mg"},{"bike_id":"bbbf3dbb-fbe2-4b7e-bfad-c027ca4e1c25","system_id":"levelo_inurba_marseille","lat":43.28481,"lon":5.48373,"is_reserved":false,"is_disabled":false,"rental_uris":{"android":"levelo://app?vid=bbbf3dbb-fbe2-4b7e-bfad-c027ca4e1c25","ios":"levelo://app?vid=bbbf3dbb-fbe2-4b7e-bfad-c027ca4e1c25"},"vehicle_type_id":"4","last_reported":1761491355,"current_range_meters":19600,"station_id":"st_d3svhcjqgbts73a3dn0g","pricing_plan_id":"cebpf4jnsgd1na2vs0mg"},{"bike_id":"567c1a34-8a79-4283-9070-29ea16d40b9d","system_id":"levelo_inurba_marseille","lat":43.28419,"lon":5.35001,"is_reserved":false,"is_disabled":false,"rental_uris":{"android":"levelo://app?vid=567c1a34-8a79-4283-9070-29ea16d40b9d","ios":"levelo://app?vid=567c1a34-8a79-4283-9070-29ea16d40b9d"},"vehicle_type_id":"4","last_reported":1761491355,"current_range_meters":19600,"station_id":"ce4bhbh2rcd13ifvqepg","pricing_plan_id":"cebpf4jnsgd1na2vs0mg"},{"bike_id":"9d8ebc8c-f00c-42c5-a2de-7f9b8c36d074","system_id":"levelo_inurba_marseille","lat":43.26679,"lon":5.38265,"is_reserved":false,"is_disabled":false,"rental_uris":{"android":"levelo://app?vid=9d8ebc8c-f00c-42c5-a2de-7f9b8c36d074","ios":"levelo://app?vid=9d8ebc8c-f00c-42c5-a2de-7f9b8c36d074"},"vehicle_type_id":"4","last_reported":1761491355,"current_range_meters":19600,"station_id":"ce4bhg92rcd13ifvqf90","pricing_plan_id":"cebpf4jnsgd1na2vs0mg"},{"bike_id":"3a92b650-23af-469d-bef0-ec6278979c33","system_id":"levelo_inurba_marseille","lat":43.25933,"lon":5.40903,"is_reserved":false,"is_disabled":false,"rental_uris":{"android":"levelo://app?vid=3a92b650-23af-469d-bef0-ec6278979c33","ios":"levelo://app?vid=3a92b650-23af-469d-bef0-ec6278979c33"},"vehicle_type_id":"4","last_reported":1761491355,"current_range_meters":19600,"station_id":"ce4bhm92rcd13ifvqglg","pricing_plan_id":"cebpf4jnsgd1na2vs0mg"},{"bike_id":"3cf954f8-897c-4098-b7a1-1e4490c2b26a","system_id":"levelo_inurba_marseille","lat":43.25808,"lon":5.39437,"is_reserved":false,"is_disabled":false,"rental_uris":{"android":"levelo://app?vid=3cf954f8-897c-4098-b7a1-1e4490c2b26a","ios":"levelo://app?vid=3cf954f8-897c-4098-b7a1-1e4490c2b26a"},"vehicle_type_id":"4","last_reported":1761491355,"current_range_meters":19600,"station_id":"ce4bhip2rcd13ifvqft0","pricing_plan_id":"cebpf4jnsgd1na2vs0mg"},{"bike_id":"f1875d0f-b239-4abc-ba84-3f75c251c7fb","system_id":"levelo_inurba_marseille","lat":43.24386,"lon":5.37061,"is_reserved":false,"is_disabled":false,"rental_uris":{"android":"levelo://app?vid=f1875d0f-b239-4abc-ba84-3f75c251c7fb","ios":"levelo://app?vid=f1875d0f-b239-4abc-ba84-3f75c251c7fb"},"vehicle_type_id":"4","last_reported":1761491355,"current_range_meters":19600,"station_id":"ce4bhhh2rcd13ifvqfk0","pricing_plan_id":"cebpf4jnsgd1na2vs0mg"},{"bike_id":"df508a3d-9089-41a3-9003-9636831870c5","system_id":"levelo_inurba_marseille","lat":43.28075,"lon":5.39667,"is_reserved":false,"is_disabled":false,"rental_uris":{"android":"levelo://app?vid=df508a3d-9089-41a3-9003-9636831870c5","ios":"levelo://app?vid=df508a3d-9089-41a3-9003-9636831870c5"},"vehicle_type_id":"4","last_reported":1761491355,"current_range_meters":19600,"station_id":"ce4bho12rcd13ifvqh2g","pricing_plan_id":"cebpf4jnsgd1na2vs0mg"},{"bike_id":"85d89aac-fd8c-43a7-8a86-c4ba84caaeb1","system_id":"levelo_inurba_marseille","lat":43.22555,"lon":5.41635,"is_reserved":false,"is_disabled":false,"rental_uris":{"android":"levelo://app?vid=85d89aac-fd8c-43a7-8a86-c4ba84caaeb1","ios":"levelo://app?vid=85d89aac-fd8c-43a7-8a86-c4ba84caaeb1"},"vehicle_type_id":"4","last_reported":1761491355,"current_range_meters":20000,"station_id":"st_d2o4gvlbi1j2169b742g","pricing_plan_id":"cebpf4jnsgd1na2vs0mg"},{"bike_id":"bd2bd773-96ba-47b6-a091-005a9c3b0181","system_id":"levelo_inurba_marseille","lat":43.29207,"lon":5.40421,"is_reserved":false,"is_disabled":false,"rental_uris":{"android":"levelo://app?vid=bd2bd773-96ba-47b6-a091-005a9c3b0181","ios":"levelo://app?vid=bd2bd773-96ba-47b6-a091-005a9c3b0181"},"vehicle_type_id":"4","last_reported":1761491355,"current_range_meters":20000,"station_id":"","pricing_plan_id":"cebpf4jnsgd1na2vs0mg"},{"bike_id":"7062ee43-2071-494a-b223-cbc0f878f17c","system_id":"levelo_inurba_marseille","lat":43.23186,"lon":5.39996,"is_reserved":false,"is_disabled":false,"rental_uris":{"android":"levelo://app?vid=7062ee43-2071-494a-b223-cbc0f878f17c","ios":"levelo://app?vid=7062ee43-2071-494a-b223-cbc0f878f17c"},"vehicle_type_id":"4","last_reported":1761491355,"current_range_meters":20000,"station_id":"ce4bhn12rcd13ifvqgqg","pricing_plan_id":"cebpf4jnsgd1na2vs0mg"},{"bike_id":"0a24791a-9420-4ad3-927a-02257586ec11","system_id":"levelo_inurba_marseille","lat":43.26219,"lon":5.37444,"is_reserved":false,"is_disabled":false,"rental_uris":{"android":"levelo://app?vid=0a24791a-9420-4ad3-927a-02257586ec11","ios":"levelo://app?vid=0a24791a-9420-4ad3-927a-02257586ec11"},"vehicle_type_id":"4","last_reported":1761491355,"current_range_meters":20000,"station_id":"ce4bhgp2rcd13ifvqfc0","pricing_plan_id":"cebpf4jnsgd1na2vs0mg"},{"bike_id":"2649c927-8f7c-4b1f-a9cc-7a6b261268e1","system_id":"levelo_inurba_marseille","lat":43.28414,"lon":5.3499,"is_reserved":false,"is_disabled":false,"rental_uris":{"android":"levelo://app?vid=2649c927-8f7c-4b1f-a9cc-7a6b261268e1","ios":"levelo://app?vid=2649c927-8f7c-4b1f-a9cc-7a6b261268e1"},"vehicle_type_id":"4","last_reported":1761491355,"current_range_meters":20000,"station_id":"ce4bhbh2rcd13ifvqepg","pricing_plan_id":"cebpf4jnsgd1na2vs0mg"},{"bike_id":"5837d1ef-6ff3-4b6b-9d0b-6fb51011d077","system_id":"levelo_inurba_marseille","lat":43.27413,"lon":5.39427,"is_reserved":false,"is_disabled":true,"rental_uris":{"android":"levelo://app?vid=5837d1ef-6ff3-4b6b-9d0b-6fb51011d077","ios":"levelo://app?vid=5837d1ef-6ff3-4b6b-9d0b-6fb51011d077"},"vehicle_type_id":"4","last_reported":1761491355,"current_range_meters":20000,"station_id":"ce4bhdp2rcd13ifvqf20","pricing_plan_id":"cebpf4jnsgd1na2vs0mg"},{"bike_id":"a3100ff0-76ab-498b-bebf-b9c52f3d2538","system_id":"levelo_inurba_marseille","lat":43.28471,"lon":5.48402,"is_reserved":false,"is_disabled":false,"rental_uris":{"android":"levelo://app?vid=a3100ff0-76ab-498b-bebf-b9c52f3d2538","ios":"levelo://app?vid=a3100ff0-76ab-498b-bebf-b9c52f3d2538"},"vehicle_type_id":"4","last_reported":1761491355,"current_range_meters":20000,"station_id":"","pricing_plan_id":"cebpf4jnsgd1na2vs0mg"},{"bike_id":"34e27848-f0e2-45a1-b3c7-4dc89f724c0b","system_id":"levelo_inurba_marseille","lat":43.23178,"lon":5.39984,"is_reserved":false,"is_disabled":false,"rental_uris":{"android":"levelo://app?vid=34e27848-f0e2-45a1-b3c7-4dc89f724c0b","ios":"levelo://app?vid=34e27848-f0e2-45a1-b3c7-4dc89f724c0b"},"vehicle_type_id":"4","last_reported":1761491355,"current_range_meters":20000,"station_id":"ce4bhn12rcd13ifvqgqg","pricing_plan_id":"cebpf4jnsgd1na2vs0mg"},{"bike_id":"2508b611-ebc5-48d6-8412-ab3f25b207c7","system_id":"levelo_inurba_marseille","lat":43.24118,"lon":5.36471,"is_reserved":false,"is_disabled":false,"rental_uris":{"android":"levelo://app?vid=2508b611-ebc5-48d6-8412-ab3f25b207c7","ios":"levelo://app?vid=2508b611-ebc5-48d6-8412-ab3f25b207c7"},"vehicle_type_id":"4","last_reported":1761491355,"current_range_meters":20000,"station_id":"cpo36qri1sfpv3e86is0","pricing_plan_id":"cebpf4jnsgd1na2vs0mg"},{"bike_id":"8f4db126-6522-4e8e-aa27-fbcfd6a36bb1","system_id":"levelo_inurba_marseille","lat":43.22929,"lon":5.35387,"is_reserved":false,"is_disabled":false,"rental_uris":{"android":"levelo://app?vid=8f4db126-6522-4e8e-aa27-fbcfd6a36bb1","ios":"levelo://app?vid=8f4db126-6522-4e8e-aa27-fbcfd6a36bb1"},"vehicle_type_id":"4","last_reported":1761491355,"current_range_meters":20400,"station_id":"cpo3532slgdg3j2ikp40","pricing_plan_id":"cebpf4jnsgd1na2vs0mg"},{"bike_id":"37d435e1-d45d-46a5-a7ea-84b9314a54ae","system_id":"levelo_inurba_marseille","lat":43.24395,"lon":5.37076,"is_reserved":false,"is_disabled":false,"rental_uris":{"android":"levelo://app?vid=37d435e1-d45d-46a5-a7ea-84b9314a54ae","ios":"levelo://app?vid=37d435e1-d45d-46a5-a7ea-84b9314a54ae"},"vehicle_type_id":"4","last_reported":1761491355,"current_range_meters":20400,"station_id":"ce4bhhh2rcd13ifvqfk0","pricing_plan_id":"cebpf4jnsgd1na2vs0mg"},{"bike_id":"bb3d6f43-fe8d-4027-a7f4-02cf8b0450bf","system_id":"levelo_inurba_marseille","lat":43.28845,"lon":5.35858,"is_reserved":false,"is_disabled":true,"rental_uris":{"android":"levelo://app?vid=bb3d6f43-fe8d-4027-a7f4-02cf8b0450bf","ios":"levelo://app?vid=bb3d6f43-fe8d-4027-a7f4-02cf8b0450bf"},"vehicle_type_id":"4","last_reported":1761491355,"current_range_meters":20400,"station_id":"ce4bhb12rcd13ifvqem0","pricing_plan_id":"cebpf4jnsgd1na2vs0mg"},{"bike_id":"a3742816-3b43-434e-9db0-9ab9379fa4b3","system_id":"levelo_inurba_marseille","lat":43.27378,"lon":5.36242,"is_reserved":false,"is_disabled":true,"rental_uris":{"android":"levelo://app?vid=a3742816-3b43-434e-9db0-9ab9379fa4b3","ios":"levelo://app?vid=a3742816-3b43-434e-9db0-9ab9379fa4b3"},"vehicle_type_id":"4","last_reported":1761491355,"current_range_meters":20400,"station_id":"ce4bhbh2rcd13ifvqeo0","pricing_plan_id":"cebpf4jnsgd1na2vs0mg"},{"bike_id":"bea91327-af11-4c1d-9313-ee7cef71766f","system_id":"levelo_inurba_marseille","lat":43.2861,"lon":5.35097,"is_reserved":false,"is_disabled":false,"rental_uris":{"android":"levelo://app?vid=bea91327-af11-4c1d-9313-ee7cef71766f","ios":"levelo://app?vid=bea91327-af11-4c1d-9313-ee7cef71766f"},"vehicle_type_id":"4","last_reported":1761491355,"current_range_meters":20400,"station_id":"ce4bhch2rcd13ifvqeug","pricing_plan_id":"cebpf4jnsgd1na2vs0mg"},{"bike_id":"596e07e5-ee28-4f19-90c1-99ddc246077a","system_id":"levelo_inurba_marseille","lat":43.297629,"lon":5.427839,"is_reserved":false,"is_disabled":false,"rental_uris":{"android":"levelo://app?vid=596e07e5-ee28-4f19-90c1-99ddc246077a","ios":"levelo://app?vid=596e07e5-ee28-4f19-90c1-99ddc246077a"},"vehicle_type_id":"4","last_reported":1761491355,"current_range_meters":20400,"station_id":"st_d3md5207bmas73dh9klg","pricing_plan_id":"cebpf4jnsgd1na2vs0mg"},{"bike_id":"342fc590-2e2a-4b98-a7ff-642d639d862f","system_id":"levelo_inurba_marseille","lat":43.28003,"lon":5.39996,"is_reserved":false,"is_disabled":false,"rental_uris":{"android":"levelo://app?vid=342fc590-2e2a-4b98-a7ff-642d639d862f","ios":"levelo://app?vid=342fc590-2e2a-4b98-a7ff-642d639d862f"},"vehicle_type_id":"4","last_reported":1761491355,"current_range_meters":20400,"station_id":"ce4bho92rcd13ifvqh4g","pricing_plan_id":"cebpf4jnsgd1na2vs0mg"},{"bike_id":"21dbf7f2-eb19-4663-b1c0-879822879492","system_id":"levelo_inurba_marseille","lat":43.337619,"lon":5.374425,"is_reserved":false,"is_disabled":false,"rental_uris":{"android":"levelo://app?vid=21dbf7f2-eb19-4663-b1c0-879822879492","ios":"levelo://app?vid=21dbf7f2-eb19-4663-b1c0-879822879492"},"vehicle_type_id":"4","last_reported":1761491355,"current_range_meters":20400,"station_id":"","pricing_plan_id":"cebpf4jnsgd1na2vs0mg"},{"bike_id":"065263f1-4179-4f93-b87f-a6f21414e344","system_id":"levelo_inurba_marseille","lat":43.2695,"lon":5.40254,"is_reserved":false,"is_disabled":false,"rental_uris":{"android":"levelo://app?vid=065263f1-4179-4f93-b87f-a6f21414e344","ios":"levelo://app?vid=065263f1-4179-4f93-b87f-a6f21414e344"},"vehicle_type_id":"4","last_reported":1761491355,"current_range_meters":20400,"station_id":"cjm6bp8fraef2m0cb0m0","pricing_plan_id":"cebpf4jnsgd1na2vs0mg"},{"bike_id":"b689a5bf-875d-4ab1-9212-a71e85899faa","system_id":"levelo_inurba_marseille","lat":43.297545,"lon":5.42785,"is_reserved":false,"is_disabled":false,"rental_uris":{"android":"levelo://app?vid=b689a5bf-875d-4ab1-9212-a71e85899faa","ios":"levelo://app?vid=b689a5bf-875d-4ab1-9212-a71e85899faa"},"vehicle_type_id":"4","last_reported":1761491355,"current_range_meters":20800,"station_id":"st_d3md5207bmas73dh9klg","pricing_plan_id":"cebpf4jnsgd1na2vs0mg"},{"bike_id":"99f954c5-9fe4-44f0-9935-cc2acafeb896","system_id":"levelo_inurba_marseille","lat":43.23785,"lon":5.366339,"is_reserved":false,"is_disabled":false,"rental_uris":{"android":"levelo://app?vid=99f954c5-9fe4-44f0-9935-cc2acafeb896","ios":"levelo://app?vid=99f954c5-9fe4-44f0-9935-cc2acafeb896"},"vehicle_type_id":"4","last_reported":1761491355,"current_range_meters":20800,"station_id":"st_d3nk18o9ro0c73en2l3g","pricing_plan_id":"cebpf4jnsgd1na2vs0mg"},{"bike_id":"5aba81af-85bc-4775-96f8-75523e34eb78","system_id":"levelo_inurba_marseille","lat":43.23188,"lon":5.39976,"is_reserved":false,"is_disabled":false,"rental_uris":{"android":"levelo://app?vid=5aba81af-85bc-4775-96f8-75523e34eb78","ios":"levelo://app?vid=5aba81af-85bc-4775-96f8-75523e34eb78"},"vehicle_type_id":"4","last_reported":1761491355,"current_range_meters":20800,"station_id":"ce4bhn12rcd13ifvqgqg","pricing_plan_id":"cebpf4jnsgd1na2vs0mg"},{"bike_id":"7dedefa1-25c6-4a38-8958-1ade319ec23b","system_id":"levelo_inurba_marseille","lat":43.323631,"lon":5.388793,"is_reserved":false,"is_disabled":false,"rental_uris":{"android":"levelo://app?vid=7dedefa1-25c6-4a38-8958-1ade319ec23b","ios":"levelo://app?vid=7dedefa1-25c6-4a38-8958-1ade319ec23b"},"vehicle_type_id":"4","last_reported":1761491355,"current_range_meters":20800,"station_id":"ce4bhqp2rcd13ifvqhog","pricing_plan_id":"cebpf4jnsgd1na2vs0mg"},{"bike_id":"b5776598-3fe1-4bb8-9115-dc33c053afbd","system_id":"levelo_inurba_marseille","lat":43.29161,"lon":5.35814,"is_reserved":false,"is_disabled":true,"rental_uris":{"android":"levelo://app?vid=b5776598-3fe1-4bb8-9115-dc33c053afbd","ios":"levelo://app?vid=b5776598-3fe1-4bb8-9115-dc33c053afbd"},"vehicle_type_id":"4","last_reported":1761491355,"current_range_meters":20800,"station_id":"ce4bhb12rcd13ifvqel0","pricing_plan_id":"cebpf4jnsgd1na2vs0mg"},{"bike_id":"f41a6845-02a5-45fd-8f67-03fd68d78092","system_id":"levelo_inurba_marseille","lat":43.29757,"lon":5.42785,"is_reserved":false,"is_disabled":false,"rental_uris":{"android":"levelo://app?vid=f41a6845-02a5-45fd-8f67-03fd68d78092","ios":"levelo://app?vid=f41a6845-02a5-45fd-8f67-03fd68d78092"},"vehicle_type_id":"4","last_reported":1761491355,"current_range_meters":20800,"station_id":"st_d3md5207bmas73dh9klg","pricing_plan_id":"cebpf4jnsgd1na2vs0mg"},{"bike_id":"82b78f3f-d0e9-461c-a85d-7ca4b54bf629","system_id":"levelo_inurba_marseille","lat":43.28152,"lon":5.42642,"is_reserved":false,"is_disabled":false,"rental_uris":{"android":"levelo://app?vid=82b78f3f-d0e9-461c-a85d-7ca4b54bf629","ios":"levelo://app?vid=82b78f3f-d0e9-461c-a85d-7ca4b54bf629"},"vehicle_type_id":"4","last_reported":1761491355,"current_range_meters":20800,"station_id":"ce4bhnh2rcd13ifvqgug","pricing_plan_id":"cebpf4jnsgd1na2vs0mg"},{"bike_id":"cd1f1362-9ebc-4fc4-a6b6-d42af5f1521b","system_id":"levelo_inurba_marseille","lat":43.30725,"lon":5.42449,"is_reserved":false,"is_disabled":false,"rental_uris":{"android":"levelo://app?vid=cd1f1362-9ebc-4fc4-a6b6-d42af5f1521b","ios":"levelo://app?vid=cd1f1362-9ebc-4fc4-a6b6-d42af5f1521b"},"vehicle_type_id":"4","last_reported":1761491355,"current_range_meters":21600,"station_id":"st_cvj6ca6bvosntc0bfgr0","pricing_plan_id":"cebpf4jnsgd1na2vs0mg"},{"bike_id":"9f3e0a5b-ef83-46b9-9746-98266120a92a","system_id":"levelo_inurba_marseille","lat":43.25567,"lon":5.3824,"is_reserved":false,"is_disabled":false,"rental_uris":{"android":"levelo://app?vid=9f3e0a5b-ef83-46b9-9746-98266120a92a","ios":"levelo://app?vid=9f3e0a5b-ef83-46b9-9746-98266120a92a"},"vehicle_type_id":"4","last_reported":1761491355,"current_range_meters":21600,"station_id":"ce4bhih2rcd13ifvqfs0","pricing_plan_id":"cebpf4jnsgd1na2vs0mg"},{"bike_id":"10c0dd9a-a0dc-490a-91c6-b29796f256c9","system_id":"levelo_inurba_marseille","lat":43.28084,"lon":5.37875,"is_reserved":false,"is_disabled":false,"rental_uris":{"android":"levelo://app?vid=10c0dd9a-a0dc-490a-91c6-b29796f256c9","ios":"levelo://app?vid=10c0dd9a-a0dc-490a-91c6-b29796f256c9"},"vehicle_type_id":"4","last_reported":1761491355,"current_range_meters":21600,"station_id":"ce4bha12rcd13ifvqee0","pricing_plan_id":"cebpf4jnsgd1na2vs0mg"},{"bike_id":"71701a3a-cafe-43ef-8d02-c281b6955fac","system_id":"levelo_inurba_marseille","lat":43.26493,"lon":5.39538,"is_reserved":false,"is_disabled":false,"rental_uris":{"android":"levelo://app?vid=71701a3a-cafe-43ef-8d02-c281b6955fac","ios":"levelo://app?vid=71701a3a-cafe-43ef-8d02-c281b6955fac"},"vehicle_type_id":"4","last_reported":1761491355,"current_range_meters":21600,"station_id":"ce4bhi12rcd13ifvqfq0","pricing_plan_id":"cebpf4jnsgd1na2vs0mg"},{"bike_id":"3bf4bf69-e6ad-4b25-af40-141c302f6dc8","system_id":"levelo_inurba_marseille","lat":43.33348,"lon":5.40141,"is_reserved":false,"is_disabled":false,"rental_uris":{"android":"levelo://app?vid=3bf4bf69-e6ad-4b25-af40-141c302f6dc8","ios":"levelo://app?vid=3bf4bf69-e6ad-4b25-af40-141c302f6dc8"},"vehicle_type_id":"4","last_reported":1761491355,"current_range_meters":21600,"station_id":"","pricing_plan_id":"cebpf4jnsgd1na2vs0mg"},