{"last_updated":1716127634,"ttl":30,"version":"2.2","data":{"bikes":[{"bike_id":"1f4698c9-642f-4725-bc2a-bf02000088a4","system_id":"levelo_inurba_marseille","lat":43.31341,"lon":5.367098,"is_reserved":false,"is_disabled":false,"rental_uris":{"android":"levelo://app?vid=1f4698c9-642f-4725-bc2a-bf02000088a4","ios":"levelo://app?vid=1f4698c9-642f-4725-bc2a-bf02000088a4"},"vehicle_type_id":"4","last_reported":1716127634,"current_range_meters":24400,"station_id":"ce4bgr92rcd13ifvqc6g","pricing_plan_id":"cebpf4jnsgd1na2vs0mg"},{"bike_id":"5c53876c-3602-4b78-affb-f4c6b57af5a0","system_id":"levelo_inurba_marseille","lat":43.312239,"lon":5.368562,"is_reserved":false,"is_disabled":false,"rental_uris":{"android":"levelo://app?vid=5c53876c-3602-4b78-affb-f4c6b57af5a0","ios":"levelo://app?vid=5c53876c-3602-4b78-affb-f4c6b57af5a0"},"vehicle_type_id":"4","last_reported":1716127634,"current_range_meters":22400,"station_id":"ce4bgl92rcd13ifvqbq0","pricing_plan_id":"cebpf4jnsgd1na2vs0mg"},{"bike_id":"8ca5bfd9-ecce-4c63-87c9-946c42763d13","system_id":"levelo_inurba_marseille","lat":43.312239,"lon":5.368562,"is_reserved":false,"is_disabled":false,"rental_uris":{"android":"levelo://app?vid=8ca5bfd9-ecce-4c63-87c9-946c42763d13","ios":"levelo://app?vid=8ca5bfd9-ecce-4c63-87c9-946c42763d13"},"vehicle_type_id":"4","last_reported":1716127634,"current_range_meters":0,"station_id":"ce4bgl92rcd13ifvqbq0","pricing_plan_id":"cebpf4jnsgd1na2vs0mg"},{"bike_id":"afab2cc5-130e-4bbc-976b-ed8f91749591","system_id":"levelo_inurba_marseille","lat":43.3127,"lon":5.36963,"is_reserved":false,"is_disabled":false,"rental_uris":{"android":"levelo://app?vid=afab2cc5-130e-4bbc-976b-ed8f91749591","ios":"levelo://app?vid=afab2cc5-130e-4bbc-976b-ed8f91749591"},"vehicle_type_id":"4","last_reported":1716127634,"current_range_meters":15200,"station_id":"","pricing_plan_id":"cebpf4jnsgd1na2vs0mg"},{"bike_id":"5a13d2f3-4cf2-4bbb-8afd-cd0a7b621242","system_id":"levelo_inurba_marseille","lat":43.314811,"lon":5.373103,"is_reserved":false,"is_disabled":false,"rental_uris":{"android":"levelo://app?vid=5a13d2f3-4cf2-4bbb-8afd-cd0a7b621242","ios":"levelo://app?vid=5a13d2f3-4cf2-4bbb-8afd-cd0a7b621242"},"vehicle_type_id":"4","last_reported":1716127634,"current_range_meters":23600,"station_id":"ce4bgt12rcd13ifvqcd0","pricing_plan_id":"cebpf4jnsgd1na2vs0mg"},{"bike_id":"d170ba0d-45e7-40fa-8c28-104d467b82d3","system_id":"levelo_inurba_marseille","lat":43.31672,"lon":5.3722,"is_reserved":false,"is_disabled":false,"rental_uris":{"android":"levelo://app?vid=d170ba0d-45e7-40fa-8c28-104d467b82d3","ios":"levelo://app?vid=d170ba0d-45e7-40fa-8c28-104d467b82d3"},"vehicle_type_id":"4","last_reported":1716127634,"current_range_meters":22400,"station_id":"","pricing_plan_id":"cebpf4jnsgd1na2vs0mg"},{"bike_id":"9533e793-c4f5-45d4-8939-0b6e1bed7410","system_id":"levelo_inurba_marseille","lat":43.305706,"lon":5.365654,"is_reserved":false,"is_disabled":false,"rental_uris":{"android":"levelo://app?vid=9533e793-c4f5-45d4-8939-0b6e1bed7410","ios":"levelo://app?vid=9533e793-c4f5-45d4-8939-0b6e1bed7410"},"vehicle_type_id":"4","last_reported":1716127634,"current_range_meters":2800,"station_id":"ce4bgs12rcd13ifvqcag","pricing_plan_id":"cebpf4jnsgd1na2vs0mg"},{"bike_id":"dd72bab6-ccb4-4d2b-b7e0-5fafc511e482","system_id":"levelo_inurba_marseille","lat":43.30537,"lon":5.367345,"is_reserved":false,"is_disabled":false,"rental_uris":{"android":"levelo://app?vid=dd72bab6-ccb4-4d2b-b7e0-5fafc511e482","ios":"levelo://app?vid=dd72bab6-ccb4-4d2b-b7e0-5fafc511e482"},"vehicle_type_id":"4","last_reported":1716127634,"current_range_meters":4400,"station_id":"ce4bgrp2rcd13ifvqc9g","pricing_plan_id":"cebpf4jnsgd1na2vs0mg"},{"bike_id":"cbfd46ed-2460-4556-b3f2-99e02c6f9925","system_id":"levelo_inurba_marseille","lat":43.3054,"lon":5.36551,"is_reserved":false,"is_disabled":false,"rental_uris":{"android":"levelo://app?vid=cbfd46ed-2460-4556-b3f2-99e02c6f9925","ios":"levelo://app?vid=cbfd46ed-2460-4556-b3f2-99e02c6f9925"},"vehicle_type_id":"4","last_reported":1716127634,"current_range_meters":0,"station_id":"ce4bgs12rcd13ifvqcag","pricing_plan_id":"cebpf4jnsgd1na2vs0mg"},{"bike_id":"4fb8f336-6266-4ec0-b068-2177bb67181f","system_id":"levelo_inurba_marseille","lat":43.305368,"lon":5.367343,"is_reserved":false,"is_disabled":false,"rental_uris":{"android":"levelo://app?vid=4fb8f336-6266-4ec0-b068-2177bb67181f","ios":"levelo://app?vid=4fb8f336-6266-4ec0-b068-2177bb67181f"},"vehicle_type_id":"4","last_reported":1716127634,"current_range_meters":20800,"station_id":"ce4bgrp2rcd13ifvqc9g","pricing_plan_id":"cebpf4jnsgd1na2vs0mg"},{"bike_id":"2c5b6ac8-20d0-450d-bd69-abf3a3271810","system_id":"levelo_inurba_marseille","lat":43.305706,"lon":5.365654,"is_reserved":false,"is_disabled":false,"rental_uris":{"android":"levelo://app?vid=2c5b6ac8-20d0-450d-bd69-abf3a3271810","ios":"levelo://app?vid=2c5b6ac8-20d0-450d-bd69-abf3a3271810"},"vehicle_type_id":"4","last_reported":1716127634,"current_range_meters":20800,"station_id":"ce4bgs12rcd13ifvqcag","pricing_plan_id":"cebpf4jnsgd1na2vs0mg"},{"bike_id":"513beaed-63bb-4a8b-b65c-d7a5a72cfd8e","system_id":"levelo_inurba_marseille","lat":43.305989,"lon":5.37225,"is_reserved":false,"is_disabled":false,"rental_uris":{"android":"levelo://app?vid=513beaed-63bb-4a8b-b65c-d7a5a72cfd8e","ios":"levelo://app?vid=513beaed-63bb-4a8b-b65c-d7a5a72cfd8e"},"vehicle_type_id":"4","last_reported":1716127634,"current_range_meters":16000,"station_id":"ce4bgqh2rcd13ifvqc4g","pricing_plan_id":"cebpf4jnsgd1na2vs0mg"},{"bike_id":"2ec67355-0348-413c-b917-8df6103a8f24","system_id":"levelo_inurba_marseille","lat":43.305989,"lon":5.37225,"is_reserved":false,"is_disabled":false,"rental_uris":{"android":"levelo://app?vid=2ec67355-0348-413c-b917-8df6103a8f24","ios":"levelo://app?vid=2ec67355-0348-413c-b917-8df6103a8f24"},"vehicle_type_id":"4","last_reported":1716127634,"current_range_meters":11200,"station_id":"ce4bgqh2rcd13ifvqc4g","pricing_plan_id":"cebpf4jnsgd1na2vs0mg"},{"bike_id":"f64a3f1f-da46-4a19-a1e7-0aa2b6abf05e","system_id":"levelo_inurba_marseille","lat":43.305989,"lon":5.37225,"is_reserved":false,"is_disabled":false,"rental_uris":{"android":"levelo://app?vid=f64a3f1f-da46-4a19-a1e7-0aa2b6abf05e","ios":"levelo://app?vid=f64a3f1f-da46-4a19-a1e7-0aa2b6abf05e"},"vehicle_type_id":"4","last_reported":1716127634,"current_range_meters":0,"station_id":"ce4bgqh2rcd13ifvqc4g","pricing_plan_id":"cebpf4jnsgd1na2vs0mg"},{"bike_id":"5a248e4d-fa2e-486a-ac3e-dd9bff57585e","system_id":"levelo_inurba_marseille","lat":43.305368,"lon":5.367343,"is_reserved":false,"is_disabled":false,"rental_uris":{"android":"levelo://app?vid=5a248e4d-fa2e-486a-ac3e-dd9bff57585e","ios":"levelo://app?vid=5a248e4d-fa2e-486a-ac3e-dd9bff57585e"},"vehicle_type_id":"4","last_reported":1716127634,"current_range_meters":2800,"station_id":"ce4bgrp2rcd13ifvqc9g","pricing_plan_id":"cebpf4jnsgd1na2vs0mg"},{"bike_id":"69dd554a-3114-4962-a1f3-b6c82f8e8b8d","system_id":"levelo_inurba_marseille","lat":43.311125,"lon":5.377624,"is_reserved":false,"is_disabled":false,"rental_uris":{"android":"levelo://app?vid=69dd554a-3114-4962-a1f3-b6c82f8e8b8d","ios":"levelo://app?vid=69dd554a-3114-4962-a1f3-b6c82f8e8b8d"},"vehicle_type_id":"4","last_reported":1716127634,"current_range_meters":0,"station_id":"ce4bgt92rcd13ifvqcg0","pricing_plan_id":"cebpf4jnsgd1na2vs0mg"},{"bike_id":"43be8289-8d22-4a66-9e9f-cf5f982e5c86","system_id":"levelo_inurba_marseille","lat":43.311131,"lon":5.377651,"is_reserved":false,"is_disabled":false,"rental_uris":{"android":"levelo://app?vid=43be8289-8d22-4a66-9e9f-cf5f982e5c86","ios":"levelo://app?vid=43be8289-8d22-4a66-9e9f-cf5f982e5c86"},"vehicle_type_id":"4","last_reported":1716127634,"current_range_meters":24800,"station_id":"ce4bgt92rcd13ifvqcg0","pricing_plan_id":"cebpf4jnsgd1na2vs0mg"},{"bike_id":"03d7d2a2-b244-4651-ad75-011e804d05f5","system_id":"levelo_inurba_marseille","lat":43.317075,"lon":5.377367,"is_reserved":false,"is_disabled":false,"rental_uris":{"android":"levelo://app?vid=03d7d2a2-b244-4651-ad75-011e804d05f5","ios":"levelo://app?vid=03d7d2a2-b244-4651-ad75-011e804d05f5"},"vehicle_type_id":"4","last_reported":1716127634,"current_range_meters":21200,"station_id":"ce4bgth2rcd13ifvqch0","pricing_plan_id":"cebpf4jnsgd1na2vs0mg"},{"bike_id":"aaf2574a-2afe-45d6-a7c7-c0a0386a6e72","system_id":"levelo_inurba_marseille","lat":43.308012,"lon":5.381511,"is_reserved":false,"is_disabled":false,"rental_uris":{"android":"levelo://app?vid=aaf2574a-2afe-45d6-a7c7-c0a0386a6e72","ios":"levelo://app?vid=aaf2574a-2afe-45d6-a7c7-c0a0386a6e72"},"vehicle_type_id":"4","last_reported":1716127634,"current_range_meters":4800,"station_id":"ce4bgt12rcd13ifvqce0","pricing_plan_id":"cebpf4jnsgd1na2vs0mg"},{"bike_id":"e4f64341-361f-41e8-840a-7c495fff1a91","system_id":"levelo_inurba_marseille","lat":43.324771,"lon":5.36557,"is_reserved":false,"is_disabled":false,"rental_uris":{"android":"levelo://app?vid=e4f64341-361f-41e8-840a-7c495fff1a91","ios":"levelo://app?vid=e4f64341-361f-41e8-840a-7c495fff1a91"},"vehicle_type_id":"4","last_reported":1716127634,"current_range_meters":13600,"station_id":"ce4bhs12rcd13ifvqhvg","pricing_plan_id":"cebpf4jnsgd1na2vs0mg"},{"bike_id":"3163dadb-d17e-4c07-9247-87f139049670","system_id":"levelo_inurba_marseille","lat":43.304967,"lon":5.379677,"is_reserved":false,"is_disabled":false,"rental_uris":{"android":"levelo://app?vid=3163dadb-d17e-4c07-9247-87f139049670","ios":"levelo://app?vid=3163dadb-d17e-4c07-9247-87f139049670"},"vehicle_type_id":"4","last_reported":1716127634,"current_range_meters":0,"station_id":"ce4bgup2rcd13ifvqcn0","pricing_plan_id":"cebpf4jnsgd1na2vs0mg"},{"bike_id":"e2c798d6-0783-401b-b632-e4a3e6db8597","system_id":"levelo_inurba_marseille","lat":43.324771,"lon":5.36557,"is_reserved":false,"is_disabled":false,"rental_uris":{"android":"levelo://app?vid=e2c798d6-0783-401b-b632-e4a3e6db8597","ios":"levelo://app?vid=e2c798d6-0783-401b-b632-e4a3e6db8597"},"vehicle_type_id":"4","last_reported":1716127634,"current_range_meters":26400,"station_id":"ce4bhs12rcd13ifvqhvg","pricing_plan_id":"cebpf4jnsgd1na2vs0mg"},{"bike_id":"b029c6c3-762b-461d-9f48-53fcede023cf","system_id":"levelo_inurba_marseille","lat":43.324771,"lon":5.36557,"is_reserved":false,"is_disabled":false,"rental_uris":{"android":"levelo://app?vid=b029c6c3-762b-461d-9f48-53fcede023cf","ios":"levelo://app?vid=b029c6c3-762b-461d-9f48-53fcede023cf"},"vehicle_type_id":"4","last_reported":1716127634,"current_range_meters":29200,"station_id":"ce4bhs12rcd13ifvqhvg","pricing_plan_id":"cebpf4jnsgd1na2vs0mg"},{"bike_id":"3294b6fd-3c7e-4653-b839-43fb915db60e","system_id":"levelo_inurba_marseille","lat":43.302784,"lon":5.377158,"is_reserved":false,"is_disabled":false,"rental_uris":{"android":"levelo://app?vid=3294b6fd-3c7e-4653-b839-43fb915db60e","ios":"levelo://app?vid=3294b6fd-3c7e-4653-b839-43fb915db60e"},"vehicle_type_id":"4","last_reported":1716127634,"current_range_meters":24800,"station_id":"ce4bguh2rcd13ifvqcj0","pricing_plan_id":"cebpf4jnsgd1na2vs0mg"},{"bike_id":"9add5509-f510-454b-a00b-cfedac868c43","system_id":"levelo_inurba_marseille","lat":43.319935,"lon":5.381699,"is_reserved":false,"is_disabled":false,"rental_uris":{"android":"levelo://app?vid=9add5509-f510-454b-a00b-cfedac868c43","ios":"levelo://app?vid=9add5509-f510-454b-a00b-cfedac868c43"},"vehicle_type_id":"4","last_reported":1716127634,"current_range_meters":27200,"station_id":"ce4bhr12rcd13ifvqhpg","pricing_plan_id":"cebpf4jnsgd1na2vs0mg"},{"bike_id":"2d89e531-6281-4ec6-a114-3a361a21a65f","system_id":"levelo_inurba_marseille","lat":43.32,"lon":5.38161,"is_reserved":false,"is_disabled":false,"rental_uris":{"android":"levelo://app?vid=2d89e531-6281-4ec6-a114-3a361a21a65f","ios":"levelo://app?vid=2d89e531-6281-4ec6-a114-3a361a21a65f"},"vehicle_type_id":"4","last_reported":1716127634,"current_range_meters":2000,"station_id":"ce4bhr12rcd13ifvqhpg","pricing_plan_id":"cebpf4jnsgd1na2vs0mg"},{"bike_id":"66c29aae-c270-41ee-b42e-3a5eef28139b","system_id":"levelo_inurba_marseille","lat":43.32003,"lon":5.38162,"is_reserved":false,"is_disabled":false,"rental_uris":{"android":"levelo://app?vid=66c29aae-c270-41ee-b42e-3a5eef28139b","ios":"levelo://app?vid=66c29aae-c270-41ee-b42e-3a5eef28139b"},"vehicle_type_id":"4","last_reported":1716127634,"current_range_meters":8800,"station_id":"ce4bhr12rcd13ifvqhpg","pricing_plan_id":"cebpf4jnsgd1na2vs0mg"},{"bike_id":"f704b525-ce20-4003-a92d-beba5a58a4de","system_id":"levelo_inurba_marseille","lat":43.313571,"lon":5.384829,"is_reserved":false,"is_disabled":false,"rental_uris":{"android":"levelo://app?vid=f704b525-ce20-4003-a92d-beba5a58a4de","ios":"levelo://app?vid=f704b525-ce20-4003-a92d-beba5a58a4de"},"vehicle_type_id":"4","last_reported":1716127634,"current_range_meters":14000,"station_id":"ce4bgt92rcd13ifvqcf0","pricing_plan_id":"cebpf4jnsgd1na2vs0mg"},{"bike_id":"14f9796e-dbbc-41db-b978-53e11911cd32","system_id":"levelo_inurba_marseille","lat":43.29987,"lon":5.3718,"is_reserved":false,"is_disabled":false,"rental_uris":{"android":"levelo://app?vid=14f9796e-dbbc-41db-b978-53e11911cd32","ios":"levelo://app?vid=14f9796e-dbbc-41db-b978-53e11911cd32"},"vehicle_type_id":"4","last_reported":1716127634,"current_range_meters":8400,"station_id":"ce4bgr92rcd13ifvqc7g","pricing_plan_id":"cebpf4jnsgd1na2vs0mg"},{"bike_id":"f1a543f4-3262-48a4-8628-2e2bbfbbe3b3","system_id":"levelo_inurba_marseille","lat":43.299222,"lon":5.365554,"is_reserved":false,"is_disabled":false,"rental_uris":{"android":"levelo://app?vid=f1a543f4-3262-48a4-8628-2e2bbfbbe3b3","ios":"levelo://app?vid=f1a543f4-3262-48a4-8628-2e2bbfbbe3b3"},"vehicle_type_id":"4","last_reported":1716127634,"current_range_meters":0,"station_id":"ce4bgm92rcd13ifvqbr0","pricing_plan_id":"cebpf4jnsgd1na2vs0mg"},{"bike_id":"e3e3bfe3-31cf-4983-b446-e9cd6e38aa6c","system_id":"levelo_inurba_marseille","lat":43.299222,"lon":5.365554,"is_reserved":false,"is_disabled":false,"rental_uris":{"android":"levelo://app?vid=e3e3bfe3-31cf-4983-b446-e9cd6e38aa6c","ios":"levelo://app?vid=e3e3bfe3-31cf-4983-b446-e9cd6e38aa6c"},"vehicle_type_id":"4","last_reported":1716127634,"current_range_meters":25200,"station_id":"ce4bgm92rcd13ifvqbr0","pricing_plan_id":"cebpf4jnsgd1na2vs0mg"},{"bike_id":"6b837e63-e852-4924-9dc8-2bdb4a04902b","system_id":"levelo_inurba_marseille","lat":43.322872,"lon":5.382756,"is_reserved":false,"is_disabled":false,"rental_uris":{"android":"levelo://app?vid=6b837e63-e852-4924-9dc8-2bdb4a04902b","ios":"levelo://app?vid=6b837e63-e852-4924-9dc8-2bdb4a04902b"},"vehicle_type_id":"4","last_reported":1716127634,"current_range_meters":0,"station_id":"ce4bhr12rcd13ifvqhqg","pricing_plan_id":"cebpf4jnsgd1na2vs0mg"},{"bike_id":"3c53c470-7e70-49c5-83cd-33ba6e593822","system_id":"levelo_inurba_marseille","lat":43.298433,"lon":5.362774,"is_reserved":false,"is_disabled":false,"rental_uris":{"android":"levelo://app?vid=3c53c470-7e70-49c5-83cd-33ba6e593822","ios":"levelo://app?vid=3c53c470-7e70-49c5-83cd-33ba6e593822"},"vehicle_type_id":"4","last_reported":1716127634,"current_range_meters":0,"station_id":"ce4bgpp2rcd13ifvqc3g","pricing_plan_id":"cebpf4jnsgd1na2vs0mg"},{"bike_id":"a82e1f60-4be7-4486-b746-aa2a78b7d3de","system_id":"levelo_inurba_marseille","lat":43.298433,"lon":5.362774,"is_reserved":false,"is_disabled":false,"rental_uris":{"android":"levelo://app?vid=a82e1f60-4be7-4486-b746-aa2a78b7d3de","ios":"levelo://app?vid=a82e1f60-4be7-4486-b746-aa2a78b7d3de"},"vehicle_type_id":"4","last_reported":1716127634,"current_range_meters":18000,"station_id":"ce4bgpp2rcd13ifvqc3g","pricing_plan_id":"cebpf4jnsgd1na2vs0mg"},{"bike_id":"2afa8ff2-f50c-4719-9e97-3c480fdefb75","system_id":"levelo_inurba_marseille","lat":43.29853,"lon":5.36286,"is_reserved":false,"is_disabled":false,"rental_uris":{"android":"levelo://app?vid=2afa8ff2-f50c-4719-9e97-3c480fdefb75","ios":"levelo://app?vid=2afa8ff2-f50c-4719-9e97-3c480fdefb75"},"vehicle_type_id":"4","last_reported":1716127634,"current_range_meters":0,"station_id":"ce4bgpp2rcd13ifvqc3g","pricing_plan_id":"cebpf4jnsgd1na2vs0mg"},{"bike_id":"781e6637-fe4f-4a41-97ed-df9d5f57d354","system_id":"levelo_inurba_marseille","lat":43.30258,"lon":5.38137,"is_reserved":false,"is_disabled":false,"rental_uris":{"android":"levelo://app?vid=781e6637-fe4f-4a41-97ed-df9d5f57d354","ios":"levelo://app?vid=781e6637-fe4f-4a41-97ed-df9d5f57d354"},"vehicle_type_id":"4","last_reported":1716127634,"current_range_meters":18000,"station_id":"","pricing_plan_id":"cebpf4jnsgd1na2vs0mg"},{"bike_id":"3e08a4f9-95bf-4361-a550-ffbb09a1d5a5","system_id":"levelo_inurba_marseille","lat":43.311796,"lon":5.387094,"is_reserved":false,"is_disabled":false,"rental_uris":{"android":"levelo://app?vid=3e08a4f9-95bf-4361-a550-ffbb09a1d5a5","ios":"levelo://app?vid=3e08a4f9-95bf-4361-a550-ffbb09a1d5a5"},"vehicle_type_id":"4","last_reported":1716127634,"current_range_meters":0,"station_id":"ce4bgv12rcd13ifvqcp0","pricing_plan_id":"cebpf4jnsgd1na2vs0mg"},{"bike_id":"d53b78eb-e442-4a74-83f9-9d8a735926ed","system_id":"levelo_inurba_marseille","lat":43.311722,"lon":5.387247,"is_reserved":false,"is_disabled":false,"rental_uris":{"android":"levelo://app?vid=d53b78eb-e442-4a74-83f9-9d8a735926ed","ios":"levelo://app?vid=d53b78eb-e442-4a74-83f9-9d8a735926ed"},"vehicle_type_id":"4","last_reported":1716127634,"current_range_meters":18400,"station_id":"ce4bgv12rcd13ifvqcp0","pricing_plan_id":"cebpf4jnsgd1na2vs0mg"},{"bike_id":"80aea8a3-fd0a-4604-9611-878a1c5e3749","system_id":"levelo_inurba_marseille","lat":43.311722,"lon":5.387247,"is_reserved":false,"is_disabled":false,"rental_uris":{"android":"levelo://app?vid=80aea8a3-fd0a-4604-9611-878a1c5e3749","ios":"levelo://app?vid=80aea8a3-fd0a-4604-9611-878a1c5e3749"},"vehicle_type_id":"4","last_reported":1716127634,"current_range_meters":24000,"station_id":"ce4bgv12rcd13ifvqcp0","pricing_plan_id":"cebpf4jnsgd1na2vs0mg"},{"bike_id":"bdcac596-343c-4f47-9e40-3eb916f1c406","system_id":"levelo_inurba_marseille","lat":43.29786,"lon":5.37097,"is_reserved":false,"is_disabled":false,"rental_uris":{"android":"levelo://app?vid=bdcac596-343c-4f47-9e40-3eb916f1c406","ios":"levelo://app?vid=bdcac596-343c-4f47-9e40-3eb916f1c406"},"vehicle_type_id":"4","last_reported":1716127634,"current_range_meters":0,"station_id":"ce4bgop2rcd13ifvqc1g","pricing_plan_id":"cebpf4jnsgd1na2vs0mg"},{"bike_id":"a78c0371-18a7-4609-8a16-1a99a180568a","system_id":"levelo_inurba_marseille","lat":43.297794,"lon":5.370888,"is_reserved":false,"is_disabled":false,"rental_uris":{"android":"levelo://app?vid=a78c0371-18a7-4609-8a16-1a99a180568a","ios":"levelo://app?vid=a78c0371-18a7-4609-8a16-1a99a180568a"},"vehicle_type_id":"4","last_reported":1716127634,"current_range_meters":30000,"station_id":"ce4bgop2rcd13ifvqc1g","pricing_plan_id":"cebpf4jnsgd1na2vs0mg"},{"bike_id":"b22379ec-8777-4dcd-8c0e-9642bdad8cfd","system_id":"levelo_inurba_marseille","lat":43.297774,"lon":5.370875,"is_reserved":false,"is_disabled":false,"rental_uris":{"android":"levelo://app?vid=b22379ec-8777-4dcd-8c0e-9642bdad8cfd","ios":"levelo://app?vid=b22379ec-8777-4dcd-8c0e-9642bdad8cfd"},"vehicle_type_id":"4","last_reported":1716127634,"current_range_meters":30400,"station_id":"ce4bgop2rcd13ifvqc1g","pricing_plan_id":"cebpf4jnsgd1na2vs0mg"},{"bike_id":"49bcf57f-cc4c-43f2-ba0f-303de55d40dc","system_id":"levelo_inurba_marseille","lat":43.322849,"lon":5.38259,"is_reserved":false,"is_disabled":false,"rental_uris":{"android":"levelo://app?vid=49bcf57f-cc4c-43f2-ba0f-303de55d40dc","ios":"levelo://app?vid=49bcf57f-cc4c-43f2-ba0f-303de55d40dc"},"vehicle_type_id":"4","last_reported":1716127634,"current_range_meters":11600,"station_id":"ce4bhr12rcd13ifvqhqg","pricing_plan_id":"cebpf4jnsgd1na2vs0mg"},{"bike_id":"9ea84c07-2433-41de-b2ab-0e0cc2368335","system_id":"levelo_inurba_marseille","lat":43.32283,"lon":5.3827,"is_reserved":false,"is_disabled":false,"rental_uris":{"android":"levelo://app?vid=9ea84c07-2433-41de-b2ab-0e0cc2368335","ios":"levelo://app?vid=9ea84c07-2433-41de-b2ab-0e0cc2368335"},"vehicle_type_id":"4","last_reported":1716127634,"current_range_meters":25600,"station_id":"ce4bhr12rcd13ifvqhqg","pricing_plan_id":"cebpf4jnsgd1na2vs0mg"},{"bike_id":"ccf4f0ca-53ad-4f02-8ffd-fdd64e43a437","system_id":"levelo_inurba_marseille","lat":43.32287,"lon":5.38267,"is_reserved":false,"is_disabled":false,"rental_uris":{"android":"levelo://app?vid=ccf4f0ca-53ad-4f02-8ffd-fdd64e43a437","ios":"levelo://app?vid=ccf4f0ca-53ad-4f02-8ffd-fdd64e43a437"},"vehicle_type_id":"4","last_reported":1716127634,"current_range_meters":25600,"station_id":"ce4bhr12rcd13ifvqhqg","pricing_plan_id":"cebpf4jnsgd1na2vs0mg"},{"bike_id":"a0832526-408d-4d81-b3fd-c55242f8a03a","system_id":"levelo_inurba_marseille","lat":43.322872,"lon":5.382756,"is_reserved":false,"is_disabled":false,"rental_uris":{"android":"levelo://app?vid=a0832526-408d-4d81-b3fd-c55242f8a03a","ios":"levelo://app?vid=a0832526-408d-4d81-b3fd-c55242f8a03a"},"vehicle_type_id":"4","last_reported":1716127634,"current_range_meters":26400,"station_id":"ce4bhr12rcd13ifvqhqg","pricing_plan_id":"cebpf4jnsgd1na2vs0mg"},{"bike_id":"f9b21518-354d-493a-b0c6-3b22079d4f52","system_id":"levelo_inurba_marseille","lat":43.32289,"lon":5.38267,"is_reserved":false,"is_disabled":false,"rental_uris":{"android":"levelo://app?vid=f9b21518-354d-493a-b0c6-3b22079d4f52","ios":"levelo://app?vid=f9b21518-354d-493a-b0c6-3b22079d4f52"},"vehicle_type_id":"4","last_reported":1716127634,"current_range_meters":12400,"station_id":"ce4bhr12rcd13ifvqhqg","pricing_plan_id":"cebpf4jnsgd1na2vs0mg"},{"bike_id":"a7f35a7d-2ccc-4417-aaac-83f8effdc9f8","system_id":"levelo_inurba_marseille","lat":43.322907,"lon":5.382697,"is_reserved":false,"is_disabled":false,"rental_uris":{"android":"levelo://app?vid=a7f35a7d-2ccc-4417-aaac-83f8effdc9f8","ios":"levelo://app?vid=a7f35a7d-2ccc-4417-aaac-83f8effdc9f8"},"vehicle_type_id":"4","last_reported":1716127634,"current_range_meters":3600,"station_id":"ce4bhr12rcd13ifvqhqg","pricing_plan_id":"cebpf4jnsgd1na2vs0mg"},{"bike_id":"9dbe7572-c7d5-498e-bd4f-7f756ac786d2","system_id":"levelo_inurba_marseille","lat":43.322872,"lon":5.382756,"is_reserved":false,"is_disabled":false,"rental_uris":{"android":"levelo://app?vid=9dbe7572-c7d5-498e-bd4f-7f756ac786d2","ios":"levelo://app?vid=9dbe7572-c7d5-498e-bd4f-7f756ac786d2"},"vehicle_type_id":"4","last_reported":1716127634,"current_range_meters":16000,"station_id":"ce4bhr12rcd13ifvqhqg","pricing_plan_id":"cebpf4jnsgd1na2vs0mg"},{"bike_id":"9385d173-06b2-4fde-8d3d-ba7b1bec39da","system_id":"levelo_inurba_marseille","lat":43.322836,"lon":5.382832,"is_reserved":false,"is_disabled":false,"rental_uris":{"android":"levelo://app?vid=9385d173-06b2-4fde-8d3d-ba7b1bec39da","ios":"levelo://app?vid=9385d173-06b2-4fde-8d3d-ba7b1bec39da"},"vehicle_type_id":"4","last_reported":1716127634,"current_range_meters":0,"station_id":"ce4bhr12rcd13ifvqhqg","pricing_plan_id":"cebpf4jnsgd1na2vs0mg"},{"bike_id":"dd9e0611-f633-4387-b6c0-0fcfebe77a66","system_id":"levelo_inurba_marseille","lat":43.29573,"lon":5.367355,"is_reserved":false,"is_disabled":false,"rental_uris":{"android":"levelo://app?vid=dd9e0611-f633-4387-b6c0-0fcfebe77a66","ios":"levelo://app?vid=dd9e0611-f633-4387-b6c0-0fcfebe77a66"},"vehicle_type_id":"4","last_reported":1716127634,"current_range_meters":18800,"station_id":"ce4bgph2rcd13ifvqc2g","pricing_plan_id":"cebpf4jnsgd1na2vs0mg"},{"bike_id":"c0b498e0-13a8-4048-9ad1-239a98ef44f9","system_id":"levelo_inurba_marseille","lat":43.298773,"lon":5.380023,"is_reserved":false,"is_disabled":false,"rental_uris":{"android":"levelo://app?vid=c0b498e0-13a8-4048-9ad1-239a98ef44f9","ios":"levelo://app?vid=c0b498e0-13a8-4048-9ad1-239a98ef44f9"},"vehicle_type_id":"4","last_reported":1716127634,"current_range_meters":14400,"station_id":"","pricing_plan_id":"cebpf4jnsgd1na2vs0mg"},{"bike_id":"3b6e5262-4e53-4bd5-9aa5-50f04c5c0ebd","system_id":"levelo_inurba_marseille","lat":43.309589,"lon":5.390258,"is_reserved":false,"is_disabled":false,"rental_uris":{"android":"levelo://app?vid=3b6e5262-4e53-4bd5-9aa5-50f04c5c0ebd","ios":"levelo://app?vid=3b6e5262-4e53-4bd5-9aa5-50f04c5c0ebd"},"vehicle_type_id":"4","last_reported":1716127634,"current_range_meters":5200,"station_id":"ce4bgup2rcd13ifvqco0","pricing_plan_id":"cebpf4jnsgd1na2vs0mg"},{"bike_id":"6ec2e731-2724-4826-a1db-c4ee4e146eb0","system_id":"levelo_inurba_marseille","lat":43.309589,"lon":5.390258,"is_reserved":false,"is_disabled":false,"rental_uris":{"android":"levelo://app?vid=6ec2e731-2724-4826-a1db-c4ee4e146eb0","ios":"levelo://app?vid=6ec2e731-2724-4826-a1db-c4ee4e146eb0"},"vehicle_type_id":"4","last_reported":1716127634,"current_range_meters":26400,"station_id":"ce4bgup2rcd13ifvqco0","pricing_plan_id":"cebpf4jnsgd1na2vs0mg"},{"bike_id":"f4d2f944-5a4c-4297-a19f-9c68f360710d","system_id":"levelo_inurba_marseille","lat":43.296148,"lon":5.37381,"is_reserved":false,"is_disabled":false,"rental_uris":{"android":"levelo://app?vid=f4d2f944-5a4c-4297-a19f-9c68f360710d","ios":"levelo://app?vid=f4d2f944-5a4c-4297-a19f-9c68f360710d"},"vehicle_type_id":"4","last_reported":1716127634,"current_range_meters":0,"station_id":"","pricing_plan_id":"cebpf4jnsgd1na2vs0mg"},{"bike_id":"37a47ebd-ddc8-4eb2-85cb-6f36025ebb1a","system_id":"levelo_inurba_marseille","lat":43.309589,"lon":5.390258,"is_reserved":false,"is_disabled":false,"rental_uris":{"android":"levelo://app?vid=37a47ebd-ddc8-4eb2-85cb-6f36025ebb1a","ios":"levelo://app?vid=37a47ebd-ddc8-4eb2-85cb-6f36025ebb1a"},"vehicle_type_id":"4","last_reported":1716127634,"current_range_meters":0,"station_id":"ce4bgup2rcd13ifvqco0","pricing_plan_id":"cebpf4jnsgd1na2vs0mg"},{"bike_id":"5835ae3c-7429-44b8-a4aa-41db89d4c14f","system_id":"levelo_inurba_marseille","lat":43.309589,"lon":5.390258,"is_reserved":false,"is_disabled":false,"rental_uris":{"android":"levelo://app?vid=5835ae3c-7429-44b8-a4aa-41db89d4c14f","ios":"levelo://app?vid=5835ae3c-7429-44b8-a4aa-41db89d4c14f"},"vehicle_type_id":"4","last_reported":1716127634,"current_range_meters":31600,"station_id":"ce4bgup2rcd13ifvqco0","pricing_plan_id":"cebpf4jnsgd1na2vs0mg"},{"bike_id":"ef964fb8-6ae8-4e46-a6d8-9798911b44da","system_id":"levelo_inurba_marseille","lat":43.31757,"lon":5.39019,"is_reserved":false,"is_disabled":false,"rental_uris":{"android":"levelo://app?vid=ef964fb8-6ae8-4e46-a6d8-9798911b44da","ios":"levelo://app?vid=ef964fb8-6ae8-4e46-a6d8-9798911b44da"},"vehicle_type_id":"4","last_reported":1716127634,"current_range_meters":7200,"station_id":"ce4bhqp2rcd13ifvqhng","pricing_plan_id":"cebpf4jnsgd1na2vs0mg"},{"bike_id":"1158f4ce-bb3e-4e5f-a365-43a8069704f0","system_id":"levelo_inurba_marseille","lat":43.304274,"lon":5.388873,"is_reserved":false,"is_disabled":false,"rental_uris":{"android":"levelo://app?vid=1158f4ce-bb3e-4e5f-a365-43a8069704f0","ios":"levelo://app?vid=1158f4ce-bb3e-4e5f-a365-43a8069704f0"},"vehicle_type_id":"4","last_reported":1716127634,"current_range_meters":9600,"station_id":"ce4bgk12rcd13ifvqbi0","pricing_plan_id":"cebpf4jnsgd1na2vs0mg"},{"bike_id":"b0b4dc3b-6663-4fca-b4c4-7adad583100f","system_id":"levelo_inurba_marseille","lat":43.295748,"lon":5.37522,"is_reserved":false,"is_disabled":false,"rental_uris":{"android":"levelo://app?vid=b0b4dc3b-6663-4fca-b4c4-7adad583100f","ios":"levelo://app?vid=b0b4dc3b-6663-4fca-b4c4-7adad583100f"},"vehicle_type_id":"4","last_reported":1716127634,"current_range_meters":14800,"station_id":"ce4bgh92rcd13ifvqb50","pricing_plan_id":"cebpf4jnsgd1na2vs0mg"},{"bike_id":"5c5308d1-0734-40a9-867e-31e2528d9519","system_id":"levelo_inurba_marseille","lat":43.304274,"lon":5.388873,"is_reserved":false,"is_disabled":false,"rental_uris":{"android":"levelo://app?vid=5c5308d1-0734-40a9-867e-31e2528d9519","ios":"levelo://app?vid=5c5308d1-0734-40a9-867e-31e2528d9519"},"vehicle_type_id":"4","last_reported":1716127634,"current_range_meters":22400,"station_id":"ce4bgk12rcd13ifvqbi0","pricing_plan_id":"cebpf4jnsgd1na2vs0mg"},{"bike_id":"af272fc0-ad34-4e23-9171-a2863ac42ac6","system_id":"levelo_inurba_marseille","lat":43.296277,"lon":5.377108,"is_reserved":false,"is_disabled":false,"rental_uris":{"android":"levelo://app?vid=af272fc0-ad34-4e23-9171-a2863ac42ac6","ios":"levelo://app?vid=af272fc0-ad34-4e23-9171-a2863ac42ac6"},"vehicle_type_id":"4","last_reported":1716127634,"current_range_meters":4000,"station_id":"ce4bgi92rcd13ifvqb90","pricing_plan_id":"cebpf4jnsgd1na2vs0mg"},{"bike_id":"6b472e81-de0d-48a0-85c3-c01dc670e102","system_id":"levelo_inurba_marseille","lat":43.298037,"lon":5.381066,"is_reserved":false,"is_disabled":false,"rental_uris":{"android":"levelo://app?vid=6b472e81-de0d-48a0-85c3-c01dc670e102","ios":"levelo://app?vid=6b472e81-de0d-48a0-85c3-c01dc670e102"},"vehicle_type_id":"4","last_reported":1716127634,"current_range_meters":0,"station_id":"ce4bgip2rcd13ifvqbb0","pricing_plan_id":"cebpf4jnsgd1na2vs0mg"},{"bike_id":"f76e2999-7e29-47c2-9777-6a6ca44cd073","system_id":"levelo_inurba_marseille","lat":43.296277,"lon":5.377108,"is_reserved":false,"is_disabled":false,"rental_uris":{"android":"levelo://app?vid=f76e2999-7e29-47c2-9777-6a6ca44cd073","ios":"levelo://app?vid=f76e2999-7e29-47c2-9777-6a6ca44cd073"},"vehicle_type_id":"4","last_reported":1716127634,"current_range_meters":0,"station_id":"ce4bgi92rcd13ifvqb90","pricing_plan_id":"cebpf4jnsgd1na2vs0mg"},{"bike_id":"6ce1ba6f-46f7-4ab7-a959-ec7121657703","system_id":"levelo_inurba_marseille","lat":43.29615,"lon":5.37728,"is_reserved":false,"is_disabled":false,"rental_uris":{"android":"levelo://app?vid=6ce1ba6f-46f7-4ab7-a959-ec7121657703","ios":"levelo://app?vid=6ce1ba6f-46f7-4ab7-a959-ec7121657703"},"vehicle_type_id":"4","last_reported":1716127634,"current_range_meters":0,"station_id":"ce4bgi92rcd13ifvqb90","pricing_plan_id":"cebpf4jnsgd1na2vs0mg"},{"bike_id":"6e6cf5fa-e457-41a9-b57b-9c4dd750d9a7","system_id":"levelo_inurba_marseille","lat":43.2965,"lon":5.37965,"is_reserved":false,"is_disabled":false,"rental_uris":{"android":"levelo://app?vid=6e6cf5fa-e457-41a9-b57b-9c4dd750d9a7","ios":"levelo://app?vid=6e6cf5fa-e457-41a9-b57b-9c4dd750d9a7"},"vehicle_type_id":"4","last_reported":1716127634,"current_range_meters":3600,"station_id":"","pricing_plan_id":"cebpf4jnsgd1na2vs0mg"},{"bike_id":"786eeed8-9a2e-41ac-b56b-87e93b359264","system_id":"levelo_inurba_marseille","lat":43.295279,"lon":5.375048,"is_reserved":false,"is_disabled":false,"rental_uris":{"android":"levelo://app?vid=786eeed8-9a2e-41ac-b56b-87e93b359264","ios":"levelo://app?vid=786eeed8-9a2e-41ac-b56b-87e93b359264"},"vehicle_type_id":"4","last_reported":1716127634,"current_range_meters":0,"station_id":"ce4bgkp2rcd13ifvqbmg","pricing_plan_id":"cebpf4jnsgd1na2vs0mg"},{"bike_id":"139c5c91-dd8e-46c3-b26c-7e2207bda2bb","system_id":"levelo_inurba_marseille","lat":43.30089,"lon":5.38729,"is_reserved":false,"is_disabled":false,"rental_uris":{"android":"levelo://app?vid=139c5c91-dd8e-46c3-b26c-7e2207bda2bb","ios":"levelo://app?vid=139c5c91-dd8e-46c3-b26c-7e2207bda2bb"},"vehicle_type_id":"4","last_reported":1716127634,"current_range_meters":23600,"station_id":"","pricing_plan_id":"cebpf4jnsgd1na2vs0mg"},{"bike_id":"d5d2eea5-1adb-4a93-8baa-386795011fc2","system_id":"levelo_inurba_marseille","lat":43.325594,"lon":5.386439,"is_reserved":false,"is_disabled":false,"rental_uris":{"android":"levelo://app?vid=d5d2eea5-1adb-4a93-8baa-386795011fc2","ios":"levelo://app?vid=d5d2eea5-1adb-4a93-8baa-386795011fc2"},"vehicle_type_id":"4","last_reported":1716127634,"current_range_meters":0,"station_id":"","pricing_plan_id":"cebpf4jnsgd1na2vs0mg"},{"bike_id":"83e3a72b-f373-44f0-a864-019847ca20ac","system_id":"levelo_inurba_marseille","lat":43.32367,"lon":5.388836,"is_reserved":false,"is_disabled":false,"rental_uris":{"android":"levelo://app?vid=83e3a72b-f373-44f0-a864-019847ca20ac","ios":"levelo://app?vid=83e3a72b-f373-44f0-a864-019847ca20ac"},"vehicle_type_id":"4","last_reported":1716127634,"current_range_meters":16000,"station_id":"ce4bhqp2rcd13ifvqhog","pricing_plan_id":"cebpf4jnsgd1na2vs0mg"},{"bike_id":"23cdc02e-726e-4f69-bb02-4796685ca197","system_id":"levelo_inurba_marseille","lat":43.32367,"lon":5.388836,"is_reserved":false,"is_disabled":false,"rental_uris":{"android":"levelo://app?vid=23cdc02e-726e-4f69-bb02-4796685ca197","ios":"levelo://app?vid=23cdc02e-726e-4f69-bb02-4796685ca197"},"vehicle_type_id":"4","last_reported":1716127634,"current_range_meters":15600,"station_id":"ce4bhqp2rcd13ifvqhog","pricing_plan_id":"cebpf4jnsgd1na2vs0mg"},{"bike_id":"e3682eb6-2bb0-41fe-81bc-85b70c11cf39","system_id":"levelo_inurba_marseille","lat":43.292749,"lon":5.368398,"is_reserved":false,"is_disabled":false,"rental_uris":{"android":"levelo://app?vid=e3682eb6-2bb0-41fe-81bc-85b70c11cf39","ios":"levelo://app?vid=e3682eb6-2bb0-41fe-81bc-85b70c11cf39"},"vehicle_type_id":"4","last_reported":1716127634,"current_range_meters":20400,"station_id":"ce4bhbp2rcd13ifvqesg","pricing_plan_id":"cebpf4jnsgd1na2vs0mg"},{"bike_id":"bd96900e-f858-4e24-91ac-77db2fac0514","system_id":"levelo_inurba_marseille","lat":43.292749,"lon":5.368402,"is_reserved":false,"is_disabled":false,"rental_uris":{"android":"levelo://app?vid=bd96900e-f858-4e24-91ac-77db2fac0514","ios":"levelo://app?vid=bd96900e-f858-4e24-91ac-77db2fac0514"},"vehicle_type_id":"4","last_reported":1716127634,"current_range_meters":25200,"station_id":"ce4bhbp2rcd13ifvqesg","pricing_plan_id":"cebpf4jnsgd1na2vs0mg"},{"bike_id":"29e3d0ff-bc95-48d7-8f15-21062fd82ccb","system_id":"levelo_inurba_marseille","lat":43.292749,"lon":5.368398,"is_reserved":false,"is_disabled":false,"rental_uris":{"android":"levelo://app?vid=29e3d0ff-bc95-48d7-8f15-21062fd82ccb","ios":"levelo://app?vid=29e3d0ff-bc95-48d7-8f15-21062fd82ccb"},"vehicle_type_id":"4","last_reported":1716127634,"current_range_meters":7200,"station_id":"ce4bhbp2rcd13ifvqesg","pricing_plan_id":"cebpf4jnsgd1na2vs0mg"},{"bike_id":"89a97010-6eec-4977-8f45-1cc29e93116a","system_id":"levelo_inurba_marseille","lat":43.29384,"lon":5.37853,"is_reserved":false,"is_disabled":false,"rental_uris":{"android":"levelo://app?vid=89a97010-6eec-4977-8f45-1cc29e93116a","ios":"levelo://app?vid=89a97010-6eec-4977-8f45-1cc29e93116a"},"vehicle_type_id":"4","last_reported":1716127634,"current_range_meters":0,"station_id":"ce4bgjh2rcd13ifvqbf0","pricing_plan_id":"cebpf4jnsgd1na2vs0mg"},{"bike_id":"28a86d41-3b4e-4943-a7f6-0309c11598b4","system_id":"levelo_inurba_marseille","lat":43.2936,"lon":5.37835,"is_reserved":false,"is_disabled":false,"rental_uris":{"android":"levelo://app?vid=28a86d41-3b4e-4943-a7f6-0309c11598b4","ios":"levelo://app?vid=28a86d41-3b4e-4943-a7f6-0309c11598b4"},"vehicle_type_id":"4","last_reported":1716127634,"current_range_meters":0,"station_id":"ce4bgjh2rcd13ifvqbf0","pricing_plan_id":"cebpf4jnsgd1na2vs0mg"},{"bike_id":"720e0964-cc1f-4820-a6c4-5483081bc579","system_id":"levelo_inurba_marseille","lat":43.293009,"lon":5.374584,"is_reserved":false,"is_disabled":false,"rental_uris":{"android":"levelo://app?vid=720e0964-cc1f-4820-a6c4-5483081bc579","ios":"levelo://app?vid=720e0964-cc1f-4820-a6c4-5483081bc579"},"vehicle_type_id":"4","last_reported":1716127634,"current_range_meters":26000,"station_id":"ce4bgi12rcd13ifvqb70","pricing_plan_id":"cebpf4jnsgd1na2vs0mg"},{"bike_id":"1f3e7094-272b-4556-8d17-ae3505035d12","system_id":"levelo_inurba_marseille","lat":43.293009,"lon":5.374584,"is_reserved":false,"is_disabled":false,"rental_uris":{"android":"levelo://app?vid=1f3e7094-272b-4556-8d17-ae3505035d12","ios":"levelo://app?vid=1f3e7094-272b-4556-8d17-ae3505035d12"},"vehicle_type_id":"4","last_reported":1716127634,"current_range_meters":400,"station_id":"ce4bgi12rcd13ifvqb70","pricing_plan_id":"cebpf4jnsgd1na2vs0mg"},{"bike_id":"5aa44d1f-9b40-4919-8bfb-a419a7bc34c4","system_id":"levelo_inurba_marseille","lat":43.291994,"lon":5.357886,"is_reserved":false,"is_disabled":false,"rental_uris":{"android":"levelo://app?vid=5aa44d1f-9b40-4919-8bfb-a419a7bc34c4","ios":"levelo://app?vid=5aa44d1f-9b40-4919-8bfb-a419a7bc34c4"},"vehicle_type_id":"4","last_reported":1716127634,"current_range_meters":28800,"station_id":"ce4bhb12rcd13ifvqel0","pricing_plan_id":"cebpf4jnsgd1na2vs0mg"},{"bike_id":"d5b26039-1c05-4e89-88de-278bbd94e205","system_id":"levelo_inurba_marseille","lat":43.313291,"lon":5.396838,"is_reserved":false,"is_disabled":false,"rental_uris":{"android":"levelo://app?vid=d5b26039-1c05-4e89-88de-278bbd94e205","ios":"levelo://app?vid=d5b26039-1c05-4e89-88de-278bbd94e205"},"vehicle_type_id":"4","last_reported":1716127634,"current_range_meters":27200,"station_id":"ce4bgvp2rcd13ifvqcu0","pricing_plan_id":"cebpf4jnsgd1na2vs0mg"},{"bike_id":"1efe1b9a-183c-40df-b327-d9bf762e968a","system_id":"levelo_inurba_marseille","lat":43.309047,"lon":5.396551,"is_reserved":false,"is_disabled":false,"rental_uris":{"android":"levelo://app?vid=1efe1b9a-183c-40df-b327-d9bf762e968a","ios":"levelo://app?vid=1efe1b9a-183c-40df-b327-d9bf762e968a"},"vehicle_type_id":"4","last_reported":1716127634,"current_range_meters":6400,"station_id":"ce4bh012rcd13ifvqcv0","pricing_plan_id":"cebpf4jnsgd1na2vs0mg"},{"bike_id":"35258fb8-2e63-4532-b7cb-c1730a33ae9c","system_id":"levelo_inurba_marseille","lat":43.309038,"lon":5.396546,"is_reserved":false,"is_disabled":false,"rental_uris":{"android":"levelo://app?vid=35258fb8-2e63-4532-b7cb-c1730a33ae9c","ios":"levelo://app?vid=35258fb8-2e63-4532-b7cb-c1730a33ae9c"},"vehicle_type_id":"4","last_reported":1716127634,"current_range_meters":27600,"station_id":"ce4bh012rcd13ifvqcv0","pricing_plan_id":"cebpf4jnsgd1na2vs0mg"},{"bike_id":"32102d04-3aab-47b9-b0bf-f4e1b84b656d","system_id":"levelo_inurba_marseille","lat":43.291994,"lon":5.357886,"is_reserved":false,"is_disabled":false,"rental_uris":{"android":"levelo://app?vid=32102d04-3aab-47b9-b0bf-f4e1b84b656d","ios":"levelo://app?vid=32102d04-3aab-47b9-b0bf-f4e1b84b656d"},"vehicle_type_id":"4","last_reported":1716127634,"current_range_meters":0,"station_id":"ce4bhb12rcd13ifvqel0","pricing_plan_id":"cebpf4jnsgd1na2vs0mg"},{"bike_id":"37936133-307b-413b-8ff7-1b9be20e4d79","system_id":"levelo_inurba_marseille","lat":43.292005,"lon":5.357875,"is_reserved":false,"is_disabled":false,"rental_uris":{"android":"levelo://app?vid=37936133-307b-413b-8ff7-1b9be20e4d79","ios":"levelo://app?vid=37936133-307b-413b-8ff7-1b9be20e4d79"},"vehicle_type_id":"4","last_reported":1716127634,"current_range_meters":0,"station_id":"ce4bhb12rcd13ifvqel0","pricing_plan_id":"cebpf4jnsgd1na2vs0mg"},{"bike_id":"48989091-95a7-4526-8227-d9bdecb644bc","system_id":"levelo_inurba_marseille","lat":43.29529,"lon":5.385581,"is_reserved":false,"is_disabled":false,"rental_uris":{"android":"levelo://app?vid=48989091-95a7-4526-8227-d9bdecb644bc","ios":"levelo://app?vid=48989091-95a7-4526-8227-d9bdecb644bc"},"vehicle_type_id":"4","last_reported":1716127634,"current_range_meters":25600,"station_id":"ce4bgih2rcd13ifvqba0","pricing_plan_id":"cebpf4jnsgd1na2vs0mg"},{"bike_id":"7dfe9cb5-71b9-417e-a818-e7bb6ce7bd4b","system_id":"levelo_inurba_marseille","lat":43.29529,"lon":5.385581,"is_reserved":false,"is_disabled":false,"rental_uris":{"android":"levelo://app?vid=7dfe9cb5-71b9-417e-a818-e7bb6ce7bd4b","ios":"levelo://app?vid=7dfe9cb5-71b9-417e-a818-e7bb6ce7bd4b"},"vehicle_type_id":"4","last_reported":1716127634,"current_range_meters":20000,"station_id":"ce4bgih2rcd13ifvqba0","pricing_plan_id":"cebpf4jnsgd1na2vs0mg"},{"bike_id":"4abbb990-e96e-42ae-b7ad-f6b4a9e10e47","system_id":"levelo_inurba_marseille","lat":43.302008,"lon":5.394694,"is_reserved":false,"is_disabled":false,"rental_uris":{"android":"levelo://app?vid=4abbb990-e96e-42ae-b7ad-f6b4a9e10e47","ios":"levelo://app?vid=4abbb990-e96e-42ae-b7ad-f6b4a9e10e47"},"vehicle_type_id":"4","last_reported":1716127634,"current_range_meters":0,"station_id":"ce4bh0p2rcd13ifvqd70","pricing_plan_id":"cebpf4jnsgd1na2vs0mg"},{"bike_id":"de31ddcf-4cb2-4b4e-ba0a-8ac41cb488b3","system_id":"levelo_inurba_marseille","lat":43.290343,"lon":5.359152,"is_reserved":false,"is_disabled":false,"rental_uris":{"android":"levelo://app?vid=de31ddcf-4cb2-4b4e-ba0a-8ac41cb488b3","ios":"levelo://app?vid=de31ddcf-4cb2-4b4e-ba0a-8ac41cb488b3"},"vehicle_type_id":"4","last_reported":1716127634,"current_range_meters":0,"station_id":"ce4bha92rcd13ifvqeg0","pricing_plan_id":"cebpf4jnsgd1na2vs0mg"},{"bike_id":"5c4b958f-6505-4a96-8cdb-21511a83331e","system_id":"levelo_inurba_marseille","lat":43.294153,"lon":5.386305,"is_reserved":false,"is_disabled":false,"rental_uris":{"android":"levelo://app?vid=5c4b958f-6505-4a96-8cdb-21511a83331e","ios":"levelo://app?vid=5c4b958f-6505-4a96-8cdb-21511a83331e"},"vehicle_type_id":"4","last_reported":1716127634,"current_range_meters":2000,"station_id":"ce4bh2h2rcd13ifvqdh0","pricing_plan_id":"cebpf4jnsgd1na2vs0mg"},{"bike_id":"1cdd68b9-6e7d-4947-8eb5-f5b13de4e93f","system_id":"levelo_inurba_marseille","lat":43.28949,"lon":5.36401,"is_reserved":false,"is_disabled":false,"rental_uris":{"android":"levelo://app?vid=1cdd68b9-6e7d-4947-8eb5-f5b13de4e93f","ios":"levelo://app?vid=1cdd68b9-6e7d-4947-8eb5-f5b13de4e93f"},"vehicle_type_id":"4","last_reported":1716127634,"current_range_meters":0,"station_id":"ce4bhc92rcd13ifvqetg","pricing_plan_id":"cebpf4jnsgd1na2vs0mg"},{"bike_id":"d0898045-5dc1-4fed-aa58-06d6886542a8","system_id":"levelo_inurba_marseille","lat":43.28939,"lon":5.36637,"is_reserved":false,"is_disabled":false,"rental_uris":{"android":"levelo://app?vid=d0898045-5dc1-4fed-aa58-06d6886542a8","ios":"levelo://app?vid=d0898045-5dc1-4fed-aa58-06d6886542a8"},"vehicle_type_id":"4","last_reported":1716127634,"current_range_meters":17600,"station_id":"ce4bhap2rcd13ifvqek0","pricing_plan_id":"cebpf4jnsgd1na2vs0mg"},{"bike_id":"8f55c9e1-3cf2-4409-9233-08a519af4e1a","system_id":"levelo_inurba_marseille","lat":43.289363,"lon":5.366315,"is_reserved":false,"is_disabled":false,"rental_uris":{"android":"levelo://app?vid=8f55c9e1-3cf2-4409-9233-08a519af4e1a","ios":"levelo://app?vid=8f55c9e1-3cf2-4409-9233-08a519af4e1a"},"vehicle_type_id":"4","last_reported":1716127634,"current_range_meters":0,"station_id":"ce4bhap2rcd13ifvqek0","pricing_plan_id":"cebpf4jnsgd1na2vs0mg"},{"bike_id":"7171ea8d-c5b7-4e2b-834b-fff7e808cce6","system_id":"levelo_inurba_marseille","lat":43.289424,"lon":5.363998,"is_reserved":false,"is_disabled":false,"rental_uris":{"android":"levelo://app?vid=7171ea8d-c5b7-4e2b-834b-fff7e808cce6","ios":"levelo://app?vid=7171ea8d-c5b7-4e2b-834b-fff7e808cce6"},"vehicle_type_id":"4","last_reported":1716127634,"current_range_meters":22800,"station_id":"ce4bhc92rcd13ifvqetg","pricing_plan_id":"cebpf4jnsgd1na2vs0mg"},{"bike_id":"fadbe0b0-e4d5-4e9b-9fe7-07ac29bccc9e","system_id":"levelo_inurba_marseille","lat":43.28933,"lon":5.36632,"is_reserved":false,"is_disabled":false,"rental_uris":{"android":"levelo://app?vid=fadbe0b0-e4d5-4e9b-9fe7-07ac29bccc9e","ios":"levelo://app?vid=fadbe0b0-e4d5-4e9b-9fe7-07ac29bccc9e"},"vehicle_type_id":"4","last_reported":1716127634,"current_range_meters":0,"station_id":"ce4bhap2rcd13ifvqek0","pricing_plan_id":"cebpf4jnsgd1na2vs0mg"},{"bike_id":"a113652e-da07-4b31-9ba6-8594e50d2a28","system_id":"levelo_inurba_marseille","lat":43.289741,"lon":5.378306,"is_reserved":false,"is_disabled":false,"rental_uris":{"android":"levelo://app?vid=a113652e-da07-4b31-9ba6-8594e50d2a28","ios":"levelo://app?vid=a113652e-da07-4b31-9ba6-8594e50d2a28"},"vehicle_type_id":"4","last_reported":1716127634,"current_range_meters":0,"station_id":"ce4bh9p2rcd13ifvqed0","pricing_plan_id":"cebpf4jnsgd1na2vs0mg"},{"bike_id":"e4eff7fd-87ab-48cc-ba7c-83becc36b92e","system_id":"levelo_inurba_marseille","lat":43.290613,"lon":5.35591,"is_reserved":false,"is_disabled":false,"rental_uris":{"android":"levelo://app?vid=e4eff7fd-87ab-48cc-ba7c-83becc36b92e","ios":"levelo://app?vid=e4eff7fd-87ab-48cc-ba7c-83becc36b92e"},"vehicle_type_id":"4","last_reported":1716127634,"current_range_meters":0,"station_id":"","pricing_plan_id":"cebpf4jnsgd1na2vs0mg"},{"bike_id":"621cffc2-c532-443f-bc92-aa7428e43549","system_id":"levelo_inurba_marseille","lat":43.290103,"lon":5.356114,"is_reserved":false,"is_disabled":false,"rental_uris":{"android":"levelo://app?vid=621cffc2-c532-443f-bc92-aa7428e43549","ios":"levelo://app?vid=621cffc2-c532-443f-bc92-aa7428e43549"},"vehicle_type_id":"4","last_reported":1716127634,"current_range_meters":0,"station_id":"ce4bhb92rcd13ifvqen0","pricing_plan_id":"cebpf4jnsgd1na2vs0mg"},{"bike_id":"8dd07d76-d5a9-4078-8e0b-5b0ddb6e06c7","system_id":"levelo_inurba_marseille","lat":43.290104,"lon":5.356111,"is_reserved":false,"is_disabled":false,"rental_uris":{"android":"levelo://app?vid=8dd07d76-d5a9-4078-8e0b-5b0ddb6e06c7","ios":"levelo://app?vid=8dd07d76-d5a9-4078-8e0b-5b0ddb6e06c7"},"vehicle_type_id":"4","last_reported":1716127634,"current_range_meters":0,"station_id":"ce4bhb92rcd13ifvqen0","pricing_plan_id":"cebpf4jnsgd1na2vs0mg"},{"bike_id":"e99550aa-c716-4d14-974c-a87990dd8257","system_id":"levelo_inurba_marseille","lat":43.290104,"lon":5.356111,"is_reserved":false,"is_disabled":false,"rental_uris":{"android":"levelo://app?vid=e99550aa-c716-4d14-974c-a87990dd8257","ios":"levelo://app?vid=e99550aa-c716-4d14-974c-a87990dd8257"},"vehicle_type_id":"4","last_reported":1716127634,"current_range_meters":0,"station_id":"ce4bhb92rcd13ifvqen0","pricing_plan_id":"cebpf4jnsgd1na2vs0mg"},{"bike_id":"9710d7e3-8500-49cc-b701-3fc99fa76ff2","system_id":"levelo_inurba_marseille","lat":43.29005,"lon":5.35615,"is_reserved":false,"is_disabled":false,"rental_uris":{"android":"levelo://app?vid=9710d7e3-8500-49cc-b701-3fc99fa76ff2","ios":"levelo://app?vid=9710d7e3-8500-49cc-b701-3fc99fa76ff2"},"vehicle_type_id":"4","last_reported":1716127634,"current_range_meters":800,"station_id":"ce4bhb92rcd13ifvqen0","pricing_plan_id":"cebpf4jnsgd1na2vs0mg"},{"bike_id":"65c75d39-c6f4-4130-9eb3-28eb4c758430","system_id":"levelo_inurba_marseille","lat":43.28983,"lon":5.37836,"is_reserved":false,"is_disabled":false,"rental_uris":{"android":"levelo://app?vid=65c75d39-c6f4-4130-9eb3-28eb4c758430","ios":"levelo://app?vid=65c75d39-c6f4-4130-9eb3-28eb4c758430"},"vehicle_type_id":"4","last_reported":1716127634,"current_range_meters":0,"station_id":"ce4bh9p2rcd13ifvqed0","pricing_plan_id":"cebpf4jnsgd1na2vs0mg"},{"bike_id":"fc32ecd8-bc04-4113-8415-cf1d92d81be4","system_id":"levelo_inurba_marseille","lat":43.330442,"lon":5.389148,"is_reserved":false,"is_disabled":false,"rental_uris":{"android":"levelo://app?vid=fc32ecd8-bc04-4113-8415-cf1d92d81be4","ios":"levelo://app?vid=fc32ecd8-bc04-4113-8415-cf1d92d81be4"},"vehicle_type_id":"4","last_reported":1716127634,"current_range_meters":16000,"station_id":"ce4bhr92rcd13ifvqhrg","pricing_plan_id":"cebpf4jnsgd1na2vs0mg"},{"bike_id":"d85fa1ae-54fe-4b13-95d9-b0f5e06451d8","system_id":"levelo_inurba_marseille","lat":43.295169,"lon":5.390426,"is_reserved":false,"is_disabled":false,"rental_uris":{"android":"levelo://app?vid=d85fa1ae-54fe-4b13-95d9-b0f5e06451d8","ios":"levelo://app?vid=d85fa1ae-54fe-4b13-95d9-b0f5e06451d8"},"vehicle_type_id":"4","last_reported":1716127634,"current_range_meters":0,"station_id":"ce4bh3p2rcd13ifvqdp0","pricing_plan_id":"cebpf4jnsgd1na2vs0mg"},{"bike_id":"93eabbdb-0067-47f5-8203-92af0c29780f","system_id":"levelo_inurba_marseille","lat":43.290094,"lon":5.381264,"is_reserved":false,"is_disabled":false,"rental_uris":{"android":"levelo://app?vid=93eabbdb-0067-47f5-8203-92af0c29780f","ios":"levelo://app?vid=93eabbdb-0067-47f5-8203-92af0c29780f"},"vehicle_type_id":"4","last_reported":1716127634,"current_range_meters":0,"station_id":"ce4bh4p2rcd13ifvqe1g","pricing_plan_id":"cebpf4jnsgd1na2vs0mg"},{"bike_id":"4fa81c91-a39d-4160-93d7-b314e9fd0ee8","system_id":"levelo_inurba_marseille","lat":43.33745,"lon":5.37453,"is_reserved":false,"is_disabled":false,"rental_uris":{"android":"levelo://app?vid=4fa81c91-a39d-4160-93d7-b314e9fd0ee8","ios":"levelo://app?vid=4fa81c91-a39d-4160-93d7-b314e9fd0ee8"},"vehicle_type_id":"4","last_reported":1716127634,"current_range_meters":9600,"station_id":"","pricing_plan_id":"cebpf4jnsgd1na2vs0mg"},{"bike_id":"98983f2c-17b5-4c51-a9c7-44b8ab94ecd0","system_id":"levelo_inurba_marseille","lat":43.28727,"lon":5.36078,"is_reserved":false,"is_disabled":false,"rental_uris":{"android":"levelo://app?vid=98983f2c-17b5-4c51-a9c7-44b8ab94ecd0","ios":"levelo://app?vid=98983f2c-17b5-4c51-a9c7-44b8ab94ecd0"},"vehicle_type_id":"4","last_reported":1716127634,"current_range_meters":11200,"station_id":"cki0cbj6b192h4jlfktg","pricing_plan_id":"cebpf4jnsgd1na2vs0mg"},{"bike_id":"8fc6ebe8-68ab-4991-9aa7-185ef6592e71","system_id":"levelo_inurba_marseille","lat":43.337568,"lon":5.37449,"is_reserved":false,"is_disabled":false,"rental_uris":{"android":"levelo://app?vid=8fc6ebe8-68ab-4991-9aa7-185ef6592e71","ios":"levelo://app?vid=8fc6ebe8-68ab-4991-9aa7-185ef6592e71"},"vehicle_type_id":"4","last_reported":1716127634,"current_range_meters":8000,"station_id":"","pricing_plan_id":"cebpf4jnsgd1na2vs0mg"},{"bike_id":"91d9714b-b35f-47ce-8f34-022bf351236f","system_id":"levelo_inurba_marseille","lat":43.337642,"lon":5.374393,"is_reserved":false,"is_disabled":false,"rental_uris":{"android":"levelo://app?vid=91d9714b-b35f-47ce-8f34-022bf351236f","ios":"levelo://app?vid=91d9714b-b35f-47ce-8f34-022bf351236f"},"vehicle_type_id":"4","last_reported":1716127634,"current_range_meters":17200,"station_id":"","pricing_plan_id":"cebpf4jnsgd1na2vs0mg"},{"bike_id":"bb80552a-b98a-45f4-afe0-033bf6ceeab2","system_id":"levelo_inurba_marseille","lat":43.30642,"lon":5.401031,"is_reserved":false,"is_disabled":false,"rental_uris":{"android":"levelo://app?vid=bb80552a-b98a-45f4-afe0-033bf6ceeab2","ios":"levelo://app?vid=bb80552a-b98a-45f4-afe0-033bf6ceeab2"},"vehicle_type_id":"4","last_reported":1716127634,"current_range_meters":9200,"station_id":"ce4bh112rcd13ifvqda0","pricing_plan_id":"cebpf4jnsgd1na2vs0mg"},{"bike_id":"c52059b2-de9e-439d-a4dc-83a14385ae70","system_id":"levelo_inurba_marseille","lat":43.301117,"lon":5.398795,"is_reserved":false,"is_disabled":false,"rental_uris":{"android":"levelo://app?vid=c52059b2-de9e-439d-a4dc-83a14385ae70","ios":"levelo://app?vid=c52059b2-de9e-439d-a4dc-83a14385ae70"},"vehicle_type_id":"4","last_reported":1716127634,"current_range_meters":8400,"station_id":"ce4bh0h2rcd13ifvqd40","pricing_plan_id":"cebpf4jnsgd1na2vs0mg"},{"bike_id":"4048eb44-fb24-457e-84ec-98c8ec29540d","system_id":"levelo_inurba_marseille","lat":43.28659,"lon":5.36345,"is_reserved":false,"is_disabled":false,"rental_uris":{"android":"levelo://app?vid=4048eb44-fb24-457e-84ec-98c8ec29540d","ios":"levelo://app?vid=4048eb44-fb24-457e-84ec-98c8ec29540d"},"vehicle_type_id":"4","last_reported":1716127634,"current_range_meters":400,"station_id":"ce4bhah2rcd13ifvqej0","pricing_plan_id":"cebpf4jnsgd1na2vs0mg"},{"bike_id":"308836b1-a753-4bb8-b2b7-816dfeb9c0bf","system_id":"levelo_inurba_marseille","lat":43.286961,"lon":5.373785,"is_reserved":false,"is_disabled":false,"rental_uris":{"android":"levelo://app?vid=308836b1-a753-4bb8-b2b7-816dfeb9c0bf","ios":"levelo://app?vid=308836b1-a753-4bb8-b2b7-816dfeb9c0bf"},"vehicle_type_id":"4","last_reported":1716127634,"current_range_meters":1600,"station_id":"ce4bh3p2rcd13ifvqdq0","pricing_plan_id":"cebpf4jnsgd1na2vs0mg"},{"bike_id":"ae1e09c0-6da0-45c2-848f-5d0f8bdf7c09","system_id":"levelo_inurba_marseille","lat":43.28658,"lon":5.36339,"is_reserved":false,"is_disabled":false,"rental_uris":{"android":"levelo://app?vid=ae1e09c0-6da0-45c2-848f-5d0f8bdf7c09","ios":"levelo://app?vid=ae1e09c0-6da0-45c2-848f-5d0f8bdf7c09"},"vehicle_type_id":"4","last_reported":1716127634,"current_range_meters":800,"station_id":"ce4bhah2rcd13ifvqej0","pricing_plan_id":"cebpf4jnsgd1na2vs0mg"},{"bike_id":"9f3311ad-d8b1-427a-a063-671b1ecd373e","system_id":"levelo_inurba_marseille","lat":43.295196,"lon":5.39397,"is_reserved":false,"is_disabled":false,"rental_uris":{"android":"levelo://app?vid=9f3311ad-d8b1-427a-a063-671b1ecd373e","ios":"levelo://app?vid=9f3311ad-d8b1-427a-a063-671b1ecd373e"},"vehicle_type_id":"4","last_reported":1716127634,"current_range_meters":0,"station_id":"ce4bh292rcd13ifvqdf0","pricing_plan_id":"cebpf4jnsgd1na2vs0mg"},{"bike_id":"ca52a8c0-6827-480e-a36e-d8e72251f0f5","system_id":"levelo_inurba_marseille","lat":43.290345,"lon":5.38646,"is_reserved":false,"is_disabled":false,"rental_uris":{"android":"levelo://app?vid=ca52a8c0-6827-480e-a36e-d8e72251f0f5","ios":"levelo://app?vid=ca52a8c0-6827-480e-a36e-d8e72251f0f5"},"vehicle_type_id":"4","last_reported":1716127634,"current_range_meters":0,"station_id":"ce4bh4p2rcd13ifvqe0g","pricing_plan_id":"cebpf4jnsgd1na2vs0mg"},{"bike_id":"dba10864-205d-43ab-be6c-5d5db1388f4f","system_id":"levelo_inurba_marseille","lat":43.289307,"lon":5.38406,"is_reserved":false,"is_disabled":false,"rental_uris":{"android":"levelo://app?vid=dba10864-205d-43ab-be6c-5d5db1388f4f","ios":"levelo://app?vid=dba10864-205d-43ab-be6c-5d5db1388f4f"},"vehicle_type_id":"4","last_reported":1716127634,"current_range_meters":0,"station_id":"ce4bh612rcd13ifvqe6g","pricing_plan_id":"cebpf4jnsgd1na2vs0mg"},{"bike_id":"a33825c9-c26e-450b-97e2-6292b58a2546","system_id":"levelo_inurba_marseille","lat":43.290336,"lon":5.386425,"is_reserved":false,"is_disabled":false,"rental_uris":{"android":"levelo://app?vid=a33825c9-c26e-450b-97e2-6292b58a2546","ios":"levelo://app?vid=a33825c9-c26e-450b-97e2-6292b58a2546"},"vehicle_type_id":"4","last_reported":1716127634,"current_range_meters":0,"station_id":"ce4bh4p2rcd13ifvqe0g","pricing_plan_id":"cebpf4jnsgd1na2vs0mg"},{"bike_id":"ba6ed7fa-f648-4e7d-a011-7960328408b8","system_id":"levelo_inurba_marseille","lat":43.302759,"lon":5.400793,"is_reserved":false,"is_disabled":false,"rental_uris":{"android":"levelo://app?vid=ba6ed7fa-f648-4e7d-a011-7960328408b8","ios":"levelo://app?vid=ba6ed7fa-f648-4e7d-a011-7960328408b8"},"vehicle_type_id":"4","last_reported":1716127634,"current_range_meters":800,"station_id":"ce4bgvh2rcd13ifvqcs0","pricing_plan_id":"cebpf4jnsgd1na2vs0mg"},{"bike_id":"3907d174-ac09-4dae-b903-4b4b3917f783","system_id":"levelo_inurba_marseille","lat":43.302759,"lon":5.400793,"is_reserved":false,"is_disabled":false,"rental_uris":{"android":"levelo://app?vid=3907d174-ac09-4dae-b903-4b4b3917f783","ios":"levelo://app?vid=3907d174-ac09-4dae-b903-4b4b3917f783"},"vehicle_type_id":"4","last_reported":1716127634,"current_range_meters":20400,"station_id":"ce4bgvh2rcd13ifvqcs0","pricing_plan_id":"cebpf4jnsgd1na2vs0mg"},{"bike_id":"df154351-5c5e-4ab7-a15f-dd9e22588683","system_id":"levelo_inurba_marseille","lat":43.286039,"lon":5.370679,"is_reserved":false,"is_disabled":false,"rental_uris":{"android":"levelo://app?vid=df154351-5c5e-4ab7-a15f-dd9e22588683","ios":"levelo://app?vid=df154351-5c5e-4ab7-a15f-dd9e22588683"},"vehicle_type_id":"4","last_reported":1716127634,"current_range_meters":0,"station_id":"ce4bht12rcd13ifvqi60","pricing_plan_id":"cebpf4jnsgd1na2vs0mg"},{"bike_id":"4ccf7a0e-51d3-43cb-ad2e-69d8ce7bebb8","system_id":"levelo_inurba_marseille","lat":43.31687,"lon":5.40471,"is_reserved":false,"is_disabled":false,"rental_uris":{"android":"levelo://app?vid=4ccf7a0e-51d3-43cb-ad2e-69d8ce7bebb8","ios":"levelo://app?vid=4ccf7a0e-51d3-43cb-ad2e-69d8ce7bebb8"},"vehicle_type_id":"4","last_reported":1716127634,"current_range_meters":6400,"station_id":"ce4bh012rcd13ifvqd00","pricing_plan_id":"cebpf4jnsgd1na2vs0mg"},{"bike_id":"d43d4167-312d-475a-8328-aab6fbda6d9b","system_id":"levelo_inurba_marseille","lat":43.291994,"lon":5.392907,"is_reserved":false,"is_disabled":false,"rental_uris":{"android":"levelo://app?vid=d43d4167-312d-475a-8328-aab6fbda6d9b","ios":"levelo://app?vid=d43d4167-312d-475a-8328-aab6fbda6d9b"},"vehicle_type_id":"4","last_reported":1716127634,"current_range_meters":9600,"station_id":"ce4bh192rcd13ifvqdd0","pricing_plan_id":"cebpf4jnsgd1na2vs0mg"},{"bike_id":"aef1b405-40b7-4213-a235-a5b25b57ef0d","system_id":"levelo_inurba_marseille","lat":43.303305,"lon":5.40394,"is_reserved":false,"is_disabled":false,"rental_uris":{"android":"levelo://app?vid=aef1b405-40b7-4213-a235-a5b25b57ef0d","ios":"levelo://app?vid=aef1b405-40b7-4213-a235-a5b25b57ef0d"},"vehicle_type_id":"4","last_reported":1716127634,"current_range_meters":4400,"station_id":"","pricing_plan_id":"cebpf4jnsgd1na2vs0mg"},{"bike_id":"8860d23b-fb3d-4efa-ab68-22fbc75c6b4e","system_id":"levelo_inurba_marseille","lat":43.285856,"lon":5.350771,"is_reserved":false,"is_disabled":false,"rental_uris":{"android":"levelo://app?vid=8860d23b-fb3d-4efa-ab68-22fbc75c6b4e","ios":"levelo://app?vid=8860d23b-fb3d-4efa-ab68-22fbc75c6b4e"},"vehicle_type_id":"4","last_reported":1716127634,"current_range_meters":400,"station_id":"ce4bhch2rcd13ifvqeug","pricing_plan_id":"cebpf4jnsgd1na2vs0mg"},{"bike_id":"e26fb5fe-18b4-4511-9e41-60c359747bb3","system_id":"levelo_inurba_marseille","lat":43.2862,"lon":5.35106,"is_reserved":false,"is_disabled":false,"rental_uris":{"android":"levelo://app?vid=e26fb5fe-18b4-4511-9e41-60c359747bb3","ios":"levelo://app?vid=e26fb5fe-18b4-4511-9e41-60c359747bb3"},"vehicle_type_id":"4","last_reported":1716127634,"current_range_meters":22400,"station_id":"ce4bhch2rcd13ifvqeug","pricing_plan_id":"cebpf4jnsgd1na2vs0mg"},{"bike_id":"c4c4ba86-1771-4ed3-90ec-d13bf7728bcd","system_id":"levelo_inurba_marseille","lat":43.28619,"lon":5.35105,"is_reserved":false,"is_disabled":false,"rental_uris":{"android":"levelo://app?vid=c4c4ba86-1771-4ed3-90ec-d13bf7728bcd","ios":"levelo://app?vid=c4c4ba86-1771-4ed3-90ec-d13bf7728bcd"},"vehicle_type_id":"4","last_reported":1716127634,"current_range_meters":12800,"station_id":"ce4bhch2rcd13ifvqeug","pricing_plan_id":"cebpf4jnsgd1na2vs0mg"},{"bike_id":"9d33e005-553a-4f22-8cae-6cbcc61a8dbd","system_id":"levelo_inurba_marseille","lat":43.2862,"lon":5.35101,"is_reserved":false,"is_disabled":false,"rental_uris":{"android":"levelo://app?vid=9d33e005-553a-4f22-8cae-6cbcc61a8dbd","ios":"levelo://app?vid=9d33e005-553a-4f22-8cae-6cbcc61a8dbd"},"vehicle_type_id":"4","last_reported":1716127634,"current_range_meters":0,"station_id":"ce4bhch2rcd13ifvqeug","pricing_plan_id":"cebpf4jnsgd1na2vs0mg"},{"bike_id":"b0f29fae-2b01-460d-aa3c-4e115026915a","system_id":"levelo_inurba_marseille","lat":43.285856,"lon":5.350771,"is_reserved":false,"is_disabled":false,"rental_uris":{"android":"levelo://app?vid=b0f29fae-2b01-460d-aa3c-4e115026915a","ios":"levelo://app?vid=b0f29fae-2b01-460d-aa3c-4e115026915a"},"vehicle_type_id":"4","last_reported":1716127634,"current_range_meters":6400,"station_id":"ce4bhch2rcd13ifvqeug","pricing_plan_id":"cebpf4jnsgd1na2vs0mg"},{"bike_id":"d7143e42-6bd2-4871-9e6d-8161203950b8","system_id":"levelo_inurba_marseille","lat":43.28618,"lon":5.35106,"is_reserved":false,"is_disabled":false,"rental_uris":{"android":"levelo://app?vid=d7143e42-6bd2-4871-9e6d-8161203950b8","ios":"levelo://app?vid=d7143e42-6bd2-4871-9e6d-8161203950b8"},"vehicle_type_id":"4","last_reported":1716127634,"current_range_meters":9200,"station_id":"ce4bhch2rcd13ifvqeug","pricing_plan_id":"cebpf4jnsgd1na2vs0mg"},{"bike_id":"53c07afe-7735-4a83-94f6-146241681546","system_id":"levelo_inurba_marseille","lat":43.285856,"lon":5.350771,"is_reserved":false,"is_disabled":false,"rental_uris":{"android":"levelo://app?vid=53c07afe-7735-4a83-94f6-146241681546","ios":"levelo://app?vid=53c07afe-7735-4a83-94f6-146241681546"},"vehicle_type_id":"4","last_reported":1716127634,"current_range_meters":0,"station_id":"ce4bhch2rcd13ifvqeug","pricing_plan_id":"cebpf4jnsgd1na2vs0mg"},{"bike_id":"a4f709b4-3677-4ba1-85d9-d2280351bb5e","system_id":"levelo_inurba_marseille","lat":43.285856,"lon":5.350771,"is_reserved":false,"is_disabled":false,"rental_uris":{"android":"levelo://app?vid=a4f709b4-3677-4ba1-85d9-d2280351bb5e","ios":"levelo://app?vid=a4f709b4-3677-4ba1-85d9-d2280351bb5e"},"vehicle_type_id":"4","last_reported":1716127634,"current_range_meters":11600,"station_id":"ce4bhch2rcd13ifvqeug","pricing_plan_id":"cebpf4jnsgd1na2vs0mg"},{"bike_id":"da55355a-bc96-4d08-8e36-11533ed29d20","system_id":"levelo_inurba_marseille","lat":43.285856,"lon":5.350771,"is_reserved":false,"is_disabled":false,"rental_uris":{"android":"levelo://app?vid=da55355a-bc96-4d08-8e36-11533ed29d20","ios":"levelo://app?vid=da55355a-bc96-4d08-8e36-11533ed29d20"},"vehicle_type_id":"4","last_reported":1716127634,"current_range_meters":31200,"station_id":"ce4bhch2rcd13ifvqeug","pricing_plan_id":"cebpf4jnsgd1na2vs0mg"},{"bike_id":"69edb227-4b82-4c30-9b1a-270e106828aa","system_id":"levelo_inurba_marseille","lat":43.28617,"lon":5.35102,"is_reserved":false,"is_disabled":false,"rental_uris":{"android":"levelo://app?vid=69edb227-4b82-4c30-9b1a-270e106828aa","ios":"levelo://app?vid=69edb227-4b82-4c30-9b1a-270e106828aa"},"vehicle_type_id":"4","last_reported":1716127634,"current_range_meters":26400,"station_id":"ce4bhch2rcd13ifvqeug","pricing_plan_id":"cebpf4jnsgd1na2vs0mg"},{"bike_id":"16ab8c66-0c0f-4fd0-963c-6b928393de40","system_id":"levelo_inurba_marseille","lat":43.28617,"lon":5.351,"is_reserved":false,"is_disabled":false,"rental_uris":{"android":"levelo://app?vid=16ab8c66-0c0f-4fd0-963c-6b928393de40","ios":"levelo://app?vid=16ab8c66-0c0f-4fd0-963c-6b928393de40"},"vehicle_type_id":"4","last_reported":1716127634,"current_range_meters":0,"station_id":"ce4bhch2rcd13ifvqeug","pricing_plan_id":"cebpf4jnsgd1na2vs0mg"},{"bike_id":"4c45f4a4-6fb3-4397-b8ee-0e0e8fe84278","system_id":"levelo_inurba_marseille","lat":43.28618,"lon":5.350965,"is_reserved":false,"is_disabled":false,"rental_uris":{"android":"levelo://app?vid=4c45f4a4-6fb3-4397-b8ee-0e0e8fe84278","ios":"levelo://app?vid=4c45f4a4-6fb3-4397-b8ee-0e0e8fe84278"},"vehicle_type_id":"4","last_reported":1716127634,"current_range_meters":31200,"station_id":"ce4bhch2rcd13ifvqeug","pricing_plan_id":"cebpf4jnsgd1na2vs0mg"},{"bike_id":"43fad8cd-a5c4-452b-976d-2eba3b54820b","system_id":"levelo_inurba_marseille","lat":43.285856,"lon":5.350771,"is_reserved":false,"is_disabled":false,"rental_uris":{"android":"levelo://app?vid=43fad8cd-a5c4-452b-976d-2eba3b54820b","ios":"levelo://app?vid=43fad8cd-a5c4-452b-976d-2eba3b54820b"},"vehicle_type_id":"4","last_reported":1716127634,"current_range_meters":22800,"station_id":"ce4bhch2rcd13ifvqeug","pricing_plan_id":"cebpf4jnsgd1na2vs0mg"},{"bike_id":"8cb0ce86-7486-430d-a1fe-448c01866824","system_id":"levelo_inurba_marseille","lat":43.28616,"lon":5.35101,"is_reserved":false,"is_disabled":false,"rental_uris":{"android":"levelo://app?vid=8cb0ce86-7486-430d-a1fe-448c01866824","ios":"levelo://app?vid=8cb0ce86-7486-430d-a1fe-448c01866824"},"vehicle_type_id":"4","last_reported":1716127634,"current_range_meters":6000,"station_id":"ce4bhch2rcd13ifvqeug","pricing_plan_id":"cebpf4jnsgd1na2vs0mg"},{"bike_id":"3c98f7b4-be7e-4517-95d5-f366f2b93b05","system_id":"levelo_inurba_marseille","lat":43.28616,"lon":5.351,"is_reserved":false,"is_disabled":false,"rental_uris":{"android":"levelo://app?vid=3c98f7b4-be7e-4517-95d5-f366f2b93b05","ios":"levelo://app?vid=3c98f7b4-be7e-4517-95d5-f366f2b93b05"},"vehicle_type_id":"4","last_reported":1716127634,"current_range_meters":31200,"station_id":"ce4bhch2rcd13ifvqeug","pricing_plan_id":"cebpf4jnsgd1na2vs0mg"},{"bike_id":"dcfe9470-c6e6-4168-a0d8-864e903452f6","system_id":"levelo_inurba_marseille","lat":43.28614,"lon":5.35105,"is_reserved":false,"is_disabled":false,"rental_uris":{"android":"levelo://app?vid=dcfe9470-c6e6-4168-a0d8-864e903452f6","ios":"levelo://app?vid=dcfe9470-c6e6-4168-a0d8-864e903452f6"},"vehicle_type_id":"4","last_reported":1716127634,"current_range_meters":21200,"station_id":"ce4bhch2rcd13ifvqeug","pricing_plan_id":"cebpf4jnsgd1na2vs0mg"},{"bike_id":"ecc88823-8df9-4714-93e3-4e75113b8194","system_id":"levelo_inurba_marseille","lat":43.285856,"lon":5.350771,"is_reserved":false,"is_disabled":false,"rental_uris":{"android":"levelo://app?vid=ecc88823-8df9-4714-93e3-4e75113b8194","ios":"levelo://app?vid=ecc88823-8df9-4714-93e3-4e75113b8194"},"vehicle_type_id":"4","last_reported":1716127634,"current_range_meters":16400,"station_id":"ce4bhch2rcd13ifvqeug","pricing_plan_id":"cebpf4jnsgd1na2vs0mg"},{"bike_id":"d48240ef-28ca-4c6e-a649-1f6b67deb657","system_id":"levelo_inurba_marseille","lat":43.28614,"lon":5.35102,"is_reserved":false,"is_disabled":false,"rental_uris":{"android":"levelo://app?vid=d48240ef-28ca-4c6e-a649-1f6b67deb657","ios":"levelo://app?vid=d48240ef-28ca-4c6e-a649-1f6b67deb657"},"vehicle_type_id":"4","last_reported":1716127634,"current_range_meters":9600,"station_id":"ce4bhch2rcd13ifvqeug","pricing_plan_id":"cebpf4jnsgd1na2vs0mg"},{"bike_id":"6238b5f4-c08b-4244-8bad-8c9b33c321e5","system_id":"levelo_inurba_marseille","lat":43.28613,"lon":5.351,"is_reserved":false,"is_disabled":false,"rental_uris":{"android":"levelo://app?vid=6238b5f4-c08b-4244-8bad-8c9b33c321e5","ios":"levelo://app?vid=6238b5f4-c08b-4244-8bad-8c9b33c321e5"},"vehicle_type_id":"4","last_reported":1716127634,"current_range_meters":8000,"station_id":"ce4bhch2rcd13ifvqeug","pricing_plan_id":"cebpf4jnsgd1na2vs0mg"},{"bike_id":"d36337b1-73d6-4992-b814-9868aacf3173","system_id":"levelo_inurba_marseille","lat":43.28612,"lon":5.35102,"is_reserved":false,"is_disabled":false,"rental_uris":{"android":"levelo://app?vid=d36337b1-73d6-4992-b814-9868aacf3173","ios":"levelo://app?vid=d36337b1-73d6-4992-b814-9868aacf3173"},"vehicle_type_id":"4","last_reported":1716127634,"current_range_meters":1200,"station_id":"ce4bhch2rcd13ifvqeug","pricing_plan_id":"cebpf4jnsgd1na2vs0mg"},{"bike_id":"e62df1ad-1a85-4450-b91a-efdcc91bb3c0","system_id":"levelo_inurba_marseille","lat":43.285856,"lon":5.350771,"is_reserved":false,"is_disabled":false,"rental_uris":{"android":"levelo://app?vid=e62df1ad-1a85-4450-b91a-efdcc91bb3c0","ios":"levelo://app?vid=e62df1ad-1a85-4450-b91a-efdcc91bb3c0"},"vehicle_type_id":"4","last_reported":1716127634,"current_range_meters":26800,"station_id":"ce4bhch2rcd13ifvqeug","pricing_plan_id":"cebpf4jnsgd1na2vs0mg"},{"bike_id":"5a853ed8-ac8b-4d7e-83e0-b7848f01459d","system_id":"levelo_inurba_marseille","lat":43.2861,"lon":5.35102,"is_reserved":false,"is_disabled":false,"rental_uris":{"android":"levelo://app?vid=5a853ed8-ac8b-4d7e-83e0-b7848f01459d","ios":"levelo://app?vid=5a853ed8-ac8b-4d7e-83e0-b7848f01459d"},"vehicle_type_id":"4","last_reported":1716127634,"current_range_meters":10000,"station_id":"ce4bhch2rcd13ifvqeug","pricing_plan_id":"cebpf4jnsgd1na2vs0mg"},{"bike_id":"027311f1-0396-43ee-bb14-59f6fb4cc2ba","system_id":"levelo_inurba_marseille","lat":43.285891,"lon":5.350982,"is_reserved":false,"is_disabled":false,"rental_uris":{"android":"levelo://app?vid=027311f1-0396-43ee-bb14-59f6fb4cc2ba","ios":"levelo://app?vid=027311f1-0396-43ee-bb14-59f6fb4cc2ba"},"vehicle_type_id":"4","last_reported":1716127634,"current_range_meters":9200,"station_id":"ce4bhch2rcd13ifvqeug","pricing_plan_id":"cebpf4jnsgd1na2vs0mg"},{"bike_id":"47820319-20b4-425b-9654-ce5f48aa0e59","system_id":"levelo_inurba_marseille","lat":43.318798,"lon":5.40739,"is_reserved":false,"is_disabled":false,"rental_uris":{"android":"levelo://app?vid=47820319-20b4-425b-9654-ce5f48aa0e59","ios":"levelo://app?vid=47820319-20b4-425b-9654-ce5f48aa0e59"},"vehicle_type_id":"4","last_reported":1716127634,"current_range_meters":3200,"station_id":"ce4bhq12rcd13ifvqhig","pricing_plan_id":"cebpf4jnsgd1na2vs0mg"},{"bike_id":"030df6ed-d25a-4a11-bce2-371aa6dec38b","system_id":"levelo_inurba_marseille","lat":43.323464,"lon":5.406297,"is_reserved":false,"is_disabled":false,"rental_uris":{"android":"levelo://app?vid=030df6ed-d25a-4a11-bce2-371aa6dec38b","ios":"levelo://app?vid=030df6ed-d25a-4a11-bce2-371aa6dec38b"},"vehicle_type_id":"4","last_reported":1716127634,"current_range_meters":29200,"station_id":"ce4bhq92rcd13ifvqhjg","pricing_plan_id":"cebpf4jnsgd1na2vs0mg"},{"bike_id":"d17f242e-6cde-4ac0-8520-337d341d1389","system_id":"levelo_inurba_marseille","lat":43.323464,"lon":5.406297,"is_reserved":false,"is_disabled":false,"rental_uris":{"android":"levelo://app?vid=d17f242e-6cde-4ac0-8520-337d341d1389","ios":"levelo://app?vid=d17f242e-6cde-4ac0-8520-337d341d1389"},"vehicle_type_id":"4","last_reported":1716127634,"current_range_meters":29200,"station_id":"ce4bhq92rcd13ifvqhjg","pricing_plan_id":"cebpf4jnsgd1na2vs0mg"},{"bike_id":"b24aea1e-f417-43ff-8447-3dfa4af24c29","system_id":"levelo_inurba_marseille","lat":43.337168,"lon":5.391825,"is_reserved":false,"is_disabled":false,"rental_uris":{"android":"levelo://app?vid=b24aea1e-f417-43ff-8447-3dfa4af24c29","ios":"levelo://app?vid=b24aea1e-f417-43ff-8447-3dfa4af24c29"},"vehicle_type_id":"4","last_reported":1716127634,"current_range_meters":31600,"station_id":"ce4bhr92rcd13ifvqhsg","pricing_plan_id":"cebpf4jnsgd1na2vs0mg"},{"bike_id":"6b4b2bbf-b7fb-477f-89a7-fa751b252e39","system_id":"levelo_inurba_marseille","lat":43.32336,"lon":5.40621,"is_reserved":false,"is_disabled":false,"rental_uris":{"android":"levelo://app?vid=6b4b2bbf-b7fb-477f-89a7-fa751b252e39","ios":"levelo://app?vid=6b4b2bbf-b7fb-477f-89a7-fa751b252e39"},"vehicle_type_id":"4","last_reported":1716127634,"current_range_meters":0,"station_id":"ce4bhq92rcd13ifvqhjg","pricing_plan_id":"cebpf4jnsgd1na2vs0mg"},{"bike_id":"324963ec-598e-43e6-b6dc-def0940a2be6","system_id":"levelo_inurba_marseille","lat":43.323464,"lon":5.406297,"is_reserved":false,"is_disabled":false,"rental_uris":{"android":"levelo://app?vid=324963ec-598e-43e6-b6dc-def0940a2be6","ios":"levelo://app?vid=324963ec-598e-43e6-b6dc-def0940a2be6"},"vehicle_type_id":"4","last_reported":1716127634,"current_range_meters":19600,"station_id":"ce4bhq92rcd13ifvqhjg","pricing_plan_id":"cebpf4jnsgd1na2vs0mg"},{"bike_id":"9b7f82fd-3fa0-42f8-a9b7-feab44c21ae5","system_id":"levelo_inurba_marseille","lat":43.323464,"lon":5.406297,"is_reserved":false,"is_disabled":false,"rental_uris":{"android":"levelo://app?vid=9b7f82fd-3fa0-42f8-a9b7-feab44c21ae5","ios":"levelo://app?vid=9b7f82fd-3fa0-42f8-a9b7-feab44c21ae5"},"vehicle_type_id":"4","last_reported":1716127634,"current_range_meters":11600,"station_id":"ce4bhq92rcd13ifvqhjg","pricing_plan_id":"cebpf4jnsgd1na2vs0mg"},{"bike_id":"1c47809c-7db7-4988-8570-dd325ced6c5e","system_id":"levelo_inurba_marseille","lat":43.337168,"lon":5.391825,"is_reserved":false,"is_disabled":false,"rental_uris":{"android":"levelo://app?vid=1c47809c-7db7-4988-8570-dd325ced6c5e","ios":"levelo://app?vid=1c47809c-7db7-4988-8570-dd325ced6c5e"},"vehicle_type_id":"4","last_reported":1716127634,"current_range_meters":16800,"station_id":"ce4bhr92rcd13ifvqhsg","pricing_plan_id":"cebpf4jnsgd1na2vs0mg"},{"bike_id":"cde5fce9-f1d0-41b2-bf86-4ee66d5e88bf","system_id":"levelo_inurba_marseille","lat":43.323464,"lon":5.406297,"is_reserved":false,"is_disabled":false,"rental_uris":{"android":"levelo://app?vid=cde5fce9-f1d0-41b2-bf86-4ee66d5e88bf","ios":"levelo://app?vid=cde5fce9-f1d0-41b2-bf86-4ee66d5e88bf"},"vehicle_type_id":"4","last_reported":1716127634,"current_range_meters":1200,"station_id":"ce4bhq92rcd13ifvqhjg","pricing_plan_id":"cebpf4jnsgd1na2vs0mg"},{"bike_id":"d6f8c212-ee11-4816-a504-8b0180a70086","system_id":"levelo_inurba_marseille","lat":43.297946,"lon":5.404063,"is_reserved":false,"is_disabled":false,"rental_uris":{"android":"levelo://app?vid=d6f8c212-ee11-4816-a504-8b0180a70086","ios":"levelo://app?vid=d6f8c212-ee11-4816-a504-8b0180a70086"},"vehicle_type_id":"4","last_reported":1716127634,"current_range_meters":15200,"station_id":"ce4bh112rcd13ifvqd90","pricing_plan_id":"cebpf4jnsgd1na2vs0mg"},{"bike_id":"02602f21-4d4a-4de1-8b31-b10e797599b5","system_id":"levelo_inurba_marseille","lat":43.297946,"lon":5.404063,"is_reserved":false,"is_disabled":false,"rental_uris":{"android":"levelo://app?vid=02602f21-4d4a-4de1-8b31-b10e797599b5","ios":"levelo://app?vid=02602f21-4d4a-4de1-8b31-b10e797599b5"},"vehicle_type_id":"4","last_reported":1716127634,"current_range_meters":24400,"station_id":"ce4bh112rcd13ifvqd90","pricing_plan_id":"cebpf4jnsgd1na2vs0mg"},{"bike_id":"a97b9fbc-94ba-41aa-a3f6-7fb15e7896d8","system_id":"levelo_inurba_marseille","lat":43.284793,"lon":5.384119,"is_reserved":false,"is_disabled":false,"rental_uris":{"android":"levelo://app?vid=a97b9fbc-94ba-41aa-a3f6-7fb15e7896d8","ios":"levelo://app?vid=a97b9fbc-94ba-41aa-a3f6-7fb15e7896d8"},"vehicle_type_id":"4","last_reported":1716127634,"current_range_meters":2800,"station_id":"ce4bh512rcd13ifvqe3g","pricing_plan_id":"cebpf4jnsgd1na2vs0mg"},{"bike_id":"230f5f8f-a821-469b-84a8-4913525e943d","system_id":"levelo_inurba_marseille","lat":43.284237,"lon":5.349925,"is_reserved":false,"is_disabled":false,"rental_uris":{"android":"levelo://app?vid=230f5f8f-a821-469b-84a8-4913525e943d","ios":"levelo://app?vid=230f5f8f-a821-469b-84a8-4913525e943d"},"vehicle_type_id":"4","last_reported":1716127634,"current_range_meters":14000,"station_id":"ce4bhbh2rcd13ifvqepg","pricing_plan_id":"cebpf4jnsgd1na2vs0mg"},{"bike_id":"b051df75-caa2-45fa-b1eb-3ed4fc4e7456","system_id":"levelo_inurba_marseille","lat":43.28424,"lon":5.3499,"is_reserved":false,"is_disabled":false,"rental_uris":{"android":"levelo://app?vid=b051df75-caa2-45fa-b1eb-3ed4fc4e7456","ios":"levelo://app?vid=b051df75-caa2-45fa-b1eb-3ed4fc4e7456"},"vehicle_type_id":"4","last_reported":1716127634,"current_range_meters":4400,"station_id":"ce4bhbh2rcd13ifvqepg","pricing_plan_id":"cebpf4jnsgd1na2vs0mg"},{"bike_id":"6152e0bd-f31e-4377-b81a-51bbe1f88fd3","system_id":"levelo_inurba_marseille","lat":43.284238,"lon":5.349875,"is_reserved":false,"is_disabled":false,"rental_uris":{"android":"levelo://app?vid=6152e0bd-f31e-4377-b81a-51bbe1f88fd3","ios":"levelo://app?vid=6152e0bd-f31e-4377-b81a-51bbe1f88fd3"},"vehicle_type_id":"4","last_reported":1716127634,"current_range_meters":15200,"station_id":"ce4bhbh2rcd13ifvqepg","pricing_plan_id":"cebpf4jnsgd1na2vs0mg"},{"bike_id":"0a950479-ffba-4249-99b7-8132d1698b1d","system_id":"levelo_inurba_marseille","lat":43.28424,"lon":5.34986,"is_reserved":false,"is_disabled":false,"rental_uris":{"android":"levelo://app?vid=0a950479-ffba-4249-99b7-8132d1698b1d","ios":"levelo://app?vid=0a950479-ffba-4249-99b7-8132d1698b1d"},"vehicle_type_id":"4","last_reported":1716127634,"current_range_meters":12800,"station_id":"ce4bhbh2rcd13ifvqepg","pricing_plan_id":"cebpf4jnsgd1na2vs0mg"},{"bike_id":"00ac9133-0c4f-4ca6-9d6a-22ce37089ef5","system_id":"levelo_inurba_marseille","lat":43.28422,"lon":5.3499,"is_reserved":false,"is_disabled":false,"rental_uris":{"android":"levelo://app?vid=00ac9133-0c4f-4ca6-9d6a-22ce37089ef5","ios":"levelo://app?vid=00ac9133-0c4f-4ca6-9d6a-22ce37089ef5"},"vehicle_type_id":"4","last_reported":1716127634,"current_range_meters":17200,"station_id":"ce4bhbh2rcd13ifvqepg","pricing_plan_id":"cebpf4jnsgd1na2vs0mg"},{"bike_id":"2ec35f2a-6c20-43dc-bca3-0358eabf0b29","system_id":"levelo_inurba_marseille","lat":43.28423,"lon":5.34983,"is_reserved":false,"is_disabled":false,"rental_uris":{"android":"levelo://app?vid=2ec35f2a-6c20-43dc-bca3-0358eabf0b29","ios":"levelo://app?vid=2ec35f2a-6c20-43dc-bca3-0358eabf0b29"},"vehicle_type_id":"4","last_reported":1716127634,"current_range_meters":29600,"station_id":"ce4bhbh2rcd13ifvqepg","pricing_plan_id":"cebpf4jnsgd1na2vs0mg"},{"bike_id":"6b91ee64-469c-42df-85d6-39e65d2fbc76","system_id":"levelo_inurba_marseille","lat":43.28421,"lon":5.34989,"is_reserved":false,"is_disabled":false,"rental_uris":{"android":"levelo://app?vid=6b91ee64-469c-42df-85d6-39e65d2fbc76","ios":"levelo://app?vid=6b91ee64-469c-42df-85d6-39e65d2fbc76"},"vehicle_type_id":"4","last_reported":1716127634,"current_range_meters":18800,"station_id":"ce4bhbh2rcd13ifvqepg","pricing_plan_id":"cebpf4jnsgd1na2vs0mg"},{"bike_id":"97c1637f-5b01-4d05-bc46-7244de7afaf5","system_id":"levelo_inurba_marseille","lat":43.284234,"lon":5.349808,"is_reserved":false,"is_disabled":false,"rental_uris":{"android":"levelo://app?vid=97c1637f-5b01-4d05-bc46-7244de7afaf5","ios":"levelo://app?vid=97c1637f-5b01-4d05-bc46-7244de7afaf5"},"vehicle_type_id":"4","last_reported":1716127634,"current_range_meters":0,"station_id":"ce4bhbh2rcd13ifvqepg","pricing_plan_id":"cebpf4jnsgd1na2vs0mg"},{"bike_id":"8caa2500-65a4-4220-a28c-81bd8a2e40a6","system_id":"levelo_inurba_marseille","lat":43.284219,"lon":5.3497,"is_reserved":false,"is_disabled":false,"rental_uris":{"android":"levelo://app?vid=8caa2500-65a4-4220-a28c-81bd8a2e40a6","ios":"levelo://app?vid=8caa2500-65a4-4220-a28c-81bd8a2e40a6"},"vehicle_type_id":"4","last_reported":1716127634,"current_range_meters":21200,"station_id":"ce4bhbh2rcd13ifvqepg","pricing_plan_id":"cebpf4jnsgd1na2vs0mg"},{"bike_id":"b8c91c96-d942-44a5-adf1-222cd25e89ef","system_id":"levelo_inurba_marseille","lat":43.284219,"lon":5.3497,"is_reserved":false,"is_disabled":false,"rental_uris":{"android":"levelo://app?vid=b8c91c96-d942-44a5-adf1-222cd25e89ef","ios":"levelo://app?vid=b8c91c96-d942-44a5-adf1-222cd25e89ef"},"vehicle_type_id":"4","last_reported":1716127634,"current_range_meters":21600,"station_id":"ce4bhbh2rcd13ifvqepg","pricing_plan_id":"cebpf4jnsgd1na2vs0mg"},{"bike_id":"3f922d88-8eab-45f3-93f8-79a28efc56b2","system_id":"levelo_inurba_marseille","lat":43.284219,"lon":5.3497,"is_reserved":false,"is_disabled":false,"rental_uris":{"android":"levelo://app?vid=3f922d88-8eab-45f3-93f8-79a28efc56b2","ios":"levelo://app?vid=3f922d88-8eab-45f3-93f8-79a28efc56b2"},"vehicle_type_id":"4","last_reported":1716127634,"current_range_meters":25200,"station_id":"ce4bhbh2rcd13ifvqepg","pricing_plan_id":"cebpf4jnsgd1na2vs0mg"},{"bike_id":"3cdf73ca-4ba8-4430-809a-a3ff92b93285","system_id":"levelo_inurba_marseille","lat":43.284212,"lon":5.34983,"is_reserved":false,"is_disabled":false,"rental_uris":{"android":"levelo://app?vid=3cdf73ca-4ba8-4430-809a-a3ff92b93285","ios":"levelo://app?vid=3cdf73ca-4ba8-4430-809a-a3ff92b93285"},"vehicle_type_id":"4","last_reported":1716127634,"current_range_meters":16800,"station_id":"ce4bhbh2rcd13ifvqepg","pricing_plan_id":"cebpf4jnsgd1na2vs0mg"},{"bike_id":"04ef84c7-3280-437c-a97e-3cc07edd2a54","system_id":"levelo_inurba_marseille","lat":43.297107,"lon":5.403913,"is_reserved":false,"is_disabled":false,"rental_uris":{"android":"levelo://app?vid=04ef84c7-3280-437c-a97e-3cc07edd2a54","ios":"levelo://app?vid=04ef84c7-3280-437c-a97e-3cc07edd2a54"},"vehicle_type_id":"4","last_reported":1716127634,"current_range_meters":17200,"station_id":"","pricing_plan_id":"cebpf4jnsgd1na2vs0mg"},{"bike_id":"ff77d0c9-5e1b-43f7-856d-523c571fe564","system_id":"levelo_inurba_marseille","lat":43.2842,"lon":5.34984,"is_reserved":false,"is_disabled":false,"rental_uris":{"android":"levelo://app?vid=ff77d0c9-5e1b-43f7-856d-523c571fe564","ios":"levelo://app?vid=ff77d0c9-5e1b-43f7-856d-523c571fe564"},"vehicle_type_id":"4","last_reported":1716127634,"current_range_meters":11200,"station_id":"ce4bhbh2rcd13ifvqepg","pricing_plan_id":"cebpf4jnsgd1na2vs0mg"},{"bike_id":"1934cc4f-591c-410b-9b47-9e378007d485","system_id":"levelo_inurba_marseille","lat":43.28421,"lon":5.3498,"is_reserved":false,"is_disabled":false,"rental_uris":{"android":"levelo://app?vid=1934cc4f-591c-410b-9b47-9e378007d485","ios":"levelo://app?vid=1934cc4f-591c-410b-9b47-9e378007d485"},"vehicle_type_id":"4","last_reported":1716127634,"current_range_meters":23200,"station_id":"ce4bhbh2rcd13ifvqepg","pricing_plan_id":"cebpf4jnsgd1na2vs0mg"},{"bike_id":"84cbad19-a181-4793-8737-8afbbc31cc1e","system_id":"levelo_inurba_marseille","lat":43.284219,"lon":5.3497,"is_reserved":false,"is_disabled":false,"rental_uris":{"android":"levelo://app?vid=84cbad19-a181-4793-8737-8afbbc31cc1e","ios":"levelo://app?vid=84cbad19-a181-4793-8737-8afbbc31cc1e"},"vehicle_type_id":"4","last_reported":1716127634,"current_range_meters":18400,"station_id":"ce4bhbh2rcd13ifvqepg","pricing_plan_id":"cebpf4jnsgd1na2vs0mg"},{"bike_id":"5900f79e-d3b2-4932-ab89-be2c04f3a58f","system_id":"levelo_inurba_marseille","lat":43.28417,"lon":5.34992,"is_reserved":false,"is_disabled":false,"rental_uris":{"android":"levelo://app?vid=5900f79e-d3b2-4932-ab89-be2c04f3a58f","ios":"levelo://app?vid=5900f79e-d3b2-4932-ab89-be2c04f3a58f"},"vehicle_type_id":"4","last_reported":1716127634,"current_range_meters":0,"station_id":"ce4bhbh2rcd13ifvqepg","pricing_plan_id":"cebpf4jnsgd1na2vs0mg"},{"bike_id":"a0e4a82a-8820-46d2-94a5-fadd4bd5088e","system_id":"levelo_inurba_marseille","lat":43.284163,"lon":5.34994,"is_reserved":false,"is_disabled":false,"rental_uris":{"android":"levelo://app?vid=a0e4a82a-8820-46d2-94a5-fadd4bd5088e","ios":"levelo://app?vid=a0e4a82a-8820-46d2-94a5-fadd4bd5088e"},"vehicle_type_id":"4","last_reported":1716127634,"current_range_meters":18400,"station_id":"ce4bhbh2rcd13ifvqepg","pricing_plan_id":"cebpf4jnsgd1na2vs0mg"},{"bike_id":"f953492c-2950-4bd8-b476-abd6e69a4afd","system_id":"levelo_inurba_marseille","lat":43.28418,"lon":5.34988,"is_reserved":false,"is_disabled":false,"rental_uris":{"android":"levelo://app?vid=f953492c-2950-4bd8-b476-abd6e69a4afd","ios":"levelo://app?vid=f953492c-2950-4bd8-b476-abd6e69a4afd"},"vehicle_type_id":"4","last_reported":1716127634,"current_range_meters":28400,"station_id":"ce4bhbh2rcd13ifvqepg","pricing_plan_id":"cebpf4jnsgd1na2vs0mg"},{"bike_id":"8ee96f92-be3b-4a05-8554-d54d1a6d4cd3","system_id":"levelo_inurba_marseille","lat":43.284165,"lon":5.349928,"is_reserved":false,"is_disabled":false,"rental_uris":{"android":"levelo://app?vid=8ee96f92-be3b-4a05-8554-d54d1a6d4cd3","ios":"levelo://app?vid=8ee96f92-be3b-4a05-8554-d54d1a6d4cd3"},"vehicle_type_id":"4","last_reported":1716127634,"current_range_meters":13200,"station_id":"ce4bhbh2rcd13ifvqepg","pricing_plan_id":"cebpf4jnsgd1na2vs0mg"},{"bike_id":"4d839b9a-e674-4666-9b41-91c3caa576d3","system_id":"levelo_inurba_marseille","lat":43.284192,"lon":5.34984,"is_reserved":false,"is_disabled":false,"rental_uris":{"android":"levelo://app?vid=4d839b9a-e674-4666-9b41-91c3caa576d3","ios":"levelo://app?vid=4d839b9a-e674-4666-9b41-91c3caa576d3"},"vehicle_type_id":"4","last_reported":1716127634,"current_range_meters":5600,"station_id":"ce4bhbh2rcd13ifvqepg","pricing_plan_id":"cebpf4jnsgd1na2vs0mg"},{"bike_id":"75a82e3b-cd9c-48d2-abfa-f16395803981","system_id":"levelo_inurba_marseille","lat":43.28421,"lon":5.34978,"is_reserved":false,"is_disabled":false,"rental_uris":{"android":"levelo://app?vid=75a82e3b-cd9c-48d2-abfa-f16395803981","ios":"levelo://app?vid=75a82e3b-cd9c-48d2-abfa-f16395803981"},"vehicle_type_id":"4","last_reported":1716127634,"current_range_meters":0,"station_id":"ce4bhbh2rcd13ifvqepg","pricing_plan_id":"cebpf4jnsgd1na2vs0mg"},{"bike_id":"e2951c5f-7c77-4049-8977-aa29db80f45e","system_id":"levelo_inurba_marseille","lat":43.28419,"lon":5.34984,"is_reserved":false,"is_disabled":false,"rental_uris":{"android":"levelo://app?vid=e2951c5f-7c77-4049-8977-aa29db80f45e","ios":"levelo://app?vid=e2951c5f-7c77-4049-8977-aa29db80f45e"},"vehicle_type_id":"4","last_reported":1716127634,"current_range_meters":21600,"station_id":"ce4bhbh2rcd13ifvqepg","pricing_plan_id":"cebpf4jnsgd1na2vs0mg"},{"bike_id":"e0638707-7ea7-4a20-81ea-102d82ceed02","system_id":"levelo_inurba_marseille","lat":43.284191,"lon":5.349805,"is_reserved":false,"is_disabled":false,"rental_uris":{"android":"levelo://app?vid=e0638707-7ea7-4a20-81ea-102d82ceed02","ios":"levelo://app?vid=e0638707-7ea7-4a20-81ea-102d82ceed02"},"vehicle_type_id":"4","last_reported":1716127634,"current_range_meters":21200,"station_id":"ce4bhbh2rcd13ifvqepg","pricing_plan_id":"cebpf4jnsgd1na2vs0mg"},{"bike_id":"ce274695-f1e8-4114-a93f-7da10b755893","system_id":"levelo_inurba_marseille","lat":43.28421,"lon":5.34974,"is_reserved":false,"is_disabled":false,"rental_uris":{"android":"levelo://app?vid=ce274695-f1e8-4114-a93f-7da10b755893","ios":"levelo://app?vid=ce274695-f1e8-4114-a93f-7da10b755893"},"vehicle_type_id":"4","last_reported":1716127634,"current_range_meters":0,"station_id":"ce4bhbh2rcd13ifvqepg","pricing_plan_id":"cebpf4jnsgd1na2vs0mg"},{"bike_id":"d24f7628-5d73-47ee-a997-c03a690a1405","system_id":"levelo_inurba_marseille","lat":43.284167,"lon":5.349851,"is_reserved":false,"is_disabled":false,"rental_uris":{"android":"levelo://app?vid=d24f7628-5d73-47ee-a997-c03a690a1405","ios":"levelo://app?vid=d24f7628-5d73-47ee-a997-c03a690a1405"},"vehicle_type_id":"4","last_reported":1716127634,"current_range_meters":31200,"station_id":"ce4bhbh2rcd13ifvqepg","pricing_plan_id":"cebpf4jnsgd1na2vs0mg"},{"bike_id":"c1508df7-bd0a-443b-8fa6-65c2fe0344a1","system_id":"levelo_inurba_marseille","lat":43.28419,"lon":5.34977,"is_reserved":false,"is_disabled":false,"rental_uris":{"android":"levelo://app?vid=c1508df7-bd0a-443b-8fa6-65c2fe0344a1","ios":"levelo://app?vid=c1508df7-bd0a-443b-8fa6-65c2fe0344a1"},"vehicle_type_id":"4","last_reported":1716127634,"current_range_meters":18400,"station_id":"ce4bhbh2rcd13ifvqepg","pricing_plan_id":"cebpf4jnsgd1na2vs0mg"},{"bike_id":"8f827648-110a-44af-8e25-caed84dbff74","system_id":"levelo_inurba_marseille","lat":43.284195,"lon":5.34975,"is_reserved":false,"is_disabled":false,"rental_uris":{"android":"levelo://app?vid=8f827648-110a-44af-8e25-caed84dbff74","ios":"levelo://app?vid=8f827648-110a-44af-8e25-caed84dbff74"},"vehicle_type_id":"4","last_reported":1716127634,"current_range_meters":0,"station_id":"ce4bhbh2rcd13ifvqepg","pricing_plan_id":"cebpf4jnsgd1na2vs0mg"},{"bike_id":"d0641dbc-c77d-4b4c-b365-95036ea7052f","system_id":"levelo_inurba_marseille","lat":43.284182,"lon":5.349788,"is_reserved":false,"is_disabled":false,"rental_uris":{"android":"levelo://app?vid=d0641dbc-c77d-4b4c-b365-95036ea7052f","ios":"levelo://app?vid=d0641dbc-c77d-4b4c-b365-95036ea7052f"},"vehicle_type_id":"4","last_reported":1716127634,"current_range_meters":14400,"station_id":"ce4bhbh2rcd13ifvqepg","pricing_plan_id":"cebpf4jnsgd1na2vs0mg"},{"bike_id":"7e2cbfa5-7a4c-438c-b871-38a6528e9a8f","system_id":"levelo_inurba_marseille","lat":43.28417,"lon":5.34982,"is_reserved":false,"is_disabled":false,"rental_uris":{"android":"levelo://app?vid=7e2cbfa5-7a4c-438c-b871-38a6528e9a8f","ios":"levelo://app?vid=7e2cbfa5-7a4c-438c-b871-38a6528e9a8f"},"vehicle_type_id":"4","last_reported":1716127634,"current_range_meters":14400,"station_id":"ce4bhbh2rcd13ifvqepg","pricing_plan_id":"cebpf4jnsgd1na2vs0mg"},{"bike_id":"5ccb5e9f-2381-42aa-aafc-2b32f415281b","system_id":"levelo_inurba_marseille","lat":43.28413,"lon":5.34992,"is_reserved":false,"is_disabled":false,"rental_uris":{"android":"levelo://app?vid=5ccb5e9f-2381-42aa-aafc-2b32f415281b","ios":"levelo://app?vid=5ccb5e9f-2381-42aa-aafc-2b32f415281b"},"vehicle_type_id":"4","last_reported":1716127634,"current_range_meters":7600,"station_id":"ce4bhbh2rcd13ifvqepg","pricing_plan_id":"cebpf4jnsgd1na2vs0mg"},{"bike_id":"92f9de07-e02f-44a5-a12f-614f060b6dd9","system_id":"levelo_inurba_marseille","lat":43.28417,"lon":5.34979,"is_reserved":false,"is_disabled":false,"rental_uris":{"android":"levelo://app?vid=92f9de07-e02f-44a5-a12f-614f060b6dd9","ios":"levelo://app?vid=92f9de07-e02f-44a5-a12f-614f060b6dd9"},"vehicle_type_id":"4","last_reported":1716127634,"current_range_meters":25600,"station_id":"ce4bhbh2rcd13ifvqepg","pricing_plan_id":"cebpf4jnsgd1na2vs0mg"},{"bike_id":"01d599fc-c0f6-4f69-b020-4c03b449a0ab","system_id":"levelo_inurba_marseille","lat":43.28413,"lon":5.34991,"is_reserved":false,"is_disabled":false,"rental_uris":{"android":"levelo://app?vid=01d599fc-c0f6-4f69-b020-4c03b449a0ab","ios":"levelo://app?vid=01d599fc-c0f6-4f69-b020-4c03b449a0ab"},"vehicle_type_id":"4","last_reported":1716127634,"current_range_meters":0,"station_id":"ce4bhbh2rcd13ifvqepg","pricing_plan_id":"cebpf4jnsgd1na2vs0mg"},{"bike_id":"d87e4ce9-39f1-4d4f-ad80-8939f0139eef","system_id":"levelo_inurba_marseille","lat":43.28413,"lon":5.34989,"is_reserved":false,"is_disabled":false,"rental_uris":{"android":"levelo://app?vid=d87e4ce9-39f1-4d4f-ad80-8939f0139eef","ios":"levelo://app?vid=d87e4ce9-39f1-4d4f-ad80-8939f0139eef"},"vehicle_type_id":"4","last_reported":1716127634,"current_range_meters":13600,"station_id":"ce4bhbh2rcd13ifvqepg","pricing_plan_id":"cebpf4jnsgd1na2vs0mg"},{"bike_id":"797a97b2-d1ab-465d-aa18-2720edab5c6e","system_id":"levelo_inurba_marseille","lat":43.28412,"lon":5.34991,"is_reserved":false,"is_disabled":false,"rental_uris":{"android":"levelo://app?vid=797a97b2-d1ab-465d-aa18-2720edab5c6e","ios":"levelo://app?vid=797a97b2-d1ab-465d-aa18-2720edab5c6e"},"vehicle_type_id":"4","last_reported":1716127634,"current_range_meters":21200,"station_id":"ce4bhbh2rcd13ifvqepg","pricing_plan_id":"cebpf4jnsgd1na2vs0mg"},{"bike_id":"cdb85bd2-99f5-49f2-b24c-be4d4161c5c3","system_id":"levelo_inurba_marseille","lat":43.28411,"lon":5.34992,"is_reserved":false,"is_disabled":false,"rental_uris":{"android":"levelo://app?vid=cdb85bd2-99f5-49f2-b24c-be4d4161c5c3","ios":"levelo://app?vid=cdb85bd2-99f5-49f2-b24c-be4d4161c5c3"},"vehicle_type_id":"4","last_reported":1716127634,"current_range_meters":19600,"station_id":"ce4bhbh2rcd13ifvqepg","pricing_plan_id":"cebpf4jnsgd1na2vs0mg"},{"bike_id":"3139048e-bef7-4139-af0f-b2177fe8726a","system_id":"levelo_inurba_marseille","lat":43.28414,"lon":5.34982,"is_reserved":false,"is_disabled":false,"rental_uris":{"android":"levelo://app?vid=3139048e-bef7-4139-af0f-b2177fe8726a","ios":"levelo://app?vid=3139048e-bef7-4139-af0f-b2177fe8726a"},"vehicle_type_id":"4","last_reported":1716127634,"current_range_meters":10400,"station_id":"ce4bhbh2rcd13ifvqepg","pricing_plan_id":"cebpf4jnsgd1na2vs0mg"},{"bike_id":"9ec72623-c7e3-4dd6-b7cd-8e58dcda80ea","system_id":"levelo_inurba_marseille","lat":43.284214,"lon":5.349706,"is_reserved":false,"is_disabled":false,"rental_uris":{"android":"levelo://app?vid=9ec72623-c7e3-4dd6-b7cd-8e58dcda80ea","ios":"levelo://app?vid=9ec72623-c7e3-4dd6-b7cd-8e58dcda80ea"},"vehicle_type_id":"4","last_reported":1716127634,"current_range_meters":31200,"station_id":"ce4bhbh2rcd13ifvqepg","pricing_plan_id":"cebpf4jnsgd1na2vs0mg"},{"bike_id":"743067cd-72ec-477f-a1d1-2776e9e27cc5","system_id":"levelo_inurba_marseille","lat":43.28414,"lon":5.34981,"is_reserved":false,"is_disabled":false,"rental_uris":{"android":"levelo://app?vid=743067cd-72ec-477f-a1d1-2776e9e27cc5","ios":"levelo://app?vid=743067cd-72ec-477f-a1d1-2776e9e27cc5"},"vehicle_type_id":"4","last_reported":1716127634,"current_range_meters":20000,"station_id":"ce4bhbh2rcd13ifvqepg","pricing_plan_id":"cebpf4jnsgd1na2vs0mg"},{"bike_id":"b3c91cc0-5f81-4faf-9980-2e40df1e4ada","system_id":"levelo_inurba_marseille","lat":43.28415,"lon":5.34975,"is_reserved":false,"is_disabled":false,"rental_uris":{"android":"levelo://app?vid=b3c91cc0-5f81-4faf-9980-2e40df1e4ada","ios":"levelo://app?vid=b3c91cc0-5f81-4faf-9980-2e40df1e4ada"},"vehicle_type_id":"4","last_reported":1716127634,"current_range_meters":21600,"station_id":"ce4bhbh2rcd13ifvqepg","pricing_plan_id":"cebpf4jnsgd1na2vs0mg"},{"bike_id":"acc89e86-61fa-48bb-af5c-2af568efd349","system_id":"levelo_inurba_marseille","lat":43.28415,"lon":5.34974,"is_reserved":false,"is_disabled":false,"rental_uris":{"android":"levelo://app?vid=acc89e86-61fa-48bb-af5c-2af568efd349","ios":"levelo://app?vid=acc89e86-61fa-48bb-af5c-2af568efd349"},"vehicle_type_id":"4","last_reported":1716127634,"current_range_meters":30800,"station_id":"ce4bhbh2rcd13ifvqepg","pricing_plan_id":"cebpf4jnsgd1na2vs0mg"},{"bike_id":"5233fca5-1148-463f-9147-574c2a0f41ee","system_id":"levelo_inurba_marseille","lat":43.28415,"lon":5.34971,"is_reserved":false,"is_disabled":false,"rental_uris":{"android":"levelo://app?vid=5233fca5-1148-463f-9147-574c2a0f41ee","ios":"levelo://app?vid=5233fca5-1148-463f-9147-574c2a0f41ee"},"vehicle_type_id":"4","last_reported":1716127634,"current_range_meters":18400,"station_id":"ce4bhbh2rcd13ifvqepg","pricing_plan_id":"cebpf4jnsgd1na2vs0mg"},{"bike_id":"936ae0ae-f9d6-4dd9-b648-e004bae63429","system_id":"levelo_inurba_marseille","lat":43.28413,"lon":5.34975,"is_reserved":false,"is_disabled":false,"rental_uris":{"android":"levelo://app?vid=936ae0ae-f9d6-4dd9-b648-e004bae63429","ios":"levelo://app?vid=936ae0ae-f9d6-4dd9-b648-e004bae63429"},"vehicle_type_id":"4","last_reported":1716127634,"current_range_meters":13200,"station_id":"ce4bhbh2rcd13ifvqepg","pricing_plan_id":"cebpf4jnsgd1na2vs0mg"},{"bike_id":"117195b8-90c3-4933-b170-387c4c61ee01","system_id":"levelo_inurba_marseille","lat":43.284113,"lon":5.349803,"is_reserved":false,"is_disabled":false,"rental_uris":{"android":"levelo://app?vid=117195b8-90c3-4933-b170-387c4c61ee01","ios":"levelo://app?vid=117195b8-90c3-4933-b170-387c4c61ee01"},"vehicle_type_id":"4","last_reported":1716127634,"current_range_meters":24000,"station_id":"ce4bhbh2rcd13ifvqepg","pricing_plan_id":"cebpf4jnsgd1na2vs0mg"},{"bike_id":"5e01f456-39a2-40ab-86db-fbd882c07d49","system_id":"levelo_inurba_marseille","lat":43.28413,"lon":5.34974,"is_reserved":false,"is_disabled":false,"rental_uris":{"android":"levelo://app?vid=5e01f456-39a2-40ab-86db-fbd882c07d49","ios":"levelo://app?vid=5e01f456-39a2-40ab-86db-fbd882c07d49"},"vehicle_type_id":"4","last_reported":1716127634,"current_range_meters":23200,"station_id":"ce4bhbh2rcd13ifvqepg","pricing_plan_id":"cebpf4jnsgd1na2vs0mg"},{"bike_id":"38fa7e5d-e894-411e-8c64-bca823c875ac","system_id":"levelo_inurba_marseille","lat":43.2841,"lon":5.3498,"is_reserved":false,"is_disabled":false,"rental_uris":{"android":"levelo://app?vid=38fa7e5d-e894-411e-8c64-bca823c875ac","ios":"levelo://app?vid=38fa7e5d-e894-411e-8c64-bca823c875ac"},"vehicle_type_id":"4","last_reported":1716127634,"current_range_meters":0,"station_id":"ce4bhbh2rcd13ifvqepg","pricing_plan_id":"cebpf4jnsgd1na2vs0mg"},{"bike_id":"6a9740ed-0253-46ef-bf54-f7718eccc2b9","system_id":"levelo_inurba_marseille","lat":43.284104,"lon":5.349781,"is_reserved":false,"is_disabled":false,"rental_uris":{"android":"levelo://app?vid=6a9740ed-0253-46ef-bf54-f7718eccc2b9","ios":"levelo://app?vid=6a9740ed-0253-46ef-bf54-f7718eccc2b9"},"vehicle_type_id":"4","last_reported":1716127634,"current_range_meters":18800,"station_id":"ce4bhbh2rcd13ifvqepg","pricing_plan_id":"cebpf4jnsgd1na2vs0mg"},{"bike_id":"cdb547a7-0948-44e7-a1fa-a734739edf85","system_id":"levelo_inurba_marseille","lat":43.28411,"lon":5.34976,"is_reserved":false,"is_disabled":false,"rental_uris":{"android":"levelo://app?vid=cdb547a7-0948-44e7-a1fa-a734739edf85","ios":"levelo://app?vid=cdb547a7-0948-44e7-a1fa-a734739edf85"},"vehicle_type_id":"4","last_reported":1716127634,"current_range_meters":7200,"station_id":"ce4bhbh2rcd13ifvqepg","pricing_plan_id":"cebpf4jnsgd1na2vs0mg"},{"bike_id":"ddbd7ba2-6c86-4cbd-88a0-fd59a2d6091b","system_id":"levelo_inurba_marseille","lat":43.284076,"lon":5.349812,"is_reserved":false,"is_disabled":false,"rental_uris":{"android":"levelo://app?vid=ddbd7ba2-6c86-4cbd-88a0-fd59a2d6091b","ios":"levelo://app?vid=ddbd7ba2-6c86-4cbd-88a0-fd59a2d6091b"},"vehicle_type_id":"4","last_reported":1716127634,"current_range_meters":1600,"station_id":"","pricing_plan_id":"cebpf4jnsgd1na2vs0mg"},{"bike_id":"7f4936cd-19d8-4523-a002-5e0b13071efd","system_id":"levelo_inurba_marseille","lat":43.28406,"lon":5.34983,"is_reserved":false,"is_disabled":false,"rental_uris":{"android":"levelo://app?vid=7f4936cd-19d8-4523-a002-5e0b13071efd","ios":"levelo://app?vid=7f4936cd-19d8-4523-a002-5e0b13071efd"},"vehicle_type_id":"4","last_reported":1716127634,"current_range_meters":8400,"station_id":"ce4bhbh2rcd13ifvqepg","pricing_plan_id":"cebpf4jnsgd1na2vs0mg"},{"bike_id":"abc879a9-7034-41ff-ba74-2368e5e9e099","system_id":"levelo_inurba_marseille","lat":43.28082,"lon":5.36811,"is_reserved":false,"is_disabled":false,"rental_uris":{"android":"levelo://app?vid=abc879a9-7034-41ff-ba74-2368e5e9e099","ios":"levelo://app?vid=abc879a9-7034-41ff-ba74-2368e5e9e099"},"vehicle_type_id":"4","last_reported":1716127634,"current_range_meters":10000,"station_id":"","pricing_plan_id":"cebpf4jnsgd1na2vs0mg"},{"bike_id":"cb47cf88-2fb6-4383-bf50-0fd4fb053a70","system_id":"levelo_inurba_marseille","lat":43.292724,"lon":5.401131,"is_reserved":false,"is_disabled":false,"rental_uris":{"android":"levelo://app?vid=cb47cf88-2fb6-4383-bf50-0fd4fb053a70","ios":"levelo://app?vid=cb47cf88-2fb6-4383-bf50-0fd4fb053a70"},"vehicle_type_id":"4","last_reported":1716127634,"current_range_meters":16000,"station_id":"ce4bh312rcd13ifvqdk0","pricing_plan_id":"cebpf4jnsgd1na2vs0mg"},{"bike_id":"45e01a36-a377-4ed1-8624-aa7e4f338779","system_id":"levelo_inurba_marseille","lat":43.280623,"lon":5.368593,"is_reserved":false,"is_disabled":false,"rental_uris":{"android":"levelo://app?vid=45e01a36-a377-4ed1-8624-aa7e4f338779","ios":"levelo://app?vid=45e01a36-a377-4ed1-8624-aa7e4f338779"},"vehicle_type_id":"4","last_reported":1716127634,"current_range_meters":14000,"station_id":"","pricing_plan_id":"cebpf4jnsgd1na2vs0mg"},{"bike_id":"27f7030e-4fa4-4c07-9bfb-3b576dcb91e1","system_id":"levelo_inurba_marseille","lat":43.282744,"lon":5.350533,"is_reserved":false,"is_disabled":false,"rental_uris":{"android":"levelo://app?vid=27f7030e-4fa4-4c07-9bfb-3b576dcb91e1","ios":"levelo://app?vid=27f7030e-4fa4-4c07-9bfb-3b576dcb91e1"},"vehicle_type_id":"4","last_reported":1716127634,"current_range_meters":0,"station_id":"ce4bhbp2rcd13ifvqerg","pricing_plan_id":"cebpf4jnsgd1na2vs0mg"},{"bike_id":"d2db513b-0b24-4fc4-b16b-fc20b50167ea","system_id":"levelo_inurba_marseille","lat":43.282744,"lon":5.350533,"is_reserved":false,"is_disabled":false,"rental_uris":{"android":"levelo://app?vid=d2db513b-0b24-4fc4-b16b-fc20b50167ea","ios":"levelo://app?vid=d2db513b-0b24-4fc4-b16b-fc20b50167ea"},"vehicle_type_id":"4","last_reported":1716127634,"current_range_meters":15600,"station_id":"ce4bhbp2rcd13ifvqerg","pricing_plan_id":"cebpf4jnsgd1na2vs0mg"},{"bike_id":"7f418cde-512e-43dc-9415-68536a0f3cf5","system_id":"levelo_inurba_marseille","lat":43.282744,"lon":5.350533,"is_reserved":false,"is_disabled":false,"rental_uris":{"android":"levelo://app?vid=7f418cde-512e-43dc-9415-68536a0f3cf5","ios":"levelo://app?vid=7f418cde-512e-43dc-9415-68536a0f3cf5"},"vehicle_type_id":"4","last_reported":1716127634,"current_range_meters":10800,"station_id":"ce4bhbp2rcd13ifvqerg","pricing_plan_id":"cebpf4jnsgd1na2vs0mg"},{"bike_id":"829be5f1-1200-4463-afd8-dbd1e9acbd85","system_id":"levelo_inurba_marseille","lat":43.282744,"lon":5.350533,"is_reserved":false,"is_disabled":false,"rental_uris":{"android":"levelo://app?vid=829be5f1-1200-4463-afd8-dbd1e9acbd85","ios":"levelo://app?vid=829be5f1-1200-4463-afd8-dbd1e9acbd85"},"vehicle_type_id":"4","last_reported":1716127634,"current_range_meters":15600,"station_id":"ce4bhbp2rcd13ifvqerg","pricing_plan_id":"cebpf4jnsgd1na2vs0mg"},{"bike_id":"a43a6e51-271d-4f72-b6f5-bf714ccfdb16","system_id":"levelo_inurba_marseille","lat":43.282744,"lon":5.350533,"is_reserved":false,"is_disabled":false,"rental_uris":{"android":"levelo://app?vid=a43a6e51-271d-4f72-b6f5-bf714ccfdb16","ios":"levelo://app?vid=a43a6e51-271d-4f72-b6f5-bf714ccfdb16"},"vehicle_type_id":"4","last_reported":1716127634,"current_range_meters":21600,"station_id":"ce4bhbp2rcd13ifvqerg","pricing_plan_id":"cebpf4jnsgd1na2vs0mg"},{"bike_id":"8f7b3406-0a6c-484d-88dd-788ad167084d","system_id":"levelo_inurba_marseille","lat":43.2827,"lon":5.350696,"is_reserved":false,"is_disabled":false,"rental_uris":{"android":"levelo://app?vid=8f7b3406-0a6c-484d-88dd-788ad167084d","ios":"levelo://app?vid=8f7b3406-0a6c-484d-88dd-788ad167084d"},"vehicle_type_id":"4","last_reported":1716127634,"current_range_meters":9600,"station_id":"ce4bhbp2rcd13ifvqerg","pricing_plan_id":"cebpf4jnsgd1na2vs0mg"},{"bike_id":"a6eecb75-38e2-41ea-8950-3962092889d6","system_id":"levelo_inurba_marseille","lat":43.282744,"lon":5.350533,"is_reserved":false,"is_disabled":false,"rental_uris":{"android":"levelo://app?vid=a6eecb75-38e2-41ea-8950-3962092889d6","ios":"levelo://app?vid=a6eecb75-38e2-41ea-8950-3962092889d6"},"vehicle_type_id":"4","last_reported":1716127634,"current_range_meters":22800,"station_id":"ce4bhbp2rcd13ifvqerg","pricing_plan_id":"cebpf4jnsgd1na2vs0mg"},{"bike_id":"2e1e1a88-1941-4251-923e-f2d63b0a77a7","system_id":"levelo_inurba_marseille","lat":43.282744,"lon":5.350533,"is_reserved":false,"is_disabled":false,"rental_uris":{"android":"levelo://app?vid=2e1e1a88-1941-4251-923e-f2d63b0a77a7","ios":"levelo://app?vid=2e1e1a88-1941-4251-923e-f2d63b0a77a7"},"vehicle_type_id":"4","last_reported":1716127634,"current_range_meters":1200,"station_id":"ce4bhbp2rcd13ifvqerg","pricing_plan_id":"cebpf4jnsgd1na2vs0mg"},