{"last_updated":1687979164,"ttl":30,"version":"2.2","data":{"bikes":[{"bike_id":"666c1415-28e9-4944-87f5-29a628446c75","system_id":"levelo_inurba_marseille","lat":43.312239,"lon":5.368562,"is_reserved":false,"is_disabled":false,"rental_uris":{"android":"levelo://app?vid=666c1415-28e9-4944-87f5-29a628446c75","ios":"levelo://app?vid=666c1415-28e9-4944-87f5-29a628446c75"},"vehicle_type_id":"4","last_reported":1687979165,"current_range_meters":31200,"station_id":"ce4bgl92rcd13ifvqbq0","pricing_plan_id":"free"},{"bike_id":"1124988c-d9aa-4af2-ad5d-e1e883508791","system_id":"levelo_inurba_marseille","lat":43.314811,"lon":5.373104,"is_reserved":false,"is_disabled":false,"rental_uris":{"android":"levelo://app?vid=1124988c-d9aa-4af2-ad5d-e1e883508791","ios":"levelo://app?vid=1124988c-d9aa-4af2-ad5d-e1e883508791"},"vehicle_type_id":"4","last_reported":1687979165,"current_range_meters":18400,"station_id":"ce4bgt12rcd13ifvqcd0","pricing_plan_id":"free"},{"bike_id":"a9061e76-54ad-4253-a68f-841599f83f0c","system_id":"levelo_inurba_marseille","lat":43.305714,"lon":5.365633,"is_reserved":false,"is_disabled":false,"rental_uris":{"android":"levelo://app?vid=a9061e76-54ad-4253-a68f-841599f83f0c","ios":"levelo://app?vid=a9061e76-54ad-4253-a68f-841599f83f0c"},"vehicle_type_id":"4","last_reported":1687979165,"current_range_meters":0,"station_id":"ce4bgs12rcd13ifvqcag","pricing_plan_id":"free"},{"bike_id":"e1d2edac-2794-46e2-93ae-ba2beea63b52","system_id":"levelo_inurba_marseille","lat":43.317075,"lon":5.377367,"is_reserved":false,"is_disabled":false,"rental_uris":{"android":"levelo://app?vid=e1d2edac-2794-46e2-93ae-ba2beea63b52","ios":"levelo://app?vid=e1d2edac-2794-46e2-93ae-ba2beea63b52"},"vehicle_type_id":"4","last_reported":1687979165,"current_range_meters":30000,"station_id":"ce4bgth2rcd13ifvqch0","pricing_plan_id":"free"},{"bike_id":"9a0edab8-1ce8-4319-addc-1706024b96da","system_id":"levelo_inurba_marseille","lat":43.301939,"lon":5.366286,"is_reserved":false,"is_disabled":false,"rental_uris":{"android":"levelo://app?vid=9a0edab8-1ce8-4319-addc-1706024b96da","ios":"levelo://app?vid=9a0edab8-1ce8-4319-addc-1706024b96da"},"vehicle_type_id":"4","last_reported":1687979165,"current_range_meters":0,"station_id":"ce4bgrh2rcd13ifvqc8g","pricing_plan_id":"free"},{"bike_id":"c3766f8a-85b4-428b-8be7-1bf3648b96d8","system_id":"levelo_inurba_marseille","lat":43.304606,"lon":5.379026,"is_reserved":false,"is_disabled":false,"rental_uris":{"android":"levelo://app?vid=c3766f8a-85b4-428b-8be7-1bf3648b96d8","ios":"levelo://app?vid=c3766f8a-85b4-428b-8be7-1bf3648b96d8"},"vehicle_type_id":"4","last_reported":1687979165,"current_range_meters":5200,"station_id":"ce4bgup2rcd13ifvqcn0","pricing_plan_id":"free"},{"bike_id":"4b446b36-0b3f-4ad5-90bc-f3dd4eb945cb","system_id":"levelo_inurba_marseille","lat":43.319935,"lon":5.381699,"is_reserved":false,"is_disabled":false,"rental_uris":{"android":"levelo://app?vid=4b446b36-0b3f-4ad5-90bc-f3dd4eb945cb","ios":"levelo://app?vid=4b446b36-0b3f-4ad5-90bc-f3dd4eb945cb"},"vehicle_type_id":"4","last_reported":1687979165,"current_range_meters":16800,"station_id":"ce4bhr12rcd13ifvqhpg","pricing_plan_id":"free"},{"bike_id":"03430d55-f1cc-4c73-8eae-3c41717d0d86","system_id":"levelo_inurba_marseille","lat":43.298433,"lon":5.362774,"is_reserved":false,"is_disabled":false,"rental_uris":{"android":"levelo://app?vid=03430d55-f1cc-4c73-8eae-3c41717d0d86","ios":"levelo://app?vid=03430d55-f1cc-4c73-8eae-3c41717d0d86"},"vehicle_type_id":"4","last_reported":1687979165,"current_range_meters":22400,"station_id":"ce4bgpp2rcd13ifvqc3g","pricing_plan_id":"free"},{"bike_id":"1b5d0eab-061d-4645-b36b-4ea2dbc527ce","system_id":"levelo_inurba_marseille","lat":43.298433,"lon":5.362774,"is_reserved":false,"is_disabled":false,"rental_uris":{"android":"levelo://app?vid=1b5d0eab-061d-4645-b36b-4ea2dbc527ce","ios":"levelo://app?vid=1b5d0eab-061d-4645-b36b-4ea2dbc527ce"},"vehicle_type_id":"4","last_reported":1687979165,"current_range_meters":1200,"station_id":"ce4bgpp2rcd13ifvqc3g","pricing_plan_id":"free"},{"bike_id":"52f1bd75-dc07-4b01-8c4e-9d390d6a8931","system_id":"levelo_inurba_marseille","lat":43.298433,"lon":5.362774,"is_reserved":false,"is_disabled":false,"rental_uris":{"android":"levelo://app?vid=52f1bd75-dc07-4b01-8c4e-9d390d6a8931","ios":"levelo://app?vid=52f1bd75-dc07-4b01-8c4e-9d390d6a8931"},"vehicle_type_id":"4","last_reported":1687979165,"current_range_meters":3600,"station_id":"ce4bgpp2rcd13ifvqc3g","pricing_plan_id":"free"},{"bike_id":"18b15939-4712-416e-aa17-9e4421f1baf2","system_id":"levelo_inurba_marseille","lat":43.298433,"lon":5.362774,"is_reserved":false,"is_disabled":false,"rental_uris":{"android":"levelo://app?vid=18b15939-4712-416e-aa17-9e4421f1baf2","ios":"levelo://app?vid=18b15939-4712-416e-aa17-9e4421f1baf2"},"vehicle_type_id":"4","last_reported":1687979165,"current_range_meters":5600,"station_id":"ce4bgpp2rcd13ifvqc3g","pricing_plan_id":"free"},{"bike_id":"b26299ea-6fa5-4c15-b2dd-e08b6c8ac838","system_id":"levelo_inurba_marseille","lat":43.29844,"lon":5.36267,"is_reserved":false,"is_disabled":false,"rental_uris":{"android":"levelo://app?vid=b26299ea-6fa5-4c15-b2dd-e08b6c8ac838","ios":"levelo://app?vid=b26299ea-6fa5-4c15-b2dd-e08b6c8ac838"},"vehicle_type_id":"4","last_reported":1687979165,"current_range_meters":22400,"station_id":"ce4bgpp2rcd13ifvqc3g","pricing_plan_id":"free"},{"bike_id":"e0d0291c-ec75-41db-a9f0-126642f983d8","system_id":"levelo_inurba_marseille","lat":43.29843,"lon":5.36267,"is_reserved":false,"is_disabled":false,"rental_uris":{"android":"levelo://app?vid=e0d0291c-ec75-41db-a9f0-126642f983d8","ios":"levelo://app?vid=e0d0291c-ec75-41db-a9f0-126642f983d8"},"vehicle_type_id":"4","last_reported":1687979165,"current_range_meters":15600,"station_id":"ce4bgpp2rcd13ifvqc3g","pricing_plan_id":"free"},{"bike_id":"68aab93e-df3e-4d82-9b5b-2b7de6b07aa1","system_id":"levelo_inurba_marseille","lat":43.299243,"lon":5.37481,"is_reserved":false,"is_disabled":false,"rental_uris":{"android":"levelo://app?vid=68aab93e-df3e-4d82-9b5b-2b7de6b07aa1","ios":"levelo://app?vid=68aab93e-df3e-4d82-9b5b-2b7de6b07aa1"},"vehicle_type_id":"4","last_reported":1687979165,"current_range_meters":0,"station_id":"ce4bgjh2rcd13ifvqbg0","pricing_plan_id":"free"},{"bike_id":"cb6ee532-1884-4867-bb87-51429c880696","system_id":"levelo_inurba_marseille","lat":43.299243,"lon":5.374807,"is_reserved":false,"is_disabled":false,"rental_uris":{"android":"levelo://app?vid=cb6ee532-1884-4867-bb87-51429c880696","ios":"levelo://app?vid=cb6ee532-1884-4867-bb87-51429c880696"},"vehicle_type_id":"4","last_reported":1687979165,"current_range_meters":16800,"station_id":"ce4bgjh2rcd13ifvqbg0","pricing_plan_id":"free"},{"bike_id":"0bd798ff-f9de-41c0-b39f-1c23ff58795b","system_id":"levelo_inurba_marseille","lat":43.29841,"lon":5.36264,"is_reserved":false,"is_disabled":false,"rental_uris":{"android":"levelo://app?vid=0bd798ff-f9de-41c0-b39f-1c23ff58795b","ios":"levelo://app?vid=0bd798ff-f9de-41c0-b39f-1c23ff58795b"},"vehicle_type_id":"4","last_reported":1687979165,"current_range_meters":4400,"station_id":"ce4bgpp2rcd13ifvqc3g","pricing_plan_id":"free"},{"bike_id":"f3399d83-ec82-46b3-8b33-88dc45f42672","system_id":"levelo_inurba_marseille","lat":43.29836,"lon":5.36259,"is_reserved":false,"is_disabled":false,"rental_uris":{"android":"levelo://app?vid=f3399d83-ec82-46b3-8b33-88dc45f42672","ios":"levelo://app?vid=f3399d83-ec82-46b3-8b33-88dc45f42672"},"vehicle_type_id":"4","last_reported":1687979165,"current_range_meters":17200,"station_id":"ce4bgpp2rcd13ifvqc3g","pricing_plan_id":"free"},{"bike_id":"7c098f19-bbc5-4f21-9f5f-590190b5b7d1","system_id":"levelo_inurba_marseille","lat":43.311722,"lon":5.387247,"is_reserved":false,"is_disabled":false,"rental_uris":{"android":"levelo://app?vid=7c098f19-bbc5-4f21-9f5f-590190b5b7d1","ios":"levelo://app?vid=7c098f19-bbc5-4f21-9f5f-590190b5b7d1"},"vehicle_type_id":"4","last_reported":1687979165,"current_range_meters":1200,"station_id":"ce4bgv12rcd13ifvqcp0","pricing_plan_id":"free"},{"bike_id":"d5678b86-c43a-4dee-a4c2-22f546a4ce5b","system_id":"levelo_inurba_marseille","lat":43.297794,"lon":5.370888,"is_reserved":false,"is_disabled":false,"rental_uris":{"android":"levelo://app?vid=d5678b86-c43a-4dee-a4c2-22f546a4ce5b","ios":"levelo://app?vid=d5678b86-c43a-4dee-a4c2-22f546a4ce5b"},"vehicle_type_id":"4","last_reported":1687979165,"current_range_meters":21600,"station_id":"ce4bgop2rcd13ifvqc1g","pricing_plan_id":"free"},{"bike_id":"74bda357-cc30-4292-a51a-e6ca1dea1de6","system_id":"levelo_inurba_marseille","lat":43.297774,"lon":5.370875,"is_reserved":false,"is_disabled":false,"rental_uris":{"android":"levelo://app?vid=74bda357-cc30-4292-a51a-e6ca1dea1de6","ios":"levelo://app?vid=74bda357-cc30-4292-a51a-e6ca1dea1de6"},"vehicle_type_id":"4","last_reported":1687979165,"current_range_meters":12800,"station_id":"ce4bgop2rcd13ifvqc1g","pricing_plan_id":"free"},{"bike_id":"0904879b-aa8d-4cae-a608-64fba6d89556","system_id":"levelo_inurba_marseille","lat":43.297774,"lon":5.370875,"is_reserved":false,"is_disabled":false,"rental_uris":{"android":"levelo://app?vid=0904879b-aa8d-4cae-a608-64fba6d89556","ios":"levelo://app?vid=0904879b-aa8d-4cae-a608-64fba6d89556"},"vehicle_type_id":"4","last_reported":1687979165,"current_range_meters":29600,"station_id":"ce4bgop2rcd13ifvqc1g","pricing_plan_id":"free"},{"bike_id":"86b9fb7f-a2c3-4082-9faa-7e3f901f5c30","system_id":"levelo_inurba_marseille","lat":43.328371,"lon":5.366912,"is_reserved":false,"is_disabled":false,"rental_uris":{"android":"levelo://app?vid=86b9fb7f-a2c3-4082-9faa-7e3f901f5c30","ios":"levelo://app?vid=86b9fb7f-a2c3-4082-9faa-7e3f901f5c30"},"vehicle_type_id":"4","last_reported":1687979165,"current_range_meters":19200,"station_id":"ce4bhs92rcd13ifvqi0g","pricing_plan_id":"free"},{"bike_id":"07fc5e4e-23c0-4e7f-baff-848452f6a527","system_id":"levelo_inurba_marseille","lat":43.32824,"lon":5.36682,"is_reserved":false,"is_disabled":false,"rental_uris":{"android":"levelo://app?vid=07fc5e4e-23c0-4e7f-baff-848452f6a527","ios":"levelo://app?vid=07fc5e4e-23c0-4e7f-baff-848452f6a527"},"vehicle_type_id":"4","last_reported":1687979165,"current_range_meters":22000,"station_id":"ce4bhs92rcd13ifvqi0g","pricing_plan_id":"free"},{"bike_id":"acf09dc9-f780-4d55-b75a-6ad7df252430","system_id":"levelo_inurba_marseille","lat":43.328371,"lon":5.366912,"is_reserved":false,"is_disabled":false,"rental_uris":{"android":"levelo://app?vid=acf09dc9-f780-4d55-b75a-6ad7df252430","ios":"levelo://app?vid=acf09dc9-f780-4d55-b75a-6ad7df252430"},"vehicle_type_id":"4","last_reported":1687979165,"current_range_meters":0,"station_id":"ce4bhs92rcd13ifvqi0g","pricing_plan_id":"free"},{"bike_id":"6582f173-7b2c-4a42-844c-19148b9fbe1b","system_id":"levelo_inurba_marseille","lat":43.328371,"lon":5.366912,"is_reserved":false,"is_disabled":false,"rental_uris":{"android":"levelo://app?vid=6582f173-7b2c-4a42-844c-19148b9fbe1b","ios":"levelo://app?vid=6582f173-7b2c-4a42-844c-19148b9fbe1b"},"vehicle_type_id":"4","last_reported":1687979165,"current_range_meters":18000,"station_id":"ce4bhs92rcd13ifvqi0g","pricing_plan_id":"free"},{"bike_id":"4a06b224-8456-4335-98f3-dcc5eeee7538","system_id":"levelo_inurba_marseille","lat":43.328371,"lon":5.366912,"is_reserved":false,"is_disabled":false,"rental_uris":{"android":"levelo://app?vid=4a06b224-8456-4335-98f3-dcc5eeee7538","ios":"levelo://app?vid=4a06b224-8456-4335-98f3-dcc5eeee7538"},"vehicle_type_id":"4","last_reported":1687979165,"current_range_meters":0,"station_id":"ce4bhs92rcd13ifvqi0g","pricing_plan_id":"free"},{"bike_id":"74960633-2b88-4c2f-a74e-024991efb4ba","system_id":"levelo_inurba_marseille","lat":43.328371,"lon":5.366912,"is_reserved":false,"is_disabled":false,"rental_uris":{"android":"levelo://app?vid=74960633-2b88-4c2f-a74e-024991efb4ba","ios":"levelo://app?vid=74960633-2b88-4c2f-a74e-024991efb4ba"},"vehicle_type_id":"4","last_reported":1687979165,"current_range_meters":22800,"station_id":"ce4bhs92rcd13ifvqi0g","pricing_plan_id":"free"},{"bike_id":"4ad0820a-b4f0-4687-9297-85e68595ea74","system_id":"levelo_inurba_marseille","lat":43.328371,"lon":5.366909,"is_reserved":false,"is_disabled":false,"rental_uris":{"android":"levelo://app?vid=4ad0820a-b4f0-4687-9297-85e68595ea74","ios":"levelo://app?vid=4ad0820a-b4f0-4687-9297-85e68595ea74"},"vehicle_type_id":"4","last_reported":1687979165,"current_range_meters":15200,"station_id":"ce4bhs92rcd13ifvqi0g","pricing_plan_id":"free"},{"bike_id":"52c17931-f235-4280-a010-fb1d15e44b39","system_id":"levelo_inurba_marseille","lat":43.32832,"lon":5.3668,"is_reserved":false,"is_disabled":false,"rental_uris":{"android":"levelo://app?vid=52c17931-f235-4280-a010-fb1d15e44b39","ios":"levelo://app?vid=52c17931-f235-4280-a010-fb1d15e44b39"},"vehicle_type_id":"4","last_reported":1687979165,"current_range_meters":28000,"station_id":"ce4bhs92rcd13ifvqi0g","pricing_plan_id":"free"},{"bike_id":"3e1fb410-792f-4491-be5d-b49262119675","system_id":"levelo_inurba_marseille","lat":43.297163,"lon":5.365866,"is_reserved":false,"is_disabled":false,"rental_uris":{"android":"levelo://app?vid=3e1fb410-792f-4491-be5d-b49262119675","ios":"levelo://app?vid=3e1fb410-792f-4491-be5d-b49262119675"},"vehicle_type_id":"4","last_reported":1687979165,"current_range_meters":19600,"station_id":"ce4bgn12rcd13ifvqbt0","pricing_plan_id":"free"},{"bike_id":"8d98417a-cbe4-4269-8bc9-598373a7d5de","system_id":"levelo_inurba_marseille","lat":43.32867,"lon":5.363,"is_reserved":false,"is_disabled":false,"rental_uris":{"android":"levelo://app?vid=8d98417a-cbe4-4269-8bc9-598373a7d5de","ios":"levelo://app?vid=8d98417a-cbe4-4269-8bc9-598373a7d5de"},"vehicle_type_id":"4","last_reported":1687979165,"current_range_meters":1600,"station_id":"","pricing_plan_id":"free"},{"bike_id":"5a67a5b5-e81b-42fa-90ff-2ab1834b05a4","system_id":"levelo_inurba_marseille","lat":43.296129,"lon":5.370777,"is_reserved":false,"is_disabled":false,"rental_uris":{"android":"levelo://app?vid=5a67a5b5-e81b-42fa-90ff-2ab1834b05a4","ios":"levelo://app?vid=5a67a5b5-e81b-42fa-90ff-2ab1834b05a4"},"vehicle_type_id":"4","last_reported":1687979165,"current_range_meters":1600,"station_id":"ce4bgnh2rcd13ifvqc0g","pricing_plan_id":"free"},{"bike_id":"12b3a343-6a5a-4ca0-ad0f-a73d52609a49","system_id":"levelo_inurba_marseille","lat":43.296131,"lon":5.370773,"is_reserved":false,"is_disabled":false,"rental_uris":{"android":"levelo://app?vid=12b3a343-6a5a-4ca0-ad0f-a73d52609a49","ios":"levelo://app?vid=12b3a343-6a5a-4ca0-ad0f-a73d52609a49"},"vehicle_type_id":"4","last_reported":1687979165,"current_range_meters":3600,"station_id":"ce4bgnh2rcd13ifvqc0g","pricing_plan_id":"free"},{"bike_id":"894f6cdc-5a4c-402a-9b30-13bfc3e69a4f","system_id":"levelo_inurba_marseille","lat":43.296039,"lon":5.371563,"is_reserved":false,"is_disabled":false,"rental_uris":{"android":"levelo://app?vid=894f6cdc-5a4c-402a-9b30-13bfc3e69a4f","ios":"levelo://app?vid=894f6cdc-5a4c-402a-9b30-13bfc3e69a4f"},"vehicle_type_id":"4","last_reported":1687979165,"current_range_meters":8800,"station_id":"","pricing_plan_id":"free"},{"bike_id":"8114b194-9f1f-4da6-b63e-c5e1eb39c7d7","system_id":"levelo_inurba_marseille","lat":43.296935,"lon":5.376544,"is_reserved":false,"is_disabled":false,"rental_uris":{"android":"levelo://app?vid=8114b194-9f1f-4da6-b63e-c5e1eb39c7d7","ios":"levelo://app?vid=8114b194-9f1f-4da6-b63e-c5e1eb39c7d7"},"vehicle_type_id":"4","last_reported":1687979165,"current_range_meters":1600,"station_id":"ce4bgkh2rcd13ifvqbl0","pricing_plan_id":"free"},{"bike_id":"87015192-47d2-4792-9a6c-560f5965252f","system_id":"levelo_inurba_marseille","lat":43.309589,"lon":5.390258,"is_reserved":false,"is_disabled":false,"rental_uris":{"android":"levelo://app?vid=87015192-47d2-4792-9a6c-560f5965252f","ios":"levelo://app?vid=87015192-47d2-4792-9a6c-560f5965252f"},"vehicle_type_id":"4","last_reported":1687979165,"current_range_meters":16800,"station_id":"ce4bgup2rcd13ifvqco0","pricing_plan_id":"free"},{"bike_id":"caf97f89-0f8d-4890-b332-87ace5f77914","system_id":"levelo_inurba_marseille","lat":43.29603,"lon":5.37403,"is_reserved":false,"is_disabled":false,"rental_uris":{"android":"levelo://app?vid=caf97f89-0f8d-4890-b332-87ace5f77914","ios":"levelo://app?vid=caf97f89-0f8d-4890-b332-87ace5f77914"},"vehicle_type_id":"4","last_reported":1687979165,"current_range_meters":9600,"station_id":"","pricing_plan_id":"free"},{"bike_id":"6e697468-4b87-48f1-bb0e-7028d9af6005","system_id":"levelo_inurba_marseille","lat":43.317557,"lon":5.390173,"is_reserved":false,"is_disabled":false,"rental_uris":{"android":"levelo://app?vid=6e697468-4b87-48f1-bb0e-7028d9af6005","ios":"levelo://app?vid=6e697468-4b87-48f1-bb0e-7028d9af6005"},"vehicle_type_id":"4","last_reported":1687979165,"current_range_meters":12000,"station_id":"ce4bhqp2rcd13ifvqhng","pricing_plan_id":"free"},{"bike_id":"423caa52-0d59-4734-bcc0-8c790400e111","system_id":"levelo_inurba_marseille","lat":43.317557,"lon":5.390173,"is_reserved":false,"is_disabled":false,"rental_uris":{"android":"levelo://app?vid=423caa52-0d59-4734-bcc0-8c790400e111","ios":"levelo://app?vid=423caa52-0d59-4734-bcc0-8c790400e111"},"vehicle_type_id":"4","last_reported":1687979165,"current_range_meters":29200,"station_id":"ce4bhqp2rcd13ifvqhng","pricing_plan_id":"free"},{"bike_id":"87fe7ecc-58f3-4d60-a392-44f44f76d63a","system_id":"levelo_inurba_marseille","lat":43.317557,"lon":5.390173,"is_reserved":false,"is_disabled":false,"rental_uris":{"android":"levelo://app?vid=87fe7ecc-58f3-4d60-a392-44f44f76d63a","ios":"levelo://app?vid=87fe7ecc-58f3-4d60-a392-44f44f76d63a"},"vehicle_type_id":"4","last_reported":1687979165,"current_range_meters":19600,"station_id":"ce4bhqp2rcd13ifvqhng","pricing_plan_id":"free"},{"bike_id":"308a8b29-06dc-4709-b9a3-b04ff77f9b9a","system_id":"levelo_inurba_marseille","lat":43.295748,"lon":5.37522,"is_reserved":false,"is_disabled":false,"rental_uris":{"android":"levelo://app?vid=308a8b29-06dc-4709-b9a3-b04ff77f9b9a","ios":"levelo://app?vid=308a8b29-06dc-4709-b9a3-b04ff77f9b9a"},"vehicle_type_id":"4","last_reported":1687979165,"current_range_meters":13600,"station_id":"ce4bgh92rcd13ifvqb50","pricing_plan_id":"free"},{"bike_id":"78c65747-2f9f-441f-bb24-3a2583ee1992","system_id":"levelo_inurba_marseille","lat":43.295748,"lon":5.37522,"is_reserved":false,"is_disabled":false,"rental_uris":{"android":"levelo://app?vid=78c65747-2f9f-441f-bb24-3a2583ee1992","ios":"levelo://app?vid=78c65747-2f9f-441f-bb24-3a2583ee1992"},"vehicle_type_id":"4","last_reported":1687979165,"current_range_meters":0,"station_id":"ce4bgh92rcd13ifvqb50","pricing_plan_id":"free"},{"bike_id":"6b6b5e92-75b0-4619-8a07-d993192a3d44","system_id":"levelo_inurba_marseille","lat":43.32362,"lon":5.38878,"is_reserved":false,"is_disabled":false,"rental_uris":{"android":"levelo://app?vid=6b6b5e92-75b0-4619-8a07-d993192a3d44","ios":"levelo://app?vid=6b6b5e92-75b0-4619-8a07-d993192a3d44"},"vehicle_type_id":"4","last_reported":1687979165,"current_range_meters":0,"station_id":"ce4bhqp2rcd13ifvqhog","pricing_plan_id":"free"},{"bike_id":"eb5d817d-b48a-410f-b93c-98bafcec3519","system_id":"levelo_inurba_marseille","lat":43.32365,"lon":5.38884,"is_reserved":false,"is_disabled":false,"rental_uris":{"android":"levelo://app?vid=eb5d817d-b48a-410f-b93c-98bafcec3519","ios":"levelo://app?vid=eb5d817d-b48a-410f-b93c-98bafcec3519"},"vehicle_type_id":"4","last_reported":1687979165,"current_range_meters":18000,"station_id":"ce4bhqp2rcd13ifvqhog","pricing_plan_id":"free"},{"bike_id":"4b4e611d-1b21-4fe6-a41f-8225e3e3ac40","system_id":"levelo_inurba_marseille","lat":43.32364,"lon":5.38885,"is_reserved":false,"is_disabled":false,"rental_uris":{"android":"levelo://app?vid=4b4e611d-1b21-4fe6-a41f-8225e3e3ac40","ios":"levelo://app?vid=4b4e611d-1b21-4fe6-a41f-8225e3e3ac40"},"vehicle_type_id":"4","last_reported":1687979165,"current_range_meters":400,"station_id":"ce4bhqp2rcd13ifvqhog","pricing_plan_id":"free"},{"bike_id":"6047a7c6-8c97-46b2-8fe1-2c9b8980c374","system_id":"levelo_inurba_marseille","lat":43.32367,"lon":5.388836,"is_reserved":false,"is_disabled":false,"rental_uris":{"android":"levelo://app?vid=6047a7c6-8c97-46b2-8fe1-2c9b8980c374","ios":"levelo://app?vid=6047a7c6-8c97-46b2-8fe1-2c9b8980c374"},"vehicle_type_id":"4","last_reported":1687979165,"current_range_meters":4400,"station_id":"ce4bhqp2rcd13ifvqhog","pricing_plan_id":"free"},{"bike_id":"dfb50179-c345-41ab-a383-532269ec033a","system_id":"levelo_inurba_marseille","lat":43.32367,"lon":5.388836,"is_reserved":false,"is_disabled":false,"rental_uris":{"android":"levelo://app?vid=dfb50179-c345-41ab-a383-532269ec033a","ios":"levelo://app?vid=dfb50179-c345-41ab-a383-532269ec033a"},"vehicle_type_id":"4","last_reported":1687979165,"current_range_meters":13600,"station_id":"ce4bhqp2rcd13ifvqhog","pricing_plan_id":"free"},{"bike_id":"c737b305-2f9e-411a-b1ca-26b0f745d0f2","system_id":"levelo_inurba_marseille","lat":43.33191,"lon":5.36162,"is_reserved":false,"is_disabled":false,"rental_uris":{"android":"levelo://app?vid=c737b305-2f9e-411a-b1ca-26b0f745d0f2","ios":"levelo://app?vid=c737b305-2f9e-411a-b1ca-26b0f745d0f2"},"vehicle_type_id":"4","last_reported":1687979165,"current_range_meters":9600,"station_id":"","pricing_plan_id":"free"},{"bike_id":"558165a7-cd80-46ec-acb2-daad7f416bbd","system_id":"levelo_inurba_marseille","lat":43.29602,"lon":5.381084,"is_reserved":false,"is_disabled":false,"rental_uris":{"android":"levelo://app?vid=558165a7-cd80-46ec-acb2-daad7f416bbd","ios":"levelo://app?vid=558165a7-cd80-46ec-acb2-daad7f416bbd"},"vehicle_type_id":"4","last_reported":1687979165,"current_range_meters":30000,"station_id":"ce4bgl12rcd13ifvqbo0","pricing_plan_id":"free"},{"bike_id":"6fb25cfe-68c1-4211-8299-e68c7ab1a972","system_id":"levelo_inurba_marseille","lat":43.293249,"lon":5.371578,"is_reserved":false,"is_disabled":false,"rental_uris":{"android":"levelo://app?vid=6fb25cfe-68c1-4211-8299-e68c7ab1a972","ios":"levelo://app?vid=6fb25cfe-68c1-4211-8299-e68c7ab1a972"},"vehicle_type_id":"4","last_reported":1687979165,"current_range_meters":0,"station_id":"ce4bgh92rcd13ifvqb40","pricing_plan_id":"free"},{"bike_id":"1e743836-4010-4e57-a51e-654e564dd018","system_id":"levelo_inurba_marseille","lat":43.29308,"lon":5.37171,"is_reserved":false,"is_disabled":false,"rental_uris":{"android":"levelo://app?vid=1e743836-4010-4e57-a51e-654e564dd018","ios":"levelo://app?vid=1e743836-4010-4e57-a51e-654e564dd018"},"vehicle_type_id":"4","last_reported":1687979165,"current_range_meters":13600,"station_id":"ce4bgh92rcd13ifvqb40","pricing_plan_id":"free"},{"bike_id":"f464423e-2014-4fa4-af70-d08f4505e778","system_id":"levelo_inurba_marseille","lat":43.29308,"lon":5.37175,"is_reserved":false,"is_disabled":false,"rental_uris":{"android":"levelo://app?vid=f464423e-2014-4fa4-af70-d08f4505e778","ios":"levelo://app?vid=f464423e-2014-4fa4-af70-d08f4505e778"},"vehicle_type_id":"4","last_reported":1687979165,"current_range_meters":9200,"station_id":"ce4bgh92rcd13ifvqb40","pricing_plan_id":"free"},{"bike_id":"7f381296-9b8e-456a-a47b-601d0fdbd90a","system_id":"levelo_inurba_marseille","lat":43.293009,"lon":5.374584,"is_reserved":false,"is_disabled":false,"rental_uris":{"android":"levelo://app?vid=7f381296-9b8e-456a-a47b-601d0fdbd90a","ios":"levelo://app?vid=7f381296-9b8e-456a-a47b-601d0fdbd90a"},"vehicle_type_id":"4","last_reported":1687979165,"current_range_meters":8000,"station_id":"ce4bgi12rcd13ifvqb70","pricing_plan_id":"free"},{"bike_id":"61baafc9-4b02-436d-b9b1-5444f1cb8f59","system_id":"levelo_inurba_marseille","lat":43.293009,"lon":5.374584,"is_reserved":false,"is_disabled":false,"rental_uris":{"android":"levelo://app?vid=61baafc9-4b02-436d-b9b1-5444f1cb8f59","ios":"levelo://app?vid=61baafc9-4b02-436d-b9b1-5444f1cb8f59"},"vehicle_type_id":"4","last_reported":1687979165,"current_range_meters":2800,"station_id":"ce4bgi12rcd13ifvqb70","pricing_plan_id":"free"},{"bike_id":"76c576f8-3871-4b88-850b-fbc30ba00621","system_id":"levelo_inurba_marseille","lat":43.293009,"lon":5.374584,"is_reserved":false,"is_disabled":false,"rental_uris":{"android":"levelo://app?vid=76c576f8-3871-4b88-850b-fbc30ba00621","ios":"levelo://app?vid=76c576f8-3871-4b88-850b-fbc30ba00621"},"vehicle_type_id":"4","last_reported":1687979165,"current_range_meters":18400,"station_id":"ce4bgi12rcd13ifvqb70","pricing_plan_id":"free"},{"bike_id":"77011d00-d174-48a7-8f0b-561aad8f6e46","system_id":"levelo_inurba_marseille","lat":43.29295,"lon":5.37467,"is_reserved":false,"is_disabled":false,"rental_uris":{"android":"levelo://app?vid=77011d00-d174-48a7-8f0b-561aad8f6e46","ios":"levelo://app?vid=77011d00-d174-48a7-8f0b-561aad8f6e46"},"vehicle_type_id":"4","last_reported":1687979165,"current_range_meters":23600,"station_id":"","pricing_plan_id":"free"},{"bike_id":"339c7dbd-4117-44db-a176-8a41b3ffb4ae","system_id":"levelo_inurba_marseille","lat":43.305994,"lon":5.393687,"is_reserved":false,"is_disabled":false,"rental_uris":{"android":"levelo://app?vid=339c7dbd-4117-44db-a176-8a41b3ffb4ae","ios":"levelo://app?vid=339c7dbd-4117-44db-a176-8a41b3ffb4ae"},"vehicle_type_id":"4","last_reported":1687979165,"current_range_meters":11200,"station_id":"ce4bh0p2rcd13ifvqd80","pricing_plan_id":"free"},{"bike_id":"df8b269e-da71-4aaf-904b-7d1d794f9521","system_id":"levelo_inurba_marseille","lat":43.2936,"lon":5.37835,"is_reserved":false,"is_disabled":false,"rental_uris":{"android":"levelo://app?vid=df8b269e-da71-4aaf-904b-7d1d794f9521","ios":"levelo://app?vid=df8b269e-da71-4aaf-904b-7d1d794f9521"},"vehicle_type_id":"4","last_reported":1687979165,"current_range_meters":8000,"station_id":"ce4bgjh2rcd13ifvqbf0","pricing_plan_id":"free"},{"bike_id":"e44be3fa-f5e1-4826-8c14-6f108aacbc6b","system_id":"levelo_inurba_marseille","lat":43.2936,"lon":5.37835,"is_reserved":false,"is_disabled":false,"rental_uris":{"android":"levelo://app?vid=e44be3fa-f5e1-4826-8c14-6f108aacbc6b","ios":"levelo://app?vid=e44be3fa-f5e1-4826-8c14-6f108aacbc6b"},"vehicle_type_id":"4","last_reported":1687979165,"current_range_meters":400,"station_id":"ce4bgjh2rcd13ifvqbf0","pricing_plan_id":"free"},{"bike_id":"5c779299-a6b9-4d2d-80fb-390bde656125","system_id":"levelo_inurba_marseille","lat":43.291675,"lon":5.371583,"is_reserved":false,"is_disabled":false,"rental_uris":{"android":"levelo://app?vid=5c779299-a6b9-4d2d-80fb-390bde656125","ios":"levelo://app?vid=5c779299-a6b9-4d2d-80fb-390bde656125"},"vehicle_type_id":"4","last_reported":1687979165,"current_range_meters":4000,"station_id":"ce4bha92rcd13ifvqeh0","pricing_plan_id":"free"},{"bike_id":"1c7270a1-d2b4-41f0-9dd6-ee99ab4dfa9f","system_id":"levelo_inurba_marseille","lat":43.298764,"lon":5.388973,"is_reserved":false,"is_disabled":false,"rental_uris":{"android":"levelo://app?vid=1c7270a1-d2b4-41f0-9dd6-ee99ab4dfa9f","ios":"levelo://app?vid=1c7270a1-d2b4-41f0-9dd6-ee99ab4dfa9f"},"vehicle_type_id":"4","last_reported":1687979165,"current_range_meters":16000,"station_id":"ce4bh392rcd13ifvqdl0","pricing_plan_id":"free"},{"bike_id":"a2e70236-66e2-4f1d-873a-fe5ff9aadbb1","system_id":"levelo_inurba_marseille","lat":43.298764,"lon":5.388973,"is_reserved":false,"is_disabled":false,"rental_uris":{"android":"levelo://app?vid=a2e70236-66e2-4f1d-873a-fe5ff9aadbb1","ios":"levelo://app?vid=a2e70236-66e2-4f1d-873a-fe5ff9aadbb1"},"vehicle_type_id":"4","last_reported":1687979165,"current_range_meters":25600,"station_id":"ce4bh392rcd13ifvqdl0","pricing_plan_id":"free"},{"bike_id":"1572ba72-d0ef-4a3d-947b-d9688a2a7777","system_id":"levelo_inurba_marseille","lat":43.31333,"lon":5.39686,"is_reserved":false,"is_disabled":false,"rental_uris":{"android":"levelo://app?vid=1572ba72-d0ef-4a3d-947b-d9688a2a7777","ios":"levelo://app?vid=1572ba72-d0ef-4a3d-947b-d9688a2a7777"},"vehicle_type_id":"4","last_reported":1687979165,"current_range_meters":10000,"station_id":"ce4bgvp2rcd13ifvqcu0","pricing_plan_id":"free"},{"bike_id":"32619e63-ef17-4ad1-adde-eadaf014f053","system_id":"levelo_inurba_marseille","lat":43.31327,"lon":5.39689,"is_reserved":false,"is_disabled":false,"rental_uris":{"android":"levelo://app?vid=32619e63-ef17-4ad1-adde-eadaf014f053","ios":"levelo://app?vid=32619e63-ef17-4ad1-adde-eadaf014f053"},"vehicle_type_id":"4","last_reported":1687979165,"current_range_meters":3600,"station_id":"ce4bgvp2rcd13ifvqcu0","pricing_plan_id":"free"},{"bike_id":"a54b4632-0483-47de-a8e1-a3ac664c7745","system_id":"levelo_inurba_marseille","lat":43.31328,"lon":5.39691,"is_reserved":false,"is_disabled":false,"rental_uris":{"android":"levelo://app?vid=a54b4632-0483-47de-a8e1-a3ac664c7745","ios":"levelo://app?vid=a54b4632-0483-47de-a8e1-a3ac664c7745"},"vehicle_type_id":"4","last_reported":1687979165,"current_range_meters":14400,"station_id":"ce4bgvp2rcd13ifvqcu0","pricing_plan_id":"free"},{"bike_id":"3488bca4-9c87-4b3e-8597-fc289ad66beb","system_id":"levelo_inurba_marseille","lat":43.31326,"lon":5.39693,"is_reserved":false,"is_disabled":false,"rental_uris":{"android":"levelo://app?vid=3488bca4-9c87-4b3e-8597-fc289ad66beb","ios":"levelo://app?vid=3488bca4-9c87-4b3e-8597-fc289ad66beb"},"vehicle_type_id":"4","last_reported":1687979165,"current_range_meters":11600,"station_id":"ce4bgvp2rcd13ifvqcu0","pricing_plan_id":"free"},{"bike_id":"219e70b5-f8ce-4f1b-8d9b-3e954ddbe9c2","system_id":"levelo_inurba_marseille","lat":43.30885,"lon":5.39654,"is_reserved":false,"is_disabled":false,"rental_uris":{"android":"levelo://app?vid=219e70b5-f8ce-4f1b-8d9b-3e954ddbe9c2","ios":"levelo://app?vid=219e70b5-f8ce-4f1b-8d9b-3e954ddbe9c2"},"vehicle_type_id":"4","last_reported":1687979165,"current_range_meters":2400,"station_id":"ce4bh012rcd13ifvqcv0","pricing_plan_id":"free"},{"bike_id":"f77ecad7-f123-4c0a-bf68-57befe5e94b6","system_id":"levelo_inurba_marseille","lat":43.309038,"lon":5.396546,"is_reserved":false,"is_disabled":false,"rental_uris":{"android":"levelo://app?vid=f77ecad7-f123-4c0a-bf68-57befe5e94b6","ios":"levelo://app?vid=f77ecad7-f123-4c0a-bf68-57befe5e94b6"},"vehicle_type_id":"4","last_reported":1687979165,"current_range_meters":10000,"station_id":"ce4bh012rcd13ifvqcv0","pricing_plan_id":"free"},{"bike_id":"8298e5c4-1017-4bcb-8fcd-775d11013cd8","system_id":"levelo_inurba_marseille","lat":43.302008,"lon":5.394694,"is_reserved":false,"is_disabled":false,"rental_uris":{"android":"levelo://app?vid=8298e5c4-1017-4bcb-8fcd-775d11013cd8","ios":"levelo://app?vid=8298e5c4-1017-4bcb-8fcd-775d11013cd8"},"vehicle_type_id":"4","last_reported":1687979165,"current_range_meters":4000,"station_id":"ce4bh0p2rcd13ifvqd70","pricing_plan_id":"free"},{"bike_id":"5b05316f-008a-4f01-9747-f485faf01d49","system_id":"levelo_inurba_marseille","lat":43.29529,"lon":5.385581,"is_reserved":false,"is_disabled":false,"rental_uris":{"android":"levelo://app?vid=5b05316f-008a-4f01-9747-f485faf01d49","ios":"levelo://app?vid=5b05316f-008a-4f01-9747-f485faf01d49"},"vehicle_type_id":"4","last_reported":1687979165,"current_range_meters":20800,"station_id":"ce4bgih2rcd13ifvqba0","pricing_plan_id":"free"},{"bike_id":"4319f920-bd6e-4aec-95fe-6ade963a9b4c","system_id":"levelo_inurba_marseille","lat":43.302008,"lon":5.394694,"is_reserved":false,"is_disabled":false,"rental_uris":{"android":"levelo://app?vid=4319f920-bd6e-4aec-95fe-6ade963a9b4c","ios":"levelo://app?vid=4319f920-bd6e-4aec-95fe-6ade963a9b4c"},"vehicle_type_id":"4","last_reported":1687979165,"current_range_meters":24800,"station_id":"ce4bh0p2rcd13ifvqd70","pricing_plan_id":"free"},{"bike_id":"ba1838c3-aa8c-421c-81ce-ed2520aac140","system_id":"levelo_inurba_marseille","lat":43.302008,"lon":5.394694,"is_reserved":false,"is_disabled":false,"rental_uris":{"android":"levelo://app?vid=ba1838c3-aa8c-421c-81ce-ed2520aac140","ios":"levelo://app?vid=ba1838c3-aa8c-421c-81ce-ed2520aac140"},"vehicle_type_id":"4","last_reported":1687979165,"current_range_meters":10000,"station_id":"ce4bh0p2rcd13ifvqd70","pricing_plan_id":"free"},{"bike_id":"8895af9f-d5ce-490a-8c32-eaa3b1ec49e6","system_id":"levelo_inurba_marseille","lat":43.294162,"lon":5.386292,"is_reserved":false,"is_disabled":false,"rental_uris":{"android":"levelo://app?vid=8895af9f-d5ce-490a-8c32-eaa3b1ec49e6","ios":"levelo://app?vid=8895af9f-d5ce-490a-8c32-eaa3b1ec49e6"},"vehicle_type_id":"4","last_reported":1687979165,"current_range_meters":31200,"station_id":"ce4bh2h2rcd13ifvqdh0","pricing_plan_id":"free"},{"bike_id":"294642c8-bfe0-45ea-96bb-3eff7f60228e","system_id":"levelo_inurba_marseille","lat":43.290327,"lon":5.375711,"is_reserved":false,"is_disabled":false,"rental_uris":{"android":"levelo://app?vid=294642c8-bfe0-45ea-96bb-3eff7f60228e","ios":"levelo://app?vid=294642c8-bfe0-45ea-96bb-3eff7f60228e"},"vehicle_type_id":"4","last_reported":1687979165,"current_range_meters":400,"station_id":"ce4bh692rcd13ifvqe90","pricing_plan_id":"free"},{"bike_id":"6867df42-30dd-4825-b7fe-404564247748","system_id":"levelo_inurba_marseille","lat":43.294174,"lon":5.386231,"is_reserved":false,"is_disabled":false,"rental_uris":{"android":"levelo://app?vid=6867df42-30dd-4825-b7fe-404564247748","ios":"levelo://app?vid=6867df42-30dd-4825-b7fe-404564247748"},"vehicle_type_id":"4","last_reported":1687979165,"current_range_meters":10000,"station_id":"","pricing_plan_id":"free"},{"bike_id":"5c87f008-4ede-4a09-b644-49f7ae28a666","system_id":"levelo_inurba_marseille","lat":43.28945,"lon":5.36637,"is_reserved":false,"is_disabled":false,"rental_uris":{"android":"levelo://app?vid=5c87f008-4ede-4a09-b644-49f7ae28a666","ios":"levelo://app?vid=5c87f008-4ede-4a09-b644-49f7ae28a666"},"vehicle_type_id":"4","last_reported":1687979165,"current_range_meters":30400,"station_id":"","pricing_plan_id":"free"},{"bike_id":"399ef6b6-bd49-40a3-a085-0dfa050cfb9f","system_id":"levelo_inurba_marseille","lat":43.29411,"lon":5.38614,"is_reserved":false,"is_disabled":false,"rental_uris":{"android":"levelo://app?vid=399ef6b6-bd49-40a3-a085-0dfa050cfb9f","ios":"levelo://app?vid=399ef6b6-bd49-40a3-a085-0dfa050cfb9f"},"vehicle_type_id":"4","last_reported":1687979165,"current_range_meters":2800,"station_id":"","pricing_plan_id":"free"},{"bike_id":"16e04e2d-960d-461c-acd6-4192d25e90fa","system_id":"levelo_inurba_marseille","lat":43.294162,"lon":5.386292,"is_reserved":false,"is_disabled":false,"rental_uris":{"android":"levelo://app?vid=16e04e2d-960d-461c-acd6-4192d25e90fa","ios":"levelo://app?vid=16e04e2d-960d-461c-acd6-4192d25e90fa"},"vehicle_type_id":"4","last_reported":1687979165,"current_range_meters":1200,"station_id":"ce4bh2h2rcd13ifvqdh0","pricing_plan_id":"free"},{"bike_id":"2767eb01-5417-473f-9639-cb33379f118c","system_id":"levelo_inurba_marseille","lat":43.294162,"lon":5.386292,"is_reserved":false,"is_disabled":false,"rental_uris":{"android":"levelo://app?vid=2767eb01-5417-473f-9639-cb33379f118c","ios":"levelo://app?vid=2767eb01-5417-473f-9639-cb33379f118c"},"vehicle_type_id":"4","last_reported":1687979165,"current_range_meters":27200,"station_id":"ce4bh2h2rcd13ifvqdh0","pricing_plan_id":"free"},{"bike_id":"a14f9ebb-1064-4b47-8585-d90429f5677e","system_id":"levelo_inurba_marseille","lat":43.29413,"lon":5.3863,"is_reserved":false,"is_disabled":false,"rental_uris":{"android":"levelo://app?vid=a14f9ebb-1064-4b47-8585-d90429f5677e","ios":"levelo://app?vid=a14f9ebb-1064-4b47-8585-d90429f5677e"},"vehicle_type_id":"4","last_reported":1687979165,"current_range_meters":23200,"station_id":"ce4bh2h2rcd13ifvqdh0","pricing_plan_id":"free"},{"bike_id":"4ec3b7b6-4ac3-41ae-949c-268857a59da7","system_id":"levelo_inurba_marseille","lat":43.28939,"lon":5.36626,"is_reserved":false,"is_disabled":false,"rental_uris":{"android":"levelo://app?vid=4ec3b7b6-4ac3-41ae-949c-268857a59da7","ios":"levelo://app?vid=4ec3b7b6-4ac3-41ae-949c-268857a59da7"},"vehicle_type_id":"4","last_reported":1687979165,"current_range_meters":30400,"station_id":"ce4bhap2rcd13ifvqek0","pricing_plan_id":"free"},{"bike_id":"6bdbff19-66a0-4614-b35f-335c93e96cb5","system_id":"levelo_inurba_marseille","lat":43.289184,"lon":5.366408,"is_reserved":false,"is_disabled":false,"rental_uris":{"android":"levelo://app?vid=6bdbff19-66a0-4614-b35f-335c93e96cb5","ios":"levelo://app?vid=6bdbff19-66a0-4614-b35f-335c93e96cb5"},"vehicle_type_id":"4","last_reported":1687979165,"current_range_meters":9200,"station_id":"ce4bhap2rcd13ifvqek0","pricing_plan_id":"free"},{"bike_id":"55be5917-e063-46b1-81cb-55591e188bfa","system_id":"levelo_inurba_marseille","lat":43.289184,"lon":5.366408,"is_reserved":false,"is_disabled":false,"rental_uris":{"android":"levelo://app?vid=55be5917-e063-46b1-81cb-55591e188bfa","ios":"levelo://app?vid=55be5917-e063-46b1-81cb-55591e188bfa"},"vehicle_type_id":"4","last_reported":1687979165,"current_range_meters":11600,"station_id":"ce4bhap2rcd13ifvqek0","pricing_plan_id":"free"},{"bike_id":"67139771-76e7-47a1-9982-fd4453d5e636","system_id":"levelo_inurba_marseille","lat":43.289468,"lon":5.363719,"is_reserved":false,"is_disabled":false,"rental_uris":{"android":"levelo://app?vid=67139771-76e7-47a1-9982-fd4453d5e636","ios":"levelo://app?vid=67139771-76e7-47a1-9982-fd4453d5e636"},"vehicle_type_id":"4","last_reported":1687979165,"current_range_meters":800,"station_id":"ce4bhc92rcd13ifvqetg","pricing_plan_id":"free"},{"bike_id":"ac7256b1-5327-47d2-8f85-8d7d4f2435ee","system_id":"levelo_inurba_marseille","lat":43.29601,"lon":5.381084,"is_reserved":false,"is_disabled":false,"rental_uris":{"android":"levelo://app?vid=ac7256b1-5327-47d2-8f85-8d7d4f2435ee","ios":"levelo://app?vid=ac7256b1-5327-47d2-8f85-8d7d4f2435ee"},"vehicle_type_id":"4","last_reported":1687979165,"current_range_meters":800,"station_id":"ce4bgl12rcd13ifvqbo0","pricing_plan_id":"free"},{"bike_id":"71d707b7-318b-4afa-8a92-9e6d46ca75a0","system_id":"levelo_inurba_marseille","lat":43.292642,"lon":5.384254,"is_reserved":false,"is_disabled":false,"rental_uris":{"android":"levelo://app?vid=71d707b7-318b-4afa-8a92-9e6d46ca75a0","ios":"levelo://app?vid=71d707b7-318b-4afa-8a92-9e6d46ca75a0"},"vehicle_type_id":"4","last_reported":1687979165,"current_range_meters":16400,"station_id":"ce4bh692rcd13ifvqea0","pricing_plan_id":"free"},{"bike_id":"40c9eb3e-96d2-4463-8a52-e91b75b91c25","system_id":"levelo_inurba_marseille","lat":43.292644,"lon":5.384257,"is_reserved":false,"is_disabled":false,"rental_uris":{"android":"levelo://app?vid=40c9eb3e-96d2-4463-8a52-e91b75b91c25","ios":"levelo://app?vid=40c9eb3e-96d2-4463-8a52-e91b75b91c25"},"vehicle_type_id":"4","last_reported":1687979165,"current_range_meters":3600,"station_id":"ce4bh692rcd13ifvqea0","pricing_plan_id":"free"},{"bike_id":"2e8f1418-793c-48a9-bb06-86f50f0dcd47","system_id":"levelo_inurba_marseille","lat":43.292644,"lon":5.384257,"is_reserved":false,"is_disabled":false,"rental_uris":{"android":"levelo://app?vid=2e8f1418-793c-48a9-bb06-86f50f0dcd47","ios":"levelo://app?vid=2e8f1418-793c-48a9-bb06-86f50f0dcd47"},"vehicle_type_id":"4","last_reported":1687979165,"current_range_meters":13200,"station_id":"ce4bh692rcd13ifvqea0","pricing_plan_id":"free"},{"bike_id":"953d9152-202f-497f-a060-27bd0b3aa137","system_id":"levelo_inurba_marseille","lat":43.292644,"lon":5.384257,"is_reserved":false,"is_disabled":false,"rental_uris":{"android":"levelo://app?vid=953d9152-202f-497f-a060-27bd0b3aa137","ios":"levelo://app?vid=953d9152-202f-497f-a060-27bd0b3aa137"},"vehicle_type_id":"4","last_reported":1687979165,"current_range_meters":0,"station_id":"ce4bh692rcd13ifvqea0","pricing_plan_id":"free"},{"bike_id":"dc41910d-322a-450c-ae26-da6783f4c6d8","system_id":"levelo_inurba_marseille","lat":43.33034,"lon":5.38914,"is_reserved":false,"is_disabled":false,"rental_uris":{"android":"levelo://app?vid=dc41910d-322a-450c-ae26-da6783f4c6d8","ios":"levelo://app?vid=dc41910d-322a-450c-ae26-da6783f4c6d8"},"vehicle_type_id":"4","last_reported":1687979165,"current_range_meters":23200,"station_id":"ce4bhr92rcd13ifvqhrg","pricing_plan_id":"free"},{"bike_id":"1deec734-5210-439e-b390-725ec2f70134","system_id":"levelo_inurba_marseille","lat":43.33041,"lon":5.38922,"is_reserved":false,"is_disabled":false,"rental_uris":{"android":"levelo://app?vid=1deec734-5210-439e-b390-725ec2f70134","ios":"levelo://app?vid=1deec734-5210-439e-b390-725ec2f70134"},"vehicle_type_id":"4","last_reported":1687979165,"current_range_meters":19200,"station_id":"ce4bhr92rcd13ifvqhrg","pricing_plan_id":"free"},{"bike_id":"fd141006-83b6-4169-9ff9-6f4b76f30a0f","system_id":"levelo_inurba_marseille","lat":43.33045,"lon":5.38919,"is_reserved":false,"is_disabled":false,"rental_uris":{"android":"levelo://app?vid=fd141006-83b6-4169-9ff9-6f4b76f30a0f","ios":"levelo://app?vid=fd141006-83b6-4169-9ff9-6f4b76f30a0f"},"vehicle_type_id":"4","last_reported":1687979165,"current_range_meters":20000,"station_id":"ce4bhr92rcd13ifvqhrg","pricing_plan_id":"free"},{"bike_id":"f791cd7c-b8f7-43c1-93df-17bc665123c7","system_id":"levelo_inurba_marseille","lat":43.33045,"lon":5.38919,"is_reserved":false,"is_disabled":false,"rental_uris":{"android":"levelo://app?vid=f791cd7c-b8f7-43c1-93df-17bc665123c7","ios":"levelo://app?vid=f791cd7c-b8f7-43c1-93df-17bc665123c7"},"vehicle_type_id":"4","last_reported":1687979165,"current_range_meters":24400,"station_id":"ce4bhr92rcd13ifvqhrg","pricing_plan_id":"free"},{"bike_id":"516a4139-4aea-453e-a85d-0828ef8e242a","system_id":"levelo_inurba_marseille","lat":43.29006,"lon":5.35607,"is_reserved":false,"is_disabled":false,"rental_uris":{"android":"levelo://app?vid=516a4139-4aea-453e-a85d-0828ef8e242a","ios":"levelo://app?vid=516a4139-4aea-453e-a85d-0828ef8e242a"},"vehicle_type_id":"4","last_reported":1687979165,"current_range_meters":12800,"station_id":"ce4bhb92rcd13ifvqen0","pricing_plan_id":"free"},{"bike_id":"36784de6-30fd-49ad-ada8-b1c86d0432bd","system_id":"levelo_inurba_marseille","lat":43.290995,"lon":5.381361,"is_reserved":false,"is_disabled":false,"rental_uris":{"android":"levelo://app?vid=36784de6-30fd-49ad-ada8-b1c86d0432bd","ios":"levelo://app?vid=36784de6-30fd-49ad-ada8-b1c86d0432bd"},"vehicle_type_id":"4","last_reported":1687979165,"current_range_meters":0,"station_id":"ce4bh512rcd13ifvqe2g","pricing_plan_id":"free"},{"bike_id":"202c050f-fb4e-4fa6-97c9-ee5c8c187223","system_id":"levelo_inurba_marseille","lat":43.289741,"lon":5.378306,"is_reserved":false,"is_disabled":false,"rental_uris":{"android":"levelo://app?vid=202c050f-fb4e-4fa6-97c9-ee5c8c187223","ios":"levelo://app?vid=202c050f-fb4e-4fa6-97c9-ee5c8c187223"},"vehicle_type_id":"4","last_reported":1687979165,"current_range_meters":5600,"station_id":"ce4bh9p2rcd13ifvqed0","pricing_plan_id":"free"},{"bike_id":"1add2ed1-e365-4900-95d0-17ed8063d01f","system_id":"levelo_inurba_marseille","lat":43.298681,"lon":5.397225,"is_reserved":false,"is_disabled":false,"rental_uris":{"android":"levelo://app?vid=1add2ed1-e365-4900-95d0-17ed8063d01f","ios":"levelo://app?vid=1add2ed1-e365-4900-95d0-17ed8063d01f"},"vehicle_type_id":"4","last_reported":1687979165,"current_range_meters":28000,"station_id":"ce4bh0h2rcd13ifvqd50","pricing_plan_id":"free"},{"bike_id":"51382a56-223f-4764-9e1c-31fd42844142","system_id":"levelo_inurba_marseille","lat":43.2901,"lon":5.381269,"is_reserved":false,"is_disabled":false,"rental_uris":{"android":"levelo://app?vid=51382a56-223f-4764-9e1c-31fd42844142","ios":"levelo://app?vid=51382a56-223f-4764-9e1c-31fd42844142"},"vehicle_type_id":"4","last_reported":1687979165,"current_range_meters":13600,"station_id":"ce4bh4p2rcd13ifvqe1g","pricing_plan_id":"free"},{"bike_id":"fdeb14e4-52d9-4e3b-a05e-edf26216a07a","system_id":"levelo_inurba_marseille","lat":43.29022,"lon":5.38125,"is_reserved":false,"is_disabled":false,"rental_uris":{"android":"levelo://app?vid=fdeb14e4-52d9-4e3b-a05e-edf26216a07a","ios":"levelo://app?vid=fdeb14e4-52d9-4e3b-a05e-edf26216a07a"},"vehicle_type_id":"4","last_reported":1687979165,"current_range_meters":18800,"station_id":"","pricing_plan_id":"free"},{"bike_id":"1f14f89c-2a13-483f-98c3-bca6706c8ae0","system_id":"levelo_inurba_marseille","lat":43.290229,"lon":5.381324,"is_reserved":false,"is_disabled":false,"rental_uris":{"android":"levelo://app?vid=1f14f89c-2a13-483f-98c3-bca6706c8ae0","ios":"levelo://app?vid=1f14f89c-2a13-483f-98c3-bca6706c8ae0"},"vehicle_type_id":"4","last_reported":1687979165,"current_range_meters":29200,"station_id":"","pricing_plan_id":"free"},{"bike_id":"8c8135dd-ce85-4b5c-9525-b154ab3423cf","system_id":"levelo_inurba_marseille","lat":43.286593,"lon":5.363346,"is_reserved":false,"is_disabled":false,"rental_uris":{"android":"levelo://app?vid=8c8135dd-ce85-4b5c-9525-b154ab3423cf","ios":"levelo://app?vid=8c8135dd-ce85-4b5c-9525-b154ab3423cf"},"vehicle_type_id":"4","last_reported":1687979165,"current_range_meters":29200,"station_id":"ce4bhah2rcd13ifvqej0","pricing_plan_id":"free"},{"bike_id":"001fff55-0cfe-42bd-971e-29dc4e340b0b","system_id":"levelo_inurba_marseille","lat":43.337447,"lon":5.374727,"is_reserved":false,"is_disabled":false,"rental_uris":{"android":"levelo://app?vid=001fff55-0cfe-42bd-971e-29dc4e340b0b","ios":"levelo://app?vid=001fff55-0cfe-42bd-971e-29dc4e340b0b"},"vehicle_type_id":"4","last_reported":1687979165,"current_range_meters":10000,"station_id":"","pricing_plan_id":"free"},{"bike_id":"b152602a-aaa7-4eed-93ba-89050d9c58ba","system_id":"levelo_inurba_marseille","lat":43.3067,"lon":5.40078,"is_reserved":false,"is_disabled":false,"rental_uris":{"android":"levelo://app?vid=b152602a-aaa7-4eed-93ba-89050d9c58ba","ios":"levelo://app?vid=b152602a-aaa7-4eed-93ba-89050d9c58ba"},"vehicle_type_id":"4","last_reported":1687979165,"current_range_meters":22400,"station_id":"","pricing_plan_id":"free"},{"bike_id":"476cd57c-2e9c-4f0d-a086-f93a7e3396f6","system_id":"levelo_inurba_marseille","lat":43.337516,"lon":5.374747,"is_reserved":false,"is_disabled":false,"rental_uris":{"android":"levelo://app?vid=476cd57c-2e9c-4f0d-a086-f93a7e3396f6","ios":"levelo://app?vid=476cd57c-2e9c-4f0d-a086-f93a7e3396f6"},"vehicle_type_id":"4","last_reported":1687979165,"current_range_meters":27600,"station_id":"","pricing_plan_id":"free"},{"bike_id":"34385c99-103d-4ede-b328-7411bd39d37f","system_id":"levelo_inurba_marseille","lat":43.289671,"lon":5.381637,"is_reserved":false,"is_disabled":false,"rental_uris":{"android":"levelo://app?vid=34385c99-103d-4ede-b328-7411bd39d37f","ios":"levelo://app?vid=34385c99-103d-4ede-b328-7411bd39d37f"},"vehicle_type_id":"4","last_reported":1687979165,"current_range_meters":25600,"station_id":"","pricing_plan_id":"free"},{"bike_id":"663e26c6-6204-40c7-b1c2-0398c6240952","system_id":"levelo_inurba_marseille","lat":43.301117,"lon":5.398795,"is_reserved":false,"is_disabled":false,"rental_uris":{"android":"levelo://app?vid=663e26c6-6204-40c7-b1c2-0398c6240952","ios":"levelo://app?vid=663e26c6-6204-40c7-b1c2-0398c6240952"},"vehicle_type_id":"4","last_reported":1687979165,"current_range_meters":20000,"station_id":"ce4bh0h2rcd13ifvqd40","pricing_plan_id":"free"},{"bike_id":"7fd0b59e-9d6d-4243-aaf6-710cbf811b4c","system_id":"levelo_inurba_marseille","lat":43.298681,"lon":5.397225,"is_reserved":false,"is_disabled":false,"rental_uris":{"android":"levelo://app?vid=7fd0b59e-9d6d-4243-aaf6-710cbf811b4c","ios":"levelo://app?vid=7fd0b59e-9d6d-4243-aaf6-710cbf811b4c"},"vehicle_type_id":"4","last_reported":1687979165,"current_range_meters":12800,"station_id":"ce4bh0h2rcd13ifvqd50","pricing_plan_id":"free"},{"bike_id":"9b81f508-d6e9-44c5-879e-94c04ae8bc84","system_id":"levelo_inurba_marseille","lat":43.298681,"lon":5.397225,"is_reserved":false,"is_disabled":false,"rental_uris":{"android":"levelo://app?vid=9b81f508-d6e9-44c5-879e-94c04ae8bc84","ios":"levelo://app?vid=9b81f508-d6e9-44c5-879e-94c04ae8bc84"},"vehicle_type_id":"4","last_reported":1687979165,"current_range_meters":21200,"station_id":"ce4bh0h2rcd13ifvqd50","pricing_plan_id":"free"},{"bike_id":"800c2eb3-f9cb-4fb7-a3a4-50a602f76e65","system_id":"levelo_inurba_marseille","lat":43.286591,"lon":5.363346,"is_reserved":false,"is_disabled":false,"rental_uris":{"android":"levelo://app?vid=800c2eb3-f9cb-4fb7-a3a4-50a602f76e65","ios":"levelo://app?vid=800c2eb3-f9cb-4fb7-a3a4-50a602f76e65"},"vehicle_type_id":"4","last_reported":1687979165,"current_range_meters":2400,"station_id":"ce4bhah2rcd13ifvqej0","pricing_plan_id":"free"},{"bike_id":"5ecd6bca-076f-44cc-8cc1-78665134b26d","system_id":"levelo_inurba_marseille","lat":43.286593,"lon":5.363346,"is_reserved":false,"is_disabled":false,"rental_uris":{"android":"levelo://app?vid=5ecd6bca-076f-44cc-8cc1-78665134b26d","ios":"levelo://app?vid=5ecd6bca-076f-44cc-8cc1-78665134b26d"},"vehicle_type_id":"4","last_reported":1687979165,"current_range_meters":28400,"station_id":"ce4bhah2rcd13ifvqej0","pricing_plan_id":"free"},{"bike_id":"e222fccb-0c3b-47f4-9f26-7e7a973e7b30","system_id":"levelo_inurba_marseille","lat":43.286591,"lon":5.363346,"is_reserved":false,"is_disabled":false,"rental_uris":{"android":"levelo://app?vid=e222fccb-0c3b-47f4-9f26-7e7a973e7b30","ios":"levelo://app?vid=e222fccb-0c3b-47f4-9f26-7e7a973e7b30"},"vehicle_type_id":"4","last_reported":1687979165,"current_range_meters":22000,"station_id":"ce4bhah2rcd13ifvqej0","pricing_plan_id":"free"},{"bike_id":"16e65ef8-ba72-449c-ba78-10e514b98713","system_id":"levelo_inurba_marseille","lat":43.2953,"lon":5.39399,"is_reserved":false,"is_disabled":false,"rental_uris":{"android":"levelo://app?vid=16e65ef8-ba72-449c-ba78-10e514b98713","ios":"levelo://app?vid=16e65ef8-ba72-449c-ba78-10e514b98713"},"vehicle_type_id":"4","last_reported":1687979165,"current_range_meters":0,"station_id":"ce4bh292rcd13ifvqdf0","pricing_plan_id":"free"},{"bike_id":"7a2521d2-8030-4042-abbb-0f859a7be6c1","system_id":"levelo_inurba_marseille","lat":43.295196,"lon":5.39397,"is_reserved":false,"is_disabled":false,"rental_uris":{"android":"levelo://app?vid=7a2521d2-8030-4042-abbb-0f859a7be6c1","ios":"levelo://app?vid=7a2521d2-8030-4042-abbb-0f859a7be6c1"},"vehicle_type_id":"4","last_reported":1687979165,"current_range_meters":4800,"station_id":"ce4bh292rcd13ifvqdf0","pricing_plan_id":"free"},{"bike_id":"2f2f04ad-3241-4ffc-b85a-f75ffe7639db","system_id":"levelo_inurba_marseille","lat":43.290336,"lon":5.386425,"is_reserved":false,"is_disabled":false,"rental_uris":{"android":"levelo://app?vid=2f2f04ad-3241-4ffc-b85a-f75ffe7639db","ios":"levelo://app?vid=2f2f04ad-3241-4ffc-b85a-f75ffe7639db"},"vehicle_type_id":"4","last_reported":1687979165,"current_range_meters":4800,"station_id":"ce4bh4p2rcd13ifvqe0g","pricing_plan_id":"free"},{"bike_id":"3d69f1fc-c513-4ef5-81b4-21435f5ce7e9","system_id":"levelo_inurba_marseille","lat":43.290345,"lon":5.38646,"is_reserved":false,"is_disabled":false,"rental_uris":{"android":"levelo://app?vid=3d69f1fc-c513-4ef5-81b4-21435f5ce7e9","ios":"levelo://app?vid=3d69f1fc-c513-4ef5-81b4-21435f5ce7e9"},"vehicle_type_id":"4","last_reported":1687979165,"current_range_meters":0,"station_id":"ce4bh4p2rcd13ifvqe0g","pricing_plan_id":"free"},{"bike_id":"8386fec0-67c2-4171-81dc-eb75dabcfd70","system_id":"levelo_inurba_marseille","lat":43.290336,"lon":5.386425,"is_reserved":false,"is_disabled":false,"rental_uris":{"android":"levelo://app?vid=8386fec0-67c2-4171-81dc-eb75dabcfd70","ios":"levelo://app?vid=8386fec0-67c2-4171-81dc-eb75dabcfd70"},"vehicle_type_id":"4","last_reported":1687979165,"current_range_meters":6400,"station_id":"ce4bh4p2rcd13ifvqe0g","pricing_plan_id":"free"},{"bike_id":"2947a510-c32f-4368-80ac-c0aa98807d4b","system_id":"levelo_inurba_marseille","lat":43.3025,"lon":5.40069,"is_reserved":false,"is_disabled":false,"rental_uris":{"android":"levelo://app?vid=2947a510-c32f-4368-80ac-c0aa98807d4b","ios":"levelo://app?vid=2947a510-c32f-4368-80ac-c0aa98807d4b"},"vehicle_type_id":"4","last_reported":1687979165,"current_range_meters":2400,"station_id":"","pricing_plan_id":"free"},{"bike_id":"48138ff3-6577-41db-91ba-06da6ac19d86","system_id":"levelo_inurba_marseille","lat":43.302759,"lon":5.400793,"is_reserved":false,"is_disabled":false,"rental_uris":{"android":"levelo://app?vid=48138ff3-6577-41db-91ba-06da6ac19d86","ios":"levelo://app?vid=48138ff3-6577-41db-91ba-06da6ac19d86"},"vehicle_type_id":"4","last_reported":1687979165,"current_range_meters":1200,"station_id":"ce4bgvh2rcd13ifvqcs0","pricing_plan_id":"free"},{"bike_id":"a04b93fe-e073-4942-9d3a-4ade8ba813e5","system_id":"levelo_inurba_marseille","lat":43.286039,"lon":5.370679,"is_reserved":false,"is_disabled":false,"rental_uris":{"android":"levelo://app?vid=a04b93fe-e073-4942-9d3a-4ade8ba813e5","ios":"levelo://app?vid=a04b93fe-e073-4942-9d3a-4ade8ba813e5"},"vehicle_type_id":"4","last_reported":1687979165,"current_range_meters":31200,"station_id":"ce4bht12rcd13ifvqi60","pricing_plan_id":"free"},{"bike_id":"2fee0e5d-8927-44db-afbd-d2c0ccab54cc","system_id":"levelo_inurba_marseille","lat":43.286039,"lon":5.370679,"is_reserved":false,"is_disabled":false,"rental_uris":{"android":"levelo://app?vid=2fee0e5d-8927-44db-afbd-d2c0ccab54cc","ios":"levelo://app?vid=2fee0e5d-8927-44db-afbd-d2c0ccab54cc"},"vehicle_type_id":"4","last_reported":1687979165,"current_range_meters":18800,"station_id":"ce4bht12rcd13ifvqi60","pricing_plan_id":"free"},{"bike_id":"5fbc2abe-f4c2-446b-b5b9-9ad17d23ccb9","system_id":"levelo_inurba_marseille","lat":43.287184,"lon":5.37937,"is_reserved":false,"is_disabled":false,"rental_uris":{"android":"levelo://app?vid=5fbc2abe-f4c2-446b-b5b9-9ad17d23ccb9","ios":"levelo://app?vid=5fbc2abe-f4c2-446b-b5b9-9ad17d23ccb9"},"vehicle_type_id":"4","last_reported":1687979165,"current_range_meters":21600,"station_id":"ce4bh9p2rcd13ifvqec0","pricing_plan_id":"free"},{"bike_id":"ff461c86-d043-478e-b3a9-75cbd7ad298e","system_id":"levelo_inurba_marseille","lat":43.287185,"lon":5.379373,"is_reserved":false,"is_disabled":false,"rental_uris":{"android":"levelo://app?vid=ff461c86-d043-478e-b3a9-75cbd7ad298e","ios":"levelo://app?vid=ff461c86-d043-478e-b3a9-75cbd7ad298e"},"vehicle_type_id":"4","last_reported":1687979165,"current_range_meters":3200,"station_id":"ce4bh9p2rcd13ifvqec0","pricing_plan_id":"free"},{"bike_id":"d11ac50c-4915-4f90-8bce-31b415e7becd","system_id":"levelo_inurba_marseille","lat":43.287184,"lon":5.37937,"is_reserved":false,"is_disabled":false,"rental_uris":{"android":"levelo://app?vid=d11ac50c-4915-4f90-8bce-31b415e7becd","ios":"levelo://app?vid=d11ac50c-4915-4f90-8bce-31b415e7becd"},"vehicle_type_id":"4","last_reported":1687979165,"current_range_meters":20400,"station_id":"ce4bh9p2rcd13ifvqec0","pricing_plan_id":"free"},{"bike_id":"b0cb67a1-9dba-48c8-98e8-3931f59d9a3f","system_id":"levelo_inurba_marseille","lat":43.287184,"lon":5.37937,"is_reserved":false,"is_disabled":false,"rental_uris":{"android":"levelo://app?vid=b0cb67a1-9dba-48c8-98e8-3931f59d9a3f","ios":"levelo://app?vid=b0cb67a1-9dba-48c8-98e8-3931f59d9a3f"},"vehicle_type_id":"4","last_reported":1687979165,"current_range_meters":2400,"station_id":"ce4bh9p2rcd13ifvqec0","pricing_plan_id":"free"},{"bike_id":"d69fed3a-efe9-46fb-b1dc-1240b8978d3e","system_id":"levelo_inurba_marseille","lat":43.31645,"lon":5.40437,"is_reserved":false,"is_disabled":false,"rental_uris":{"android":"levelo://app?vid=d69fed3a-efe9-46fb-b1dc-1240b8978d3e","ios":"levelo://app?vid=d69fed3a-efe9-46fb-b1dc-1240b8978d3e"},"vehicle_type_id":"4","last_reported":1687979165,"current_range_meters":24800,"station_id":"ce4bh012rcd13ifvqd00","pricing_plan_id":"free"},{"bike_id":"a1061082-72cd-4df6-ab2e-ad89367acf22","system_id":"levelo_inurba_marseille","lat":43.291994,"lon":5.392907,"is_reserved":false,"is_disabled":false,"rental_uris":{"android":"levelo://app?vid=a1061082-72cd-4df6-ab2e-ad89367acf22","ios":"levelo://app?vid=a1061082-72cd-4df6-ab2e-ad89367acf22"},"vehicle_type_id":"4","last_reported":1687979165,"current_range_meters":10400,"station_id":"ce4bh192rcd13ifvqdd0","pricing_plan_id":"free"},{"bike_id":"1b2ad83f-b611-4549-82fd-794c216ef3ce","system_id":"levelo_inurba_marseille","lat":43.28476,"lon":5.35909,"is_reserved":false,"is_disabled":false,"rental_uris":{"android":"levelo://app?vid=1b2ad83f-b611-4549-82fd-794c216ef3ce","ios":"levelo://app?vid=1b2ad83f-b611-4549-82fd-794c216ef3ce"},"vehicle_type_id":"4","last_reported":1687979165,"current_range_meters":24400,"station_id":"","pricing_plan_id":"free"},{"bike_id":"6292129f-8145-4a87-b18b-66726854f7fc","system_id":"levelo_inurba_marseille","lat":43.28461,"lon":5.35893,"is_reserved":false,"is_disabled":false,"rental_uris":{"android":"levelo://app?vid=6292129f-8145-4a87-b18b-66726854f7fc","ios":"levelo://app?vid=6292129f-8145-4a87-b18b-66726854f7fc"},"vehicle_type_id":"4","last_reported":1687979165,"current_range_meters":11600,"station_id":"ce4bhah2rcd13ifvqei0","pricing_plan_id":"free"},{"bike_id":"be939943-8001-4f8f-a324-c2cb41c2de05","system_id":"levelo_inurba_marseille","lat":43.28459,"lon":5.35895,"is_reserved":false,"is_disabled":false,"rental_uris":{"android":"levelo://app?vid=be939943-8001-4f8f-a324-c2cb41c2de05","ios":"levelo://app?vid=be939943-8001-4f8f-a324-c2cb41c2de05"},"vehicle_type_id":"4","last_reported":1687979165,"current_range_meters":21200,"station_id":"ce4bhah2rcd13ifvqei0","pricing_plan_id":"free"},{"bike_id":"f50ae5bf-278f-48ef-b838-f4623a38d353","system_id":"levelo_inurba_marseille","lat":43.286212,"lon":5.351099,"is_reserved":false,"is_disabled":false,"rental_uris":{"android":"levelo://app?vid=f50ae5bf-278f-48ef-b838-f4623a38d353","ios":"levelo://app?vid=f50ae5bf-278f-48ef-b838-f4623a38d353"},"vehicle_type_id":"4","last_reported":1687979165,"current_range_meters":15600,"station_id":"","pricing_plan_id":"free"},{"bike_id":"13b3460b-225a-4b11-a777-6ed1043f304f","system_id":"levelo_inurba_marseille","lat":43.285856,"lon":5.350771,"is_reserved":false,"is_disabled":false,"rental_uris":{"android":"levelo://app?vid=13b3460b-225a-4b11-a777-6ed1043f304f","ios":"levelo://app?vid=13b3460b-225a-4b11-a777-6ed1043f304f"},"vehicle_type_id":"4","last_reported":1687979165,"current_range_meters":19600,"station_id":"ce4bhch2rcd13ifvqeug","pricing_plan_id":"free"},{"bike_id":"a96764d4-c79e-4787-a70e-40d6a3b9e8f9","system_id":"levelo_inurba_marseille","lat":43.285856,"lon":5.350771,"is_reserved":false,"is_disabled":false,"rental_uris":{"android":"levelo://app?vid=a96764d4-c79e-4787-a70e-40d6a3b9e8f9","ios":"levelo://app?vid=a96764d4-c79e-4787-a70e-40d6a3b9e8f9"},"vehicle_type_id":"4","last_reported":1687979165,"current_range_meters":30400,"station_id":"ce4bhch2rcd13ifvqeug","pricing_plan_id":"free"},{"bike_id":"cb6c3b8d-5d04-4a55-8a39-81016aea25e2","system_id":"levelo_inurba_marseille","lat":43.28619,"lon":5.35102,"is_reserved":false,"is_disabled":false,"rental_uris":{"android":"levelo://app?vid=cb6c3b8d-5d04-4a55-8a39-81016aea25e2","ios":"levelo://app?vid=cb6c3b8d-5d04-4a55-8a39-81016aea25e2"},"vehicle_type_id":"4","last_reported":1687979165,"current_range_meters":29600,"station_id":"ce4bhch2rcd13ifvqeug","pricing_plan_id":"free"},{"bike_id":"60f75fd7-5385-443f-be78-5c2cfb594ac9","system_id":"levelo_inurba_marseille","lat":43.285856,"lon":5.350771,"is_reserved":false,"is_disabled":false,"rental_uris":{"android":"levelo://app?vid=60f75fd7-5385-443f-be78-5c2cfb594ac9","ios":"levelo://app?vid=60f75fd7-5385-443f-be78-5c2cfb594ac9"},"vehicle_type_id":"4","last_reported":1687979165,"current_range_meters":4000,"station_id":"ce4bhch2rcd13ifvqeug","pricing_plan_id":"free"},{"bike_id":"1bc70685-c35b-4cfe-8f3f-28ef39b5abe8","system_id":"levelo_inurba_marseille","lat":43.285856,"lon":5.350771,"is_reserved":false,"is_disabled":false,"rental_uris":{"android":"levelo://app?vid=1bc70685-c35b-4cfe-8f3f-28ef39b5abe8","ios":"levelo://app?vid=1bc70685-c35b-4cfe-8f3f-28ef39b5abe8"},"vehicle_type_id":"4","last_reported":1687979165,"current_range_meters":28800,"station_id":"ce4bhch2rcd13ifvqeug","pricing_plan_id":"free"},{"bike_id":"95de397a-c4a7-4b64-aee8-205046551c26","system_id":"levelo_inurba_marseille","lat":43.285856,"lon":5.350771,"is_reserved":false,"is_disabled":false,"rental_uris":{"android":"levelo://app?vid=95de397a-c4a7-4b64-aee8-205046551c26","ios":"levelo://app?vid=95de397a-c4a7-4b64-aee8-205046551c26"},"vehicle_type_id":"4","last_reported":1687979165,"current_range_meters":28800,"station_id":"ce4bhch2rcd13ifvqeug","pricing_plan_id":"free"},{"bike_id":"2ab68e89-44bd-4c96-9b75-5fcb26884947","system_id":"levelo_inurba_marseille","lat":43.28615,"lon":5.35096,"is_reserved":false,"is_disabled":false,"rental_uris":{"android":"levelo://app?vid=2ab68e89-44bd-4c96-9b75-5fcb26884947","ios":"levelo://app?vid=2ab68e89-44bd-4c96-9b75-5fcb26884947"},"vehicle_type_id":"4","last_reported":1687979165,"current_range_meters":31200,"station_id":"ce4bhch2rcd13ifvqeug","pricing_plan_id":"free"},{"bike_id":"384668b0-ec45-4524-9812-71fac27f20df","system_id":"levelo_inurba_marseille","lat":43.28612,"lon":5.35105,"is_reserved":false,"is_disabled":false,"rental_uris":{"android":"levelo://app?vid=384668b0-ec45-4524-9812-71fac27f20df","ios":"levelo://app?vid=384668b0-ec45-4524-9812-71fac27f20df"},"vehicle_type_id":"4","last_reported":1687979165,"current_range_meters":21600,"station_id":"ce4bhch2rcd13ifvqeug","pricing_plan_id":"free"},{"bike_id":"ba956849-3aeb-41c5-872f-f3f65af8d140","system_id":"levelo_inurba_marseille","lat":43.28614,"lon":5.35094,"is_reserved":false,"is_disabled":false,"rental_uris":{"android":"levelo://app?vid=ba956849-3aeb-41c5-872f-f3f65af8d140","ios":"levelo://app?vid=ba956849-3aeb-41c5-872f-f3f65af8d140"},"vehicle_type_id":"4","last_reported":1687979165,"current_range_meters":30000,"station_id":"ce4bhch2rcd13ifvqeug","pricing_plan_id":"free"},{"bike_id":"f5b27e4f-ae40-4132-b9f6-8d2162760cb4","system_id":"levelo_inurba_marseille","lat":43.28613,"lon":5.35096,"is_reserved":false,"is_disabled":false,"rental_uris":{"android":"levelo://app?vid=f5b27e4f-ae40-4132-b9f6-8d2162760cb4","ios":"levelo://app?vid=f5b27e4f-ae40-4132-b9f6-8d2162760cb4"},"vehicle_type_id":"4","last_reported":1687979165,"current_range_meters":31200,"station_id":"ce4bhch2rcd13ifvqeug","pricing_plan_id":"free"},{"bike_id":"66f1532b-62f9-40ea-bae4-df8b0b667265","system_id":"levelo_inurba_marseille","lat":43.285856,"lon":5.350771,"is_reserved":false,"is_disabled":false,"rental_uris":{"android":"levelo://app?vid=66f1532b-62f9-40ea-bae4-df8b0b667265","ios":"levelo://app?vid=66f1532b-62f9-40ea-bae4-df8b0b667265"},"vehicle_type_id":"4","last_reported":1687979165,"current_range_meters":17600,"station_id":"ce4bhch2rcd13ifvqeug","pricing_plan_id":"free"},{"bike_id":"94f2816f-c888-4ff0-9276-dd37c372bad4","system_id":"levelo_inurba_marseille","lat":43.28608,"lon":5.35095,"is_reserved":false,"is_disabled":false,"rental_uris":{"android":"levelo://app?vid=94f2816f-c888-4ff0-9276-dd37c372bad4","ios":"levelo://app?vid=94f2816f-c888-4ff0-9276-dd37c372bad4"},"vehicle_type_id":"4","last_reported":1687979165,"current_range_meters":31200,"station_id":"ce4bhch2rcd13ifvqeug","pricing_plan_id":"free"},{"bike_id":"6ab5af57-f986-4a79-bf33-483442bef7e3","system_id":"levelo_inurba_marseille","lat":43.283998,"lon":5.375062,"is_reserved":false,"is_disabled":false,"rental_uris":{"android":"levelo://app?vid=6ab5af57-f986-4a79-bf33-483442bef7e3","ios":"levelo://app?vid=6ab5af57-f986-4a79-bf33-483442bef7e3"},"vehicle_type_id":"4","last_reported":1687979165,"current_range_meters":3200,"station_id":"ce4bh412rcd13ifvqds0","pricing_plan_id":"free"},{"bike_id":"cfa781c2-0a76-4895-8ae7-42e4401a9d7c","system_id":"levelo_inurba_marseille","lat":43.283998,"lon":5.375062,"is_reserved":false,"is_disabled":false,"rental_uris":{"android":"levelo://app?vid=cfa781c2-0a76-4895-8ae7-42e4401a9d7c","ios":"levelo://app?vid=cfa781c2-0a76-4895-8ae7-42e4401a9d7c"},"vehicle_type_id":"4","last_reported":1687979165,"current_range_meters":400,"station_id":"ce4bh412rcd13ifvqds0","pricing_plan_id":"free"},{"bike_id":"51a1c203-2aed-4c7d-907b-9b081745b596","system_id":"levelo_inurba_marseille","lat":43.28406,"lon":5.37512,"is_reserved":false,"is_disabled":false,"rental_uris":{"android":"levelo://app?vid=51a1c203-2aed-4c7d-907b-9b081745b596","ios":"levelo://app?vid=51a1c203-2aed-4c7d-907b-9b081745b596"},"vehicle_type_id":"4","last_reported":1687979165,"current_range_meters":8400,"station_id":"ce4bh412rcd13ifvqds0","pricing_plan_id":"free"},{"bike_id":"d44f6bf6-f61e-4733-bcf8-8b78bf17b877","system_id":"levelo_inurba_marseille","lat":43.283998,"lon":5.375062,"is_reserved":false,"is_disabled":false,"rental_uris":{"android":"levelo://app?vid=d44f6bf6-f61e-4733-bcf8-8b78bf17b877","ios":"levelo://app?vid=d44f6bf6-f61e-4733-bcf8-8b78bf17b877"},"vehicle_type_id":"4","last_reported":1687979165,"current_range_meters":29200,"station_id":"ce4bh412rcd13ifvqds0","pricing_plan_id":"free"},{"bike_id":"56b25dde-51fb-4ed6-80f0-7cecc618a36d","system_id":"levelo_inurba_marseille","lat":43.290995,"lon":5.381361,"is_reserved":false,"is_disabled":false,"rental_uris":{"android":"levelo://app?vid=56b25dde-51fb-4ed6-80f0-7cecc618a36d","ios":"levelo://app?vid=56b25dde-51fb-4ed6-80f0-7cecc618a36d"},"vehicle_type_id":"4","last_reported":1687979165,"current_range_meters":22800,"station_id":"ce4bh512rcd13ifvqe2g","pricing_plan_id":"free"},{"bike_id":"89984c56-3300-4c3a-bac6-c86178b6dcac","system_id":"levelo_inurba_marseille","lat":43.287428,"lon":5.389267,"is_reserved":false,"is_disabled":false,"rental_uris":{"android":"levelo://app?vid=89984c56-3300-4c3a-bac6-c86178b6dcac","ios":"levelo://app?vid=89984c56-3300-4c3a-bac6-c86178b6dcac"},"vehicle_type_id":"4","last_reported":1687979165,"current_range_meters":18800,"station_id":"","pricing_plan_id":"free"},{"bike_id":"7188f8bb-0211-4599-8f00-5e69cedd52dc","system_id":"levelo_inurba_marseille","lat":43.32339,"lon":5.40615,"is_reserved":false,"is_disabled":false,"rental_uris":{"android":"levelo://app?vid=7188f8bb-0211-4599-8f00-5e69cedd52dc","ios":"levelo://app?vid=7188f8bb-0211-4599-8f00-5e69cedd52dc"},"vehicle_type_id":"4","last_reported":1687979165,"current_range_meters":31200,"station_id":"ce4bhq92rcd13ifvqhjg","pricing_plan_id":"free"},{"bike_id":"61a9a255-2f32-4469-bb9a-81d857dcfb5e","system_id":"levelo_inurba_marseille","lat":43.323464,"lon":5.406297,"is_reserved":false,"is_disabled":false,"rental_uris":{"android":"levelo://app?vid=61a9a255-2f32-4469-bb9a-81d857dcfb5e","ios":"levelo://app?vid=61a9a255-2f32-4469-bb9a-81d857dcfb5e"},"vehicle_type_id":"4","last_reported":1687979165,"current_range_meters":31200,"station_id":"ce4bhq92rcd13ifvqhjg","pricing_plan_id":"free"},{"bike_id":"3cdba368-bd0f-41d2-aabf-f64748cd8efd","system_id":"levelo_inurba_marseille","lat":43.323464,"lon":5.406297,"is_reserved":false,"is_disabled":false,"rental_uris":{"android":"levelo://app?vid=3cdba368-bd0f-41d2-aabf-f64748cd8efd","ios":"levelo://app?vid=3cdba368-bd0f-41d2-aabf-f64748cd8efd"},"vehicle_type_id":"4","last_reported":1687979165,"current_range_meters":31200,"station_id":"ce4bhq92rcd13ifvqhjg","pricing_plan_id":"free"},{"bike_id":"b4c950db-352f-4a1a-8e3c-c05101a6dad0","system_id":"levelo_inurba_marseille","lat":43.28803,"lon":5.39148,"is_reserved":false,"is_disabled":false,"rental_uris":{"android":"levelo://app?vid=b4c950db-352f-4a1a-8e3c-c05101a6dad0","ios":"levelo://app?vid=b4c950db-352f-4a1a-8e3c-c05101a6dad0"},"vehicle_type_id":"4","last_reported":1687979165,"current_range_meters":31200,"station_id":"","pricing_plan_id":"free"},{"bike_id":"99d4aa44-1f4d-40e2-b49b-3758c1f84c63","system_id":"levelo_inurba_marseille","lat":43.32338,"lon":5.40624,"is_reserved":false,"is_disabled":false,"rental_uris":{"android":"levelo://app?vid=99d4aa44-1f4d-40e2-b49b-3758c1f84c63","ios":"levelo://app?vid=99d4aa44-1f4d-40e2-b49b-3758c1f84c63"},"vehicle_type_id":"4","last_reported":1687979165,"current_range_meters":12000,"station_id":"ce4bhq92rcd13ifvqhjg","pricing_plan_id":"free"},{"bike_id":"0e1a5ddc-56e3-4364-a6ad-8d783817e325","system_id":"levelo_inurba_marseille","lat":43.284787,"lon":5.384116,"is_reserved":false,"is_disabled":false,"rental_uris":{"android":"levelo://app?vid=0e1a5ddc-56e3-4364-a6ad-8d783817e325","ios":"levelo://app?vid=0e1a5ddc-56e3-4364-a6ad-8d783817e325"},"vehicle_type_id":"4","last_reported":1687979165,"current_range_meters":14400,"station_id":"ce4bh512rcd13ifvqe3g","pricing_plan_id":"free"},{"bike_id":"71b2f79e-8b3e-497b-91f6-de53c8d19501","system_id":"levelo_inurba_marseille","lat":43.28473,"lon":5.38418,"is_reserved":false,"is_disabled":false,"rental_uris":{"android":"levelo://app?vid=71b2f79e-8b3e-497b-91f6-de53c8d19501","ios":"levelo://app?vid=71b2f79e-8b3e-497b-91f6-de53c8d19501"},"vehicle_type_id":"4","last_reported":1687979165,"current_range_meters":13600,"station_id":"ce4bh512rcd13ifvqe3g","pricing_plan_id":"free"},{"bike_id":"f36e012f-67c8-4805-aab8-cd1816d86d9a","system_id":"levelo_inurba_marseille","lat":43.28352,"lon":5.38107,"is_reserved":false,"is_disabled":false,"rental_uris":{"android":"levelo://app?vid=f36e012f-67c8-4805-aab8-cd1816d86d9a","ios":"levelo://app?vid=f36e012f-67c8-4805-aab8-cd1816d86d9a"},"vehicle_type_id":"4","last_reported":1687979165,"current_range_meters":28800,"station_id":"ce4bh412rcd13ifvqdr0","pricing_plan_id":"free"},{"bike_id":"5f298e1c-f631-4b71-a38e-d3afe8dc8927","system_id":"levelo_inurba_marseille","lat":43.283494,"lon":5.380945,"is_reserved":false,"is_disabled":false,"rental_uris":{"android":"levelo://app?vid=5f298e1c-f631-4b71-a38e-d3afe8dc8927","ios":"levelo://app?vid=5f298e1c-f631-4b71-a38e-d3afe8dc8927"},"vehicle_type_id":"4","last_reported":1687979165,"current_range_meters":30400,"station_id":"ce4bh412rcd13ifvqdr0","pricing_plan_id":"free"},{"bike_id":"6245a0d2-89bc-4485-b36c-709516d26ad5","system_id":"levelo_inurba_marseille","lat":43.28426,"lon":5.34976,"is_reserved":false,"is_disabled":false,"rental_uris":{"android":"levelo://app?vid=6245a0d2-89bc-4485-b36c-709516d26ad5","ios":"levelo://app?vid=6245a0d2-89bc-4485-b36c-709516d26ad5"},"vehicle_type_id":"4","last_reported":1687979165,"current_range_meters":19200,"station_id":"ce4bhbh2rcd13ifvqepg","pricing_plan_id":"free"},{"bike_id":"1f32994a-6332-407a-b0ae-81eb1c4e0407","system_id":"levelo_inurba_marseille","lat":43.284219,"lon":5.3497,"is_reserved":false,"is_disabled":false,"rental_uris":{"android":"levelo://app?vid=1f32994a-6332-407a-b0ae-81eb1c4e0407","ios":"levelo://app?vid=1f32994a-6332-407a-b0ae-81eb1c4e0407"},"vehicle_type_id":"4","last_reported":1687979165,"current_range_meters":29600,"station_id":"ce4bhbh2rcd13ifvqepg","pricing_plan_id":"free"},{"bike_id":"d9f1c280-5790-45ed-9cb1-edb75a9c5469","system_id":"levelo_inurba_marseille","lat":43.28421,"lon":5.34976,"is_reserved":false,"is_disabled":false,"rental_uris":{"android":"levelo://app?vid=d9f1c280-5790-45ed-9cb1-edb75a9c5469","ios":"levelo://app?vid=d9f1c280-5790-45ed-9cb1-edb75a9c5469"},"vehicle_type_id":"4","last_reported":1687979165,"current_range_meters":26800,"station_id":"ce4bhbh2rcd13ifvqepg","pricing_plan_id":"free"},{"bike_id":"0e9f8bef-d9b1-44de-aecf-407a260555b9","system_id":"levelo_inurba_marseille","lat":43.284217,"lon":5.349697,"is_reserved":false,"is_disabled":false,"rental_uris":{"android":"levelo://app?vid=0e9f8bef-d9b1-44de-aecf-407a260555b9","ios":"levelo://app?vid=0e9f8bef-d9b1-44de-aecf-407a260555b9"},"vehicle_type_id":"4","last_reported":1687979165,"current_range_meters":26000,"station_id":"ce4bhbh2rcd13ifvqepg","pricing_plan_id":"free"},{"bike_id":"329f8e3b-a5cc-43a6-be60-e85219d80081","system_id":"levelo_inurba_marseille","lat":43.28421,"lon":5.34974,"is_reserved":false,"is_disabled":false,"rental_uris":{"android":"levelo://app?vid=329f8e3b-a5cc-43a6-be60-e85219d80081","ios":"levelo://app?vid=329f8e3b-a5cc-43a6-be60-e85219d80081"},"vehicle_type_id":"4","last_reported":1687979165,"current_range_meters":24000,"station_id":"ce4bhbh2rcd13ifvqepg","pricing_plan_id":"free"},{"bike_id":"cf915bbf-0044-4576-b1e4-cf946d68cb7e","system_id":"levelo_inurba_marseille","lat":43.2842,"lon":5.34975,"is_reserved":false,"is_disabled":false,"rental_uris":{"android":"levelo://app?vid=cf915bbf-0044-4576-b1e4-cf946d68cb7e","ios":"levelo://app?vid=cf915bbf-0044-4576-b1e4-cf946d68cb7e"},"vehicle_type_id":"4","last_reported":1687979165,"current_range_meters":12800,"station_id":"ce4bhbh2rcd13ifvqepg","pricing_plan_id":"free"},{"bike_id":"d6c4e898-8ba4-4263-9721-bf4b8ab9e3a9","system_id":"levelo_inurba_marseille","lat":43.284217,"lon":5.349697,"is_reserved":false,"is_disabled":false,"rental_uris":{"android":"levelo://app?vid=d6c4e898-8ba4-4263-9721-bf4b8ab9e3a9","ios":"levelo://app?vid=d6c4e898-8ba4-4263-9721-bf4b8ab9e3a9"},"vehicle_type_id":"4","last_reported":1687979165,"current_range_meters":24000,"station_id":"ce4bhbh2rcd13ifvqepg","pricing_plan_id":"free"},{"bike_id":"149a11cd-adeb-4893-bccb-5b39d9f27b86","system_id":"levelo_inurba_marseille","lat":43.284217,"lon":5.349697,"is_reserved":false,"is_disabled":false,"rental_uris":{"android":"levelo://app?vid=149a11cd-adeb-4893-bccb-5b39d9f27b86","ios":"levelo://app?vid=149a11cd-adeb-4893-bccb-5b39d9f27b86"},"vehicle_type_id":"4","last_reported":1687979165,"current_range_meters":26000,"station_id":"ce4bhbh2rcd13ifvqepg","pricing_plan_id":"free"},{"bike_id":"0585ebd5-41bc-4659-b1ce-884e6f87964a","system_id":"levelo_inurba_marseille","lat":43.284217,"lon":5.349697,"is_reserved":false,"is_disabled":false,"rental_uris":{"android":"levelo://app?vid=0585ebd5-41bc-4659-b1ce-884e6f87964a","ios":"levelo://app?vid=0585ebd5-41bc-4659-b1ce-884e6f87964a"},"vehicle_type_id":"4","last_reported":1687979165,"current_range_meters":23200,"station_id":"ce4bhbh2rcd13ifvqepg","pricing_plan_id":"free"},{"bike_id":"82911318-a9fd-4158-ac0d-5e7767324dc0","system_id":"levelo_inurba_marseille","lat":43.28415,"lon":5.34972,"is_reserved":false,"is_disabled":false,"rental_uris":{"android":"levelo://app?vid=82911318-a9fd-4158-ac0d-5e7767324dc0","ios":"levelo://app?vid=82911318-a9fd-4158-ac0d-5e7767324dc0"},"vehicle_type_id":"4","last_reported":1687979165,"current_range_meters":3200,"station_id":"ce4bhbh2rcd13ifvqepg","pricing_plan_id":"free"},{"bike_id":"03db7a63-8184-45a5-b27b-ccc135182105","system_id":"levelo_inurba_marseille","lat":43.284217,"lon":5.349697,"is_reserved":false,"is_disabled":false,"rental_uris":{"android":"levelo://app?vid=03db7a63-8184-45a5-b27b-ccc135182105","ios":"levelo://app?vid=03db7a63-8184-45a5-b27b-ccc135182105"},"vehicle_type_id":"4","last_reported":1687979165,"current_range_meters":25600,"station_id":"ce4bhbh2rcd13ifvqepg","pricing_plan_id":"free"},{"bike_id":"aedb8b09-efc3-44d9-8cac-00ae0aad6d49","system_id":"levelo_inurba_marseille","lat":43.28415,"lon":5.34968,"is_reserved":false,"is_disabled":false,"rental_uris":{"android":"levelo://app?vid=aedb8b09-efc3-44d9-8cac-00ae0aad6d49","ios":"levelo://app?vid=aedb8b09-efc3-44d9-8cac-00ae0aad6d49"},"vehicle_type_id":"4","last_reported":1687979165,"current_range_meters":24000,"station_id":"ce4bhbh2rcd13ifvqepg","pricing_plan_id":"free"},{"bike_id":"95fce0dc-8b5d-4f58-bf19-1f672a8be61a","system_id":"levelo_inurba_marseille","lat":43.28408,"lon":5.34989,"is_reserved":false,"is_disabled":false,"rental_uris":{"android":"levelo://app?vid=95fce0dc-8b5d-4f58-bf19-1f672a8be61a","ios":"levelo://app?vid=95fce0dc-8b5d-4f58-bf19-1f672a8be61a"},"vehicle_type_id":"4","last_reported":1687979165,"current_range_meters":31200,"station_id":"ce4bhbh2rcd13ifvqepg","pricing_plan_id":"free"},{"bike_id":"d2b736df-646f-4bbd-8e01-25e5c94febea","system_id":"levelo_inurba_marseille","lat":43.283671,"lon":5.38536,"is_reserved":false,"is_disabled":false,"rental_uris":{"android":"levelo://app?vid=d2b736df-646f-4bbd-8e01-25e5c94febea","ios":"levelo://app?vid=d2b736df-646f-4bbd-8e01-25e5c94febea"},"vehicle_type_id":"4","last_reported":1687979165,"current_range_meters":0,"station_id":"","pricing_plan_id":"free"},{"bike_id":"17123868-364b-4c85-b2de-533a04691ec7","system_id":"levelo_inurba_marseille","lat":43.282754,"lon":5.350519,"is_reserved":false,"is_disabled":false,"rental_uris":{"android":"levelo://app?vid=17123868-364b-4c85-b2de-533a04691ec7","ios":"levelo://app?vid=17123868-364b-4c85-b2de-533a04691ec7"},"vehicle_type_id":"4","last_reported":1687979165,"current_range_meters":5200,"station_id":"ce4bhbp2rcd13ifvqerg","pricing_plan_id":"free"},{"bike_id":"aaad4b0c-c1cc-433d-bbd8-15c016506650","system_id":"levelo_inurba_marseille","lat":43.283502,"lon":5.386471,"is_reserved":false,"is_disabled":false,"rental_uris":{"android":"levelo://app?vid=aaad4b0c-c1cc-433d-bbd8-15c016506650","ios":"levelo://app?vid=aaad4b0c-c1cc-433d-bbd8-15c016506650"},"vehicle_type_id":"4","last_reported":1687979165,"current_range_meters":24000,"station_id":"ce4bh492rcd13ifvqdvg","pricing_plan_id":"free"},{"bike_id":"fabdd713-02cb-40fe-8d0f-315db13115eb","system_id":"levelo_inurba_marseille","lat":43.28039,"lon":5.369297,"is_reserved":false,"is_disabled":false,"rental_uris":{"android":"levelo://app?vid=fabdd713-02cb-40fe-8d0f-315db13115eb","ios":"levelo://app?vid=fabdd713-02cb-40fe-8d0f-315db13115eb"},"vehicle_type_id":"4","last_reported":1687979165,"current_range_meters":14800,"station_id":"ce4bha12rcd13ifvqef0","pricing_plan_id":"free"},{"bike_id":"b8b9556e-d3a0-4baa-a33c-189963161131","system_id":"levelo_inurba_marseille","lat":43.280382,"lon":5.369291,"is_reserved":false,"is_disabled":false,"rental_uris":{"android":"levelo://app?vid=b8b9556e-d3a0-4baa-a33c-189963161131","ios":"levelo://app?vid=b8b9556e-d3a0-4baa-a33c-189963161131"},"vehicle_type_id":"4","last_reported":1687979165,"current_range_meters":28400,"station_id":"ce4bha12rcd13ifvqef0","pricing_plan_id":"free"},{"bike_id":"03560eb2-9ffc-4e32-b83b-c2125b2f76d8","system_id":"levelo_inurba_marseille","lat":43.283502,"lon":5.386471,"is_reserved":false,"is_disabled":false,"rental_uris":{"android":"levelo://app?vid=03560eb2-9ffc-4e32-b83b-c2125b2f76d8","ios":"levelo://app?vid=03560eb2-9ffc-4e32-b83b-c2125b2f76d8"},"vehicle_type_id":"4","last_reported":1687979165,"current_range_meters":5200,"station_id":"ce4bh492rcd13ifvqdvg","pricing_plan_id":"free"},{"bike_id":"186c427f-67f5-4ca8-9839-aa391ed0ad49","system_id":"levelo_inurba_marseille","lat":43.281044,"lon":5.378308,"is_reserved":false,"is_disabled":false,"rental_uris":{"android":"levelo://app?vid=186c427f-67f5-4ca8-9839-aa391ed0ad49","ios":"levelo://app?vid=186c427f-67f5-4ca8-9839-aa391ed0ad49"},"vehicle_type_id":"4","last_reported":1687979165,"current_range_meters":22400,"station_id":"ce4bha12rcd13ifvqee0","pricing_plan_id":"free"},{"bike_id":"ea2cb0a0-97c4-4f0b-8c2d-d42481ea326d","system_id":"levelo_inurba_marseille","lat":43.281044,"lon":5.378308,"is_reserved":false,"is_disabled":false,"rental_uris":{"android":"levelo://app?vid=ea2cb0a0-97c4-4f0b-8c2d-d42481ea326d","ios":"levelo://app?vid=ea2cb0a0-97c4-4f0b-8c2d-d42481ea326d"},"vehicle_type_id":"4","last_reported":1687979165,"current_range_meters":8000,"station_id":"ce4bha12rcd13ifvqee0","pricing_plan_id":"free"},{"bike_id":"c8e6ce45-f2b5-4772-a564-3c2039eea91a","system_id":"levelo_inurba_marseille","lat":43.33077,"lon":5.40566,"is_reserved":false,"is_disabled":false,"rental_uris":{"android":"levelo://app?vid=c8e6ce45-f2b5-4772-a564-3c2039eea91a","ios":"levelo://app?vid=c8e6ce45-f2b5-4772-a564-3c2039eea91a"},"vehicle_type_id":"4","last_reported":1687979165,"current_range_meters":1600,"station_id":"","pricing_plan_id":"free"},{"bike_id":"33066033-4b6b-4d57-8001-ba9e3be99e26","system_id":"levelo_inurba_marseille","lat":43.33075,"lon":5.40569,"is_reserved":false,"is_disabled":false,"rental_uris":{"android":"levelo://app?vid=33066033-4b6b-4d57-8001-ba9e3be99e26","ios":"levelo://app?vid=33066033-4b6b-4d57-8001-ba9e3be99e26"},"vehicle_type_id":"4","last_reported":1687979165,"current_range_meters":24000,"station_id":"","pricing_plan_id":"free"},{"bike_id":"70a5372c-27e1-4492-bf80-e34e81940adc","system_id":"levelo_inurba_marseille","lat":43.284462,"lon":5.392121,"is_reserved":false,"is_disabled":false,"rental_uris":{"android":"levelo://app?vid=70a5372c-27e1-4492-bf80-e34e81940adc","ios":"levelo://app?vid=70a5372c-27e1-4492-bf80-e34e81940adc"},"vehicle_type_id":"4","last_reported":1687979165,"current_range_meters":1200,"station_id":"ce4bhoh2rcd13ifvqh5g","pricing_plan_id":"free"},{"bike_id":"96c22520-7500-4782-8292-c9926b188f84","system_id":"levelo_inurba_marseille","lat":43.28573,"lon":5.394992,"is_reserved":false,"is_disabled":false,"rental_uris":{"android":"levelo://app?vid=96c22520-7500-4782-8292-c9926b188f84","ios":"levelo://app?vid=96c22520-7500-4782-8292-c9926b188f84"},"vehicle_type_id":"4","last_reported":1687979165,"current_range_meters":0,"station_id":"ce4bh292rcd13ifvqdg0","pricing_plan_id":"free"},{"bike_id":"94cd5cee-81d7-4ad5-a0b7-988b3afd962f","system_id":"levelo_inurba_marseille","lat":43.32659,"lon":5.40989,"is_reserved":false,"is_disabled":false,"rental_uris":{"android":"levelo://app?vid=94cd5cee-81d7-4ad5-a0b7-988b3afd962f","ios":"levelo://app?vid=94cd5cee-81d7-4ad5-a0b7-988b3afd962f"},"vehicle_type_id":"4","last_reported":1687979165,"current_range_meters":24400,"station_id":"ce4bhpp2rcd13ifvqhgg","pricing_plan_id":"free"},{"bike_id":"75449481-f82f-4483-b7a3-84ee0f611873","system_id":"levelo_inurba_marseille","lat":43.326605,"lon":5.409903,"is_reserved":false,"is_disabled":false,"rental_uris":{"android":"levelo://app?vid=75449481-f82f-4483-b7a3-84ee0f611873","ios":"levelo://app?vid=75449481-f82f-4483-b7a3-84ee0f611873"},"vehicle_type_id":"4","last_reported":1687979165,"current_range_meters":24000,"station_id":"ce4bhpp2rcd13ifvqhgg","pricing_plan_id":"free"},{"bike_id":"c163097e-e22c-4cec-be61-d39c6e8eec79","system_id":"levelo_inurba_marseille","lat":43.326605,"lon":5.409903,"is_reserved":false,"is_disabled":false,"rental_uris":{"android":"levelo://app?vid=c163097e-e22c-4cec-be61-d39c6e8eec79","ios":"levelo://app?vid=c163097e-e22c-4cec-be61-d39c6e8eec79"},"vehicle_type_id":"4","last_reported":1687979165,"current_range_meters":8400,"station_id":"ce4bhpp2rcd13ifvqhgg","pricing_plan_id":"free"},{"bike_id":"0c9eee73-532e-4f1f-8b23-5a0693e22298","system_id":"levelo_inurba_marseille","lat":43.326605,"lon":5.409903,"is_reserved":false,"is_disabled":false,"rental_uris":{"android":"levelo://app?vid=0c9eee73-532e-4f1f-8b23-5a0693e22298","ios":"levelo://app?vid=0c9eee73-532e-4f1f-8b23-5a0693e22298"},"vehicle_type_id":"4","last_reported":1687979165,"current_range_meters":26400,"station_id":"ce4bhpp2rcd13ifvqhgg","pricing_plan_id":"free"},{"bike_id":"09b0019c-6caa-4fb3-b6fb-07f8ca86d600","system_id":"levelo_inurba_marseille","lat":43.304188,"lon":5.412904,"is_reserved":false,"is_disabled":false,"rental_uris":{"android":"levelo://app?vid=09b0019c-6caa-4fb3-b6fb-07f8ca86d600","ios":"levelo://app?vid=09b0019c-6caa-4fb3-b6fb-07f8ca86d600"},"vehicle_type_id":"4","last_reported":1687979165,"current_range_meters":6000,"station_id":"ce4bhop2rcd13ifvqh8g","pricing_plan_id":"free"},{"bike_id":"0090abfb-16e8-4f29-8d7b-c84b137e9e84","system_id":"levelo_inurba_marseille","lat":43.304188,"lon":5.412904,"is_reserved":false,"is_disabled":false,"rental_uris":{"android":"levelo://app?vid=0090abfb-16e8-4f29-8d7b-c84b137e9e84","ios":"levelo://app?vid=0090abfb-16e8-4f29-8d7b-c84b137e9e84"},"vehicle_type_id":"4","last_reported":1687979165,"current_range_meters":30800,"station_id":"ce4bhop2rcd13ifvqh8g","pricing_plan_id":"free"},{"bike_id":"85bdcdb7-ad73-4664-aa44-98be6bc04b09","system_id":"levelo_inurba_marseille","lat":43.304188,"lon":5.412904,"is_reserved":false,"is_disabled":false,"rental_uris":{"android":"levelo://app?vid=85bdcdb7-ad73-4664-aa44-98be6bc04b09","ios":"levelo://app?vid=85bdcdb7-ad73-4664-aa44-98be6bc04b09"},"vehicle_type_id":"4","last_reported":1687979165,"current_range_meters":8800,"station_id":"ce4bhop2rcd13ifvqh8g","pricing_plan_id":"free"},{"bike_id":"50fd953c-9754-45f4-aec7-ae52bb9eb6fe","system_id":"levelo_inurba_marseille","lat":43.287154,"lon":5.399979,"is_reserved":false,"is_disabled":false,"rental_uris":{"android":"levelo://app?vid=50fd953c-9754-45f4-aec7-ae52bb9eb6fe","ios":"levelo://app?vid=50fd953c-9754-45f4-aec7-ae52bb9eb6fe"},"vehicle_type_id":"4","last_reported":1687979165,"current_range_meters":31200,"station_id":"ce4bho92rcd13ifvqh3g","pricing_plan_id":"free"},{"bike_id":"d121dca8-2596-4f85-a2a1-3d6410e5eda4","system_id":"levelo_inurba_marseille","lat":43.33162,"lon":5.40796,"is_reserved":false,"is_disabled":false,"rental_uris":{"android":"levelo://app?vid=d121dca8-2596-4f85-a2a1-3d6410e5eda4","ios":"levelo://app?vid=d121dca8-2596-4f85-a2a1-3d6410e5eda4"},"vehicle_type_id":"4","last_reported":1687979165,"current_range_meters":24800,"station_id":"","pricing_plan_id":"free"},{"bike_id":"e9c2d1ce-f06e-4d72-a0da-5c5108934f47","system_id":"levelo_inurba_marseille","lat":43.320045,"lon":5.415046,"is_reserved":false,"is_disabled":false,"rental_uris":{"android":"levelo://app?vid=e9c2d1ce-f06e-4d72-a0da-5c5108934f47","ios":"levelo://app?vid=e9c2d1ce-f06e-4d72-a0da-5c5108934f47"},"vehicle_type_id":"4","last_reported":1687979165,"current_range_meters":24800,"station_id":"ce4bhq92rcd13ifvqhkg","pricing_plan_id":"free"},{"bike_id":"8fa55dbe-7e77-4ea4-b1c8-3536c1a1c076","system_id":"levelo_inurba_marseille","lat":43.279742,"lon":5.38744,"is_reserved":false,"is_disabled":false,"rental_uris":{"android":"levelo://app?vid=8fa55dbe-7e77-4ea4-b1c8-3536c1a1c076","ios":"levelo://app?vid=8fa55dbe-7e77-4ea4-b1c8-3536c1a1c076"},"vehicle_type_id":"4","last_reported":1687979165,"current_range_meters":4800,"station_id":"ce4bhg12rcd13ifvqf80","pricing_plan_id":"free"},{"bike_id":"6a3ea2b5-8b46-48c9-9e84-e624bc40e38a","system_id":"levelo_inurba_marseille","lat":43.320045,"lon":5.415048,"is_reserved":false,"is_disabled":false,"rental_uris":{"android":"levelo://app?vid=6a3ea2b5-8b46-48c9-9e84-e624bc40e38a","ios":"levelo://app?vid=6a3ea2b5-8b46-48c9-9e84-e624bc40e38a"},"vehicle_type_id":"4","last_reported":1687979165,"current_range_meters":7200,"station_id":"ce4bhq92rcd13ifvqhkg","pricing_plan_id":"free"},{"bike_id":"010303de-9f53-47c9-8014-4eeafc88e3fa","system_id":"levelo_inurba_marseille","lat":43.320045,"lon":5.415048,"is_reserved":false,"is_disabled":false,"rental_uris":{"android":"levelo://app?vid=010303de-9f53-47c9-8014-4eeafc88e3fa","ios":"levelo://app?vid=010303de-9f53-47c9-8014-4eeafc88e3fa"},"vehicle_type_id":"4","last_reported":1687979165,"current_range_meters":31200,"station_id":"ce4bhq92rcd13ifvqhkg","pricing_plan_id":"free"},{"bike_id":"bbc84b7a-b2e6-48ed-97ab-1532e69745aa","system_id":"levelo_inurba_marseille","lat":43.32047,"lon":5.41552,"is_reserved":false,"is_disabled":false,"rental_uris":{"android":"levelo://app?vid=bbc84b7a-b2e6-48ed-97ab-1532e69745aa","ios":"levelo://app?vid=bbc84b7a-b2e6-48ed-97ab-1532e69745aa"},"vehicle_type_id":"4","last_reported":1687979165,"current_range_meters":8000,"station_id":"ce4bhq92rcd13ifvqhkg","pricing_plan_id":"free"},{"bike_id":"0350df4d-622b-4587-ae9b-a0abc5b8dae4","system_id":"levelo_inurba_marseille","lat":43.279742,"lon":5.38744,"is_reserved":false,"is_disabled":false,"rental_uris":{"android":"levelo://app?vid=0350df4d-622b-4587-ae9b-a0abc5b8dae4","ios":"levelo://app?vid=0350df4d-622b-4587-ae9b-a0abc5b8dae4"},"vehicle_type_id":"4","last_reported":1687979165,"current_range_meters":7600,"station_id":"ce4bhg12rcd13ifvqf80","pricing_plan_id":"free"},{"bike_id":"528912a9-44e3-4db1-83ad-2a8880568f61","system_id":"levelo_inurba_marseille","lat":43.292569,"lon":5.409107,"is_reserved":false,"is_disabled":false,"rental_uris":{"android":"levelo://app?vid=528912a9-44e3-4db1-83ad-2a8880568f61","ios":"levelo://app?vid=528912a9-44e3-4db1-83ad-2a8880568f61"},"vehicle_type_id":"4","last_reported":1687979165,"current_range_meters":12400,"station_id":"ce4bh192rcd13ifvqdc0","pricing_plan_id":"free"},{"bike_id":"55f655dc-03e3-4ac0-918b-ba06467c4713","system_id":"levelo_inurba_marseille","lat":43.276179,"lon":5.361009,"is_reserved":false,"is_disabled":false,"rental_uris":{"android":"levelo://app?vid=55f655dc-03e3-4ac0-918b-ba06467c4713","ios":"levelo://app?vid=55f655dc-03e3-4ac0-918b-ba06467c4713"},"vehicle_type_id":"4","last_reported":1687979165,"current_range_meters":31200,"station_id":"ce4bgj92rcd13ifvqbe0","pricing_plan_id":"free"},{"bike_id":"a6bb7a54-7994-4919-870b-defcf700caf5","system_id":"levelo_inurba_marseille","lat":43.276179,"lon":5.361009,"is_reserved":false,"is_disabled":false,"rental_uris":{"android":"levelo://app?vid=a6bb7a54-7994-4919-870b-defcf700caf5","ios":"levelo://app?vid=a6bb7a54-7994-4919-870b-defcf700caf5"},"vehicle_type_id":"4","last_reported":1687979165,"current_range_meters":20400,"station_id":"ce4bgj92rcd13ifvqbe0","pricing_plan_id":"free"},{"bike_id":"0c59cda5-c513-43a0-b05a-ce87d5cd98dd","system_id":"levelo_inurba_marseille","lat":43.2804,"lon":5.39392,"is_reserved":false,"is_disabled":false,"rental_uris":{"android":"levelo://app?vid=0c59cda5-c513-43a0-b05a-ce87d5cd98dd","ios":"levelo://app?vid=0c59cda5-c513-43a0-b05a-ce87d5cd98dd"},"vehicle_type_id":"4","last_reported":1687979165,"current_range_meters":18000,"station_id":"","pricing_plan_id":"free"},{"bike_id":"8bdfecce-ddb7-481a-b1ed-62f98c618409","system_id":"levelo_inurba_marseille","lat":43.33612,"lon":5.410321,"is_reserved":false,"is_disabled":false,"rental_uris":{"android":"levelo://app?vid=8bdfecce-ddb7-481a-b1ed-62f98c618409","ios":"levelo://app?vid=8bdfecce-ddb7-481a-b1ed-62f98c618409"},"vehicle_type_id":"4","last_reported":1687979165,"current_range_meters":28000,"station_id":"ce4bhqh2rcd13ifvqhmg","pricing_plan_id":"free"},{"bike_id":"8c1ac594-dd3d-4987-8d15-d56b179b8cce","system_id":"levelo_inurba_marseille","lat":43.27831,"lon":5.39203,"is_reserved":false,"is_disabled":false,"rental_uris":{"android":"levelo://app?vid=8c1ac594-dd3d-4987-8d15-d56b179b8cce","ios":"levelo://app?vid=8c1ac594-dd3d-4987-8d15-d56b179b8cce"},"vehicle_type_id":"4","last_reported":1687979165,"current_range_meters":0,"station_id":"ce4bhjp2rcd13ifvqga0","pricing_plan_id":"free"},{"bike_id":"6405920c-d7fb-4b97-ac6b-6e2727e52eb1","system_id":"levelo_inurba_marseille","lat":43.275625,"lon":5.384392,"is_reserved":false,"is_disabled":false,"rental_uris":{"android":"levelo://app?vid=6405920c-d7fb-4b97-ac6b-6e2727e52eb1","ios":"levelo://app?vid=6405920c-d7fb-4b97-ac6b-6e2727e52eb1"},"vehicle_type_id":"4","last_reported":1687979165,"current_range_meters":23200,"station_id":"ce4bhh92rcd13ifvqfi0","pricing_plan_id":"free"},{"bike_id":"c5ab6b3d-f7c7-4999-bf14-8a270e7c0a03","system_id":"levelo_inurba_marseille","lat":43.275625,"lon":5.384392,"is_reserved":false,"is_disabled":false,"rental_uris":{"android":"levelo://app?vid=c5ab6b3d-f7c7-4999-bf14-8a270e7c0a03","ios":"levelo://app?vid=c5ab6b3d-f7c7-4999-bf14-8a270e7c0a03"},"vehicle_type_id":"4","last_reported":1687979165,"current_range_meters":16800,"station_id":"ce4bhh92rcd13ifvqfi0","pricing_plan_id":"free"},{"bike_id":"93e81fa2-5305-4856-9d78-c9447607ebf2","system_id":"levelo_inurba_marseille","lat":43.27376,"lon":5.36264,"is_reserved":false,"is_disabled":false,"rental_uris":{"android":"levelo://app?vid=93e81fa2-5305-4856-9d78-c9447607ebf2","ios":"levelo://app?vid=93e81fa2-5305-4856-9d78-c9447607ebf2"},"vehicle_type_id":"4","last_reported":1687979165,"current_range_meters":31200,"station_id":"ce4bhbh2rcd13ifvqeo0","pricing_plan_id":"free"},{"bike_id":"d897e3bf-4a06-4a7a-aff4-0b75f42b90aa","system_id":"levelo_inurba_marseille","lat":43.273613,"lon":5.362705,"is_reserved":false,"is_disabled":false,"rental_uris":{"android":"levelo://app?vid=d897e3bf-4a06-4a7a-aff4-0b75f42b90aa","ios":"levelo://app?vid=d897e3bf-4a06-4a7a-aff4-0b75f42b90aa"},"vehicle_type_id":"4","last_reported":1687979165,"current_range_meters":31200,"station_id":"ce4bhbh2rcd13ifvqeo0","pricing_plan_id":"free"},{"bike_id":"f611e4b7-1364-4ceb-9e50-6fb20b5e6e20","system_id":"levelo_inurba_marseille","lat":43.33612,"lon":5.410321,"is_reserved":false,"is_disabled":false,"rental_uris":{"android":"levelo://app?vid=f611e4b7-1364-4ceb-9e50-6fb20b5e6e20","ios":"levelo://app?vid=f611e4b7-1364-4ceb-9e50-6fb20b5e6e20"},"vehicle_type_id":"4","last_reported":1687979165,"current_range_meters":15600,"station_id":"ce4bhqh2rcd13ifvqhmg","pricing_plan_id":"free"},{"bike_id":"7f5c6969-67d2-4e3f-aa50-f533d9e8163c","system_id":"levelo_inurba_marseille","lat":43.273609,"lon":5.362708,"is_reserved":false,"is_disabled":false,"rental_uris":{"android":"levelo://app?vid=7f5c6969-67d2-4e3f-aa50-f533d9e8163c","ios":"levelo://app?vid=7f5c6969-67d2-4e3f-aa50-f533d9e8163c"},"vehicle_type_id":"4","last_reported":1687979165,"current_range_meters":9200,"station_id":"ce4bhbh2rcd13ifvqeo0","pricing_plan_id":"free"},{"bike_id":"b1c671a1-e97b-41b7-9f22-29ba7a082702","system_id":"levelo_inurba_marseille","lat":43.336134,"lon":5.410341,"is_reserved":false,"is_disabled":false,"rental_uris":{"android":"levelo://app?vid=b1c671a1-e97b-41b7-9f22-29ba7a082702","ios":"levelo://app?vid=b1c671a1-e97b-41b7-9f22-29ba7a082702"},"vehicle_type_id":"4","last_reported":1687979165,"current_range_meters":30800,"station_id":"ce4bhqh2rcd13ifvqhmg","pricing_plan_id":"free"},{"bike_id":"623c8894-8215-47a1-a05c-a1939d4aa766","system_id":"levelo_inurba_marseille","lat":43.33613,"lon":5.41022,"is_reserved":false,"is_disabled":false,"rental_uris":{"android":"levelo://app?vid=623c8894-8215-47a1-a05c-a1939d4aa766","ios":"levelo://app?vid=623c8894-8215-47a1-a05c-a1939d4aa766"},"vehicle_type_id":"4","last_reported":1687979165,"current_range_meters":30800,"station_id":"ce4bhqh2rcd13ifvqhmg","pricing_plan_id":"free"},{"bike_id":"d16a5057-335c-4f77-856e-44973c141fd2","system_id":"levelo_inurba_marseille","lat":43.33611,"lon":5.41026,"is_reserved":false,"is_disabled":false,"rental_uris":{"android":"levelo://app?vid=d16a5057-335c-4f77-856e-44973c141fd2","ios":"levelo://app?vid=d16a5057-335c-4f77-856e-44973c141fd2"},"vehicle_type_id":"4","last_reported":1687979165,"current_range_meters":8800,"station_id":"ce4bhqh2rcd13ifvqhmg","pricing_plan_id":"free"},{"bike_id":"56b79a50-b8ae-47b7-9d32-853789f4b99b","system_id":"levelo_inurba_marseille","lat":43.336134,"lon":5.410341,"is_reserved":false,"is_disabled":false,"rental_uris":{"android":"levelo://app?vid=56b79a50-b8ae-47b7-9d32-853789f4b99b","ios":"levelo://app?vid=56b79a50-b8ae-47b7-9d32-853789f4b99b"},"vehicle_type_id":"4","last_reported":1687979165,"current_range_meters":24800,"station_id":"ce4bhqh2rcd13ifvqhmg","pricing_plan_id":"free"},{"bike_id":"445b81fc-5a7d-41e7-b072-52069b7c18ee","system_id":"levelo_inurba_marseille","lat":43.33611,"lon":5.41029,"is_reserved":false,"is_disabled":false,"rental_uris":{"android":"levelo://app?vid=445b81fc-5a7d-41e7-b072-52069b7c18ee","ios":"levelo://app?vid=445b81fc-5a7d-41e7-b072-52069b7c18ee"},"vehicle_type_id":"4","last_reported":1687979165,"current_range_meters":30800,"station_id":"ce4bhqh2rcd13ifvqhmg","pricing_plan_id":"free"},{"bike_id":"ee8e7cca-aee9-4590-806a-0e1f16d7b642","system_id":"levelo_inurba_marseille","lat":43.33614,"lon":5.41027,"is_reserved":false,"is_disabled":false,"rental_uris":{"android":"levelo://app?vid=ee8e7cca-aee9-4590-806a-0e1f16d7b642","ios":"levelo://app?vid=ee8e7cca-aee9-4590-806a-0e1f16d7b642"},"vehicle_type_id":"4","last_reported":1687979165,"current_range_meters":29200,"station_id":"ce4bhqh2rcd13ifvqhmg","pricing_plan_id":"free"},{"bike_id":"dae024fd-c6eb-4e2b-a8d1-bf98a284f816","system_id":"levelo_inurba_marseille","lat":43.275625,"lon":5.384392,"is_reserved":false,"is_disabled":false,"rental_uris":{"android":"levelo://app?vid=dae024fd-c6eb-4e2b-a8d1-bf98a284f816","ios":"levelo://app?vid=dae024fd-c6eb-4e2b-a8d1-bf98a284f816"},"vehicle_type_id":"4","last_reported":1687979165,"current_range_meters":7200,"station_id":"ce4bhh92rcd13ifvqfi0","pricing_plan_id":"free"},{"bike_id":"9bb069af-df01-4543-a701-9ed84afc6909","system_id":"levelo_inurba_marseille","lat":43.276771,"lon":5.388799,"is_reserved":false,"is_disabled":false,"rental_uris":{"android":"levelo://app?vid=9bb069af-df01-4543-a701-9ed84afc6909","ios":"levelo://app?vid=9bb069af-df01-4543-a701-9ed84afc6909"},"vehicle_type_id":"4","last_reported":1687979165,"current_range_meters":0,"station_id":"ce4bhi12rcd13ifvqfo0","pricing_plan_id":"free"},{"bike_id":"54e17aed-c307-4dd1-b4ce-d55626b4eaba","system_id":"levelo_inurba_marseille","lat":43.2987,"lon":5.42065,"is_reserved":false,"is_disabled":false,"rental_uris":{"android":"levelo://app?vid=54e17aed-c307-4dd1-b4ce-d55626b4eaba","ios":"levelo://app?vid=54e17aed-c307-4dd1-b4ce-d55626b4eaba"},"vehicle_type_id":"4","last_reported":1687979165,"current_range_meters":21200,"station_id":"","pricing_plan_id":"free"},{"bike_id":"a734d080-9b3f-483d-8240-e756bbdc7124","system_id":"levelo_inurba_marseille","lat":43.31079,"lon":5.4243,"is_reserved":false,"is_disabled":false,"rental_uris":{"android":"levelo://app?vid=a734d080-9b3f-483d-8240-e756bbdc7124","ios":"levelo://app?vid=a734d080-9b3f-483d-8240-e756bbdc7124"},"vehicle_type_id":"4","last_reported":1687979165,"current_range_meters":0,"station_id":"ce4bhp92rcd13ifvqhag","pricing_plan_id":"free"},{"bike_id":"6502e8f2-9ef2-4f7c-93d3-57eda73ea011","system_id":"levelo_inurba_marseille","lat":43.31079,"lon":5.42432,"is_reserved":false,"is_disabled":false,"rental_uris":{"android":"levelo://app?vid=6502e8f2-9ef2-4f7c-93d3-57eda73ea011","ios":"levelo://app?vid=6502e8f2-9ef2-4f7c-93d3-57eda73ea011"},"vehicle_type_id":"4","last_reported":1687979165,"current_range_meters":2000,"station_id":"ce4bhp92rcd13ifvqhag","pricing_plan_id":"free"},{"bike_id":"1101ac64-265d-4623-8bfc-75daca606a3f","system_id":"levelo_inurba_marseille","lat":43.304096,"lon":5.425385,"is_reserved":false,"is_disabled":false,"rental_uris":{"android":"levelo://app?vid=1101ac64-265d-4623-8bfc-75daca606a3f","ios":"levelo://app?vid=1101ac64-265d-4623-8bfc-75daca606a3f"},"vehicle_type_id":"4","last_reported":1687979165,"current_range_meters":5600,"station_id":"ce4bhoh2rcd13ifvqh6g","pricing_plan_id":"free"},{"bike_id":"84477013-6f8e-4764-95ef-2e6dd6668c8c","system_id":"levelo_inurba_marseille","lat":43.304096,"lon":5.425385,"is_reserved":false,"is_disabled":false,"rental_uris":{"android":"levelo://app?vid=84477013-6f8e-4764-95ef-2e6dd6668c8c","ios":"levelo://app?vid=84477013-6f8e-4764-95ef-2e6dd6668c8c"},"vehicle_type_id":"4","last_reported":1687979165,"current_range_meters":4800,"station_id":"ce4bhoh2rcd13ifvqh6g","pricing_plan_id":"free"},{"bike_id":"f9861525-83b0-4b81-a8ab-afc36cb5d643","system_id":"levelo_inurba_marseille","lat":43.295523,"lon":5.422926,"is_reserved":false,"is_disabled":false,"rental_uris":{"android":"levelo://app?vid=f9861525-83b0-4b81-a8ab-afc36cb5d643","ios":"levelo://app?vid=f9861525-83b0-4b81-a8ab-afc36cb5d643"},"vehicle_type_id":"4","last_reported":1687979165,"current_range_meters":27200,"station_id":"ce4bhph2rcd13ifvqhdg","pricing_plan_id":"free"},{"bike_id":"20482ba1-d029-448d-9f7e-1174d68146bd","system_id":"levelo_inurba_marseille","lat":43.29556,"lon":5.42295,"is_reserved":false,"is_disabled":false,"rental_uris":{"android":"levelo://app?vid=20482ba1-d029-448d-9f7e-1174d68146bd","ios":"levelo://app?vid=20482ba1-d029-448d-9f7e-1174d68146bd"},"vehicle_type_id":"4","last_reported":1687979165,"current_range_meters":4000,"station_id":"ce4bhph2rcd13ifvqhdg","pricing_plan_id":"free"},{"bike_id":"f64afd91-4214-468c-850b-8e11eb0e66a7","system_id":"levelo_inurba_marseille","lat":43.272116,"lon":5.391763,"is_reserved":false,"is_disabled":false,"rental_uris":{"android":"levelo://app?vid=f64afd91-4214-468c-850b-8e11eb0e66a7","ios":"levelo://app?vid=f64afd91-4214-468c-850b-8e11eb0e66a7"},"vehicle_type_id":"4","last_reported":1687979165,"current_range_meters":9600,"station_id":"ce4bhhp2rcd13ifvqfm0","pricing_plan_id":"free"},{"bike_id":"1b4b4608-1565-43cd-98be-9268ca1f953f","system_id":"levelo_inurba_marseille","lat":43.272116,"lon":5.391763,"is_reserved":false,"is_disabled":false,"rental_uris":{"android":"levelo://app?vid=1b4b4608-1565-43cd-98be-9268ca1f953f","ios":"levelo://app?vid=1b4b4608-1565-43cd-98be-9268ca1f953f"},"vehicle_type_id":"4","last_reported":1687979165,"current_range_meters":7200,"station_id":"ce4bhhp2rcd13ifvqfm0","pricing_plan_id":"free"},{"bike_id":"4554fbd4-b39b-41d5-9704-94684b62dcc6","system_id":"levelo_inurba_marseille","lat":43.27209,"lon":5.39188,"is_reserved":false,"is_disabled":false,"rental_uris":{"android":"levelo://app?vid=4554fbd4-b39b-41d5-9704-94684b62dcc6","ios":"levelo://app?vid=4554fbd4-b39b-41d5-9704-94684b62dcc6"},"vehicle_type_id":"4","last_reported":1687979165,"current_range_meters":0,"station_id":"ce4bhhp2rcd13ifvqfm0","pricing_plan_id":"free"},